{"data": {"bikes": [{"rental_uris": {"ios": "https://dc.lft.to/lastmile_qr_scan", "android": "https://dc.lft.to/lastmile_qr_scan"}, "type": "electric_scooter", "name": "4d112f1f02cd4beac2b9a936b12544a1", "is_reserved": 0, "lon": -76.99932616666666, "is_disabled": 0, "fusion_lat": 0.0, "lat": 38.891610166666666, "bike_id": "4d112f1f02cd4beac2b9a936b12544a1", "fusion_lon": 0.0}, {"rental_uris": {"ios": "https://dc.lft.to/lastmile_qr_scan", "android": "https://dc.lft.to/lastmile_qr_scan"}, "type": "electric_bike", "name": "8c04f5bb58a23dac71ea10284b42ac46", "is_reserved": 0, "lon": -76.99405033333333, "is_disabled": 0, "fusion_lat": 0.0, "lat": 38.83142466666666, "bike_id": "8c04f5bb58a23dac71ea10284b42ac46", "fusion_lon": 0.0}, {"rental_uris": {"ios": "https://dc.lft.to/lastmile_qr_scan", "android": "https://dc.lft.to/lastmile_qr_scan"}, "type": "electric_bike", "name": "a5e430383a707c8ebfbcc6bbf3056d8f", "is_reserved": 0, "lon": -77.00404533333334, "is_disabled": 0, "fusion_lat": 0.0, "lat": 38.985415, "bike_id": "a5e430383a707c8ebfbcc6bbf3056d8f", "fusion_lon": 0.0}, {"rental_uris": {"ios": "https://dc.lft.to/lastmile_qr_scan", "android": "https://dc.lft.to/lastmile_qr_scan"}, "type": "electric_scooter", "name": "6d942a1804b1f37287081c6c41dd6308", "is_reserved": 0, "lon": -77.0022665, "is_disabled": 0, "fusion_lat": 0.0, "lat": 38.900190333333335, "bike_id": "6d942a1804b1f37287081c6c41dd6308", "fusion_lon": 0.0}, {"rental_uris": {"ios": "https://dc.lft.to/lastmile_qr_scan", "android": "https://dc.lft.to/lastmile_qr_scan"}, "type": "electric_scooter", "name": "f0cf80c43199ba74e8b6906d16c5222d", "is_reserved": 0, "lon": -76.93816016666666, "is_disabled": 0, "fusion_lat": 0.0, "lat": 38.89844183333334, "bike_id": "f0cf80c43199ba74e8b6906d16c5222d", "fusion_lon": 0.0}, {"rental_uris": {"ios": "https://dc.lft.to/lastmile_qr_scan", "android": "https://dc.lft.to/lastmile_qr_scan"}, "type": "electric_scooter", "name": "c2d315b247217b4dc1d045c4b0109d5e", "is_reserved": 0, "lon": -77.046536, "is_disabled": 0, "fusion_lat": 0.0, "lat": 38.90646183333333, "bike_id": "c2d315b247217b4dc1d045c4b0109d5e", "fusion_lon": 0.0}, {"rental_uris": {"ios": "https://dc.lft.to/lastmile_qr_scan", "android": "https://dc.lft.to/lastmile_qr_scan"}, "type": "electric_bike", "name": "897a1ad402338f710dd524ad43ce15a0", "is_reserved": 0, "lon": -77.09818466666667, "is_disabled": 0, "fusion_lat": 0.0, "lat": 38.85016683333333, "bike_id": "897a1ad402338f710dd524ad43ce15a0", "fusion_lon": 0.0}, {"rental_uris": {"ios": "https://dc.lft.to/lastmile_qr_scan", "android": "https://dc.lft.to/lastmile_qr_scan"}, "type": "electric_scooter", "name": "08c79c9b548b338daf7fb2bc2f27f895", "is_reserved": 0, "lon": -77.01318933333333, "is_disabled": 0, "fusion_lat": 0.0, "lat": 38.896137, "bike_id": "08c79c9b548b338daf7fb2bc2f27f895", "fusion_lon": 0.0}, {"rental_uris": {"ios": "https://dc.lft.to/lastmile_qr_scan", "android": "https://dc.lft.to/lastmile_qr_scan"}, "type": "electric_scooter", "name": "5e24ecabea88a848e96e8357e506445f", "is_reserved": 0, "lon": -77.044, "is_disabled": 0, "fusion_lat": 0.0, "lat": 38.92945916666667, "bike_id": "5e24ecabea88a848e96e8357e506445f", "fusion_lon": 0.0}, {"rental_uris": {"ios": "https://dc.lft.to/lastmile_qr_scan", "android": "https://dc.lft.to/lastmile_qr_scan"}, "type": "electric_scooter", "name": "4e74b696df575154f23b553ff25a9e8c", "is_reserved": 0, "lon": -77.01872783333333, "is_disabled": 0, "fusion_lat": 0.0, "lat": 38.9126525, "bike_id": "4e74b696df575154f23b553ff25a9e8c", "fusion_lon": 0.0}, {"rental_uris": {"ios": "https://dc.lft.to/lastmile_qr_scan", "android": "https://dc.lft.to/lastmile_qr_scan"}, "type": "electric_scooter", "name": "983f11e595791f43f6f38c395f3c79c0", "is_reserved": 0, "lon": -77.04267933333334, "is_disabled": 0, "fusion_lat": 0.0, "lat": 38.9043205, "bike_id": "983f11e595791f43f6f38c395f3c79c0", "fusion_lon": 0.0}, {"rental_uris": {"ios": "https://dc.lft.to/lastmile_qr_scan", "android": "https://dc.lft.to/lastmile_qr_scan"}, "type": "electric_scooter", "name": "8f45cd15d9ca8a409155131e8a19652b", "is_reserved": 0, "lon": -77.021334, "is_disabled": 0, "fusion_lat": 0.0, "lat": 38.897448, "bike_id": "8f45cd15d9ca8a409155131e8a19652b", "fusion_lon": 0.0}, {"rental_uris": {"ios": "https://dc.lft.to/lastmile_qr_scan", "android": "https://dc.lft.to/lastmile_qr_scan"}, "type": "electric_scooter", "name": "5a60207f3866c021f94effc32809d2e3", "is_reserved": 0, "lon": -76.987047, "is_disabled": 0, "fusion_lat": 0.0, "lat": 38.859588333333335, "bike_id": "5a60207f3866c021f94effc32809d2e3", "fusion_lon": 0.0}, {"rental_uris": {"ios": "https://dc.lft.to/lastmile_qr_scan", "android": "https://dc.lft.to/lastmile_qr_scan"}, "type": "electric_scooter", "name": "73c52535191b48101f4653b082a791d7", "is_reserved": 0, "lon": -77.0220465, "is_disabled": 0, "fusion_lat": 0.0, "lat": 38.895007666666665, "bike_id": "73c52535191b48101f4653b082a791d7", "fusion_lon": 0.0}, {"rental_uris": {"ios": "https://dc.lft.to/lastmile_qr_scan", "android": "https://dc.lft.to/lastmile_qr_scan"}, "type": "electric_scooter", "name": "9f89ac546ed258f1ecb53c143ce20ebe", "is_reserved": 0, "lon": -77.03469833333334, "is_disabled": 0, "fusion_lat": 0.0, "lat": 38.916923, "bike_id": "9f89ac546ed258f1ecb53c143ce20ebe", "fusion_lon": 0.0}, {"rental_uris": {"ios": "https://dc.lft.to/lastmile_qr_scan", "android": "https://dc.lft.to/lastmile_qr_scan"}, "type": "electric_scooter", "name": "ff9513b455b9dd2da532c617c1a0b05e", "is_reserved": 0, "lon": -76.97355683333333, "is_disabled": 0, "fusion_lat": 0.0, "lat": 38.85019483333333, "bike_id": "ff9513b455b9dd2da532c617c1a0b05e", "fusion_lon": 0.0}, {"rental_uris": {"ios": "https://dc.lft.to/lastmile_qr_scan", "android": "https://dc.lft.to/lastmile_qr_scan"}, "type": "electric_scooter", "name": "4304bf33f376ae960a2d15928fb847e8", "is_reserved": 0, "lon": -77.00787616666666, "is_disabled": 0, "fusion_lat": 0.0, "lat": 38.90965516666667, "bike_id": "4304bf33f376ae960a2d15928fb847e8", "fusion_lon": 0.0}, {"rental_uris": {"ios": "https://dc.lft.to/lastmile_qr_scan", "android": "https://dc.lft.to/lastmile_qr_scan"}, "type": "electric_scooter", "name": "928aeea169e090adf1f79601f5b9acc2", "is_reserved": 0, "lon": -77.00059216666666, "is_disabled": 0, "fusion_lat": 0.0, "lat": 38.873718833333335, "bike_id": "928aeea169e090adf1f79601f5b9acc2", "fusion_lon": 0.0}, {"rental_uris": {"ios": "https://dc.lft.to/lastmile_qr_scan", "android": "https://dc.lft.to/lastmile_qr_scan"}, "type": "electric_scooter", "name": "3a47a026533e99164b22a7b65408d545", "is_reserved": 0, "lon": -77.08194633333333, "is_disabled": 0, "fusion_lat": 0.0, "lat": 38.933339, "bike_id": "3a47a026533e99164b22a7b65408d545", "fusion_lon": 0.0}, {"rental_uris": {"ios": "https://dc.lft.to/lastmile_qr_scan", "android": "https://dc.lft.to/lastmile_qr_scan"}, "type": "electric_scooter", "name": "ae5d108fcbbad981d6b1cfe8e421dac5", "is_reserved": 0, "lon": -77.05964333333333, "is_disabled": 0, "fusion_lat": 0.0, "lat": 38.910494166666666, "bike_id": "ae5d108fcbbad981d6b1cfe8e421dac5", "fusion_lon": 0.0}, {"rental_uris": {"ios": "https://dc.lft.to/lastmile_qr_scan", "android": "https://dc.lft.to/lastmile_qr_scan"}, "type": "electric_scooter", "name": "8effd3193a47381b1901bc57e9c00e96", "is_reserved": 0, "lon": -77.04357266666666, "is_disabled": 0, "fusion_lat": 0.0, "lat": 38.913419833333336, "bike_id": "8effd3193a47381b1901bc57e9c00e96", "fusion_lon": 0.0}, {"rental_uris": {"ios": "https://dc.lft.to/lastmile_qr_scan", "android": "https://dc.lft.to/lastmile_qr_scan"}, "type": "electric_scooter", "name": "1d5da1d656258b3571776f87f71ad5cd", "is_reserved": 0, "lon": -76.95449483333333, "is_disabled": 0, "fusion_lat": 0.0, "lat": 38.883934333333336, "bike_id": "1d5da1d656258b3571776f87f71ad5cd", "fusion_lon": 0.0}, {"rental_uris": {"ios": "https://dc.lft.to/lastmile_qr_scan", "android": "https://dc.lft.to/lastmile_qr_scan"}, "type": "electric_scooter", "name": "1cbfacf07202fcb62b0bffc34117f4d8", "is_reserved": 0, "lon": -77.03858983333333, "is_disabled": 0, "fusion_lat": 0.0, "lat": 38.912709666666665, "bike_id": "1cbfacf07202fcb62b0bffc34117f4d8", "fusion_lon": 0.0}, {"rental_uris": {"ios": "https://dc.lft.to/lastmile_qr_scan", "android": "https://dc.lft.to/lastmile_qr_scan"}, "type": "electric_scooter", "name": "925b9526b50f1c6be940ce9c2edfe6eb", "is_reserved": 0, "lon": -77.03209116666666, "is_disabled": 0, "fusion_lat": 0.0, "lat": 38.913139, "bike_id": "925b9526b50f1c6be940ce9c2edfe6eb", "fusion_lon": 0.0}, {"rental_uris": {"ios": "https://dc.lft.to/lastmile_qr_scan", "android": "https://dc.lft.to/lastmile_qr_scan"}, "type": "electric_scooter", "name": "b2aa79103b634dee005d2105556a7f91", "is_reserved": 0, "lon": -76.99512166666666, "is_disabled": 0, "fusion_lat": 0.0, "lat": 38.8898525, "bike_id": "b2aa79103b634dee005d2105556a7f91", "fusion_lon": 0.0}, {"rental_uris": {"ios": "https://dc.lft.to/lastmile_qr_scan", "android": "https://dc.lft.to/lastmile_qr_scan"}, "type": "electric_scooter", "name": "a89c3b77e0043fe250d70843b6f4cd7f", "is_reserved": 0, "lon": -76.99494716666666, "is_disabled": 0, "fusion_lat": 0.0, "lat": 38.882213666666665, "bike_id": "a89c3b77e0043fe250d70843b6f4cd7f", "fusion_lon": 0.0}, {"rental_uris": {"ios": "https://dc.lft.to/lastmile_qr_scan", "android": "https://dc.lft.to/lastmile_qr_scan"}, "type": "electric_scooter", "name": "52e3adca32cb0052fe6bc92c3be8d5ef", "is_reserved": 0, "lon": -77.03588116666667, "is_disabled": 0, "fusion_lat": 0.0, "lat": 38.928553666666666, "bike_id": "52e3adca32cb0052fe6bc92c3be8d5ef", "fusion_lon": 0.0}, {"rental_uris": {"ios": "https://dc.lft.to/lastmile_qr_scan", "android": "https://dc.lft.to/lastmile_qr_scan"}, "type": "electric_bike", "name": "98780ddf1d161a98519d2a1b5564765c", "is_reserved": 0, "lon": -77.01220766666667, "is_disabled": 0, "fusion_lat": 0.0, "lat": 38.871799833333334, "bike_id": "98780ddf1d161a98519d2a1b5564765c", "fusion_lon": 0.0}, {"rental_uris": {"ios": "https://dc.lft.to/lastmile_qr_scan", "android": "https://dc.lft.to/lastmile_qr_scan"}, "type": "electric_scooter", "name": "ad0fc0db75b209d36dc84c135a50aa7c", "is_reserved": 0, "lon": -77.04361683333333, "is_disabled": 0, "fusion_lat": 0.0, "lat": 38.92240366666667, "bike_id": "ad0fc0db75b209d36dc84c135a50aa7c", "fusion_lon": 0.0}, {"rental_uris": {"ios": "https://dc.lft.to/lastmile_qr_scan", "android": "https://dc.lft.to/lastmile_qr_scan"}, "type": "electric_bike", "name": "0ac53ec69aea35847f0d68f985eb72e6", "is_reserved": 0, "lon": -77.1290965, "is_disabled": 0, "fusion_lat": 0.0, "lat": 38.799706, "bike_id": "0ac53ec69aea35847f0d68f985eb72e6", "fusion_lon": 0.0}, {"rental_uris": {"ios": "https://dc.lft.to/lastmile_qr_scan", "android": "https://dc.lft.to/lastmile_qr_scan"}, "type": "electric_scooter", "name": "a70e5a24bb0c6937602b4f44ec2ecd2d", "is_reserved": 0, "lon": -77.05233983333333, "is_disabled": 0, "fusion_lat": 0.0, "lat": 38.924547833333335, "bike_id": "a70e5a24bb0c6937602b4f44ec2ecd2d", "fusion_lon": 0.0}, {"rental_uris": {"ios": "https://dc.lft.to/lastmile_qr_scan", "android": "https://dc.lft.to/lastmile_qr_scan"}, "type": "electric_bike", "name": "c971744b60b134b610742602aa999986", "is_reserved": 0, "lon": -76.918046, "is_disabled": 0, "fusion_lat": 0.0, "lat": 38.999973833333335, "bike_id": "c971744b60b134b610742602aa999986", "fusion_lon": 0.0}, {"rental_uris": {"ios": "https://dc.lft.to/lastmile_qr_scan", "android": "https://dc.lft.to/lastmile_qr_scan"}, "type": "electric_scooter", "name": "83af3a12efb6fd1887f6b332a414cf1b", "is_reserved": 0, "lon": -77.00646433333333, "is_disabled": 0, "fusion_lat": 0.0, "lat": 38.8766065, "bike_id": "83af3a12efb6fd1887f6b332a414cf1b", "fusion_lon": 0.0}, {"rental_uris": {"ios": "https://dc.lft.to/lastmile_qr_scan", "android": "https://dc.lft.to/lastmile_qr_scan"}, "type": "electric_bike", "name": "86c85d9523cedc7e5e8004a6ad1be9d4", "is_reserved": 0, "lon": -76.9876625, "is_disabled": 0, "fusion_lat": 0.0, "lat": 38.85766683333333, "bike_id": "86c85d9523cedc7e5e8004a6ad1be9d4", "fusion_lon": 0.0}, {"rental_uris": {"ios": "https://dc.lft.to/lastmile_qr_scan", "android": "https://dc.lft.to/lastmile_qr_scan"}, "type": "electric_scooter", "name": "7f38c8cc479aa56f6cd3ac937cbab45d", "is_reserved": 0, "lon": -77.037264, "is_disabled": 0, "fusion_lat": 0.0, "lat": 38.92644466666667, "bike_id": "7f38c8cc479aa56f6cd3ac937cbab45d", "fusion_lon": 0.0}, {"rental_uris": {"ios": "https://dc.lft.to/lastmile_qr_scan", "android": "https://dc.lft.to/lastmile_qr_scan"}, "type": "electric_scooter", "name": "9970acdd665ec7494021ac4313dfc664", "is_reserved": 0, "lon": -77.044837, "is_disabled": 0, "fusion_lat": 0.0, "lat": 38.900098166666666, "bike_id": "9970acdd665ec7494021ac4313dfc664", "fusion_lon": 0.0}, {"rental_uris": {"ios": "https://dc.lft.to/lastmile_qr_scan", "android": "https://dc.lft.to/lastmile_qr_scan"}, "type": "electric_scooter", "name": "4606c264ac69a619edbd54af1df4c11b", "is_reserved": 0, "lon": -77.01980683333333, "is_disabled": 0, "fusion_lat": 0.0, "lat": 38.887176833333335, "bike_id": "4606c264ac69a619edbd54af1df4c11b", "fusion_lon": 0.0}, {"rental_uris": {"ios": "https://dc.lft.to/lastmile_qr_scan", "android": "https://dc.lft.to/lastmile_qr_scan"}, "type": "electric_scooter", "name": "5ea2a18f8ee3dbb146a07c70971b5b57", "is_reserved": 0, "lon": -76.98375716666666, "is_disabled": 0, "fusion_lat": 0.0, "lat": 38.89971533333333, "bike_id": "5ea2a18f8ee3dbb146a07c70971b5b57", "fusion_lon": 0.0}, {"rental_uris": {"ios": "https://dc.lft.to/lastmile_qr_scan", "android": "https://dc.lft.to/lastmile_qr_scan"}, "type": "electric_scooter", "name": "8de0f2f046ee045f1e67f1e65f21a1ff", "is_reserved": 0, "lon": -77.02701283333333, "is_disabled": 0, "fusion_lat": 0.0, "lat": 38.895726833333335, "bike_id": "8de0f2f046ee045f1e67f1e65f21a1ff", "fusion_lon": 0.0}, {"rental_uris": {"ios": "https://dc.lft.to/lastmile_qr_scan", "android": "https://dc.lft.to/lastmile_qr_scan"}, "type": "electric_scooter", "name": "021a005f8dcc2de6a21268c3267bbbaf", "is_reserved": 0, "lon": -77.02206016666666, "is_disabled": 0, "fusion_lat": 0.0, "lat": 38.910979833333336, "bike_id": "021a005f8dcc2de6a21268c3267bbbaf", "fusion_lon": 0.0}, {"rental_uris": {"ios": "https://dc.lft.to/lastmile_qr_scan", "android": "https://dc.lft.to/lastmile_qr_scan"}, "type": "electric_scooter", "name": "3dc4d50293ad27fb0b3efcd11be732e8", "is_reserved": 0, "lon": -77.03462983333333, "is_disabled": 0, "fusion_lat": 0.0, "lat": 38.908385333333335, "bike_id": "3dc4d50293ad27fb0b3efcd11be732e8", "fusion_lon": 0.0}, {"rental_uris": {"ios": "https://dc.lft.to/lastmile_qr_scan", "android": "https://dc.lft.to/lastmile_qr_scan"}, "type": "electric_scooter", "name": "fc8101c25c39309696cf9f6624f1ca73", "is_reserved": 0, "lon": -77.0446375, "is_disabled": 0, "fusion_lat": 0.0, "lat": 38.924675666666666, "bike_id": "fc8101c25c39309696cf9f6624f1ca73", "fusion_lon": 0.0}, {"rental_uris": {"ios": "https://dc.lft.to/lastmile_qr_scan", "android": "https://dc.lft.to/lastmile_qr_scan"}, "type": "electric_scooter", "name": "6e5e0c2a7a58c7ccf01ac268e3fb2f4c", "is_reserved": 0, "lon": -76.997402, "is_disabled": 0, "fusion_lat": 0.0, "lat": 38.9012375, "bike_id": "6e5e0c2a7a58c7ccf01ac268e3fb2f4c", "fusion_lon": 0.0}, {"rental_uris": {"ios": "https://dc.lft.to/lastmile_qr_scan", "android": "https://dc.lft.to/lastmile_qr_scan"}, "type": "electric_scooter", "name": "4063df98a955b279aef95301c205cad6", "is_reserved": 0, "lon": -77.031659, "is_disabled": 0, "fusion_lat": 0.0, "lat": 38.894571166666665, "bike_id": "4063df98a955b279aef95301c205cad6", "fusion_lon": 0.0}, {"rental_uris": {"ios": "https://dc.lft.to/lastmile_qr_scan", "android": "https://dc.lft.to/lastmile_qr_scan"}, "type": "electric_scooter", "name": "afbcfb663d15bad814ca3fef9f1d45f1", "is_reserved": 0, "lon": -77.01125266666666, "is_disabled": 0, "fusion_lat": 0.0, "lat": 38.89552483333333, "bike_id": "afbcfb663d15bad814ca3fef9f1d45f1", "fusion_lon": 0.0}, {"rental_uris": {"ios": "https://dc.lft.to/lastmile_qr_scan", "android": "https://dc.lft.to/lastmile_qr_scan"}, "type": "electric_bike", "name": "d776e90b9abd98dee7595291e92491f1", "is_reserved": 0, "lon": -77.01197683333334, "is_disabled": 0, "fusion_lat": 0.0, "lat": 38.95066966666667, "bike_id": "d776e90b9abd98dee7595291e92491f1", "fusion_lon": 0.0}, {"rental_uris": {"ios": "https://dc.lft.to/lastmile_qr_scan", "android": "https://dc.lft.to/lastmile_qr_scan"}, "type": "electric_scooter", "name": "f79d2f7346396b7a544333168fd314b3", "is_reserved": 0, "lon": -77.06565116666667, "is_disabled": 0, "fusion_lat": 0.0, "lat": 38.883360333333336, "bike_id": "f79d2f7346396b7a544333168fd314b3", "fusion_lon": 0.0}, {"rental_uris": {"ios": "https://dc.lft.to/lastmile_qr_scan", "android": "https://dc.lft.to/lastmile_qr_scan"}, "type": "electric_scooter", "name": "bfa61f57275c947fe78f4274693499e1", "is_reserved": 0, "lon": -76.99626866666667, "is_disabled": 0, "fusion_lat": 0.0, "lat": 38.87733716666666, "bike_id": "bfa61f57275c947fe78f4274693499e1", "fusion_lon": 0.0}, {"rental_uris": {"ios": "https://dc.lft.to/lastmile_qr_scan", "android": "https://dc.lft.to/lastmile_qr_scan"}, "type": "electric_scooter", "name": "bcfe1386463f4deeed4ffaaff974d1bd", "is_reserved": 0, "lon": -77.02962833333333, "is_disabled": 0, "fusion_lat": 0.0, "lat": 38.916697, "bike_id": "bcfe1386463f4deeed4ffaaff974d1bd", "fusion_lon": 0.0}, {"rental_uris": {"ios": "https://dc.lft.to/lastmile_qr_scan", "android": "https://dc.lft.to/lastmile_qr_scan"}, "type": "electric_bike", "name": "fffab3350c6e36b0e15d068e6bee1044", "is_reserved": 0, "lon": -77.05270866666666, "is_disabled": 0, "fusion_lat": 0.0, "lat": 38.94087666666667, "bike_id": "fffab3350c6e36b0e15d068e6bee1044", "fusion_lon": 0.0}, {"rental_uris": {"ios": "https://dc.lft.to/lastmile_qr_scan", "android": "https://dc.lft.to/lastmile_qr_scan"}, "type": "electric_scooter", "name": "6cfed3b6052165dd5891b7f7ad0ba0f7", "is_reserved": 0, "lon": -77.0313595, "is_disabled": 0, "fusion_lat": 0.0, "lat": 38.923862166666666, "bike_id": "6cfed3b6052165dd5891b7f7ad0ba0f7", "fusion_lon": 0.0}, {"rental_uris": {"ios": "https://dc.lft.to/lastmile_qr_scan", "android": "https://dc.lft.to/lastmile_qr_scan"}, "type": "electric_scooter", "name": "6327fc624ddee87341e169e144af7016", "is_reserved": 0, "lon": -77.03359366666666, "is_disabled": 0, "fusion_lat": 0.0, "lat": 38.897959166666666, "bike_id": "6327fc624ddee87341e169e144af7016", "fusion_lon": 0.0}, {"rental_uris": {"ios": "https://dc.lft.to/lastmile_qr_scan", "android": "https://dc.lft.to/lastmile_qr_scan"}, "type": "electric_scooter", "name": "6add2146dcda384d65b72375702b2124", "is_reserved": 0, "lon": -77.04905966666666, "is_disabled": 0, "fusion_lat": 0.0, "lat": 38.897265833333336, "bike_id": "6add2146dcda384d65b72375702b2124", "fusion_lon": 0.0}, {"rental_uris": {"ios": "https://dc.lft.to/lastmile_qr_scan", "android": "https://dc.lft.to/lastmile_qr_scan"}, "type": "electric_scooter", "name": "e6430be9c491948bbbec7878043b8d53", "is_reserved": 0, "lon": -77.03916633333333, "is_disabled": 0, "fusion_lat": 0.0, "lat": 38.924716333333336, "bike_id": "e6430be9c491948bbbec7878043b8d53", "fusion_lon": 0.0}, {"rental_uris": {"ios": "https://dc.lft.to/lastmile_qr_scan", "android": "https://dc.lft.to/lastmile_qr_scan"}, "type": "electric_scooter", "name": "a3c3d7819f53e24c6e5334acc22ad0b6", "is_reserved": 0, "lon": -76.994982, "is_disabled": 0, "fusion_lat": 0.0, "lat": 38.8810875, "bike_id": "a3c3d7819f53e24c6e5334acc22ad0b6", "fusion_lon": 0.0}, {"rental_uris": {"ios": "https://dc.lft.to/lastmile_qr_scan", "android": "https://dc.lft.to/lastmile_qr_scan"}, "type": "electric_bike", "name": "bfb4b110f8a6869b83a63f1a500b2b53", "is_reserved": 0, "lon": -77.02088766666667, "is_disabled": 0, "fusion_lat": 0.0, "lat": 38.95843683333333, "bike_id": "bfb4b110f8a6869b83a63f1a500b2b53", "fusion_lon": 0.0}, {"rental_uris": {"ios": "https://dc.lft.to/lastmile_qr_scan", "android": "https://dc.lft.to/lastmile_qr_scan"}, "type": "electric_scooter", "name": "de7c9c11e79608931b526ab745a74e0a", "is_reserved": 0, "lon": -77.0555835, "is_disabled": 0, "fusion_lat": 0.0, "lat": 38.899939333333336, "bike_id": "de7c9c11e79608931b526ab745a74e0a", "fusion_lon": 0.0}, {"rental_uris": {"ios": "https://dc.lft.to/lastmile_qr_scan", "android": "https://dc.lft.to/lastmile_qr_scan"}, "type": "electric_scooter", "name": "3fe164727946f29207a909dd56999503", "is_reserved": 0, "lon": -77.02836433333333, "is_disabled": 0, "fusion_lat": 0.0, "lat": 38.887296166666665, "bike_id": "3fe164727946f29207a909dd56999503", "fusion_lon": 0.0}, {"rental_uris": {"ios": "https://dc.lft.to/lastmile_qr_scan", "android": "https://dc.lft.to/lastmile_qr_scan"}, "type": "electric_scooter", "name": "2bd3df6670760fe0e4c0a20d19fcaf63", "is_reserved": 0, "lon": -77.0118905, "is_disabled": 0, "fusion_lat": 0.0, "lat": 38.91549716666667, "bike_id": "2bd3df6670760fe0e4c0a20d19fcaf63", "fusion_lon": 0.0}, {"rental_uris": {"ios": "https://dc.lft.to/lastmile_qr_scan", "android": "https://dc.lft.to/lastmile_qr_scan"}, "type": "electric_scooter", "name": "b44244f66b11dea1c3cc1ae392a6491a", "is_reserved": 0, "lon": -77.0275365, "is_disabled": 0, "fusion_lat": 0.0, "lat": 38.90488116666667, "bike_id": "b44244f66b11dea1c3cc1ae392a6491a", "fusion_lon": 0.0}, {"rental_uris": {"ios": "https://dc.lft.to/lastmile_qr_scan", "android": "https://dc.lft.to/lastmile_qr_scan"}, "type": "electric_bike", "name": "a0cfd8e1f6aa254274ad03b7db00b881", "is_reserved": 0, "lon": -77.08978783333333, "is_disabled": 0, "fusion_lat": 0.0, "lat": 38.91174633333333, "bike_id": "a0cfd8e1f6aa254274ad03b7db00b881", "fusion_lon": 0.0}, {"rental_uris": {"ios": "https://dc.lft.to/lastmile_qr_scan", "android": "https://dc.lft.to/lastmile_qr_scan"}, "type": "electric_scooter", "name": "bb218878e1defbfdcf83ada514053edf", "is_reserved": 0, "lon": -77.0066745, "is_disabled": 0, "fusion_lat": 0.0, "lat": 38.900011166666665, "bike_id": "bb218878e1defbfdcf83ada514053edf", "fusion_lon": 0.0}, {"rental_uris": {"ios": "https://dc.lft.to/lastmile_qr_scan", "android": "https://dc.lft.to/lastmile_qr_scan"}, "type": "electric_scooter", "name": "5b4bd390a2611a53b2eb069375960086", "is_reserved": 0, "lon": -77.0187635, "is_disabled": 0, "fusion_lat": 0.0, "lat": 38.91415583333333, "bike_id": "5b4bd390a2611a53b2eb069375960086", "fusion_lon": 0.0}, {"rental_uris": {"ios": "https://dc.lft.to/lastmile_qr_scan", "android": "https://dc.lft.to/lastmile_qr_scan"}, "type": "electric_scooter", "name": "2b519852cb880a7f39e19cac7236d65b", "is_reserved": 0, "lon": -77.07822183333333, "is_disabled": 0, "fusion_lat": 0.0, "lat": 38.922568166666665, "bike_id": "2b519852cb880a7f39e19cac7236d65b", "fusion_lon": 0.0}, {"rental_uris": {"ios": "https://dc.lft.to/lastmile_qr_scan", "android": "https://dc.lft.to/lastmile_qr_scan"}, "type": "electric_scooter", "name": "70aa2dce17ab69847eb9d1327783bd7f", "is_reserved": 0, "lon": -77.02704866666667, "is_disabled": 0, "fusion_lat": 0.0, "lat": 38.900636666666664, "bike_id": "70aa2dce17ab69847eb9d1327783bd7f", "fusion_lon": 0.0}, {"rental_uris": {"ios": "https://dc.lft.to/lastmile_qr_scan", "android": "https://dc.lft.to/lastmile_qr_scan"}, "type": "electric_scooter", "name": "fc98ceecf44d917b901ee5675f93b3d0", "is_reserved": 0, "lon": -77.0263605, "is_disabled": 0, "fusion_lat": 0.0, "lat": 38.904197, "bike_id": "fc98ceecf44d917b901ee5675f93b3d0", "fusion_lon": 0.0}, {"rental_uris": {"ios": "https://dc.lft.to/lastmile_qr_scan", "android": "https://dc.lft.to/lastmile_qr_scan"}, "type": "electric_scooter", "name": "cd7ab64970af7a2de49920e683b946cd", "is_reserved": 0, "lon": -77.02025983333333, "is_disabled": 0, "fusion_lat": 0.0, "lat": 38.90145616666667, "bike_id": "cd7ab64970af7a2de49920e683b946cd", "fusion_lon": 0.0}, {"rental_uris": {"ios": "https://dc.lft.to/lastmile_qr_scan", "android": "https://dc.lft.to/lastmile_qr_scan"}, "type": "electric_scooter", "name": "9b7b1a959d6b018158104028b5969ffa", "is_reserved": 0, "lon": -77.02395966666667, "is_disabled": 0, "fusion_lat": 0.0, "lat": 38.92600766666666, "bike_id": "9b7b1a959d6b018158104028b5969ffa", "fusion_lon": 0.0}, {"rental_uris": {"ios": "https://dc.lft.to/lastmile_qr_scan", "android": "https://dc.lft.to/lastmile_qr_scan"}, "type": "electric_scooter", "name": "ead2d7ca067835d550a74073600a1212", "is_reserved": 0, "lon": -77.02813916666666, "is_disabled": 0, "fusion_lat": 0.0, "lat": 38.909323666666666, "bike_id": "ead2d7ca067835d550a74073600a1212", "fusion_lon": 0.0}, {"rental_uris": {"ios": "https://dc.lft.to/lastmile_qr_scan", "android": "https://dc.lft.to/lastmile_qr_scan"}, "type": "electric_scooter", "name": "8e0182f328e4ccf5881789a608cb58ae", "is_reserved": 0, "lon": -77.025672, "is_disabled": 0, "fusion_lat": 0.0, "lat": 38.887455, "bike_id": "8e0182f328e4ccf5881789a608cb58ae", "fusion_lon": 0.0}, {"rental_uris": {"ios": "https://dc.lft.to/lastmile_qr_scan", "android": "https://dc.lft.to/lastmile_qr_scan"}, "type": "electric_scooter", "name": "548a459d25688bb4ffda71dd3a8a103c", "is_reserved": 0, "lon": -77.0126765, "is_disabled": 0, "fusion_lat": 0.0, "lat": 38.91563516666667, "bike_id": "548a459d25688bb4ffda71dd3a8a103c", "fusion_lon": 0.0}, {"rental_uris": {"ios": "https://dc.lft.to/lastmile_qr_scan", "android": "https://dc.lft.to/lastmile_qr_scan"}, "type": "electric_scooter", "name": "099fc1231c5c3cff569b5907dd4a9972", "is_reserved": 0, "lon": -76.995055, "is_disabled": 0, "fusion_lat": 0.0, "lat": 38.90980716666667, "bike_id": "099fc1231c5c3cff569b5907dd4a9972", "fusion_lon": 0.0}, {"rental_uris": {"ios": "https://dc.lft.to/lastmile_qr_scan", "android": "https://dc.lft.to/lastmile_qr_scan"}, "type": "electric_bike", "name": "8defe5b03366e8d4047e6ff8b2031ee9", "is_reserved": 0, "lon": -77.03277916666667, "is_disabled": 0, "fusion_lat": 0.0, "lat": 38.88089766666667, "bike_id": "8defe5b03366e8d4047e6ff8b2031ee9", "fusion_lon": 0.0}, {"rental_uris": {"ios": "https://dc.lft.to/lastmile_qr_scan", "android": "https://dc.lft.to/lastmile_qr_scan"}, "type": "electric_scooter", "name": "bc7debb2ddcd5155e91f25398a7eb829", "is_reserved": 0, "lon": -77.02395183333333, "is_disabled": 0, "fusion_lat": 0.0, "lat": 38.931165666666665, "bike_id": "bc7debb2ddcd5155e91f25398a7eb829", "fusion_lon": 0.0}, {"rental_uris": {"ios": "https://dc.lft.to/lastmile_qr_scan", "android": "https://dc.lft.to/lastmile_qr_scan"}, "type": "electric_scooter", "name": "eb3e911cbdee221f4d9277bcf67e7854", "is_reserved": 0, "lon": -77.01514866666666, "is_disabled": 0, "fusion_lat": 0.0, "lat": 38.89271083333333, "bike_id": "eb3e911cbdee221f4d9277bcf67e7854", "fusion_lon": 0.0}, {"rental_uris": {"ios": "https://dc.lft.to/lastmile_qr_scan", "android": "https://dc.lft.to/lastmile_qr_scan"}, "type": "electric_scooter", "name": "e6be9b6019e8793d87b0e0b1461fa2f9", "is_reserved": 0, "lon": -77.038007, "is_disabled": 0, "fusion_lat": 0.0, "lat": 38.9267395, "bike_id": "e6be9b6019e8793d87b0e0b1461fa2f9", "fusion_lon": 0.0}, {"rental_uris": {"ios": "https://dc.lft.to/lastmile_qr_scan", "android": "https://dc.lft.to/lastmile_qr_scan"}, "type": "electric_scooter", "name": "dd12d3c84b8d98005c81de846e5e0a62", "is_reserved": 0, "lon": -76.97709866666666, "is_disabled": 0, "fusion_lat": 0.0, "lat": 38.8881815, "bike_id": "dd12d3c84b8d98005c81de846e5e0a62", "fusion_lon": 0.0}, {"rental_uris": {"ios": "https://dc.lft.to/lastmile_qr_scan", "android": "https://dc.lft.to/lastmile_qr_scan"}, "type": "electric_scooter", "name": "5f8b2183c7a82c65d6063215b381dcda", "is_reserved": 0, "lon": -77.01789033333333, "is_disabled": 0, "fusion_lat": 0.0, "lat": 38.89239366666666, "bike_id": "5f8b2183c7a82c65d6063215b381dcda", "fusion_lon": 0.0}, {"rental_uris": {"ios": "https://dc.lft.to/lastmile_qr_scan", "android": "https://dc.lft.to/lastmile_qr_scan"}, "type": "electric_scooter", "name": "6af3c04e33391becdb53b58d55e9f430", "is_reserved": 0, "lon": -77.01651233333334, "is_disabled": 0, "fusion_lat": 0.0, "lat": 38.942011666666666, "bike_id": "6af3c04e33391becdb53b58d55e9f430", "fusion_lon": 0.0}, {"rental_uris": {"ios": "https://dc.lft.to/lastmile_qr_scan", "android": "https://dc.lft.to/lastmile_qr_scan"}, "type": "electric_scooter", "name": "1cce9177639d8f8b775e0b41bffa5876", "is_reserved": 0, "lon": -76.94060133333333, "is_disabled": 0, "fusion_lat": 0.0, "lat": 38.885842333333336, "bike_id": "1cce9177639d8f8b775e0b41bffa5876", "fusion_lon": 0.0}, {"rental_uris": {"ios": "https://dc.lft.to/lastmile_qr_scan", "android": "https://dc.lft.to/lastmile_qr_scan"}, "type": "electric_scooter", "name": "9c977dab15c178941c0c2acb2955378b", "is_reserved": 0, "lon": -77.00477366666667, "is_disabled": 0, "fusion_lat": 0.0, "lat": 38.88510316666667, "bike_id": "9c977dab15c178941c0c2acb2955378b", "fusion_lon": 0.0}, {"rental_uris": {"ios": "https://dc.lft.to/lastmile_qr_scan", "android": "https://dc.lft.to/lastmile_qr_scan"}, "type": "electric_scooter", "name": "423acca82534c85b7bb939b96d8e3272", "is_reserved": 0, "lon": -76.933925, "is_disabled": 0, "fusion_lat": 0.0, "lat": 38.8990485, "bike_id": "423acca82534c85b7bb939b96d8e3272", "fusion_lon": 0.0}, {"rental_uris": {"ios": "https://dc.lft.to/lastmile_qr_scan", "android": "https://dc.lft.to/lastmile_qr_scan"}, "type": "electric_scooter", "name": "452c1e5c371d912a9f75164559ec58ac", "is_reserved": 0, "lon": -77.07570933333334, "is_disabled": 0, "fusion_lat": 0.0, "lat": 38.906445166666664, "bike_id": "452c1e5c371d912a9f75164559ec58ac", "fusion_lon": 0.0}, {"rental_uris": {"ios": "https://dc.lft.to/lastmile_qr_scan", "android": "https://dc.lft.to/lastmile_qr_scan"}, "type": "electric_scooter", "name": "a1caf75aa48092ef4f640f804b14bcf8", "is_reserved": 0, "lon": -77.01725083333334, "is_disabled": 0, "fusion_lat": 0.0, "lat": 38.892273333333335, "bike_id": "a1caf75aa48092ef4f640f804b14bcf8", "fusion_lon": 0.0}, {"rental_uris": {"ios": "https://dc.lft.to/lastmile_qr_scan", "android": "https://dc.lft.to/lastmile_qr_scan"}, "type": "electric_scooter", "name": "764f4abe9d41bdc171bb316ec489bc1f", "is_reserved": 0, "lon": -77.029419, "is_disabled": 0, "fusion_lat": 0.0, "lat": 38.898223, "bike_id": "764f4abe9d41bdc171bb316ec489bc1f", "fusion_lon": 0.0}, {"rental_uris": {"ios": "https://dc.lft.to/lastmile_qr_scan", "android": "https://dc.lft.to/lastmile_qr_scan"}, "type": "electric_bike", "name": "10718dcf824015f3bfa8f95c8705f950", "is_reserved": 0, "lon": -76.97546933333334, "is_disabled": 0, "fusion_lat": 0.0, "lat": 38.90425366666667, "bike_id": "10718dcf824015f3bfa8f95c8705f950", "fusion_lon": 0.0}, {"rental_uris": {"ios": "https://dc.lft.to/lastmile_qr_scan", "android": "https://dc.lft.to/lastmile_qr_scan"}, "type": "electric_scooter", "name": "0f6c90a6f9b86bdfce84e8c42ae3c235", "is_reserved": 0, "lon": -77.0306545, "is_disabled": 0, "fusion_lat": 0.0, "lat": 38.898493333333334, "bike_id": "0f6c90a6f9b86bdfce84e8c42ae3c235", "fusion_lon": 0.0}, {"rental_uris": {"ios": "https://dc.lft.to/lastmile_qr_scan", "android": "https://dc.lft.to/lastmile_qr_scan"}, "type": "electric_bike", "name": "7c35fe73c45cc8bcb88658d3c8bca8df", "is_reserved": 0, "lon": -76.95159483333333, "is_disabled": 0, "fusion_lat": 0.0, "lat": 39.0843435, "bike_id": "7c35fe73c45cc8bcb88658d3c8bca8df", "fusion_lon": 0.0}, {"rental_uris": {"ios": "https://dc.lft.to/lastmile_qr_scan", "android": "https://dc.lft.to/lastmile_qr_scan"}, "type": "electric_scooter", "name": "8de121009730347de4f50884c7823242", "is_reserved": 0, "lon": -77.01389833333333, "is_disabled": 0, "fusion_lat": 0.0, "lat": 38.919499333333334, "bike_id": "8de121009730347de4f50884c7823242", "fusion_lon": 0.0}, {"rental_uris": {"ios": "https://dc.lft.to/lastmile_qr_scan", "android": "https://dc.lft.to/lastmile_qr_scan"}, "type": "electric_scooter", "name": "b058c8fb2b913ab975745d9df48caafb", "is_reserved": 0, "lon": -77.02403783333334, "is_disabled": 0, "fusion_lat": 0.0, "lat": 38.920853666666666, "bike_id": "b058c8fb2b913ab975745d9df48caafb", "fusion_lon": 0.0}, {"rental_uris": {"ios": "https://dc.lft.to/lastmile_qr_scan", "android": "https://dc.lft.to/lastmile_qr_scan"}, "type": "electric_scooter", "name": "0abf4e11c4733d868edc7614828e6f87", "is_reserved": 0, "lon": -77.02624483333334, "is_disabled": 0, "fusion_lat": 0.0, "lat": 38.89226133333333, "bike_id": "0abf4e11c4733d868edc7614828e6f87", "fusion_lon": 0.0}, {"rental_uris": {"ios": "https://dc.lft.to/lastmile_qr_scan", "android": "https://dc.lft.to/lastmile_qr_scan"}, "type": "electric_scooter", "name": "6223180b0a276c4cd3af6f682d5901fb", "is_reserved": 0, "lon": -77.00154716666667, "is_disabled": 0, "fusion_lat": 0.0, "lat": 38.821327333333336, "bike_id": "6223180b0a276c4cd3af6f682d5901fb", "fusion_lon": 0.0}, {"rental_uris": {"ios": "https://dc.lft.to/lastmile_qr_scan", "android": "https://dc.lft.to/lastmile_qr_scan"}, "type": "electric_scooter", "name": "36c60c0773c300b4f65a423a12186fe0", "is_reserved": 0, "lon": -76.99947133333333, "is_disabled": 0, "fusion_lat": 0.0, "lat": 38.890859, "bike_id": "36c60c0773c300b4f65a423a12186fe0", "fusion_lon": 0.0}, {"rental_uris": {"ios": "https://dc.lft.to/lastmile_qr_scan", "android": "https://dc.lft.to/lastmile_qr_scan"}, "type": "electric_scooter", "name": "5ca89a903af8253410d94f6c16970112", "is_reserved": 0, "lon": -77.0486235, "is_disabled": 0, "fusion_lat": 0.0, "lat": 38.91267783333333, "bike_id": "5ca89a903af8253410d94f6c16970112", "fusion_lon": 0.0}, {"rental_uris": {"ios": "https://dc.lft.to/lastmile_qr_scan", "android": "https://dc.lft.to/lastmile_qr_scan"}, "type": "electric_bike", "name": "0c3dba390169c2fdbddf95706f98eae8", "is_reserved": 0, "lon": -76.99354766666667, "is_disabled": 0, "fusion_lat": 0.0, "lat": 38.836685333333335, "bike_id": "0c3dba390169c2fdbddf95706f98eae8", "fusion_lon": 0.0}, {"rental_uris": {"ios": "https://dc.lft.to/lastmile_qr_scan", "android": "https://dc.lft.to/lastmile_qr_scan"}, "type": "electric_scooter", "name": "00259fdb17eac462b232abd94bf8831b", "is_reserved": 0, "lon": -77.0031345, "is_disabled": 0, "fusion_lat": 0.0, "lat": 38.907335, "bike_id": "00259fdb17eac462b232abd94bf8831b", "fusion_lon": 0.0}, {"rental_uris": {"ios": "https://dc.lft.to/lastmile_qr_scan", "android": "https://dc.lft.to/lastmile_qr_scan"}, "type": "electric_scooter", "name": "b49e356c938bf56a9b8e37274d082440", "is_reserved": 0, "lon": -77.02139166666667, "is_disabled": 0, "fusion_lat": 0.0, "lat": 38.92733966666667, "bike_id": "b49e356c938bf56a9b8e37274d082440", "fusion_lon": 0.0}, {"rental_uris": {"ios": "https://dc.lft.to/lastmile_qr_scan", "android": "https://dc.lft.to/lastmile_qr_scan"}, "type": "electric_scooter", "name": "0858186f70660e9c821f8ae589b29388", "is_reserved": 0, "lon": -77.02051216666666, "is_disabled": 0, "fusion_lat": 0.0, "lat": 38.9292885, "bike_id": "0858186f70660e9c821f8ae589b29388", "fusion_lon": 0.0}, {"rental_uris": {"ios": "https://dc.lft.to/lastmile_qr_scan", "android": "https://dc.lft.to/lastmile_qr_scan"}, "type": "electric_scooter", "name": "5e6003374f7847396fc24833798460a5", "is_reserved": 0, "lon": -77.03465983333334, "is_disabled": 0, "fusion_lat": 0.0, "lat": 38.911845166666666, "bike_id": "5e6003374f7847396fc24833798460a5", "fusion_lon": 0.0}, {"rental_uris": {"ios": "https://dc.lft.to/lastmile_qr_scan", "android": "https://dc.lft.to/lastmile_qr_scan"}, "type": "electric_scooter", "name": "e376f3485a6270470afb6e6fb5bf9ded", "is_reserved": 0, "lon": -77.037485, "is_disabled": 0, "fusion_lat": 0.0, "lat": 38.9319735, "bike_id": "e376f3485a6270470afb6e6fb5bf9ded", "fusion_lon": 0.0}, {"rental_uris": {"ios": "https://dc.lft.to/lastmile_qr_scan", "android": "https://dc.lft.to/lastmile_qr_scan"}, "type": "electric_scooter", "name": "12f710d7fc76d3071e4167f39ef8e0c0", "is_reserved": 0, "lon": -77.02536333333333, "is_disabled": 0, "fusion_lat": 0.0, "lat": 38.94534783333334, "bike_id": "12f710d7fc76d3071e4167f39ef8e0c0", "fusion_lon": 0.0}, {"rental_uris": {"ios": "https://dc.lft.to/lastmile_qr_scan", "android": "https://dc.lft.to/lastmile_qr_scan"}, "type": "electric_scooter", "name": "e21130af5459b296c7760a5238906aef", "is_reserved": 0, "lon": -77.033792, "is_disabled": 0, "fusion_lat": 0.0, "lat": 38.90977683333333, "bike_id": "e21130af5459b296c7760a5238906aef", "fusion_lon": 0.0}, {"rental_uris": {"ios": "https://dc.lft.to/lastmile_qr_scan", "android": "https://dc.lft.to/lastmile_qr_scan"}, "type": "electric_scooter", "name": "d07c2bc2552f5310b2a6bf5bfb0e99ef", "is_reserved": 0, "lon": -77.00242366666667, "is_disabled": 0, "fusion_lat": 0.0, "lat": 38.89999133333333, "bike_id": "d07c2bc2552f5310b2a6bf5bfb0e99ef", "fusion_lon": 0.0}, {"rental_uris": {"ios": "https://dc.lft.to/lastmile_qr_scan", "android": "https://dc.lft.to/lastmile_qr_scan"}, "type": "electric_scooter", "name": "8311613b6e237c97f543c98d5420f9c5", "is_reserved": 0, "lon": -76.9265585, "is_disabled": 0, "fusion_lat": 0.0, "lat": 38.88255766666666, "bike_id": "8311613b6e237c97f543c98d5420f9c5", "fusion_lon": 0.0}, {"rental_uris": {"ios": "https://dc.lft.to/lastmile_qr_scan", "android": "https://dc.lft.to/lastmile_qr_scan"}, "type": "electric_scooter", "name": "d6349e46b5cc4f7c35b9d313c114ad26", "is_reserved": 0, "lon": -77.01789966666666, "is_disabled": 0, "fusion_lat": 0.0, "lat": 38.920305666666664, "bike_id": "d6349e46b5cc4f7c35b9d313c114ad26", "fusion_lon": 0.0}, {"rental_uris": {"ios": "https://dc.lft.to/lastmile_qr_scan", "android": "https://dc.lft.to/lastmile_qr_scan"}, "type": "electric_scooter", "name": "de9f7964850db322ea9d4a68a8890e89", "is_reserved": 0, "lon": -76.983722, "is_disabled": 0, "fusion_lat": 0.0, "lat": 38.89264, "bike_id": "de9f7964850db322ea9d4a68a8890e89", "fusion_lon": 0.0}, {"rental_uris": {"ios": "https://dc.lft.to/lastmile_qr_scan", "android": "https://dc.lft.to/lastmile_qr_scan"}, "type": "electric_scooter", "name": "031abefd9e1ea58c47f7e3849d9445b7", "is_reserved": 0, "lon": -76.9574115, "is_disabled": 0, "fusion_lat": 0.0, "lat": 38.88391933333333, "bike_id": "031abefd9e1ea58c47f7e3849d9445b7", "fusion_lon": 0.0}, {"rental_uris": {"ios": "https://dc.lft.to/lastmile_qr_scan", "android": "https://dc.lft.to/lastmile_qr_scan"}, "type": "electric_scooter", "name": "252263e49acf0a039ab55e824f9962af", "is_reserved": 0, "lon": -77.03646516666667, "is_disabled": 0, "fusion_lat": 0.0, "lat": 38.92410483333333, "bike_id": "252263e49acf0a039ab55e824f9962af", "fusion_lon": 0.0}, {"rental_uris": {"ios": "https://dc.lft.to/lastmile_qr_scan", "android": "https://dc.lft.to/lastmile_qr_scan"}, "type": "electric_scooter", "name": "e889e9927115f7499f7178ade3a904bf", "is_reserved": 0, "lon": -77.0338735, "is_disabled": 0, "fusion_lat": 0.0, "lat": 38.9246885, "bike_id": "e889e9927115f7499f7178ade3a904bf", "fusion_lon": 0.0}, {"rental_uris": {"ios": "https://dc.lft.to/lastmile_qr_scan", "android": "https://dc.lft.to/lastmile_qr_scan"}, "type": "electric_scooter", "name": "2dccf2281e4d2cf3af4ad42e638cd54a", "is_reserved": 0, "lon": -77.04903116666667, "is_disabled": 0, "fusion_lat": 0.0, "lat": 38.9194495, "bike_id": "2dccf2281e4d2cf3af4ad42e638cd54a", "fusion_lon": 0.0}, {"rental_uris": {"ios": "https://dc.lft.to/lastmile_qr_scan", "android": "https://dc.lft.to/lastmile_qr_scan"}, "type": "electric_scooter", "name": "89dea5aed32ce767484774243ad3d308", "is_reserved": 0, "lon": -77.01790716666666, "is_disabled": 0, "fusion_lat": 0.0, "lat": 38.91993166666666, "bike_id": "89dea5aed32ce767484774243ad3d308", "fusion_lon": 0.0}, {"rental_uris": {"ios": "https://dc.lft.to/lastmile_qr_scan", "android": "https://dc.lft.to/lastmile_qr_scan"}, "type": "electric_scooter", "name": "3cfa4ecfb67b86564533fa31e072542c", "is_reserved": 0, "lon": -77.0423595, "is_disabled": 0, "fusion_lat": 0.0, "lat": 38.90361933333333, "bike_id": "3cfa4ecfb67b86564533fa31e072542c", "fusion_lon": 0.0}, {"rental_uris": {"ios": "https://dc.lft.to/lastmile_qr_scan", "android": "https://dc.lft.to/lastmile_qr_scan"}, "type": "electric_scooter", "name": "2f69b2c71508e9fbd2ed7a109aa8bd46", "is_reserved": 0, "lon": -77.041701, "is_disabled": 0, "fusion_lat": 0.0, "lat": 38.915969833333335, "bike_id": "2f69b2c71508e9fbd2ed7a109aa8bd46", "fusion_lon": 0.0}, {"rental_uris": {"ios": "https://dc.lft.to/lastmile_qr_scan", "android": "https://dc.lft.to/lastmile_qr_scan"}, "type": "electric_scooter", "name": "b051d0d65d9ba90ead6e2e29b7cbd21f", "is_reserved": 0, "lon": -77.021323, "is_disabled": 0, "fusion_lat": 0.0, "lat": 38.903088333333336, "bike_id": "b051d0d65d9ba90ead6e2e29b7cbd21f", "fusion_lon": 0.0}, {"rental_uris": {"ios": "https://dc.lft.to/lastmile_qr_scan", "android": "https://dc.lft.to/lastmile_qr_scan"}, "type": "electric_scooter", "name": "dc61a11104410d0a1cd542b2470ea987", "is_reserved": 0, "lon": -77.0411175, "is_disabled": 0, "fusion_lat": 0.0, "lat": 38.92712816666667, "bike_id": "dc61a11104410d0a1cd542b2470ea987", "fusion_lon": 0.0}, {"rental_uris": {"ios": "https://dc.lft.to/lastmile_qr_scan", "android": "https://dc.lft.to/lastmile_qr_scan"}, "type": "electric_scooter", "name": "dc315ab470ed5a68e193c717fa3ec8d8", "is_reserved": 0, "lon": -77.04034783333333, "is_disabled": 0, "fusion_lat": 0.0, "lat": 38.90595183333333, "bike_id": "dc315ab470ed5a68e193c717fa3ec8d8", "fusion_lon": 0.0}, {"rental_uris": {"ios": "https://dc.lft.to/lastmile_qr_scan", "android": "https://dc.lft.to/lastmile_qr_scan"}, "type": "electric_scooter", "name": "53b780a32886a2bc4c9aac066a654563", "is_reserved": 0, "lon": -77.04180166666667, "is_disabled": 0, "fusion_lat": 0.0, "lat": 38.9141105, "bike_id": "53b780a32886a2bc4c9aac066a654563", "fusion_lon": 0.0}, {"rental_uris": {"ios": "https://dc.lft.to/lastmile_qr_scan", "android": "https://dc.lft.to/lastmile_qr_scan"}, "type": "electric_scooter", "name": "6684a3bec67b7086e85880e185e2934f", "is_reserved": 0, "lon": -77.02658916666667, "is_disabled": 0, "fusion_lat": 0.0, "lat": 38.921754666666665, "bike_id": "6684a3bec67b7086e85880e185e2934f", "fusion_lon": 0.0}, {"rental_uris": {"ios": "https://dc.lft.to/lastmile_qr_scan", "android": "https://dc.lft.to/lastmile_qr_scan"}, "type": "electric_scooter", "name": "cd0c4c917ad8286624125d1a51f7ef66", "is_reserved": 0, "lon": -77.06893166666667, "is_disabled": 0, "fusion_lat": 0.0, "lat": 38.90764016666667, "bike_id": "cd0c4c917ad8286624125d1a51f7ef66", "fusion_lon": 0.0}, {"rental_uris": {"ios": "https://dc.lft.to/lastmile_qr_scan", "android": "https://dc.lft.to/lastmile_qr_scan"}, "type": "electric_scooter", "name": "be885068cafdf7749640fac24f21c468", "is_reserved": 0, "lon": -77.05428866666666, "is_disabled": 0, "fusion_lat": 0.0, "lat": 38.9284835, "bike_id": "be885068cafdf7749640fac24f21c468", "fusion_lon": 0.0}, {"rental_uris": {"ios": "https://dc.lft.to/lastmile_qr_scan", "android": "https://dc.lft.to/lastmile_qr_scan"}, "type": "electric_scooter", "name": "6a44244674897b939f348547acd90f6a", "is_reserved": 0, "lon": -77.013947, "is_disabled": 0, "fusion_lat": 0.0, "lat": 38.911061833333335, "bike_id": "6a44244674897b939f348547acd90f6a", "fusion_lon": 0.0}, {"rental_uris": {"ios": "https://dc.lft.to/lastmile_qr_scan", "android": "https://dc.lft.to/lastmile_qr_scan"}, "type": "electric_scooter", "name": "5ec91314eacb3b739c9c3ad925999514", "is_reserved": 0, "lon": -76.97964616666667, "is_disabled": 0, "fusion_lat": 0.0, "lat": 38.897889666666664, "bike_id": "5ec91314eacb3b739c9c3ad925999514", "fusion_lon": 0.0}, {"rental_uris": {"ios": "https://dc.lft.to/lastmile_qr_scan", "android": "https://dc.lft.to/lastmile_qr_scan"}, "type": "electric_scooter", "name": "b54ff86123a9fd77e1467583394ede49", "is_reserved": 0, "lon": -77.03194583333334, "is_disabled": 0, "fusion_lat": 0.0, "lat": 38.915698166666665, "bike_id": "b54ff86123a9fd77e1467583394ede49", "fusion_lon": 0.0}, {"rental_uris": {"ios": "https://dc.lft.to/lastmile_qr_scan", "android": "https://dc.lft.to/lastmile_qr_scan"}, "type": "electric_scooter", "name": "5b0a46418441851f2d4b421866d0b466", "is_reserved": 0, "lon": -77.02244666666667, "is_disabled": 0, "fusion_lat": 0.0, "lat": 38.899774, "bike_id": "5b0a46418441851f2d4b421866d0b466", "fusion_lon": 0.0}, {"rental_uris": {"ios": "https://dc.lft.to/lastmile_qr_scan", "android": "https://dc.lft.to/lastmile_qr_scan"}, "type": "electric_bike", "name": "39a547c6132dd0a65659db9b10492987", "is_reserved": 0, "lon": -77.02453166666666, "is_disabled": 0, "fusion_lat": 0.0, "lat": 38.957304, "bike_id": "39a547c6132dd0a65659db9b10492987", "fusion_lon": 0.0}, {"rental_uris": {"ios": "https://dc.lft.to/lastmile_qr_scan", "android": "https://dc.lft.to/lastmile_qr_scan"}, "type": "electric_scooter", "name": "b6f301be3963dbdfdb71e12eed1f51d3", "is_reserved": 0, "lon": -76.988042, "is_disabled": 0, "fusion_lat": 0.0, "lat": 38.89359983333333, "bike_id": "b6f301be3963dbdfdb71e12eed1f51d3", "fusion_lon": 0.0}, {"rental_uris": {"ios": "https://dc.lft.to/lastmile_qr_scan", "android": "https://dc.lft.to/lastmile_qr_scan"}, "type": "electric_scooter", "name": "4380b36d16a15661766a492f3c479d66", "is_reserved": 0, "lon": -76.97997583333333, "is_disabled": 0, "fusion_lat": 0.0, "lat": 38.894377, "bike_id": "4380b36d16a15661766a492f3c479d66", "fusion_lon": 0.0}, {"rental_uris": {"ios": "https://dc.lft.to/lastmile_qr_scan", "android": "https://dc.lft.to/lastmile_qr_scan"}, "type": "electric_bike", "name": "7b0ccd4fa221ad84e5f0bc4d3ce3b788", "is_reserved": 0, "lon": -77.04649633333334, "is_disabled": 0, "fusion_lat": 0.0, "lat": 38.815417333333336, "bike_id": "7b0ccd4fa221ad84e5f0bc4d3ce3b788", "fusion_lon": 0.0}, {"rental_uris": {"ios": "https://dc.lft.to/lastmile_qr_scan", "android": "https://dc.lft.to/lastmile_qr_scan"}, "type": "electric_bike", "name": "258ac69b6175197f829d8dd6c88bb97f", "is_reserved": 0, "lon": -76.952498, "is_disabled": 0, "fusion_lat": 0.0, "lat": 38.90697266666667, "bike_id": "258ac69b6175197f829d8dd6c88bb97f", "fusion_lon": 0.0}, {"rental_uris": {"ios": "https://dc.lft.to/lastmile_qr_scan", "android": "https://dc.lft.to/lastmile_qr_scan"}, "type": "electric_scooter", "name": "67e20ad332fadd4ed9661902d0c44bbf", "is_reserved": 0, "lon": -77.0327795, "is_disabled": 0, "fusion_lat": 0.0, "lat": 38.932529, "bike_id": "67e20ad332fadd4ed9661902d0c44bbf", "fusion_lon": 0.0}, {"rental_uris": {"ios": "https://dc.lft.to/lastmile_qr_scan", "android": "https://dc.lft.to/lastmile_qr_scan"}, "type": "electric_scooter", "name": "e883f7d543fba9cfd9846b28e0fd8d06", "is_reserved": 0, "lon": -77.06373316666667, "is_disabled": 0, "fusion_lat": 0.0, "lat": 38.935562833333336, "bike_id": "e883f7d543fba9cfd9846b28e0fd8d06", "fusion_lon": 0.0}, {"rental_uris": {"ios": "https://dc.lft.to/lastmile_qr_scan", "android": "https://dc.lft.to/lastmile_qr_scan"}, "type": "electric_scooter", "name": "2477a7f6297b27907118e25880b660f8", "is_reserved": 0, "lon": -77.04809933333334, "is_disabled": 0, "fusion_lat": 0.0, "lat": 38.904984, "bike_id": "2477a7f6297b27907118e25880b660f8", "fusion_lon": 0.0}, {"rental_uris": {"ios": "https://dc.lft.to/lastmile_qr_scan", "android": "https://dc.lft.to/lastmile_qr_scan"}, "type": "electric_bike", "name": "868d9646ef8fde66897f1ae8fa91fde5", "is_reserved": 0, "lon": -77.12652766666666, "is_disabled": 0, "fusion_lat": 0.0, "lat": 38.81904766666667, "bike_id": "868d9646ef8fde66897f1ae8fa91fde5", "fusion_lon": 0.0}, {"rental_uris": {"ios": "https://dc.lft.to/lastmile_qr_scan", "android": "https://dc.lft.to/lastmile_qr_scan"}, "type": "electric_scooter", "name": "cf0abc9038295f214a32f482137400d2", "is_reserved": 0, "lon": -77.03599683333333, "is_disabled": 0, "fusion_lat": 0.0, "lat": 38.927828166666664, "bike_id": "cf0abc9038295f214a32f482137400d2", "fusion_lon": 0.0}, {"rental_uris": {"ios": "https://dc.lft.to/lastmile_qr_scan", "android": "https://dc.lft.to/lastmile_qr_scan"}, "type": "electric_scooter", "name": "7b9cc8c5ce1e6f43aa042892b633d419", "is_reserved": 0, "lon": -77.00627866666666, "is_disabled": 0, "fusion_lat": 0.0, "lat": 38.87171983333333, "bike_id": "7b9cc8c5ce1e6f43aa042892b633d419", "fusion_lon": 0.0}, {"rental_uris": {"ios": "https://dc.lft.to/lastmile_qr_scan", "android": "https://dc.lft.to/lastmile_qr_scan"}, "type": "electric_scooter", "name": "2f76594a09a62714e8a9b6e398dfebb8", "is_reserved": 0, "lon": -77.0550625, "is_disabled": 0, "fusion_lat": 0.0, "lat": 38.9283165, "bike_id": "2f76594a09a62714e8a9b6e398dfebb8", "fusion_lon": 0.0}, {"rental_uris": {"ios": "https://dc.lft.to/lastmile_qr_scan", "android": "https://dc.lft.to/lastmile_qr_scan"}, "type": "electric_scooter", "name": "232da74fb818a3e2d9386d88606c95ee", "is_reserved": 0, "lon": -77.07339066666667, "is_disabled": 0, "fusion_lat": 0.0, "lat": 38.9608815, "bike_id": "232da74fb818a3e2d9386d88606c95ee", "fusion_lon": 0.0}, {"rental_uris": {"ios": "https://dc.lft.to/lastmile_qr_scan", "android": "https://dc.lft.to/lastmile_qr_scan"}, "type": "electric_scooter", "name": "0ecdbf932b58e97c4b5585f160fac734", "is_reserved": 0, "lon": -77.06088216666667, "is_disabled": 0, "fusion_lat": 0.0, "lat": 38.939900333333334, "bike_id": "0ecdbf932b58e97c4b5585f160fac734", "fusion_lon": 0.0}, {"rental_uris": {"ios": "https://dc.lft.to/lastmile_qr_scan", "android": "https://dc.lft.to/lastmile_qr_scan"}, "type": "electric_scooter", "name": "db66464379270b98840f6d90c7141ec7", "is_reserved": 0, "lon": -77.049695, "is_disabled": 0, "fusion_lat": 0.0, "lat": 38.90526033333333, "bike_id": "db66464379270b98840f6d90c7141ec7", "fusion_lon": 0.0}, {"rental_uris": {"ios": "https://dc.lft.to/lastmile_qr_scan", "android": "https://dc.lft.to/lastmile_qr_scan"}, "type": "electric_bike", "name": "6bcaa8f0ea961b2ce1454b83f404b578", "is_reserved": 0, "lon": -77.00137333333333, "is_disabled": 0, "fusion_lat": 0.0, "lat": 38.9949725, "bike_id": "6bcaa8f0ea961b2ce1454b83f404b578", "fusion_lon": 0.0}, {"rental_uris": {"ios": "https://dc.lft.to/lastmile_qr_scan", "android": "https://dc.lft.to/lastmile_qr_scan"}, "type": "electric_bike", "name": "3a2de2f154e25bcbbe15d5fbac720b56", "is_reserved": 0, "lon": -76.95797116666667, "is_disabled": 0, "fusion_lat": 0.0, "lat": 38.98041283333333, "bike_id": "3a2de2f154e25bcbbe15d5fbac720b56", "fusion_lon": 0.0}, {"rental_uris": {"ios": "https://dc.lft.to/lastmile_qr_scan", "android": "https://dc.lft.to/lastmile_qr_scan"}, "type": "electric_scooter", "name": "d9e05e91fec1dc670ee4db954574dbbf", "is_reserved": 0, "lon": -76.99791616666667, "is_disabled": 0, "fusion_lat": 0.0, "lat": 38.8763485, "bike_id": "d9e05e91fec1dc670ee4db954574dbbf", "fusion_lon": 0.0}, {"rental_uris": {"ios": "https://dc.lft.to/lastmile_qr_scan", "android": "https://dc.lft.to/lastmile_qr_scan"}, "type": "electric_scooter", "name": "40f9e26e13e00f86a06fccb11fd20e35", "is_reserved": 0, "lon": -76.97568466666667, "is_disabled": 0, "fusion_lat": 0.0, "lat": 38.94416783333333, "bike_id": "40f9e26e13e00f86a06fccb11fd20e35", "fusion_lon": 0.0}, {"rental_uris": {"ios": "https://dc.lft.to/lastmile_qr_scan", "android": "https://dc.lft.to/lastmile_qr_scan"}, "type": "electric_scooter", "name": "75bc4b85140c5faf2c1b7bc55598e44c", "is_reserved": 0, "lon": -76.94932033333333, "is_disabled": 0, "fusion_lat": 0.0, "lat": 38.895327333333334, "bike_id": "75bc4b85140c5faf2c1b7bc55598e44c", "fusion_lon": 0.0}, {"rental_uris": {"ios": "https://dc.lft.to/lastmile_qr_scan", "android": "https://dc.lft.to/lastmile_qr_scan"}, "type": "electric_scooter", "name": "828ae10e5be0676b0956b4958698f0eb", "is_reserved": 0, "lon": -77.03189333333333, "is_disabled": 0, "fusion_lat": 0.0, "lat": 38.910919666666665, "bike_id": "828ae10e5be0676b0956b4958698f0eb", "fusion_lon": 0.0}, {"rental_uris": {"ios": "https://dc.lft.to/lastmile_qr_scan", "android": "https://dc.lft.to/lastmile_qr_scan"}, "type": "electric_bike", "name": "6432b60ed4d823915bf37fd8ff5d46c0", "is_reserved": 0, "lon": -76.99257466666667, "is_disabled": 0, "fusion_lat": 0.0, "lat": 38.960685833333336, "bike_id": "6432b60ed4d823915bf37fd8ff5d46c0", "fusion_lon": 0.0}, {"rental_uris": {"ios": "https://dc.lft.to/lastmile_qr_scan", "android": "https://dc.lft.to/lastmile_qr_scan"}, "type": "electric_bike", "name": "1a203af4214cb6a11a5300088cb5eb8f", "is_reserved": 0, "lon": -76.95062433333334, "is_disabled": 0, "fusion_lat": 0.0, "lat": 39.08508633333334, "bike_id": "1a203af4214cb6a11a5300088cb5eb8f", "fusion_lon": 0.0}, {"rental_uris": {"ios": "https://dc.lft.to/lastmile_qr_scan", "android": "https://dc.lft.to/lastmile_qr_scan"}, "type": "electric_scooter", "name": "1b7daf0ae336b80c684004bb9980bddd", "is_reserved": 0, "lon": -77.07399433333333, "is_disabled": 0, "fusion_lat": 0.0, "lat": 38.93748083333333, "bike_id": "1b7daf0ae336b80c684004bb9980bddd", "fusion_lon": 0.0}, {"rental_uris": {"ios": "https://dc.lft.to/lastmile_qr_scan", "android": "https://dc.lft.to/lastmile_qr_scan"}, "type": "electric_scooter", "name": "8b5027ad8f51a7b975b21fd91bd3ab85", "is_reserved": 0, "lon": -77.0235615, "is_disabled": 0, "fusion_lat": 0.0, "lat": 38.94521266666667, "bike_id": "8b5027ad8f51a7b975b21fd91bd3ab85", "fusion_lon": 0.0}, {"rental_uris": {"ios": "https://dc.lft.to/lastmile_qr_scan", "android": "https://dc.lft.to/lastmile_qr_scan"}, "type": "electric_scooter", "name": "c000dfe0fe0e8b60af1b69b0cc41f82b", "is_reserved": 0, "lon": -76.981884, "is_disabled": 0, "fusion_lat": 0.0, "lat": 38.9058185, "bike_id": "c000dfe0fe0e8b60af1b69b0cc41f82b", "fusion_lon": 0.0}, {"rental_uris": {"ios": "https://dc.lft.to/lastmile_qr_scan", "android": "https://dc.lft.to/lastmile_qr_scan"}, "type": "electric_scooter", "name": "2dbf55508f6ac0eb326eaa4821f1dc2e", "is_reserved": 0, "lon": -77.03127883333333, "is_disabled": 0, "fusion_lat": 0.0, "lat": 38.923718, "bike_id": "2dbf55508f6ac0eb326eaa4821f1dc2e", "fusion_lon": 0.0}, {"rental_uris": {"ios": "https://dc.lft.to/lastmile_qr_scan", "android": "https://dc.lft.to/lastmile_qr_scan"}, "type": "electric_scooter", "name": "589f95f41ee67c5c6905271de1ab90f1", "is_reserved": 0, "lon": -77.002184, "is_disabled": 0, "fusion_lat": 0.0, "lat": 38.9002635, "bike_id": "589f95f41ee67c5c6905271de1ab90f1", "fusion_lon": 0.0}, {"rental_uris": {"ios": "https://dc.lft.to/lastmile_qr_scan", "android": "https://dc.lft.to/lastmile_qr_scan"}, "type": "electric_scooter", "name": "46725194371f136f52b73d5f5a52930e", "is_reserved": 0, "lon": -77.02385983333333, "is_disabled": 0, "fusion_lat": 0.0, "lat": 38.917048, "bike_id": "46725194371f136f52b73d5f5a52930e", "fusion_lon": 0.0}, {"rental_uris": {"ios": "https://dc.lft.to/lastmile_qr_scan", "android": "https://dc.lft.to/lastmile_qr_scan"}, "type": "electric_scooter", "name": "a1b0fd4d07bf8b0613637c6d4af7a77c", "is_reserved": 0, "lon": -77.03863483333333, "is_disabled": 0, "fusion_lat": 0.0, "lat": 38.90841866666667, "bike_id": "a1b0fd4d07bf8b0613637c6d4af7a77c", "fusion_lon": 0.0}, {"rental_uris": {"ios": "https://dc.lft.to/lastmile_qr_scan", "android": "https://dc.lft.to/lastmile_qr_scan"}, "type": "electric_scooter", "name": "3c4a2b58515642c3b571cee412208988", "is_reserved": 0, "lon": -76.99976566666666, "is_disabled": 0, "fusion_lat": 0.0, "lat": 38.90767233333333, "bike_id": "3c4a2b58515642c3b571cee412208988", "fusion_lon": 0.0}, {"rental_uris": {"ios": "https://dc.lft.to/lastmile_qr_scan", "android": "https://dc.lft.to/lastmile_qr_scan"}, "type": "electric_scooter", "name": "0bf33b0539b1e249c90cee46a2d4ff03", "is_reserved": 0, "lon": -77.03801766666666, "is_disabled": 0, "fusion_lat": 0.0, "lat": 38.9306985, "bike_id": "0bf33b0539b1e249c90cee46a2d4ff03", "fusion_lon": 0.0}, {"rental_uris": {"ios": "https://dc.lft.to/lastmile_qr_scan", "android": "https://dc.lft.to/lastmile_qr_scan"}, "type": "electric_scooter", "name": "681153331f637f3aae698264faa47ded", "is_reserved": 0, "lon": -77.02384166666667, "is_disabled": 0, "fusion_lat": 0.0, "lat": 38.891986, "bike_id": "681153331f637f3aae698264faa47ded", "fusion_lon": 0.0}, {"rental_uris": {"ios": "https://dc.lft.to/lastmile_qr_scan", "android": "https://dc.lft.to/lastmile_qr_scan"}, "type": "electric_scooter", "name": "084485ff05d69f0065defe15dc18cefa", "is_reserved": 0, "lon": -77.0199145, "is_disabled": 0, "fusion_lat": 0.0, "lat": 38.9305325, "bike_id": "084485ff05d69f0065defe15dc18cefa", "fusion_lon": 0.0}, {"rental_uris": {"ios": "https://dc.lft.to/lastmile_qr_scan", "android": "https://dc.lft.to/lastmile_qr_scan"}, "type": "electric_scooter", "name": "c9c9f4444a36047e0d9cb0746ba104fb", "is_reserved": 0, "lon": -76.99559533333333, "is_disabled": 0, "fusion_lat": 0.0, "lat": 38.90366216666666, "bike_id": "c9c9f4444a36047e0d9cb0746ba104fb", "fusion_lon": 0.0}, {"rental_uris": {"ios": "https://dc.lft.to/lastmile_qr_scan", "android": "https://dc.lft.to/lastmile_qr_scan"}, "type": "electric_bike", "name": "9f966e73908a86c222be5238b810485c", "is_reserved": 0, "lon": -77.0037955, "is_disabled": 0, "fusion_lat": 0.0, "lat": 38.836025166666666, "bike_id": "9f966e73908a86c222be5238b810485c", "fusion_lon": 0.0}, {"rental_uris": {"ios": "https://dc.lft.to/lastmile_qr_scan", "android": "https://dc.lft.to/lastmile_qr_scan"}, "type": "electric_scooter", "name": "6bbfee6f810db0e15272eed2ed6c7d49", "is_reserved": 0, "lon": -77.020748, "is_disabled": 0, "fusion_lat": 0.0, "lat": 38.93016516666667, "bike_id": "6bbfee6f810db0e15272eed2ed6c7d49", "fusion_lon": 0.0}, {"rental_uris": {"ios": "https://dc.lft.to/lastmile_qr_scan", "android": "https://dc.lft.to/lastmile_qr_scan"}, "type": "electric_scooter", "name": "914a168631fb2ad601343039aaf82d5e", "is_reserved": 0, "lon": -77.05941866666667, "is_disabled": 0, "fusion_lat": 0.0, "lat": 38.90143066666667, "bike_id": "914a168631fb2ad601343039aaf82d5e", "fusion_lon": 0.0}, {"rental_uris": {"ios": "https://dc.lft.to/lastmile_qr_scan", "android": "https://dc.lft.to/lastmile_qr_scan"}, "type": "electric_bike", "name": "e9057681a25929e08305122b413857af", "is_reserved": 0, "lon": -76.96326266666667, "is_disabled": 0, "fusion_lat": 0.0, "lat": 38.93889333333333, "bike_id": "e9057681a25929e08305122b413857af", "fusion_lon": 0.0}, {"rental_uris": {"ios": "https://dc.lft.to/lastmile_qr_scan", "android": "https://dc.lft.to/lastmile_qr_scan"}, "type": "electric_scooter", "name": "82a0f56547980366eaf9634422e8a90d", "is_reserved": 0, "lon": -77.04235083333333, "is_disabled": 0, "fusion_lat": 0.0, "lat": 38.903542333333334, "bike_id": "82a0f56547980366eaf9634422e8a90d", "fusion_lon": 0.0}, {"rental_uris": {"ios": "https://dc.lft.to/lastmile_qr_scan", "android": "https://dc.lft.to/lastmile_qr_scan"}, "type": "electric_scooter", "name": "b4c4cd30cd29fa16837c403d65df320a", "is_reserved": 0, "lon": -76.9961485, "is_disabled": 0, "fusion_lat": 0.0, "lat": 38.88715766666667, "bike_id": "b4c4cd30cd29fa16837c403d65df320a", "fusion_lon": 0.0}, {"rental_uris": {"ios": "https://dc.lft.to/lastmile_qr_scan", "android": "https://dc.lft.to/lastmile_qr_scan"}, "type": "electric_scooter", "name": "0ca827b928772775b843dd649489b57d", "is_reserved": 0, "lon": -77.01847483333333, "is_disabled": 0, "fusion_lat": 0.0, "lat": 38.9150445, "bike_id": "0ca827b928772775b843dd649489b57d", "fusion_lon": 0.0}, {"rental_uris": {"ios": "https://dc.lft.to/lastmile_qr_scan", "android": "https://dc.lft.to/lastmile_qr_scan"}, "type": "electric_scooter", "name": "79cb3a5c6339c39785cf9425f42f7ffa", "is_reserved": 0, "lon": -77.03726583333334, "is_disabled": 0, "fusion_lat": 0.0, "lat": 38.92026, "bike_id": "79cb3a5c6339c39785cf9425f42f7ffa", "fusion_lon": 0.0}, {"rental_uris": {"ios": "https://dc.lft.to/lastmile_qr_scan", "android": "https://dc.lft.to/lastmile_qr_scan"}, "type": "electric_scooter", "name": "239a778b39ec20aff5ae4b9d0a805dae", "is_reserved": 0, "lon": -77.00204833333333, "is_disabled": 0, "fusion_lat": 0.0, "lat": 38.9076135, "bike_id": "239a778b39ec20aff5ae4b9d0a805dae", "fusion_lon": 0.0}, {"rental_uris": {"ios": "https://dc.lft.to/lastmile_qr_scan", "android": "https://dc.lft.to/lastmile_qr_scan"}, "type": "electric_scooter", "name": "bccbc2b2038223419e62b71aecd8677e", "is_reserved": 0, "lon": -77.051335, "is_disabled": 0, "fusion_lat": 0.0, "lat": 38.90234733333333, "bike_id": "bccbc2b2038223419e62b71aecd8677e", "fusion_lon": 0.0}, {"rental_uris": {"ios": "https://dc.lft.to/lastmile_qr_scan", "android": "https://dc.lft.to/lastmile_qr_scan"}, "type": "electric_scooter", "name": "4667abbfb5e44dc4b9db6f9743c19efb", "is_reserved": 0, "lon": -77.04410583333333, "is_disabled": 0, "fusion_lat": 0.0, "lat": 38.911364166666665, "bike_id": "4667abbfb5e44dc4b9db6f9743c19efb", "fusion_lon": 0.0}, {"rental_uris": {"ios": "https://dc.lft.to/lastmile_qr_scan", "android": "https://dc.lft.to/lastmile_qr_scan"}, "type": "electric_scooter", "name": "a6c20311638240bbfb48d23840f54e06", "is_reserved": 0, "lon": -76.99341383333334, "is_disabled": 0, "fusion_lat": 0.0, "lat": 38.9002955, "bike_id": "a6c20311638240bbfb48d23840f54e06", "fusion_lon": 0.0}, {"rental_uris": {"ios": "https://dc.lft.to/lastmile_qr_scan", "android": "https://dc.lft.to/lastmile_qr_scan"}, "type": "electric_scooter", "name": "62c340816d05fc9ef11f5ea631f21dfc", "is_reserved": 0, "lon": -77.01372366666666, "is_disabled": 0, "fusion_lat": 0.0, "lat": 38.87607783333333, "bike_id": "62c340816d05fc9ef11f5ea631f21dfc", "fusion_lon": 0.0}, {"rental_uris": {"ios": "https://dc.lft.to/lastmile_qr_scan", "android": "https://dc.lft.to/lastmile_qr_scan"}, "type": "electric_scooter", "name": "e151ab4ac3f32eb19ccf658c294f19d2", "is_reserved": 0, "lon": -77.03653116666666, "is_disabled": 0, "fusion_lat": 0.0, "lat": 38.937606, "bike_id": "e151ab4ac3f32eb19ccf658c294f19d2", "fusion_lon": 0.0}, {"rental_uris": {"ios": "https://dc.lft.to/lastmile_qr_scan", "android": "https://dc.lft.to/lastmile_qr_scan"}, "type": "electric_scooter", "name": "b6dcd4b4ca83cc0828aeffa898d9ab78", "is_reserved": 0, "lon": -77.04608766666666, "is_disabled": 0, "fusion_lat": 0.0, "lat": 38.91617633333333, "bike_id": "b6dcd4b4ca83cc0828aeffa898d9ab78", "fusion_lon": 0.0}, {"rental_uris": {"ios": "https://dc.lft.to/lastmile_qr_scan", "android": "https://dc.lft.to/lastmile_qr_scan"}, "type": "electric_scooter", "name": "d9ef4eb682ffe7f0f694fa3df6de5344", "is_reserved": 0, "lon": -77.03667916666667, "is_disabled": 0, "fusion_lat": 0.0, "lat": 38.93206083333333, "bike_id": "d9ef4eb682ffe7f0f694fa3df6de5344", "fusion_lon": 0.0}, {"rental_uris": {"ios": "https://dc.lft.to/lastmile_qr_scan", "android": "https://dc.lft.to/lastmile_qr_scan"}, "type": "electric_scooter", "name": "f4db5f77b39a3004e3b2009bdd140529", "is_reserved": 0, "lon": -77.04691933333334, "is_disabled": 0, "fusion_lat": 0.0, "lat": 38.89741983333333, "bike_id": "f4db5f77b39a3004e3b2009bdd140529", "fusion_lon": 0.0}, {"rental_uris": {"ios": "https://dc.lft.to/lastmile_qr_scan", "android": "https://dc.lft.to/lastmile_qr_scan"}, "type": "electric_scooter", "name": "b49c6c4e0fa6ec5bcce93b6f74cc9c0b", "is_reserved": 0, "lon": -76.9964255, "is_disabled": 0, "fusion_lat": 0.0, "lat": 38.887645666666664, "bike_id": "b49c6c4e0fa6ec5bcce93b6f74cc9c0b", "fusion_lon": 0.0}, {"rental_uris": {"ios": "https://dc.lft.to/lastmile_qr_scan", "android": "https://dc.lft.to/lastmile_qr_scan"}, "type": "electric_scooter", "name": "f1189feac44dec6fb49f8e6157da8a43", "is_reserved": 0, "lon": -77.046583, "is_disabled": 0, "fusion_lat": 0.0, "lat": 38.893388333333334, "bike_id": "f1189feac44dec6fb49f8e6157da8a43", "fusion_lon": 0.0}, {"rental_uris": {"ios": "https://dc.lft.to/lastmile_qr_scan", "android": "https://dc.lft.to/lastmile_qr_scan"}, "type": "electric_scooter", "name": "8c78d3819feb41607bbb3ba7d47f2275", "is_reserved": 0, "lon": -77.00769216666667, "is_disabled": 0, "fusion_lat": 0.0, "lat": 38.90970183333334, "bike_id": "8c78d3819feb41607bbb3ba7d47f2275", "fusion_lon": 0.0}, {"rental_uris": {"ios": "https://dc.lft.to/lastmile_qr_scan", "android": "https://dc.lft.to/lastmile_qr_scan"}, "type": "electric_scooter", "name": "bae9b87d2a2559de5e6be7e0433b7066", "is_reserved": 0, "lon": -77.02164833333333, "is_disabled": 0, "fusion_lat": 0.0, "lat": 38.92, "bike_id": "bae9b87d2a2559de5e6be7e0433b7066", "fusion_lon": 0.0}, {"rental_uris": {"ios": "https://dc.lft.to/lastmile_qr_scan", "android": "https://dc.lft.to/lastmile_qr_scan"}, "type": "electric_bike", "name": "491043a5053c511f0189fe78ad4b34c6", "is_reserved": 0, "lon": -76.980895, "is_disabled": 0, "fusion_lat": 0.0, "lat": 38.95354183333333, "bike_id": "491043a5053c511f0189fe78ad4b34c6", "fusion_lon": 0.0}, {"rental_uris": {"ios": "https://dc.lft.to/lastmile_qr_scan", "android": "https://dc.lft.to/lastmile_qr_scan"}, "type": "electric_bike", "name": "baf05ebb93eb5651b10094f048d47a06", "is_reserved": 0, "lon": -76.9954525, "is_disabled": 0, "fusion_lat": 0.0, "lat": 38.831574333333336, "bike_id": "baf05ebb93eb5651b10094f048d47a06", "fusion_lon": 0.0}, {"rental_uris": {"ios": "https://dc.lft.to/lastmile_qr_scan", "android": "https://dc.lft.to/lastmile_qr_scan"}, "type": "electric_scooter", "name": "edccd667f5798519566bbce67437cfdf", "is_reserved": 0, "lon": -77.015123, "is_disabled": 0, "fusion_lat": 0.0, "lat": 38.88735333333333, "bike_id": "edccd667f5798519566bbce67437cfdf", "fusion_lon": 0.0}, {"rental_uris": {"ios": "https://dc.lft.to/lastmile_qr_scan", "android": "https://dc.lft.to/lastmile_qr_scan"}, "type": "electric_scooter", "name": "d93b67bc8b6a4b7c8563f976567a461e", "is_reserved": 0, "lon": -77.00901933333333, "is_disabled": 0, "fusion_lat": 0.0, "lat": 38.89900266666667, "bike_id": "d93b67bc8b6a4b7c8563f976567a461e", "fusion_lon": 0.0}, {"rental_uris": {"ios": "https://dc.lft.to/lastmile_qr_scan", "android": "https://dc.lft.to/lastmile_qr_scan"}, "type": "electric_scooter", "name": "0b3da2e9ef99ead31fedc9b05b067519", "is_reserved": 0, "lon": -76.97938083333334, "is_disabled": 0, "fusion_lat": 0.0, "lat": 38.906615, "bike_id": "0b3da2e9ef99ead31fedc9b05b067519", "fusion_lon": 0.0}, {"rental_uris": {"ios": "https://dc.lft.to/lastmile_qr_scan", "android": "https://dc.lft.to/lastmile_qr_scan"}, "type": "electric_scooter", "name": "114ee3e937f79c4659e7ede98c8aa759", "is_reserved": 0, "lon": -77.049036, "is_disabled": 0, "fusion_lat": 0.0, "lat": 38.8884445, "bike_id": "114ee3e937f79c4659e7ede98c8aa759", "fusion_lon": 0.0}, {"rental_uris": {"ios": "https://dc.lft.to/lastmile_qr_scan", "android": "https://dc.lft.to/lastmile_qr_scan"}, "type": "electric_scooter", "name": "11c61fca763ffc008290f036fa13aa02", "is_reserved": 0, "lon": -77.08789716666666, "is_disabled": 0, "fusion_lat": 0.0, "lat": 38.93543866666667, "bike_id": "11c61fca763ffc008290f036fa13aa02", "fusion_lon": 0.0}, {"rental_uris": {"ios": "https://dc.lft.to/lastmile_qr_scan", "android": "https://dc.lft.to/lastmile_qr_scan"}, "type": "electric_scooter", "name": "4db89a466b97704fd0891059f651cf21", "is_reserved": 0, "lon": -77.0346685, "is_disabled": 0, "fusion_lat": 0.0, "lat": 38.915882833333335, "bike_id": "4db89a466b97704fd0891059f651cf21", "fusion_lon": 0.0}, {"rental_uris": {"ios": "https://dc.lft.to/lastmile_qr_scan", "android": "https://dc.lft.to/lastmile_qr_scan"}, "type": "electric_scooter", "name": "3e86b4f85c9e9db9c572f6b5c7426ac7", "is_reserved": 0, "lon": -77.04358716666667, "is_disabled": 0, "fusion_lat": 0.0, "lat": 38.92143166666666, "bike_id": "3e86b4f85c9e9db9c572f6b5c7426ac7", "fusion_lon": 0.0}, {"rental_uris": {"ios": "https://dc.lft.to/lastmile_qr_scan", "android": "https://dc.lft.to/lastmile_qr_scan"}, "type": "electric_scooter", "name": "4f950dcea20f08b8d91d32e4cfba20de", "is_reserved": 0, "lon": -77.055129, "is_disabled": 0, "fusion_lat": 0.0, "lat": 38.928380833333335, "bike_id": "4f950dcea20f08b8d91d32e4cfba20de", "fusion_lon": 0.0}, {"rental_uris": {"ios": "https://dc.lft.to/lastmile_qr_scan", "android": "https://dc.lft.to/lastmile_qr_scan"}, "type": "electric_scooter", "name": "c36bc54beef8754e894ee34a34840353", "is_reserved": 0, "lon": -77.04122633333333, "is_disabled": 0, "fusion_lat": 0.0, "lat": 38.928758333333334, "bike_id": "c36bc54beef8754e894ee34a34840353", "fusion_lon": 0.0}, {"rental_uris": {"ios": "https://dc.lft.to/lastmile_qr_scan", "android": "https://dc.lft.to/lastmile_qr_scan"}, "type": "electric_scooter", "name": "8893c40c804b4ff816a280b2b56648a4", "is_reserved": 0, "lon": -76.94463483333334, "is_disabled": 0, "fusion_lat": 0.0, "lat": 38.89029216666667, "bike_id": "8893c40c804b4ff816a280b2b56648a4", "fusion_lon": 0.0}, {"rental_uris": {"ios": "https://dc.lft.to/lastmile_qr_scan", "android": "https://dc.lft.to/lastmile_qr_scan"}, "type": "electric_scooter", "name": "c23e6355bf756313956669a6420a600e", "is_reserved": 0, "lon": -77.07086716666667, "is_disabled": 0, "fusion_lat": 0.0, "lat": 38.8978705, "bike_id": "c23e6355bf756313956669a6420a600e", "fusion_lon": 0.0}, {"rental_uris": {"ios": "https://dc.lft.to/lastmile_qr_scan", "android": "https://dc.lft.to/lastmile_qr_scan"}, "type": "electric_bike", "name": "4cccac2e36597cfeae93391c2b40fba7", "is_reserved": 0, "lon": -77.02406233333333, "is_disabled": 0, "fusion_lat": 0.0, "lat": 38.9341455, "bike_id": "4cccac2e36597cfeae93391c2b40fba7", "fusion_lon": 0.0}, {"rental_uris": {"ios": "https://dc.lft.to/lastmile_qr_scan", "android": "https://dc.lft.to/lastmile_qr_scan"}, "type": "electric_scooter", "name": "385bb2dea2742f5eb98caedf9416575c", "is_reserved": 0, "lon": -77.0200745, "is_disabled": 0, "fusion_lat": 0.0, "lat": 38.89917633333334, "bike_id": "385bb2dea2742f5eb98caedf9416575c", "fusion_lon": 0.0}, {"rental_uris": {"ios": "https://dc.lft.to/lastmile_qr_scan", "android": "https://dc.lft.to/lastmile_qr_scan"}, "type": "electric_scooter", "name": "b864bf018e19cf0dd4c078978ab9754f", "is_reserved": 0, "lon": -77.03476833333333, "is_disabled": 0, "fusion_lat": 0.0, "lat": 38.93531266666667, "bike_id": "b864bf018e19cf0dd4c078978ab9754f", "fusion_lon": 0.0}, {"rental_uris": {"ios": "https://dc.lft.to/lastmile_qr_scan", "android": "https://dc.lft.to/lastmile_qr_scan"}, "type": "electric_scooter", "name": "dbf6b9d6556e676c8abbfa09afe125ed", "is_reserved": 0, "lon": -76.97331883333334, "is_disabled": 0, "fusion_lat": 0.0, "lat": 38.9040875, "bike_id": "dbf6b9d6556e676c8abbfa09afe125ed", "fusion_lon": 0.0}, {"rental_uris": {"ios": "https://dc.lft.to/lastmile_qr_scan", "android": "https://dc.lft.to/lastmile_qr_scan"}, "type": "electric_scooter", "name": "933576816de794a45ee538a3542ef092", "is_reserved": 0, "lon": -77.04817866666667, "is_disabled": 0, "fusion_lat": 0.0, "lat": 38.914894, "bike_id": "933576816de794a45ee538a3542ef092", "fusion_lon": 0.0}, {"rental_uris": {"ios": "https://dc.lft.to/lastmile_qr_scan", "android": "https://dc.lft.to/lastmile_qr_scan"}, "type": "electric_bike", "name": "9d988a0745dd7a8d88b6014a2c1a7cf5", "is_reserved": 0, "lon": -77.06948266666667, "is_disabled": 0, "fusion_lat": 0.0, "lat": 38.83626733333333, "bike_id": "9d988a0745dd7a8d88b6014a2c1a7cf5", "fusion_lon": 0.0}, {"rental_uris": {"ios": "https://dc.lft.to/lastmile_qr_scan", "android": "https://dc.lft.to/lastmile_qr_scan"}, "type": "electric_scooter", "name": "f2f8c4804717dc0f0511848cc0baa294", "is_reserved": 0, "lon": -77.00133333333333, "is_disabled": 0, "fusion_lat": 0.0, "lat": 38.874953166666664, "bike_id": "f2f8c4804717dc0f0511848cc0baa294", "fusion_lon": 0.0}, {"rental_uris": {"ios": "https://dc.lft.to/lastmile_qr_scan", "android": "https://dc.lft.to/lastmile_qr_scan"}, "type": "electric_scooter", "name": "b056e1432837d994ccbb2cda4143f6ef", "is_reserved": 0, "lon": -77.03398383333334, "is_disabled": 0, "fusion_lat": 0.0, "lat": 38.920582833333334, "bike_id": "b056e1432837d994ccbb2cda4143f6ef", "fusion_lon": 0.0}, {"rental_uris": {"ios": "https://dc.lft.to/lastmile_qr_scan", "android": "https://dc.lft.to/lastmile_qr_scan"}, "type": "electric_scooter", "name": "48ce3c896e35a5880d6b70e429c252c2", "is_reserved": 0, "lon": -77.03971133333333, "is_disabled": 0, "fusion_lat": 0.0, "lat": 38.93149666666667, "bike_id": "48ce3c896e35a5880d6b70e429c252c2", "fusion_lon": 0.0}, {"rental_uris": {"ios": "https://dc.lft.to/lastmile_qr_scan", "android": "https://dc.lft.to/lastmile_qr_scan"}, "type": "electric_scooter", "name": "da009ec569b079b52947642c261c437b", "is_reserved": 0, "lon": -77.02712833333334, "is_disabled": 0, "fusion_lat": 0.0, "lat": 38.917273, "bike_id": "da009ec569b079b52947642c261c437b", "fusion_lon": 0.0}, {"rental_uris": {"ios": "https://dc.lft.to/lastmile_qr_scan", "android": "https://dc.lft.to/lastmile_qr_scan"}, "type": "electric_scooter", "name": "5ac84a0a530012301855c2a84b41e284", "is_reserved": 0, "lon": -77.04916916666667, "is_disabled": 0, "fusion_lat": 0.0, "lat": 38.90063166666667, "bike_id": "5ac84a0a530012301855c2a84b41e284", "fusion_lon": 0.0}, {"rental_uris": {"ios": "https://dc.lft.to/lastmile_qr_scan", "android": "https://dc.lft.to/lastmile_qr_scan"}, "type": "electric_scooter", "name": "5daf5a58df0b91c0b91f00dfbdd6a8f3", "is_reserved": 0, "lon": -76.99589283333333, "is_disabled": 0, "fusion_lat": 0.0, "lat": 38.90937666666667, "bike_id": "5daf5a58df0b91c0b91f00dfbdd6a8f3", "fusion_lon": 0.0}, {"rental_uris": {"ios": "https://dc.lft.to/lastmile_qr_scan", "android": "https://dc.lft.to/lastmile_qr_scan"}, "type": "electric_scooter", "name": "ee9b1866363f92aa9152eb33d5da16d8", "is_reserved": 0, "lon": -77.0684435, "is_disabled": 0, "fusion_lat": 0.0, "lat": 38.904062333333336, "bike_id": "ee9b1866363f92aa9152eb33d5da16d8", "fusion_lon": 0.0}, {"rental_uris": {"ios": "https://dc.lft.to/lastmile_qr_scan", "android": "https://dc.lft.to/lastmile_qr_scan"}, "type": "electric_scooter", "name": "7ec259e70abb2023440dc2f740cf6ff2", "is_reserved": 0, "lon": -77.02008183333334, "is_disabled": 0, "fusion_lat": 0.0, "lat": 38.901337, "bike_id": "7ec259e70abb2023440dc2f740cf6ff2", "fusion_lon": 0.0}, {"rental_uris": {"ios": "https://dc.lft.to/lastmile_qr_scan", "android": "https://dc.lft.to/lastmile_qr_scan"}, "type": "electric_scooter", "name": "8d7424df5b2e9a91114ed308ddd91074", "is_reserved": 0, "lon": -77.0115225, "is_disabled": 0, "fusion_lat": 0.0, "lat": 38.909555166666664, "bike_id": "8d7424df5b2e9a91114ed308ddd91074", "fusion_lon": 0.0}, {"rental_uris": {"ios": "https://dc.lft.to/lastmile_qr_scan", "android": "https://dc.lft.to/lastmile_qr_scan"}, "type": "electric_scooter", "name": "1047f10089c776dde09350ec83102635", "is_reserved": 0, "lon": -77.06095733333333, "is_disabled": 0, "fusion_lat": 0.0, "lat": 38.939886666666666, "bike_id": "1047f10089c776dde09350ec83102635", "fusion_lon": 0.0}, {"rental_uris": {"ios": "https://dc.lft.to/lastmile_qr_scan", "android": "https://dc.lft.to/lastmile_qr_scan"}, "type": "electric_scooter", "name": "d9e99141e8b1054c702d8df6cb772807", "is_reserved": 0, "lon": -77.04359616666666, "is_disabled": 0, "fusion_lat": 0.0, "lat": 38.892222, "bike_id": "d9e99141e8b1054c702d8df6cb772807", "fusion_lon": 0.0}, {"rental_uris": {"ios": "https://dc.lft.to/lastmile_qr_scan", "android": "https://dc.lft.to/lastmile_qr_scan"}, "type": "electric_scooter", "name": "2792b4ee9c49d936600a28ccf33dd958", "is_reserved": 0, "lon": -77.04805933333333, "is_disabled": 0, "fusion_lat": 0.0, "lat": 38.899528833333335, "bike_id": "2792b4ee9c49d936600a28ccf33dd958", "fusion_lon": 0.0}, {"rental_uris": {"ios": "https://dc.lft.to/lastmile_qr_scan", "android": "https://dc.lft.to/lastmile_qr_scan"}, "type": "electric_scooter", "name": "b8dd77f6df67266a0f112161553cc54a", "is_reserved": 0, "lon": -77.03276316666667, "is_disabled": 0, "fusion_lat": 0.0, "lat": 38.919908166666666, "bike_id": "b8dd77f6df67266a0f112161553cc54a", "fusion_lon": 0.0}, {"rental_uris": {"ios": "https://dc.lft.to/lastmile_qr_scan", "android": "https://dc.lft.to/lastmile_qr_scan"}, "type": "electric_scooter", "name": "6808ac52f31553df25af0c0122218d11", "is_reserved": 0, "lon": -77.040621, "is_disabled": 0, "fusion_lat": 0.0, "lat": 38.9176455, "bike_id": "6808ac52f31553df25af0c0122218d11", "fusion_lon": 0.0}, {"rental_uris": {"ios": "https://dc.lft.to/lastmile_qr_scan", "android": "https://dc.lft.to/lastmile_qr_scan"}, "type": "electric_scooter", "name": "4f41ccd85e124a7a7703233c7eea2b2b", "is_reserved": 0, "lon": -77.04806233333333, "is_disabled": 0, "fusion_lat": 0.0, "lat": 38.920328166666664, "bike_id": "4f41ccd85e124a7a7703233c7eea2b2b", "fusion_lon": 0.0}, {"rental_uris": {"ios": "https://dc.lft.to/lastmile_qr_scan", "android": "https://dc.lft.to/lastmile_qr_scan"}, "type": "electric_scooter", "name": "2b3f0b3359c25752621a47343c1c905e", "is_reserved": 0, "lon": -77.03401816666667, "is_disabled": 0, "fusion_lat": 0.0, "lat": 38.909568166666666, "bike_id": "2b3f0b3359c25752621a47343c1c905e", "fusion_lon": 0.0}, {"rental_uris": {"ios": "https://dc.lft.to/lastmile_qr_scan", "android": "https://dc.lft.to/lastmile_qr_scan"}, "type": "electric_scooter", "name": "2cb093dcf6474d387ca4efef1bc26a5b", "is_reserved": 0, "lon": -77.03160883333334, "is_disabled": 0, "fusion_lat": 0.0, "lat": 38.959316666666666, "bike_id": "2cb093dcf6474d387ca4efef1bc26a5b", "fusion_lon": 0.0}, {"rental_uris": {"ios": "https://dc.lft.to/lastmile_qr_scan", "android": "https://dc.lft.to/lastmile_qr_scan"}, "type": "electric_bike", "name": "2cce340155d13646da1fe2be637357b6", "is_reserved": 0, "lon": -76.98634483333333, "is_disabled": 0, "fusion_lat": 0.0, "lat": 38.93684833333333, "bike_id": "2cce340155d13646da1fe2be637357b6", "fusion_lon": 0.0}, {"rental_uris": {"ios": "https://dc.lft.to/lastmile_qr_scan", "android": "https://dc.lft.to/lastmile_qr_scan"}, "type": "electric_scooter", "name": "fba0a59b85c379bbe22dcb46e145c992", "is_reserved": 0, "lon": -77.03386183333333, "is_disabled": 0, "fusion_lat": 0.0, "lat": 38.899667, "bike_id": "fba0a59b85c379bbe22dcb46e145c992", "fusion_lon": 0.0}, {"rental_uris": {"ios": "https://dc.lft.to/lastmile_qr_scan", "android": "https://dc.lft.to/lastmile_qr_scan"}, "type": "electric_scooter", "name": "506d34325f0c398c3baa108cff6777dc", "is_reserved": 0, "lon": -77.0297065, "is_disabled": 0, "fusion_lat": 0.0, "lat": 38.9115385, "bike_id": "506d34325f0c398c3baa108cff6777dc", "fusion_lon": 0.0}, {"rental_uris": {"ios": "https://dc.lft.to/lastmile_qr_scan", "android": "https://dc.lft.to/lastmile_qr_scan"}, "type": "electric_scooter", "name": "7a1fa537cab7b556412c704881140c46", "is_reserved": 0, "lon": -77.0322205, "is_disabled": 0, "fusion_lat": 0.0, "lat": 38.898961666666665, "bike_id": "7a1fa537cab7b556412c704881140c46", "fusion_lon": 0.0}, {"rental_uris": {"ios": "https://dc.lft.to/lastmile_qr_scan", "android": "https://dc.lft.to/lastmile_qr_scan"}, "type": "electric_scooter", "name": "98fc5322a49d8dfdbfc923393118fd94", "is_reserved": 0, "lon": -76.98338133333333, "is_disabled": 0, "fusion_lat": 0.0, "lat": 38.900851, "bike_id": "98fc5322a49d8dfdbfc923393118fd94", "fusion_lon": 0.0}, {"rental_uris": {"ios": "https://dc.lft.to/lastmile_qr_scan", "android": "https://dc.lft.to/lastmile_qr_scan"}, "type": "electric_scooter", "name": "7d76b04d638ac5fd1cc2533b73109856", "is_reserved": 0, "lon": -77.02002183333333, "is_disabled": 0, "fusion_lat": 0.0, "lat": 38.899064, "bike_id": "7d76b04d638ac5fd1cc2533b73109856", "fusion_lon": 0.0}, {"rental_uris": {"ios": "https://dc.lft.to/lastmile_qr_scan", "android": "https://dc.lft.to/lastmile_qr_scan"}, "type": "electric_scooter", "name": "3d0bb3128b61ce28bb996f6658ceff28", "is_reserved": 0, "lon": -76.990736, "is_disabled": 0, "fusion_lat": 0.0, "lat": 38.904167, "bike_id": "3d0bb3128b61ce28bb996f6658ceff28", "fusion_lon": 0.0}, {"rental_uris": {"ios": "https://dc.lft.to/lastmile_qr_scan", "android": "https://dc.lft.to/lastmile_qr_scan"}, "type": "electric_scooter", "name": "bfd16aac6454e95d6efb2bc9b564ef63", "is_reserved": 0, "lon": -77.0613415, "is_disabled": 0, "fusion_lat": 0.0, "lat": 38.94308066666667, "bike_id": "bfd16aac6454e95d6efb2bc9b564ef63", "fusion_lon": 0.0}, {"rental_uris": {"ios": "https://dc.lft.to/lastmile_qr_scan", "android": "https://dc.lft.to/lastmile_qr_scan"}, "type": "electric_scooter", "name": "0f3833856b56da0d4778bec1d829184d", "is_reserved": 0, "lon": -77.0192145, "is_disabled": 0, "fusion_lat": 0.0, "lat": 38.928713333333334, "bike_id": "0f3833856b56da0d4778bec1d829184d", "fusion_lon": 0.0}, {"rental_uris": {"ios": "https://dc.lft.to/lastmile_qr_scan", "android": "https://dc.lft.to/lastmile_qr_scan"}, "type": "electric_bike", "name": "fa35cfa391848039d5c192fa6d77ce82", "is_reserved": 0, "lon": -77.001573, "is_disabled": 0, "fusion_lat": 0.0, "lat": 38.94156483333333, "bike_id": "fa35cfa391848039d5c192fa6d77ce82", "fusion_lon": 0.0}, {"rental_uris": {"ios": "https://dc.lft.to/lastmile_qr_scan", "android": "https://dc.lft.to/lastmile_qr_scan"}, "type": "electric_scooter", "name": "a823c07f48fc7b1a100f6575aeee6148", "is_reserved": 0, "lon": -77.03055, "is_disabled": 0, "fusion_lat": 0.0, "lat": 38.9071595, "bike_id": "a823c07f48fc7b1a100f6575aeee6148", "fusion_lon": 0.0}, {"rental_uris": {"ios": "https://dc.lft.to/lastmile_qr_scan", "android": "https://dc.lft.to/lastmile_qr_scan"}, "type": "electric_scooter", "name": "ee7a5c941044a2ef2c96d73156304a3f", "is_reserved": 0, "lon": -77.01108416666666, "is_disabled": 0, "fusion_lat": 0.0, "lat": 38.90970633333333, "bike_id": "ee7a5c941044a2ef2c96d73156304a3f", "fusion_lon": 0.0}, {"rental_uris": {"ios": "https://dc.lft.to/lastmile_qr_scan", "android": "https://dc.lft.to/lastmile_qr_scan"}, "type": "electric_scooter", "name": "d0e2e52666a87d1f443a28daaa9c930c", "is_reserved": 0, "lon": -77.026046, "is_disabled": 0, "fusion_lat": 0.0, "lat": 38.91905466666667, "bike_id": "d0e2e52666a87d1f443a28daaa9c930c", "fusion_lon": 0.0}, {"rental_uris": {"ios": "https://dc.lft.to/lastmile_qr_scan", "android": "https://dc.lft.to/lastmile_qr_scan"}, "type": "electric_scooter", "name": "fe2dfe8b4462cea3d00dfa8ba7cb1807", "is_reserved": 0, "lon": -77.04588983333333, "is_disabled": 0, "fusion_lat": 0.0, "lat": 38.914470333333334, "bike_id": "fe2dfe8b4462cea3d00dfa8ba7cb1807", "fusion_lon": 0.0}, {"rental_uris": {"ios": "https://dc.lft.to/lastmile_qr_scan", "android": "https://dc.lft.to/lastmile_qr_scan"}, "type": "electric_scooter", "name": "eff5d9ce09fef8ad484303270ff2389e", "is_reserved": 0, "lon": -77.0247615, "is_disabled": 0, "fusion_lat": 0.0, "lat": 38.937143666666664, "bike_id": "eff5d9ce09fef8ad484303270ff2389e", "fusion_lon": 0.0}, {"rental_uris": {"ios": "https://dc.lft.to/lastmile_qr_scan", "android": "https://dc.lft.to/lastmile_qr_scan"}, "type": "electric_bike", "name": "982e73fd93fdb5e8b52cc8dad611e9f5", "is_reserved": 0, "lon": -76.99682216666666, "is_disabled": 0, "fusion_lat": 0.0, "lat": 38.83818, "bike_id": "982e73fd93fdb5e8b52cc8dad611e9f5", "fusion_lon": 0.0}, {"rental_uris": {"ios": "https://dc.lft.to/lastmile_qr_scan", "android": "https://dc.lft.to/lastmile_qr_scan"}, "type": "electric_scooter", "name": "0be05b5ecde9173452c5477fb7bc5efc", "is_reserved": 0, "lon": -77.01749683333334, "is_disabled": 0, "fusion_lat": 0.0, "lat": 38.88728283333333, "bike_id": "0be05b5ecde9173452c5477fb7bc5efc", "fusion_lon": 0.0}, {"rental_uris": {"ios": "https://dc.lft.to/lastmile_qr_scan", "android": "https://dc.lft.to/lastmile_qr_scan"}, "type": "electric_scooter", "name": "9b609d040c561e09e132d972fd7f0c73", "is_reserved": 0, "lon": -77.06035683333333, "is_disabled": 0, "fusion_lat": 0.0, "lat": 38.90230666666667, "bike_id": "9b609d040c561e09e132d972fd7f0c73", "fusion_lon": 0.0}, {"rental_uris": {"ios": "https://dc.lft.to/lastmile_qr_scan", "android": "https://dc.lft.to/lastmile_qr_scan"}, "type": "electric_scooter", "name": "fd7c4b7b4ec05104922279fc45a0e20d", "is_reserved": 0, "lon": -77.02960716666666, "is_disabled": 0, "fusion_lat": 0.0, "lat": 38.910135, "bike_id": "fd7c4b7b4ec05104922279fc45a0e20d", "fusion_lon": 0.0}, {"rental_uris": {"ios": "https://dc.lft.to/lastmile_qr_scan", "android": "https://dc.lft.to/lastmile_qr_scan"}, "type": "electric_bike", "name": "2865cd16f4f2461032b02917f6d62cc2", "is_reserved": 0, "lon": -77.0123935, "is_disabled": 0, "fusion_lat": 0.0, "lat": 38.950748, "bike_id": "2865cd16f4f2461032b02917f6d62cc2", "fusion_lon": 0.0}, {"rental_uris": {"ios": "https://dc.lft.to/lastmile_qr_scan", "android": "https://dc.lft.to/lastmile_qr_scan"}, "type": "electric_scooter", "name": "ccac1dd4c44e317b81eb9fd26fd8efa1", "is_reserved": 0, "lon": -77.0156445, "is_disabled": 0, "fusion_lat": 0.0, "lat": 38.8848765, "bike_id": "ccac1dd4c44e317b81eb9fd26fd8efa1", "fusion_lon": 0.0}, {"rental_uris": {"ios": "https://dc.lft.to/lastmile_qr_scan", "android": "https://dc.lft.to/lastmile_qr_scan"}, "type": "electric_scooter", "name": "3895884ae9a3c8c5b7d3d8ac185eb6f5", "is_reserved": 0, "lon": -77.03972966666667, "is_disabled": 0, "fusion_lat": 0.0, "lat": 38.901264, "bike_id": "3895884ae9a3c8c5b7d3d8ac185eb6f5", "fusion_lon": 0.0}, {"rental_uris": {"ios": "https://dc.lft.to/lastmile_qr_scan", "android": "https://dc.lft.to/lastmile_qr_scan"}, "type": "electric_scooter", "name": "17cb458f079770b432ff825099a0cd56", "is_reserved": 0, "lon": -77.02127133333333, "is_disabled": 0, "fusion_lat": 0.0, "lat": 38.92797266666667, "bike_id": "17cb458f079770b432ff825099a0cd56", "fusion_lon": 0.0}, {"rental_uris": {"ios": "https://dc.lft.to/lastmile_qr_scan", "android": "https://dc.lft.to/lastmile_qr_scan"}, "type": "electric_scooter", "name": "7e3f3f1ded30e7d61ad30ee5654e34b6", "is_reserved": 0, "lon": -77.06862383333333, "is_disabled": 0, "fusion_lat": 0.0, "lat": 38.9040465, "bike_id": "7e3f3f1ded30e7d61ad30ee5654e34b6", "fusion_lon": 0.0}, {"rental_uris": {"ios": "https://dc.lft.to/lastmile_qr_scan", "android": "https://dc.lft.to/lastmile_qr_scan"}, "type": "electric_scooter", "name": "f797b3106847438521ef825993f01639", "is_reserved": 0, "lon": -77.019878, "is_disabled": 0, "fusion_lat": 0.0, "lat": 38.89971283333333, "bike_id": "f797b3106847438521ef825993f01639", "fusion_lon": 0.0}, {"rental_uris": {"ios": "https://dc.lft.to/lastmile_qr_scan", "android": "https://dc.lft.to/lastmile_qr_scan"}, "type": "electric_bike", "name": "ae08694c7a35f8b47bb35299851a3bc9", "is_reserved": 0, "lon": -76.96888216666666, "is_disabled": 0, "fusion_lat": 0.0, "lat": 38.869878, "bike_id": "ae08694c7a35f8b47bb35299851a3bc9", "fusion_lon": 0.0}, {"rental_uris": {"ios": "https://dc.lft.to/lastmile_qr_scan", "android": "https://dc.lft.to/lastmile_qr_scan"}, "type": "electric_scooter", "name": "e2b7916b6e51384f923de79664ad3b26", "is_reserved": 0, "lon": -77.00924016666667, "is_disabled": 0, "fusion_lat": 0.0, "lat": 38.87449066666667, "bike_id": "e2b7916b6e51384f923de79664ad3b26", "fusion_lon": 0.0}, {"rental_uris": {"ios": "https://dc.lft.to/lastmile_qr_scan", "android": "https://dc.lft.to/lastmile_qr_scan"}, "type": "electric_scooter", "name": "1f8163e511364da783c6e00d82e77bea", "is_reserved": 0, "lon": -77.0270785, "is_disabled": 0, "fusion_lat": 0.0, "lat": 38.908903, "bike_id": "1f8163e511364da783c6e00d82e77bea", "fusion_lon": 0.0}, {"rental_uris": {"ios": "https://dc.lft.to/lastmile_qr_scan", "android": "https://dc.lft.to/lastmile_qr_scan"}, "type": "electric_scooter", "name": "42ddf5fdb21aebe8395c9c26f2390b95", "is_reserved": 0, "lon": -77.035581, "is_disabled": 0, "fusion_lat": 0.0, "lat": 38.927397666666664, "bike_id": "42ddf5fdb21aebe8395c9c26f2390b95", "fusion_lon": 0.0}, {"rental_uris": {"ios": "https://dc.lft.to/lastmile_qr_scan", "android": "https://dc.lft.to/lastmile_qr_scan"}, "type": "electric_scooter", "name": "6006a3c3d1ef2ebbafe7a247cfde5133", "is_reserved": 0, "lon": -77.0497475, "is_disabled": 0, "fusion_lat": 0.0, "lat": 38.90302166666667, "bike_id": "6006a3c3d1ef2ebbafe7a247cfde5133", "fusion_lon": 0.0}, {"rental_uris": {"ios": "https://dc.lft.to/lastmile_qr_scan", "android": "https://dc.lft.to/lastmile_qr_scan"}, "type": "electric_scooter", "name": "16d6b3574d8896624aeac1a7395b663e", "is_reserved": 0, "lon": -76.9914285, "is_disabled": 0, "fusion_lat": 0.0, "lat": 38.873371666666664, "bike_id": "16d6b3574d8896624aeac1a7395b663e", "fusion_lon": 0.0}, {"rental_uris": {"ios": "https://dc.lft.to/lastmile_qr_scan", "android": "https://dc.lft.to/lastmile_qr_scan"}, "type": "electric_scooter", "name": "9da746fb918d1c8fd5329e24951ee7af", "is_reserved": 0, "lon": -77.013707, "is_disabled": 0, "fusion_lat": 0.0, "lat": 38.912679, "bike_id": "9da746fb918d1c8fd5329e24951ee7af", "fusion_lon": 0.0}, {"rental_uris": {"ios": "https://dc.lft.to/lastmile_qr_scan", "android": "https://dc.lft.to/lastmile_qr_scan"}, "type": "electric_bike", "name": "5f559e9cb5daa1d7d95c7414ba059025", "is_reserved": 0, "lon": -77.12892483333333, "is_disabled": 0, "fusion_lat": 0.0, "lat": 38.906075, "bike_id": "5f559e9cb5daa1d7d95c7414ba059025", "fusion_lon": 0.0}, {"rental_uris": {"ios": "https://dc.lft.to/lastmile_qr_scan", "android": "https://dc.lft.to/lastmile_qr_scan"}, "type": "electric_scooter", "name": "7342e922d14f1145d2f69dd94a498789", "is_reserved": 0, "lon": -77.04000683333334, "is_disabled": 0, "fusion_lat": 0.0, "lat": 38.93425383333334, "bike_id": "7342e922d14f1145d2f69dd94a498789", "fusion_lon": 0.0}, {"rental_uris": {"ios": "https://dc.lft.to/lastmile_qr_scan", "android": "https://dc.lft.to/lastmile_qr_scan"}, "type": "electric_scooter", "name": "d385739aa68dd64f367d7cffedd85701", "is_reserved": 0, "lon": -76.996262, "is_disabled": 0, "fusion_lat": 0.0, "lat": 38.877375, "bike_id": "d385739aa68dd64f367d7cffedd85701", "fusion_lon": 0.0}, {"rental_uris": {"ios": "https://dc.lft.to/lastmile_qr_scan", "android": "https://dc.lft.to/lastmile_qr_scan"}, "type": "electric_scooter", "name": "ed2aeca8c403300e66433aa1dd24dc6a", "is_reserved": 0, "lon": -77.00729033333333, "is_disabled": 0, "fusion_lat": 0.0, "lat": 38.90557916666667, "bike_id": "ed2aeca8c403300e66433aa1dd24dc6a", "fusion_lon": 0.0}, {"rental_uris": {"ios": "https://dc.lft.to/lastmile_qr_scan", "android": "https://dc.lft.to/lastmile_qr_scan"}, "type": "electric_scooter", "name": "f5e167c7cb109b8da8dbcb9c70b72a91", "is_reserved": 0, "lon": -77.0472995, "is_disabled": 0, "fusion_lat": 0.0, "lat": 38.89554433333333, "bike_id": "f5e167c7cb109b8da8dbcb9c70b72a91", "fusion_lon": 0.0}, {"rental_uris": {"ios": "https://dc.lft.to/lastmile_qr_scan", "android": "https://dc.lft.to/lastmile_qr_scan"}, "type": "electric_scooter", "name": "18a47d897a9dedcf13f10a10a4472947", "is_reserved": 0, "lon": -77.02384583333334, "is_disabled": 0, "fusion_lat": 0.0, "lat": 38.916550666666666, "bike_id": "18a47d897a9dedcf13f10a10a4472947", "fusion_lon": 0.0}, {"rental_uris": {"ios": "https://dc.lft.to/lastmile_qr_scan", "android": "https://dc.lft.to/lastmile_qr_scan"}, "type": "electric_scooter", "name": "d95cd41e420ac39ff7f7a6faba776f94", "is_reserved": 0, "lon": -76.93183016666667, "is_disabled": 0, "fusion_lat": 0.0, "lat": 38.89875583333333, "bike_id": "d95cd41e420ac39ff7f7a6faba776f94", "fusion_lon": 0.0}, {"rental_uris": {"ios": "https://dc.lft.to/lastmile_qr_scan", "android": "https://dc.lft.to/lastmile_qr_scan"}, "type": "electric_scooter", "name": "9648e87c28ff4a765338d41b948d1062", "is_reserved": 0, "lon": -77.02160633333334, "is_disabled": 0, "fusion_lat": 0.0, "lat": 38.9199035, "bike_id": "9648e87c28ff4a765338d41b948d1062", "fusion_lon": 0.0}, {"rental_uris": {"ios": "https://dc.lft.to/lastmile_qr_scan", "android": "https://dc.lft.to/lastmile_qr_scan"}, "type": "electric_scooter", "name": "ea47cc2abff3285c88c01050bb4badb2", "is_reserved": 0, "lon": -77.0455195, "is_disabled": 0, "fusion_lat": 0.0, "lat": 38.912677, "bike_id": "ea47cc2abff3285c88c01050bb4badb2", "fusion_lon": 0.0}, {"rental_uris": {"ios": "https://dc.lft.to/lastmile_qr_scan", "android": "https://dc.lft.to/lastmile_qr_scan"}, "type": "electric_scooter", "name": "d4ed00d70c0566f7d63f3452de9e8ee0", "is_reserved": 0, "lon": -77.05171216666666, "is_disabled": 0, "fusion_lat": 0.0, "lat": 38.90324016666667, "bike_id": "d4ed00d70c0566f7d63f3452de9e8ee0", "fusion_lon": 0.0}, {"rental_uris": {"ios": "https://dc.lft.to/lastmile_qr_scan", "android": "https://dc.lft.to/lastmile_qr_scan"}, "type": "electric_scooter", "name": "f627b9cd35cdd36538c97aaf7db1d9b5", "is_reserved": 0, "lon": -77.06986566666667, "is_disabled": 0, "fusion_lat": 0.0, "lat": 38.95527166666667, "bike_id": "f627b9cd35cdd36538c97aaf7db1d9b5", "fusion_lon": 0.0}, {"rental_uris": {"ios": "https://dc.lft.to/lastmile_qr_scan", "android": "https://dc.lft.to/lastmile_qr_scan"}, "type": "electric_scooter", "name": "5e93a98ad736998851142d56921ef4cb", "is_reserved": 0, "lon": -77.01818133333333, "is_disabled": 0, "fusion_lat": 0.0, "lat": 38.905472333333336, "bike_id": "5e93a98ad736998851142d56921ef4cb", "fusion_lon": 0.0}, {"rental_uris": {"ios": "https://dc.lft.to/lastmile_qr_scan", "android": "https://dc.lft.to/lastmile_qr_scan"}, "type": "electric_scooter", "name": "4567c3b72bc6def20bbe691cb46a5277", "is_reserved": 0, "lon": -77.03851416666667, "is_disabled": 0, "fusion_lat": 0.0, "lat": 38.914896666666664, "bike_id": "4567c3b72bc6def20bbe691cb46a5277", "fusion_lon": 0.0}, {"rental_uris": {"ios": "https://dc.lft.to/lastmile_qr_scan", "android": "https://dc.lft.to/lastmile_qr_scan"}, "type": "electric_scooter", "name": "933939103dc6fa1bb498197d9ce42321", "is_reserved": 0, "lon": -77.0172505, "is_disabled": 0, "fusion_lat": 0.0, "lat": 38.905571, "bike_id": "933939103dc6fa1bb498197d9ce42321", "fusion_lon": 0.0}, {"rental_uris": {"ios": "https://dc.lft.to/lastmile_qr_scan", "android": "https://dc.lft.to/lastmile_qr_scan"}, "type": "electric_scooter", "name": "7e088784882588352f51292f8d386eaa", "is_reserved": 0, "lon": -77.0101965, "is_disabled": 0, "fusion_lat": 0.0, "lat": 38.912593333333334, "bike_id": "7e088784882588352f51292f8d386eaa", "fusion_lon": 0.0}, {"rental_uris": {"ios": "https://dc.lft.to/lastmile_qr_scan", "android": "https://dc.lft.to/lastmile_qr_scan"}, "type": "electric_scooter", "name": "1641f5e18365db985b0bcfc414ec3238", "is_reserved": 0, "lon": -77.03210933333334, "is_disabled": 0, "fusion_lat": 0.0, "lat": 38.91635083333333, "bike_id": "1641f5e18365db985b0bcfc414ec3238", "fusion_lon": 0.0}, {"rental_uris": {"ios": "https://dc.lft.to/lastmile_qr_scan", "android": "https://dc.lft.to/lastmile_qr_scan"}, "type": "electric_scooter", "name": "d6e391e6a31024f5a24023e49ea30bca", "is_reserved": 0, "lon": -77.038548, "is_disabled": 0, "fusion_lat": 0.0, "lat": 38.9166055, "bike_id": "d6e391e6a31024f5a24023e49ea30bca", "fusion_lon": 0.0}, {"rental_uris": {"ios": "https://dc.lft.to/lastmile_qr_scan", "android": "https://dc.lft.to/lastmile_qr_scan"}, "type": "electric_scooter", "name": "2c90893970ef55aa8cda441b550fc33a", "is_reserved": 0, "lon": -77.00608, "is_disabled": 0, "fusion_lat": 0.0, "lat": 38.90556616666667, "bike_id": "2c90893970ef55aa8cda441b550fc33a", "fusion_lon": 0.0}, {"rental_uris": {"ios": "https://dc.lft.to/lastmile_qr_scan", "android": "https://dc.lft.to/lastmile_qr_scan"}, "type": "electric_scooter", "name": "66a7de21b5ddfafb6a3baf5257aa5559", "is_reserved": 0, "lon": -77.04972466666666, "is_disabled": 0, "fusion_lat": 0.0, "lat": 38.90519316666666, "bike_id": "66a7de21b5ddfafb6a3baf5257aa5559", "fusion_lon": 0.0}, {"rental_uris": {"ios": "https://dc.lft.to/lastmile_qr_scan", "android": "https://dc.lft.to/lastmile_qr_scan"}, "type": "electric_scooter", "name": "468236e67805a727c5678c3298c56542", "is_reserved": 0, "lon": -77.03866566666666, "is_disabled": 0, "fusion_lat": 0.0, "lat": 38.9103525, "bike_id": "468236e67805a727c5678c3298c56542", "fusion_lon": 0.0}, {"rental_uris": {"ios": "https://dc.lft.to/lastmile_qr_scan", "android": "https://dc.lft.to/lastmile_qr_scan"}, "type": "electric_scooter", "name": "66e1fd956cb983cf2b31c73d2f9e0481", "is_reserved": 0, "lon": -77.07279183333333, "is_disabled": 0, "fusion_lat": 0.0, "lat": 38.915873833333336, "bike_id": "66e1fd956cb983cf2b31c73d2f9e0481", "fusion_lon": 0.0}, {"rental_uris": {"ios": "https://dc.lft.to/lastmile_qr_scan", "android": "https://dc.lft.to/lastmile_qr_scan"}, "type": "electric_scooter", "name": "1a594607880b2886e83b0d57012b7e2b", "is_reserved": 0, "lon": -77.012613, "is_disabled": 0, "fusion_lat": 0.0, "lat": 38.897113833333336, "bike_id": "1a594607880b2886e83b0d57012b7e2b", "fusion_lon": 0.0}, {"rental_uris": {"ios": "https://dc.lft.to/lastmile_qr_scan", "android": "https://dc.lft.to/lastmile_qr_scan"}, "type": "electric_scooter", "name": "6cf7e0f0a427d54a7e8e0cb046e3a4cd", "is_reserved": 0, "lon": -77.02706666666667, "is_disabled": 0, "fusion_lat": 0.0, "lat": 38.906267666666665, "bike_id": "6cf7e0f0a427d54a7e8e0cb046e3a4cd", "fusion_lon": 0.0}, {"rental_uris": {"ios": "https://dc.lft.to/lastmile_qr_scan", "android": "https://dc.lft.to/lastmile_qr_scan"}, "type": "electric_scooter", "name": "3b8906f189c29de0d20f91ee3259a5d2", "is_reserved": 0, "lon": -77.01947733333333, "is_disabled": 0, "fusion_lat": 0.0, "lat": 38.93041233333334, "bike_id": "3b8906f189c29de0d20f91ee3259a5d2", "fusion_lon": 0.0}, {"rental_uris": {"ios": "https://dc.lft.to/lastmile_qr_scan", "android": "https://dc.lft.to/lastmile_qr_scan"}, "type": "electric_bike", "name": "71fa8cbc279d8663d49546caae38703b", "is_reserved": 0, "lon": -77.097202, "is_disabled": 0, "fusion_lat": 0.0, "lat": 38.8073915, "bike_id": "71fa8cbc279d8663d49546caae38703b", "fusion_lon": 0.0}, {"rental_uris": {"ios": "https://dc.lft.to/lastmile_qr_scan", "android": "https://dc.lft.to/lastmile_qr_scan"}, "type": "electric_scooter", "name": "2aab8fc90f72ba25d552fb7dd5971fd7", "is_reserved": 0, "lon": -77.01554283333333, "is_disabled": 0, "fusion_lat": 0.0, "lat": 38.87596333333333, "bike_id": "2aab8fc90f72ba25d552fb7dd5971fd7", "fusion_lon": 0.0}, {"rental_uris": {"ios": "https://dc.lft.to/lastmile_qr_scan", "android": "https://dc.lft.to/lastmile_qr_scan"}, "type": "electric_scooter", "name": "ba89994c9400e2bf500055ed7dfc0313", "is_reserved": 0, "lon": -77.0551735, "is_disabled": 0, "fusion_lat": 0.0, "lat": 38.9283695, "bike_id": "ba89994c9400e2bf500055ed7dfc0313", "fusion_lon": 0.0}, {"rental_uris": {"ios": "https://dc.lft.to/lastmile_qr_scan", "android": "https://dc.lft.to/lastmile_qr_scan"}, "type": "electric_scooter", "name": "64f9645556d0f3b1cdc6963b75eb00a9", "is_reserved": 0, "lon": -77.04130716666667, "is_disabled": 0, "fusion_lat": 0.0, "lat": 38.93384616666667, "bike_id": "64f9645556d0f3b1cdc6963b75eb00a9", "fusion_lon": 0.0}, {"rental_uris": {"ios": "https://dc.lft.to/lastmile_qr_scan", "android": "https://dc.lft.to/lastmile_qr_scan"}, "type": "electric_bike", "name": "4b707501a8ba0ae9a4d376980ae02489", "is_reserved": 0, "lon": -77.065315, "is_disabled": 0, "fusion_lat": 0.0, "lat": 38.992266666666666, "bike_id": "4b707501a8ba0ae9a4d376980ae02489", "fusion_lon": 0.0}, {"rental_uris": {"ios": "https://dc.lft.to/lastmile_qr_scan", "android": "https://dc.lft.to/lastmile_qr_scan"}, "type": "electric_bike", "name": "7513433f27ebf68b0a0dc6ae7f8e1429", "is_reserved": 0, "lon": -77.037709, "is_disabled": 0, "fusion_lat": 0.0, "lat": 38.935947166666665, "bike_id": "7513433f27ebf68b0a0dc6ae7f8e1429", "fusion_lon": 0.0}, {"rental_uris": {"ios": "https://dc.lft.to/lastmile_qr_scan", "android": "https://dc.lft.to/lastmile_qr_scan"}, "type": "electric_scooter", "name": "a09786dfff386bd019dd7d112aac2826", "is_reserved": 0, "lon": -77.0383435, "is_disabled": 0, "fusion_lat": 0.0, "lat": 38.90988733333333, "bike_id": "a09786dfff386bd019dd7d112aac2826", "fusion_lon": 0.0}, {"rental_uris": {"ios": "https://dc.lft.to/lastmile_qr_scan", "android": "https://dc.lft.to/lastmile_qr_scan"}, "type": "electric_scooter", "name": "4eec0deea011cc251500d058c1cc8bd9", "is_reserved": 0, "lon": -77.0509985, "is_disabled": 0, "fusion_lat": 0.0, "lat": 38.897666666666666, "bike_id": "4eec0deea011cc251500d058c1cc8bd9", "fusion_lon": 0.0}, {"rental_uris": {"ios": "https://dc.lft.to/lastmile_qr_scan", "android": "https://dc.lft.to/lastmile_qr_scan"}, "type": "electric_scooter", "name": "be49a2aceb9d1dd5a8bbabf8bf8832c3", "is_reserved": 0, "lon": -77.04269616666667, "is_disabled": 0, "fusion_lat": 0.0, "lat": 38.922972666666666, "bike_id": "be49a2aceb9d1dd5a8bbabf8bf8832c3", "fusion_lon": 0.0}, {"rental_uris": {"ios": "https://dc.lft.to/lastmile_qr_scan", "android": "https://dc.lft.to/lastmile_qr_scan"}, "type": "electric_scooter", "name": "26fdf9bfd933128772671831cb3b0b74", "is_reserved": 0, "lon": -77.00207483333334, "is_disabled": 0, "fusion_lat": 0.0, "lat": 38.898208, "bike_id": "26fdf9bfd933128772671831cb3b0b74", "fusion_lon": 0.0}, {"rental_uris": {"ios": "https://dc.lft.to/lastmile_qr_scan", "android": "https://dc.lft.to/lastmile_qr_scan"},