{"data": {"bikes": [{"lon": -76.9472495, "name": "32104b276a5e1e3a23d3dc514f52b900", "is_disabled": 0, "type": "electric_bike", "is_reserved": 0, "fusion_lon": 0.0, "lat": 38.98379683333334, "rental_uris": {"ios": "https://dc.lft.to/lastmile_qr_scan", "android": "https://dc.lft.to/lastmile_qr_scan"}, "bike_id": "32104b276a5e1e3a23d3dc514f52b900", "fusion_lat": 0.0}, {"lon": -77.0081645, "name": "0c65a0972173a6bf15795269f69c64fc", "is_disabled": 0, "type": "electric_scooter", "is_reserved": 0, "fusion_lon": 0.0, "lat": 38.90241733333333, "rental_uris": {"ios": "https://dc.lft.to/lastmile_qr_scan", "android": "https://dc.lft.to/lastmile_qr_scan"}, "bike_id": "0c65a0972173a6bf15795269f69c64fc", "fusion_lat": 0.0}, {"lon": -77.0125335, "name": "fe57352dc2d772e47fa6be85615c7135", "is_disabled": 0, "type": "electric_scooter", "is_reserved": 0, "fusion_lon": 0.0, "lat": 38.91569766666667, "rental_uris": {"ios": "https://dc.lft.to/lastmile_qr_scan", "android": "https://dc.lft.to/lastmile_qr_scan"}, "bike_id": "fe57352dc2d772e47fa6be85615c7135", "fusion_lat": 0.0}, {"lon": -77.02577266666667, "name": "d6ee442b5f67e2870820380ab4104045", "is_disabled": 0, "type": "electric_scooter", "is_reserved": 0, "fusion_lon": 0.0, "lat": 38.925016166666666, "rental_uris": {"ios": "https://dc.lft.to/lastmile_qr_scan", "android": "https://dc.lft.to/lastmile_qr_scan"}, "bike_id": "d6ee442b5f67e2870820380ab4104045", "fusion_lat": 0.0}, {"lon": -77.0764455, "name": "f38ba51ec859eb5e79e31a9a325bccac", "is_disabled": 0, "type": "electric_scooter", "is_reserved": 0, "fusion_lon": 0.0, "lat": 38.92357833333333, "rental_uris": {"ios": "https://dc.lft.to/lastmile_qr_scan", "android": "https://dc.lft.to/lastmile_qr_scan"}, "bike_id": "f38ba51ec859eb5e79e31a9a325bccac", "fusion_lat": 0.0}, {"lon": -77.01409, "name": "f28bc4845a09777150f4e3b9dd05383d", "is_disabled": 0, "type": "electric_scooter", "is_reserved": 0, "fusion_lon": 0.0, "lat": 38.927976, "rental_uris": {"ios": "https://dc.lft.to/lastmile_qr_scan", "android": "https://dc.lft.to/lastmile_qr_scan"}, "bike_id": "f28bc4845a09777150f4e3b9dd05383d", "fusion_lat": 0.0}, {"lon": -77.03456616666666, "name": "3c1c9543041131ebff193615e3d89904", "is_disabled": 0, "type": "electric_scooter", "is_reserved": 0, "fusion_lon": 0.0, "lat": 38.904425, "rental_uris": {"ios": "https://dc.lft.to/lastmile_qr_scan", "android": "https://dc.lft.to/lastmile_qr_scan"}, "bike_id": "3c1c9543041131ebff193615e3d89904", "fusion_lat": 0.0}, {"lon": -76.995079, "name": "dc8e6982225d35de84b093af401422e3", "is_disabled": 0, "type": "electric_scooter", "is_reserved": 0, "fusion_lon": 0.0, "lat": 38.88003666666667, "rental_uris": {"ios": "https://dc.lft.to/lastmile_qr_scan", "android": "https://dc.lft.to/lastmile_qr_scan"}, "bike_id": "dc8e6982225d35de84b093af401422e3", "fusion_lat": 0.0}, {"lon": -77.0468445, "name": "826ba9a5f84b2bacaee41aed851ccdef", "is_disabled": 0, "type": "electric_scooter", "is_reserved": 0, "fusion_lon": 0.0, "lat": 38.89219383333333, "rental_uris": {"ios": "https://dc.lft.to/lastmile_qr_scan", "android": "https://dc.lft.to/lastmile_qr_scan"}, "bike_id": "826ba9a5f84b2bacaee41aed851ccdef", "fusion_lat": 0.0}, {"lon": -77.0318645, "name": "949c7e2d69b0760375d50c2fd5c2c84d", "is_disabled": 0, "type": "electric_scooter", "is_reserved": 0, "fusion_lon": 0.0, "lat": 38.916174, "rental_uris": {"ios": "https://dc.lft.to/lastmile_qr_scan", "android": "https://dc.lft.to/lastmile_qr_scan"}, "bike_id": "949c7e2d69b0760375d50c2fd5c2c84d", "fusion_lat": 0.0}, {"lon": -77.0021825, "name": "5daed13f8f056976401cca50848dde26", "is_disabled": 0, "type": "electric_scooter", "is_reserved": 0, "fusion_lon": 0.0, "lat": 38.95733283333333, "rental_uris": {"ios": "https://dc.lft.to/lastmile_qr_scan", "android": "https://dc.lft.to/lastmile_qr_scan"}, "bike_id": "5daed13f8f056976401cca50848dde26", "fusion_lat": 0.0}, {"lon": -77.05934133333334, "name": "ac1ae41e27fa1f6c4c503410eff322fb", "is_disabled": 0, "type": "electric_scooter", "is_reserved": 0, "fusion_lon": 0.0, "lat": 38.943032333333335, "rental_uris": {"ios": "https://dc.lft.to/lastmile_qr_scan", "android": "https://dc.lft.to/lastmile_qr_scan"}, "bike_id": "ac1ae41e27fa1f6c4c503410eff322fb", "fusion_lat": 0.0}, {"lon": -77.01223183333333, "name": "cc5677e9a044dfeea123a67936edbedb", "is_disabled": 0, "type": "electric_scooter", "is_reserved": 0, "fusion_lon": 0.0, "lat": 38.925095166666665, "rental_uris": {"ios": "https://dc.lft.to/lastmile_qr_scan", "android": "https://dc.lft.to/lastmile_qr_scan"}, "bike_id": "cc5677e9a044dfeea123a67936edbedb", "fusion_lat": 0.0}, {"lon": -77.03284066666667, "name": "8bb68e89211109917ad83bf96974c55a", "is_disabled": 0, "type": "electric_scooter", "is_reserved": 0, "fusion_lon": 0.0, "lat": 38.935694833333336, "rental_uris": {"ios": "https://dc.lft.to/lastmile_qr_scan", "android": "https://dc.lft.to/lastmile_qr_scan"}, "bike_id": "8bb68e89211109917ad83bf96974c55a", "fusion_lat": 0.0}, {"lon": -76.96542366666667, "name": "0a72926bb199c23879309daa59f3f930", "is_disabled": 0, "type": "electric_scooter", "is_reserved": 0, "fusion_lon": 0.0, "lat": 38.878812833333335, "rental_uris": {"ios": "https://dc.lft.to/lastmile_qr_scan", "android": "https://dc.lft.to/lastmile_qr_scan"}, "bike_id": "0a72926bb199c23879309daa59f3f930", "fusion_lat": 0.0}, {"lon": -77.0281765, "name": "4310c48e31344b467b2794fb06dd9b50", "is_disabled": 0, "type": "electric_scooter", "is_reserved": 0, "fusion_lon": 0.0, "lat": 38.9223905, "rental_uris": {"ios": "https://dc.lft.to/lastmile_qr_scan", "android": "https://dc.lft.to/lastmile_qr_scan"}, "bike_id": "4310c48e31344b467b2794fb06dd9b50", "fusion_lat": 0.0}, {"lon": -77.00540216666667, "name": "824af888a04ffecab1605fc10ed6044c", "is_disabled": 0, "type": "electric_scooter", "is_reserved": 0, "fusion_lon": 0.0, "lat": 38.8754225, "rental_uris": {"ios": "https://dc.lft.to/lastmile_qr_scan", "android": "https://dc.lft.to/lastmile_qr_scan"}, "bike_id": "824af888a04ffecab1605fc10ed6044c", "fusion_lat": 0.0}, {"lon": -77.020506, "name": "68fdef9780a435fb42ee355126f7b0a2", "is_disabled": 0, "type": "electric_scooter", "is_reserved": 0, "fusion_lon": 0.0, "lat": 38.92111666666667, "rental_uris": {"ios": "https://dc.lft.to/lastmile_qr_scan", "android": "https://dc.lft.to/lastmile_qr_scan"}, "bike_id": "68fdef9780a435fb42ee355126f7b0a2", "fusion_lat": 0.0}, {"lon": -77.02070683333334, "name": "181a5f05b4847cd6ef285b0e23365876", "is_disabled": 0, "type": "electric_scooter", "is_reserved": 0, "fusion_lon": 0.0, "lat": 38.8973335, "rental_uris": {"ios": "https://dc.lft.to/lastmile_qr_scan", "android": "https://dc.lft.to/lastmile_qr_scan"}, "bike_id": "181a5f05b4847cd6ef285b0e23365876", "fusion_lat": 0.0}, {"lon": -77.03488433333334, "name": "7acb60bc53ebc1411ba24a2c528e97c9", "is_disabled": 0, "type": "electric_scooter", "is_reserved": 0, "fusion_lon": 0.0, "lat": 38.923408, "rental_uris": {"ios": "https://dc.lft.to/lastmile_qr_scan", "android": "https://dc.lft.to/lastmile_qr_scan"}, "bike_id": "7acb60bc53ebc1411ba24a2c528e97c9", "fusion_lat": 0.0}, {"lon": -77.04125033333334, "name": "df82e956bd64c9c7b2a5bc073c4f5390", "is_disabled": 0, "type": "electric_scooter", "is_reserved": 0, "fusion_lon": 0.0, "lat": 38.921187333333336, "rental_uris": {"ios": "https://dc.lft.to/lastmile_qr_scan", "android": "https://dc.lft.to/lastmile_qr_scan"}, "bike_id": "df82e956bd64c9c7b2a5bc073c4f5390", "fusion_lat": 0.0}, {"lon": -77.024781, "name": "23707834c4e48759ebb6911a2069e572", "is_disabled": 0, "type": "electric_scooter", "is_reserved": 0, "fusion_lon": 0.0, "lat": 38.884813666666666, "rental_uris": {"ios": "https://dc.lft.to/lastmile_qr_scan", "android": "https://dc.lft.to/lastmile_qr_scan"}, "bike_id": "23707834c4e48759ebb6911a2069e572", "fusion_lat": 0.0}, {"lon": -77.01554966666667, "name": "1bb55d59b84a6f6ceb5c4c18364480b4", "is_disabled": 0, "type": "electric_scooter", "is_reserved": 0, "fusion_lon": 0.0, "lat": 38.92800166666667, "rental_uris": {"ios": "https://dc.lft.to/lastmile_qr_scan", "android": "https://dc.lft.to/lastmile_qr_scan"}, "bike_id": "1bb55d59b84a6f6ceb5c4c18364480b4", "fusion_lat": 0.0}, {"lon": -77.03654133333333, "name": "0bea3de8f37de9c13187406f441eae71", "is_disabled": 0, "type": "electric_scooter", "is_reserved": 0, "fusion_lon": 0.0, "lat": 38.931545, "rental_uris": {"ios": "https://dc.lft.to/lastmile_qr_scan", "android": "https://dc.lft.to/lastmile_qr_scan"}, "bike_id": "0bea3de8f37de9c13187406f441eae71", "fusion_lat": 0.0}, {"lon": -76.99854733333333, "name": "7f42091fabde8f62fa42363298972c68", "is_disabled": 0, "type": "electric_scooter", "is_reserved": 0, "fusion_lon": 0.0, "lat": 38.900314333333334, "rental_uris": {"ios": "https://dc.lft.to/lastmile_qr_scan", "android": "https://dc.lft.to/lastmile_qr_scan"}, "bike_id": "7f42091fabde8f62fa42363298972c68", "fusion_lat": 0.0}, {"lon": -77.0520655, "name": "18b159039c17bc5e4aa0cbc5dc7416e3", "is_disabled": 0, "type": "electric_scooter", "is_reserved": 0, "fusion_lon": 0.0, "lat": 38.90511816666667, "rental_uris": {"ios": "https://dc.lft.to/lastmile_qr_scan", "android": "https://dc.lft.to/lastmile_qr_scan"}, "bike_id": "18b159039c17bc5e4aa0cbc5dc7416e3", "fusion_lat": 0.0}, {"lon": -77.022014, "name": "ecaee760b4cda437c7b2dde1982dc5a0", "is_disabled": 0, "type": "electric_scooter", "is_reserved": 0, "fusion_lon": 0.0, "lat": 38.878925333333335, "rental_uris": {"ios": "https://dc.lft.to/lastmile_qr_scan", "android": "https://dc.lft.to/lastmile_qr_scan"}, "bike_id": "ecaee760b4cda437c7b2dde1982dc5a0", "fusion_lat": 0.0}, {"lon": -77.02239383333334, "name": "1b7095a880fc244cad2d499b1fcbff22", "is_disabled": 0, "type": "electric_scooter", "is_reserved": 0, "fusion_lon": 0.0, "lat": 38.923492833333334, "rental_uris": {"ios": "https://dc.lft.to/lastmile_qr_scan", "android": "https://dc.lft.to/lastmile_qr_scan"}, "bike_id": "1b7095a880fc244cad2d499b1fcbff22", "fusion_lat": 0.0}, {"lon": -77.01917083333333, "name": "d62639c9a348953ad0d94e3e8187ce88", "is_disabled": 0, "type": "electric_scooter", "is_reserved": 0, "fusion_lon": 0.0, "lat": 38.9294445, "rental_uris": {"ios": "https://dc.lft.to/lastmile_qr_scan", "android": "https://dc.lft.to/lastmile_qr_scan"}, "bike_id": "d62639c9a348953ad0d94e3e8187ce88", "fusion_lat": 0.0}, {"lon": -77.04622883333333, "name": "46394845615a667c67abb3638213dc6e", "is_disabled": 0, "type": "electric_scooter", "is_reserved": 0, "fusion_lon": 0.0, "lat": 38.91616466666667, "rental_uris": {"ios": "https://dc.lft.to/lastmile_qr_scan", "android": "https://dc.lft.to/lastmile_qr_scan"}, "bike_id": "46394845615a667c67abb3638213dc6e", "fusion_lat": 0.0}, {"lon": -77.054257, "name": "5d4855bde7bdf4578c1c0889c5d36583", "is_disabled": 0, "type": "electric_scooter", "is_reserved": 0, "fusion_lon": 0.0, "lat": 38.9235465, "rental_uris": {"ios": "https://dc.lft.to/lastmile_qr_scan", "android": "https://dc.lft.to/lastmile_qr_scan"}, "bike_id": "5d4855bde7bdf4578c1c0889c5d36583", "fusion_lat": 0.0}, {"lon": -76.98541666666667, "name": "db1c440f7ed94e2cb62e34e567e9c89b", "is_disabled": 0, "type": "electric_scooter", "is_reserved": 0, "fusion_lon": 0.0, "lat": 38.8797065, "rental_uris": {"ios": "https://dc.lft.to/lastmile_qr_scan", "android": "https://dc.lft.to/lastmile_qr_scan"}, "bike_id": "db1c440f7ed94e2cb62e34e567e9c89b", "fusion_lat": 0.0}, {"lon": -76.97159, "name": "f7f5bb3018637c0ac124aae15e14e26c", "is_disabled": 0, "type": "electric_bike", "is_reserved": 0, "fusion_lon": 0.0, "lat": 38.924356833333334, "rental_uris": {"ios": "https://dc.lft.to/lastmile_qr_scan", "android": "https://dc.lft.to/lastmile_qr_scan"}, "bike_id": "f7f5bb3018637c0ac124aae15e14e26c", "fusion_lat": 0.0}, {"lon": -77.01613333333333, "name": "546ecaaf766969c08f71d87171d2ebd8", "is_disabled": 0, "type": "electric_scooter", "is_reserved": 0, "fusion_lon": 0.0, "lat": 38.910697, "rental_uris": {"ios": "https://dc.lft.to/lastmile_qr_scan", "android": "https://dc.lft.to/lastmile_qr_scan"}, "bike_id": "546ecaaf766969c08f71d87171d2ebd8", "fusion_lat": 0.0}, {"lon": -76.94149133333333, "name": "a845408daf3e4e6ea9989f6c79d0c0a6", "is_disabled": 0, "type": "electric_bike", "is_reserved": 0, "fusion_lon": 0.0, "lat": 38.865499166666666, "rental_uris": {"ios": "https://dc.lft.to/lastmile_qr_scan", "android": "https://dc.lft.to/lastmile_qr_scan"}, "bike_id": "a845408daf3e4e6ea9989f6c79d0c0a6", "fusion_lat": 0.0}, {"lon": -77.02228666666667, "name": "d1e5806c58521a0852a869d7aa6f4de4", "is_disabled": 0, "type": "electric_scooter", "is_reserved": 0, "fusion_lon": 0.0, "lat": 38.92478916666666, "rental_uris": {"ios": "https://dc.lft.to/lastmile_qr_scan", "android": "https://dc.lft.to/lastmile_qr_scan"}, "bike_id": "d1e5806c58521a0852a869d7aa6f4de4", "fusion_lat": 0.0}, {"lon": -77.020507, "name": "09e3baaecfd15177a5ed11ee24e56406", "is_disabled": 0, "type": "electric_scooter", "is_reserved": 0, "fusion_lon": 0.0, "lat": 38.921736833333334, "rental_uris": {"ios": "https://dc.lft.to/lastmile_qr_scan", "android": "https://dc.lft.to/lastmile_qr_scan"}, "bike_id": "09e3baaecfd15177a5ed11ee24e56406", "fusion_lat": 0.0}, {"lon": -77.04213783333333, "name": "460aaabca99c8c12db16dda4c5232473", "is_disabled": 0, "type": "electric_scooter", "is_reserved": 0, "fusion_lon": 0.0, "lat": 38.90904416666667, "rental_uris": {"ios": "https://dc.lft.to/lastmile_qr_scan", "android": "https://dc.lft.to/lastmile_qr_scan"}, "bike_id": "460aaabca99c8c12db16dda4c5232473", "fusion_lat": 0.0}, {"lon": -77.0282735, "name": "4478ffd1aa554b4a2e9c8203f8692e94", "is_disabled": 0, "type": "electric_scooter", "is_reserved": 0, "fusion_lon": 0.0, "lat": 38.90263683333333, "rental_uris": {"ios": "https://dc.lft.to/lastmile_qr_scan", "android": "https://dc.lft.to/lastmile_qr_scan"}, "bike_id": "4478ffd1aa554b4a2e9c8203f8692e94", "fusion_lat": 0.0}, {"lon": -77.02158916666667, "name": "e5b363b23b513c9b2bc0c3fc1bf1b34c", "is_disabled": 0, "type": "electric_scooter", "is_reserved": 0, "fusion_lon": 0.0, "lat": 38.926096333333334, "rental_uris": {"ios": "https://dc.lft.to/lastmile_qr_scan", "android": "https://dc.lft.to/lastmile_qr_scan"}, "bike_id": "e5b363b23b513c9b2bc0c3fc1bf1b34c", "fusion_lat": 0.0}, {"lon": -77.02955016666667, "name": "c97d3b256428b2026312147419ac3d9d", "is_disabled": 0, "type": "electric_scooter", "is_reserved": 0, "fusion_lon": 0.0, "lat": 38.90493133333333, "rental_uris": {"ios": "https://dc.lft.to/lastmile_qr_scan", "android": "https://dc.lft.to/lastmile_qr_scan"}, "bike_id": "c97d3b256428b2026312147419ac3d9d", "fusion_lat": 0.0}, {"lon": -77.04127783333334, "name": "bfb217a9e42f30291381c36a4a38084b", "is_disabled": 0, "type": "electric_scooter", "is_reserved": 0, "fusion_lon": 0.0, "lat": 38.918893833333335, "rental_uris": {"ios": "https://dc.lft.to/lastmile_qr_scan", "android": "https://dc.lft.to/lastmile_qr_scan"}, "bike_id": "bfb217a9e42f30291381c36a4a38084b", "fusion_lat": 0.0}, {"lon": -77.02179583333333, "name": "39e0ba3435f5f656d0af93429941b5f5", "is_disabled": 0, "type": "electric_scooter", "is_reserved": 0, "fusion_lon": 0.0, "lat": 38.91980433333333, "rental_uris": {"ios": "https://dc.lft.to/lastmile_qr_scan", "android": "https://dc.lft.to/lastmile_qr_scan"}, "bike_id": "39e0ba3435f5f656d0af93429941b5f5", "fusion_lat": 0.0}, {"lon": -77.05094083333333, "name": "7e7d51640cb3b891aaebd202738db6f6", "is_disabled": 0, "type": "electric_bike", "is_reserved": 0, "fusion_lon": 0.0, "lat": 38.81330783333333, "rental_uris": {"ios": "https://dc.lft.to/lastmile_qr_scan", "android": "https://dc.lft.to/lastmile_qr_scan"}, "bike_id": "7e7d51640cb3b891aaebd202738db6f6", "fusion_lat": 0.0}, {"lon": -77.0320985, "name": "9212b307e9daa9f8946a86f14efce6d5", "is_disabled": 0, "type": "electric_scooter", "is_reserved": 0, "fusion_lon": 0.0, "lat": 38.90380916666667, "rental_uris": {"ios": "https://dc.lft.to/lastmile_qr_scan", "android": "https://dc.lft.to/lastmile_qr_scan"}, "bike_id": "9212b307e9daa9f8946a86f14efce6d5", "fusion_lat": 0.0}, {"lon": -76.93593766666666, "name": "9bf9f9c8bccad483eb99a8ce030fb344", "is_disabled": 0, "type": "electric_scooter", "is_reserved": 0, "fusion_lon": 0.0, "lat": 38.90945416666667, "rental_uris": {"ios": "https://dc.lft.to/lastmile_qr_scan", "android": "https://dc.lft.to/lastmile_qr_scan"}, "bike_id": "9bf9f9c8bccad483eb99a8ce030fb344", "fusion_lat": 0.0}, {"lon": -77.04293, "name": "3514d73850a38cc2ef42f46e65b08f60", "is_disabled": 0, "type": "electric_scooter", "is_reserved": 0, "fusion_lon": 0.0, "lat": 38.92260566666667, "rental_uris": {"ios": "https://dc.lft.to/lastmile_qr_scan", "android": "https://dc.lft.to/lastmile_qr_scan"}, "bike_id": "3514d73850a38cc2ef42f46e65b08f60", "fusion_lat": 0.0}, {"lon": -77.03983133333334, "name": "9eead25b151021d0d2189ebdf000c8ec", "is_disabled": 0, "type": "electric_scooter", "is_reserved": 0, "fusion_lon": 0.0, "lat": 38.90600216666667, "rental_uris": {"ios": "https://dc.lft.to/lastmile_qr_scan", "android": "https://dc.lft.to/lastmile_qr_scan"}, "bike_id": "9eead25b151021d0d2189ebdf000c8ec", "fusion_lat": 0.0}, {"lon": -77.04072016666667, "name": "db01e5156b3af28b533525692c02d5e7", "is_disabled": 0, "type": "electric_scooter", "is_reserved": 0, "fusion_lon": 0.0, "lat": 38.905108, "rental_uris": {"ios": "https://dc.lft.to/lastmile_qr_scan", "android": "https://dc.lft.to/lastmile_qr_scan"}, "bike_id": "db01e5156b3af28b533525692c02d5e7", "fusion_lat": 0.0}, {"lon": -77.01952983333334, "name": "09259b643e3c3400e90f8af4f2b78d37", "is_disabled": 0, "type": "electric_scooter", "is_reserved": 0, "fusion_lon": 0.0, "lat": 38.92246166666666, "rental_uris": {"ios": "https://dc.lft.to/lastmile_qr_scan", "android": "https://dc.lft.to/lastmile_qr_scan"}, "bike_id": "09259b643e3c3400e90f8af4f2b78d37", "fusion_lat": 0.0}, {"lon": -77.03461833333333, "name": "a9b8535908c472ade0e340e8fe68ec1f", "is_disabled": 0, "type": "electric_scooter", "is_reserved": 0, "fusion_lon": 0.0, "lat": 38.90141533333333, "rental_uris": {"ios": "https://dc.lft.to/lastmile_qr_scan", "android": "https://dc.lft.to/lastmile_qr_scan"}, "bike_id": "a9b8535908c472ade0e340e8fe68ec1f", "fusion_lat": 0.0}, {"lon": -77.03267433333333, "name": "ec3b2aee7c0c0452ba42dbc15faf8b7f", "is_disabled": 0, "type": "electric_scooter", "is_reserved": 0, "fusion_lon": 0.0, "lat": 38.92754033333333, "rental_uris": {"ios": "https://dc.lft.to/lastmile_qr_scan", "android": "https://dc.lft.to/lastmile_qr_scan"}, "bike_id": "ec3b2aee7c0c0452ba42dbc15faf8b7f", "fusion_lat": 0.0}, {"lon": -77.01301133333334, "name": "0e92ba16a886dd347d9cea83800f40ad", "is_disabled": 0, "type": "electric_bike", "is_reserved": 0, "fusion_lon": 0.0, "lat": 38.881442, "rental_uris": {"ios": "https://dc.lft.to/lastmile_qr_scan", "android": "https://dc.lft.to/lastmile_qr_scan"}, "bike_id": "0e92ba16a886dd347d9cea83800f40ad", "fusion_lat": 0.0}, {"lon": -76.95135116666667, "name": "2f13550fc370adb434d48e1d98fb548d", "is_disabled": 0, "type": "electric_bike", "is_reserved": 0, "fusion_lon": 0.0, "lat": 39.084261, "rental_uris": {"ios": "https://dc.lft.to/lastmile_qr_scan", "android": "https://dc.lft.to/lastmile_qr_scan"}, "bike_id": "2f13550fc370adb434d48e1d98fb548d", "fusion_lat": 0.0}, {"lon": -77.06369066666667, "name": "346fbe2a9ff4c6512dbd9c0ce41a4e34", "is_disabled": 0, "type": "electric_scooter", "is_reserved": 0, "fusion_lon": 0.0, "lat": 38.90806666666667, "rental_uris": {"ios": "https://dc.lft.to/lastmile_qr_scan", "android": "https://dc.lft.to/lastmile_qr_scan"}, "bike_id": "346fbe2a9ff4c6512dbd9c0ce41a4e34", "fusion_lat": 0.0}, {"lon": -77.05213216666667, "name": "b78fe5a14578ad8487a62e98cbaeff4a", "is_disabled": 0, "type": "electric_scooter", "is_reserved": 0, "fusion_lon": 0.0, "lat": 38.924299, "rental_uris": {"ios": "https://dc.lft.to/lastmile_qr_scan", "android": "https://dc.lft.to/lastmile_qr_scan"}, "bike_id": "b78fe5a14578ad8487a62e98cbaeff4a", "fusion_lat": 0.0}, {"lon": -77.02196283333333, "name": "cb6cd34763ea019ecedd1ba524bcb0c9", "is_disabled": 0, "type": "electric_scooter", "is_reserved": 0, "fusion_lon": 0.0, "lat": 38.877786, "rental_uris": {"ios": "https://dc.lft.to/lastmile_qr_scan", "android": "https://dc.lft.to/lastmile_qr_scan"}, "bike_id": "cb6cd34763ea019ecedd1ba524bcb0c9", "fusion_lat": 0.0}, {"lon": -77.02610633333333, "name": "587a94b87e53b8f65404a4ef82d5e8ac", "is_disabled": 0, "type": "electric_scooter", "is_reserved": 0, "fusion_lon": 0.0, "lat": 38.9202675, "rental_uris": {"ios": "https://dc.lft.to/lastmile_qr_scan", "android": "https://dc.lft.to/lastmile_qr_scan"}, "bike_id": "587a94b87e53b8f65404a4ef82d5e8ac", "fusion_lat": 0.0}, {"lon": -77.02372516666667, "name": "036bf603b04d7af3296c5244a85ad5b7", "is_disabled": 0, "type": "electric_scooter", "is_reserved": 0, "fusion_lon": 0.0, "lat": 38.91780083333333, "rental_uris": {"ios": "https://dc.lft.to/lastmile_qr_scan", "android": "https://dc.lft.to/lastmile_qr_scan"}, "bike_id": "036bf603b04d7af3296c5244a85ad5b7", "fusion_lat": 0.0}, {"lon": -77.0549665, "name": "48ef4f0e11f74e03ee3976380b43f4a2", "is_disabled": 0, "type": "electric_scooter", "is_reserved": 0, "fusion_lon": 0.0, "lat": 38.897513333333336, "rental_uris": {"ios": "https://dc.lft.to/lastmile_qr_scan", "android": "https://dc.lft.to/lastmile_qr_scan"}, "bike_id": "48ef4f0e11f74e03ee3976380b43f4a2", "fusion_lat": 0.0}, {"lon": -77.03252933333333, "name": "b3e7bcd7ad2e57818bddbb371123b3f1", "is_disabled": 0, "type": "electric_scooter", "is_reserved": 0, "fusion_lon": 0.0, "lat": 38.90268566666667, "rental_uris": {"ios": "https://dc.lft.to/lastmile_qr_scan", "android": "https://dc.lft.to/lastmile_qr_scan"}, "bike_id": "b3e7bcd7ad2e57818bddbb371123b3f1", "fusion_lat": 0.0}, {"lon": -77.0180045, "name": "0be3ca0dfb915d4b8e35d39734ce3b35", "is_disabled": 0, "type": "electric_scooter", "is_reserved": 0, "fusion_lon": 0.0, "lat": 38.921275666666666, "rental_uris": {"ios": "https://dc.lft.to/lastmile_qr_scan", "android": "https://dc.lft.to/lastmile_qr_scan"}, "bike_id": "0be3ca0dfb915d4b8e35d39734ce3b35", "fusion_lat": 0.0}, {"lon": -76.98026816666666, "name": "1a69cf22a83a65b8312979ca81704507", "is_disabled": 0, "type": "electric_bike", "is_reserved": 0, "fusion_lon": 0.0, "lat": 38.86819916666666, "rental_uris": {"ios": "https://dc.lft.to/lastmile_qr_scan", "android": "https://dc.lft.to/lastmile_qr_scan"}, "bike_id": "1a69cf22a83a65b8312979ca81704507", "fusion_lat": 0.0}, {"lon": -77.0487385, "name": "9faff39c87449661dbfea993d37a5a40", "is_disabled": 0, "type": "electric_scooter", "is_reserved": 0, "fusion_lon": 0.0, "lat": 38.896498333333334, "rental_uris": {"ios": "https://dc.lft.to/lastmile_qr_scan", "android": "https://dc.lft.to/lastmile_qr_scan"}, "bike_id": "9faff39c87449661dbfea993d37a5a40", "fusion_lat": 0.0}, {"lon": -77.04347483333333, "name": "58a96be2841239f340c0b216774bf919", "is_disabled": 0, "type": "electric_scooter", "is_reserved": 0, "fusion_lon": 0.0, "lat": 38.9055405, "rental_uris": {"ios": "https://dc.lft.to/lastmile_qr_scan", "android": "https://dc.lft.to/lastmile_qr_scan"}, "bike_id": "58a96be2841239f340c0b216774bf919", "fusion_lat": 0.0}, {"lon": -77.017982, "name": "c8d8be17c53a45c84875bd84f3f95fbf", "is_disabled": 0, "type": "electric_scooter", "is_reserved": 0, "fusion_lon": 0.0, "lat": 38.9194475, "rental_uris": {"ios": "https://dc.lft.to/lastmile_qr_scan", "android": "https://dc.lft.to/lastmile_qr_scan"}, "bike_id": "c8d8be17c53a45c84875bd84f3f95fbf", "fusion_lat": 0.0}, {"lon": -76.9320925, "name": "760834f9821d246cdf731d4d54d08ad6", "is_disabled": 0, "type": "electric_scooter", "is_reserved": 0, "fusion_lon": 0.0, "lat": 38.89667566666667, "rental_uris": {"ios": "https://dc.lft.to/lastmile_qr_scan", "android": "https://dc.lft.to/lastmile_qr_scan"}, "bike_id": "760834f9821d246cdf731d4d54d08ad6", "fusion_lat": 0.0}, {"lon": -77.02211216666667, "name": "1d1c87a999b5fbde333912850f4e4164", "is_disabled": 0, "type": "electric_scooter", "is_reserved": 0, "fusion_lon": 0.0, "lat": 38.89984183333333, "rental_uris": {"ios": "https://dc.lft.to/lastmile_qr_scan", "android": "https://dc.lft.to/lastmile_qr_scan"}, "bike_id": "1d1c87a999b5fbde333912850f4e4164", "fusion_lat": 0.0}, {"lon": -77.04199683333333, "name": "f32a982586a0e67e2e6770747cb653dc", "is_disabled": 0, "type": "electric_scooter", "is_reserved": 0, "fusion_lon": 0.0, "lat": 38.920622, "rental_uris": {"ios": "https://dc.lft.to/lastmile_qr_scan", "android": "https://dc.lft.to/lastmile_qr_scan"}, "bike_id": "f32a982586a0e67e2e6770747cb653dc", "fusion_lat": 0.0}, {"lon": -77.04901566666666, "name": "f2124c91ce3782c810b10a55a492e81f", "is_disabled": 0, "type": "electric_scooter", "is_reserved": 0, "fusion_lon": 0.0, "lat": 38.91597633333333, "rental_uris": {"ios": "https://dc.lft.to/lastmile_qr_scan", "android": "https://dc.lft.to/lastmile_qr_scan"}, "bike_id": "f2124c91ce3782c810b10a55a492e81f", "fusion_lat": 0.0}, {"lon": -77.00409333333333, "name": "66747b54bb8b680de4e7154ed7a4d337", "is_disabled": 0, "type": "electric_bike", "is_reserved": 0, "fusion_lon": 0.0, "lat": 38.98528683333333, "rental_uris": {"ios": "https://dc.lft.to/lastmile_qr_scan", "android": "https://dc.lft.to/lastmile_qr_scan"}, "bike_id": "66747b54bb8b680de4e7154ed7a4d337", "fusion_lat": 0.0}, {"lon": -77.0416595, "name": "9b41d255be8048bb0590ebb7d0bbd610", "is_disabled": 0, "type": "electric_scooter", "is_reserved": 0, "fusion_lon": 0.0, "lat": 38.9165125, "rental_uris": {"ios": "https://dc.lft.to/lastmile_qr_scan", "android": "https://dc.lft.to/lastmile_qr_scan"}, "bike_id": "9b41d255be8048bb0590ebb7d0bbd610", "fusion_lat": 0.0}, {"lon": -77.03489, "name": "2eb9ed27d4d02fef47aa8875d83025be", "is_disabled": 0, "type": "electric_scooter", "is_reserved": 0, "fusion_lon": 0.0, "lat": 38.92341583333334, "rental_uris": {"ios": "https://dc.lft.to/lastmile_qr_scan", "android": "https://dc.lft.to/lastmile_qr_scan"}, "bike_id": "2eb9ed27d4d02fef47aa8875d83025be", "fusion_lat": 0.0}, {"lon": -77.00562633333334, "name": "75e36c9b564b18e3ff22b536165bd277", "is_disabled": 0, "type": "electric_scooter", "is_reserved": 0, "fusion_lon": 0.0, "lat": 38.88504283333333, "rental_uris": {"ios": "https://dc.lft.to/lastmile_qr_scan", "android": "https://dc.lft.to/lastmile_qr_scan"}, "bike_id": "75e36c9b564b18e3ff22b536165bd277", "fusion_lat": 0.0}, {"lon": -76.9506685, "name": "a3d6b58b870d699f0c511fe3f7452bac", "is_disabled": 0, "type": "electric_bike", "is_reserved": 0, "fusion_lon": 0.0, "lat": 39.08506633333333, "rental_uris": {"ios": "https://dc.lft.to/lastmile_qr_scan", "android": "https://dc.lft.to/lastmile_qr_scan"}, "bike_id": "a3d6b58b870d699f0c511fe3f7452bac", "fusion_lat": 0.0}, {"lon": -77.03221483333333, "name": "f629eaf2a4d82a83b891fb281b3dab39", "is_disabled": 0, "type": "electric_scooter", "is_reserved": 0, "fusion_lon": 0.0, "lat": 38.91645533333333, "rental_uris": {"ios": "https://dc.lft.to/lastmile_qr_scan", "android": "https://dc.lft.to/lastmile_qr_scan"}, "bike_id": "f629eaf2a4d82a83b891fb281b3dab39", "fusion_lat": 0.0}, {"lon": -77.0318845, "name": "0b63070ab8183209fb7ef049e3e851ff", "is_disabled": 0, "type": "electric_scooter", "is_reserved": 0, "fusion_lon": 0.0, "lat": 38.89243966666667, "rental_uris": {"ios": "https://dc.lft.to/lastmile_qr_scan", "android": "https://dc.lft.to/lastmile_qr_scan"}, "bike_id": "0b63070ab8183209fb7ef049e3e851ff", "fusion_lat": 0.0}, {"lon": -77.0587695, "name": "f659dcc6463bb0a01ba8e4e213cb9df3", "is_disabled": 0, "type": "electric_scooter", "is_reserved": 0, "fusion_lon": 0.0, "lat": 38.935841, "rental_uris": {"ios": "https://dc.lft.to/lastmile_qr_scan", "android": "https://dc.lft.to/lastmile_qr_scan"}, "bike_id": "f659dcc6463bb0a01ba8e4e213cb9df3", "fusion_lat": 0.0}, {"lon": -77.04355116666666, "name": "5d2acbeb9ae9b86b0f4e370db7d04e83", "is_disabled": 0, "type": "electric_scooter", "is_reserved": 0, "fusion_lon": 0.0, "lat": 38.908771, "rental_uris": {"ios": "https://dc.lft.to/lastmile_qr_scan", "android": "https://dc.lft.to/lastmile_qr_scan"}, "bike_id": "5d2acbeb9ae9b86b0f4e370db7d04e83", "fusion_lat": 0.0}, {"lon": -77.00347016666667, "name": "9b9c438094f0aef450fd62297d0d3d3c", "is_disabled": 0, "type": "electric_scooter", "is_reserved": 0, "fusion_lon": 0.0, "lat": 38.887362, "rental_uris": {"ios": "https://dc.lft.to/lastmile_qr_scan", "android": "https://dc.lft.to/lastmile_qr_scan"}, "bike_id": "9b9c438094f0aef450fd62297d0d3d3c", "fusion_lat": 0.0}, {"lon": -77.02220833333334, "name": "44bada0f16523699a3d6ed074fc4546c", "is_disabled": 0, "type": "electric_scooter", "is_reserved": 0, "fusion_lon": 0.0, "lat": 38.9247155, "rental_uris": {"ios": "https://dc.lft.to/lastmile_qr_scan", "android": "https://dc.lft.to/lastmile_qr_scan"}, "bike_id": "44bada0f16523699a3d6ed074fc4546c", "fusion_lat": 0.0}, {"lon": -76.9911645, "name": "ab7bb7bd380fbdd198613fdac683a86f", "is_disabled": 0, "type": "electric_scooter", "is_reserved": 0, "fusion_lon": 0.0, "lat": 38.9002905, "rental_uris": {"ios": "https://dc.lft.to/lastmile_qr_scan", "android": "https://dc.lft.to/lastmile_qr_scan"}, "bike_id": "ab7bb7bd380fbdd198613fdac683a86f", "fusion_lat": 0.0}, {"lon": -77.0292965, "name": "aa51f4564f8fa5d275ef90fda0f7e555", "is_disabled": 0, "type": "electric_scooter", "is_reserved": 0, "fusion_lon": 0.0, "lat": 38.942777666666665, "rental_uris": {"ios": "https://dc.lft.to/lastmile_qr_scan", "android": "https://dc.lft.to/lastmile_qr_scan"}, "bike_id": "aa51f4564f8fa5d275ef90fda0f7e555", "fusion_lat": 0.0}, {"lon": -77.0014745, "name": "39bf10a5b1723a360f40e6774a192946", "is_disabled": 0, "type": "electric_scooter", "is_reserved": 0, "fusion_lon": 0.0, "lat": 38.8674845, "rental_uris": {"ios": "https://dc.lft.to/lastmile_qr_scan", "android": "https://dc.lft.to/lastmile_qr_scan"}, "bike_id": "39bf10a5b1723a360f40e6774a192946", "fusion_lat": 0.0}, {"lon": -77.03697816666667, "name": "fdc7690c193d2d550c808f942df60e42", "is_disabled": 0, "type": "electric_scooter", "is_reserved": 0, "fusion_lon": 0.0, "lat": 38.92642566666667, "rental_uris": {"ios": "https://dc.lft.to/lastmile_qr_scan", "android": "https://dc.lft.to/lastmile_qr_scan"}, "bike_id": "fdc7690c193d2d550c808f942df60e42", "fusion_lat": 0.0}, {"lon": -77.048275, "name": "3d66762ff285c339e1cd945b4a76d6e5", "is_disabled": 0, "type": "electric_scooter", "is_reserved": 0, "fusion_lon": 0.0, "lat": 38.90205433333333, "rental_uris": {"ios": "https://dc.lft.to/lastmile_qr_scan", "android": "https://dc.lft.to/lastmile_qr_scan"}, "bike_id": "3d66762ff285c339e1cd945b4a76d6e5", "fusion_lat": 0.0}, {"lon": -76.98523416666667, "name": "e78611d76b54189d15f6bb9d7d5d4174", "is_disabled": 0, "type": "electric_scooter", "is_reserved": 0, "fusion_lon": 0.0, "lat": 38.86671416666667, "rental_uris": {"ios": "https://dc.lft.to/lastmile_qr_scan", "android": "https://dc.lft.to/lastmile_qr_scan"}, "bike_id": "e78611d76b54189d15f6bb9d7d5d4174", "fusion_lat": 0.0}, {"lon": -77.04490533333333, "name": "b3393b9a4b48ca5fbcb5d82b50a82029", "is_disabled": 0, "type": "electric_scooter", "is_reserved": 0, "fusion_lon": 0.0, "lat": 38.913684833333335, "rental_uris": {"ios": "https://dc.lft.to/lastmile_qr_scan", "android": "https://dc.lft.to/lastmile_qr_scan"}, "bike_id": "b3393b9a4b48ca5fbcb5d82b50a82029", "fusion_lat": 0.0}, {"lon": -77.0483765, "name": "01544c275e9b98628ae2dd298bf299fa", "is_disabled": 0, "type": "electric_bike", "is_reserved": 0, "fusion_lon": 0.0, "lat": 39.0374795, "rental_uris": {"ios": "https://dc.lft.to/lastmile_qr_scan", "android": "https://dc.lft.to/lastmile_qr_scan"}, "bike_id": "01544c275e9b98628ae2dd298bf299fa", "fusion_lat": 0.0}, {"lon": -76.9910075, "name": "18b4bd99f961013fdca18138d6aa0986", "is_disabled": 0, "type": "electric_bike", "is_reserved": 0, "fusion_lon": 0.0, "lat": 38.8048055, "rental_uris": {"ios": "https://dc.lft.to/lastmile_qr_scan", "android": "https://dc.lft.to/lastmile_qr_scan"}, "bike_id": "18b4bd99f961013fdca18138d6aa0986", "fusion_lat": 0.0}, {"lon": -76.987217, "name": "b356bea356ea8ff55e4390a8a37b3ab4", "is_disabled": 0, "type": "electric_bike", "is_reserved": 0, "fusion_lon": 0.0, "lat": 38.8633525, "rental_uris": {"ios": "https://dc.lft.to/lastmile_qr_scan", "android": "https://dc.lft.to/lastmile_qr_scan"}, "bike_id": "b356bea356ea8ff55e4390a8a37b3ab4", "fusion_lat": 0.0}, {"lon": -77.01264333333333, "name": "ec5b52b46d75ee86117889239d443a27", "is_disabled": 0, "type": "electric_scooter", "is_reserved": 0, "fusion_lon": 0.0, "lat": 38.86459083333333, "rental_uris": {"ios": "https://dc.lft.to/lastmile_qr_scan", "android": "https://dc.lft.to/lastmile_qr_scan"}, "bike_id": "ec5b52b46d75ee86117889239d443a27", "fusion_lat": 0.0}, {"lon": -77.0035815, "name": "bfe032e583cc802c7b7a7625b499c5f3", "is_disabled": 0, "type": "electric_scooter", "is_reserved": 0, "fusion_lon": 0.0, "lat": 38.9176125, "rental_uris": {"ios": "https://dc.lft.to/lastmile_qr_scan", "android": "https://dc.lft.to/lastmile_qr_scan"}, "bike_id": "bfe032e583cc802c7b7a7625b499c5f3", "fusion_lat": 0.0}, {"lon": -76.99381183333334, "name": "fca62fff2fc84077d28e067b3b982ab0", "is_disabled": 0, "type": "electric_scooter", "is_reserved": 0, "fusion_lon": 0.0, "lat": 38.893379, "rental_uris": {"ios": "https://dc.lft.to/lastmile_qr_scan", "android": "https://dc.lft.to/lastmile_qr_scan"}, "bike_id": "fca62fff2fc84077d28e067b3b982ab0", "fusion_lat": 0.0}, {"lon": -77.01849966666667, "name": "7a21982b9b08e037ff36aa226e8a86dc", "is_disabled": 0, "type": "electric_scooter", "is_reserved": 0, "fusion_lon": 0.0, "lat": 38.948871833333335, "rental_uris": {"ios": "https://dc.lft.to/lastmile_qr_scan", "android": "https://dc.lft.to/lastmile_qr_scan"}, "bike_id": "7a21982b9b08e037ff36aa226e8a86dc", "fusion_lat": 0.0}, {"lon": -77.031973, "name": "7cbbbbed8fc9d649939b59d887603c70", "is_disabled": 0, "type": "electric_scooter", "is_reserved": 0, "fusion_lon": 0.0, "lat": 38.916576, "rental_uris": {"ios": "https://dc.lft.to/lastmile_qr_scan", "android": "https://dc.lft.to/lastmile_qr_scan"}, "bike_id": "7cbbbbed8fc9d649939b59d887603c70", "fusion_lat": 0.0}, {"lon": -76.97560283333334, "name": "ef76c6db8aaa3a30895d0dc928bea2aa", "is_disabled": 0, "type": "electric_bike", "is_reserved": 0, "fusion_lon": 0.0, "lat": 38.872684166666666, "rental_uris": {"ios": "https://dc.lft.to/lastmile_qr_scan", "android": "https://dc.lft.to/lastmile_qr_scan"}, "bike_id": "ef76c6db8aaa3a30895d0dc928bea2aa", "fusion_lat": 0.0}, {"lon": -77.0219, "name": "ff0cc0638b27ee9f7769eb47aefa792a", "is_disabled": 0, "type": "electric_scooter", "is_reserved": 0, "fusion_lon": 0.0, "lat": 38.905859, "rental_uris": {"ios": "https://dc.lft.to/lastmile_qr_scan", "android": "https://dc.lft.to/lastmile_qr_scan"}, "bike_id": "ff0cc0638b27ee9f7769eb47aefa792a", "fusion_lat": 0.0}, {"lon": -77.02485083333333, "name": "7998e0b5c63ea074376f746ad858333e", "is_disabled": 0, "type": "electric_scooter", "is_reserved": 0, "fusion_lon": 0.0, "lat": 38.88005966666667, "rental_uris": {"ios": "https://dc.lft.to/lastmile_qr_scan", "android": "https://dc.lft.to/lastmile_qr_scan"}, "bike_id": "7998e0b5c63ea074376f746ad858333e", "fusion_lat": 0.0}, {"lon": -77.01206683333334, "name": "db684aeb9cb70ff4149a3f92e6144336", "is_disabled": 0, "type": "electric_scooter", "is_reserved": 0, "fusion_lon": 0.0, "lat": 38.927419, "rental_uris": {"ios": "https://dc.lft.to/lastmile_qr_scan", "android": "https://dc.lft.to/lastmile_qr_scan"}, "bike_id": "db684aeb9cb70ff4149a3f92e6144336", "fusion_lat": 0.0}, {"lon": -76.9922265, "name": "c71664d8e904e8a7fcf6c3fc62b0572c", "is_disabled": 0, "type": "electric_scooter", "is_reserved": 0, "fusion_lon": 0.0, "lat": 38.897340666666665, "rental_uris": {"ios": "https://dc.lft.to/lastmile_qr_scan", "android": "https://dc.lft.to/lastmile_qr_scan"}, "bike_id": "c71664d8e904e8a7fcf6c3fc62b0572c", "fusion_lat": 0.0}, {"lon": -77.025553, "name": "642c8b0c232a06961ea41d94b4aa344e", "is_disabled": 0, "type": "electric_scooter", "is_reserved": 0, "fusion_lon": 0.0, "lat": 38.916314166666666, "rental_uris": {"ios": "https://dc.lft.to/lastmile_qr_scan", "android": "https://dc.lft.to/lastmile_qr_scan"}, "bike_id": "642c8b0c232a06961ea41d94b4aa344e", "fusion_lat": 0.0}, {"lon": -77.04173483333334, "name": "56ccbe2f98247306ebf11b81e8c0d174", "is_disabled": 0, "type": "electric_scooter", "is_reserved": 0, "fusion_lon": 0.0, "lat": 38.9172895, "rental_uris": {"ios": "https://dc.lft.to/lastmile_qr_scan", "android": "https://dc.lft.to/lastmile_qr_scan"}, "bike_id": "56ccbe2f98247306ebf11b81e8c0d174", "fusion_lat": 0.0}, {"lon": -77.00151216666667, "name": "95c46ef2ea1668c917923c32e7482c8d", "is_disabled": 0, "type": "electric_scooter", "is_reserved": 0, "fusion_lon": 0.0, "lat": 38.89473066666667, "rental_uris": {"ios": "https://dc.lft.to/lastmile_qr_scan", "android": "https://dc.lft.to/lastmile_qr_scan"}, "bike_id": "95c46ef2ea1668c917923c32e7482c8d", "fusion_lat": 0.0}, {"lon": -77.03464733333334, "name": "c1106daa9a46d9ff12ee920ece5d0acc", "is_disabled": 0, "type": "electric_scooter", "is_reserved": 0, "fusion_lon": 0.0, "lat": 38.9044495, "rental_uris": {"ios": "https://dc.lft.to/lastmile_qr_scan", "android": "https://dc.lft.to/lastmile_qr_scan"}, "bike_id": "c1106daa9a46d9ff12ee920ece5d0acc", "fusion_lat": 0.0}, {"lon": -76.99348966666666, "name": "2e5b707f71db3cfe02bf6fecc5438dcf", "is_disabled": 0, "type": "electric_scooter", "is_reserved": 0, "fusion_lon": 0.0, "lat": 38.910293, "rental_uris": {"ios": "https://dc.lft.to/lastmile_qr_scan", "android": "https://dc.lft.to/lastmile_qr_scan"}, "bike_id": "2e5b707f71db3cfe02bf6fecc5438dcf", "fusion_lat": 0.0}, {"lon": -76.937141, "name": "859445c0b93903e25d1a2bcd9b9926ee", "is_disabled": 0, "type": "electric_scooter", "is_reserved": 0, "fusion_lon": 0.0, "lat": 38.888537666666664, "rental_uris": {"ios": "https://dc.lft.to/lastmile_qr_scan", "android": "https://dc.lft.to/lastmile_qr_scan"}, "bike_id": "859445c0b93903e25d1a2bcd9b9926ee", "fusion_lat": 0.0}, {"lon": -77.0445105, "name": "81d9bae7c46cbc6ddeae964785768c7b", "is_disabled": 0, "type": "electric_scooter", "is_reserved": 0, "fusion_lon": 0.0, "lat": 38.91020833333333, "rental_uris": {"ios": "https://dc.lft.to/lastmile_qr_scan", "android": "https://dc.lft.to/lastmile_qr_scan"}, "bike_id": "81d9bae7c46cbc6ddeae964785768c7b", "fusion_lat": 0.0}, {"lon": -77.00607133333334, "name": "d9d25a12d92c3fe7c290d6e9575dae52", "is_disabled": 0, "type": "electric_scooter", "is_reserved": 0, "fusion_lon": 0.0, "lat": 38.91115766666667, "rental_uris": {"ios": "https://dc.lft.to/lastmile_qr_scan", "android": "https://dc.lft.to/lastmile_qr_scan"}, "bike_id": "d9d25a12d92c3fe7c290d6e9575dae52", "fusion_lat": 0.0}, {"lon": -76.91067416666667, "name": "7a393194b1860b1692615d3f49e6cf94", "is_disabled": 0, "type": "electric_bike", "is_reserved": 0, "fusion_lon": 0.0, "lat": 39.01074166666667, "rental_uris": {"ios": "https://dc.lft.to/lastmile_qr_scan", "android": "https://dc.lft.to/lastmile_qr_scan"}, "bike_id": "7a393194b1860b1692615d3f49e6cf94", "fusion_lat": 0.0}, {"lon": -77.04715916666666, "name": "03d4a57f21ce278132fd359ab9e41942", "is_disabled": 0, "type": "electric_scooter", "is_reserved": 0, "fusion_lon": 0.0, "lat": 38.89970816666667, "rental_uris": {"ios": "https://dc.lft.to/lastmile_qr_scan", "android": "https://dc.lft.to/lastmile_qr_scan"}, "bike_id": "03d4a57f21ce278132fd359ab9e41942", "fusion_lat": 0.0}, {"lon": -77.01950066666667, "name": "f28ed9012685853dd3a5599d34f18955", "is_disabled": 0, "type": "electric_scooter", "is_reserved": 0, "fusion_lon": 0.0, "lat": 38.9236835, "rental_uris": {"ios": "https://dc.lft.to/lastmile_qr_scan", "android": "https://dc.lft.to/lastmile_qr_scan"}, "bike_id": "f28ed9012685853dd3a5599d34f18955", "fusion_lat": 0.0}, {"lon": -76.98606216666667, "name": "9a8572fa2901c306ae556f7dc68844e9", "is_disabled": 0, "type": "electric_bike", "is_reserved": 0, "fusion_lon": 0.0, "lat": 38.92977916666667, "rental_uris": {"ios": "https://dc.lft.to/lastmile_qr_scan", "android": "https://dc.lft.to/lastmile_qr_scan"}, "bike_id": "9a8572fa2901c306ae556f7dc68844e9", "fusion_lat": 0.0}, {"lon": -77.021646, "name": "e835d29fe831296137e07520aa6b73bf", "is_disabled": 0, "type": "electric_scooter", "is_reserved": 0, "fusion_lon": 0.0, "lat": 38.92638566666667, "rental_uris": {"ios": "https://dc.lft.to/lastmile_qr_scan", "android": "https://dc.lft.to/lastmile_qr_scan"}, "bike_id": "e835d29fe831296137e07520aa6b73bf", "fusion_lat": 0.0}, {"lon": -76.99630516666667, "name": "f8b00149a09e4dff7637041fa3317a51", "is_disabled": 0, "type": "electric_scooter", "is_reserved": 0, "fusion_lon": 0.0, "lat": 38.900663, "rental_uris": {"ios": "https://dc.lft.to/lastmile_qr_scan", "android": "https://dc.lft.to/lastmile_qr_scan"}, "bike_id": "f8b00149a09e4dff7637041fa3317a51", "fusion_lat": 0.0}, {"lon": -77.04657233333333, "name": "67bdd5012a0d168d3e4e5ecfea8bcce1", "is_disabled": 0, "type": "electric_scooter", "is_reserved": 0, "fusion_lon": 0.0, "lat": 38.89249483333333, "rental_uris": {"ios": "https://dc.lft.to/lastmile_qr_scan", "android": "https://dc.lft.to/lastmile_qr_scan"}, "bike_id": "67bdd5012a0d168d3e4e5ecfea8bcce1", "fusion_lat": 0.0}, {"lon": -77.03947583333333, "name": "8510e7a93831a1ec993936969e8fb6b0", "is_disabled": 0, "type": "electric_scooter", "is_reserved": 0, "fusion_lon": 0.0, "lat": 38.90369233333333, "rental_uris": {"ios": "https://dc.lft.to/lastmile_qr_scan", "android": "https://dc.lft.to/lastmile_qr_scan"}, "bike_id": "8510e7a93831a1ec993936969e8fb6b0", "fusion_lat": 0.0}, {"lon": -77.00589483333333, "name": "02741475db5302ae7eebbab53c1533aa", "is_disabled": 0, "type": "electric_scooter", "is_reserved": 0, "fusion_lon": 0.0, "lat": 38.906432833333334, "rental_uris": {"ios": "https://dc.lft.to/lastmile_qr_scan", "android": "https://dc.lft.to/lastmile_qr_scan"}, "bike_id": "02741475db5302ae7eebbab53c1533aa", "fusion_lat": 0.0}, {"lon": -77.128803, "name": "340d2b6870fd96b59f0f80b49e2eab31", "is_disabled": 0, "type": "electric_bike", "is_reserved": 0, "fusion_lon": 0.0, "lat": 38.90609633333333, "rental_uris": {"ios": "https://dc.lft.to/lastmile_qr_scan", "android": "https://dc.lft.to/lastmile_qr_scan"}, "bike_id": "340d2b6870fd96b59f0f80b49e2eab31", "fusion_lat": 0.0}, {"lon": -76.97066483333333, "name": "845eaee0052228b5c1b326ca635fb825", "is_disabled": 0, "type": "electric_bike", "is_reserved": 0, "fusion_lon": 0.0, "lat": 38.92054616666667, "rental_uris": {"ios": "https://dc.lft.to/lastmile_qr_scan", "android": "https://dc.lft.to/lastmile_qr_scan"}, "bike_id": "845eaee0052228b5c1b326ca635fb825", "fusion_lat": 0.0}, {"lon": -77.03467183333333, "name": "6d665a000ae67dc08d06fb3b400f879b", "is_disabled": 0, "type": "electric_scooter", "is_reserved": 0, "fusion_lon": 0.0, "lat": 38.929783666666665, "rental_uris": {"ios": "https://dc.lft.to/lastmile_qr_scan", "android": "https://dc.lft.to/lastmile_qr_scan"}, "bike_id": "6d665a000ae67dc08d06fb3b400f879b", "fusion_lat": 0.0}, {"lon": -77.03249366666667, "name": "b3c35254fa9a6b7877943de2b96543d1", "is_disabled": 0, "type": "electric_scooter", "is_reserved": 0, "fusion_lon": 0.0, "lat": 38.921104666666665, "rental_uris": {"ios": "https://dc.lft.to/lastmile_qr_scan", "android": "https://dc.lft.to/lastmile_qr_scan"}, "bike_id": "b3c35254fa9a6b7877943de2b96543d1", "fusion_lat": 0.0}, {"lon": -77.02173333333333, "name": "948a9f0aec53f79ba005bdd930b2c444", "is_disabled": 0, "type": "electric_scooter", "is_reserved": 0, "fusion_lon": 0.0, "lat": 38.91616766666667, "rental_uris": {"ios": "https://dc.lft.to/lastmile_qr_scan", "android": "https://dc.lft.to/lastmile_qr_scan"}, "bike_id": "948a9f0aec53f79ba005bdd930b2c444", "fusion_lat": 0.0}, {"lon": -77.0013325, "name": "1f54bc37b9061b18115f480cde89c90e", "is_disabled": 0, "type": "electric_scooter", "is_reserved": 0, "fusion_lon": 0.0, "lat": 38.8738455, "rental_uris": {"ios": "https://dc.lft.to/lastmile_qr_scan", "android": "https://dc.lft.to/lastmile_qr_scan"}, "bike_id": "1f54bc37b9061b18115f480cde89c90e", "fusion_lat": 0.0}, {"lon": -76.9768655, "name": "5f5b8286342a627d121027d3f11136d1", "is_disabled": 0, "type": "electric_scooter", "is_reserved": 0, "fusion_lon": 0.0, "lat": 38.9008465, "rental_uris": {"ios": "https://dc.lft.to/lastmile_qr_scan", "android": "https://dc.lft.to/lastmile_qr_scan"}, "bike_id": "5f5b8286342a627d121027d3f11136d1", "fusion_lat": 0.0}, {"lon": -77.03769266666667, "name": "01fe0c503498b3d1abff11a9b0a3891f", "is_disabled": 0, "type": "electric_scooter", "is_reserved": 0, "fusion_lon": 0.0, "lat": 38.91706033333333, "rental_uris": {"ios": "https://dc.lft.to/lastmile_qr_scan", "android": "https://dc.lft.to/lastmile_qr_scan"}, "bike_id": "01fe0c503498b3d1abff11a9b0a3891f", "fusion_lat": 0.0}, {"lon": -76.985248, "name": "dfc3b2932d72b0e00480ba47bc59119e", "is_disabled": 0, "type": "electric_scooter", "is_reserved": 0, "fusion_lon": 0.0, "lat": 38.860037, "rental_uris": {"ios": "https://dc.lft.to/lastmile_qr_scan", "android": "https://dc.lft.to/lastmile_qr_scan"}, "bike_id": "dfc3b2932d72b0e00480ba47bc59119e", "fusion_lat": 0.0}, {"lon": -77.00922383333334, "name": "ecb21c6a72540f75262b1d7593ff9312", "is_disabled": 0, "type": "electric_scooter", "is_reserved": 0, "fusion_lon": 0.0, "lat": 38.895506166666664, "rental_uris": {"ios": "https://dc.lft.to/lastmile_qr_scan", "android": "https://dc.lft.to/lastmile_qr_scan"}, "bike_id": "ecb21c6a72540f75262b1d7593ff9312", "fusion_lat": 0.0}, {"lon": -77.03192033333333, "name": "7bd469e92fdec1b20db7bef5b6e387af", "is_disabled": 0, "type": "electric_scooter", "is_reserved": 0, "fusion_lon": 0.0, "lat": 38.91622483333333, "rental_uris": {"ios": "https://dc.lft.to/lastmile_qr_scan", "android": "https://dc.lft.to/lastmile_qr_scan"}, "bike_id": "7bd469e92fdec1b20db7bef5b6e387af", "fusion_lat": 0.0}, {"lon": -77.03652116666666, "name": "a27dc50fae9f6b00c52e1071cde0abd9", "is_disabled": 0, "type": "electric_scooter", "is_reserved": 0, "fusion_lon": 0.0, "lat": 38.9528805, "rental_uris": {"ios": "https://dc.lft.to/lastmile_qr_scan", "android": "https://dc.lft.to/lastmile_qr_scan"}, "bike_id": "a27dc50fae9f6b00c52e1071cde0abd9", "fusion_lat": 0.0}, {"lon": -77.04981716666667, "name": "1a2a72740e28e87477b99a66cad063ed", "is_disabled": 0, "type": "electric_scooter", "is_reserved": 0, "fusion_lon": 0.0, "lat": 38.91816, "rental_uris": {"ios": "https://dc.lft.to/lastmile_qr_scan", "android": "https://dc.lft.to/lastmile_qr_scan"}, "bike_id": "1a2a72740e28e87477b99a66cad063ed", "fusion_lat": 0.0}, {"lon": -77.0257005, "name": "2d1c348b88ca14e77a6e7b10d78423ae", "is_disabled": 0, "type": "electric_scooter", "is_reserved": 0, "fusion_lon": 0.0, "lat": 38.9033615, "rental_uris": {"ios": "https://dc.lft.to/lastmile_qr_scan", "android": "https://dc.lft.to/lastmile_qr_scan"}, "bike_id": "2d1c348b88ca14e77a6e7b10d78423ae", "fusion_lat": 0.0}, {"lon": -77.04278383333333, "name": "5bb47673aeb43264ca80fd5272d532ba", "is_disabled": 0, "type": "electric_bike", "is_reserved": 0, "fusion_lon": 0.0, "lat": 38.89369283333333, "rental_uris": {"ios": "https://dc.lft.to/lastmile_qr_scan", "android": "https://dc.lft.to/lastmile_qr_scan"}, "bike_id": "5bb47673aeb43264ca80fd5272d532ba", "fusion_lat": 0.0}, {"lon": -77.02132883333333, "name": "8c1eebca5e09c3029dff5a708f76eecd", "is_disabled": 0, "type": "electric_scooter", "is_reserved": 0, "fusion_lon": 0.0, "lat": 38.92789966666667, "rental_uris": {"ios": "https://dc.lft.to/lastmile_qr_scan", "android": "https://dc.lft.to/lastmile_qr_scan"}, "bike_id": "8c1eebca5e09c3029dff5a708f76eecd", "fusion_lat": 0.0}, {"lon": -76.994088, "name": "8ad3f290048c2fd15ea7877914432d82", "is_disabled": 0, "type": "electric_scooter", "is_reserved": 0, "fusion_lon": 0.0, "lat": 38.87788333333334, "rental_uris": {"ios": "https://dc.lft.to/lastmile_qr_scan", "android": "https://dc.lft.to/lastmile_qr_scan"}, "bike_id": "8ad3f290048c2fd15ea7877914432d82", "fusion_lat": 0.0}, {"lon": -77.0123005, "name": "468045587eae998473a911455befea08", "is_disabled": 0, "type": "electric_scooter", "is_reserved": 0, "fusion_lon": 0.0, "lat": 38.91594816666667, "rental_uris": {"ios": "https://dc.lft.to/lastmile_qr_scan", "android": "https://dc.lft.to/lastmile_qr_scan"}, "bike_id": "468045587eae998473a911455befea08", "fusion_lat": 0.0}, {"lon": -77.03149783333333, "name": "087be27bef4cca154c9ed9805491fa92", "is_disabled": 0, "type": "electric_scooter", "is_reserved": 0, "fusion_lon": 0.0, "lat": 38.9141435, "rental_uris": {"ios": "https://dc.lft.to/lastmile_qr_scan", "android": "https://dc.lft.to/lastmile_qr_scan"}, "bike_id": "087be27bef4cca154c9ed9805491fa92", "fusion_lat": 0.0}, {"lon": -77.00562666666667, "name": "9f97a34324788315b41a9f2b4e5aacd9", "is_disabled": 0, "type": "electric_scooter", "is_reserved": 0, "fusion_lon": 0.0, "lat": 38.885040833333335, "rental_uris": {"ios": "https://dc.lft.to/lastmile_qr_scan", "android": "https://dc.lft.to/lastmile_qr_scan"}, "bike_id": "9f97a34324788315b41a9f2b4e5aacd9", "fusion_lat": 0.0}, {"lon": -77.04007433333334, "name": "4b56760978eee7e50e7b607078bb74d8", "is_disabled": 0, "type": "electric_scooter", "is_reserved": 0, "fusion_lon": 0.0, "lat": 38.93422666666667, "rental_uris": {"ios": "https://dc.lft.to/lastmile_qr_scan", "android": "https://dc.lft.to/lastmile_qr_scan"}, "bike_id": "4b56760978eee7e50e7b607078bb74d8", "fusion_lat": 0.0}, {"lon": -77.04634733333333, "name": "0f76ce670ff37602faa071339adccb74", "is_disabled": 0, "type": "electric_scooter", "is_reserved": 0, "fusion_lon": 0.0, "lat": 38.90957183333333, "rental_uris": {"ios": "https://dc.lft.to/lastmile_qr_scan", "android": "https://dc.lft.to/lastmile_qr_scan"}, "bike_id": "0f76ce670ff37602faa071339adccb74", "fusion_lat": 0.0}, {"lon": -77.01611033333333, "name": "43d5493abf1fa6dc79db0788ff787f8b", "is_disabled": 0, "type": "electric_scooter", "is_reserved": 0, "fusion_lon": 0.0, "lat": 38.8996585, "rental_uris": {"ios": "https://dc.lft.to/lastmile_qr_scan", "android": "https://dc.lft.to/lastmile_qr_scan"}, "bike_id": "43d5493abf1fa6dc79db0788ff787f8b", "fusion_lat": 0.0}, {"lon": -76.9827535, "name": "f777d782a100fab2d3d2457f6ac4ba92", "is_disabled": 0, "type": "electric_scooter", "is_reserved": 0, "fusion_lon": 0.0, "lat": 38.90342616666667, "rental_uris": {"ios": "https://dc.lft.to/lastmile_qr_scan", "android": "https://dc.lft.to/lastmile_qr_scan"}, "bike_id": "f777d782a100fab2d3d2457f6ac4ba92", "fusion_lat": 0.0}, {"lon": -76.93062033333334, "name": "5f6eba6c33f8cda776346563fdc89dcb", "is_disabled": 0, "type": "electric_scooter", "is_reserved": 0, "fusion_lon": 0.0, "lat": 38.89557966666667, "rental_uris": {"ios": "https://dc.lft.to/lastmile_qr_scan", "android": "https://dc.lft.to/lastmile_qr_scan"}, "bike_id": "5f6eba6c33f8cda776346563fdc89dcb", "fusion_lat": 0.0}, {"lon": -77.00681416666667, "name": "a2fd32c93665ba9309da50f3f0d4cbc0", "is_disabled": 0, "type": "electric_scooter", "is_reserved": 0, "fusion_lon": 0.0, "lat": 38.90019316666667, "rental_uris": {"ios": "https://dc.lft.to/lastmile_qr_scan", "android": "https://dc.lft.to/lastmile_qr_scan"}, "bike_id": "a2fd32c93665ba9309da50f3f0d4cbc0", "fusion_lat": 0.0}, {"lon": -77.003606, "name": "4e8bed1717c2c20d2ed6a935b86fca3e", "is_disabled": 0, "type": "electric_scooter", "is_reserved": 0, "fusion_lon": 0.0, "lat": 38.897472666666665, "rental_uris": {"ios": "https://dc.lft.to/lastmile_qr_scan", "android": "https://dc.lft.to/lastmile_qr_scan"}, "bike_id": "4e8bed1717c2c20d2ed6a935b86fca3e", "fusion_lat": 0.0}, {"lon": -77.00919483333334, "name": "483e412b8807eb854c684c8897323d61", "is_disabled": 0, "type": "electric_scooter", "is_reserved": 0, "fusion_lon": 0.0, "lat": 38.906322333333335, "rental_uris": {"ios": "https://dc.lft.to/lastmile_qr_scan", "android": "https://dc.lft.to/lastmile_qr_scan"}, "bike_id": "483e412b8807eb854c684c8897323d61", "fusion_lat": 0.0}, {"lon": -77.050328, "name": "9d91183a36878254d3a9c99fdb2f1ca2", "is_disabled": 0, "type": "electric_scooter", "is_reserved": 0, "fusion_lon": 0.0, "lat": 38.90206366666666, "rental_uris": {"ios": "https://dc.lft.to/lastmile_qr_scan", "android": "https://dc.lft.to/lastmile_qr_scan"}, "bike_id": "9d91183a36878254d3a9c99fdb2f1ca2", "fusion_lat": 0.0}, {"lon": -77.01982766666667, "name": "c4cd9675505d86b4b56904ae551bc9ca", "is_disabled": 0, "type": "electric_scooter", "is_reserved": 0, "fusion_lon": 0.0, "lat": 38.89472516666667, "rental_uris": {"ios": "https://dc.lft.to/lastmile_qr_scan", "android": "https://dc.lft.to/lastmile_qr_scan"}, "bike_id": "c4cd9675505d86b4b56904ae551bc9ca", "fusion_lat": 0.0}, {"lon": -77.0260585, "name": "a2e5054ca122ad15b623ec09fccbd47d", "is_disabled": 0, "type": "electric_scooter", "is_reserved": 0, "fusion_lon": 0.0, "lat": 38.89726533333334, "rental_uris": {"ios": "https://dc.lft.to/lastmile_qr_scan", "android": "https://dc.lft.to/lastmile_qr_scan"}, "bike_id": "a2e5054ca122ad15b623ec09fccbd47d", "fusion_lat": 0.0}, {"lon": -77.04841166666667, "name": "38016b0b3140b331dd8bbcb687a7aabe", "is_disabled": 0, "type": "electric_scooter", "is_reserved": 0, "fusion_lon": 0.0, "lat": 38.9021295, "rental_uris": {"ios": "https://dc.lft.to/lastmile_qr_scan", "android": "https://dc.lft.to/lastmile_qr_scan"}, "bike_id": "38016b0b3140b331dd8bbcb687a7aabe", "fusion_lat": 0.0}, {"lon": -77.01874366666667, "name": "ef8b1403d1e7f21cab229b28423b22d5", "is_disabled": 0, "type": "electric_scooter", "is_reserved": 0, "fusion_lon": 0.0, "lat": 38.931984, "rental_uris": {"ios": "https://dc.lft.to/lastmile_qr_scan", "android": "https://dc.lft.to/lastmile_qr_scan"}, "bike_id": "ef8b1403d1e7f21cab229b28423b22d5", "fusion_lat": 0.0}, {"lon": -77.02164483333334, "name": "3cb7696a326e05fb58290d03de6039e0", "is_disabled": 0, "type": "electric_scooter", "is_reserved": 0, "fusion_lon": 0.0, "lat": 38.9260585, "rental_uris": {"ios": "https://dc.lft.to/lastmile_qr_scan", "android": "https://dc.lft.to/lastmile_qr_scan"}, "bike_id": "3cb7696a326e05fb58290d03de6039e0", "fusion_lat": 0.0}, {"lon": -76.94465383333333, "name": "534a9b1e26bf2209658ae03a54a159fb", "is_disabled": 0, "type": "electric_scooter", "is_reserved": 0, "fusion_lon": 0.0, "lat": 38.890239333333334, "rental_uris": {"ios": "https://dc.lft.to/lastmile_qr_scan", "android": "https://dc.lft.to/lastmile_qr_scan"}, "bike_id": "534a9b1e26bf2209658ae03a54a159fb", "fusion_lat": 0.0}, {"lon": -76.98839933333333, "name": "5993dbcc92c728670ace57a9d4f122a1", "is_disabled": 0, "type": "electric_bike", "is_reserved": 0, "fusion_lon": 0.0, "lat": 38.842772833333335, "rental_uris": {"ios": "https://dc.lft.to/lastmile_qr_scan", "android": "https://dc.lft.to/lastmile_qr_scan"}, "bike_id": "5993dbcc92c728670ace57a9d4f122a1", "fusion_lat": 0.0}, {"lon": -77.027153, "name": "f26c3b1de43796cbed6b05b9132ecdd4", "is_disabled": 0, "type": "electric_scooter", "is_reserved": 0, "fusion_lon": 0.0, "lat": 38.916885666666666, "rental_uris": {"ios": "https://dc.lft.to/lastmile_qr_scan", "android": "https://dc.lft.to/lastmile_qr_scan"}, "bike_id": "f26c3b1de43796cbed6b05b9132ecdd4", "fusion_lat": 0.0}, {"lon": -77.00571733333334, "name": "0e3586acceb25095881e726836d09acc", "is_disabled": 0, "type": "electric_scooter", "is_reserved": 0, "fusion_lon": 0.0, "lat": 38.885011166666665, "rental_uris": {"ios": "https://dc.lft.to/lastmile_qr_scan", "android": "https://dc.lft.to/lastmile_qr_scan"}, "bike_id": "0e3586acceb25095881e726836d09acc", "fusion_lat": 0.0}, {"lon": -77.04306033333333, "name": "3a92155facf6f083d0ee8a87ec32563d", "is_disabled": 0, "type": "electric_scooter", "is_reserved": 0, "fusion_lon": 0.0, "lat": 38.923903333333335, "rental_uris": {"ios": "https://dc.lft.to/lastmile_qr_scan", "android": "https://dc.lft.to/lastmile_qr_scan"}, "bike_id": "3a92155facf6f083d0ee8a87ec32563d", "fusion_lat": 0.0}, {"lon": -77.03205466666667, "name": "ce7d3e34a8cba2fd7a5eabc83d54938e", "is_disabled": 0, "type": "electric_scooter", "is_reserved": 0, "fusion_lon": 0.0, "lat": 38.92292183333333, "rental_uris": {"ios": "https://dc.lft.to/lastmile_qr_scan", "android": "https://dc.lft.to/lastmile_qr_scan"}, "bike_id": "ce7d3e34a8cba2fd7a5eabc83d54938e", "fusion_lat": 0.0}, {"lon": -77.02201233333334, "name": "93f312e9227b507509d28c1bad878e55", "is_disabled": 0, "type": "electric_scooter", "is_reserved": 0, "fusion_lon": 0.0, "lat": 38.919859833333334, "rental_uris": {"ios": "https://dc.lft.to/lastmile_qr_scan", "android": "https://dc.lft.to/lastmile_qr_scan"}, "bike_id": "93f312e9227b507509d28c1bad878e55", "fusion_lat": 0.0}, {"lon": -76.93929916666667, "name": "ceaa25f92f80099f30fb55072e6dbdf4", "is_disabled": 0, "type": "electric_scooter", "is_reserved": 0, "fusion_lon": 0.0, "lat": 38.89328116666667, "rental_uris": {"ios": "https://dc.lft.to/lastmile_qr_scan", "android": "https://dc.lft.to/lastmile_qr_scan"}, "bike_id": "ceaa25f92f80099f30fb55072e6dbdf4", "fusion_lat": 0.0}, {"lon": -77.00579816666666, "name": "90c231182a2ca88679728810cb722d59", "is_disabled": 0, "type": "electric_scooter", "is_reserved": 0, "fusion_lon": 0.0, "lat": 38.902470666666666, "rental_uris": {"ios": "https://dc.lft.to/lastmile_qr_scan", "android": "https://dc.lft.to/lastmile_qr_scan"}, "bike_id": "90c231182a2ca88679728810cb722d59", "fusion_lat": 0.0}, {"lon": -77.07705, "name": "ff78ae7aa6f7697bb10f47ad5a00b0bd", "is_disabled": 0, "type": "electric_scooter", "is_reserved": 0, "fusion_lon": 0.0, "lat": 38.922449, "rental_uris": {"ios": "https://dc.lft.to/lastmile_qr_scan", "android": "https://dc.lft.to/lastmile_qr_scan"}, "bike_id": "ff78ae7aa6f7697bb10f47ad5a00b0bd", "fusion_lat": 0.0}, {"lon": -77.025709, "name": "39908248df8076207ab929967f4e991c", "is_disabled": 0, "type": "electric_scooter", "is_reserved": 0, "fusion_lon": 0.0, "lat": 38.88743316666667, "rental_uris": {"ios": "https://dc.lft.to/lastmile_qr_scan", "android": "https://dc.lft.to/lastmile_qr_scan"}, "bike_id": "39908248df8076207ab929967f4e991c", "fusion_lat": 0.0}, {"lon": -77.23409316666667, "name": "f767d3532180084e0c789462a96b0364", "is_disabled": 0, "type": "electric_bike", "is_reserved": 0, "fusion_lon": 0.0, "lat": 38.87574033333333, "rental_uris": {"ios": "https://dc.lft.to/lastmile_qr_scan", "android": "https://dc.lft.to/lastmile_qr_scan"}, "bike_id": "f767d3532180084e0c789462a96b0364", "fusion_lat": 0.0}, {"lon": -77.00550016666666, "name": "33ed297feee368e3893a21a3fda4bb0e", "is_disabled": 0, "type": "electric_bike", "is_reserved": 0, "fusion_lon": 0.0, "lat": 38.92741183333333, "rental_uris": {"ios": "https://dc.lft.to/lastmile_qr_scan", "android": "https://dc.lft.to/lastmile_qr_scan"}, "bike_id": "33ed297feee368e3893a21a3fda4bb0e", "fusion_lat": 0.0}, {"lon": -77.0236615, "name": "cac61d97890f083658a8426a1543ce94", "is_disabled": 0, "type": "electric_scooter", "is_reserved": 0, "fusion_lon": 0.0, "lat": 38.90843566666667, "rental_uris": {"ios": "https://dc.lft.to/lastmile_qr_scan", "android": "https://dc.lft.to/lastmile_qr_scan"}, "bike_id": "cac61d97890f083658a8426a1543ce94", "fusion_lat": 0.0}, {"lon": -77.05454083333333, "name": "e79100efa4b1e668b936062d9eb0ea94", "is_disabled": 0, "type": "electric_scooter", "is_reserved": 0, "fusion_lon": 0.0, "lat": 38.9289585, "rental_uris": {"ios": "https://dc.lft.to/lastmile_qr_scan", "android": "https://dc.lft.to/lastmile_qr_scan"}, "bike_id": "e79100efa4b1e668b936062d9eb0ea94", "fusion_lat": 0.0}, {"lon": -77.0249975, "name": "2f8d21567aa9a9aa4a798272e4317e26", "is_disabled": 0, "type": "electric_scooter", "is_reserved": 0, "fusion_lon": 0.0, "lat": 38.9375615, "rental_uris": {"ios": "https://dc.lft.to/lastmile_qr_scan", "android": "https://dc.lft.to/lastmile_qr_scan"}, "bike_id": "2f8d21567aa9a9aa4a798272e4317e26", "fusion_lat": 0.0}, {"lon": -77.001654, "name": "09eb02d8e9fc390b893acfb892af83e7", "is_disabled": 0, "type": "electric_scooter", "is_reserved": 0, "fusion_lon": 0.0, "lat": 38.9072105, "rental_uris": {"ios": "https://dc.lft.to/lastmile_qr_scan", "android": "https://dc.lft.to/lastmile_qr_scan"}, "bike_id": "09eb02d8e9fc390b893acfb892af83e7", "fusion_lat": 0.0}, {"lon": -77.02374633333334, "name": "6dc654cb5d983723099e2bf64dec45c0", "is_disabled": 0, "type": "electric_scooter", "is_reserved": 0, "fusion_lon": 0.0, "lat": 38.91785466666666, "rental_uris": {"ios": "https://dc.lft.to/lastmile_qr_scan", "android": "https://dc.lft.to/lastmile_qr_scan"}, "bike_id": "6dc654cb5d983723099e2bf64dec45c0", "fusion_lat": 0.0}, {"lon": -77.022126, "name": "e42be85d2a7c1b0b344d6e048eaa7efb", "is_disabled": 0, "type": "electric_scooter", "is_reserved": 0, "fusion_lon": 0.0, "lat": 38.92065866666667, "rental_uris": {"ios": "https://dc.lft.to/lastmile_qr_scan", "android": "https://dc.lft.to/lastmile_qr_scan"}, "bike_id": "e42be85d2a7c1b0b344d6e048eaa7efb", "fusion_lat": 0.0}, {"lon": -77.002893, "name": "1387fdde4d4b8bce111d5c469ed35400", "is_disabled": 0, "type": "electric_scooter", "is_reserved": 0, "fusion_lon": 0.0, "lat": 38.891911666666665, "rental_uris": {"ios": "https://dc.lft.to/lastmile_qr_scan", "android": "https://dc.lft.to/lastmile_qr_scan"}, "bike_id": "1387fdde4d4b8bce111d5c469ed35400", "fusion_lat": 0.0}, {"lon": -77.02537083333333, "name": "6b18a92e7206f3e2663aae3318ce9f40", "is_disabled": 0, "type": "electric_scooter", "is_reserved": 0, "fusion_lon": 0.0, "lat": 38.92087266666667, "rental_uris": {"ios": "https://dc.lft.to/lastmile_qr_scan", "android": "https://dc.lft.to/lastmile_qr_scan"}, "bike_id": "6b18a92e7206f3e2663aae3318ce9f40", "fusion_lat": 0.0}, {"lon": -77.02695733333333, "name": "57c60300045b08b1266a34b800cde8ec", "is_disabled": 0, "type": "electric_scooter", "is_reserved": 0, "fusion_lon": 0.0, "lat": 38.897337666666665, "rental_uris": {"ios": "https://dc.lft.to/lastmile_qr_scan", "android": "https://dc.lft.to/lastmile_qr_scan"}, "bike_id": "57c60300045b08b1266a34b800cde8ec", "fusion_lat": 0.0}, {"lon": -77.0281465, "name": "66b92ecee6c244abb2e4abb74f6d3f4f", "is_disabled": 0, "type": "electric_scooter", "is_reserved": 0, "fusion_lon": 0.0, "lat": 38.903609833333334, "rental_uris": {"ios": "https://dc.lft.to/lastmile_qr_scan", "android": "https://dc.lft.to/lastmile_qr_scan"}, "bike_id": "66b92ecee6c244abb2e4abb74f6d3f4f", "fusion_lat": 0.0}, {"lon": -77.04309566666667, "name": "777373fbb6d888a5b81330f6c92dc7b5", "is_disabled": 0, "type": "electric_bike", "is_reserved": 0, "fusion_lon": 0.0, "lat": 39.03429716666667, "rental_uris": {"ios": "https://dc.lft.to/lastmile_qr_scan", "android": "https://dc.lft.to/lastmile_qr_scan"}, "bike_id": "777373fbb6d888a5b81330f6c92dc7b5", "fusion_lat": 0.0}, {"lon": -77.039531, "name": "0450b01f500eb4112141c1152e1177b0", "is_disabled": 0, "type": "electric_scooter", "is_reserved": 0, "fusion_lon": 0.0, "lat": 38.89863183333333, "rental_uris": {"ios": "https://dc.lft.to/lastmile_qr_scan", "android": "https://dc.lft.to/lastmile_qr_scan"}, "bike_id": "0450b01f500eb4112141c1152e1177b0", "fusion_lat": 0.0}, {"lon": -77.021399, "name": "47d1be5b5e47710901b6ef1721e16371", "is_disabled": 0, "type": "electric_scooter", "is_reserved": 0, "fusion_lon": 0.0, "lat": 38.923697, "rental_uris": {"ios": "https://dc.lft.to/lastmile_qr_scan", "android": "https://dc.lft.to/lastmile_qr_scan"}, "bike_id": "47d1be5b5e47710901b6ef1721e16371", "fusion_lat": 0.0}, {"lon": -77.0281625, "name": "d1c9f18b4b0953bdfcbaf387722c374f", "is_disabled": 0, "type": "electric_scooter", "is_reserved": 0, "fusion_lon": 0.0, "lat": 38.90704983333333, "rental_uris": {"ios": "https://dc.lft.to/lastmile_qr_scan", "android": "https://dc.lft.to/lastmile_qr_scan"}, "bike_id": "d1c9f18b4b0953bdfcbaf387722c374f", "fusion_lat": 0.0}, {"lon": -76.9407865, "name": "1db5ca21905719b67b0abfa4f2eea0ac", "is_disabled": 0, "type": "electric_scooter", "is_reserved": 0, "fusion_lon": 0.0, "lat": 38.8998525, "rental_uris": {"ios": "https://dc.lft.to/lastmile_qr_scan", "android": "https://dc.lft.to/lastmile_qr_scan"}, "bike_id": "1db5ca21905719b67b0abfa4f2eea0ac", "fusion_lat": 0.0}, {"lon": -77.0107, "name": "ebd3c75d9b15f5d91308077c654b3a1e", "is_disabled": 0, "type": "electric_scooter", "is_reserved": 0, "fusion_lon": 0.0, "lat": 38.87315483333333, "rental_uris": {"ios": "https://dc.lft.to/lastmile_qr_scan", "android": "https://dc.lft.to/lastmile_qr_scan"}, "bike_id": "ebd3c75d9b15f5d91308077c654b3a1e", "fusion_lat": 0.0}, {"lon": -77.03955266666667, "name": "6dd6bfe3067c00ae4f4804a60e700641", "is_disabled": 0, "type": "electric_scooter", "is_reserved": 0, "fusion_lon": 0.0, "lat": 38.9192135, "rental_uris": {"ios": "https://dc.lft.to/lastmile_qr_scan", "android": "https://dc.lft.to/lastmile_qr_scan"}, "bike_id": "6dd6bfe3067c00ae4f4804a60e700641", "fusion_lat": 0.0}, {"lon": -77.04196433333334, "name": "971b6067ac26dccc7020b1c398cf237b", "is_disabled": 0, "type": "electric_scooter", "is_reserved": 0, "fusion_lon": 0.0, "lat": 38.92061066666667, "rental_uris": {"ios": "https://dc.lft.to/lastmile_qr_scan", "android": "https://dc.lft.to/lastmile_qr_scan"}, "bike_id": "971b6067ac26dccc7020b1c398cf237b", "fusion_lat": 0.0}, {"lon": -77.02667366666667, "name": "655d9b8327bf5e6c0781dd1f182758e5", "is_disabled": 0, "type": "electric_scooter", "is_reserved": 0, "fusion_lon": 0.0, "lat": 38.93210933333334, "rental_uris": {"ios": "https://dc.lft.to/lastmile_qr_scan", "android": "https://dc.lft.to/lastmile_qr_scan"}, "bike_id": "655d9b8327bf5e6c0781dd1f182758e5", "fusion_lat": 0.0}, {"lon": -77.00141066666667, "name": "8fc3ac6be17a451dc338eb7824dd8b6f", "is_disabled": 0, "type": "electric_scooter", "is_reserved": 0, "fusion_lon": 0.0, "lat": 38.87367183333333, "rental_uris": {"ios": "https://dc.lft.to/lastmile_qr_scan", "android": "https://dc.lft.to/lastmile_qr_scan"}, "bike_id": "8fc3ac6be17a451dc338eb7824dd8b6f", "fusion_lat": 0.0}, {"lon": -76.996995, "name": "ef712cf4bc5c7cc47ebe4cd0645d3ee0", "is_disabled": 0, "type": "electric_bike", "is_reserved": 0, "fusion_lon": 0.0, "lat": 38.838634166666665, "rental_uris": {"ios": "https://dc.lft.to/lastmile_qr_scan", "android": "https://dc.lft.to/lastmile_qr_scan"}, "bike_id": "ef712cf4bc5c7cc47ebe4cd0645d3ee0", "fusion_lat": 0.0}, {"lon": -76.95129466666667, "name": "b0a53dc61790e2f1d73631f2b2c909d6", "is_disabled": 0, "type": "electric_bike", "is_reserved": 0, "fusion_lon": 0.0, "lat": 38.951851833333336, "rental_uris": {"ios": "https://dc.lft.to/lastmile_qr_scan", "android": "https://dc.lft.to/lastmile_qr_scan"}, "bike_id": "b0a53dc61790e2f1d73631f2b2c909d6", "fusion_lat": 0.0}, {"lon": -77.02243383333334, "name": "0db86e6d3690a92dcafc79d3edc2de53", "is_disabled": 0, "type": "electric_scooter", "is_reserved": 0, "fusion_lon": 0.0, "lat": 38.924302833333336, "rental_uris": {"ios": "https://dc.lft.to/lastmile_qr_scan", "android": "https://dc.lft.to/lastmile_qr_scan"}, "bike_id": "0db86e6d3690a92dcafc79d3edc2de53", "fusion_lat": 0.0}, {"lon": -77.024048, "name": "2f57338551da84f1ea43fe2c45740cc6", "is_disabled": 0, "type": "electric_scooter", "is_reserved": 0, "fusion_lon": 0.0, "lat": 38.917560333333334, "rental_uris": {"ios": "https://dc.lft.to/lastmile_qr_scan", "android": "https://dc.lft.to/lastmile_qr_scan"}, "bike_id": "2f57338551da84f1ea43fe2c45740cc6", "fusion_lat": 0.0}, {"lon": -77.02934116666667, "name": "7db86190b9d70197e984a8a19ee56075", "is_disabled": 0, "type": "electric_scooter", "is_reserved": 0, "fusion_lon": 0.0, "lat": 38.89838, "rental_uris": {"ios": "https://dc.lft.to/lastmile_qr_scan", "android": "https://dc.lft.to/lastmile_qr_scan"}, "bike_id": "7db86190b9d70197e984a8a19ee56075", "fusion_lat": 0.0}, {"lon": -77.0239925, "name": "16470049bc73404ba6d48f8a94829d15", "is_disabled": 0, "type": "electric_scooter", "is_reserved": 0, "fusion_lon": 0.0, "lat": 38.91599083333333, "rental_uris": {"ios": "https://dc.lft.to/lastmile_qr_scan", "android": "https://dc.lft.to/lastmile_qr_scan"}, "bike_id": "16470049bc73404ba6d48f8a94829d15", "fusion_lat": 0.0}, {"lon": -77.02002333333333, "name": "db5784c6f9d37ffd650ba0b80784a22b", "is_disabled": 0, "type": "electric_scooter", "is_reserved": 0, "fusion_lon": 0.0, "lat": 38.9110155, "rental_uris": {"ios": "https://dc.lft.to/lastmile_qr_scan", "android": "https://dc.lft.to/lastmile_qr_scan"}, "bike_id": "db5784c6f9d37ffd650ba0b80784a22b", "fusion_lat": 0.0}, {"lon": -77.0137915, "name": "3a1abd8949e164945718c14f0bbe2d0d", "is_disabled": 0, "type": "electric_scooter", "is_reserved": 0, "fusion_lon": 0.0, "lat": 38.9103495, "rental_uris": {"ios": "https://dc.lft.to/lastmile_qr_scan", "android": "https://dc.lft.to/lastmile_qr_scan"}, "bike_id": "3a1abd8949e164945718c14f0bbe2d0d", "fusion_lat": 0.0}, {"lon": -77.04581616666667, "name": "e94365bfb3fa381298321257a2dc7301", "is_disabled": 0, "type": "electric_scooter", "is_reserved": 0, "fusion_lon": 0.0, "lat": 38.900158, "rental_uris": {"ios": "https://dc.lft.to/lastmile_qr_scan", "android": "https://dc.lft.to/lastmile_qr_scan"}, "bike_id": "e94365bfb3fa381298321257a2dc7301", "fusion_lat": 0.0}, {"lon": -76.99006, "name": "463ee4fc20df9cc4670e74a341a4b748", "is_disabled": 0, "type": "electric_scooter", "is_reserved": 0, "fusion_lon": 0.0, "lat": 38.90395616666667, "rental_uris": {"ios": "https://dc.lft.to/lastmile_qr_scan", "android": "https://dc.lft.to/lastmile_qr_scan"}, "bike_id": "463ee4fc20df9cc4670e74a341a4b748", "fusion_lat": 0.0}, {"lon": -77.04716483333333, "name": "15464e3909d439481b7fbe5ac476a92d", "is_disabled": 0, "type": "electric_scooter", "is_reserved": 0, "fusion_lon": 0.0, "lat": 38.89967983333333, "rental_uris": {"ios": "https://dc.lft.to/lastmile_qr_scan", "android": "https://dc.lft.to/lastmile_qr_scan"}, "bike_id": "15464e3909d439481b7fbe5ac476a92d", "fusion_lat": 0.0}, {"lon": -77.04731283333334, "name": "0ad24cc4ddeda522c37e852140fe1d7f", "is_disabled": 0, "type": "electric_scooter", "is_reserved": 0, "fusion_lon": 0.0, "lat": 38.91337, "rental_uris": {"ios": "https://dc.lft.to/lastmile_qr_scan", "android": "https://dc.lft.to/lastmile_qr_scan"}, "bike_id": "0ad24cc4ddeda522c37e852140fe1d7f", "fusion_lat": 0.0}, {"lon": -77.027974, "name": "32ee4ed6c0484a0bf454447ced57611f", "is_disabled": 0, "type": "electric_scooter", "is_reserved": 0, "fusion_lon": 0.0, "lat": 38.930828, "rental_uris": {"ios": "https://dc.lft.to/lastmile_qr_scan", "android": "https://dc.lft.to/lastmile_qr_scan"}, "bike_id": "32ee4ed6c0484a0bf454447ced57611f", "fusion_lat": 0.0}, {"lon": -77.003748, "name": "a5210b6881f1635430e5e544999ef191", "is_disabled": 0, "type": "electric_scooter", "is_reserved": 0, "fusion_lon": 0.0, "lat": 38.8342905, "rental_uris": {"ios": "https://dc.lft.to/lastmile_qr_scan", "android": "https://dc.lft.to/lastmile_qr_scan"}, "bike_id": "a5210b6881f1635430e5e544999ef191", "fusion_lat": 0.0}, {"lon": -77.032906, "name": "ae26be1ad0bb3429830f015eb9fa2ee6", "is_disabled": 0, "type": "electric_scooter", "is_reserved": 0, "fusion_lon": 0.0, "lat": 38.92049033333333, "rental_uris": {"ios": "https://dc.lft.to/lastmile_qr_scan", "android": "https://dc.lft.to/lastmile_qr_scan"}, "bike_id": "ae26be1ad0bb3429830f015eb9fa2ee6", "fusion_lat": 0.0}, {"lon": -77.0038035, "name": "434d2986dea7b7fcb27c2a0b31fd8194", "is_disabled": 0, "type": "electric_bike", "is_reserved": 0, "fusion_lon": 0.0, "lat": 38.83603466666667, "rental_uris": {"ios": "https://dc.lft.to/lastmile_qr_scan", "android": "https://dc.lft.to/lastmile_qr_scan"}, "bike_id": "434d2986dea7b7fcb27c2a0b31fd8194", "fusion_lat": 0.0}, {"lon": -77.027479, "name": "21bc2539453bf2edc16bc8564451e5f0", "is_disabled": 0, "type": "electric_scooter", "is_reserved": 0, "fusion_lon": 0.0, "lat": 38.966468666666664, "rental_uris": {"ios": "https://dc.lft.to/lastmile_qr_scan", "android": "https://dc.lft.to/lastmile_qr_scan"}, "bike_id": "21bc2539453bf2edc16bc8564451e5f0", "fusion_lat": 0.0}, {"lon": -77.032109, "name": "d5ef34196e8ad822e06fb0e686a01513", "is_disabled": 0, "type": "electric_scooter", "is_reserved": 0, "fusion_lon": 0.0, "lat": 38.917305999999996, "rental_uris": {"ios": "https://dc.lft.to/lastmile_qr_scan", "android": "https://dc.lft.to/lastmile_qr_scan"}, "bike_id": "d5ef34196e8ad822e06fb0e686a01513", "fusion_lat": 0.0}, {"lon": -77.0269155, "name": "c124910464cd3de7932ac7acb61794c3", "is_disabled": 0, "type": "electric_scooter", "is_reserved": 0, "fusion_lon": 0.0, "lat": 38.92557433333333, "rental_uris": {"ios": "https://dc.lft.to/lastmile_qr_scan", "android": "https://dc.lft.to/lastmile_qr_scan"}, "bike_id": "c124910464cd3de7932ac7acb61794c3", "fusion_lat": 0.0}, {"lon": -77.0376205, "name": "6ad2a1a0d6c2e53e0717c420d84ce4cc", "is_disabled": 0, "type": "electric_scooter", "is_reserved": 0, "fusion_lon": 0.0, "lat": 38.908877, "rental_uris": {"ios": "https://dc.lft.to/lastmile_qr_scan", "android": "https://dc.lft.to/lastmile_qr_scan"}, "bike_id": "6ad2a1a0d6c2e53e0717c420d84ce4cc", "fusion_lat": 0.0}, {"lon": -77.0600395, "name": "4e0a223707878a019d236201bb61302e", "is_disabled": 0, "type": "electric_scooter", "is_reserved": 0, "fusion_lon": 0.0, "lat": 38.927138, "rental_uris": {"ios": "https://dc.lft.to/lastmile_qr_scan", "android": "https://dc.lft.to/lastmile_qr_scan"}, "bike_id": "4e0a223707878a019d236201bb61302e", "fusion_lat": 0.0}, {"lon": -77.03281683333333, "name": "3a7d1dbdd88ee6db686754dad65ab681", "is_disabled": 0, "type": "electric_scooter", "is_reserved": 0, "fusion_lon": 0.0, "lat": 38.9282415, "rental_uris": {"ios": "https://dc.lft.to/lastmile_qr_scan", "android": "https://dc.lft.to/lastmile_qr_scan"}, "bike_id": "3a7d1dbdd88ee6db686754dad65ab681", "fusion_lat": 0.0}, {"lon": -77.020996, "name": "369aac1ab05446800b44565ae83abee9", "is_disabled": 0, "type": "electric_scooter", "is_reserved": 0, "fusion_lon": 0.0, "lat": 38.931141833333335, "rental_uris": {"ios": "https://dc.lft.to/lastmile_qr_scan", "android": "https://dc.lft.to/lastmile_qr_scan"}, "bike_id": "369aac1ab05446800b44565ae83abee9", "fusion_lat": 0.0}, {"lon": -77.049786, "name": "37145e1f575ebf695c960a0ace837908", "is_disabled": 0, "type": "electric_scooter", "is_reserved": 0, "fusion_lon": 0.0, "lat": 38.89785466666667, "rental_uris": {"ios": "https://dc.lft.to/lastmile_qr_scan", "android": "https://dc.lft.to/lastmile_qr_scan"}, "bike_id": "37145e1f575ebf695c960a0ace837908", "fusion_lat": 0.0}, {"lon": -77.03779533333334, "name": "b4920aa2c8bbfbef30e6104e0fceea84", "is_disabled": 0, "type": "electric_scooter", "is_reserved": 0, "fusion_lon": 0.0, "lat": 38.92786533333334, "rental_uris": {"ios": "https://dc.lft.to/lastmile_qr_scan", "android": "https://dc.lft.to/lastmile_qr_scan"}, "bike_id": "b4920aa2c8bbfbef30e6104e0fceea84", "fusion_lat": 0.0}, {"lon": -77.01105, "name": "4928da47033e62690dae2eee4ce58f61", "is_disabled": 0, "type": "electric_scooter", "is_reserved": 0, "fusion_lon": 0.0, "lat": 38.895165666666664, "rental_uris": {"ios": "https://dc.lft.to/lastmile_qr_scan", "android": "https://dc.lft.to/lastmile_qr_scan"}, "bike_id": "4928da47033e62690dae2eee4ce58f61", "fusion_lat": 0.0}, {"lon": -77.01853033333333, "name": "bc6d1202d0129613f39e253892c58b9e", "is_disabled": 0, "type": "electric_scooter", "is_reserved": 0, "fusion_lon": 0.0, "lat": 38.97364733333333, "rental_uris": {"ios": "https://dc.lft.to/lastmile_qr_scan", "android": "https://dc.lft.to/lastmile_qr_scan"}, "bike_id": "bc6d1202d0129613f39e253892c58b9e", "fusion_lat": 0.0}, {"lon": -77.02601916666667, "name": "564f82d8bf3185663e5cc55da9535279", "is_disabled": 0, "type": "electric_scooter", "is_reserved": 0, "fusion_lon": 0.0, "lat": 38.918821666666666, "rental_uris": {"ios": "https://dc.lft.to/lastmile_qr_scan", "android": "https://dc.lft.to/lastmile_qr_scan"}, "bike_id": "564f82d8bf3185663e5cc55da9535279", "fusion_lat": 0.0}, {"lon": -77.02065883333333, "name": "696a5c6a6be70197ba50e619474a4ed3", "is_disabled": 0, "type": "electric_scooter", "is_reserved": 0, "fusion_lon": 0.0, "lat": 38.9199155, "rental_uris": {"ios": "https://dc.lft.to/lastmile_qr_scan", "android": "https://dc.lft.to/lastmile_qr_scan"}, "bike_id": "696a5c6a6be70197ba50e619474a4ed3", "fusion_lat": 0.0}, {"lon": -77.0057655, "name": "d777554548c035112a4a367d443717e2", "is_disabled": 0, "type": "electric_scooter", "is_reserved": 0, "fusion_lon": 0.0, "lat": 38.87216466666667, "rental_uris": {"ios": "https://dc.lft.to/lastmile_qr_scan", "android": "https://dc.lft.to/lastmile_qr_scan"}, "bike_id": "d777554548c035112a4a367d443717e2", "fusion_lat": 0.0}, {"lon": -77.08500083333334, "name": "8bd1676cddb83f895d5f85844074c1bc", "is_disabled": 0, "type": "electric_scooter", "is_reserved": 0, "fusion_lon": 0.0, "lat": 38.937356, "rental_uris": {"ios": "https://dc.lft.to/lastmile_qr_scan", "android": "https://dc.lft.to/lastmile_qr_scan"}, "bike_id": "8bd1676cddb83f895d5f85844074c1bc", "fusion_lat": 0.0}, {"lon": -77.00302283333333, "name": "c50632550a497cdc59906301a257179f", "is_disabled": 0, "type": "electric_scooter", "is_reserved": 0, "fusion_lon": 0.0, "lat": 38.87664766666666, "rental_uris": {"ios": "https://dc.lft.to/lastmile_qr_scan", "android": "https://dc.lft.to/lastmile_qr_scan"}, "bike_id": "c50632550a497cdc59906301a257179f", "fusion_lat": 0.0}, {"lon": -77.00872983333333, "name": "8b995316ead87edb5a84d55a802fe665", "is_disabled": 0, "type": "electric_scooter", "is_reserved": 0, "fusion_lon": 0.0, "lat": 38.899725333333336, "rental_uris": {"ios": "https://dc.lft.to/lastmile_qr_scan", "android": "https://dc.lft.to/lastmile_qr_scan"}, "bike_id": "8b995316ead87edb5a84d55a802fe665", "fusion_lat": 0.0}, {"lon": -77.03044316666667, "name": "9a872d5289299461f01b58980c9ba60c", "is_disabled": 0, "type": "electric_scooter", "is_reserved": 0, "fusion_lon": 0.0, "lat": 38.90256566666667, "rental_uris": {"ios": "https://dc.lft.to/lastmile_qr_scan", "android": "https://dc.lft.to/lastmile_qr_scan"}, "bike_id": "9a872d5289299461f01b58980c9ba60c", "fusion_lat": 0.0}, {"lon": -77.04996366666667, "name": "50b4c03399d0c7fdeb4afd74800fed80", "is_disabled": 0, "type": "electric_scooter", "is_reserved": 0, "fusion_lon": 0.0, "lat": 38.89229983333333, "rental_uris": {"ios": "https://dc.lft.to/lastmile_qr_scan", "android": "https://dc.lft.to/lastmile_qr_scan"}, "bike_id": "50b4c03399d0c7fdeb4afd74800fed80", "fusion_lat": 0.0}, {"lon": -77.02156683333334, "name": "553c9dd9b26742ee294fa8dd5777c075", "is_disabled": 0, "type": "electric_scooter", "is_reserved": 0, "fusion_lon": 0.0, "lat": 38.925962166666665, "rental_uris": {"ios": "https://dc.lft.to/lastmile_qr_scan", "android": "https://dc.lft.to/lastmile_qr_scan"}, "bike_id": "553c9dd9b26742ee294fa8dd5777c075", "fusion_lat": 0.0}, {"lon": -77.01230316666667, "name": "f1e20a01930febcc059ad82c9645ac66", "is_disabled": 0, "type": "electric_scooter", "is_reserved": 0, "fusion_lon": 0.0, "lat": 38.90007966666667, "rental_uris": {"ios": "https://dc.lft.to/lastmile_qr_scan", "android": "https://dc.lft.to/lastmile_qr_scan"}, "bike_id": "f1e20a01930febcc059ad82c9645ac66", "fusion_lat": 0.0}, {"lon": -77.03215666666667, "name": "6a87ee70d036d5b47f7fd8258f162bdd", "is_disabled": 0, "type": "electric_scooter", "is_reserved": 0, "fusion_lon": 0.0, "lat": 38.90391133333333, "rental_uris": {"ios": "https://dc.lft.to/lastmile_qr_scan", "android": "https://dc.lft.to/lastmile_qr_scan"}, "bike_id": "6a87ee70d036d5b47f7fd8258f162bdd", "fusion_lat": 0.0}, {"lon": -76.9780505, "name": "2e86d2f0c7b49461db6025fe7a2c2dd4", "is_disabled": 0, "type": "electric_scooter", "is_reserved": 0, "fusion_lon": 0.0, "lat": 38.920346, "rental_uris": {"ios": "https://dc.lft.to/lastmile_qr_scan", "android": "https://dc.lft.to/lastmile_qr_scan"}, "bike_id": "2e86d2f0c7b49461db6025fe7a2c2dd4", "fusion_lat": 0.0}, {"lon": -77.00172133333334, "name": "cd63d7cca53d0449294081655dc89143", "is_disabled": 0, "type": "electric_scooter", "is_reserved": 0, "fusion_lon": 0.0, "lat": 38.94072666666667, "rental_uris": {"ios": "https://dc.lft.to/lastmile_qr_scan", "android": "https://dc.lft.to/lastmile_qr_scan"}, "bike_id": "cd63d7cca53d0449294081655dc89143", "fusion_lat": 0.0}, {"lon": -77.03819516666667, "name": "1c5cb2376497ab4a5d85c7bf4a85908a", "is_disabled": 0, "type": "electric_scooter", "is_reserved": 0, "fusion_lon": 0.0, "lat": 38.903747, "rental_uris": {"ios": "https://dc.lft.to/lastmile_qr_scan", "android": "https://dc.lft.to/lastmile_qr_scan"}, "bike_id": "1c5cb2376497ab4a5d85c7bf4a85908a", "fusion_lat": 0.0}, {"lon": -77.03285316666667, "name": "bc9786d4f26068d85aee6e7167554ba6", "is_disabled": 0, "type": "electric_scooter", "is_reserved": 0, "fusion_lon": 0.0, "lat": 38.9373405, "rental_uris": {"ios": "https://dc.lft.to/lastmile_qr_scan", "android": "https://dc.lft.to/lastmile_qr_scan"}, "bike_id": "bc9786d4f26068d85aee6e7167554ba6", "fusion_lat": 0.0}, {"lon": -76.98421233333333, "name": "6f927257912b9a1d3903e157b7c99fa8", "is_disabled": 0, "type": "electric_bike", "is_reserved": 0, "fusion_lon": 0.0, "lat": 38.90997483333334, "rental_uris": {"ios": "https://dc.lft.to/lastmile_qr_scan", "android": "https://dc.lft.to/lastmile_qr_scan"}, "bike_id": "6f927257912b9a1d3903e157b7c99fa8", "fusion_lat": 0.0}, {"lon": -77.000577, "name": "0bf0f2e9c68522e2a970ead11c3b948d", "is_disabled": 0, "type": "electric_scooter", "is_reserved": 0, "fusion_lon": 0.0, "lat": 38.887754, "rental_uris": {"ios": "https://dc.lft.to/lastmile_qr_scan", "android": "https://dc.lft.to/lastmile_qr_scan"}, "bike_id": "0bf0f2e9c68522e2a970ead11c3b948d", "fusion_lat": 0.0}, {"lon": -77.02158216666666, "name": "298eb7df2e341bd29eb6d60f5abb25e4", "is_disabled": 0, "type": "electric_scooter", "is_reserved": 0, "fusion_lon": 0.0, "lat": 38.92610583333333, "rental_uris": {"ios": "https://dc.lft.to/lastmile_qr_scan", "android": "https://dc.lft.to/lastmile_qr_scan"}, "bike_id": "298eb7df2e341bd29eb6d60f5abb25e4", "fusion_lat": 0.0}, {"lon": -77.03191683333333, "name": "cd0f410eb432d7402a1b0a14ba72cbc6", "is_disabled": 0, "type": "electric_scooter", "is_reserved": 0, "fusion_lon": 0.0, "lat": 38.92092733333333, "rental_uris": {"ios": "https://dc.lft.to/lastmile_qr_scan", "android": "https://dc.lft.to/lastmile_qr_scan"}, "bike_id": "cd0f410eb432d7402a1b0a14ba72cbc6", "fusion_lat": 0.0}, {"lon": -77.02131266666666, "name": "608581937111cb292d3734baedcb5cee", "is_disabled": 0, "type": "electric_scooter", "is_reserved": 0, "fusion_lon": 0.0, "lat": 38.923946666666666, "rental_uris": {"ios": "https://dc.lft.to/lastmile_qr_scan", "android": "https://dc.lft.to/lastmile_qr_scan"}, "bike_id": "608581937111cb292d3734baedcb5cee", "fusion_lat": 0.0}, {"lon": -77.02199766666666, "name": "619fe8383521581a382b62f08bece1c2", "is_disabled": 0, "type": "electric_scooter", "is_reserved": 0, "fusion_lon": 0.0, "lat": 38.911242, "rental_uris": {"ios": "https://dc.lft.to/lastmile_qr_scan", "android": "https://dc.lft.to/lastmile_qr_scan"}, "bike_id": "619fe8383521581a382b62f08bece1c2", "fusion_lat": 0.0}, {"lon": -76.98187633333333, "name": "e09e07002fa3293773a302d2d61fdd3b", "is_disabled": 0, "type": "electric_bike", "is_reserved": 0, "fusion_lon": 0.0, "lat": 38.9850595, "rental_uris": {"ios": "https://dc.lft.to/lastmile_qr_scan", "android": "https://dc.lft.to/lastmile_qr_scan"}, "bike_id": "e09e07002fa3293773a302d2d61fdd3b", "fusion_lat": 0.0}, {"lon": -77.02446216666667, "name": "b7aa4a0b5f2169b31ddf64df3931ac2e", "is_disabled": 0, "type": "electric_scooter", "is_reserved": 0, "fusion_lon": 0.0, "lat": 38.92386883333333, "rental_uris": {"ios": "https://dc.lft.to/lastmile_qr_scan", "android": "https://dc.lft.to/lastmile_qr_scan"}, "bike_id": "b7aa4a0b5f2169b31ddf64df3931ac2e", "fusion_lat": 0.0}, {"lon": -77.03346083333334, "name": "c6cbe7ad4dfd9839b34e26a963011379", "is_disabled": 0, "type": "electric_scooter", "is_reserved": 0, "fusion_lon": 0.0, "lat": 38.884828, "rental_uris": {"ios": "https://dc.lft.to/lastmile_qr_scan", "android": "https://dc.lft.to/lastmile_qr_scan"}, "bike_id": "c6cbe7ad4dfd9839b34e26a963011379", "fusion_lat": 0.0}, {"lon": -77.03858766666667, "name": "478fb67af48be40beb9b607013b7526e", "is_disabled": 0, "type": "electric_scooter", "is_reserved": 0, "fusion_lon": 0.0, "lat": 38.91703233333333, "rental_uris": {"ios": "https://dc.lft.to/lastmile_qr_scan", "android": "https://dc.lft.to/lastmile_qr_scan"}, "bike_id": "478fb67af48be40beb9b607013b7526e", "fusion_lat": 0.0}, {"lon": -77.0340895, "name": "abd7e8fc0975044e85a1179c99568261", "is_disabled": 0, "type": "electric_scooter", "is_reserved": 0, "fusion_lon": 0.0, "lat": 38.92047383333333, "rental_uris": {"ios": "https://dc.lft.to/lastmile_qr_scan", "android": "https://dc.lft.to/lastmile_qr_scan"}, "bike_id": "abd7e8fc0975044e85a1179c99568261", "fusion_lat": 0.0}, {"lon": -76.92947666666667, "name": "98657716f207910fdb3679821cc26081", "is_disabled": 0, "type": "electric_scooter", "is_reserved": 0, "fusion_lon": 0.0, "lat": 38.901773, "rental_uris": {"ios": "https://dc.lft.to/lastmile_qr_scan", "android": "https://dc.lft.to/lastmile_qr_scan"}, "bike_id": "98657716f207910fdb3679821cc26081", "fusion_lat": 0.0}, {"lon": -77.01992766666666, "name": "ff6e568a15aaba35ed0e27eaf3c98526", "is_disabled": 0, "type": "electric_scooter", "is_reserved": 0, "fusion_lon": 0.0, "lat": 38.885561333333335, "rental_uris": {"ios": "https://dc.lft.to/lastmile_qr_scan", "android": "https://dc.lft.to/lastmile_qr_scan"}, "bike_id": "ff6e568a15aaba35ed0e27eaf3c98526", "fusion_lat": 0.0}, {"lon": -77.22580483333333, "name": "05e6c84f828a0c7d4d87f265ee0bbd17", "is_disabled": 0, "type": "electric_bike", "is_reserved": 0, "fusion_lon": 0.0, "lat": 38.929623166666666, "rental_uris": {"ios": "https://dc.lft.to/lastmile_qr_scan", "android": "https://dc.lft.to/lastmile_qr_scan"}, "bike_id": "05e6c84f828a0c7d4d87f265ee0bbd17", "fusion_lat": 0.0}, {"lon": -77.02150266666666, "name": "3c984c113bbdf00a20f46e91219c0148", "is_disabled": 0, "type": "electric_scooter", "is_reserved": 0, "fusion_lon": 0.0, "lat": 38.9245495, "rental_uris": {"ios": "https://dc.lft.to/lastmile_qr_scan", "android": "https://dc.lft.to/lastmile_qr_scan"}, "bike_id": "3c984c113bbdf00a20f46e91219c0148", "fusion_lat": 0.0}, {"lon": -77.01063116666667, "name": "3d3cda07f8be8a0002d7a7b97bd894e4", "is_disabled": 0, "type": "electric_scooter", "is_reserved": 0, "fusion_lon": 0.0, "lat": 38.877357333333336, "rental_uris": {"ios": "https://dc.lft.to/lastmile_qr_scan", "android": "https://dc.lft.to/lastmile_qr_scan"}, "bike_id": "3d3cda07f8be8a0002d7a7b97bd894e4", "fusion_lat": 0.0}, {"lon": -77.00972416666667, "name": "770360b3b6c168dac9cad301ef2baf10", "is_disabled": 0, "type": "electric_scooter", "is_reserved": 0, "fusion_lon": 0.0, "lat": 38.90971833333333, "rental_uris": {"ios": "https://dc.lft.to/lastmile_qr_scan", "android": "https://dc.lft.to/lastmile_qr_scan"}, "bike_id": "770360b3b6c168dac9cad301ef2baf10", "fusion_lat": 0.0}, {"lon": -77.01160616666667, "name": "dac69d0b340aa98593a1ee1fdeca5e23", "is_disabled": 0, "type": "electric_scooter", "is_reserved": 0, "fusion_lon": 0.0, "lat": 38.91706116666667, "rental_uris": {"ios": "https://dc.lft.to/lastmile_qr_scan", "android": "https://dc.lft.to/lastmile_qr_scan"}, "bike_id": "dac69d0b340aa98593a1ee1fdeca5e23", "fusion_lat": 0.0}, {"lon": -77.05305883333334, "name": "6a2139fd538cff7445efe1f82ceba067", "is_disabled": 0, "type": "electric_scooter", "is_reserved": 0, "fusion_lon": 0.0, "lat": 38.92550766666667, "rental_uris": {"ios": "https://dc.lft.to/lastmile_qr_scan", "android": "https://dc.lft.to/lastmile_qr_scan"}, "bike_id": "6a2139fd538cff7445efe1f82ceba067", "fusion_lat": 0.0}, {"lon": -76.9324, "name": "198c0b81fb7957a22a16020139dba2ab", "is_disabled": 0, "type": "electric_bike", "is_reserved": 0, "fusion_lon": 0.0, "lat": 38.88275466666666, "rental_uris": {"ios": "https://dc.lft.to/lastmile_qr_scan", "android": "https://dc.lft.to/lastmile_qr_scan"}, "bike_id": "198c0b81fb7957a22a16020139dba2ab", "fusion_lat": 0.0}, {"lon": -77.03904233333333, "name": "af5321bc6ed1252d889c43c7fd8d71c5", "is_disabled": 0, "type": "electric_scooter", "is_reserved": 0, "fusion_lon": 0.0, "lat": 38.906388666666665, "rental_uris": {"ios": "https://dc.lft.to/lastmile_qr_scan", "android": "https://dc.lft.to/lastmile_qr_scan"}, "bike_id": "af5321bc6ed1252d889c43c7fd8d71c5", "fusion_lat": 0.0}, {"lon": -77.06374383333333, "name": "d5d847e3ba05a82c76b2dae45734375c", "is_disabled": 0, "type": "electric_scooter", "is_reserved": 0, "fusion_lon": 0.0, "lat": 38.908523, "rental_uris": {"ios": "https://dc.lft.to/lastmile_qr_scan", "android": "https://dc.lft.to/lastmile_qr_scan"}, "bike_id": "d5d847e3ba05a82c76b2dae45734375c", "fusion_lat": 0.0}, {"lon": -77.04468733333333, "name": "9ee4a6fba115af726e39f9bbccc6ceb3", "is_disabled": 0, "type": "electric_scooter", "is_reserved": 0, "fusion_lon": 0.0, "lat": 38.90380016666667, "rental_uris": {"ios": "https://dc.lft.to/lastmile_qr_scan", "android": "https://dc.lft.to/lastmile_qr_scan"}, "bike_id": "9ee4a6fba115af726e39f9bbccc6ceb3", "fusion_lat": 0.0}, {"lon": -77.0417395, "name": "19878a0899581932637c2bf41ddfa643", "is_disabled": 0, "type": "electric_scooter", "is_reserved": 0, "fusion_lon": 0.0, "lat": 38.9190875, "rental_uris": {"ios": "https://dc.lft.to/lastmile_qr_scan", "android": "https://dc.lft.to/lastmile_qr_scan"}, "bike_id": "19878a0899581932637c2bf41ddfa643", "fusion_lat": 0.0}, {"lon": -77.0276405, "name": "437035f3c047fb2958c5d829d97c36c6", "is_disabled": 0, "type": "electric_scooter", "is_reserved": 0, "fusion_lon": 0.0, "lat": 38.9542165, "rental_uris": {"ios": "https://dc.lft.to/lastmile_qr_scan", "android": "https://dc.lft.to/lastmile_qr_scan"}, "bike_id": "437035f3c047fb2958c5d829d97c36c6", "fusion_lat": 0.0}, {"lon": -77.0283705, "name": "950870f7e3c00d42fca7f924721af1cf", "is_disabled": 0, "type": "electric_scooter", "is_reserved": 0, "fusion_lon": 0.0, "lat": 38.9323645, "rental_uris": {"ios": "https://dc.lft.to/lastmile_qr_scan", "android": "https://dc.lft.to/lastmile_qr_scan"}, "bike_id": "950870f7e3c00d42fca7f924721af1cf", "fusion_lat": 0.0}, {"lon": -76.95699216666667, "name": "77abab43b6ae7b1ca57d77559d1bc8e1", "is_disabled": 0, "type": "electric_bike", "is_reserved": 0, "fusion_lon": 0.0, "lat": 38.88872033333333, "rental_uris": {"ios": "https://dc.lft.to/lastmile_qr_scan", "android": "https://dc.lft.to/lastmile_qr_scan"}, "bike_id": "77abab43b6ae7b1ca57d77559d1bc8e1", "fusion_lat": 0.0}, {"lon": -77.0241545, "name": "bc286a4dc29cc04c0f9624d2ce275ce0", "is_disabled": 0, "type": "electric_scooter", "is_reserved": 0, "fusion_lon": 0.0, "lat": 38.895263166666666, "rental_uris": {"ios": "https://dc.lft.to/lastmile_qr_scan", "android": "https://dc.lft.to/lastmile_qr_scan"}, "bike_id": "bc286a4dc29cc04c0f9624d2ce275ce0", "fusion_lat": 0.0}, {"lon": -77.01441216666667, "name": "430ce9b2b76c7dea9a96c6f43b8fcded", "is_disabled": 0, "type": "electric_scooter", "is_reserved": 0, "fusion_lon": 0.0, "lat": 38.909614166666664, "rental_uris": {"ios": "https://dc.lft.to/lastmile_qr_scan", "android": "https://dc.lft.to/lastmile_qr_scan"}, "bike_id": "430ce9b2b76c7dea9a96c6f43b8fcded", "fusion_lat": 0.0}, {"lon": -77.039389, "name": "7dca87b7b95bc7c7a1beb1b1c8d3ed9b", "is_disabled": 0, "type": "electric_scooter", "is_reserved": 0, "fusion_lon": 0.0, "lat": 38.9012695, "rental_uris": {"ios": "https://dc.lft.to/lastmile_qr_scan", "android": "https://dc.lft.to/lastmile_qr_scan"}, "bike_id": "7dca87b7b95bc7c7a1beb1b1c8d3ed9b", "fusion_lat": 0.0}, {"lon": -77.03190833333333, "name": "a7876d292f060f099ec450094fabdcc3", "is_disabled": 0, "type": "electric_scooter", "is_reserved": 0, "fusion_lon": 0.0, "lat": 38.92241216666667, "rental_uris": {"ios": "https://dc.lft.to/lastmile_qr_scan", "android": "https://dc.lft.to/lastmile_qr_scan"}, "bike_id": "a7876d292f060f099ec450094fabdcc3", "fusion_lat": 0.0}, {"lon": -77.02464783333333, "name": "4cbfef95ad6dcbc6fdd44dc965f49a97", "is_disabled": 0, "type": "electric_scooter", "is_reserved": 0, "fusion_lon": 0.0, "lat": 38.93919783333333, "rental_uris": {"ios": "https://dc.lft.to/lastmile_qr_scan", "android": "https://dc.lft.to/lastmile_qr_scan"}, "bike_id": "4cbfef95ad6dcbc6fdd44dc965f49a97", "fusion_lat": 0.0}, {"lon": -76.996556, "name": "de80343d73b9d48beec1467c6f354bc0", "is_disabled": 0, "type": "electric_bike", "is_reserved": 0, "fusion_lon": 0.0, "lat": 38.9677295, "rental_uris": {"ios": "https://dc.lft.to/lastmile_qr_scan", "android": "https://dc.lft.to/lastmile_qr_scan"}, "bike_id": "de80343d73b9d48beec1467c6f354bc0", "fusion_lat": 0.0}, {"lon": -76.99513766666666, "name": "200c8f4a0d28d6348ef73b400b2aa3ac", "is_disabled": 0, "type": "electric_scooter", "is_reserved": 0, "fusion_lon": 0.0, "lat": 38.890765, "rental_uris": {"ios": "https://dc.lft.to/lastmile_qr_scan", "android": "https://dc.lft.to/lastmile_qr_scan"}, "bike_id": "200c8f4a0d28d6348ef73b400b2aa3ac", "fusion_lat": 0.0}, {"lon": -77.01504216666666, "name": "2520df9ee75945b3f81588dcc0042ea9", "is_disabled": 0, "type": "electric_scooter", "is_reserved": 0, "fusion_lon": 0.0, "lat": 38.896838, "rental_uris": {"ios": "https://dc.lft.to/lastmile_qr_scan", "android": "https://dc.lft.to/lastmile_qr_scan"}, "bike_id": "2520df9ee75945b3f81588dcc0042ea9", "fusion_lat": 0.0}, {"lon": -77.03845833333334, "name": "5f9f8ecbb8e44b439b638bd260e698fa", "is_disabled": 0, "type": "electric_scooter", "is_reserved": 0, "fusion_lon": 0.0, "lat": 38.904035, "rental_uris": {"ios": "https://dc.lft.to/lastmile_qr_scan", "android": "https://dc.lft.to/lastmile_qr_scan"}, "bike_id": "5f9f8ecbb8e44b439b638bd260e698fa", "fusion_lat": 0.0}, {"lon": -77.04299033333334, "name": "31bbf2c701b68aba004395b4e243f488", "is_disabled": 0, "type": "electric_scooter", "is_reserved": 0, "fusion_lon": 0.0, "lat": 38.90000216666667, "rental_uris": {"ios": "https://dc.lft.to/lastmile_qr_scan", "android": "https://dc.lft.to/lastmile_qr_scan"}, "bike_id": "31bbf2c701b68aba004395b4e243f488", "fusion_lat": 0.0}, {"lon": -76.97681833333333, "name": "73c5fafb1f53a883e0cd02b566236787", "is_disabled": 0, "type": "electric_scooter", "is_reserved": 0, "fusion_lon": 0.0, "lat": 38.89192883333333, "rental_uris": {"ios": "https://dc.lft.to/lastmile_qr_scan", "android": "https://dc.lft.to/lastmile_qr_scan"}, "bike_id": "73c5fafb1f53a883e0cd02b566236787", "fusion_lat": 0.0}, {"lon": -77.029946, "name": "f5d56307b00f4f97af6ad6cdd61117a0", "is_disabled": 0, "type": "electric_scooter", "is_reserved": 0, "fusion_lon": 0.0, "lat": 38.895746833333334, "rental_uris": {"ios": "https://dc.lft.to/lastmile_qr_scan", "android": "https://dc.lft.to/lastmile_qr_scan"}, "bike_id": "f5d56307b00f4f97af6ad6cdd61117a0", "fusion_lat": 0.0}, {"lon": -77.05132916666666, "name": "932a990e645fcd9a2e7af0c0dca4c1ac", "is_disabled": 0, "type": "electric_scooter", "is_reserved": 0, "fusion_lon": 0.0, "lat": 38.901662333333334, "rental_uris": {"ios": "https://dc.lft.to/lastmile_qr_scan", "android": "https://dc.lft.to/lastmile_qr_scan"}, "bike_id": "932a990e645fcd9a2e7af0c0dca4c1ac", "fusion_lat": 0.0}, {"lon": -77.01915033333333, "name": "c5c6744f64dbfe81db488ec5cf1981ed", "is_disabled": 0, "type": "electric_scooter", "is_reserved": 0, "fusion_lon": 0.0, "lat": 38.897271833333335, "rental_uris": {"ios": "https://dc.lft.to/lastmile_qr_scan", "android": "https://dc.lft.to/lastmile_qr_scan"}, "bike_id": "c5c6744f64dbfe81db488ec5cf1981ed", "fusion_lat": 0.0}, {"lon": -76.93768583333333, "name": "d0abc69862b2ba5453b5e8c75a7f2c92", "is_disabled": 0, "type": "electric_scooter", "is_reserved": 0, "fusion_lon": 0.0, "lat": 38.899686, "rental_uris": {"ios": "https://dc.lft.to/lastmile_qr_scan", "android": "https://dc.lft.to/lastmile_qr_scan"}, "bike_id": "d0abc69862b2ba5453b5e8c75a7f2c92", "fusion_lat": 0.0}, {"lon": -76.98270049999999, "name": "e3071ecfd50c01d8157eac0672225461", "is_disabled": 0, "type": "electric_scooter", "is_reserved": 0, "fusion_lon": 0.0, "lat": 38.8852305, "rental_uris": {"ios": "https://dc.lft.to/lastmile_qr_scan", "android": "https://dc.lft.to/lastmile_qr_scan"}, "bike_id": "e3071ecfd50c01d8157eac0672225461", "fusion_lat": 0.0}, {"lon": -77.0330755, "name": "2396bc233ea1be9880b48cc21049889e", "is_disabled": 0, "type": "electric_scooter", "is_reserved": 0, "fusion_lon": 0.0, "lat": 38.92644933333333, "rental_uris": {"ios": "https://dc.lft.to/lastmile_qr_scan", "android": "https://dc.lft.to/lastmile_qr_scan"}, "bike_id": "2396bc233ea1be9880b48cc21049889e", "fusion_lat": 0.0}, {"lon": -76.95772083333334, "name": "d9b1bfeb6d5fd1ef87649998598e6ace", "is_disabled": 0, "type": "electric_scooter", "is_reserved": 0, "fusion_lon": 0.0, "lat": 38.88357883333333, "rental_uris": {"ios": "https://dc.lft.to/lastmile_qr_scan", "android": "https://dc.lft.to/lastmile_qr_scan"}, "bike_id": "d9b1bfeb6d5fd1ef87649998598e6ace", "fusion_lat": 0.0}, {"lon": -77.034589, "name": "75d9dbee0e0ad516522f6af41c669ca1", "is_disabled": 0, "type": "electric_scooter", "is_reserved": 0, "fusion_lon": 0.0, "lat": 38.90311633333334, "rental_uris": {"ios": "https://dc.lft.to/lastmile_qr_scan", "android": "https://dc.lft.to/lastmile_qr_scan"}, "bike_id": "75d9dbee0e0ad516522f6af41c669ca1", "fusion_lat": 0.0}, {"lon": -77.02133, "name": "586d27e573979b3cccef477a409a03c6", "is_disabled": 0, "type": "electric_scooter", "is_reserved": 0, "fusion_lon": 0.0, "lat": 38.924167833333335, "rental_uris": {"ios": "https://dc.lft.to/lastmile_qr_scan", "android": "https://dc.lft.to/lastmile_qr_scan"}, "bike_id": "586d27e573979b3cccef477a409a03c6", "fusion_lat": 0.0}, {"lon": -77.02769033333334, "name": "520078e5a456f05ccb47a084b2fb5a06", "is_disabled": 0, "type": "electric_scooter", "is_reserved": 0, "fusion_lon": 0.0, "lat": 38.95296316666666, "rental_uris": {"ios": "https://dc.lft.to/lastmile_qr_scan", "android": "https://dc.lft.to/lastmile_qr_scan"}, "bike_id": "520078e5a456f05ccb47a084b2fb5a06", "fusion_lat": 0.0}, {"lon": -77.03704466666667, "name": "ae4a40218fd20d34cd26ad8eec232256", "is_disabled": 0, "type": "electric_scooter", "is_reserved": 0, "fusion_lon": 0.0, "lat": 38.926190166666665, "rental_uris": {"ios": "https://dc.lft.to/lastmile_qr_scan", "android": "https://dc.lft.to/lastmile_qr_scan"}, "bike_id": "ae4a40218fd20d34cd26ad8eec232256", "fusion_lat": 0.0}, {"lon": -77.03235233333334, "name": "eb3a590d9e46f3215fba61f3be1dde5b", "is_disabled": 0, "type": "electric_scooter", "is_reserved": 0, "fusion_lon": 0.0, "lat": 38.901183833333334, "rental_uris": {"ios": "https://dc.lft.to/lastmile_qr_scan", "android": "https://dc.lft.to/lastmile_qr_scan"}, "bike_id": "eb3a590d9e46f3215fba61f3be1dde5b", "fusion_lat": 0.0}, {"lon": -77.03723766666667, "name": "7b145dc8f3cab525f3f46e70af9289fe", "is_disabled": 0, "type": "electric_scooter", "is_reserved": 0, "fusion_lon": 0.0, "lat": 38.90373966666667, "rental_uris": {"ios": "https://dc.lft.to/lastmile_qr_scan", "android": "https://dc.lft.to/lastmile_qr_scan"}, "bike_id": "7b145dc8f3cab525f3f46e70af9289fe", "fusion_lat": 0.0}, {"lon": -76.987914, "name": "8b4b77ecafcc8440ba3fe913134fe7e5", "is_disabled": 0, "type": "electric_scooter", "is_reserved": 0, "fusion_lon": 0.0, "lat": 38.8784365, "rental_uris": {"ios": "https://dc.lft.to/lastmile_qr_scan", "android": "https://dc.lft.to/lastmile_qr_scan"}, "bike_id": "8b4b77ecafcc8440ba3fe913134fe7e5", "fusion_lat": 0.0}, {"lon": -77.04500533333334, "name": "09bcf0aea41686a5a79c9938d36a03b7", "is_disabled": 0, "type": "electric_scooter", "is_reserved": 0, "fusion_lon": 0.0, "lat": 38.911113666666665, "rental_uris": {"ios": "https://dc.lft.to/lastmile_qr_scan", "android": "https://dc.lft.to/lastmile_qr_scan"}, "bike_id": "09bcf0aea41686a5a79c9938d36a03b7", "fusion_lat": 0.0}, {"lon": -77.005849, "name": "f90e261e9028be78841eb75a45c8f46a", "is_disabled": 0, "type": "electric_scooter", "is_reserved": 0, "fusion_lon": 0.0, "lat": 38.8755375, "rental_uris": {"ios": "https://dc.lft.to/lastmile_qr_scan", "android": "https://dc.lft.to/lastmile_qr_scan"}, "bike_id": "f90e261e9028be78841eb75a45c8f46a", "fusion_lat": 0.0}, {"lon": -76.97354383333334, "name": "ea3bf2fc29f80cf5759111af34d654aa", "is_disabled": 0, "type": "electric_bike", "is_reserved": 0, "fusion_lon": 0.0, "lat": 38.86549333333333, "rental_uris": {"ios": "https://dc.lft.to/lastmile_qr_scan", "android": "https://dc.lft.to/lastmile_qr_scan"}, "bike_id": "ea3bf2fc29f80cf5759111af34d654aa", "fusion_lat": 0.0},