{"data": {"bikes": [{"type": "electric_scooter", "is_reserved": 0, "name": "ec3ac5945ad31f373d7cfde9e604b353", "is_disabled": 0, "lat": 38.906785, "fusion_lon": 0.0, "fusion_lat": 0.0, "lon": -77.03825966666666, "bike_id": "ec3ac5945ad31f373d7cfde9e604b353", "rental_uris": {"ios": "https://dc.lft.to/lastmile_qr_scan", "android": "https://dc.lft.to/lastmile_qr_scan"}}, {"type": "electric_scooter", "is_reserved": 0, "name": "1a40b24319ee6409297dfeed478674c8", "is_disabled": 0, "lat": 38.917592, "fusion_lon": 0.0, "fusion_lat": 0.0, "lon": -77.03839566666667, "bike_id": "1a40b24319ee6409297dfeed478674c8", "rental_uris": {"ios": "https://dc.lft.to/lastmile_qr_scan", "android": "https://dc.lft.to/lastmile_qr_scan"}}, {"type": "electric_scooter", "is_reserved": 0, "name": "2bbde42373d1e3fc68eec7a9bf0808a5", "is_disabled": 0, "lat": 38.893926, "fusion_lon": 0.0, "fusion_lat": 0.0, "lon": -76.949948, "bike_id": "2bbde42373d1e3fc68eec7a9bf0808a5", "rental_uris": {"ios": "https://dc.lft.to/lastmile_qr_scan", "android": "https://dc.lft.to/lastmile_qr_scan"}}, {"type": "electric_scooter", "is_reserved": 0, "name": "ea9432e1bb7cf3947829e6fccd91ae95", "is_disabled": 0, "lat": 38.9062535, "fusion_lon": 0.0, "fusion_lat": 0.0, "lon": -77.021854, "bike_id": "ea9432e1bb7cf3947829e6fccd91ae95", "rental_uris": {"ios": "https://dc.lft.to/lastmile_qr_scan", "android": "https://dc.lft.to/lastmile_qr_scan"}}, {"type": "electric_scooter", "is_reserved": 0, "name": "3183c594aa0cd2a36f0441dbb01a6bcb", "is_disabled": 0, "lat": 38.92361966666667, "fusion_lon": 0.0, "fusion_lat": 0.0, "lon": -77.051274, "bike_id": "3183c594aa0cd2a36f0441dbb01a6bcb", "rental_uris": {"ios": "https://dc.lft.to/lastmile_qr_scan", "android": "https://dc.lft.to/lastmile_qr_scan"}}, {"type": "electric_scooter", "is_reserved": 0, "name": "fbc094db45aa8e7bdcd4b3312950661b", "is_disabled": 0, "lat": 38.918079666666664, "fusion_lon": 0.0, "fusion_lat": 0.0, "lon": -77.04030516666667, "bike_id": "fbc094db45aa8e7bdcd4b3312950661b", "rental_uris": {"ios": "https://dc.lft.to/lastmile_qr_scan", "android": "https://dc.lft.to/lastmile_qr_scan"}}, {"type": "electric_scooter", "is_reserved": 0, "name": "d9fce07a67a72881b99705159fb54857", "is_disabled": 0, "lat": 38.911114166666664, "fusion_lon": 0.0, "fusion_lat": 0.0, "lon": -77.03146183333334, "bike_id": "d9fce07a67a72881b99705159fb54857", "rental_uris": {"ios": "https://dc.lft.to/lastmile_qr_scan", "android": "https://dc.lft.to/lastmile_qr_scan"}}, {"type": "electric_scooter", "is_reserved": 0, "name": "a7d78c213c73af9cfbee4b14d67a98d0", "is_disabled": 0, "lat": 38.92202233333333, "fusion_lon": 0.0, "fusion_lat": 0.0, "lon": -77.04251966666666, "bike_id": "a7d78c213c73af9cfbee4b14d67a98d0", "rental_uris": {"ios": "https://dc.lft.to/lastmile_qr_scan", "android": "https://dc.lft.to/lastmile_qr_scan"}}, {"type": "electric_scooter", "is_reserved": 0, "name": "6f21ba6df85bd0472c3210963f5991a5", "is_disabled": 0, "lat": 38.9112045, "fusion_lon": 0.0, "fusion_lat": 0.0, "lon": -77.03145833333333, "bike_id": "6f21ba6df85bd0472c3210963f5991a5", "rental_uris": {"ios": "https://dc.lft.to/lastmile_qr_scan", "android": "https://dc.lft.to/lastmile_qr_scan"}}, {"type": "electric_scooter", "is_reserved": 0, "name": "06ca3fb263fa7a186fc9fe42f3c28a65", "is_disabled": 0, "lat": 38.94413266666667, "fusion_lon": 0.0, "fusion_lat": 0.0, "lon": -77.05520566666667, "bike_id": "06ca3fb263fa7a186fc9fe42f3c28a65", "rental_uris": {"ios": "https://dc.lft.to/lastmile_qr_scan", "android": "https://dc.lft.to/lastmile_qr_scan"}}, {"type": "electric_scooter", "is_reserved": 0, "name": "b4fabc746d6a2c401767819c88a7801a", "is_disabled": 0, "lat": 38.907314, "fusion_lon": 0.0, "fusion_lat": 0.0, "lon": -76.9968285, "bike_id": "b4fabc746d6a2c401767819c88a7801a", "rental_uris": {"ios": "https://dc.lft.to/lastmile_qr_scan", "android": "https://dc.lft.to/lastmile_qr_scan"}}, {"type": "electric_scooter", "is_reserved": 0, "name": "48c223942134c8247198165b32202853", "is_disabled": 0, "lat": 38.9156745, "fusion_lon": 0.0, "fusion_lat": 0.0, "lon": -77.0200435, "bike_id": "48c223942134c8247198165b32202853", "rental_uris": {"ios": "https://dc.lft.to/lastmile_qr_scan", "android": "https://dc.lft.to/lastmile_qr_scan"}}, {"type": "electric_scooter", "is_reserved": 0, "name": "b8c3741fbc5170ecfeb9e7320f48fa83", "is_disabled": 0, "lat": 38.90789866666667, "fusion_lon": 0.0, "fusion_lat": 0.0, "lon": -77.044796, "bike_id": "b8c3741fbc5170ecfeb9e7320f48fa83", "rental_uris": {"ios": "https://dc.lft.to/lastmile_qr_scan", "android": "https://dc.lft.to/lastmile_qr_scan"}}, {"type": "electric_scooter", "is_reserved": 0, "name": "e19a7475f19a17c191a2791f3a20d638", "is_disabled": 0, "lat": 38.9229235, "fusion_lon": 0.0, "fusion_lat": 0.0, "lon": -77.02958566666666, "bike_id": "e19a7475f19a17c191a2791f3a20d638", "rental_uris": {"ios": "https://dc.lft.to/lastmile_qr_scan", "android": "https://dc.lft.to/lastmile_qr_scan"}}, {"type": "electric_scooter", "is_reserved": 0, "name": "61dc34bc6205b9ee79c5d9a3de6d0e5b", "is_disabled": 0, "lat": 38.90548416666667, "fusion_lon": 0.0, "fusion_lat": 0.0, "lon": -77.0485555, "bike_id": "61dc34bc6205b9ee79c5d9a3de6d0e5b", "rental_uris": {"ios": "https://dc.lft.to/lastmile_qr_scan", "android": "https://dc.lft.to/lastmile_qr_scan"}}, {"type": "electric_scooter", "is_reserved": 0, "name": "241af204976819adf6497dc0aec2c2a4", "is_disabled": 0, "lat": 38.887413, "fusion_lon": 0.0, "fusion_lat": 0.0, "lon": -77.0153585, "bike_id": "241af204976819adf6497dc0aec2c2a4", "rental_uris": {"ios": "https://dc.lft.to/lastmile_qr_scan", "android": "https://dc.lft.to/lastmile_qr_scan"}}, {"type": "electric_scooter", "is_reserved": 0, "name": "fffed6749fffe98b206f2fcbe1ca824b", "is_disabled": 0, "lat": 38.927411666666664, "fusion_lon": 0.0, "fusion_lat": 0.0, "lon": -77.03409733333334, "bike_id": "fffed6749fffe98b206f2fcbe1ca824b", "rental_uris": {"ios": "https://dc.lft.to/lastmile_qr_scan", "android": "https://dc.lft.to/lastmile_qr_scan"}}, {"type": "electric_scooter", "is_reserved": 0, "name": "e453275e539392b6b26d18b868ea67ac", "is_disabled": 0, "lat": 38.9548765, "fusion_lon": 0.0, "fusion_lat": 0.0, "lon": -77.0655685, "bike_id": "e453275e539392b6b26d18b868ea67ac", "rental_uris": {"ios": "https://dc.lft.to/lastmile_qr_scan", "android": "https://dc.lft.to/lastmile_qr_scan"}}, {"type": "electric_scooter", "is_reserved": 0, "name": "15d5a8a62cf14507c1701ce52a3bc6a1", "is_disabled": 0, "lat": 38.95154683333333, "fusion_lon": 0.0, "fusion_lat": 0.0, "lon": -77.01865933333333, "bike_id": "15d5a8a62cf14507c1701ce52a3bc6a1", "rental_uris": {"ios": "https://dc.lft.to/lastmile_qr_scan", "android": "https://dc.lft.to/lastmile_qr_scan"}}, {"type": "electric_scooter", "is_reserved": 0, "name": "6d755327a825061523734a2fdeac32ab", "is_disabled": 0, "lat": 38.911106833333335, "fusion_lon": 0.0, "fusion_lat": 0.0, "lon": -77.04478033333334, "bike_id": "6d755327a825061523734a2fdeac32ab", "rental_uris": {"ios": "https://dc.lft.to/lastmile_qr_scan", "android": "https://dc.lft.to/lastmile_qr_scan"}}, {"type": "electric_scooter", "is_reserved": 0, "name": "ee9bfd500ea48bbd2d0137a71c16315a", "is_disabled": 0, "lat": 38.903732166666664, "fusion_lon": 0.0, "fusion_lat": 0.0, "lon": -77.04512383333334, "bike_id": "ee9bfd500ea48bbd2d0137a71c16315a", "rental_uris": {"ios": "https://dc.lft.to/lastmile_qr_scan", "android": "https://dc.lft.to/lastmile_qr_scan"}}, {"type": "electric_scooter", "is_reserved": 0, "name": "c8242efa41b45002f41f0c7fd7ce6014", "is_disabled": 0, "lat": 38.9307715, "fusion_lon": 0.0, "fusion_lat": 0.0, "lon": -77.03743916666667, "bike_id": "c8242efa41b45002f41f0c7fd7ce6014", "rental_uris": {"ios": "https://dc.lft.to/lastmile_qr_scan", "android": "https://dc.lft.to/lastmile_qr_scan"}}, {"type": "electric_scooter", "is_reserved": 0, "name": "60c09fe4cf6570aad1e84f04543a20fb", "is_disabled": 0, "lat": 38.91868933333333, "fusion_lon": 0.0, "fusion_lat": 0.0, "lon": -77.03180483333334, "bike_id": "60c09fe4cf6570aad1e84f04543a20fb", "rental_uris": {"ios": "https://dc.lft.to/lastmile_qr_scan", "android": "https://dc.lft.to/lastmile_qr_scan"}}, {"type": "electric_scooter", "is_reserved": 0, "name": "6839b5e01886422d3c7bd7ac118cacbc", "is_disabled": 0, "lat": 38.89622933333333, "fusion_lon": 0.0, "fusion_lat": 0.0, "lon": -77.031627, "bike_id": "6839b5e01886422d3c7bd7ac118cacbc", "rental_uris": {"ios": "https://dc.lft.to/lastmile_qr_scan", "android": "https://dc.lft.to/lastmile_qr_scan"}}, {"type": "electric_scooter", "is_reserved": 0, "name": "da4852c3eb9020caeb8d858506c7f04c", "is_disabled": 0, "lat": 38.9032025, "fusion_lon": 0.0, "fusion_lat": 0.0, "lon": -77.01172033333333, "bike_id": "da4852c3eb9020caeb8d858506c7f04c", "rental_uris": {"ios": "https://dc.lft.to/lastmile_qr_scan", "android": "https://dc.lft.to/lastmile_qr_scan"}}, {"type": "electric_scooter", "is_reserved": 0, "name": "a9bd207b174b87b84e789a1e6ef84e49", "is_disabled": 0, "lat": 38.906362333333334, "fusion_lon": 0.0, "fusion_lat": 0.0, "lon": -77.0059605, "bike_id": "a9bd207b174b87b84e789a1e6ef84e49", "rental_uris": {"ios": "https://dc.lft.to/lastmile_qr_scan", "android": "https://dc.lft.to/lastmile_qr_scan"}}, {"type": "electric_scooter", "is_reserved": 0, "name": "e56195854fff288eaaafbfc7a9ea7b98", "is_disabled": 0, "lat": 38.93156666666667, "fusion_lon": 0.0, "fusion_lat": 0.0, "lon": -77.03824716666666, "bike_id": "e56195854fff288eaaafbfc7a9ea7b98", "rental_uris": {"ios": "https://dc.lft.to/lastmile_qr_scan", "android": "https://dc.lft.to/lastmile_qr_scan"}}, {"type": "electric_scooter", "is_reserved": 0, "name": "8cd93882391a653b05255d48524bfad5", "is_disabled": 0, "lat": 38.92201283333333, "fusion_lon": 0.0, "fusion_lat": 0.0, "lon": -77.04252366666667, "bike_id": "8cd93882391a653b05255d48524bfad5", "rental_uris": {"ios": "https://dc.lft.to/lastmile_qr_scan", "android": "https://dc.lft.to/lastmile_qr_scan"}}, {"type": "electric_scooter", "is_reserved": 0, "name": "7c4c2389d5c3d84d1d94298fc302a4e5", "is_disabled": 0, "lat": 38.91562966666667, "fusion_lon": 0.0, "fusion_lat": 0.0, "lon": -77.03149966666666, "bike_id": "7c4c2389d5c3d84d1d94298fc302a4e5", "rental_uris": {"ios": "https://dc.lft.to/lastmile_qr_scan", "android": "https://dc.lft.to/lastmile_qr_scan"}}, {"type": "electric_scooter", "is_reserved": 0, "name": "4b9875cbeeab4ca53e36184a4e6a6f73", "is_disabled": 0, "lat": 38.861039833333336, "fusion_lon": 0.0, "fusion_lat": 0.0, "lon": -76.98884433333333, "bike_id": "4b9875cbeeab4ca53e36184a4e6a6f73", "rental_uris": {"ios": "https://dc.lft.to/lastmile_qr_scan", "android": "https://dc.lft.to/lastmile_qr_scan"}}, {"type": "electric_scooter", "is_reserved": 0, "name": "2a3e50f1a5bf9171d5c3219036467636", "is_disabled": 0, "lat": 38.9260615, "fusion_lon": 0.0, "fusion_lat": 0.0, "lon": -77.02155016666667, "bike_id": "2a3e50f1a5bf9171d5c3219036467636", "rental_uris": {"ios": "https://dc.lft.to/lastmile_qr_scan", "android": "https://dc.lft.to/lastmile_qr_scan"}}, {"type": "electric_scooter", "is_reserved": 0, "name": "d8dac715619d09b2358f569a2ee9aa25", "is_disabled": 0, "lat": 38.89352866666667, "fusion_lon": 0.0, "fusion_lat": 0.0, "lon": -77.022092, "bike_id": "d8dac715619d09b2358f569a2ee9aa25", "rental_uris": {"ios": "https://dc.lft.to/lastmile_qr_scan", "android": "https://dc.lft.to/lastmile_qr_scan"}}, {"type": "electric_scooter", "is_reserved": 0, "name": "00664aae2b68d3ee8ff1711676667793", "is_disabled": 0, "lat": 38.903717, "fusion_lon": 0.0, "fusion_lat": 0.0, "lon": -76.992274, "bike_id": "00664aae2b68d3ee8ff1711676667793", "rental_uris": {"ios": "https://dc.lft.to/lastmile_qr_scan", "android": "https://dc.lft.to/lastmile_qr_scan"}}, {"type": "electric_scooter", "is_reserved": 0, "name": "ed84412a476fd433648b5e541a0e62dc", "is_disabled": 0, "lat": 38.935390166666664, "fusion_lon": 0.0, "fusion_lat": 0.0, "lon": -77.03265716666667, "bike_id": "ed84412a476fd433648b5e541a0e62dc", "rental_uris": {"ios": "https://dc.lft.to/lastmile_qr_scan", "android": "https://dc.lft.to/lastmile_qr_scan"}}, {"type": "electric_bike", "is_reserved": 0, "name": "c74130f55982051cf55ddaa13a838053", "is_disabled": 0, "lat": 38.892247166666664, "fusion_lon": 0.0, "fusion_lat": 0.0, "lon": -77.03217516666666, "bike_id": "c74130f55982051cf55ddaa13a838053", "rental_uris": {"ios": "https://dc.lft.to/lastmile_qr_scan", "android": "https://dc.lft.to/lastmile_qr_scan"}}, {"type": "electric_scooter", "is_reserved": 0, "name": "ca22315ba3807b6c9610aabc7a81580b", "is_disabled": 0, "lat": 38.89547016666667, "fusion_lon": 0.0, "fusion_lat": 0.0, "lon": -77.00910483333334, "bike_id": "ca22315ba3807b6c9610aabc7a81580b", "rental_uris": {"ios": "https://dc.lft.to/lastmile_qr_scan", "android": "https://dc.lft.to/lastmile_qr_scan"}}, {"type": "electric_scooter", "is_reserved": 0, "name": "7f8501b32d479f1793ce3790a63cd0d6", "is_disabled": 0, "lat": 38.935261833333335, "fusion_lon": 0.0, "fusion_lat": 0.0, "lon": -77.07298283333333, "bike_id": "7f8501b32d479f1793ce3790a63cd0d6", "rental_uris": {"ios": "https://dc.lft.to/lastmile_qr_scan", "android": "https://dc.lft.to/lastmile_qr_scan"}}, {"type": "electric_scooter", "is_reserved": 0, "name": "f453237602e0ac093da3c278f8f29603", "is_disabled": 0, "lat": 38.897457, "fusion_lon": 0.0, "fusion_lat": 0.0, "lon": -77.02382483333334, "bike_id": "f453237602e0ac093da3c278f8f29603", "rental_uris": {"ios": "https://dc.lft.to/lastmile_qr_scan", "android": "https://dc.lft.to/lastmile_qr_scan"}}, {"type": "electric_scooter", "is_reserved": 0, "name": "65adb424e836aa0a44bd4c7fdbaecb66", "is_disabled": 0, "lat": 38.91845033333333, "fusion_lon": 0.0, "fusion_lat": 0.0, "lon": -77.02194916666667, "bike_id": "65adb424e836aa0a44bd4c7fdbaecb66", "rental_uris": {"ios": "https://dc.lft.to/lastmile_qr_scan", "android": "https://dc.lft.to/lastmile_qr_scan"}}, {"type": "electric_scooter", "is_reserved": 0, "name": "6a1da9e54d15cf74730f2d31e20a3eac", "is_disabled": 0, "lat": 38.92420666666666, "fusion_lon": 0.0, "fusion_lat": 0.0, "lon": -77.04449216666667, "bike_id": "6a1da9e54d15cf74730f2d31e20a3eac", "rental_uris": {"ios": "https://dc.lft.to/lastmile_qr_scan", "android": "https://dc.lft.to/lastmile_qr_scan"}}, {"type": "electric_scooter", "is_reserved": 0, "name": "237448840c1ad70af3de4443eea79340", "is_disabled": 0, "lat": 38.901385, "fusion_lon": 0.0, "fusion_lat": 0.0, "lon": -77.0434155, "bike_id": "237448840c1ad70af3de4443eea79340", "rental_uris": {"ios": "https://dc.lft.to/lastmile_qr_scan", "android": "https://dc.lft.to/lastmile_qr_scan"}}, {"type": "electric_scooter", "is_reserved": 0, "name": "c0047e2b2fc7521a6d3bb625149e03b5", "is_disabled": 0, "lat": 38.918087666666665, "fusion_lon": 0.0, "fusion_lat": 0.0, "lon": -77.04166916666667, "bike_id": "c0047e2b2fc7521a6d3bb625149e03b5", "rental_uris": {"ios": "https://dc.lft.to/lastmile_qr_scan", "android": "https://dc.lft.to/lastmile_qr_scan"}}, {"type": "electric_scooter", "is_reserved": 0, "name": "b6e7f6681090cf741d7d79fe6d8c8d9f", "is_disabled": 0, "lat": 38.934903166666665, "fusion_lon": 0.0, "fusion_lat": 0.0, "lon": -77.0727475, "bike_id": "b6e7f6681090cf741d7d79fe6d8c8d9f", "rental_uris": {"ios": "https://dc.lft.to/lastmile_qr_scan", "android": "https://dc.lft.to/lastmile_qr_scan"}}, {"type": "electric_scooter", "is_reserved": 0, "name": "e71f3897477e63c7e4400eca91a4a800", "is_disabled": 0, "lat": 38.902721166666666, "fusion_lon": 0.0, "fusion_lat": 0.0, "lon": -77.02945033333333, "bike_id": "e71f3897477e63c7e4400eca91a4a800", "rental_uris": {"ios": "https://dc.lft.to/lastmile_qr_scan", "android": "https://dc.lft.to/lastmile_qr_scan"}}, {"type": "electric_bike", "is_reserved": 0, "name": "b042e693bfa03fb9bf8495cfbd7c718e", "is_disabled": 0, "lat": 38.9369155, "fusion_lon": 0.0, "fusion_lat": 0.0, "lon": -77.05645916666667, "bike_id": "b042e693bfa03fb9bf8495cfbd7c718e", "rental_uris": {"ios": "https://dc.lft.to/lastmile_qr_scan", "android": "https://dc.lft.to/lastmile_qr_scan"}}, {"type": "electric_scooter", "is_reserved": 0, "name": "7b03cc63ab63a78741c7b3a425e8acb0", "is_disabled": 0, "lat": 38.929337333333336, "fusion_lon": 0.0, "fusion_lat": 0.0, "lon": -77.03749816666667, "bike_id": "7b03cc63ab63a78741c7b3a425e8acb0", "rental_uris": {"ios": "https://dc.lft.to/lastmile_qr_scan", "android": "https://dc.lft.to/lastmile_qr_scan"}}, {"type": "electric_scooter", "is_reserved": 0, "name": "073f201de654101539422a150761e7e9", "is_disabled": 0, "lat": 38.90637566666667, "fusion_lon": 0.0, "fusion_lat": 0.0, "lon": -77.00592483333334, "bike_id": "073f201de654101539422a150761e7e9", "rental_uris": {"ios": "https://dc.lft.to/lastmile_qr_scan", "android": "https://dc.lft.to/lastmile_qr_scan"}}, {"type": "electric_bike", "is_reserved": 0, "name": "c4e80e8c95e2b3478a6068e6708a2e44", "is_disabled": 0, "lat": 38.842717666666665, "fusion_lon": 0.0, "fusion_lat": 0.0, "lon": -76.98840166666666, "bike_id": "c4e80e8c95e2b3478a6068e6708a2e44", "rental_uris": {"ios": "https://dc.lft.to/lastmile_qr_scan", "android": "https://dc.lft.to/lastmile_qr_scan"}}, {"type": "electric_scooter", "is_reserved": 0, "name": "664bb58da9deb02c72f9560302534995", "is_disabled": 0, "lat": 38.8921355, "fusion_lon": 0.0, "fusion_lat": 0.0, "lon": -76.99568733333334, "bike_id": "664bb58da9deb02c72f9560302534995", "rental_uris": {"ios": "https://dc.lft.to/lastmile_qr_scan", "android": "https://dc.lft.to/lastmile_qr_scan"}}, {"type": "electric_bike", "is_reserved": 0, "name": "8110ff7808e5bee6af1ae34b5749abca", "is_disabled": 0, "lat": 38.83740133333333, "fusion_lon": 0.0, "fusion_lat": 0.0, "lon": -76.99769566666667, "bike_id": "8110ff7808e5bee6af1ae34b5749abca", "rental_uris": {"ios": "https://dc.lft.to/lastmile_qr_scan", "android": "https://dc.lft.to/lastmile_qr_scan"}}, {"type": "electric_scooter", "is_reserved": 0, "name": "39b0089d9977b89c5ec40d3ff2403d36", "is_disabled": 0, "lat": 38.85678033333333, "fusion_lon": 0.0, "fusion_lat": 0.0, "lon": -76.98173816666667, "bike_id": "39b0089d9977b89c5ec40d3ff2403d36", "rental_uris": {"ios": "https://dc.lft.to/lastmile_qr_scan", "android": "https://dc.lft.to/lastmile_qr_scan"}}, {"type": "electric_scooter", "is_reserved": 0, "name": "3720d360ab0df1ec152c7ed23a232ea3", "is_disabled": 0, "lat": 38.903719, "fusion_lon": 0.0, "fusion_lat": 0.0, "lon": -77.05045833333334, "bike_id": "3720d360ab0df1ec152c7ed23a232ea3", "rental_uris": {"ios": "https://dc.lft.to/lastmile_qr_scan", "android": "https://dc.lft.to/lastmile_qr_scan"}}, {"type": "electric_scooter", "is_reserved": 0, "name": "74e4ca5aacb0781f96276cb02ed72cb2", "is_disabled": 0, "lat": 38.91738183333333, "fusion_lon": 0.0, "fusion_lat": 0.0, "lon": -77.0366035, "bike_id": "74e4ca5aacb0781f96276cb02ed72cb2", "rental_uris": {"ios": "https://dc.lft.to/lastmile_qr_scan", "android": "https://dc.lft.to/lastmile_qr_scan"}}, {"type": "electric_scooter", "is_reserved": 0, "name": "db38ec3652ee5d2702d99b7a0e009656", "is_disabled": 0, "lat": 38.92404166666667, "fusion_lon": 0.0, "fusion_lat": 0.0, "lon": -77.0269135, "bike_id": "db38ec3652ee5d2702d99b7a0e009656", "rental_uris": {"ios": "https://dc.lft.to/lastmile_qr_scan", "android": "https://dc.lft.to/lastmile_qr_scan"}}, {"type": "electric_scooter", "is_reserved": 0, "name": "d41c327e46e67d76110f62d63b6b3198", "is_disabled": 0, "lat": 38.865119, "fusion_lon": 0.0, "fusion_lat": 0.0, "lon": -76.9900675, "bike_id": "d41c327e46e67d76110f62d63b6b3198", "rental_uris": {"ios": "https://dc.lft.to/lastmile_qr_scan", "android": "https://dc.lft.to/lastmile_qr_scan"}}, {"type": "electric_scooter", "is_reserved": 0, "name": "088cea2854d125468130921f02b5320e", "is_disabled": 0, "lat": 38.89998283333333, "fusion_lon": 0.0, "fusion_lat": 0.0, "lon": -77.0266615, "bike_id": "088cea2854d125468130921f02b5320e", "rental_uris": {"ios": "https://dc.lft.to/lastmile_qr_scan", "android": "https://dc.lft.to/lastmile_qr_scan"}}, {"type": "electric_scooter", "is_reserved": 0, "name": "b9a543a514e7043f6eeb90debb5c5ce9", "is_disabled": 0, "lat": 38.90071833333333, "fusion_lon": 0.0, "fusion_lat": 0.0, "lon": -77.00208416666666, "bike_id": "b9a543a514e7043f6eeb90debb5c5ce9", "rental_uris": {"ios": "https://dc.lft.to/lastmile_qr_scan", "android": "https://dc.lft.to/lastmile_qr_scan"}}, {"type": "electric_bike", "is_reserved": 0, "name": "4c56f6c88e416bd9c36451b8a407f7a7", "is_disabled": 0, "lat": 38.85397916666667, "fusion_lon": 0.0, "fusion_lat": 0.0, "lon": -77.12483783333333, "bike_id": "4c56f6c88e416bd9c36451b8a407f7a7", "rental_uris": {"ios": "https://dc.lft.to/lastmile_qr_scan", "android": "https://dc.lft.to/lastmile_qr_scan"}}, {"type": "electric_scooter", "is_reserved": 0, "name": "a1047dbb2d6bc1ace3d3436804345364", "is_disabled": 0, "lat": 38.894874333333334, "fusion_lon": 0.0, "fusion_lat": 0.0, "lon": -77.026762, "bike_id": "a1047dbb2d6bc1ace3d3436804345364", "rental_uris": {"ios": "https://dc.lft.to/lastmile_qr_scan", "android": "https://dc.lft.to/lastmile_qr_scan"}}, {"type": "electric_scooter", "is_reserved": 0, "name": "dc18120190969793c5ac95ed970cf952", "is_disabled": 0, "lat": 38.899884166666666, "fusion_lon": 0.0, "fusion_lat": 0.0, "lon": -77.0525805, "bike_id": "dc18120190969793c5ac95ed970cf952", "rental_uris": {"ios": "https://dc.lft.to/lastmile_qr_scan", "android": "https://dc.lft.to/lastmile_qr_scan"}}, {"type": "electric_scooter", "is_reserved": 0, "name": "a9bc3cc2b194c02ca9e01a2fd2e601c3", "is_disabled": 0, "lat": 38.8958765, "fusion_lon": 0.0, "fusion_lat": 0.0, "lon": -76.98183983333334, "bike_id": "a9bc3cc2b194c02ca9e01a2fd2e601c3", "rental_uris": {"ios": "https://dc.lft.to/lastmile_qr_scan", "android": "https://dc.lft.to/lastmile_qr_scan"}}, {"type": "electric_scooter", "is_reserved": 0, "name": "b0d41b1334dff95b7863348274df8a87", "is_disabled": 0, "lat": 38.89524216666667, "fusion_lon": 0.0, "fusion_lat": 0.0, "lon": -77.0242505, "bike_id": "b0d41b1334dff95b7863348274df8a87", "rental_uris": {"ios": "https://dc.lft.to/lastmile_qr_scan", "android": "https://dc.lft.to/lastmile_qr_scan"}}, {"type": "electric_scooter", "is_reserved": 0, "name": "f015ffd366a0b4a829cd6e2b06bdaa5d", "is_disabled": 0, "lat": 38.8838175, "fusion_lon": 0.0, "fusion_lat": 0.0, "lon": -76.99519966666666, "bike_id": "f015ffd366a0b4a829cd6e2b06bdaa5d", "rental_uris": {"ios": "https://dc.lft.to/lastmile_qr_scan", "android": "https://dc.lft.to/lastmile_qr_scan"}}, {"type": "electric_scooter", "is_reserved": 0, "name": "ab0d60d269110e6c569acdddd0ebc71c", "is_disabled": 0, "lat": 38.9154865, "fusion_lon": 0.0, "fusion_lat": 0.0, "lon": -77.038552, "bike_id": "ab0d60d269110e6c569acdddd0ebc71c", "rental_uris": {"ios": "https://dc.lft.to/lastmile_qr_scan", "android": "https://dc.lft.to/lastmile_qr_scan"}}, {"type": "electric_scooter", "is_reserved": 0, "name": "57552118933a919bb98764420081debf", "is_disabled": 0, "lat": 38.92542783333333, "fusion_lon": 0.0, "fusion_lat": 0.0, "lon": -77.041191, "bike_id": "57552118933a919bb98764420081debf", "rental_uris": {"ios": "https://dc.lft.to/lastmile_qr_scan", "android": "https://dc.lft.to/lastmile_qr_scan"}}, {"type": "electric_scooter", "is_reserved": 0, "name": "55baa4594769ed60c5cd83ce958ce7cc", "is_disabled": 0, "lat": 38.92613883333333, "fusion_lon": 0.0, "fusion_lat": 0.0, "lon": -77.02159133333333, "bike_id": "55baa4594769ed60c5cd83ce958ce7cc", "rental_uris": {"ios": "https://dc.lft.to/lastmile_qr_scan", "android": "https://dc.lft.to/lastmile_qr_scan"}}, {"type": "electric_scooter", "is_reserved": 0, "name": "6bf8bb599575ac5349fa3f386b4d35a3", "is_disabled": 0, "lat": 38.892246166666666, "fusion_lon": 0.0, "fusion_lat": 0.0, "lon": -77.0486445, "bike_id": "6bf8bb599575ac5349fa3f386b4d35a3", "rental_uris": {"ios": "https://dc.lft.to/lastmile_qr_scan", "android": "https://dc.lft.to/lastmile_qr_scan"}}, {"type": "electric_scooter", "is_reserved": 0, "name": "4b8d1dd3e74377a0a164ac7e744772b4", "is_disabled": 0, "lat": 38.89976133333333, "fusion_lon": 0.0, "fusion_lat": 0.0, "lon": -77.00721216666666, "bike_id": "4b8d1dd3e74377a0a164ac7e744772b4", "rental_uris": {"ios": "https://dc.lft.to/lastmile_qr_scan", "android": "https://dc.lft.to/lastmile_qr_scan"}}, {"type": "electric_scooter", "is_reserved": 0, "name": "775e23430803dbe816d237a646fdd266", "is_disabled": 0, "lat": 38.91920566666667, "fusion_lon": 0.0, "fusion_lat": 0.0, "lon": -77.0704495, "bike_id": "775e23430803dbe816d237a646fdd266", "rental_uris": {"ios": "https://dc.lft.to/lastmile_qr_scan", "android": "https://dc.lft.to/lastmile_qr_scan"}}, {"type": "electric_scooter", "is_reserved": 0, "name": "66c338ac657176264ab474dc4ac1f0cf", "is_disabled": 0, "lat": 38.92243166666667, "fusion_lon": 0.0, "fusion_lat": 0.0, "lon": -77.04574566666666, "bike_id": "66c338ac657176264ab474dc4ac1f0cf", "rental_uris": {"ios": "https://dc.lft.to/lastmile_qr_scan", "android": "https://dc.lft.to/lastmile_qr_scan"}}, {"type": "electric_scooter", "is_reserved": 0, "name": "f76ca356d5f6338e4cf5908e738a67ad", "is_disabled": 0, "lat": 38.872913833333335, "fusion_lon": 0.0, "fusion_lat": 0.0, "lon": -76.97729333333334, "bike_id": "f76ca356d5f6338e4cf5908e738a67ad", "rental_uris": {"ios": "https://dc.lft.to/lastmile_qr_scan", "android": "https://dc.lft.to/lastmile_qr_scan"}}, {"type": "electric_scooter", "is_reserved": 0, "name": "7ff0eee2af52b52c3219b1a59455549a", "is_disabled": 0, "lat": 38.90543433333333, "fusion_lon": 0.0, "fusion_lat": 0.0, "lon": -77.04177966666667, "bike_id": "7ff0eee2af52b52c3219b1a59455549a", "rental_uris": {"ios": "https://dc.lft.to/lastmile_qr_scan", "android": "https://dc.lft.to/lastmile_qr_scan"}}, {"type": "electric_scooter", "is_reserved": 0, "name": "de78644df88273112c9276f3873fb315", "is_disabled": 0, "lat": 38.908894333333336, "fusion_lon": 0.0, "fusion_lat": 0.0, "lon": -76.99632233333334, "bike_id": "de78644df88273112c9276f3873fb315", "rental_uris": {"ios": "https://dc.lft.to/lastmile_qr_scan", "android": "https://dc.lft.to/lastmile_qr_scan"}}, {"type": "electric_scooter", "is_reserved": 0, "name": "a8dac9d8ba9b393ce24f89e14e5ad003", "is_disabled": 0, "lat": 38.92259383333333, "fusion_lon": 0.0, "fusion_lat": 0.0, "lon": -77.01950266666667, "bike_id": "a8dac9d8ba9b393ce24f89e14e5ad003", "rental_uris": {"ios": "https://dc.lft.to/lastmile_qr_scan", "android": "https://dc.lft.to/lastmile_qr_scan"}}, {"type": "electric_scooter", "is_reserved": 0, "name": "047091d214e73783a68db5d181e65053", "is_disabled": 0, "lat": 38.916061666666664, "fusion_lon": 0.0, "fusion_lat": 0.0, "lon": -77.02303116666667, "bike_id": "047091d214e73783a68db5d181e65053", "rental_uris": {"ios": "https://dc.lft.to/lastmile_qr_scan", "android": "https://dc.lft.to/lastmile_qr_scan"}}, {"type": "electric_scooter", "is_reserved": 0, "name": "73fec53fbb8073f5143172c845c371a8", "is_disabled": 0, "lat": 38.9081655, "fusion_lon": 0.0, "fusion_lat": 0.0, "lon": -77.03854783333334, "bike_id": "73fec53fbb8073f5143172c845c371a8", "rental_uris": {"ios": "https://dc.lft.to/lastmile_qr_scan", "android": "https://dc.lft.to/lastmile_qr_scan"}}, {"type": "electric_bike", "is_reserved": 0, "name": "ca6d90b75248617c7cbdd2bf6cd3c830", "is_disabled": 0, "lat": 38.8706885, "fusion_lon": 0.0, "fusion_lat": 0.0, "lon": -77.00832616666666, "bike_id": "ca6d90b75248617c7cbdd2bf6cd3c830", "rental_uris": {"ios": "https://dc.lft.to/lastmile_qr_scan", "android": "https://dc.lft.to/lastmile_qr_scan"}}, {"type": "electric_scooter", "is_reserved": 0, "name": "d49ca492d025907cf75e397238116a78", "is_disabled": 0, "lat": 38.9081995, "fusion_lon": 0.0, "fusion_lat": 0.0, "lon": -77.01841016666667, "bike_id": "d49ca492d025907cf75e397238116a78", "rental_uris": {"ios": "https://dc.lft.to/lastmile_qr_scan", "android": "https://dc.lft.to/lastmile_qr_scan"}}, {"type": "electric_scooter", "is_reserved": 0, "name": "dfe16f96c11b50b766f54c2df48df403", "is_disabled": 0, "lat": 38.900174666666665, "fusion_lon": 0.0, "fusion_lat": 0.0, "lon": -77.01188733333333, "bike_id": "dfe16f96c11b50b766f54c2df48df403", "rental_uris": {"ios": "https://dc.lft.to/lastmile_qr_scan", "android": "https://dc.lft.to/lastmile_qr_scan"}}, {"type": "electric_scooter", "is_reserved": 0, "name": "0e45a2d45fba626d0940ebe3673bc206", "is_disabled": 0, "lat": 38.90003, "fusion_lon": 0.0, "fusion_lat": 0.0, "lon": -77.046458, "bike_id": "0e45a2d45fba626d0940ebe3673bc206", "rental_uris": {"ios": "https://dc.lft.to/lastmile_qr_scan", "android": "https://dc.lft.to/lastmile_qr_scan"}}, {"type": "electric_scooter", "is_reserved": 0, "name": "60ff30433064345bbbfad824a241de7a", "is_disabled": 0, "lat": 38.89998216666667, "fusion_lon": 0.0, "fusion_lat": 0.0, "lon": -76.998511, "bike_id": "60ff30433064345bbbfad824a241de7a", "rental_uris": {"ios": "https://dc.lft.to/lastmile_qr_scan", "android": "https://dc.lft.to/lastmile_qr_scan"}}, {"type": "electric_scooter", "is_reserved": 0, "name": "7a1e67654e7e410541f77f6a69a117e9", "is_disabled": 0, "lat": 38.905284333333334, "fusion_lon": 0.0, "fusion_lat": 0.0, "lon": -77.057648, "bike_id": "7a1e67654e7e410541f77f6a69a117e9", "rental_uris": {"ios": "https://dc.lft.to/lastmile_qr_scan", "android": "https://dc.lft.to/lastmile_qr_scan"}}, {"type": "electric_scooter", "is_reserved": 0, "name": "862030374f20c554e223a834483d2c06", "is_disabled": 0, "lat": 38.9057865, "fusion_lon": 0.0, "fusion_lat": 0.0, "lon": -77.04189566666666, "bike_id": "862030374f20c554e223a834483d2c06", "rental_uris": {"ios": "https://dc.lft.to/lastmile_qr_scan", "android": "https://dc.lft.to/lastmile_qr_scan"}}, {"type": "electric_bike", "is_reserved": 0, "name": "d59cc64de01a574c4fb1fe24ba17f019", "is_disabled": 0, "lat": 39.052019333333334, "fusion_lon": 0.0, "fusion_lat": 0.0, "lon": -77.10914683333333, "bike_id": "d59cc64de01a574c4fb1fe24ba17f019", "rental_uris": {"ios": "https://dc.lft.to/lastmile_qr_scan", "android": "https://dc.lft.to/lastmile_qr_scan"}}, {"type": "electric_scooter", "is_reserved": 0, "name": "11888109ba66eb6d1d1410820037b88c", "is_disabled": 0, "lat": 38.9236895, "fusion_lon": 0.0, "fusion_lat": 0.0, "lon": -77.05051883333333, "bike_id": "11888109ba66eb6d1d1410820037b88c", "rental_uris": {"ios": "https://dc.lft.to/lastmile_qr_scan", "android": "https://dc.lft.to/lastmile_qr_scan"}}, {"type": "electric_scooter", "is_reserved": 0, "name": "e1123076e2ecc12ba7cabcf78cb517e6", "is_disabled": 0, "lat": 38.86657733333333, "fusion_lon": 0.0, "fusion_lat": 0.0, "lon": -76.98882266666666, "bike_id": "e1123076e2ecc12ba7cabcf78cb517e6", "rental_uris": {"ios": "https://dc.lft.to/lastmile_qr_scan", "android": "https://dc.lft.to/lastmile_qr_scan"}}, {"type": "electric_scooter", "is_reserved": 0, "name": "2ad76b6f7f4c171b871d36c8fd6899a1", "is_disabled": 0, "lat": 38.923214333333334, "fusion_lon": 0.0, "fusion_lat": 0.0, "lon": -77.026914, "bike_id": "2ad76b6f7f4c171b871d36c8fd6899a1", "rental_uris": {"ios": "https://dc.lft.to/lastmile_qr_scan", "android": "https://dc.lft.to/lastmile_qr_scan"}}, {"type": "electric_scooter", "is_reserved": 0, "name": "ec8dbebf92b9e1bc347641d5577461dd", "is_disabled": 0, "lat": 38.9083425, "fusion_lon": 0.0, "fusion_lat": 0.0, "lon": -77.0343905, "bike_id": "ec8dbebf92b9e1bc347641d5577461dd", "rental_uris": {"ios": "https://dc.lft.to/lastmile_qr_scan", "android": "https://dc.lft.to/lastmile_qr_scan"}}, {"type": "electric_scooter", "is_reserved": 0, "name": "71b358394ea8236b0cfb91fe1eb6fe80", "is_disabled": 0, "lat": 38.90557833333333, "fusion_lon": 0.0, "fusion_lat": 0.0, "lon": -77.03397016666666, "bike_id": "71b358394ea8236b0cfb91fe1eb6fe80", "rental_uris": {"ios": "https://dc.lft.to/lastmile_qr_scan", "android": "https://dc.lft.to/lastmile_qr_scan"}}, {"type": "electric_scooter", "is_reserved": 0, "name": "786d70dcfc047a04a3efb6c7fd1f39d2", "is_disabled": 0, "lat": 38.9528115, "fusion_lon": 0.0, "fusion_lat": 0.0, "lon": -77.06877916666667, "bike_id": "786d70dcfc047a04a3efb6c7fd1f39d2", "rental_uris": {"ios": "https://dc.lft.to/lastmile_qr_scan", "android": "https://dc.lft.to/lastmile_qr_scan"}}, {"type": "electric_scooter", "is_reserved": 0, "name": "18c8a4d21e310f2d31296aeb209421f3", "is_disabled": 0, "lat": 38.85908883333333, "fusion_lon": 0.0, "fusion_lat": 0.0, "lon": -76.99150766666666, "bike_id": "18c8a4d21e310f2d31296aeb209421f3", "rental_uris": {"ios": "https://dc.lft.to/lastmile_qr_scan", "android": "https://dc.lft.to/lastmile_qr_scan"}}, {"type": "electric_scooter", "is_reserved": 0, "name": "7db89a4841cb52cc8fffa3900bc9a6a1", "is_disabled": 0, "lat": 38.89905533333334, "fusion_lon": 0.0, "fusion_lat": 0.0, "lon": -76.933426, "bike_id": "7db89a4841cb52cc8fffa3900bc9a6a1", "rental_uris": {"ios": "https://dc.lft.to/lastmile_qr_scan", "android": "https://dc.lft.to/lastmile_qr_scan"}}, {"type": "electric_scooter", "is_reserved": 0, "name": "65dae671678fe74e0065051e397db023", "is_disabled": 0, "lat": 38.917333666666664, "fusion_lon": 0.0, "fusion_lat": 0.0, "lon": -77.03641933333333, "bike_id": "65dae671678fe74e0065051e397db023", "rental_uris": {"ios": "https://dc.lft.to/lastmile_qr_scan", "android": "https://dc.lft.to/lastmile_qr_scan"}}, {"type": "electric_scooter", "is_reserved": 0, "name": "8212cac10bd8fa30ed112374b73cce65", "is_disabled": 0, "lat": 38.902102666666664, "fusion_lon": 0.0, "fusion_lat": 0.0, "lon": -77.02373133333333, "bike_id": "8212cac10bd8fa30ed112374b73cce65", "rental_uris": {"ios": "https://dc.lft.to/lastmile_qr_scan", "android": "https://dc.lft.to/lastmile_qr_scan"}}, {"type": "electric_scooter", "is_reserved": 0, "name": "43ff928dd53d74332dc2e2567ab0896b", "is_disabled": 0, "lat": 38.91555566666667, "fusion_lon": 0.0, "fusion_lat": 0.0, "lon": -77.053203, "bike_id": "43ff928dd53d74332dc2e2567ab0896b", "rental_uris": {"ios": "https://dc.lft.to/lastmile_qr_scan", "android": "https://dc.lft.to/lastmile_qr_scan"}}, {"type": "electric_scooter", "is_reserved": 0, "name": "694ed2535a60e639d02838cd3c36cc3e", "is_disabled": 0, "lat": 38.907318, "fusion_lon": 0.0, "fusion_lat": 0.0, "lon": -77.02507066666666, "bike_id": "694ed2535a60e639d02838cd3c36cc3e", "rental_uris": {"ios": "https://dc.lft.to/lastmile_qr_scan", "android": "https://dc.lft.to/lastmile_qr_scan"}}, {"type": "electric_scooter", "is_reserved": 0, "name": "17da470474fe9de3db97927236cfe179", "is_disabled": 0, "lat": 38.892238, "fusion_lon": 0.0, "fusion_lat": 0.0, "lon": -77.04198116666667, "bike_id": "17da470474fe9de3db97927236cfe179", "rental_uris": {"ios": "https://dc.lft.to/lastmile_qr_scan", "android": "https://dc.lft.to/lastmile_qr_scan"}}, {"type": "electric_scooter", "is_reserved": 0, "name": "0450903e4dfddc5440b3ef462f57433d", "is_disabled": 0, "lat": 38.92088616666667, "fusion_lon": 0.0, "fusion_lat": 0.0, "lon": -77.03641033333334, "bike_id": "0450903e4dfddc5440b3ef462f57433d", "rental_uris": {"ios": "https://dc.lft.to/lastmile_qr_scan", "android": "https://dc.lft.to/lastmile_qr_scan"}}, {"type": "electric_scooter", "is_reserved": 0, "name": "7c4fd84ede1fac0500eb6a01c428111f", "is_disabled": 0, "lat": 38.8959725, "fusion_lon": 0.0, "fusion_lat": 0.0, "lon": -77.0105835, "bike_id": "7c4fd84ede1fac0500eb6a01c428111f", "rental_uris": {"ios": "https://dc.lft.to/lastmile_qr_scan", "android": "https://dc.lft.to/lastmile_qr_scan"}}, {"type": "electric_scooter", "is_reserved": 0, "name": "c5d97c15e2850bad2f053c1d07c7428f", "is_disabled": 0, "lat": 38.89011133333333, "fusion_lon": 0.0, "fusion_lat": 0.0, "lon": -76.93744983333333, "bike_id": "c5d97c15e2850bad2f053c1d07c7428f", "rental_uris": {"ios": "https://dc.lft.to/lastmile_qr_scan", "android": "https://dc.lft.to/lastmile_qr_scan"}}, {"type": "electric_scooter", "is_reserved": 0, "name": "ec10d3b4b32816a8547a93633d219e37", "is_disabled": 0, "lat": 38.9207995, "fusion_lon": 0.0, "fusion_lat": 0.0, "lon": -77.017475, "bike_id": "ec10d3b4b32816a8547a93633d219e37", "rental_uris": {"ios": "https://dc.lft.to/lastmile_qr_scan", "android": "https://dc.lft.to/lastmile_qr_scan"}}, {"type": "electric_bike", "is_reserved": 0, "name": "b1a998d8d2a35a1d69a82f5f80d84d1c", "is_disabled": 0, "lat": 38.8868015, "fusion_lon": 0.0, "fusion_lat": 0.0, "lon": -77.162387, "bike_id": "b1a998d8d2a35a1d69a82f5f80d84d1c", "rental_uris": {"ios": "https://dc.lft.to/lastmile_qr_scan", "android": "https://dc.lft.to/lastmile_qr_scan"}}, {"type": "electric_scooter", "is_reserved": 0, "name": "73bfcb05caa9feef340a5b628abbcef4", "is_disabled": 0, "lat": 38.90784933333333, "fusion_lon": 0.0, "fusion_lat": 0.0, "lon": -77.0021465, "bike_id": "73bfcb05caa9feef340a5b628abbcef4", "rental_uris": {"ios": "https://dc.lft.to/lastmile_qr_scan", "android": "https://dc.lft.to/lastmile_qr_scan"}}, {"type": "electric_scooter", "is_reserved": 0, "name": "186d86fe1594448b48cba0b33b4ab744", "is_disabled": 0, "lat": 38.9168555, "fusion_lon": 0.0, "fusion_lat": 0.0, "lon": -77.0385885, "bike_id": "186d86fe1594448b48cba0b33b4ab744", "rental_uris": {"ios": "https://dc.lft.to/lastmile_qr_scan", "android": "https://dc.lft.to/lastmile_qr_scan"}}, {"type": "electric_scooter", "is_reserved": 0, "name": "4f2ddfe2589eff3336de0d6ae43a943f", "is_disabled": 0, "lat": 38.901164333333334, "fusion_lon": 0.0, "fusion_lat": 0.0, "lon": -76.99549566666667, "bike_id": "4f2ddfe2589eff3336de0d6ae43a943f", "rental_uris": {"ios": "https://dc.lft.to/lastmile_qr_scan", "android": "https://dc.lft.to/lastmile_qr_scan"}}, {"type": "electric_scooter", "is_reserved": 0, "name": "2a1e24012062a160446a8ed807b85a77", "is_disabled": 0, "lat": 38.899059333333334, "fusion_lon": 0.0, "fusion_lat": 0.0, "lon": -77.03273333333334, "bike_id": "2a1e24012062a160446a8ed807b85a77", "rental_uris": {"ios": "https://dc.lft.to/lastmile_qr_scan", "android": "https://dc.lft.to/lastmile_qr_scan"}}, {"type": "electric_scooter", "is_reserved": 0, "name": "1f45d626870f574635e5727b20ad9795", "is_disabled": 0, "lat": 38.904189, "fusion_lon": 0.0, "fusion_lat": 0.0, "lon": -77.06889783333334, "bike_id": "1f45d626870f574635e5727b20ad9795", "rental_uris": {"ios": "https://dc.lft.to/lastmile_qr_scan", "android": "https://dc.lft.to/lastmile_qr_scan"}}, {"type": "electric_scooter", "is_reserved": 0, "name": "bd7659493c18750adddc4773c0b13504", "is_disabled": 0, "lat": 38.910125666666666, "fusion_lon": 0.0, "fusion_lat": 0.0, "lon": -76.99388433333333, "bike_id": "bd7659493c18750adddc4773c0b13504", "rental_uris": {"ios": "https://dc.lft.to/lastmile_qr_scan", "android": "https://dc.lft.to/lastmile_qr_scan"}}, {"type": "electric_scooter", "is_reserved": 0, "name": "5796f937f52d4780a516617c6843961b", "is_disabled": 0, "lat": 38.92997033333333, "fusion_lon": 0.0, "fusion_lat": 0.0, "lon": -77.03639116666666, "bike_id": "5796f937f52d4780a516617c6843961b", "rental_uris": {"ios": "https://dc.lft.to/lastmile_qr_scan", "android": "https://dc.lft.to/lastmile_qr_scan"}}, {"type": "electric_scooter", "is_reserved": 0, "name": "4ef4b376ad025e60cbded705aa6107be", "is_disabled": 0, "lat": 38.91659833333333, "fusion_lon": 0.0, "fusion_lat": 0.0, "lon": -77.02190216666666, "bike_id": "4ef4b376ad025e60cbded705aa6107be", "rental_uris": {"ios": "https://dc.lft.to/lastmile_qr_scan", "android": "https://dc.lft.to/lastmile_qr_scan"}}, {"type": "electric_scooter", "is_reserved": 0, "name": "009acc290f77f9483584b533b8e54974", "is_disabled": 0, "lat": 38.854535166666665, "fusion_lon": 0.0, "fusion_lat": 0.0, "lon": -76.97229, "bike_id": "009acc290f77f9483584b533b8e54974", "rental_uris": {"ios": "https://dc.lft.to/lastmile_qr_scan", "android": "https://dc.lft.to/lastmile_qr_scan"}}, {"type": "electric_scooter", "is_reserved": 0, "name": "74cfb116f3dcffe97d233fc25da79a5f", "is_disabled": 0, "lat": 38.9112465, "fusion_lon": 0.0, "fusion_lat": 0.0, "lon": -77.026903, "bike_id": "74cfb116f3dcffe97d233fc25da79a5f", "rental_uris": {"ios": "https://dc.lft.to/lastmile_qr_scan", "android": "https://dc.lft.to/lastmile_qr_scan"}}, {"type": "electric_scooter", "is_reserved": 0, "name": "cba2d2812cef89be12cec89ef61f954e", "is_disabled": 0, "lat": 38.91121, "fusion_lon": 0.0, "fusion_lat": 0.0, "lon": -77.02332516666667, "bike_id": "cba2d2812cef89be12cec89ef61f954e", "rental_uris": {"ios": "https://dc.lft.to/lastmile_qr_scan", "android": "https://dc.lft.to/lastmile_qr_scan"}}, {"type": "electric_scooter", "is_reserved": 0, "name": "969433732b0926cf51743d7cc778be1c", "is_disabled": 0, "lat": 38.916824, "fusion_lon": 0.0, "fusion_lat": 0.0, "lon": -77.02283716666666, "bike_id": "969433732b0926cf51743d7cc778be1c", "rental_uris": {"ios": "https://dc.lft.to/lastmile_qr_scan", "android": "https://dc.lft.to/lastmile_qr_scan"}}, {"type": "electric_scooter", "is_reserved": 0, "name": "38f33c6ee9a853eb7142e9b1921fca30", "is_disabled": 0, "lat": 38.923769666666665, "fusion_lon": 0.0, "fusion_lat": 0.0, "lon": -77.0316365, "bike_id": "38f33c6ee9a853eb7142e9b1921fca30", "rental_uris": {"ios": "https://dc.lft.to/lastmile_qr_scan", "android": "https://dc.lft.to/lastmile_qr_scan"}}, {"type": "electric_bike", "is_reserved": 0, "name": "c96b5351e3fff0df64f8b992575bfb12", "is_disabled": 0, "lat": 38.902815333333336, "fusion_lon": 0.0, "fusion_lat": 0.0, "lon": -77.0634695, "bike_id": "c96b5351e3fff0df64f8b992575bfb12", "rental_uris": {"ios": "https://dc.lft.to/lastmile_qr_scan", "android": "https://dc.lft.to/lastmile_qr_scan"}}, {"type": "electric_scooter", "is_reserved": 0, "name": "5e716dc7d538fe22d62893fd956f637e", "is_disabled": 0, "lat": 38.9031185, "fusion_lon": 0.0, "fusion_lat": 0.0, "lon": -77.02188733333334, "bike_id": "5e716dc7d538fe22d62893fd956f637e", "rental_uris": {"ios": "https://dc.lft.to/lastmile_qr_scan", "android": "https://dc.lft.to/lastmile_qr_scan"}}, {"type": "electric_scooter", "is_reserved": 0, "name": "f50a0a8cbd0d7c7d7cfbf5f67cc52c90", "is_disabled": 0, "lat": 38.90961983333333, "fusion_lon": 0.0, "fusion_lat": 0.0, "lon": -77.03808916666667, "bike_id": "f50a0a8cbd0d7c7d7cfbf5f67cc52c90", "rental_uris": {"ios": "https://dc.lft.to/lastmile_qr_scan", "android": "https://dc.lft.to/lastmile_qr_scan"}}, {"type": "electric_scooter", "is_reserved": 0, "name": "766e980bdf41658f34a911a247095dbb", "is_disabled": 0, "lat": 38.921505333333336, "fusion_lon": 0.0, "fusion_lat": 0.0, "lon": -77.038651, "bike_id": "766e980bdf41658f34a911a247095dbb", "rental_uris": {"ios": "https://dc.lft.to/lastmile_qr_scan", "android": "https://dc.lft.to/lastmile_qr_scan"}}, {"type": "electric_scooter", "is_reserved": 0, "name": "2abc08dbda4660504bd77890fb1dcefe", "is_disabled": 0, "lat": 38.91865633333333, "fusion_lon": 0.0, "fusion_lat": 0.0, "lon": -77.04038, "bike_id": "2abc08dbda4660504bd77890fb1dcefe", "rental_uris": {"ios": "https://dc.lft.to/lastmile_qr_scan", "android": "https://dc.lft.to/lastmile_qr_scan"}}, {"type": "electric_scooter", "is_reserved": 0, "name": "35e0cd441c6b7a633ab3478b5d83c29d", "is_disabled": 0, "lat": 38.86385166666667, "fusion_lon": 0.0, "fusion_lat": 0.0, "lon": -76.99251866666667, "bike_id": "35e0cd441c6b7a633ab3478b5d83c29d", "rental_uris": {"ios": "https://dc.lft.to/lastmile_qr_scan", "android": "https://dc.lft.to/lastmile_qr_scan"}}, {"type": "electric_scooter", "is_reserved": 0, "name": "9f5dba24617aa81bf06992bc9ab9c459", "is_disabled": 0, "lat": 38.92364083333333, "fusion_lon": 0.0, "fusion_lat": 0.0, "lon": -77.04381533333333, "bike_id": "9f5dba24617aa81bf06992bc9ab9c459", "rental_uris": {"ios": "https://dc.lft.to/lastmile_qr_scan", "android": "https://dc.lft.to/lastmile_qr_scan"}}, {"type": "electric_scooter", "is_reserved": 0, "name": "ed0d6f8b14b09ab5b9d0ec99caa796b7", "is_disabled": 0, "lat": 38.89379316666667, "fusion_lon": 0.0, "fusion_lat": 0.0, "lon": -77.05024066666667, "bike_id": "ed0d6f8b14b09ab5b9d0ec99caa796b7", "rental_uris": {"ios": "https://dc.lft.to/lastmile_qr_scan", "android": "https://dc.lft.to/lastmile_qr_scan"}}, {"type": "electric_bike", "is_reserved": 0, "name": "f3e70bfd8bc84d58caf11523e1ec35fb", "is_disabled": 0, "lat": 39.039041166666664, "fusion_lon": 0.0, "fusion_lat": 0.0, "lon": -77.0503525, "bike_id": "f3e70bfd8bc84d58caf11523e1ec35fb", "rental_uris": {"ios": "https://dc.lft.to/lastmile_qr_scan", "android": "https://dc.lft.to/lastmile_qr_scan"}}, {"type": "electric_scooter", "is_reserved": 0, "name": "6bfa79ba598e064d8fcac237c5f6b451", "is_disabled": 0, "lat": 38.922357, "fusion_lon": 0.0, "fusion_lat": 0.0, "lon": -77.042489, "bike_id": "6bfa79ba598e064d8fcac237c5f6b451", "rental_uris": {"ios": "https://dc.lft.to/lastmile_qr_scan", "android": "https://dc.lft.to/lastmile_qr_scan"}}, {"type": "electric_scooter", "is_reserved": 0, "name": "e326eb5fa738c6a5a51d7bcc0234d625", "is_disabled": 0, "lat": 38.92482616666667, "fusion_lon": 0.0, "fusion_lat": 0.0, "lon": -77.0221745, "bike_id": "e326eb5fa738c6a5a51d7bcc0234d625", "rental_uris": {"ios": "https://dc.lft.to/lastmile_qr_scan", "android": "https://dc.lft.to/lastmile_qr_scan"}}, {"type": "electric_bike", "is_reserved": 0, "name": "79e636223cff1f7803415c2cd908d7ad", "is_disabled": 0, "lat": 38.922134666666665, "fusion_lon": 0.0, "fusion_lat": 0.0, "lon": -76.98796166666666, "bike_id": "79e636223cff1f7803415c2cd908d7ad", "rental_uris": {"ios": "https://dc.lft.to/lastmile_qr_scan", "android": "https://dc.lft.to/lastmile_qr_scan"}}, {"type": "electric_scooter", "is_reserved": 0, "name": "8e01e1529fde67e11f588ba6de9a48a3", "is_disabled": 0, "lat": 38.9156955, "fusion_lon": 0.0, "fusion_lat": 0.0, "lon": -77.0315135, "bike_id": "8e01e1529fde67e11f588ba6de9a48a3", "rental_uris": {"ios": "https://dc.lft.to/lastmile_qr_scan", "android": "https://dc.lft.to/lastmile_qr_scan"}}, {"type": "electric_scooter", "is_reserved": 0, "name": "4d05caa635f152665b04da5fd6e686cb", "is_disabled": 0, "lat": 38.933043166666664, "fusion_lon": 0.0, "fusion_lat": 0.0, "lon": -77.03591866666666, "bike_id": "4d05caa635f152665b04da5fd6e686cb", "rental_uris": {"ios": "https://dc.lft.to/lastmile_qr_scan", "android": "https://dc.lft.to/lastmile_qr_scan"}}, {"type": "electric_scooter", "is_reserved": 0, "name": "8b2f0d86e7ab94fddb03222a4ad65d6a", "is_disabled": 0, "lat": 38.9320465, "fusion_lon": 0.0, "fusion_lat": 0.0, "lon": -77.0442705, "bike_id": "8b2f0d86e7ab94fddb03222a4ad65d6a", "rental_uris": {"ios": "https://dc.lft.to/lastmile_qr_scan", "android": "https://dc.lft.to/lastmile_qr_scan"}}, {"type": "electric_scooter", "is_reserved": 0, "name": "ed09fc0643660b865d1caf0e847b28af", "is_disabled": 0, "lat": 38.87796933333333, "fusion_lon": 0.0, "fusion_lat": 0.0, "lon": -76.99409, "bike_id": "ed09fc0643660b865d1caf0e847b28af", "rental_uris": {"ios": "https://dc.lft.to/lastmile_qr_scan", "android": "https://dc.lft.to/lastmile_qr_scan"}}, {"type": "electric_scooter", "is_reserved": 0, "name": "345d9931759524d89aaff8afcaec5098", "is_disabled": 0, "lat": 38.92052616666667, "fusion_lon": 0.0, "fusion_lat": 0.0, "lon": -77.03413, "bike_id": "345d9931759524d89aaff8afcaec5098", "rental_uris": {"ios": "https://dc.lft.to/lastmile_qr_scan", "android": "https://dc.lft.to/lastmile_qr_scan"}}, {"type": "electric_scooter", "is_reserved": 0, "name": "2c3e10488cf03c4b3c6de874632adbbc", "is_disabled": 0, "lat": 38.9112015, "fusion_lon": 0.0, "fusion_lat": 0.0, "lon": -77.04236616666667, "bike_id": "2c3e10488cf03c4b3c6de874632adbbc", "rental_uris": {"ios": "https://dc.lft.to/lastmile_qr_scan", "android": "https://dc.lft.to/lastmile_qr_scan"}}, {"type": "electric_scooter", "is_reserved": 0, "name": "1d27f794f105de56e95684e44264cb3e", "is_disabled": 0, "lat": 38.8881505, "fusion_lon": 0.0, "fusion_lat": 0.0, "lon": -76.93341216666667, "bike_id": "1d27f794f105de56e95684e44264cb3e", "rental_uris": {"ios": "https://dc.lft.to/lastmile_qr_scan", "android": "https://dc.lft.to/lastmile_qr_scan"}}, {"type": "electric_scooter", "is_reserved": 0, "name": "9c667e3ba69dae478a22bbe9356e5e83", "is_disabled": 0, "lat": 38.91013233333334, "fusion_lon": 0.0, "fusion_lat": 0.0, "lon": -76.9849435, "bike_id": "9c667e3ba69dae478a22bbe9356e5e83", "rental_uris": {"ios": "https://dc.lft.to/lastmile_qr_scan", "android": "https://dc.lft.to/lastmile_qr_scan"}}, {"type": "electric_bike", "is_reserved": 0, "name": "f8f837bef3d992f598ce80fdfd758abe", "is_disabled": 0, "lat": 38.83984233333334, "fusion_lon": 0.0, "fusion_lat": 0.0, "lon": -77.00571866666667, "bike_id": "f8f837bef3d992f598ce80fdfd758abe", "rental_uris": {"ios": "https://dc.lft.to/lastmile_qr_scan", "android": "https://dc.lft.to/lastmile_qr_scan"}}, {"type": "electric_scooter", "is_reserved": 0, "name": "5983ce57e5ab6d839dccce585284613f", "is_disabled": 0, "lat": 38.924013, "fusion_lon": 0.0, "fusion_lat": 0.0, "lon": -77.05252383333334, "bike_id": "5983ce57e5ab6d839dccce585284613f", "rental_uris": {"ios": "https://dc.lft.to/lastmile_qr_scan", "android": "https://dc.lft.to/lastmile_qr_scan"}}, {"type": "electric_scooter", "is_reserved": 0, "name": "22921567fbb8c861373d3d49468834af", "is_disabled": 0, "lat": 38.906772, "fusion_lon": 0.0, "fusion_lat": 0.0, "lon": -77.038257, "bike_id": "22921567fbb8c861373d3d49468834af", "rental_uris": {"ios": "https://dc.lft.to/lastmile_qr_scan", "android": "https://dc.lft.to/lastmile_qr_scan"}}, {"type": "electric_scooter", "is_reserved": 0, "name": "15fb41488cf5fddc3e0a66decba3f6e5", "is_disabled": 0, "lat": 38.907284, "fusion_lon": 0.0, "fusion_lat": 0.0, "lon": -77.0254455, "bike_id": "15fb41488cf5fddc3e0a66decba3f6e5", "rental_uris": {"ios": "https://dc.lft.to/lastmile_qr_scan", "android": "https://dc.lft.to/lastmile_qr_scan"}}, {"type": "electric_bike", "is_reserved": 0, "name": "8c2f7851f96b9ad1a6c0bab81994ff57", "is_disabled": 0, "lat": 38.941536, "fusion_lon": 0.0, "fusion_lat": 0.0, "lon": -77.00198133333333, "bike_id": "8c2f7851f96b9ad1a6c0bab81994ff57", "rental_uris": {"ios": "https://dc.lft.to/lastmile_qr_scan", "android": "https://dc.lft.to/lastmile_qr_scan"}}, {"type": "electric_bike", "is_reserved": 0, "name": "c2e129bc32f307da3739efae2f0c6c74", "is_disabled": 0, "lat": 38.87675266666667, "fusion_lon": 0.0, "fusion_lat": 0.0, "lon": -77.014487, "bike_id": "c2e129bc32f307da3739efae2f0c6c74", "rental_uris": {"ios": "https://dc.lft.to/lastmile_qr_scan", "android": "https://dc.lft.to/lastmile_qr_scan"}}, {"type": "electric_scooter", "is_reserved": 0, "name": "3ec47ff42a3f37ef1452914743770d27", "is_disabled": 0, "lat": 38.91544483333333, "fusion_lon": 0.0, "fusion_lat": 0.0, "lon": -77.03845283333334, "bike_id": "3ec47ff42a3f37ef1452914743770d27", "rental_uris": {"ios": "https://dc.lft.to/lastmile_qr_scan", "android": "https://dc.lft.to/lastmile_qr_scan"}}, {"type": "electric_bike", "is_reserved": 0, "name": "b35e2c232615f4b33c48464288ed8711", "is_disabled": 0, "lat": 38.86213, "fusion_lon": 0.0, "fusion_lat": 0.0, "lon": -76.99777533333334, "bike_id": "b35e2c232615f4b33c48464288ed8711", "rental_uris": {"ios": "https://dc.lft.to/lastmile_qr_scan", "android": "https://dc.lft.to/lastmile_qr_scan"}}, {"type": "electric_scooter", "is_reserved": 0, "name": "be44b6e7e95fbc4dea59611c3f4f3392", "is_disabled": 0, "lat": 38.87065066666667, "fusion_lon": 0.0, "fusion_lat": 0.0, "lon": -77.00838933333333, "bike_id": "be44b6e7e95fbc4dea59611c3f4f3392", "rental_uris": {"ios": "https://dc.lft.to/lastmile_qr_scan", "android": "https://dc.lft.to/lastmile_qr_scan"}}, {"type": "electric_scooter", "is_reserved": 0, "name": "5cc1e032076a90e3eedc7b9576fdd9a1", "is_disabled": 0, "lat": 38.900127166666664, "fusion_lon": 0.0, "fusion_lat": 0.0, "lon": -77.04052166666666, "bike_id": "5cc1e032076a90e3eedc7b9576fdd9a1", "rental_uris": {"ios": "https://dc.lft.to/lastmile_qr_scan", "android": "https://dc.lft.to/lastmile_qr_scan"}}, {"type": "electric_scooter", "is_reserved": 0, "name": "f17f6bad47d0eb0f75ed093a828d1db5", "is_disabled": 0, "lat": 38.922225166666664, "fusion_lon": 0.0, "fusion_lat": 0.0, "lon": -77.04244316666667, "bike_id": "f17f6bad47d0eb0f75ed093a828d1db5", "rental_uris": {"ios": "https://dc.lft.to/lastmile_qr_scan", "android": "https://dc.lft.to/lastmile_qr_scan"}}, {"type": "electric_scooter", "is_reserved": 0, "name": "3092993de923e73197d955a14d167974", "is_disabled": 0, "lat": 38.90752466666667, "fusion_lon": 0.0, "fusion_lat": 0.0, "lon": -76.99876, "bike_id": "3092993de923e73197d955a14d167974", "rental_uris": {"ios": "https://dc.lft.to/lastmile_qr_scan", "android": "https://dc.lft.to/lastmile_qr_scan"}}, {"type": "electric_scooter", "is_reserved": 0, "name": "d1047171790e4d51358f9b6a4b35d2e9", "is_disabled": 0, "lat": 38.943028166666664, "fusion_lon": 0.0, "fusion_lat": 0.0, "lon": -77.05930166666667, "bike_id": "d1047171790e4d51358f9b6a4b35d2e9", "rental_uris": {"ios": "https://dc.lft.to/lastmile_qr_scan", "android": "https://dc.lft.to/lastmile_qr_scan"}}, {"type": "electric_scooter", "is_reserved": 0, "name": "bba8615da5f6747a811169814ff44003", "is_disabled": 0, "lat": 38.866795333333336, "fusion_lon": 0.0, "fusion_lat": 0.0, "lon": -76.98540583333333, "bike_id": "bba8615da5f6747a811169814ff44003", "rental_uris": {"ios": "https://dc.lft.to/lastmile_qr_scan", "android": "https://dc.lft.to/lastmile_qr_scan"}}, {"type": "electric_scooter", "is_reserved": 0, "name": "f94f3bf8d883f4fa633c02590b3758f9", "is_disabled": 0, "lat": 38.94467733333333, "fusion_lon": 0.0, "fusion_lat": 0.0, "lon": -77.00657316666667, "bike_id": "f94f3bf8d883f4fa633c02590b3758f9", "rental_uris": {"ios": "https://dc.lft.to/lastmile_qr_scan", "android": "https://dc.lft.to/lastmile_qr_scan"}}, {"type": "electric_scooter", "is_reserved": 0, "name": "3d46530f1b83da59893e610d8f4d372e", "is_disabled": 0, "lat": 38.89884033333333, "fusion_lon": 0.0, "fusion_lat": 0.0, "lon": -76.931727, "bike_id": "3d46530f1b83da59893e610d8f4d372e", "rental_uris": {"ios": "https://dc.lft.to/lastmile_qr_scan", "android": "https://dc.lft.to/lastmile_qr_scan"}}, {"type": "electric_scooter", "is_reserved": 0, "name": "3caed16f03d89d7d49fb8f96259e1d29", "is_disabled": 0, "lat": 38.92819083333333, "fusion_lon": 0.0, "fusion_lat": 0.0, "lon": -77.02877916666667, "bike_id": "3caed16f03d89d7d49fb8f96259e1d29", "rental_uris": {"ios": "https://dc.lft.to/lastmile_qr_scan", "android": "https://dc.lft.to/lastmile_qr_scan"}}, {"type": "electric_scooter", "is_reserved": 0, "name": "8eebf02a9ee0f243c37206b65eec2ac8", "is_disabled": 0, "lat": 38.891782666666664, "fusion_lon": 0.0, "fusion_lat": 0.0, "lon": -77.03207866666666, "bike_id": "8eebf02a9ee0f243c37206b65eec2ac8", "rental_uris": {"ios": "https://dc.lft.to/lastmile_qr_scan", "android": "https://dc.lft.to/lastmile_qr_scan"}}, {"type": "electric_scooter", "is_reserved": 0, "name": "6a789e507eae764bf56e4eaa87273108", "is_disabled": 0, "lat": 38.93430716666667, "fusion_lon": 0.0, "fusion_lat": 0.0, "lon": -77.040032, "bike_id": "6a789e507eae764bf56e4eaa87273108", "rental_uris": {"ios": "https://dc.lft.to/lastmile_qr_scan", "android": "https://dc.lft.to/lastmile_qr_scan"}}, {"type": "electric_scooter", "is_reserved": 0, "name": "b0a0bf9dd7c81677c20ea97f8905d392", "is_disabled": 0, "lat": 38.93251766666667, "fusion_lon": 0.0, "fusion_lat": 0.0, "lon": -77.03276866666667, "bike_id": "b0a0bf9dd7c81677c20ea97f8905d392", "rental_uris": {"ios": "https://dc.lft.to/lastmile_qr_scan", "android": "https://dc.lft.to/lastmile_qr_scan"}}, {"type": "electric_scooter", "is_reserved": 0, "name": "0d5b201aede4329d47be7aac24c28aad", "is_disabled": 0, "lat": 38.9111925, "fusion_lon": 0.0, "fusion_lat": 0.0, "lon": -77.04360583333333, "bike_id": "0d5b201aede4329d47be7aac24c28aad", "rental_uris": {"ios": "https://dc.lft.to/lastmile_qr_scan", "android": "https://dc.lft.to/lastmile_qr_scan"}}, {"type": "electric_bike", "is_reserved": 0, "name": "4dfcb205cd39af8265f23ce14aa5d5dd", "is_disabled": 0, "lat": 39.03416283333333, "fusion_lon": 0.0, "fusion_lat": 0.0, "lon": -77.04247816666667, "bike_id": "4dfcb205cd39af8265f23ce14aa5d5dd", "rental_uris": {"ios": "https://dc.lft.to/lastmile_qr_scan", "android": "https://dc.lft.to/lastmile_qr_scan"}}, {"type": "electric_scooter", "is_reserved": 0, "name": "726c05dcd955d08824f2628ccd882ccc", "is_disabled": 0, "lat": 38.916827, "fusion_lon": 0.0, "fusion_lat": 0.0, "lon": -77.02288366666667, "bike_id": "726c05dcd955d08824f2628ccd882ccc", "rental_uris": {"ios": "https://dc.lft.to/lastmile_qr_scan", "android": "https://dc.lft.to/lastmile_qr_scan"}}, {"type": "electric_scooter", "is_reserved": 0, "name": "c53c3424122f7dac4a41f8a1c83ad82a", "is_disabled": 0, "lat": 38.8997325, "fusion_lon": 0.0, "fusion_lat": 0.0, "lon": -77.0307325, "bike_id": "c53c3424122f7dac4a41f8a1c83ad82a", "rental_uris": {"ios": "https://dc.lft.to/lastmile_qr_scan", "android": "https://dc.lft.to/lastmile_qr_scan"}}, {"type": "electric_scooter", "is_reserved": 0, "name": "dae43b92d25b208fd178cd320d24046d", "is_disabled": 0, "lat": 38.9182135, "fusion_lon": 0.0, "fusion_lat": 0.0, "lon": -77.03452616666667, "bike_id": "dae43b92d25b208fd178cd320d24046d", "rental_uris": {"ios": "https://dc.lft.to/lastmile_qr_scan", "android": "https://dc.lft.to/lastmile_qr_scan"}}, {"type": "electric_scooter", "is_reserved": 0, "name": "d102e7cdd70ffd73d9c8508bca394cc9", "is_disabled": 0, "lat": 38.890694833333335, "fusion_lon": 0.0, "fusion_lat": 0.0, "lon": -76.98835816666667, "bike_id": "d102e7cdd70ffd73d9c8508bca394cc9", "rental_uris": {"ios": "https://dc.lft.to/lastmile_qr_scan", "android": "https://dc.lft.to/lastmile_qr_scan"}}, {"type": "electric_scooter", "is_reserved": 0, "name": "82645b4a0801484618c9ce0b7465a56b", "is_disabled": 0, "lat": 38.851964833333334, "fusion_lon": 0.0, "fusion_lat": 0.0, "lon": -76.976302, "bike_id": "82645b4a0801484618c9ce0b7465a56b", "rental_uris": {"ios": "https://dc.lft.to/lastmile_qr_scan", "android": "https://dc.lft.to/lastmile_qr_scan"}}, {"type": "electric_scooter", "is_reserved": 0, "name": "171dd0dfa7dc3d8443b502e027e256bf", "is_disabled": 0, "lat": 38.893504666666665, "fusion_lon": 0.0, "fusion_lat": 0.0, "lon": -77.04141683333333, "bike_id": "171dd0dfa7dc3d8443b502e027e256bf", "rental_uris": {"ios": "https://dc.lft.to/lastmile_qr_scan", "android": "https://dc.lft.to/lastmile_qr_scan"}}, {"type": "electric_scooter", "is_reserved": 0, "name": "8cd393b3c50e7e5d7a619910f06dc95c", "is_disabled": 0, "lat": 38.936933333333336, "fusion_lon": 0.0, "fusion_lat": 0.0, "lon": -77.02413866666667, "bike_id": "8cd393b3c50e7e5d7a619910f06dc95c", "rental_uris": {"ios": "https://dc.lft.to/lastmile_qr_scan", "android": "https://dc.lft.to/lastmile_qr_scan"}}, {"type": "electric_scooter", "is_reserved": 0, "name": "7336646950ddaf767e80015f597a3853", "is_disabled": 0, "lat": 38.90795933333333, "fusion_lon": 0.0, "fusion_lat": 0.0, "lon": -77.04273716666667, "bike_id": "7336646950ddaf767e80015f597a3853", "rental_uris": {"ios": "https://dc.lft.to/lastmile_qr_scan", "android": "https://dc.lft.to/lastmile_qr_scan"}}, {"type": "electric_bike", "is_reserved": 0, "name": "ee3c8613c1a0677bf5ce34d4cb67c644", "is_disabled": 0, "lat": 38.9455635, "fusion_lon": 0.0, "fusion_lat": 0.0, "lon": -76.89536116666666, "bike_id": "ee3c8613c1a0677bf5ce34d4cb67c644", "rental_uris": {"ios": "https://dc.lft.to/lastmile_qr_scan", "android": "https://dc.lft.to/lastmile_qr_scan"}}, {"type": "electric_scooter", "is_reserved": 0, "name": "839c58ac2b7da6b7362f7b41ef0da958", "is_disabled": 0, "lat": 38.9259495, "fusion_lon": 0.0, "fusion_lat": 0.0, "lon": -77.04395116666667, "bike_id": "839c58ac2b7da6b7362f7b41ef0da958", "rental_uris": {"ios": "https://dc.lft.to/lastmile_qr_scan", "android": "https://dc.lft.to/lastmile_qr_scan"}}, {"type": "electric_scooter", "is_reserved": 0, "name": "6bf862d6bc3220a84c8569b03615c64c", "is_disabled": 0, "lat": 38.908856, "fusion_lon": 0.0, "fusion_lat": 0.0, "lon": -77.04350816666667, "bike_id": "6bf862d6bc3220a84c8569b03615c64c", "rental_uris": {"ios": "https://dc.lft.to/lastmile_qr_scan", "android": "https://dc.lft.to/lastmile_qr_scan"}}, {"type": "electric_scooter", "is_reserved": 0, "name": "c8ab489fdf4a97531067949622b48030", "is_disabled": 0, "lat": 38.905294, "fusion_lon": 0.0, "fusion_lat": 0.0, "lon": -77.06179066666667, "bike_id": "c8ab489fdf4a97531067949622b48030", "rental_uris": {"ios": "https://dc.lft.to/lastmile_qr_scan", "android": "https://dc.lft.to/lastmile_qr_scan"}}, {"type": "electric_scooter", "is_reserved": 0, "name": "4c399c66401070f89483afdf5e36463a", "is_disabled": 0, "lat": 38.9097085, "fusion_lon": 0.0, "fusion_lat": 0.0, "lon": -77.048231, "bike_id": "4c399c66401070f89483afdf5e36463a", "rental_uris": {"ios": "https://dc.lft.to/lastmile_qr_scan", "android": "https://dc.lft.to/lastmile_qr_scan"}}, {"type": "electric_scooter", "is_reserved": 0, "name": "d7eb6828490141881197fb9c31bdadf4", "is_disabled": 0, "lat": 38.892211333333336, "fusion_lon": 0.0, "fusion_lat": 0.0, "lon": -77.0277665, "bike_id": "d7eb6828490141881197fb9c31bdadf4", "rental_uris": {"ios": "https://dc.lft.to/lastmile_qr_scan", "android": "https://dc.lft.to/lastmile_qr_scan"}}, {"type": "electric_scooter", "is_reserved": 0, "name": "22196c93b40f7d5d241358428129aa47", "is_disabled": 0, "lat": 38.9001865, "fusion_lon": 0.0, "fusion_lat": 0.0, "lon": -77.04670316666666, "bike_id": "22196c93b40f7d5d241358428129aa47", "rental_uris": {"ios": "https://dc.lft.to/lastmile_qr_scan", "android": "https://dc.lft.to/lastmile_qr_scan"}}, {"type": "electric_scooter", "is_reserved": 0, "name": "b107483c679609daed88e278629bfd30", "is_disabled": 0, "lat": 38.86507833333334, "fusion_lon": 0.0, "fusion_lat": 0.0, "lon": -76.98976966666666, "bike_id": "b107483c679609daed88e278629bfd30", "rental_uris": {"ios": "https://dc.lft.to/lastmile_qr_scan", "android": "https://dc.lft.to/lastmile_qr_scan"}}, {"type": "electric_scooter", "is_reserved": 0, "name": "fe1dd68ec80e6abadbd68b2bdbeca91b", "is_disabled": 0, "lat": 38.90738366666667, "fusion_lon": 0.0, "fusion_lat": 0.0, "lon": -77.01310016666666, "bike_id": "fe1dd68ec80e6abadbd68b2bdbeca91b", "rental_uris": {"ios": "https://dc.lft.to/lastmile_qr_scan", "android": "https://dc.lft.to/lastmile_qr_scan"}}, {"type": "electric_scooter", "is_reserved": 0, "name": "0a018754db3111cfb690e758a36a9850", "is_disabled": 0, "lat": 38.9395, "fusion_lon": 0.0, "fusion_lat": 0.0, "lon": -77.072494, "bike_id": "0a018754db3111cfb690e758a36a9850", "rental_uris": {"ios": "https://dc.lft.to/lastmile_qr_scan", "android": "https://dc.lft.to/lastmile_qr_scan"}}, {"type": "electric_bike", "is_reserved": 0, "name": "ef69c6189741c4f142ada250fb82d252", "is_disabled": 0, "lat": 38.998172833333335, "fusion_lon": 0.0, "fusion_lat": 0.0, "lon": -76.8837325, "bike_id": "ef69c6189741c4f142ada250fb82d252", "rental_uris": {"ios": "https://dc.lft.to/lastmile_qr_scan", "android": "https://dc.lft.to/lastmile_qr_scan"}}, {"type": "electric_scooter", "is_reserved": 0, "name": "3baf3b4883de6cf446e802da776bfa60", "is_disabled": 0, "lat": 38.923148833333336, "fusion_lon": 0.0, "fusion_lat": 0.0, "lon": -77.0365765, "bike_id": "3baf3b4883de6cf446e802da776bfa60", "rental_uris": {"ios": "https://dc.lft.to/lastmile_qr_scan", "android": "https://dc.lft.to/lastmile_qr_scan"}}, {"type": "electric_scooter", "is_reserved": 0, "name": "41b3cb5026044acbbb27e678bf9124cc", "is_disabled": 0, "lat": 38.89530283333333, "fusion_lon": 0.0, "fusion_lat": 0.0, "lon": -76.948898, "bike_id": "41b3cb5026044acbbb27e678bf9124cc", "rental_uris": {"ios": "https://dc.lft.to/lastmile_qr_scan", "android": "https://dc.lft.to/lastmile_qr_scan"}}, {"type": "electric_bike", "is_reserved": 0, "name": "95f2baf930d5cce11417a6eca9611815", "is_disabled": 0, "lat": 39.02430433333333, "fusion_lon": 0.0, "fusion_lat": 0.0, "lon": -77.1310145, "bike_id": "95f2baf930d5cce11417a6eca9611815", "rental_uris": {"ios": "https://dc.lft.to/lastmile_qr_scan", "android": "https://dc.lft.to/lastmile_qr_scan"}}, {"type": "electric_scooter", "is_reserved": 0, "name": "a1323de23ad1dcd95456dfeba8e351ce", "is_disabled": 0, "lat": 38.89208983333333, "fusion_lon": 0.0, "fusion_lat": 0.0, "lon": -76.98565166666667, "bike_id": "a1323de23ad1dcd95456dfeba8e351ce", "rental_uris": {"ios": "https://dc.lft.to/lastmile_qr_scan", "android": "https://dc.lft.to/lastmile_qr_scan"}}, {"type": "electric_bike", "is_reserved": 0, "name": "0bd3080262cbe12e73d756b9ba9853fb", "is_disabled": 0, "lat": 39.03049466666667, "fusion_lon": 0.0, "fusion_lat": 0.0, "lon": -77.094845, "bike_id": "0bd3080262cbe12e73d756b9ba9853fb", "rental_uris": {"ios": "https://dc.lft.to/lastmile_qr_scan", "android": "https://dc.lft.to/lastmile_qr_scan"}}, {"type": "electric_scooter", "is_reserved": 0, "name": "473336e5ccf6fc12e974110a13c7e369", "is_disabled": 0, "lat": 38.910334166666665, "fusion_lon": 0.0, "fusion_lat": 0.0, "lon": -76.993421, "bike_id": "473336e5ccf6fc12e974110a13c7e369", "rental_uris": {"ios": "https://dc.lft.to/lastmile_qr_scan", "android": "https://dc.lft.to/lastmile_qr_scan"}}, {"type": "electric_scooter", "is_reserved": 0, "name": "664241edc0020db64ca0d46766918b42", "is_disabled": 0, "lat": 38.9386685, "fusion_lon": 0.0, "fusion_lat": 0.0, "lon": -77.03093733333333, "bike_id": "664241edc0020db64ca0d46766918b42", "rental_uris": {"ios": "https://dc.lft.to/lastmile_qr_scan", "android": "https://dc.lft.to/lastmile_qr_scan"}}, {"type": "electric_scooter", "is_reserved": 0, "name": "f3da67c0016861a29fc734b41c271fdf", "is_disabled": 0, "lat": 38.87671683333333, "fusion_lon": 0.0, "fusion_lat": 0.0, "lon": -77.00398083333333, "bike_id": "f3da67c0016861a29fc734b41c271fdf", "rental_uris": {"ios": "https://dc.lft.to/lastmile_qr_scan", "android": "https://dc.lft.to/lastmile_qr_scan"}}, {"type": "electric_scooter", "is_reserved": 0, "name": "00a453782f7de62fec2cb27c6d4ac003", "is_disabled": 0, "lat": 38.9156565, "fusion_lon": 0.0, "fusion_lat": 0.0, "lon": -77.02981916666667, "bike_id": "00a453782f7de62fec2cb27c6d4ac003", "rental_uris": {"ios": "https://dc.lft.to/lastmile_qr_scan", "android": "https://dc.lft.to/lastmile_qr_scan"}}, {"type": "electric_scooter", "is_reserved": 0, "name": "cf89b8d4a2951be9da9880a15a0ef6b9", "is_disabled": 0, "lat": 38.926127666666666, "fusion_lon": 0.0, "fusion_lat": 0.0, "lon": -77.0217405, "bike_id": "cf89b8d4a2951be9da9880a15a0ef6b9", "rental_uris": {"ios": "https://dc.lft.to/lastmile_qr_scan", "android": "https://dc.lft.to/lastmile_qr_scan"}}, {"type": "electric_bike", "is_reserved": 0, "name": "0998baa60a69d6b197a886f58d0abbf3", "is_disabled": 0, "lat": 38.90252816666667, "fusion_lon": 0.0, "fusion_lat": 0.0, "lon": -77.01817066666666, "bike_id": "0998baa60a69d6b197a886f58d0abbf3", "rental_uris": {"ios": "https://dc.lft.to/lastmile_qr_scan", "android": "https://dc.lft.to/lastmile_qr_scan"}}, {"type": "electric_scooter", "is_reserved": 0, "name": "b00df7a26fa9a3f597f5a1b44920cb85", "is_disabled": 0, "lat": 38.91149766666667, "fusion_lon": 0.0, "fusion_lat": 0.0, "lon": -77.004568, "bike_id": "b00df7a26fa9a3f597f5a1b44920cb85", "rental_uris": {"ios": "https://dc.lft.to/lastmile_qr_scan", "android": "https://dc.lft.to/lastmile_qr_scan"}}, {"type": "electric_scooter", "is_reserved": 0, "name": "6505007ef648ccc92672298c95d45ae5", "is_disabled": 0, "lat": 38.915231666666664, "fusion_lon": 0.0, "fusion_lat": 0.0, "lon": -77.0219505, "bike_id": "6505007ef648ccc92672298c95d45ae5", "rental_uris": {"ios": "https://dc.lft.to/lastmile_qr_scan", "android": "https://dc.lft.to/lastmile_qr_scan"}}, {"type": "electric_scooter", "is_reserved": 0, "name": "da0771581a6e3b07ab3aa0fb94f60dd4", "is_disabled": 0, "lat": 38.88377116666667, "fusion_lon": 0.0, "fusion_lat": 0.0, "lon": -76.995156, "bike_id": "da0771581a6e3b07ab3aa0fb94f60dd4", "rental_uris": {"ios": "https://dc.lft.to/lastmile_qr_scan", "android": "https://dc.lft.to/lastmile_qr_scan"}}, {"type": "electric_scooter", "is_reserved": 0, "name": "4835d5a9fe6eb26eea4d25971a8f6451", "is_disabled": 0, "lat": 38.90818816666667, "fusion_lon": 0.0, "fusion_lat": 0.0, "lon": -77.04347733333333, "bike_id": "4835d5a9fe6eb26eea4d25971a8f6451", "rental_uris": {"ios": "https://dc.lft.to/lastmile_qr_scan", "android": "https://dc.lft.to/lastmile_qr_scan"}}, {"type": "electric_scooter", "is_reserved": 0, "name": "e249628a8a7228495a4f0215aab264a0", "is_disabled": 0, "lat": 38.90740733333333, "fusion_lon": 0.0, "fusion_lat": 0.0, "lon": -77.02716266666667, "bike_id": "e249628a8a7228495a4f0215aab264a0", "rental_uris": {"ios": "https://dc.lft.to/lastmile_qr_scan", "android": "https://dc.lft.to/lastmile_qr_scan"}}, {"type": "electric_scooter", "is_reserved": 0, "name": "e926f6665054a62e7a5788cebe88f193", "is_disabled": 0, "lat": 38.9181875, "fusion_lon": 0.0, "fusion_lat": 0.0, "lon": -77.03916133333334, "bike_id": "e926f6665054a62e7a5788cebe88f193", "rental_uris": {"ios": "https://dc.lft.to/lastmile_qr_scan", "android": "https://dc.lft.to/lastmile_qr_scan"}}, {"type": "electric_scooter", "is_reserved": 0, "name": "7ac2c3d66cefded3288562f525347c30", "is_disabled": 0, "lat": 38.932806166666666, "fusion_lon": 0.0, "fusion_lat": 0.0, "lon": -77.02840733333333, "bike_id": "7ac2c3d66cefded3288562f525347c30", "rental_uris": {"ios": "https://dc.lft.to/lastmile_qr_scan", "android": "https://dc.lft.to/lastmile_qr_scan"}}, {"type": "electric_scooter", "is_reserved": 0, "name": "61c13aace84726ecbf028e6c28b95d5a", "is_disabled": 0, "lat": 38.917368, "fusion_lon": 0.0, "fusion_lat": 0.0, "lon": -77.0366125, "bike_id": "61c13aace84726ecbf028e6c28b95d5a", "rental_uris": {"ios": "https://dc.lft.to/lastmile_qr_scan", "android": "https://dc.lft.to/lastmile_qr_scan"}}, {"type": "electric_scooter", "is_reserved": 0, "name": "0e2748a07448e10278f52983c7f1e342", "is_disabled": 0, "lat": 38.91588333333333, "fusion_lon": 0.0, "fusion_lat": 0.0, "lon": -77.04679433333334, "bike_id": "0e2748a07448e10278f52983c7f1e342", "rental_uris": {"ios": "https://dc.lft.to/lastmile_qr_scan", "android": "https://dc.lft.to/lastmile_qr_scan"}}, {"type": "electric_scooter", "is_reserved": 0, "name": "07ec783b75cea05230c74accb0fa6c42", "is_disabled": 0, "lat": 38.91708033333333, "fusion_lon": 0.0, "fusion_lat": 0.0, "lon": -77.03504683333334, "bike_id": "07ec783b75cea05230c74accb0fa6c42", "rental_uris": {"ios": "https://dc.lft.to/lastmile_qr_scan", "android": "https://dc.lft.to/lastmile_qr_scan"}}, {"type": "electric_scooter", "is_reserved": 0, "name": "ba462977a1cf46d9923dd47245b1d910", "is_disabled": 0, "lat": 38.8843105, "fusion_lon": 0.0, "fusion_lat": 0.0, "lon": -77.02775, "bike_id": "ba462977a1cf46d9923dd47245b1d910", "rental_uris": {"ios": "https://dc.lft.to/lastmile_qr_scan", "android": "https://dc.lft.to/lastmile_qr_scan"}}, {"type": "electric_scooter", "is_reserved": 0, "name": "540685f20e1630bfa2a2f2ed60a30715", "is_disabled": 0, "lat": 38.90736366666667, "fusion_lon": 0.0, "fusion_lat": 0.0, "lon": -77.0280685, "bike_id": "540685f20e1630bfa2a2f2ed60a30715", "rental_uris": {"ios": "https://dc.lft.to/lastmile_qr_scan", "android": "https://dc.lft.to/lastmile_qr_scan"}}, {"type": "electric_scooter", "is_reserved": 0, "name": "a8b12230140354f4dec53a8e5a129fce", "is_disabled": 0, "lat": 38.901457, "fusion_lon": 0.0, "fusion_lat": 0.0, "lon": -77.00303416666667, "bike_id": "a8b12230140354f4dec53a8e5a129fce", "rental_uris": {"ios": "https://dc.lft.to/lastmile_qr_scan", "android": "https://dc.lft.to/lastmile_qr_scan"}}, {"type": "electric_scooter", "is_reserved": 0, "name": "e79428113d1fbb4750666ec094dedc2a", "is_disabled": 0, "lat": 38.90226916666667, "fusion_lon": 0.0, "fusion_lat": 0.0, "lon": -77.06024783333334, "bike_id": "e79428113d1fbb4750666ec094dedc2a", "rental_uris": {"ios": "https://dc.lft.to/lastmile_qr_scan", "android": "https://dc.lft.to/lastmile_qr_scan"}}, {"type": "electric_scooter", "is_reserved": 0, "name": "27f20be25feb76612d003a9b0a4f3d5d", "is_disabled": 0, "lat": 38.9358155, "fusion_lon": 0.0, "fusion_lat": 0.0, "lon": -77.03749466666666, "bike_id": "27f20be25feb76612d003a9b0a4f3d5d", "rental_uris": {"ios": "https://dc.lft.to/lastmile_qr_scan", "android": "https://dc.lft.to/lastmile_qr_scan"}}, {"type": "electric_scooter", "is_reserved": 0, "name": "62ebf54dae29aea30b73b6793e81f716", "is_disabled": 0, "lat": 38.923567, "fusion_lon": 0.0, "fusion_lat": 0.0, "lon": -77.050205, "bike_id": "62ebf54dae29aea30b73b6793e81f716", "rental_uris": {"ios": "https://dc.lft.to/lastmile_qr_scan", "android": "https://dc.lft.to/lastmile_qr_scan"}}, {"type": "electric_scooter", "is_reserved": 0, "name": "d5c4a97a11425a20c199a4cac8fa5591", "is_disabled": 0, "lat": 38.92556283333333, "fusion_lon": 0.0, "fusion_lat": 0.0, "lon": -77.05267916666666, "bike_id": "d5c4a97a11425a20c199a4cac8fa5591", "rental_uris": {"ios": "https://dc.lft.to/lastmile_qr_scan", "android": "https://dc.lft.to/lastmile_qr_scan"}}, {"type": "electric_scooter", "is_reserved": 0, "name": "29508f3964fbcafa187a2f405c5cf7aa", "is_disabled": 0, "lat": 38.86622583333333, "fusion_lon": 0.0, "fusion_lat": 0.0, "lon": -76.9866255, "bike_id": "29508f3964fbcafa187a2f405c5cf7aa", "rental_uris": {"ios": "https://dc.lft.to/lastmile_qr_scan", "android": "https://dc.lft.to/lastmile_qr_scan"}}, {"type": "electric_scooter", "is_reserved": 0, "name": "652b1481ec1f7a8a7a2993a861d6bf6f", "is_disabled": 0, "lat": 38.91814566666667, "fusion_lon": 0.0, "fusion_lat": 0.0, "lon": -77.0366585, "bike_id": "652b1481ec1f7a8a7a2993a861d6bf6f", "rental_uris": {"ios": "https://dc.lft.to/lastmile_qr_scan", "android": "https://dc.lft.to/lastmile_qr_scan"}}, {"type": "electric_scooter", "is_reserved": 0, "name": "bf70a40ab12101875ac90833d82a380d", "is_disabled": 0, "lat": 38.923632166666664, "fusion_lon": 0.0, "fusion_lat": 0.0, "lon": -77.05049766666667, "bike_id": "bf70a40ab12101875ac90833d82a380d", "rental_uris": {"ios": "https://dc.lft.to/lastmile_qr_scan", "android": "https://dc.lft.to/lastmile_qr_scan"}}, {"type": "electric_scooter", "is_reserved": 0, "name": "c7c78371df0b6e8f68fd8873d4cd1b2a", "is_disabled": 0, "lat": 38.9027955, "fusion_lon": 0.0, "fusion_lat": 0.0, "lon": -77.04030866666666, "bike_id": "c7c78371df0b6e8f68fd8873d4cd1b2a", "rental_uris": {"ios": "https://dc.lft.to/lastmile_qr_scan", "android": "https://dc.lft.to/lastmile_qr_scan"}}, {"type": "electric_scooter", "is_reserved": 0, "name": "91709b8b5afa3925e674e72dd935f3d0", "is_disabled": 0, "lat": 38.90301566666667, "fusion_lon": 0.0, "fusion_lat": 0.0, "lon": -77.04167433333333, "bike_id": "91709b8b5afa3925e674e72dd935f3d0", "rental_uris": {"ios": "https://dc.lft.to/lastmile_qr_scan", "android": "https://dc.lft.to/lastmile_qr_scan"}}, {"type": "electric_scooter", "is_reserved": 0, "name": "53828dcf58685c445a7127bdda97eaca", "is_disabled": 0, "lat": 38.9361165, "fusion_lon": 0.0, "fusion_lat": 0.0, "lon": -77.0585565, "bike_id": "53828dcf58685c445a7127bdda97eaca", "rental_uris": {"ios": "https://dc.lft.to/lastmile_qr_scan", "android": "https://dc.lft.to/lastmile_qr_scan"}}, {"type": "electric_scooter", "is_reserved": 0, "name": "6812331a8009d80f5a249b4c37777ac9", "is_disabled": 0, "lat": 38.9024805, "fusion_lon": 0.0, "fusion_lat": 0.0, "lon": -77.06266966666666, "bike_id": "6812331a8009d80f5a249b4c37777ac9", "rental_uris": {"ios": "https://dc.lft.to/lastmile_qr_scan", "android": "https://dc.lft.to/lastmile_qr_scan"}}, {"type": "electric_bike", "is_reserved": 0, "name": "47e331e4684a511065e1870439e2bd09", "is_disabled": 0, "lat": 38.8709265, "fusion_lon": 0.0, "fusion_lat": 0.0, "lon": -77.01200216666666, "bike_id": "47e331e4684a511065e1870439e2bd09", "rental_uris": {"ios": "https://dc.lft.to/lastmile_qr_scan", "android": "https://dc.lft.to/lastmile_qr_scan"}}, {"type": "electric_scooter", "is_reserved": 0, "name": "4491ce51e5ca2af83603ba0bdfd8d610", "is_disabled": 0, "lat": 38.91614233333333, "fusion_lon": 0.0, "fusion_lat": 0.0, "lon": -77.0171815, "bike_id": "4491ce51e5ca2af83603ba0bdfd8d610", "rental_uris": {"ios": "https://dc.lft.to/lastmile_qr_scan", "android": "https://dc.lft.to/lastmile_qr_scan"}}, {"type": "electric_scooter", "is_reserved": 0, "name": "fb42b84d88e98af0be3723dbefaac87c", "is_disabled": 0, "lat": 38.9167955, "fusion_lon": 0.0, "fusion_lat": 0.0, "lon": -77.022818, "bike_id": "fb42b84d88e98af0be3723dbefaac87c", "rental_uris": {"ios": "https://dc.lft.to/lastmile_qr_scan", "android": "https://dc.lft.to/lastmile_qr_scan"}}, {"type": "electric_scooter", "is_reserved": 0, "name": "0df14f6329736d667c5f88bbbd58bcc0", "is_disabled": 0, "lat": 38.90788766666667, "fusion_lon": 0.0, "fusion_lat": 0.0, "lon": -77.0319235, "bike_id": "0df14f6329736d667c5f88bbbd58bcc0", "rental_uris": {"ios": "https://dc.lft.to/lastmile_qr_scan", "android": "https://dc.lft.to/lastmile_qr_scan"}}, {"type": "electric_bike", "is_reserved": 0, "name": "3b5a3082bf89169436d10b3ce940dbc2", "is_disabled": 0, "lat": 38.950817, "fusion_lon": 0.0, "fusion_lat": 0.0, "lon": -77.01204616666666, "bike_id": "3b5a3082bf89169436d10b3ce940dbc2", "rental_uris": {"ios": "https://dc.lft.to/lastmile_qr_scan", "android": "https://dc.lft.to/lastmile_qr_scan"}}, {"type": "electric_bike", "is_reserved": 0, "name": "eca2862023e91c51cd6cb46a93f533df", "is_disabled": 0, "lat": 38.882714166666666, "fusion_lon": 0.0, "fusion_lat": 0.0, "lon": -76.93250216666667, "bike_id": "eca2862023e91c51cd6cb46a93f533df", "rental_uris": {"ios": "https://dc.lft.to/lastmile_qr_scan", "android": "https://dc.lft.to/lastmile_qr_scan"}}, {"type": "electric_scooter", "is_reserved": 0, "name": "305451011fe8ef6e29c109021bc7a591", "is_disabled": 0, "lat": 38.9062485, "fusion_lon": 0.0, "fusion_lat": 0.0, "lon": -77.02181483333334, "bike_id": "305451011fe8ef6e29c109021bc7a591", "rental_uris": {"ios": "https://dc.lft.to/lastmile_qr_scan", "android": "https://dc.lft.to/lastmile_qr_scan"}}, {"type": "electric_scooter", "is_reserved": 0, "name": "ddd48d0d599b5bc5d3a99bb66e4cf1a3", "is_disabled": 0, "lat": 38.93295, "fusion_lon": 0.0, "fusion_lat": 0.0, "lon": -77.0219505, "bike_id": "ddd48d0d599b5bc5d3a99bb66e4cf1a3", "rental_uris": {"ios": "https://dc.lft.to/lastmile_qr_scan", "android": "https://dc.lft.to/lastmile_qr_scan"}}, {"type": "electric_scooter", "is_reserved": 0, "name": "ab99bac9ccb9f062a7ab8ab06ef38396", "is_disabled": 0, "lat": 38.89892716666667, "fusion_lon": 0.0, "fusion_lat": 0.0, "lon": -77.0723485, "bike_id": "ab99bac9ccb9f062a7ab8ab06ef38396", "rental_uris": {"ios": "https://dc.lft.to/lastmile_qr_scan", "android": "https://dc.lft.to/lastmile_qr_scan"}}, {"type": "electric_scooter", "is_reserved": 0, "name": "6bd6f63b6ede7005acd9b45e63ed66f5", "is_disabled": 0, "lat": 38.9237165, "fusion_lon": 0.0, "fusion_lat": 0.0, "lon": -77.0253515, "bike_id": "6bd6f63b6ede7005acd9b45e63ed66f5", "rental_uris": {"ios": "https://dc.lft.to/lastmile_qr_scan", "android": "https://dc.lft.to/lastmile_qr_scan"}}, {"type": "electric_scooter", "is_reserved": 0, "name": "3a1bd5ac57675565dcc9c782852b509d", "is_disabled": 0, "lat": 38.92301033333333, "fusion_lon": 0.0, "fusion_lat": 0.0, "lon": -77.02328466666667, "bike_id": "3a1bd5ac57675565dcc9c782852b509d", "rental_uris": {"ios": "https://dc.lft.to/lastmile_qr_scan", "android": "https://dc.lft.to/lastmile_qr_scan"}}, {"type": "electric_scooter", "is_reserved": 0, "name": "27a1792c1919b99fddbe2a15f70d1b34", "is_disabled": 0, "lat": 38.9081155, "fusion_lon": 0.0, "fusion_lat": 0.0, "lon": -77.034441, "bike_id": "27a1792c1919b99fddbe2a15f70d1b34", "rental_uris": {"ios": "https://dc.lft.to/lastmile_qr_scan", "android": "https://dc.lft.to/lastmile_qr_scan"}}, {"type": "electric_scooter", "is_reserved": 0, "name": "565a24d16e1ce450455dd135b2f47427", "is_disabled": 0, "lat": 38.89516533333333, "fusion_lon": 0.0, "fusion_lat": 0.0, "lon": -77.01977866666667, "bike_id": "565a24d16e1ce450455dd135b2f47427", "rental_uris": {"ios": "https://dc.lft.to/lastmile_qr_scan", "android": "https://dc.lft.to/lastmile_qr_scan"}}, {"type": "electric_scooter", "is_reserved": 0, "name": "c422e507186bfd3c7a938eaa4a6bd87d", "is_disabled": 0, "lat": 38.918451833333336, "fusion_lon": 0.0, "fusion_lat": 0.0, "lon": -77.03642583333334, "bike_id": "c422e507186bfd3c7a938eaa4a6bd87d", "rental_uris": {"ios": "https://dc.lft.to/lastmile_qr_scan", "android": "https://dc.lft.to/lastmile_qr_scan"}}, {"type": "electric_scooter", "is_reserved": 0, "name": "8ad870f91f873d4b0bdc36f445091058", "is_disabled": 0, "lat": 38.91265966666667, "fusion_lon": 0.0, "fusion_lat": 0.0, "lon": -77.045469, "bike_id": "8ad870f91f873d4b0bdc36f445091058", "rental_uris": {"ios": "https://dc.lft.to/lastmile_qr_scan", "android": "https://dc.lft.to/lastmile_qr_scan"}}, {"type": "electric_scooter", "is_reserved": 0, "name": "ba92f82a69ae4353d6d291c2000a0cb7", "is_disabled": 0, "lat": 38.9341595, "fusion_lon": 0.0, "fusion_lat": 0.0, "lon": -77.03289683333334, "bike_id": "ba92f82a69ae4353d6d291c2000a0cb7", "rental_uris": {"ios": "https://dc.lft.to/lastmile_qr_scan", "android": "https://dc.lft.to/lastmile_qr_scan"}}, {"type": "electric_scooter", "is_reserved": 0, "name": "bd4837e8537a8f9d559792d554b89730", "is_disabled": 0, "lat": 38.883676666666666, "fusion_lon": 0.0, "fusion_lat": 0.0, "lon": -76.99506266666667, "bike_id": "bd4837e8537a8f9d559792d554b89730", "rental_uris": {"ios": "https://dc.lft.to/lastmile_qr_scan", "android": "https://dc.lft.to/lastmile_qr_scan"}}, {"type": "electric_scooter", "is_reserved": 0, "name": "2bb7facc1259df790c74a7afad4d9ed4", "is_disabled": 0, "lat": 38.8836405, "fusion_lon": 0.0, "fusion_lat": 0.0, "lon": -76.94154366666666, "bike_id": "2bb7facc1259df790c74a7afad4d9ed4", "rental_uris": {"ios": "https://dc.lft.to/lastmile_qr_scan", "android": "https://dc.lft.to/lastmile_qr_scan"}}, {"type": "electric_scooter", "is_reserved": 0, "name": "23b86055757af9c8165970facb8c76c6", "is_disabled": 0, "lat": 38.920649, "fusion_lon": 0.0, "fusion_lat": 0.0, "lon": -77.0788865, "bike_id": "23b86055757af9c8165970facb8c76c6", "rental_uris": {"ios": "https://dc.lft.to/lastmile_qr_scan", "android": "https://dc.lft.to/lastmile_qr_scan"}}, {"type": "electric_scooter", "is_reserved": 0, "name": "d34140de8757f297ca3da40989969a47", "is_disabled": 0, "lat": 38.87630633333333, "fusion_lon": 0.0, "fusion_lat": 0.0, "lon": -76.96528283333333, "bike_id": "d34140de8757f297ca3da40989969a47", "rental_uris": {"ios": "https://dc.lft.to/lastmile_qr_scan", "android": "https://dc.lft.to/lastmile_qr_scan"}}, {"type": "electric_scooter", "is_reserved": 0, "name": "eb70d959ddaea0e56cb234e86322078c", "is_disabled": 0, "lat": 38.92538116666667, "fusion_lon": 0.0, "fusion_lat": 0.0, "lon": -77.02635116666667, "bike_id": "eb70d959ddaea0e56cb234e86322078c", "rental_uris": {"ios": "https://dc.lft.to/lastmile_qr_scan", "android": "https://dc.lft.to/lastmile_qr_scan"}}, {"type": "electric_scooter", "is_reserved": 0, "name": "895481a70fdb411a88cf49fc7eb8787b", "is_disabled": 0, "lat": 38.936086833333334, "fusion_lon": 0.0, "fusion_lat": 0.0, "lon": -77.05855483333333, "bike_id": "895481a70fdb411a88cf49fc7eb8787b", "rental_uris": {"ios": "https://dc.lft.to/lastmile_qr_scan", "android": "https://dc.lft.to/lastmile_qr_scan"}}, {"type": "electric_bike", "is_reserved": 0, "name": "af555cefc0e3380f890b71ef844055be", "is_disabled": 0, "lat": 38.958912833333336, "fusion_lon": 0.0, "fusion_lat": 0.0, "lon": -76.924943, "bike_id": "af555cefc0e3380f890b71ef844055be", "rental_uris": {"ios": "https://dc.lft.to/lastmile_qr_scan", "android": "https://dc.lft.to/lastmile_qr_scan"}}, {"type": "electric_scooter", "is_reserved": 0, "name": "8df182ed15bd54fec812c3d860a37533", "is_disabled": 0, "lat": 38.917272, "fusion_lon": 0.0, "fusion_lat": 0.0, "lon": -77.03209216666667, "bike_id": "8df182ed15bd54fec812c3d860a37533", "rental_uris": {"ios": "https://dc.lft.to/lastmile_qr_scan", "android": "https://dc.lft.to/lastmile_qr_scan"}}, {"type": "electric_scooter", "is_reserved": 0, "name": "833a47b9ff99a130617d2ad1da6a6641", "is_disabled": 0, "lat": 38.90777216666667, "fusion_lon": 0.0, "fusion_lat": 0.0, "lon": -77.038563, "bike_id": "833a47b9ff99a130617d2ad1da6a6641", "rental_uris": {"ios": "https://dc.lft.to/lastmile_qr_scan", "android": "https://dc.lft.to/lastmile_qr_scan"}}, {"type": "electric_scooter", "is_reserved": 0, "name": "bc1ffa56e7aceac53015371834ef3a1f", "is_disabled": 0, "lat": 38.9374005, "fusion_lon": 0.0, "fusion_lat": 0.0, "lon": -77.03625633333333, "bike_id": "bc1ffa56e7aceac53015371834ef3a1f", "rental_uris": {"ios": "https://dc.lft.to/lastmile_qr_scan", "android": "https://dc.lft.to/lastmile_qr_scan"}}, {"type": "electric_scooter", "is_reserved": 0, "name": "b5c39f9ec4ba800943b575064948a808", "is_disabled": 0, "lat": 38.907388833333336, "fusion_lon": 0.0, "fusion_lat": 0.0, "lon": -77.00362183333333, "bike_id": "b5c39f9ec4ba800943b575064948a808", "rental_uris": {"ios": "https://dc.lft.to/lastmile_qr_scan", "android": "https://dc.lft.to/lastmile_qr_scan"}}, {"type": "electric_scooter", "is_reserved": 0, "name": "9483d11e466cf7fda49915b59fb8c56e", "is_disabled": 0, "lat": 38.905602, "fusion_lon": 0.0, "fusion_lat": 0.0, "lon": -77.02798516666667, "bike_id": "9483d11e466cf7fda49915b59fb8c56e", "rental_uris": {"ios": "https://dc.lft.to/lastmile_qr_scan", "android": "https://dc.lft.to/lastmile_qr_scan"}}, {"type": "electric_bike", "is_reserved": 0, "name": "779f0d602e3a6cb9e921e6879bb837af", "is_disabled": 0, "lat": 38.8278315, "fusion_lon": 0.0, "fusion_lat": 0.0, "lon": -77.00914566666667, "bike_id": "779f0d602e3a6cb9e921e6879bb837af", "rental_uris": {"ios": "https://dc.lft.to/lastmile_qr_scan", "android": "https://dc.lft.to/lastmile_qr_scan"}}, {"type": "electric_bike", "is_reserved": 0, "name": "d77e72f750445ab7ec9cf512791663f6", "is_disabled": 0, "lat": 38.986523166666665, "fusion_lon": 0.0, "fusion_lat": 0.0, "lon": -77.056336, "bike_id": "d77e72f750445ab7ec9cf512791663f6", "rental_uris": {"ios": "https://dc.lft.to/lastmile_qr_scan", "android": "https://dc.lft.to/lastmile_qr_scan"}}, {"type": "electric_scooter", "is_reserved": 0, "name": "44220aae524e51b436a6c09df1e1ebe7", "is_disabled": 0, "lat": 38.906349166666665, "fusion_lon": 0.0, "fusion_lat": 0.0, "lon": -77.06277933333334, "bike_id": "44220aae524e51b436a6c09df1e1ebe7", "rental_uris": {"ios": "https://dc.lft.to/lastmile_qr_scan", "android": "https://dc.lft.to/lastmile_qr_scan"}}, {"type": "electric_scooter", "is_reserved": 0, "name": "8c905c288a578030944c6c47b7dc2de8", "is_disabled": 0, "lat": 38.922872, "fusion_lon": 0.0, "fusion_lat": 0.0, "lon": -77.03898366666667, "bike_id": "8c905c288a578030944c6c47b7dc2de8", "rental_uris": {"ios": "https://dc.lft.to/lastmile_qr_scan", "android": "https://dc.lft.to/lastmile_qr_scan"}}, {"type": "electric_scooter", "is_reserved": 0, "name": "027a45be898224913e07f7cdc40b70b2", "is_disabled": 0, "lat": 38.931890833333334, "fusion_lon": 0.0, "fusion_lat": 0.0, "lon": -77.02834316666667, "bike_id": "027a45be898224913e07f7cdc40b70b2", "rental_uris": {"ios": "https://dc.lft.to/lastmile_qr_scan", "android": "https://dc.lft.to/lastmile_qr_scan"}}, {"type": "electric_scooter", "is_reserved": 0, "name": "e9305c1def1005c48be6674d10b43d6d", "is_disabled": 0, "lat": 38.918044333333334, "fusion_lon": 0.0, "fusion_lat": 0.0, "lon": -77.04012666666667, "bike_id": "e9305c1def1005c48be6674d10b43d6d", "rental_uris": {"ios": "https://dc.lft.to/lastmile_qr_scan", "android": "https://dc.lft.to/lastmile_qr_scan"}}, {"type": "electric_scooter", "is_reserved": 0, "name": "72d3f0a9e12d4ed0680f172650dde401", "is_disabled": 0, "lat": 38.904151, "fusion_lon": 0.0, "fusion_lat": 0.0, "lon": -77.050573, "bike_id": "72d3f0a9e12d4ed0680f172650dde401", "rental_uris": {"ios": "https://dc.lft.to/lastmile_qr_scan", "android": "https://dc.lft.to/lastmile_qr_scan"}}, {"type": "electric_scooter", "is_reserved": 0, "name": "88e6ff2f7740ae3fd16ef4dc23d4740c", "is_disabled": 0, "lat": 38.900362, "fusion_lon": 0.0, "fusion_lat": 0.0, "lon": -76.99025333333333, "bike_id": "88e6ff2f7740ae3fd16ef4dc23d4740c", "rental_uris": {"ios": "https://dc.lft.to/lastmile_qr_scan", "android": "https://dc.lft.to/lastmile_qr_scan"}}, {"type": "electric_scooter", "is_reserved": 0, "name": "4f36d830e8fdf205a6da9cbebc0cdcc9", "is_disabled": 0, "lat": 38.88602983333333, "fusion_lon": 0.0, "fusion_lat": 0.0, "lon": -77.01895433333334, "bike_id": "4f36d830e8fdf205a6da9cbebc0cdcc9", "rental_uris": {"ios": "https://dc.lft.to/lastmile_qr_scan", "android": "https://dc.lft.to/lastmile_qr_scan"}}, {"type": "electric_scooter", "is_reserved": 0, "name": "b33a9e217d5d3c023bc574ea371f16d8", "is_disabled": 0, "lat": 38.90728566666667, "fusion_lon": 0.0, "fusion_lat": 0.0, "lon": -77.02415233333333, "bike_id": "b33a9e217d5d3c023bc574ea371f16d8", "rental_uris": {"ios": "https://dc.lft.to/lastmile_qr_scan", "android": "https://dc.lft.to/lastmile_qr_scan"}}, {"type": "electric_scooter", "is_reserved": 0, "name": "4fd95e22fe1de940918210d84a8012db", "is_disabled": 0, "lat": 38.8964785, "fusion_lon": 0.0, "fusion_lat": 0.0, "lon": -77.03331866666667, "bike_id": "4fd95e22fe1de940918210d84a8012db", "rental_uris": {"ios": "https://dc.lft.to/lastmile_qr_scan", "android": "https://dc.lft.to/lastmile_qr_scan"}}, {"type": "electric_bike", "is_reserved": 0, "name": "9a9a39bdaa78b5cad5be1a2367984f42", "is_disabled": 0, "lat": 38.88680766666667, "fusion_lon": 0.0, "fusion_lat": 0.0, "lon": -77.16252666666666, "bike_id": "9a9a39bdaa78b5cad5be1a2367984f42", "rental_uris": {"ios": "https://dc.lft.to/lastmile_qr_scan", "android": "https://dc.lft.to/lastmile_qr_scan"}}, {"type": "electric_scooter", "is_reserved": 0, "name": "3f87163145265aaa2ba1e9c0537db6e3", "is_disabled": 0, "lat": 38.9169535, "fusion_lon": 0.0, "fusion_lat": 0.0, "lon": -76.97952183333334, "bike_id": "3f87163145265aaa2ba1e9c0537db6e3", "rental_uris": {"ios": "https://dc.lft.to/lastmile_qr_scan", "android": "https://dc.lft.to/lastmile_qr_scan"}}, {"type": "electric_scooter", "is_reserved": 0, "name": "d01bf521224e747f2fa493e604b1405f", "is_disabled": 0, "lat": 38.908289, "fusion_lon": 0.0, "fusion_lat": 0.0, "lon": -77.02012283333333, "bike_id": "d01bf521224e747f2fa493e604b1405f", "rental_uris": {"ios": "https://dc.lft.to/lastmile_qr_scan", "android": "https://dc.lft.to/lastmile_qr_scan"}}, {"type": "electric_bike", "is_reserved": 0, "name": "06149c54433a8837d8174478c65bfff9", "is_disabled": 0, "lat": 38.8854775, "fusion_lon": 0.0, "fusion_lat": 0.0, "lon": -77.1178535, "bike_id": "06149c54433a8837d8174478c65bfff9", "rental_uris": {"ios": "https://dc.lft.to/lastmile_qr_scan", "android": "https://dc.lft.to/lastmile_qr_scan"}}, {"type": "electric_scooter", "is_reserved": 0, "name": "64494080683af84aea8cef0b11d5705b", "is_disabled": 0, "lat": 38.92872583333333, "fusion_lon": 0.0, "fusion_lat": 0.0, "lon": -77.03295416666667, "bike_id": "64494080683af84aea8cef0b11d5705b", "rental_uris": {"ios": "https://dc.lft.to/lastmile_qr_scan", "android": "https://dc.lft.to/lastmile_qr_scan"}}, {"type": "electric_scooter", "is_reserved": 0, "name": "7c0d878ba92276aa2056c3a380ecaeb3", "is_disabled": 0, "lat": 38.90248283333333, "fusion_lon": 0.0, "fusion_lat": 0.0, "lon": -77.0436865, "bike_id": "7c0d878ba92276aa2056c3a380ecaeb3", "rental_uris": {"ios": "https://dc.lft.to/lastmile_qr_scan", "android": "https://dc.lft.to/lastmile_qr_scan"}}, {"type": "electric_scooter", "is_reserved": 0, "name": "049ccd0f37d704cbeca31f2085bc745b", "is_disabled": 0, "lat": 38.866916, "fusion_lon": 0.0, "fusion_lat": 0.0, "lon": -76.98547033333334, "bike_id": "049ccd0f37d704cbeca31f2085bc745b", "rental_uris": {"ios": "https://dc.lft.to/lastmile_qr_scan", "android": "https://dc.lft.to/lastmile_qr_scan"}}, {"type": "electric_scooter", "is_reserved": 0, "name": "aa2f845a7320de9000a70dfbfc9d55ef", "is_disabled": 0, "lat": 38.915867666666664, "fusion_lon": 0.0, "fusion_lat": 0.0, "lon": -77.04683516666667, "bike_id": "aa2f845a7320de9000a70dfbfc9d55ef", "rental_uris": {"ios": "https://dc.lft.to/lastmile_qr_scan", "android": "https://dc.lft.to/lastmile_qr_scan"}}, {"type": "electric_scooter", "is_reserved": 0, "name": "67f7de91e8dfe631fd2fbe26af080a04", "is_disabled": 0, "lat": 38.917115833333334, "fusion_lon": 0.0, "fusion_lat": 0.0, "lon": -77.04682333333334, "bike_id": "67f7de91e8dfe631fd2fbe26af080a04", "rental_uris": {"ios": "https://dc.lft.to/lastmile_qr_scan", "android": "https://dc.lft.to/lastmile_qr_scan"}}, {"type": "electric_scooter", "is_reserved": 0, "name": "c1486451890d7a4c5ce98196cd02ac71", "is_disabled": 0, "lat": 38.918209833333336, "fusion_lon": 0.0, "fusion_lat": 0.0, "lon": -77.03451683333333, "bike_id": "c1486451890d7a4c5ce98196cd02ac71", "rental_uris": {"ios": "https://dc.lft.to/lastmile_qr_scan", "android": "https://dc.lft.to/lastmile_qr_scan"}}, {"type": "electric_scooter", "is_reserved": 0, "name": "d2b6355c7f3c122e0221a1a9cd5911cc", "is_disabled": 0, "lat": 38.91447016666667, "fusion_lon": 0.0, "fusion_lat": 0.0, "lon": -77.03202933333333, "bike_id": "d2b6355c7f3c122e0221a1a9cd5911cc", "rental_uris": {"ios": "https://dc.lft.to/lastmile_qr_scan", "android": "https://dc.lft.to/lastmile_qr_scan"}}, {"type": "electric_scooter", "is_reserved": 0, "name": "1d1ebdc6cfef160413d7aae0e632b39f", "is_disabled": 0, "lat": 38.923284, "fusion_lon": 0.0, "fusion_lat": 0.0, "lon": -77.029645, "bike_id": "1d1ebdc6cfef160413d7aae0e632b39f", "rental_uris": {"ios": "https://dc.lft.to/lastmile_qr_scan", "android": "https://dc.lft.to/lastmile_qr_scan"}}, {"type": "electric_scooter", "is_reserved": 0, "name": "88035a5d04941ca4803221c43a03c348", "is_disabled": 0, "lat": 38.9211465, "fusion_lon": 0.0, "fusion_lat": 0.0, "lon": -77.03178183333333, "bike_id": "88035a5d04941ca4803221c43a03c348", "rental_uris": {"ios": "https://dc.lft.to/lastmile_qr_scan", "android": "https://dc.lft.to/lastmile_qr_scan"}}, {"type": "electric_scooter", "is_reserved": 0, "name": "506dd498ef9d345079e7bd80a8ff1886", "is_disabled": 0, "lat": 38.895570666666664, "fusion_lon": 0.0, "fusion_lat": 0.0, "lon": -76.9337, "bike_id": "506dd498ef9d345079e7bd80a8ff1886", "rental_uris": {"ios": "https://dc.lft.to/lastmile_qr_scan", "android": "https://dc.lft.to/lastmile_qr_scan"}}, {"type": "electric_scooter", "is_reserved": 0, "name": "8637ec347627fc6bc611b970f74a3375", "is_disabled": 0, "lat": 38.915519333333336, "fusion_lon": 0.0, "fusion_lat": 0.0, "lon": -77.034984, "bike_id": "8637ec347627fc6bc611b970f74a3375", "rental_uris": {"ios": "https://dc.lft.to/lastmile_qr_scan", "android": "https://dc.lft.to/lastmile_qr_scan"}}, {"type": "electric_scooter", "is_reserved": 0, "name": "6e034bb1994fccf1326949f7bf2118ac", "is_disabled": 0, "lat": 38.9052495, "fusion_lon": 0.0, "fusion_lat": 0.0, "lon": -77.06094516666667, "bike_id": "6e034bb1994fccf1326949f7bf2118ac", "rental_uris": {"ios": "https://dc.lft.to/lastmile_qr_scan", "android": "https://dc.lft.to/lastmile_qr_scan"}}, {"type": "electric_scooter", "is_reserved": 0, "name": "f29d17955a601f7c88354981db5645fc", "is_disabled": 0, "lat": 38.929087833333334, "fusion_lon": 0.0, "fusion_lat": 0.0, "lon": -77.01660816666667, "bike_id": "f29d17955a601f7c88354981db5645fc", "rental_uris": {"ios": "https://dc.lft.to/lastmile_qr_scan", "android": "https://dc.lft.to/lastmile_qr_scan"}}, {"type": "electric_bike", "is_reserved": 0, "name": "54e4cf7848401025485b9ac7be147514", "is_disabled": 0, "lat": 38.900382666666665, "fusion_lon": 0.0, "fusion_lat": 0.0, "lon": -76.97186066666667, "bike_id": "54e4cf7848401025485b9ac7be147514", "rental_uris": {"ios": "https://dc.lft.to/lastmile_qr_scan", "android": "https://dc.lft.to/lastmile_qr_scan"}}, {"type": "electric_scooter", "is_reserved": 0, "name": "f0921269f3a2cc1ed226d9d52bebcbc8", "is_disabled": 0, "lat": 38.90006916666667, "fusion_lon": 0.0, "fusion_lat": 0.0, "lon": -76.99843633333333, "bike_id": "f0921269f3a2cc1ed226d9d52bebcbc8", "rental_uris": {"ios": "https://dc.lft.to/lastmile_qr_scan", "android": "https://dc.lft.to/lastmile_qr_scan"}}, {"type": "electric_scooter", "is_reserved": 0, "name": "39fc53641dff2724d8634014a4a6ed87", "is_disabled": 0, "lat": 38.904328, "fusion_lon": 0.0, "fusion_lat": 0.0, "lon": -77.00212433333333, "bike_id": "39fc53641dff2724d8634014a4a6ed87", "rental_uris": {"ios": "https://dc.lft.to/lastmile_qr_scan", "android": "https://dc.lft.to/lastmile_qr_scan"}}, {"type": "electric_scooter", "is_reserved": 0, "name": "196a1617ea3ec7decd3d26752c46bb01", "is_disabled": 0, "lat": 38.898757, "fusion_lon": 0.0, "fusion_lat": 0.0, "lon": -77.0397305, "bike_id": "196a1617ea3ec7decd3d26752c46bb01", "rental_uris": {"ios": "https://dc.lft.to/lastmile_qr_scan", "android": "https://dc.lft.to/lastmile_qr_scan"}}, {"type": "electric_scooter", "is_reserved": 0, "name": "c2d9b332ab623461f00e6d3f2d41bd19", "is_disabled": 0, "lat": 38.93253383333333, "fusion_lon": 0.0, "fusion_lat": 0.0, "lon": -77.03270233333333, "bike_id": "c2d9b332ab623461f00e6d3f2d41bd19", "rental_uris": {"ios": "https://dc.lft.to/lastmile_qr_scan", "android": "https://dc.lft.to/lastmile_qr_scan"}}, {"type": "electric_bike", "is_reserved": 0, "name": "3862bf6b8244e25dd40004e7e80130e0", "is_disabled": 0, "lat": 38.96205, "fusion_lon": 0.0, "fusion_lat": 0.0, "lon": -77.03512166666667, "bike_id": "3862bf6b8244e25dd40004e7e80130e0", "rental_uris": {"ios": "https://dc.lft.to/lastmile_qr_scan", "android": "https://dc.lft.to/lastmile_qr_scan"}}, {"type": "electric_bike", "is_reserved": 0, "name": "fe49e5d191c31f962bf39441bcb82a2d", "is_disabled": 0, "lat": 38.813525, "fusion_lon": 0.0, "fusion_lat": 0.0, "lon": -77.04923733333334, "bike_id": "fe49e5d191c31f962bf39441bcb82a2d", "rental_uris": {"ios": "https://dc.lft.to/lastmile_qr_scan", "android": "https://dc.lft.to/lastmile_qr_scan"}}, {"type": "electric_scooter", "is_reserved": 0, "name": "0d5ae42f530e6f4aa0fecfe9fe5087f3", "is_disabled": 0, "lat": 38.898916166666666, "fusion_lon": 0.0, "fusion_lat": 0.0, "lon": -77.04042816666667, "bike_id": "0d5ae42f530e6f4aa0fecfe9fe5087f3", "rental_uris": {"ios": "https://dc.lft.to/lastmile_qr_scan", "android": "https://dc.lft.to/lastmile_qr_scan"}}, {"type": "electric_scooter", "is_reserved": 0, "name": "c7991de187666a95dfbc45587d4a0374", "is_disabled": 0, "lat": 38.904622333333336, "fusion_lon": 0.0, "fusion_lat": 0.0, "lon": -77.03221733333334, "bike_id": "c7991de187666a95dfbc45587d4a0374", "rental_uris": {"ios": "https://dc.lft.to/lastmile_qr_scan", "android": "https://dc.lft.to/lastmile_qr_scan"}}, {"type": "electric_scooter", "is_reserved": 0, "name": "0075f20321d7ad4cf7fe83f00110cc44", "is_disabled": 0, "lat": 38.924405166666666, "fusion_lon": 0.0, "fusion_lat": 0.0, "lon": -77.04028416666667, "bike_id": "0075f20321d7ad4cf7fe83f00110cc44", "rental_uris": {"ios": "https://dc.lft.to/lastmile_qr_scan", "android": "https://dc.lft.to/lastmile_qr_scan"}}, {"type": "electric_scooter", "is_reserved": 0, "name": "6636bd91dd352473507ef7ac6fd804e8", "is_disabled": 0, "lat": 38.903679, "fusion_lon": 0.0, "fusion_lat": 0.0, "lon": -77.04497233333333, "bike_id": "6636bd91dd352473507ef7ac6fd804e8", "rental_uris": {"ios": "https://dc.lft.to/lastmile_qr_scan", "android": "https://dc.lft.to/lastmile_qr_scan"}}, {"type": "electric_scooter", "is_reserved": 0, "name": "a4f3dd44b49fa44de274358698ebc290", "is_disabled": 0, "lat": 38.91830616666667, "fusion_lon": 0.0, "fusion_lat": 0.0, "lon": -77.0269905, "bike_id": "a4f3dd44b49fa44de274358698ebc290", "rental_uris": {"ios": "https://dc.lft.to/lastmile_qr_scan", "android": "https://dc.lft.to/lastmile_qr_scan"}}, {"type": "electric_scooter", "is_reserved": 0, "name": "1be63f2a6bf5cba8ad4dcbd2896841d1", "is_disabled": 0, "lat": 38.9056195, "fusion_lon": 0.0, "fusion_lat": 0.0, "lon": -77.01771383333333, "bike_id": "1be63f2a6bf5cba8ad4dcbd2896841d1", "rental_uris": {"ios": "https://dc.lft.to/lastmile_qr_scan", "android": "https://dc.lft.to/lastmile_qr_scan"}}, {"type": "electric_scooter", "is_reserved": 0, "name": "46fc5ff439704296dc068f59e0e5ad11", "is_disabled": 0, "lat": 38.86540016666667, "fusion_lon": 0.0, "fusion_lat": 0.0, "lon": -76.98705166666667, "bike_id": "46fc5ff439704296dc068f59e0e5ad11", "rental_uris": {"ios": "https://dc.lft.to/lastmile_qr_scan", "android": "https://dc.lft.to/lastmile_qr_scan"}}, {"type": "electric_scooter", "is_reserved": 0, "name": "8f9f11d0ad84b5fcf2005b80d9536aca", "is_disabled": 0, "lat": 38.91269783333333, "fusion_lon": 0.0, "fusion_lat": 0.0, "lon": -77.03139733333333, "bike_id": "8f9f11d0ad84b5fcf2005b80d9536aca", "rental_uris": {"ios": "https://dc.lft.to/lastmile_qr_scan", "android": "https://dc.lft.to/lastmile_qr_scan"}},