{"data": {"bikes": [{"lon": -77.047151, "lat": 38.899571, "name": "df52c5eef2d241147e93b590b6a97506", "fusion_lat": 0.0, "fusion_lon": 0.0, "rental_uris": {"android": "https://dc.lft.to/lastmile_qr_scan", "ios": "https://dc.lft.to/lastmile_qr_scan"}, "is_reserved": 0, "is_disabled": 0, "type": "electric_scooter", "bike_id": "df52c5eef2d241147e93b590b6a97506"}, {"lon": -77.02962983333333, "lat": 38.90501016666666, "name": "194c751aacb99eb3871658e03923f8e1", "fusion_lat": 0.0, "fusion_lon": 0.0, "rental_uris": {"android": "https://dc.lft.to/lastmile_qr_scan", "ios": "https://dc.lft.to/lastmile_qr_scan"}, "is_reserved": 0, "is_disabled": 0, "type": "electric_scooter", "bike_id": "194c751aacb99eb3871658e03923f8e1"}, {"lon": -76.94729833333334, "lat": 38.89660966666667, "name": "5bd21a75f74f49b475e570eb4750b843", "fusion_lat": 0.0, "fusion_lon": 0.0, "rental_uris": {"android": "https://dc.lft.to/lastmile_qr_scan", "ios": "https://dc.lft.to/lastmile_qr_scan"}, "is_reserved": 0, "is_disabled": 0, "type": "electric_scooter", "bike_id": "5bd21a75f74f49b475e570eb4750b843"}, {"lon": -77.03430016666667, "lat": 38.91926433333333, "name": "ee903a653502459c65ef6f28e94f402a", "fusion_lat": 0.0, "fusion_lon": 0.0, "rental_uris": {"android": "https://dc.lft.to/lastmile_qr_scan", "ios": "https://dc.lft.to/lastmile_qr_scan"}, "is_reserved": 0, "is_disabled": 0, "type": "electric_scooter", "bike_id": "ee903a653502459c65ef6f28e94f402a"}, {"lon": -77.03143416666667, "lat": 38.9279475, "name": "56b83777fbddf495c462bac753324c47", "fusion_lat": 0.0, "fusion_lon": 0.0, "rental_uris": {"android": "https://dc.lft.to/lastmile_qr_scan", "ios": "https://dc.lft.to/lastmile_qr_scan"}, "is_reserved": 0, "is_disabled": 0, "type": "electric_scooter", "bike_id": "56b83777fbddf495c462bac753324c47"}, {"lon": -76.98133966666667, "lat": 38.9049105, "name": "3e714744c8bd01e0ae2e031a22ad0e6f", "fusion_lat": 0.0, "fusion_lon": 0.0, "rental_uris": {"android": "https://dc.lft.to/lastmile_qr_scan", "ios": "https://dc.lft.to/lastmile_qr_scan"}, "is_reserved": 0, "is_disabled": 0, "type": "electric_scooter", "bike_id": "3e714744c8bd01e0ae2e031a22ad0e6f"}, {"lon": -77.01122366666667, "lat": 38.895111666666665, "name": "3eeecae2c767cc2ceaa4cf137cb5867d", "fusion_lat": 0.0, "fusion_lon": 0.0, "rental_uris": {"android": "https://dc.lft.to/lastmile_qr_scan", "ios": "https://dc.lft.to/lastmile_qr_scan"}, "is_reserved": 0, "is_disabled": 0, "type": "electric_scooter", "bike_id": "3eeecae2c767cc2ceaa4cf137cb5867d"}, {"lon": -77.04646433333333, "lat": 38.8520925, "name": "d70a7e45d45763452db6d16048f761ea", "fusion_lat": 0.0, "fusion_lon": 0.0, "rental_uris": {"android": "https://dc.lft.to/lastmile_qr_scan", "ios": "https://dc.lft.to/lastmile_qr_scan"}, "is_reserved": 0, "is_disabled": 0, "type": "electric_bike", "bike_id": "d70a7e45d45763452db6d16048f761ea"}, {"lon": -77.03164566666666, "lat": 38.94457333333333, "name": "6ba8b0473a78c1d3f41cc8dd33c7dcd0", "fusion_lat": 0.0, "fusion_lon": 0.0, "rental_uris": {"android": "https://dc.lft.to/lastmile_qr_scan", "ios": "https://dc.lft.to/lastmile_qr_scan"}, "is_reserved": 0, "is_disabled": 0, "type": "electric_bike", "bike_id": "6ba8b0473a78c1d3f41cc8dd33c7dcd0"}, {"lon": -77.0334145, "lat": 38.900311333333335, "name": "7fa188872f9f01923c3390e12b4bdaf1", "fusion_lat": 0.0, "fusion_lon": 0.0, "rental_uris": {"android": "https://dc.lft.to/lastmile_qr_scan", "ios": "https://dc.lft.to/lastmile_qr_scan"}, "is_reserved": 0, "is_disabled": 0, "type": "electric_scooter", "bike_id": "7fa188872f9f01923c3390e12b4bdaf1"}, {"lon": -76.99946833333334, "lat": 38.84292816666667, "name": "acb4e3d3c6eea9d5efd0b07f5ea31000", "fusion_lat": 0.0, "fusion_lon": 0.0, "rental_uris": {"android": "https://dc.lft.to/lastmile_qr_scan", "ios": "https://dc.lft.to/lastmile_qr_scan"}, "is_reserved": 0, "is_disabled": 0, "type": "electric_scooter", "bike_id": "acb4e3d3c6eea9d5efd0b07f5ea31000"}, {"lon": -77.024918, "lat": 38.9739775, "name": "2871c89ba1095d9e62c111745b530c51", "fusion_lat": 0.0, "fusion_lon": 0.0, "rental_uris": {"android": "https://dc.lft.to/lastmile_qr_scan", "ios": "https://dc.lft.to/lastmile_qr_scan"}, "is_reserved": 0, "is_disabled": 0, "type": "electric_bike", "bike_id": "2871c89ba1095d9e62c111745b530c51"}, {"lon": -76.97332716666666, "lat": 38.904801666666664, "name": "ad538738eb8aee6b00f08f873ecccc03", "fusion_lat": 0.0, "fusion_lon": 0.0, "rental_uris": {"android": "https://dc.lft.to/lastmile_qr_scan", "ios": "https://dc.lft.to/lastmile_qr_scan"}, "is_reserved": 0, "is_disabled": 0, "type": "electric_scooter", "bike_id": "ad538738eb8aee6b00f08f873ecccc03"}, {"lon": -77.03851633333333, "lat": 38.91539733333333, "name": "38376cf76b70996fe021d44edd684938", "fusion_lat": 0.0, "fusion_lon": 0.0, "rental_uris": {"android": "https://dc.lft.to/lastmile_qr_scan", "ios": "https://dc.lft.to/lastmile_qr_scan"}, "is_reserved": 0, "is_disabled": 0, "type": "electric_scooter", "bike_id": "38376cf76b70996fe021d44edd684938"}, {"lon": -77.001376, "lat": 38.904062, "name": "7ae48c619a1ded6f48377fe60e9488d8", "fusion_lat": 0.0, "fusion_lon": 0.0, "rental_uris": {"android": "https://dc.lft.to/lastmile_qr_scan", "ios": "https://dc.lft.to/lastmile_qr_scan"}, "is_reserved": 0, "is_disabled": 0, "type": "electric_scooter", "bike_id": "7ae48c619a1ded6f48377fe60e9488d8"}, {"lon": -77.03545416666667, "lat": 38.92328916666666, "name": "ec9408fb8345e1f1c38f34149c45aedd", "fusion_lat": 0.0, "fusion_lon": 0.0, "rental_uris": {"android": "https://dc.lft.to/lastmile_qr_scan", "ios": "https://dc.lft.to/lastmile_qr_scan"}, "is_reserved": 0, "is_disabled": 0, "type": "electric_scooter", "bike_id": "ec9408fb8345e1f1c38f34149c45aedd"}, {"lon": -77.02944316666667, "lat": 38.9066075, "name": "7e7916f70a99073cb01176b90ea8cc34", "fusion_lat": 0.0, "fusion_lon": 0.0, "rental_uris": {"android": "https://dc.lft.to/lastmile_qr_scan", "ios": "https://dc.lft.to/lastmile_qr_scan"}, "is_reserved": 0, "is_disabled": 0, "type": "electric_scooter", "bike_id": "7e7916f70a99073cb01176b90ea8cc34"}, {"lon": -76.9503075, "lat": 38.891803, "name": "15c3e58a37fbbac7bdec4d1aa9b5138c", "fusion_lat": 0.0, "fusion_lon": 0.0, "rental_uris": {"android": "https://dc.lft.to/lastmile_qr_scan", "ios": "https://dc.lft.to/lastmile_qr_scan"}, "is_reserved": 0, "is_disabled": 0, "type": "electric_bike", "bike_id": "15c3e58a37fbbac7bdec4d1aa9b5138c"}, {"lon": -77.02212766666666, "lat": 38.90571533333333, "name": "f513794d032df66a71308f5e271f3d48", "fusion_lat": 0.0, "fusion_lon": 0.0, "rental_uris": {"android": "https://dc.lft.to/lastmile_qr_scan", "ios": "https://dc.lft.to/lastmile_qr_scan"}, "is_reserved": 0, "is_disabled": 0, "type": "electric_scooter", "bike_id": "f513794d032df66a71308f5e271f3d48"}, {"lon": -77.01114666666666, "lat": 38.96302633333333, "name": "836fe9ee4e4532c3cff55242c00799e9", "fusion_lat": 0.0, "fusion_lon": 0.0, "rental_uris": {"android": "https://dc.lft.to/lastmile_qr_scan", "ios": "https://dc.lft.to/lastmile_qr_scan"}, "is_reserved": 0, "is_disabled": 0, "type": "electric_bike", "bike_id": "836fe9ee4e4532c3cff55242c00799e9"}, {"lon": -77.03469666666666, "lat": 38.90280216666667, "name": "a1d53708c48d13c93fb53205098d9ea8", "fusion_lat": 0.0, "fusion_lon": 0.0, "rental_uris": {"android": "https://dc.lft.to/lastmile_qr_scan", "ios": "https://dc.lft.to/lastmile_qr_scan"}, "is_reserved": 0, "is_disabled": 0, "type": "electric_scooter", "bike_id": "a1d53708c48d13c93fb53205098d9ea8"}, {"lon": -77.02396866666666, "lat": 38.899456666666666, "name": "66142eae8f9e7b4ec708c8f500f0b20c", "fusion_lat": 0.0, "fusion_lon": 0.0, "rental_uris": {"android": "https://dc.lft.to/lastmile_qr_scan", "ios": "https://dc.lft.to/lastmile_qr_scan"}, "is_reserved": 0, "is_disabled": 0, "type": "electric_scooter", "bike_id": "66142eae8f9e7b4ec708c8f500f0b20c"}, {"lon": -77.108982, "lat": 38.830401, "name": "56e110535a0cacf1ce2708f109bd8e4b", "fusion_lat": 0.0, "fusion_lon": 0.0, "rental_uris": {"android": "https://dc.lft.to/lastmile_qr_scan", "ios": "https://dc.lft.to/lastmile_qr_scan"}, "is_reserved": 0, "is_disabled": 0, "type": "electric_bike", "bike_id": "56e110535a0cacf1ce2708f109bd8e4b"}, {"lon": -76.99005116666666, "lat": 38.86504683333333, "name": "f4138e92205eb66c52273fb49a72ccff", "fusion_lat": 0.0, "fusion_lon": 0.0, "rental_uris": {"android": "https://dc.lft.to/lastmile_qr_scan", "ios": "https://dc.lft.to/lastmile_qr_scan"}, "is_reserved": 0, "is_disabled": 0, "type": "electric_scooter", "bike_id": "f4138e92205eb66c52273fb49a72ccff"}, {"lon": -77.01858183333333, "lat": 38.914935666666665, "name": "4b491942d209bda04e9b1626edf5cc3e", "fusion_lat": 0.0, "fusion_lon": 0.0, "rental_uris": {"android": "https://dc.lft.to/lastmile_qr_scan", "ios": "https://dc.lft.to/lastmile_qr_scan"}, "is_reserved": 0, "is_disabled": 0, "type": "electric_scooter", "bike_id": "4b491942d209bda04e9b1626edf5cc3e"}, {"lon": -77.05141016666667, "lat": 38.90796816666667, "name": "a95193ec8c58aa93df81751d31b0d5e2", "fusion_lat": 0.0, "fusion_lon": 0.0, "rental_uris": {"android": "https://dc.lft.to/lastmile_qr_scan", "ios": "https://dc.lft.to/lastmile_qr_scan"}, "is_reserved": 0, "is_disabled": 0, "type": "electric_scooter", "bike_id": "a95193ec8c58aa93df81751d31b0d5e2"}, {"lon": -76.994226, "lat": 38.901315333333336, "name": "8b52ccd29642b597d75cee8b7dbb0dd9", "fusion_lat": 0.0, "fusion_lon": 0.0, "rental_uris": {"android": "https://dc.lft.to/lastmile_qr_scan", "ios": "https://dc.lft.to/lastmile_qr_scan"}, "is_reserved": 0, "is_disabled": 0, "type": "electric_scooter", "bike_id": "8b52ccd29642b597d75cee8b7dbb0dd9"}, {"lon": -77.02397983333333, "lat": 38.934721833333334, "name": "f19912adaf5283013587ec65a7a5a16b", "fusion_lat": 0.0, "fusion_lon": 0.0, "rental_uris": {"android": "https://dc.lft.to/lastmile_qr_scan", "ios": "https://dc.lft.to/lastmile_qr_scan"}, "is_reserved": 0, "is_disabled": 0, "type": "electric_scooter", "bike_id": "f19912adaf5283013587ec65a7a5a16b"}, {"lon": -77.003327, "lat": 38.89356183333334, "name": "db38a7d0e038c0158a93a924c8241a8d", "fusion_lat": 0.0, "fusion_lon": 0.0, "rental_uris": {"android": "https://dc.lft.to/lastmile_qr_scan", "ios": "https://dc.lft.to/lastmile_qr_scan"}, "is_reserved": 0, "is_disabled": 0, "type": "electric_scooter", "bike_id": "db38a7d0e038c0158a93a924c8241a8d"}, {"lon": -76.934324, "lat": 38.89963983333333, "name": "8e0030eddb6a2114ab299a9ca3b5f38c", "fusion_lat": 0.0, "fusion_lon": 0.0, "rental_uris": {"android": "https://dc.lft.to/lastmile_qr_scan", "ios": "https://dc.lft.to/lastmile_qr_scan"}, "is_reserved": 0, "is_disabled": 0, "type": "electric_scooter", "bike_id": "8e0030eddb6a2114ab299a9ca3b5f38c"}, {"lon": -76.99277333333333, "lat": 38.89981933333333, "name": "a0d5ceec51e1d6c804e98a8ba6acba56", "fusion_lat": 0.0, "fusion_lon": 0.0, "rental_uris": {"android": "https://dc.lft.to/lastmile_qr_scan", "ios": "https://dc.lft.to/lastmile_qr_scan"}, "is_reserved": 0, "is_disabled": 0, "type": "electric_scooter", "bike_id": "a0d5ceec51e1d6c804e98a8ba6acba56"}, {"lon": -77.03208666666667, "lat": 38.91423183333333, "name": "0cb6454c42b46c71fb2f8db14ffd2180", "fusion_lat": 0.0, "fusion_lon": 0.0, "rental_uris": {"android": "https://dc.lft.to/lastmile_qr_scan", "ios": "https://dc.lft.to/lastmile_qr_scan"}, "is_reserved": 0, "is_disabled": 0, "type": "electric_scooter", "bike_id": "0cb6454c42b46c71fb2f8db14ffd2180"}, {"lon": -77.02225266666666, "lat": 38.887434666666664, "name": "bf20a5e50da40fc0dc711b405e015393", "fusion_lat": 0.0, "fusion_lon": 0.0, "rental_uris": {"android": "https://dc.lft.to/lastmile_qr_scan", "ios": "https://dc.lft.to/lastmile_qr_scan"}, "is_reserved": 0, "is_disabled": 0, "type": "electric_scooter", "bike_id": "bf20a5e50da40fc0dc711b405e015393"}, {"lon": -77.02180066666666, "lat": 38.88657033333333, "name": "4e086e755a3221a1c79f0acb4d7a5a5f", "fusion_lat": 0.0, "fusion_lon": 0.0, "rental_uris": {"android": "https://dc.lft.to/lastmile_qr_scan", "ios": "https://dc.lft.to/lastmile_qr_scan"}, "is_reserved": 0, "is_disabled": 0, "type": "electric_scooter", "bike_id": "4e086e755a3221a1c79f0acb4d7a5a5f"}, {"lon": -76.987017, "lat": 38.90008733333333, "name": "3a95628c8f25ab984fa789ad8deffb63", "fusion_lat": 0.0, "fusion_lon": 0.0, "rental_uris": {"android": "https://dc.lft.to/lastmile_qr_scan", "ios": "https://dc.lft.to/lastmile_qr_scan"}, "is_reserved": 0, "is_disabled": 0, "type": "electric_scooter", "bike_id": "3a95628c8f25ab984fa789ad8deffb63"}, {"lon": -77.02650316666667, "lat": 38.93860083333333, "name": "c8fd28f1623e1364721d3438ae78406e", "fusion_lat": 0.0, "fusion_lon": 0.0, "rental_uris": {"android": "https://dc.lft.to/lastmile_qr_scan", "ios": "https://dc.lft.to/lastmile_qr_scan"}, "is_reserved": 0, "is_disabled": 0, "type": "electric_scooter", "bike_id": "c8fd28f1623e1364721d3438ae78406e"}, {"lon": -77.09959833333333, "lat": 38.922412333333334, "name": "b65f24c870f75b242489488372f7f74d", "fusion_lat": 0.0, "fusion_lon": 0.0, "rental_uris": {"android": "https://dc.lft.to/lastmile_qr_scan", "ios": "https://dc.lft.to/lastmile_qr_scan"}, "is_reserved": 0, "is_disabled": 0, "type": "electric_scooter", "bike_id": "b65f24c870f75b242489488372f7f74d"}, {"lon": -77.0435595, "lat": 38.91028216666667, "name": "e469a974165e7299a3eac41d0a8c0fec", "fusion_lat": 0.0, "fusion_lon": 0.0, "rental_uris": {"android": "https://dc.lft.to/lastmile_qr_scan", "ios": "https://dc.lft.to/lastmile_qr_scan"}, "is_reserved": 0, "is_disabled": 0, "type": "electric_scooter", "bike_id": "e469a974165e7299a3eac41d0a8c0fec"}, {"lon": -77.0347785, "lat": 38.917079666666666, "name": "c6950ccb912e1f9fcdc8a7bce533ec3a", "fusion_lat": 0.0, "fusion_lon": 0.0, "rental_uris": {"android": "https://dc.lft.to/lastmile_qr_scan", "ios": "https://dc.lft.to/lastmile_qr_scan"}, "is_reserved": 0, "is_disabled": 0, "type": "electric_scooter", "bike_id": "c6950ccb912e1f9fcdc8a7bce533ec3a"}, {"lon": -77.046468, "lat": 38.922211833333336, "name": "c7dde656905438557fdb7c18e3b6b273", "fusion_lat": 0.0, "fusion_lon": 0.0, "rental_uris": {"android": "https://dc.lft.to/lastmile_qr_scan", "ios": "https://dc.lft.to/lastmile_qr_scan"}, "is_reserved": 0, "is_disabled": 0, "type": "electric_scooter", "bike_id": "c7dde656905438557fdb7c18e3b6b273"}, {"lon": -77.07833983333333, "lat": 38.92674016666667, "name": "9db15e6f3e829880da65e22f89a57865", "fusion_lat": 0.0, "fusion_lon": 0.0, "rental_uris": {"android": "https://dc.lft.to/lastmile_qr_scan", "ios": "https://dc.lft.to/lastmile_qr_scan"}, "is_reserved": 0, "is_disabled": 0, "type": "electric_scooter", "bike_id": "9db15e6f3e829880da65e22f89a57865"}, {"lon": -77.02403416666667, "lat": 38.9098, "name": "49ce292e374103542d6b01418f48a6c9", "fusion_lat": 0.0, "fusion_lon": 0.0, "rental_uris": {"android": "https://dc.lft.to/lastmile_qr_scan", "ios": "https://dc.lft.to/lastmile_qr_scan"}, "is_reserved": 0, "is_disabled": 0, "type": "electric_scooter", "bike_id": "49ce292e374103542d6b01418f48a6c9"}, {"lon": -76.96626466666666, "lat": 38.942038, "name": "cd9cc0f4869da9afd25e28d375447993", "fusion_lat": 0.0, "fusion_lon": 0.0, "rental_uris": {"android": "https://dc.lft.to/lastmile_qr_scan", "ios": "https://dc.lft.to/lastmile_qr_scan"}, "is_reserved": 0, "is_disabled": 0, "type": "electric_bike", "bike_id": "cd9cc0f4869da9afd25e28d375447993"}, {"lon": -76.99028266666667, "lat": 38.864048833333335, "name": "258146b0ca6343facd1370588516a03e", "fusion_lat": 0.0, "fusion_lon": 0.0, "rental_uris": {"android": "https://dc.lft.to/lastmile_qr_scan", "ios": "https://dc.lft.to/lastmile_qr_scan"}, "is_reserved": 0, "is_disabled": 0, "type": "electric_scooter", "bike_id": "258146b0ca6343facd1370588516a03e"}, {"lon": -77.00348083333333, "lat": 38.903563166666665, "name": "bf9b9219e6c4bc8272c1c6f3e0146ec0", "fusion_lat": 0.0, "fusion_lon": 0.0, "rental_uris": {"android": "https://dc.lft.to/lastmile_qr_scan", "ios": "https://dc.lft.to/lastmile_qr_scan"}, "is_reserved": 0, "is_disabled": 0, "type": "electric_scooter", "bike_id": "bf9b9219e6c4bc8272c1c6f3e0146ec0"}, {"lon": -77.0135115, "lat": 38.87595, "name": "b2104944b7fe059687fb3bcde9e2eee0", "fusion_lat": 0.0, "fusion_lon": 0.0, "rental_uris": {"android": "https://dc.lft.to/lastmile_qr_scan", "ios": "https://dc.lft.to/lastmile_qr_scan"}, "is_reserved": 0, "is_disabled": 0, "type": "electric_scooter", "bike_id": "b2104944b7fe059687fb3bcde9e2eee0"}, {"lon": -77.04964633333333, "lat": 38.91256633333333, "name": "b0fb65d38460a45ba39ca8a96a4a6708", "fusion_lat": 0.0, "fusion_lon": 0.0, "rental_uris": {"android": "https://dc.lft.to/lastmile_qr_scan", "ios": "https://dc.lft.to/lastmile_qr_scan"}, "is_reserved": 0, "is_disabled": 0, "type": "electric_scooter", "bike_id": "b0fb65d38460a45ba39ca8a96a4a6708"}, {"lon": -77.02383583333334, "lat": 38.957345833333335, "name": "202c546d9c3cc4f8b29c4ee4db4af453", "fusion_lat": 0.0, "fusion_lon": 0.0, "rental_uris": {"android": "https://dc.lft.to/lastmile_qr_scan", "ios": "https://dc.lft.to/lastmile_qr_scan"}, "is_reserved": 0, "is_disabled": 0, "type": "electric_scooter", "bike_id": "202c546d9c3cc4f8b29c4ee4db4af453"}, {"lon": -77.03960933333333, "lat": 38.919923, "name": "39c535437f95d228a2451b8735ce3074", "fusion_lat": 0.0, "fusion_lon": 0.0, "rental_uris": {"android": "https://dc.lft.to/lastmile_qr_scan", "ios": "https://dc.lft.to/lastmile_qr_scan"}, "is_reserved": 0, "is_disabled": 0, "type": "electric_scooter", "bike_id": "39c535437f95d228a2451b8735ce3074"}, {"lon": -77.053209, "lat": 38.90267333333333, "name": "c020ca3c23c45f7715dea19e857ac98b", "fusion_lat": 0.0, "fusion_lon": 0.0, "rental_uris": {"android": "https://dc.lft.to/lastmile_qr_scan", "ios": "https://dc.lft.to/lastmile_qr_scan"}, "is_reserved": 0, "is_disabled": 0, "type": "electric_scooter", "bike_id": "c020ca3c23c45f7715dea19e857ac98b"}, {"lon": -76.98778683333333, "lat": 38.9002985, "name": "afd21bf5f6c5cb538e64c586e9714c90", "fusion_lat": 0.0, "fusion_lon": 0.0, "rental_uris": {"android": "https://dc.lft.to/lastmile_qr_scan", "ios": "https://dc.lft.to/lastmile_qr_scan"}, "is_reserved": 0, "is_disabled": 0, "type": "electric_scooter", "bike_id": "afd21bf5f6c5cb538e64c586e9714c90"}, {"lon": -77.02636916666667, "lat": 38.91547833333333, "name": "fd20147175f54df4138a5a28759e1817", "fusion_lat": 0.0, "fusion_lon": 0.0, "rental_uris": {"android": "https://dc.lft.to/lastmile_qr_scan", "ios": "https://dc.lft.to/lastmile_qr_scan"}, "is_reserved": 0, "is_disabled": 0, "type": "electric_scooter", "bike_id": "fd20147175f54df4138a5a28759e1817"}, {"lon": -76.92998666666666, "lat": 38.88794133333333, "name": "a6cb496779c24397a277f968d1a9e1b2", "fusion_lat": 0.0, "fusion_lon": 0.0, "rental_uris": {"android": "https://dc.lft.to/lastmile_qr_scan", "ios": "https://dc.lft.to/lastmile_qr_scan"}, "is_reserved": 0, "is_disabled": 0, "type": "electric_bike", "bike_id": "a6cb496779c24397a277f968d1a9e1b2"}, {"lon": -77.07936333333333, "lat": 38.948656, "name": "7bf4939c59f3f9a74c60adc249283556", "fusion_lat": 0.0, "fusion_lon": 0.0, "rental_uris": {"android": "https://dc.lft.to/lastmile_qr_scan", "ios": "https://dc.lft.to/lastmile_qr_scan"}, "is_reserved": 0, "is_disabled": 0, "type": "electric_scooter", "bike_id": "7bf4939c59f3f9a74c60adc249283556"}, {"lon": -77.070471, "lat": 38.82446633333333, "name": "7245fb76521ead18abc6f016dd5c3ee5", "fusion_lat": 0.0, "fusion_lon": 0.0, "rental_uris": {"android": "https://dc.lft.to/lastmile_qr_scan", "ios": "https://dc.lft.to/lastmile_qr_scan"}, "is_reserved": 0, "is_disabled": 0, "type": "electric_bike", "bike_id": "7245fb76521ead18abc6f016dd5c3ee5"}, {"lon": -77.06396733333334, "lat": 38.92903033333333, "name": "00d93d592b12d05f423500844951a1a6", "fusion_lat": 0.0, "fusion_lon": 0.0, "rental_uris": {"android": "https://dc.lft.to/lastmile_qr_scan", "ios": "https://dc.lft.to/lastmile_qr_scan"}, "is_reserved": 0, "is_disabled": 0, "type": "electric_scooter", "bike_id": "00d93d592b12d05f423500844951a1a6"}, {"lon": -77.12982416666667, "lat": 38.7998645, "name": "725c96f48814ba609e7d847edf88ed14", "fusion_lat": 0.0, "fusion_lon": 0.0, "rental_uris": {"android": "https://dc.lft.to/lastmile_qr_scan", "ios": "https://dc.lft.to/lastmile_qr_scan"}, "is_reserved": 0, "is_disabled": 0, "type": "electric_bike", "bike_id": "725c96f48814ba609e7d847edf88ed14"}, {"lon": -77.04374616666666, "lat": 38.89221666666667, "name": "26a56df2f6e136d355f1b4c69e1a7f6c", "fusion_lat": 0.0, "fusion_lon": 0.0, "rental_uris": {"android": "https://dc.lft.to/lastmile_qr_scan", "ios": "https://dc.lft.to/lastmile_qr_scan"}, "is_reserved": 0, "is_disabled": 0, "type": "electric_scooter", "bike_id": "26a56df2f6e136d355f1b4c69e1a7f6c"}, {"lon": -77.03393016666666, "lat": 38.9205195, "name": "b6d526cf98929fe39081037586155671", "fusion_lat": 0.0, "fusion_lon": 0.0, "rental_uris": {"android": "https://dc.lft.to/lastmile_qr_scan", "ios": "https://dc.lft.to/lastmile_qr_scan"}, "is_reserved": 0, "is_disabled": 0, "type": "electric_scooter", "bike_id": "b6d526cf98929fe39081037586155671"}, {"lon": -77.06889916666667, "lat": 38.940262833333335, "name": "8e2cea66b1e770641d0e34a20c51f5bc", "fusion_lat": 0.0, "fusion_lon": 0.0, "rental_uris": {"android": "https://dc.lft.to/lastmile_qr_scan", "ios": "https://dc.lft.to/lastmile_qr_scan"}, "is_reserved": 0, "is_disabled": 0, "type": "electric_scooter", "bike_id": "8e2cea66b1e770641d0e34a20c51f5bc"}, {"lon": -76.9990085, "lat": 38.95318483333333, "name": "b9ceb394c9eae18dac1aa0e55d5fa417", "fusion_lat": 0.0, "fusion_lon": 0.0, "rental_uris": {"android": "https://dc.lft.to/lastmile_qr_scan", "ios": "https://dc.lft.to/lastmile_qr_scan"}, "is_reserved": 0, "is_disabled": 0, "type": "electric_bike", "bike_id": "b9ceb394c9eae18dac1aa0e55d5fa417"}, {"lon": -76.94719616666667, "lat": 38.8967165, "name": "5e209039545e7ecd08fca0d03bff2d1f", "fusion_lat": 0.0, "fusion_lon": 0.0, "rental_uris": {"android": "https://dc.lft.to/lastmile_qr_scan", "ios": "https://dc.lft.to/lastmile_qr_scan"}, "is_reserved": 0, "is_disabled": 0, "type": "electric_scooter", "bike_id": "5e209039545e7ecd08fca0d03bff2d1f"}, {"lon": -77.017001, "lat": 38.905053, "name": "a03bcd9ea9b8c87c98b1e47fbfe4d2bd", "fusion_lat": 0.0, "fusion_lon": 0.0, "rental_uris": {"android": "https://dc.lft.to/lastmile_qr_scan", "ios": "https://dc.lft.to/lastmile_qr_scan"}, "is_reserved": 0, "is_disabled": 0, "type": "electric_scooter", "bike_id": "a03bcd9ea9b8c87c98b1e47fbfe4d2bd"}, {"lon": -77.12803316666667, "lat": 38.86525133333333, "name": "0362c1cccd44187fc7dab3314bb54b91", "fusion_lat": 0.0, "fusion_lon": 0.0, "rental_uris": {"android": "https://dc.lft.to/lastmile_qr_scan", "ios": "https://dc.lft.to/lastmile_qr_scan"}, "is_reserved": 0, "is_disabled": 0, "type": "electric_bike", "bike_id": "0362c1cccd44187fc7dab3314bb54b91"}, {"lon": -77.03991083333334, "lat": 38.905677, "name": "311ffb919ac1777bc066d36c17b5c345", "fusion_lat": 0.0, "fusion_lon": 0.0, "rental_uris": {"android": "https://dc.lft.to/lastmile_qr_scan", "ios": "https://dc.lft.to/lastmile_qr_scan"}, "is_reserved": 0, "is_disabled": 0, "type": "electric_scooter", "bike_id": "311ffb919ac1777bc066d36c17b5c345"}, {"lon": -77.00590833333334, "lat": 38.915650166666666, "name": "5b36f3e59025b5089989c3f56b0d18dd", "fusion_lat": 0.0, "fusion_lon": 0.0, "rental_uris": {"android": "https://dc.lft.to/lastmile_qr_scan", "ios": "https://dc.lft.to/lastmile_qr_scan"}, "is_reserved": 0, "is_disabled": 0, "type": "electric_scooter", "bike_id": "5b36f3e59025b5089989c3f56b0d18dd"}, {"lon": -77.00575233333333, "lat": 38.902552666666665, "name": "45c0188ae2a576cd9752cc778d8555ba", "fusion_lat": 0.0, "fusion_lon": 0.0, "rental_uris": {"android": "https://dc.lft.to/lastmile_qr_scan", "ios": "https://dc.lft.to/lastmile_qr_scan"}, "is_reserved": 0, "is_disabled": 0, "type": "electric_scooter", "bike_id": "45c0188ae2a576cd9752cc778d8555ba"}, {"lon": -77.04330516666667, "lat": 38.90339816666667, "name": "82901433d07bc0b6eb163c7f1dff3a29", "fusion_lat": 0.0, "fusion_lon": 0.0, "rental_uris": {"android": "https://dc.lft.to/lastmile_qr_scan", "ios": "https://dc.lft.to/lastmile_qr_scan"}, "is_reserved": 0, "is_disabled": 0, "type": "electric_scooter", "bike_id": "82901433d07bc0b6eb163c7f1dff3a29"}, {"lon": -77.12504216666666, "lat": 39.024141166666666, "name": "b753cd81f47e45730d6cc7a0504d194e", "fusion_lat": 0.0, "fusion_lon": 0.0, "rental_uris": {"android": "https://dc.lft.to/lastmile_qr_scan", "ios": "https://dc.lft.to/lastmile_qr_scan"}, "is_reserved": 0, "is_disabled": 0, "type": "electric_bike", "bike_id": "b753cd81f47e45730d6cc7a0504d194e"}, {"lon": -77.0433765, "lat": 38.92213866666667, "name": "792efb1a1c32f68c3da70b0d1b71bded", "fusion_lat": 0.0, "fusion_lon": 0.0, "rental_uris": {"android": "https://dc.lft.to/lastmile_qr_scan", "ios": "https://dc.lft.to/lastmile_qr_scan"}, "is_reserved": 0, "is_disabled": 0, "type": "electric_scooter", "bike_id": "792efb1a1c32f68c3da70b0d1b71bded"}, {"lon": -77.03292783333333, "lat": 38.928674, "name": "d07913ca60a2d4bee1605ac972c57ddd", "fusion_lat": 0.0, "fusion_lon": 0.0, "rental_uris": {"android": "https://dc.lft.to/lastmile_qr_scan", "ios": "https://dc.lft.to/lastmile_qr_scan"}, "is_reserved": 0, "is_disabled": 0, "type": "electric_scooter", "bike_id": "d07913ca60a2d4bee1605ac972c57ddd"}, {"lon": -77.023433, "lat": 38.962062333333336, "name": "bbd43688493da3e4a296ee713963c31f", "fusion_lat": 0.0, "fusion_lon": 0.0, "rental_uris": {"android": "https://dc.lft.to/lastmile_qr_scan", "ios": "https://dc.lft.to/lastmile_qr_scan"}, "is_reserved": 0, "is_disabled": 0, "type": "electric_scooter", "bike_id": "bbd43688493da3e4a296ee713963c31f"}, {"lon": -77.02651716666666, "lat": 38.938585333333336, "name": "be399396a507733141422ab7c5a26feb", "fusion_lat": 0.0, "fusion_lon": 0.0, "rental_uris": {"android": "https://dc.lft.to/lastmile_qr_scan", "ios": "https://dc.lft.to/lastmile_qr_scan"}, "is_reserved": 0, "is_disabled": 0, "type": "electric_scooter", "bike_id": "be399396a507733141422ab7c5a26feb"}, {"lon": -77.02402683333334, "lat": 38.908613, "name": "13aa8d794a50b22098895ab4391e93fd", "fusion_lat": 0.0, "fusion_lon": 0.0, "rental_uris": {"android": "https://dc.lft.to/lastmile_qr_scan", "ios": "https://dc.lft.to/lastmile_qr_scan"}, "is_reserved": 0, "is_disabled": 0, "type": "electric_scooter", "bike_id": "13aa8d794a50b22098895ab4391e93fd"}, {"lon": -77.22571466666666, "lat": 38.9297025, "name": "217d0131d040f4fefaa471f54b5d17fc", "fusion_lat": 0.0, "fusion_lon": 0.0, "rental_uris": {"android": "https://dc.lft.to/lastmile_qr_scan", "ios": "https://dc.lft.to/lastmile_qr_scan"}, "is_reserved": 0, "is_disabled": 0, "type": "electric_bike", "bike_id": "217d0131d040f4fefaa471f54b5d17fc"}, {"lon": -76.99510433333333, "lat": 38.8790995, "name": "0c19636e45e2a560d0661246c3a584eb", "fusion_lat": 0.0, "fusion_lon": 0.0, "rental_uris": {"android": "https://dc.lft.to/lastmile_qr_scan", "ios": "https://dc.lft.to/lastmile_qr_scan"}, "is_reserved": 0, "is_disabled": 0, "type": "electric_scooter", "bike_id": "0c19636e45e2a560d0661246c3a584eb"}, {"lon": -77.026339, "lat": 38.9154925, "name": "b5f2f51e22f69e4cdec498cb72604729", "fusion_lat": 0.0, "fusion_lon": 0.0, "rental_uris": {"android": "https://dc.lft.to/lastmile_qr_scan", "ios": "https://dc.lft.to/lastmile_qr_scan"}, "is_reserved": 0, "is_disabled": 0, "type": "electric_scooter", "bike_id": "b5f2f51e22f69e4cdec498cb72604729"}, {"lon": -77.02435, "lat": 38.907082, "name": "f5cec46dd086a0796072fd135a5affe6", "fusion_lat": 0.0, "fusion_lon": 0.0, "rental_uris": {"android": "https://dc.lft.to/lastmile_qr_scan", "ios": "https://dc.lft.to/lastmile_qr_scan"}, "is_reserved": 0, "is_disabled": 0, "type": "electric_scooter", "bike_id": "f5cec46dd086a0796072fd135a5affe6"}, {"lon": -77.052365, "lat": 38.924632833333334, "name": "a719363af4d3415deac2ab47d35cee93", "fusion_lat": 0.0, "fusion_lon": 0.0, "rental_uris": {"android": "https://dc.lft.to/lastmile_qr_scan", "ios": "https://dc.lft.to/lastmile_qr_scan"}, "is_reserved": 0, "is_disabled": 0, "type": "electric_scooter", "bike_id": "a719363af4d3415deac2ab47d35cee93"}, {"lon": -77.06979966666667, "lat": 38.9526975, "name": "f7eb339380486d95440c07870d538189", "fusion_lat": 0.0, "fusion_lon": 0.0, "rental_uris": {"android": "https://dc.lft.to/lastmile_qr_scan", "ios": "https://dc.lft.to/lastmile_qr_scan"}, "is_reserved": 0, "is_disabled": 0, "type": "electric_bike", "bike_id": "f7eb339380486d95440c07870d538189"}, {"lon": -76.9652775, "lat": 38.8762695, "name": "e850d01c29b26edbf7ee109345c8f9a7", "fusion_lat": 0.0, "fusion_lon": 0.0, "rental_uris": {"android": "https://dc.lft.to/lastmile_qr_scan", "ios": "https://dc.lft.to/lastmile_qr_scan"}, "is_reserved": 0, "is_disabled": 0, "type": "electric_scooter", "bike_id": "e850d01c29b26edbf7ee109345c8f9a7"}, {"lon": -77.0269415, "lat": 38.90943083333333, "name": "f9ae36b4b0a4874642569ecd80a04679", "fusion_lat": 0.0, "fusion_lon": 0.0, "rental_uris": {"android": "https://dc.lft.to/lastmile_qr_scan", "ios": "https://dc.lft.to/lastmile_qr_scan"}, "is_reserved": 0, "is_disabled": 0, "type": "electric_scooter", "bike_id": "f9ae36b4b0a4874642569ecd80a04679"}, {"lon": -77.06624983333333, "lat": 38.94739633333333, "name": "10e130450439c71d21dd5a966ef60820", "fusion_lat": 0.0, "fusion_lon": 0.0, "rental_uris": {"android": "https://dc.lft.to/lastmile_qr_scan", "ios": "https://dc.lft.to/lastmile_qr_scan"}, "is_reserved": 0, "is_disabled": 0, "type": "electric_bike", "bike_id": "10e130450439c71d21dd5a966ef60820"}, {"lon": -77.02717933333334, "lat": 38.8922265, "name": "6d9f432b3a2f1ca97222f3255023af19", "fusion_lat": 0.0, "fusion_lon": 0.0, "rental_uris": {"android": "https://dc.lft.to/lastmile_qr_scan", "ios": "https://dc.lft.to/lastmile_qr_scan"}, "is_reserved": 0, "is_disabled": 0, "type": "electric_scooter", "bike_id": "6d9f432b3a2f1ca97222f3255023af19"}, {"lon": -77.01110816666667, "lat": 38.9035425, "name": "0a76a1f6b296b5572e405f1f142b1e52", "fusion_lat": 0.0, "fusion_lon": 0.0, "rental_uris": {"android": "https://dc.lft.to/lastmile_qr_scan", "ios": "https://dc.lft.to/lastmile_qr_scan"}, "is_reserved": 0, "is_disabled": 0, "type": "electric_scooter", "bike_id": "0a76a1f6b296b5572e405f1f142b1e52"}, {"lon": -77.02818366666666, "lat": 38.915972833333335, "name": "1113cee8a22546d121bbc846de63bf19", "fusion_lat": 0.0, "fusion_lon": 0.0, "rental_uris": {"android": "https://dc.lft.to/lastmile_qr_scan", "ios": "https://dc.lft.to/lastmile_qr_scan"}, "is_reserved": 0, "is_disabled": 0, "type": "electric_scooter", "bike_id": "1113cee8a22546d121bbc846de63bf19"}, {"lon": -77.02230083333333, "lat": 38.91266533333334, "name": "e1e34a93eaf0501ae576b6373c9f1c76", "fusion_lat": 0.0, "fusion_lon": 0.0, "rental_uris": {"android": "https://dc.lft.to/lastmile_qr_scan", "ios": "https://dc.lft.to/lastmile_qr_scan"}, "is_reserved": 0, "is_disabled": 0, "type": "electric_scooter", "bike_id": "e1e34a93eaf0501ae576b6373c9f1c76"}, {"lon": -77.05003666666667, "lat": 38.89225833333333, "name": "ac2215a7697f495580d186ca4ba602dc", "fusion_lat": 0.0, "fusion_lon": 0.0, "rental_uris": {"android": "https://dc.lft.to/lastmile_qr_scan", "ios": "https://dc.lft.to/lastmile_qr_scan"}, "is_reserved": 0, "is_disabled": 0, "type": "electric_scooter", "bike_id": "ac2215a7697f495580d186ca4ba602dc"}, {"lon": -77.0262605, "lat": 38.892263666666665, "name": "c432a3fc82b8779be38821754ae10181", "fusion_lat": 0.0, "fusion_lon": 0.0, "rental_uris": {"android": "https://dc.lft.to/lastmile_qr_scan", "ios": "https://dc.lft.to/lastmile_qr_scan"}, "is_reserved": 0, "is_disabled": 0, "type": "electric_scooter", "bike_id": "c432a3fc82b8779be38821754ae10181"}, {"lon": -77.03621416666667, "lat": 38.92918133333333, "name": "7ec210b23ed54a0504c94ea0e2d15592", "fusion_lat": 0.0, "fusion_lon": 0.0, "rental_uris": {"android": "https://dc.lft.to/lastmile_qr_scan", "ios": "https://dc.lft.to/lastmile_qr_scan"}, "is_reserved": 0, "is_disabled": 0, "type": "electric_scooter", "bike_id": "7ec210b23ed54a0504c94ea0e2d15592"}, {"lon": -77.03658466666667, "lat": 38.911696666666664, "name": "35f7c741bdd86deb8c9513344866bf8c", "fusion_lat": 0.0, "fusion_lon": 0.0, "rental_uris": {"android": "https://dc.lft.to/lastmile_qr_scan", "ios": "https://dc.lft.to/lastmile_qr_scan"}, "is_reserved": 0, "is_disabled": 0, "type": "electric_scooter", "bike_id": "35f7c741bdd86deb8c9513344866bf8c"}, {"lon": -77.02897666666667, "lat": 38.899714333333336, "name": "0bd14fcd66bf75c1f9de916c1316c09a", "fusion_lat": 0.0, "fusion_lon": 0.0, "rental_uris": {"android": "https://dc.lft.to/lastmile_qr_scan", "ios": "https://dc.lft.to/lastmile_qr_scan"}, "is_reserved": 0, "is_disabled": 0, "type": "electric_scooter", "bike_id": "0bd14fcd66bf75c1f9de916c1316c09a"}, {"lon": -77.0347915, "lat": 38.92867833333333, "name": "6b24e9dfd855319d11a38ad1e8791d45", "fusion_lat": 0.0, "fusion_lon": 0.0, "rental_uris": {"android": "https://dc.lft.to/lastmile_qr_scan", "ios": "https://dc.lft.to/lastmile_qr_scan"}, "is_reserved": 0, "is_disabled": 0, "type": "electric_scooter", "bike_id": "6b24e9dfd855319d11a38ad1e8791d45"}, {"lon": -76.98757266666667, "lat": 38.84500216666667, "name": "ee21aae7af0a8ee2b8fc947c56a3e148", "fusion_lat": 0.0, "fusion_lon": 0.0, "rental_uris": {"android": "https://dc.lft.to/lastmile_qr_scan", "ios": "https://dc.lft.to/lastmile_qr_scan"}, "is_reserved": 0, "is_disabled": 0, "type": "electric_scooter", "bike_id": "ee21aae7af0a8ee2b8fc947c56a3e148"}, {"lon": -77.01440533333333, "lat": 38.877797, "name": "50bd6ef8d9b74c54cbe5f180d2fa16f0", "fusion_lat": 0.0, "fusion_lon": 0.0, "rental_uris": {"android": "https://dc.lft.to/lastmile_qr_scan", "ios": "https://dc.lft.to/lastmile_qr_scan"}, "is_reserved": 0, "is_disabled": 0, "type": "electric_scooter", "bike_id": "50bd6ef8d9b74c54cbe5f180d2fa16f0"}, {"lon": -76.94854366666667, "lat": 38.8829925, "name": "1acbb3d1b0684d3eb56fad5c90198004", "fusion_lat": 0.0, "fusion_lon": 0.0, "rental_uris": {"android": "https://dc.lft.to/lastmile_qr_scan", "ios": "https://dc.lft.to/lastmile_qr_scan"}, "is_reserved": 0, "is_disabled": 0, "type": "electric_scooter", "bike_id": "1acbb3d1b0684d3eb56fad5c90198004"}, {"lon": -77.13593833333333, "lat": 39.05345583333333, "name": "5f0de2fb8b6bb70db6958360d60477b2", "fusion_lat": 0.0, "fusion_lon": 0.0, "rental_uris": {"android": "https://dc.lft.to/lastmile_qr_scan", "ios": "https://dc.lft.to/lastmile_qr_scan"}, "is_reserved": 0, "is_disabled": 0, "type": "electric_bike", "bike_id": "5f0de2fb8b6bb70db6958360d60477b2"}, {"lon": -76.98790233333334, "lat": 38.845400166666664, "name": "ee1f9539288e946005c3ad567adf5d81", "fusion_lat": 0.0, "fusion_lon": 0.0, "rental_uris": {"android": "https://dc.lft.to/lastmile_qr_scan", "ios": "https://dc.lft.to/lastmile_qr_scan"}, "is_reserved": 0, "is_disabled": 0, "type": "electric_bike", "bike_id": "ee1f9539288e946005c3ad567adf5d81"}, {"lon": -77.02123183333333, "lat": 38.90297, "name": "d928e9cf9415b52246b31529b81f9956", "fusion_lat": 0.0, "fusion_lon": 0.0, "rental_uris": {"android": "https://dc.lft.to/lastmile_qr_scan", "ios": "https://dc.lft.to/lastmile_qr_scan"}, "is_reserved": 0, "is_disabled": 0, "type": "electric_scooter", "bike_id": "d928e9cf9415b52246b31529b81f9956"}, {"lon": -77.06533, "lat": 38.93474033333333, "name": "b7dfcb8838c3867438cba18ac5af1ade", "fusion_lat": 0.0, "fusion_lon": 0.0, "rental_uris": {"android": "https://dc.lft.to/lastmile_qr_scan", "ios": "https://dc.lft.to/lastmile_qr_scan"}, "is_reserved": 0, "is_disabled": 0, "type": "electric_scooter", "bike_id": "b7dfcb8838c3867438cba18ac5af1ade"}, {"lon": -76.98431516666666, "lat": 38.91430016666666, "name": "01c3a7b1530660340a0895c1fd250fa3", "fusion_lat": 0.0, "fusion_lon": 0.0, "rental_uris": {"android": "https://dc.lft.to/lastmile_qr_scan", "ios": "https://dc.lft.to/lastmile_qr_scan"}, "is_reserved": 0, "is_disabled": 0, "type": "electric_scooter", "bike_id": "01c3a7b1530660340a0895c1fd250fa3"}, {"lon": -77.02607966666666, "lat": 38.89234966666667, "name": "860d35e506d4617909d77390e2cc92b3", "fusion_lat": 0.0, "fusion_lon": 0.0, "rental_uris": {"android": "https://dc.lft.to/lastmile_qr_scan", "ios": "https://dc.lft.to/lastmile_qr_scan"}, "is_reserved": 0, "is_disabled": 0, "type": "electric_scooter", "bike_id": "860d35e506d4617909d77390e2cc92b3"}, {"lon": -77.03451, "lat": 38.90734483333333, "name": "fa930d450c5d64ad22c902217e8fc938", "fusion_lat": 0.0, "fusion_lon": 0.0, "rental_uris": {"android": "https://dc.lft.to/lastmile_qr_scan", "ios": "https://dc.lft.to/lastmile_qr_scan"}, "is_reserved": 0, "is_disabled": 0, "type": "electric_scooter", "bike_id": "fa930d450c5d64ad22c902217e8fc938"}, {"lon": -77.0319585, "lat": 38.9298385, "name": "3b5411defec34391cd4cb1ac820917ff", "fusion_lat": 0.0, "fusion_lon": 0.0, "rental_uris": {"android": "https://dc.lft.to/lastmile_qr_scan", "ios": "https://dc.lft.to/lastmile_qr_scan"}, "is_reserved": 0, "is_disabled": 0, "type": "electric_scooter", "bike_id": "3b5411defec34391cd4cb1ac820917ff"}, {"lon": -76.908157, "lat": 38.994537, "name": "276171af0e959c5dfa929118e44bacff", "fusion_lat": 0.0, "fusion_lon": 0.0, "rental_uris": {"android": "https://dc.lft.to/lastmile_qr_scan", "ios": "https://dc.lft.to/lastmile_qr_scan"}, "is_reserved": 0, "is_disabled": 0, "type": "electric_bike", "bike_id": "276171af0e959c5dfa929118e44bacff"}, {"lon": -77.03268033333333, "lat": 38.91405816666666, "name": "0f630bfbac31140b0322edeec7a06eba", "fusion_lat": 0.0, "fusion_lon": 0.0, "rental_uris": {"android": "https://dc.lft.to/lastmile_qr_scan", "ios": "https://dc.lft.to/lastmile_qr_scan"}, "is_reserved": 0, "is_disabled": 0, "type": "electric_scooter", "bike_id": "0f630bfbac31140b0322edeec7a06eba"}, {"lon": -77.048709, "lat": 38.90474783333333, "name": "d491839a903dcb9f4e9aca9eeffbe9cb", "fusion_lat": 0.0, "fusion_lon": 0.0, "rental_uris": {"android": "https://dc.lft.to/lastmile_qr_scan", "ios": "https://dc.lft.to/lastmile_qr_scan"}, "is_reserved": 0, "is_disabled": 0, "type": "electric_scooter", "bike_id": "d491839a903dcb9f4e9aca9eeffbe9cb"}, {"lon": -77.048199, "lat": 38.913332833333335, "name": "2062e64bfa675500acfdf196712cf527", "fusion_lat": 0.0, "fusion_lon": 0.0, "rental_uris": {"android": "https://dc.lft.to/lastmile_qr_scan", "ios": "https://dc.lft.to/lastmile_qr_scan"}, "is_reserved": 0, "is_disabled": 0, "type": "electric_scooter", "bike_id": "2062e64bfa675500acfdf196712cf527"}, {"lon": -77.05730066666666, "lat": 38.93371916666667, "name": "52012044097f77f4928df48075c26ba8", "fusion_lat": 0.0, "fusion_lon": 0.0, "rental_uris": {"android": "https://dc.lft.to/lastmile_qr_scan", "ios": "https://dc.lft.to/lastmile_qr_scan"}, "is_reserved": 0, "is_disabled": 0, "type": "electric_scooter", "bike_id": "52012044097f77f4928df48075c26ba8"}, {"lon": -77.03566483333333, "lat": 38.91819133333333, "name": "53a31c3c3a78534ee79ca90dbc3d72d8", "fusion_lat": 0.0, "fusion_lon": 0.0, "rental_uris": {"android": "https://dc.lft.to/lastmile_qr_scan", "ios": "https://dc.lft.to/lastmile_qr_scan"}, "is_reserved": 0, "is_disabled": 0, "type": "electric_scooter", "bike_id": "53a31c3c3a78534ee79ca90dbc3d72d8"}, {"lon": -77.03352633333333, "lat": 38.885092, "name": "3bd9926b26576243e032272c4f9d2b04", "fusion_lat": 0.0, "fusion_lon": 0.0, "rental_uris": {"android": "https://dc.lft.to/lastmile_qr_scan", "ios": "https://dc.lft.to/lastmile_qr_scan"}, "is_reserved": 0, "is_disabled": 0, "type": "electric_scooter", "bike_id": "3bd9926b26576243e032272c4f9d2b04"}, {"lon": -77.04402916666666, "lat": 38.9294875, "name": "c562afa5f166da89c0ca8b255995d19b", "fusion_lat": 0.0, "fusion_lon": 0.0, "rental_uris": {"android": "https://dc.lft.to/lastmile_qr_scan", "ios": "https://dc.lft.to/lastmile_qr_scan"}, "is_reserved": 0, "is_disabled": 0, "type": "electric_scooter", "bike_id": "c562afa5f166da89c0ca8b255995d19b"}, {"lon": -77.04372583333334, "lat": 38.892171, "name": "dd2238de4c002cb08d6e94daea3ccf12", "fusion_lat": 0.0, "fusion_lon": 0.0, "rental_uris": {"android": "https://dc.lft.to/lastmile_qr_scan", "ios": "https://dc.lft.to/lastmile_qr_scan"}, "is_reserved": 0, "is_disabled": 0, "type": "electric_scooter", "bike_id": "dd2238de4c002cb08d6e94daea3ccf12"}, {"lon": -77.03826216666667, "lat": 38.92048616666667, "name": "438e2bc55b5ce87be4068b3fcf95812f", "fusion_lat": 0.0, "fusion_lon": 0.0, "rental_uris": {"android": "https://dc.lft.to/lastmile_qr_scan", "ios": "https://dc.lft.to/lastmile_qr_scan"}, "is_reserved": 0, "is_disabled": 0, "type": "electric_scooter", "bike_id": "438e2bc55b5ce87be4068b3fcf95812f"}, {"lon": -77.02830633333333, "lat": 38.89392566666667, "name": "3cb3fdbc83019f2201d48f4f1c0b83ce", "fusion_lat": 0.0, "fusion_lon": 0.0, "rental_uris": {"android": "https://dc.lft.to/lastmile_qr_scan", "ios": "https://dc.lft.to/lastmile_qr_scan"}, "is_reserved": 0, "is_disabled": 0, "type": "electric_scooter", "bike_id": "3cb3fdbc83019f2201d48f4f1c0b83ce"}, {"lon": -77.05590683333334, "lat": 38.92787366666667, "name": "2b2c4b990242b2c50d0017b9602bb708", "fusion_lat": 0.0, "fusion_lon": 0.0, "rental_uris": {"android": "https://dc.lft.to/lastmile_qr_scan", "ios": "https://dc.lft.to/lastmile_qr_scan"}, "is_reserved": 0, "is_disabled": 0, "type": "electric_scooter", "bike_id": "2b2c4b990242b2c50d0017b9602bb708"}, {"lon": -77.0468245, "lat": 38.92092783333333, "name": "9b3b56ecc34e9e8ef73e060a4b6df6c8", "fusion_lat": 0.0, "fusion_lon": 0.0, "rental_uris": {"android": "https://dc.lft.to/lastmile_qr_scan", "ios": "https://dc.lft.to/lastmile_qr_scan"}, "is_reserved": 0, "is_disabled": 0, "type": "electric_scooter", "bike_id": "9b3b56ecc34e9e8ef73e060a4b6df6c8"}, {"lon": -77.03867483333333, "lat": 38.902793, "name": "25e25d68fef0286350e36aa924e1a07d", "fusion_lat": 0.0, "fusion_lon": 0.0, "rental_uris": {"android": "https://dc.lft.to/lastmile_qr_scan", "ios": "https://dc.lft.to/lastmile_qr_scan"}, "is_reserved": 0, "is_disabled": 0, "type": "electric_scooter", "bike_id": "25e25d68fef0286350e36aa924e1a07d"}, {"lon": -77.09522783333334, "lat": 38.8380945, "name": "e722dd4e025b93af6f909c84f80d8597", "fusion_lat": 0.0, "fusion_lon": 0.0, "rental_uris": {"android": "https://dc.lft.to/lastmile_qr_scan", "ios": "https://dc.lft.to/lastmile_qr_scan"}, "is_reserved": 0, "is_disabled": 0, "type": "electric_bike", "bike_id": "e722dd4e025b93af6f909c84f80d8597"}, {"lon": -76.95815683333333, "lat": 38.89055616666667, "name": "8f5a1f545954d37d592b89819c261175", "fusion_lat": 0.0, "fusion_lon": 0.0, "rental_uris": {"android": "https://dc.lft.to/lastmile_qr_scan", "ios": "https://dc.lft.to/lastmile_qr_scan"}, "is_reserved": 0, "is_disabled": 0, "type": "electric_scooter", "bike_id": "8f5a1f545954d37d592b89819c261175"}, {"lon": -77.02737216666667, "lat": 38.917053, "name": "487a1cfdd95353f2b92ffd49c034354d", "fusion_lat": 0.0, "fusion_lon": 0.0, "rental_uris": {"android": "https://dc.lft.to/lastmile_qr_scan", "ios": "https://dc.lft.to/lastmile_qr_scan"}, "is_reserved": 0, "is_disabled": 0, "type": "electric_scooter", "bike_id": "487a1cfdd95353f2b92ffd49c034354d"}, {"lon": -77.04408833333333, "lat": 38.92354516666666, "name": "f76088ed1fa22d3d33bdc8fba8e314ec", "fusion_lat": 0.0, "fusion_lon": 0.0, "rental_uris": {"android": "https://dc.lft.to/lastmile_qr_scan", "ios": "https://dc.lft.to/lastmile_qr_scan"}, "is_reserved": 0, "is_disabled": 0, "type": "electric_scooter", "bike_id": "f76088ed1fa22d3d33bdc8fba8e314ec"}, {"lon": -77.02976083333333, "lat": 38.9623225, "name": "47c7f1251b2a23aaa500a5d8a5f4878e", "fusion_lat": 0.0, "fusion_lon": 0.0, "rental_uris": {"android": "https://dc.lft.to/lastmile_qr_scan", "ios": "https://dc.lft.to/lastmile_qr_scan"}, "is_reserved": 0, "is_disabled": 0, "type": "electric_scooter", "bike_id": "47c7f1251b2a23aaa500a5d8a5f4878e"}, {"lon": -77.00358116666666, "lat": 38.8824985, "name": "3e9529fd76bfe90089992d09a51a5e38", "fusion_lat": 0.0, "fusion_lon": 0.0, "rental_uris": {"android": "https://dc.lft.to/lastmile_qr_scan", "ios": "https://dc.lft.to/lastmile_qr_scan"}, "is_reserved": 0, "is_disabled": 0, "type": "electric_scooter", "bike_id": "3e9529fd76bfe90089992d09a51a5e38"}, {"lon": -77.0347505, "lat": 38.908657, "name": "b2dae872f3d062b8686035576e9a4b0d", "fusion_lat": 0.0, "fusion_lon": 0.0, "rental_uris": {"android": "https://dc.lft.to/lastmile_qr_scan", "ios": "https://dc.lft.to/lastmile_qr_scan"}, "is_reserved": 0, "is_disabled": 0, "type": "electric_scooter", "bike_id": "b2dae872f3d062b8686035576e9a4b0d"}, {"lon": -77.061301, "lat": 38.9068365, "name": "32c536287c9b3c3a6b9aaaeb6d294aa3", "fusion_lat": 0.0, "fusion_lon": 0.0, "rental_uris": {"android": "https://dc.lft.to/lastmile_qr_scan", "ios": "https://dc.lft.to/lastmile_qr_scan"}, "is_reserved": 0, "is_disabled": 0, "type": "electric_scooter", "bike_id": "32c536287c9b3c3a6b9aaaeb6d294aa3"}, {"lon": -77.06625983333333, "lat": 38.9473725, "name": "b55c55c3c3ea56133541c57d61ed4fff", "fusion_lat": 0.0, "fusion_lon": 0.0, "rental_uris": {"android": "https://dc.lft.to/lastmile_qr_scan", "ios": "https://dc.lft.to/lastmile_qr_scan"}, "is_reserved": 0, "is_disabled": 0, "type": "electric_bike", "bike_id": "b55c55c3c3ea56133541c57d61ed4fff"}, {"lon": -77.00136433333333, "lat": 38.90407966666667, "name": "151b522860ff6f5846c85be2ead8e079", "fusion_lat": 0.0, "fusion_lon": 0.0, "rental_uris": {"android": "https://dc.lft.to/lastmile_qr_scan", "ios": "https://dc.lft.to/lastmile_qr_scan"}, "is_reserved": 0, "is_disabled": 0, "type": "electric_scooter", "bike_id": "151b522860ff6f5846c85be2ead8e079"}, {"lon": -77.02406133333334, "lat": 38.92000216666667, "name": "265f632f32d6fec516070635d3b077a1", "fusion_lat": 0.0, "fusion_lon": 0.0, "rental_uris": {"android": "https://dc.lft.to/lastmile_qr_scan", "ios": "https://dc.lft.to/lastmile_qr_scan"}, "is_reserved": 0, "is_disabled": 0, "type": "electric_scooter", "bike_id": "265f632f32d6fec516070635d3b077a1"}, {"lon": -77.03164216666667, "lat": 38.91412316666667, "name": "85c5cd9fcad45a9f60e10e4604e77408", "fusion_lat": 0.0, "fusion_lon": 0.0, "rental_uris": {"android": "https://dc.lft.to/lastmile_qr_scan", "ios": "https://dc.lft.to/lastmile_qr_scan"}, "is_reserved": 0, "is_disabled": 0, "type": "electric_scooter", "bike_id": "85c5cd9fcad45a9f60e10e4604e77408"}, {"lon": -77.10124666666667, "lat": 38.85212933333333, "name": "c6bd27fcc0e805b658cd4a1733c93cb3", "fusion_lat": 0.0, "fusion_lon": 0.0, "rental_uris": {"android": "https://dc.lft.to/lastmile_qr_scan", "ios": "https://dc.lft.to/lastmile_qr_scan"}, "is_reserved": 0, "is_disabled": 0, "type": "electric_bike", "bike_id": "c6bd27fcc0e805b658cd4a1733c93cb3"}, {"lon": -77.02250833333333, "lat": 38.91262016666667, "name": "8f017ceaa1d8cb328e37382b75ad26b7", "fusion_lat": 0.0, "fusion_lon": 0.0, "rental_uris": {"android": "https://dc.lft.to/lastmile_qr_scan", "ios": "https://dc.lft.to/lastmile_qr_scan"}, "is_reserved": 0, "is_disabled": 0, "type": "electric_scooter", "bike_id": "8f017ceaa1d8cb328e37382b75ad26b7"}, {"lon": -77.02161216666667, "lat": 38.886259, "name": "68f6df797c1134ed99dfbf96996cd616", "fusion_lat": 0.0, "fusion_lon": 0.0, "rental_uris": {"android": "https://dc.lft.to/lastmile_qr_scan", "ios": "https://dc.lft.to/lastmile_qr_scan"}, "is_reserved": 0, "is_disabled": 0, "type": "electric_scooter", "bike_id": "68f6df797c1134ed99dfbf96996cd616"}, {"lon": -77.199092, "lat": 38.87526533333333, "name": "84a895bc0f3538c6508e792b3197a1c7", "fusion_lat": 0.0, "fusion_lon": 0.0, "rental_uris": {"android": "https://dc.lft.to/lastmile_qr_scan", "ios": "https://dc.lft.to/lastmile_qr_scan"}, "is_reserved": 0, "is_disabled": 0, "type": "electric_bike", "bike_id": "84a895bc0f3538c6508e792b3197a1c7"}, {"lon": -77.03636633333333, "lat": 38.94914516666667, "name": "8fd05c2c4c9b4020eabd47e044b4d2c6", "fusion_lat": 0.0, "fusion_lon": 0.0, "rental_uris": {"android": "https://dc.lft.to/lastmile_qr_scan", "ios": "https://dc.lft.to/lastmile_qr_scan"}, "is_reserved": 0, "is_disabled": 0, "type": "electric_scooter", "bike_id": "8fd05c2c4c9b4020eabd47e044b4d2c6"}, {"lon": -77.00016266666667, "lat": 38.90731183333333, "name": "49c0b40e1d22f4ef32be192d19a2cd9c", "fusion_lat": 0.0, "fusion_lon": 0.0, "rental_uris": {"android": "https://dc.lft.to/lastmile_qr_scan", "ios": "https://dc.lft.to/lastmile_qr_scan"}, "is_reserved": 0, "is_disabled": 0, "type": "electric_scooter", "bike_id": "49c0b40e1d22f4ef32be192d19a2cd9c"}, {"lon": -77.14987833333333, "lat": 39.09459233333333, "name": "a158c66f99eb7dc25e58c84950c94634", "fusion_lat": 0.0, "fusion_lon": 0.0, "rental_uris": {"android": "https://dc.lft.to/lastmile_qr_scan", "ios": "https://dc.lft.to/lastmile_qr_scan"}, "is_reserved": 0, "is_disabled": 0, "type": "electric_bike", "bike_id": "a158c66f99eb7dc25e58c84950c94634"}, {"lon": -77.00349333333334, "lat": 38.891534, "name": "dfa528a9abd6ba2edb85679e080e9537", "fusion_lat": 0.0, "fusion_lon": 0.0, "rental_uris": {"android": "https://dc.lft.to/lastmile_qr_scan", "ios": "https://dc.lft.to/lastmile_qr_scan"}, "is_reserved": 0, "is_disabled": 0, "type": "electric_scooter", "bike_id": "dfa528a9abd6ba2edb85679e080e9537"}, {"lon": -77.0332885, "lat": 38.92750133333333, "name": "4b3e04c494d004344cae2bb8fe9ea183", "fusion_lat": 0.0, "fusion_lon": 0.0, "rental_uris": {"android": "https://dc.lft.to/lastmile_qr_scan", "ios": "https://dc.lft.to/lastmile_qr_scan"}, "is_reserved": 0, "is_disabled": 0, "type": "electric_scooter", "bike_id": "4b3e04c494d004344cae2bb8fe9ea183"}, {"lon": -77.076564, "lat": 38.910804, "name": "efee9699af99c8b2dfa14d79cdfc0106", "fusion_lat": 0.0, "fusion_lon": 0.0, "rental_uris": {"android": "https://dc.lft.to/lastmile_qr_scan", "ios": "https://dc.lft.to/lastmile_qr_scan"}, "is_reserved": 0, "is_disabled": 0, "type": "electric_scooter", "bike_id": "efee9699af99c8b2dfa14d79cdfc0106"}, {"lon": -77.05372166666666, "lat": 38.9233005, "name": "3ca640f37710da99a4a31a7a2d7fad96", "fusion_lat": 0.0, "fusion_lon": 0.0, "rental_uris": {"android": "https://dc.lft.to/lastmile_qr_scan", "ios": "https://dc.lft.to/lastmile_qr_scan"}, "is_reserved": 0, "is_disabled": 0, "type": "electric_scooter", "bike_id": "3ca640f37710da99a4a31a7a2d7fad96"}, {"lon": -77.09017616666667, "lat": 38.841167666666664, "name": "9e01b3c9dc31eaa524f9ed545e12d31a", "fusion_lat": 0.0, "fusion_lon": 0.0, "rental_uris": {"android": "https://dc.lft.to/lastmile_qr_scan", "ios": "https://dc.lft.to/lastmile_qr_scan"}, "is_reserved": 0, "is_disabled": 0, "type": "electric_bike", "bike_id": "9e01b3c9dc31eaa524f9ed545e12d31a"}, {"lon": -77.06661833333334, "lat": 38.9049135, "name": "17048d096c6ac2a0b58ab801367de699", "fusion_lat": 0.0, "fusion_lon": 0.0, "rental_uris": {"android": "https://dc.lft.to/lastmile_qr_scan", "ios": "https://dc.lft.to/lastmile_qr_scan"}, "is_reserved": 0, "is_disabled": 0, "type": "electric_scooter", "bike_id": "17048d096c6ac2a0b58ab801367de699"}, {"lon": -77.35312633333334, "lat": 38.949973, "name": "570ea22a5cc18602c41c8306088b17d4", "fusion_lat": 0.0, "fusion_lon": 0.0, "rental_uris": {"android": "https://dc.lft.to/lastmile_qr_scan", "ios": "https://dc.lft.to/lastmile_qr_scan"}, "is_reserved": 0, "is_disabled": 0, "type": "electric_bike", "bike_id": "570ea22a5cc18602c41c8306088b17d4"}, {"lon": -77.0345235, "lat": 38.90282583333333, "name": "6dcf7ea83d4d511d79a20cc4824861aa", "fusion_lat": 0.0, "fusion_lon": 0.0, "rental_uris": {"android": "https://dc.lft.to/lastmile_qr_scan", "ios": "https://dc.lft.to/lastmile_qr_scan"}, "is_reserved": 0, "is_disabled": 0, "type": "electric_scooter", "bike_id": "6dcf7ea83d4d511d79a20cc4824861aa"}, {"lon": -77.00755333333333, "lat": 38.871132, "name": "af78638074160acd920ed341f29cacdc", "fusion_lat": 0.0, "fusion_lon": 0.0, "rental_uris": {"android": "https://dc.lft.to/lastmile_qr_scan", "ios": "https://dc.lft.to/lastmile_qr_scan"}, "is_reserved": 0, "is_disabled": 0, "type": "electric_scooter", "bike_id": "af78638074160acd920ed341f29cacdc"}, {"lon": -77.038332, "lat": 38.93140183333333, "name": "ac1b662a427045c7243f7bcd6d3c0e0d", "fusion_lat": 0.0, "fusion_lon": 0.0, "rental_uris": {"android": "https://dc.lft.to/lastmile_qr_scan", "ios": "https://dc.lft.to/lastmile_qr_scan"}, "is_reserved": 0, "is_disabled": 0, "type": "electric_scooter", "bike_id": "ac1b662a427045c7243f7bcd6d3c0e0d"}, {"lon": -77.00830433333333, "lat": 38.91372783333333, "name": "5dad3cce5a386f71b92c0d98762c343c", "fusion_lat": 0.0, "fusion_lon": 0.0, "rental_uris": {"android": "https://dc.lft.to/lastmile_qr_scan", "ios": "https://dc.lft.to/lastmile_qr_scan"}, "is_reserved": 0, "is_disabled": 0, "type": "electric_scooter", "bike_id": "5dad3cce5a386f71b92c0d98762c343c"}, {"lon": -77.02724766666667, "lat": 38.951275833333334, "name": "1e1e453dd8a65b220926ec52b80f86bc", "fusion_lat": 0.0, "fusion_lon": 0.0, "rental_uris": {"android": "https://dc.lft.to/lastmile_qr_scan", "ios": "https://dc.lft.to/lastmile_qr_scan"}, "is_reserved": 0, "is_disabled": 0, "type": "electric_scooter", "bike_id": "1e1e453dd8a65b220926ec52b80f86bc"}, {"lon": -77.00929433333333, "lat": 38.89606283333333, "name": "e3f0a68aa17c8f6d9ca2c6ad3acb7aaf", "fusion_lat": 0.0, "fusion_lon": 0.0, "rental_uris": {"android": "https://dc.lft.to/lastmile_qr_scan", "ios": "https://dc.lft.to/lastmile_qr_scan"}, "is_reserved": 0, "is_disabled": 0, "type": "electric_scooter", "bike_id": "e3f0a68aa17c8f6d9ca2c6ad3acb7aaf"}, {"lon": -77.042781, "lat": 38.90723216666667, "name": "292138b0be05f30b893a5bfc15d88dec", "fusion_lat": 0.0, "fusion_lon": 0.0, "rental_uris": {"android": "https://dc.lft.to/lastmile_qr_scan", "ios": "https://dc.lft.to/lastmile_qr_scan"}, "is_reserved": 0, "is_disabled": 0, "type": "electric_scooter", "bike_id": "292138b0be05f30b893a5bfc15d88dec"}, {"lon": -77.03655316666666, "lat": 38.9124865, "name": "b425cbbf1733599cf6e10ca30f1d36c6", "fusion_lat": 0.0, "fusion_lon": 0.0, "rental_uris": {"android": "https://dc.lft.to/lastmile_qr_scan", "ios": "https://dc.lft.to/lastmile_qr_scan"}, "is_reserved": 0, "is_disabled": 0, "type": "electric_scooter", "bike_id": "b425cbbf1733599cf6e10ca30f1d36c6"}, {"lon": -77.03296383333333, "lat": 38.956522, "name": "8197df8380f2b4b75ca6d78b878ddd4e", "fusion_lat": 0.0, "fusion_lon": 0.0, "rental_uris": {"android": "https://dc.lft.to/lastmile_qr_scan", "ios": "https://dc.lft.to/lastmile_qr_scan"}, "is_reserved": 0, "is_disabled": 0, "type": "electric_scooter", "bike_id": "8197df8380f2b4b75ca6d78b878ddd4e"}, {"lon": -77.015844, "lat": 38.928504, "name": "2709a1bbd958ba6ff565b4d05506abb1", "fusion_lat": 0.0, "fusion_lon": 0.0, "rental_uris": {"android": "https://dc.lft.to/lastmile_qr_scan", "ios": "https://dc.lft.to/lastmile_qr_scan"}, "is_reserved": 0, "is_disabled": 0, "type": "electric_scooter", "bike_id": "2709a1bbd958ba6ff565b4d05506abb1"}, {"lon": -77.09550333333334, "lat": 38.8372895, "name": "f61a9d8a8bdbae3f2a015c3818c2d3f3", "fusion_lat": 0.0, "fusion_lon": 0.0, "rental_uris": {"android": "https://dc.lft.to/lastmile_qr_scan", "ios": "https://dc.lft.to/lastmile_qr_scan"}, "is_reserved": 0, "is_disabled": 0, "type": "electric_bike", "bike_id": "f61a9d8a8bdbae3f2a015c3818c2d3f3"}, {"lon": -76.94942416666666, "lat": 38.883216166666664, "name": "9af2a48264f8054195460df02d1990cc", "fusion_lat": 0.0, "fusion_lon": 0.0, "rental_uris": {"android": "https://dc.lft.to/lastmile_qr_scan", "ios": "https://dc.lft.to/lastmile_qr_scan"}, "is_reserved": 0, "is_disabled": 0, "type": "electric_scooter", "bike_id": "9af2a48264f8054195460df02d1990cc"}, {"lon": -77.01162933333333, "lat": 38.8934255, "name": "9dc241e1724fe87074d05435914bf247", "fusion_lat": 0.0, "fusion_lon": 0.0, "rental_uris": {"android": "https://dc.lft.to/lastmile_qr_scan", "ios": "https://dc.lft.to/lastmile_qr_scan"}, "is_reserved": 0, "is_disabled": 0, "type": "electric_scooter", "bike_id": "9dc241e1724fe87074d05435914bf247"}, {"lon": -77.0291075, "lat": 38.900304166666665, "name": "037447690dac606148e11f433e1108c3", "fusion_lat": 0.0, "fusion_lon": 0.0, "rental_uris": {"android": "https://dc.lft.to/lastmile_qr_scan", "ios": "https://dc.lft.to/lastmile_qr_scan"}, "is_reserved": 0, "is_disabled": 0, "type": "electric_scooter", "bike_id": "037447690dac606148e11f433e1108c3"}, {"lon": -76.99779166666667, "lat": 38.844247833333334, "name": "c1abcec81fd20c07cebc206fbfc08f07", "fusion_lat": 0.0, "fusion_lon": 0.0, "rental_uris": {"android": "https://dc.lft.to/lastmile_qr_scan", "ios": "https://dc.lft.to/lastmile_qr_scan"}, "is_reserved": 0, "is_disabled": 0, "type": "electric_scooter", "bike_id": "c1abcec81fd20c07cebc206fbfc08f07"}, {"lon": -77.00372133333333, "lat": 38.8360575, "name": "06a8664daf75bf15f5117bad3e7da43d", "fusion_lat": 0.0, "fusion_lon": 0.0, "rental_uris": {"android": "https://dc.lft.to/lastmile_qr_scan", "ios": "https://dc.lft.to/lastmile_qr_scan"}, "is_reserved": 0, "is_disabled": 0, "type": "electric_bike", "bike_id": "06a8664daf75bf15f5117bad3e7da43d"}, {"lon": -77.03511366666666, "lat": 38.975913, "name": "b3044a7205f4fb069aa0543a27dda0ff", "fusion_lat": 0.0, "fusion_lon": 0.0, "rental_uris": {"android": "https://dc.lft.to/lastmile_qr_scan", "ios": "https://dc.lft.to/lastmile_qr_scan"}, "is_reserved": 0, "is_disabled": 0, "type": "electric_bike", "bike_id": "b3044a7205f4fb069aa0543a27dda0ff"}, {"lon": -77.04668733333334, "lat": 38.91555183333333, "name": "195c599ab1520aed744c7cfa98056ce3", "fusion_lat": 0.0, "fusion_lon": 0.0, "rental_uris": {"android": "https://dc.lft.to/lastmile_qr_scan", "ios": "https://dc.lft.to/lastmile_qr_scan"}, "is_reserved": 0, "is_disabled": 0, "type": "electric_scooter", "bike_id": "195c599ab1520aed744c7cfa98056ce3"}, {"lon": -77.036575, "lat": 38.908453, "name": "413c3490d2e69cc3b67ea489a9601581", "fusion_lat": 0.0, "fusion_lon": 0.0, "rental_uris": {"android": "https://dc.lft.to/lastmile_qr_scan", "ios": "https://dc.lft.to/lastmile_qr_scan"}, "is_reserved": 0, "is_disabled": 0, "type": "electric_scooter", "bike_id": "413c3490d2e69cc3b67ea489a9601581"}, {"lon": -77.03794583333334, "lat": 38.996749333333334, "name": "896a613d185b0ccf3a02eae36608f924", "fusion_lat": 0.0, "fusion_lon": 0.0, "rental_uris": {"android": "https://dc.lft.to/lastmile_qr_scan", "ios": "https://dc.lft.to/lastmile_qr_scan"}, "is_reserved": 0, "is_disabled": 0, "type": "electric_bike", "bike_id": "896a613d185b0ccf3a02eae36608f924"}, {"lon": -76.998683, "lat": 38.90029533333333, "name": "2f01c94104a43e706b22075202a69fa8", "fusion_lat": 0.0, "fusion_lon": 0.0, "rental_uris": {"android": "https://dc.lft.to/lastmile_qr_scan", "ios": "https://dc.lft.to/lastmile_qr_scan"}, "is_reserved": 0, "is_disabled": 0, "type": "electric_scooter", "bike_id": "2f01c94104a43e706b22075202a69fa8"}, {"lon": -76.93667066666667, "lat": 38.880268, "name": "870902e6900d1afdc5a9b66748bbf13d", "fusion_lat": 0.0, "fusion_lon": 0.0, "rental_uris": {"android": "https://dc.lft.to/lastmile_qr_scan", "ios": "https://dc.lft.to/lastmile_qr_scan"}, "is_reserved": 0, "is_disabled": 0, "type": "electric_scooter", "bike_id": "870902e6900d1afdc5a9b66748bbf13d"}, {"lon": -77.03066633333333, "lat": 38.880449666666664, "name": "a68c51cc58ec1c345890fcb3651c65fd", "fusion_lat": 0.0, "fusion_lon": 0.0, "rental_uris": {"android": "https://dc.lft.to/lastmile_qr_scan", "ios": "https://dc.lft.to/lastmile_qr_scan"}, "is_reserved": 0, "is_disabled": 0, "type": "electric_scooter", "bike_id": "a68c51cc58ec1c345890fcb3651c65fd"}, {"lon": -77.04464516666667, "lat": 38.918539833333334, "name": "7f065bc25aafeacee34ad4da25d071ea", "fusion_lat": 0.0, "fusion_lon": 0.0, "rental_uris": {"android": "https://dc.lft.to/lastmile_qr_scan", "ios": "https://dc.lft.to/lastmile_qr_scan"}, "is_reserved": 0, "is_disabled": 0, "type": "electric_scooter", "bike_id": "7f065bc25aafeacee34ad4da25d071ea"}, {"lon": -77.024122, "lat": 38.9096, "name": "ea66be3e06570e965711406776b7b1ed", "fusion_lat": 0.0, "fusion_lon": 0.0, "rental_uris": {"android": "https://dc.lft.to/lastmile_qr_scan", "ios": "https://dc.lft.to/lastmile_qr_scan"}, "is_reserved": 0, "is_disabled": 0, "type": "electric_scooter", "bike_id": "ea66be3e06570e965711406776b7b1ed"}, {"lon": -77.0191925, "lat": 38.91654583333333, "name": "ff9db0bce93fa609d07a5ecb443dd351", "fusion_lat": 0.0, "fusion_lon": 0.0, "rental_uris": {"android": "https://dc.lft.to/lastmile_qr_scan", "ios": "https://dc.lft.to/lastmile_qr_scan"}, "is_reserved": 0, "is_disabled": 0, "type": "electric_scooter", "bike_id": "ff9db0bce93fa609d07a5ecb443dd351"}, {"lon": -77.02826633333333, "lat": 38.885152166666664, "name": "a270e65c149230b12a401e30c0302749", "fusion_lat": 0.0, "fusion_lon": 0.0, "rental_uris": {"android": "https://dc.lft.to/lastmile_qr_scan", "ios": "https://dc.lft.to/lastmile_qr_scan"}, "is_reserved": 0, "is_disabled": 0, "type": "electric_scooter", "bike_id": "a270e65c149230b12a401e30c0302749"}, {"lon": -77.02705416666667, "lat": 38.899574333333334, "name": "f936f58b11d211fe55ef418321f62bcf", "fusion_lat": 0.0, "fusion_lon": 0.0, "rental_uris": {"android": "https://dc.lft.to/lastmile_qr_scan", "ios": "https://dc.lft.to/lastmile_qr_scan"}, "is_reserved": 0, "is_disabled": 0, "type": "electric_scooter", "bike_id": "f936f58b11d211fe55ef418321f62bcf"}, {"lon": -76.96554233333333, "lat": 38.9186115, "name": "3a25b630d18b1782b51b8f6024eb1b38", "fusion_lat": 0.0, "fusion_lon": 0.0, "rental_uris": {"android": "https://dc.lft.to/lastmile_qr_scan", "ios": "https://dc.lft.to/lastmile_qr_scan"}, "is_reserved": 0, "is_disabled": 0, "type": "electric_scooter", "bike_id": "3a25b630d18b1782b51b8f6024eb1b38"}, {"lon": -77.04283416666667, "lat": 38.907283666666665, "name": "f1354698a6d440095c1d27f0beacbc2e", "fusion_lat": 0.0, "fusion_lon": 0.0, "rental_uris": {"android": "https://dc.lft.to/lastmile_qr_scan", "ios": "https://dc.lft.to/lastmile_qr_scan"}, "is_reserved": 0, "is_disabled": 0, "type": "electric_scooter", "bike_id": "f1354698a6d440095c1d27f0beacbc2e"}, {"lon": -77.0292875, "lat": 38.93060466666667, "name": "1b224eec073d091b286eff07a24ec66f", "fusion_lat": 0.0, "fusion_lon": 0.0, "rental_uris": {"android": "https://dc.lft.to/lastmile_qr_scan", "ios": "https://dc.lft.to/lastmile_qr_scan"}, "is_reserved": 0, "is_disabled": 0, "type": "electric_scooter", "bike_id": "1b224eec073d091b286eff07a24ec66f"}, {"lon": -76.96556616666666, "lat": 38.918481, "name": "749edfb3f8ff7f0ae7d1f0b3641e5c6f", "fusion_lat": 0.0, "fusion_lon": 0.0, "rental_uris": {"android": "https://dc.lft.to/lastmile_qr_scan", "ios": "https://dc.lft.to/lastmile_qr_scan"}, "is_reserved": 0, "is_disabled": 0, "type": "electric_scooter", "bike_id": "749edfb3f8ff7f0ae7d1f0b3641e5c6f"}, {"lon": -77.03213033333333, "lat": 38.919843166666666, "name": "e27bc5a93bf73385b6b4b1c94fbd4423", "fusion_lat": 0.0, "fusion_lon": 0.0, "rental_uris": {"android": "https://dc.lft.to/lastmile_qr_scan", "ios": "https://dc.lft.to/lastmile_qr_scan"}, "is_reserved": 0, "is_disabled": 0, "type": "electric_scooter", "bike_id": "e27bc5a93bf73385b6b4b1c94fbd4423"}, {"lon": -77.0365965, "lat": 38.922808, "name": "a82f30bd2cebb52445f15a8b2753a926", "fusion_lat": 0.0, "fusion_lon": 0.0, "rental_uris": {"android": "https://dc.lft.to/lastmile_qr_scan", "ios": "https://dc.lft.to/lastmile_qr_scan"}, "is_reserved": 0, "is_disabled": 0, "type": "electric_scooter", "bike_id": "a82f30bd2cebb52445f15a8b2753a926"}, {"lon": -77.0341875, "lat": 38.929507, "name": "b6e329bdc9a3d08b0c5427968d9db358", "fusion_lat": 0.0, "fusion_lon": 0.0, "rental_uris": {"android": "https://dc.lft.to/lastmile_qr_scan", "ios": "https://dc.lft.to/lastmile_qr_scan"}, "is_reserved": 0, "is_disabled": 0, "type": "electric_scooter", "bike_id": "b6e329bdc9a3d08b0c5427968d9db358"}, {"lon": -77.0383565, "lat": 38.91191333333333, "name": "e6929dc63d15826f58a6618793676402", "fusion_lat": 0.0, "fusion_lon": 0.0, "rental_uris": {"android": "https://dc.lft.to/lastmile_qr_scan", "ios": "https://dc.lft.to/lastmile_qr_scan"}, "is_reserved": 0, "is_disabled": 0, "type": "electric_scooter", "bike_id": "e6929dc63d15826f58a6618793676402"}, {"lon": -77.02959433333334, "lat": 38.922714666666664, "name": "be560be1b1bd44d3fcc35d0af257e2a7", "fusion_lat": 0.0, "fusion_lon": 0.0, "rental_uris": {"android": "https://dc.lft.to/lastmile_qr_scan", "ios": "https://dc.lft.to/lastmile_qr_scan"}, "is_reserved": 0, "is_disabled": 0, "type": "electric_scooter", "bike_id": "be560be1b1bd44d3fcc35d0af257e2a7"}, {"lon": -77.1318355, "lat": 38.8690555, "name": "0abe7c320ea3c691380406495876333f", "fusion_lat": 0.0, "fusion_lon": 0.0, "rental_uris": {"android": "https://dc.lft.to/lastmile_qr_scan", "ios": "https://dc.lft.to/lastmile_qr_scan"}, "is_reserved": 0, "is_disabled": 0, "type": "electric_bike", "bike_id": "0abe7c320ea3c691380406495876333f"}, {"lon": -77.03359716666667, "lat": 38.887608, "name": "70eaae6cf9b0632d68d3bc952b5f4d47", "fusion_lat": 0.0, "fusion_lon": 0.0, "rental_uris": {"android": "https://dc.lft.to/lastmile_qr_scan", "ios": "https://dc.lft.to/lastmile_qr_scan"}, "is_reserved": 0, "is_disabled": 0, "type": "electric_scooter", "bike_id": "70eaae6cf9b0632d68d3bc952b5f4d47"}, {"lon": -77.03200216666667, "lat": 38.89357616666667, "name": "179c88313beda2a245fbb3e89ff45725", "fusion_lat": 0.0, "fusion_lon": 0.0, "rental_uris": {"android": "https://dc.lft.to/lastmile_qr_scan", "ios": "https://dc.lft.to/lastmile_qr_scan"}, "is_reserved": 0, "is_disabled": 0, "type": "electric_scooter", "bike_id": "179c88313beda2a245fbb3e89ff45725"}, {"lon": -77.02379766666667, "lat": 38.91159433333333, "name": "0bf8696a529ac5c0ca0590f79d8b3e0c", "fusion_lat": 0.0, "fusion_lon": 0.0, "rental_uris": {"android": "https://dc.lft.to/lastmile_qr_scan", "ios": "https://dc.lft.to/lastmile_qr_scan"}, "is_reserved": 0, "is_disabled": 0, "type": "electric_scooter", "bike_id": "0bf8696a529ac5c0ca0590f79d8b3e0c"}, {"lon": -77.02700133333333, "lat": 38.91594416666667, "name": "7290032bd3f8dad39ea4a762852d7cc7", "fusion_lat": 0.0, "fusion_lon": 0.0, "rental_uris": {"android": "https://dc.lft.to/lastmile_qr_scan", "ios": "https://dc.lft.to/lastmile_qr_scan"}, "is_reserved": 0, "is_disabled": 0, "type": "electric_scooter", "bike_id": "7290032bd3f8dad39ea4a762852d7cc7"}, {"lon": -77.024761, "lat": 38.92648783333333, "name": "586b2ed722fdff3d5e94097b9197c377", "fusion_lat": 0.0, "fusion_lon": 0.0, "rental_uris": {"android": "https://dc.lft.to/lastmile_qr_scan", "ios": "https://dc.lft.to/lastmile_qr_scan"}, "is_reserved": 0, "is_disabled": 0, "type": "electric_scooter", "bike_id": "586b2ed722fdff3d5e94097b9197c377"}, {"lon": -77.0418165, "lat": 38.90111066666667, "name": "539011f1a11fe75fdf76ba41b1ef1e79", "fusion_lat": 0.0, "fusion_lon": 0.0, "rental_uris": {"android": "https://dc.lft.to/lastmile_qr_scan", "ios": "https://dc.lft.to/lastmile_qr_scan"}, "is_reserved": 0, "is_disabled": 0, "type": "electric_scooter", "bike_id": "539011f1a11fe75fdf76ba41b1ef1e79"}, {"lon": -76.94895883333334, "lat": 38.895228833333334, "name": "e0ec9bde6f5b86785aae26c2589d6a58", "fusion_lat": 0.0, "fusion_lon": 0.0, "rental_uris": {"android": "https://dc.lft.to/lastmile_qr_scan", "ios": "https://dc.lft.to/lastmile_qr_scan"}, "is_reserved": 0, "is_disabled": 0, "type": "electric_scooter", "bike_id": "e0ec9bde6f5b86785aae26c2589d6a58"}, {"lon": -77.04234333333333, "lat": 38.901183, "name": "6f700e8b39576b07c055dc99e034c145", "fusion_lat": 0.0, "fusion_lon": 0.0, "rental_uris": {"android": "https://dc.lft.to/lastmile_qr_scan", "ios": "https://dc.lft.to/lastmile_qr_scan"}, "is_reserved": 0, "is_disabled": 0, "type": "electric_scooter", "bike_id": "6f700e8b39576b07c055dc99e034c145"}, {"lon": -76.97253466666666, "lat": 38.95739716666667, "name": "85dacbd24b79aabaa914e879aaebef55", "fusion_lat": 0.0, "fusion_lon": 0.0, "rental_uris": {"android": "https://dc.lft.to/lastmile_qr_scan", "ios": "https://dc.lft.to/lastmile_qr_scan"}, "is_reserved": 0, "is_disabled": 0, "type": "electric_bike", "bike_id": "85dacbd24b79aabaa914e879aaebef55"}, {"lon": -77.03841583333333, "lat": 38.91216883333333, "name": "723e1490f14288a7e3fe78c5ad6cba61", "fusion_lat": 0.0, "fusion_lon": 0.0, "rental_uris": {"android": "https://dc.lft.to/lastmile_qr_scan", "ios": "https://dc.lft.to/lastmile_qr_scan"}, "is_reserved": 0, "is_disabled": 0, "type": "electric_scooter", "bike_id": "723e1490f14288a7e3fe78c5ad6cba61"}, {"lon": -76.94653033333333, "lat": 38.89823616666666, "name": "0e329cdaeaa63d54b34588f1f02450ce", "fusion_lat": 0.0, "fusion_lon": 0.0, "rental_uris": {"android": "https://dc.lft.to/lastmile_qr_scan", "ios": "https://dc.lft.to/lastmile_qr_scan"}, "is_reserved": 0, "is_disabled": 0, "type": "electric_scooter", "bike_id": "0e329cdaeaa63d54b34588f1f02450ce"}, {"lon": -77.00276466666666, "lat": 38.90747483333333, "name": "e6214e1476e7a8353c74df38b7392a03", "fusion_lat": 0.0, "fusion_lon": 0.0, "rental_uris": {"android": "https://dc.lft.to/lastmile_qr_scan", "ios": "https://dc.lft.to/lastmile_qr_scan"}, "is_reserved": 0, "is_disabled": 0, "type": "electric_scooter", "bike_id": "e6214e1476e7a8353c74df38b7392a03"}, {"lon": -77.0333695, "lat": 38.8974805, "name": "00adfa082e39e710da2016d7f05c1fc6", "fusion_lat": 0.0, "fusion_lon": 0.0, "rental_uris": {"android": "https://dc.lft.to/lastmile_qr_scan", "ios": "https://dc.lft.to/lastmile_qr_scan"}, "is_reserved": 0, "is_disabled": 0, "type": "electric_scooter", "bike_id": "00adfa082e39e710da2016d7f05c1fc6"}, {"lon": -77.04277083333334, "lat": 38.923162833333336, "name": "414759c45f86f60311dfc081b30b6b6e", "fusion_lat": 0.0, "fusion_lon": 0.0, "rental_uris": {"android": "https://dc.lft.to/lastmile_qr_scan", "ios": "https://dc.lft.to/lastmile_qr_scan"}, "is_reserved": 0, "is_disabled": 0, "type": "electric_scooter", "bike_id": "414759c45f86f60311dfc081b30b6b6e"}, {"lon": -77.07599816666666, "lat": 38.912128333333335, "name": "dae624b301bc833357fa878f46e509bd", "fusion_lat": 0.0, "fusion_lon": 0.0, "rental_uris": {"android": "https://dc.lft.to/lastmile_qr_scan", "ios": "https://dc.lft.to/lastmile_qr_scan"}, "is_reserved": 0, "is_disabled": 0, "type": "electric_scooter", "bike_id": "dae624b301bc833357fa878f46e509bd"}, {"lon": -76.9565895, "lat": 38.896077, "name": "e2b7f97853412c78daf93b40ea912272", "fusion_lat": 0.0, "fusion_lon": 0.0, "rental_uris": {"android": "https://dc.lft.to/lastmile_qr_scan", "ios": "https://dc.lft.to/lastmile_qr_scan"}, "is_reserved": 0, "is_disabled": 0, "type": "electric_scooter", "bike_id": "e2b7f97853412c78daf93b40ea912272"}, {"lon": -77.03818533333333, "lat": 38.931142333333334, "name": "9e9926a708f23fb084eb47ec5b83101b", "fusion_lat": 0.0, "fusion_lon": 0.0, "rental_uris": {"android": "https://dc.lft.to/lastmile_qr_scan", "ios": "https://dc.lft.to/lastmile_qr_scan"}, "is_reserved": 0, "is_disabled": 0, "type": "electric_scooter", "bike_id": "9e9926a708f23fb084eb47ec5b83101b"}, {"lon": -77.00053233333334, "lat": 38.903634, "name": "9d6b4b61988412f3b4b36e7f34578502", "fusion_lat": 0.0, "fusion_lon": 0.0, "rental_uris": {"android": "https://dc.lft.to/lastmile_qr_scan", "ios": "https://dc.lft.to/lastmile_qr_scan"}, "is_reserved": 0, "is_disabled": 0, "type": "electric_scooter", "bike_id": "9d6b4b61988412f3b4b36e7f34578502"}, {"lon": -77.02152483333333, "lat": 38.89408133333333, "name": "4b8c1c208bb88ef1575cd7c640051f59", "fusion_lat": 0.0, "fusion_lon": 0.0, "rental_uris": {"android": "https://dc.lft.to/lastmile_qr_scan", "ios": "https://dc.lft.to/lastmile_qr_scan"}, "is_reserved": 0, "is_disabled": 0, "type": "electric_scooter", "bike_id": "4b8c1c208bb88ef1575cd7c640051f59"}, {"lon": -77.024844, "lat": 38.938781166666665, "name": "61d3e14c39965f3a87ffeed33772df02", "fusion_lat": 0.0, "fusion_lon": 0.0, "rental_uris": {"android": "https://dc.lft.to/lastmile_qr_scan", "ios": "https://dc.lft.to/lastmile_qr_scan"}, "is_reserved": 0, "is_disabled": 0, "type": "electric_scooter", "bike_id": "61d3e14c39965f3a87ffeed33772df02"}, {"lon": -77.0318095, "lat": 38.919272666666664, "name": "10c2c6e8f6e1cf1ef91af3e8a7d062fd", "fusion_lat": 0.0, "fusion_lon": 0.0, "rental_uris": {"android": "https://dc.lft.to/lastmile_qr_scan", "ios": "https://dc.lft.to/lastmile_qr_scan"}, "is_reserved": 0, "is_disabled": 0, "type": "electric_scooter", "bike_id": "10c2c6e8f6e1cf1ef91af3e8a7d062fd"}, {"lon": -76.99015233333333, "lat": 38.86115433333333, "name": "dfcceffc2e42fe4d77bec6a4b7298f53", "fusion_lat": 0.0, "fusion_lon": 0.0, "rental_uris": {"android": "https://dc.lft.to/lastmile_qr_scan", "ios": "https://dc.lft.to/lastmile_qr_scan"}, "is_reserved": 0, "is_disabled": 0, "type": "electric_scooter", "bike_id": "dfcceffc2e42fe4d77bec6a4b7298f53"}, {"lon": -77.03642183333334, "lat": 38.92405216666667, "name": "68e8af8b0a8435cdef75d2b052ac3bb1", "fusion_lat": 0.0, "fusion_lon": 0.0, "rental_uris": {"android": "https://dc.lft.to/lastmile_qr_scan", "ios": "https://dc.lft.to/lastmile_qr_scan"}, "is_reserved": 0, "is_disabled": 0, "type": "electric_scooter", "bike_id": "68e8af8b0a8435cdef75d2b052ac3bb1"}, {"lon": -77.02168566666667, "lat": 38.887427333333335, "name": "aa39d087bddf4c8893b9c2156be0943a", "fusion_lat": 0.0, "fusion_lon": 0.0, "rental_uris": {"android": "https://dc.lft.to/lastmile_qr_scan", "ios": "https://dc.lft.to/lastmile_qr_scan"}, "is_reserved": 0, "is_disabled": 0, "type": "electric_scooter", "bike_id": "aa39d087bddf4c8893b9c2156be0943a"}, {"lon": -76.94894083333334, "lat": 38.89522683333333, "name": "e762c416b84edfc9759246296b0c3846", "fusion_lat": 0.0, "fusion_lon": 0.0, "rental_uris": {"android": "https://dc.lft.to/lastmile_qr_scan", "ios": "https://dc.lft.to/lastmile_qr_scan"}, "is_reserved": 0, "is_disabled": 0, "type": "electric_scooter", "bike_id": "e762c416b84edfc9759246296b0c3846"}, {"lon": -76.99632566666666, "lat": 38.8462125, "name": "49fc189ba272aaafc1feae90fae5dee2", "fusion_lat": 0.0, "fusion_lon": 0.0, "rental_uris": {"android": "https://dc.lft.to/lastmile_qr_scan", "ios": "https://dc.lft.to/lastmile_qr_scan"}, "is_reserved": 0, "is_disabled": 0, "type": "electric_scooter", "bike_id": "49fc189ba272aaafc1feae90fae5dee2"}, {"lon": -76.99868566666666, "lat": 38.900259, "name": "8f34bef0dd6e76ef44f17d9d7d8545f0", "fusion_lat": 0.0, "fusion_lon": 0.0, "rental_uris": {"android": "https://dc.lft.to/lastmile_qr_scan", "ios": "https://dc.lft.to/lastmile_qr_scan"}, "is_reserved": 0, "is_disabled": 0, "type": "electric_scooter", "bike_id": "8f34bef0dd6e76ef44f17d9d7d8545f0"}, {"lon": -77.04163283333334, "lat": 38.919083, "name": "0dcec5f277bb23241c43bdc8e6bbd165", "fusion_lat": 0.0, "fusion_lon": 0.0, "rental_uris": {"android": "https://dc.lft.to/lastmile_qr_scan", "ios": "https://dc.lft.to/lastmile_qr_scan"}, "is_reserved": 0, "is_disabled": 0, "type": "electric_scooter", "bike_id": "0dcec5f277bb23241c43bdc8e6bbd165"}, {"lon": -77.025624, "lat": 38.93854066666667, "name": "1bf894c03da4b07d59e457ff787af980", "fusion_lat": 0.0, "fusion_lon": 0.0, "rental_uris": {"android": "https://dc.lft.to/lastmile_qr_scan", "ios": "https://dc.lft.to/lastmile_qr_scan"}, "is_reserved": 0, "is_disabled": 0, "type": "electric_scooter", "bike_id": "1bf894c03da4b07d59e457ff787af980"}, {"lon": -77.06395316666666, "lat": 38.92902616666667, "name": "e53cb9df35ddc3179374b7d0de39278f", "fusion_lat": 0.0, "fusion_lon": 0.0, "rental_uris": {"android": "https://dc.lft.to/lastmile_qr_scan", "ios": "https://dc.lft.to/lastmile_qr_scan"}, "is_reserved": 0, "is_disabled": 0, "type": "electric_scooter", "bike_id": "e53cb9df35ddc3179374b7d0de39278f"}, {"lon": -77.0276755, "lat": 38.89198416666667, "name": "3bea9f8eda07700d64abd8d4c58a1036", "fusion_lat": 0.0, "fusion_lon": 0.0, "rental_uris": {"android": "https://dc.lft.to/lastmile_qr_scan", "ios": "https://dc.lft.to/lastmile_qr_scan"}, "is_reserved": 0, "is_disabled": 0, "type": "electric_scooter", "bike_id": "3bea9f8eda07700d64abd8d4c58a1036"}, {"lon": -77.05298633333334, "lat": 38.8986875, "name": "137b8ab0562d30b57d9463c2fc12925c", "fusion_lat": 0.0, "fusion_lon": 0.0, "rental_uris": {"android": "https://dc.lft.to/lastmile_qr_scan", "ios": "https://dc.lft.to/lastmile_qr_scan"}, "is_reserved": 0, "is_disabled": 0, "type": "electric_scooter", "bike_id": "137b8ab0562d30b57d9463c2fc12925c"}, {"lon": -76.994131, "lat": 38.877838, "name": "c9923fb63c2943777b34475fce16634e", "fusion_lat": 0.0, "fusion_lon": 0.0, "rental_uris": {"android": "https://dc.lft.to/lastmile_qr_scan", "ios": "https://dc.lft.to/lastmile_qr_scan"}, "is_reserved": 0, "is_disabled": 0, "type": "electric_scooter", "bike_id": "c9923fb63c2943777b34475fce16634e"}, {"lon": -76.99865233333334, "lat": 38.900153, "name": "af17a7459f8cf717c7e9701d1bce5f49", "fusion_lat": 0.0, "fusion_lon": 0.0, "rental_uris": {"android": "https://dc.lft.to/lastmile_qr_scan", "ios": "https://dc.lft.to/lastmile_qr_scan"}, "is_reserved": 0, "is_disabled": 0, "type": "electric_scooter", "bike_id": "af17a7459f8cf717c7e9701d1bce5f49"}, {"lon": -77.00977766666666, "lat": 38.9534615, "name": "1ba3123a8ebd4f4551edf21a6553c936", "fusion_lat": 0.0, "fusion_lon": 0.0, "rental_uris": {"android": "https://dc.lft.to/lastmile_qr_scan", "ios": "https://dc.lft.to/lastmile_qr_scan"}, "is_reserved": 0, "is_disabled": 0, "type": "electric_bike", "bike_id": "1ba3123a8ebd4f4551edf21a6553c936"}, {"lon": -77.037385, "lat": 38.933687166666665, "name": "b6bbd7a762b44e32fec6eb49aa44dff5", "fusion_lat": 0.0, "fusion_lon": 0.0, "rental_uris": {"android": "https://dc.lft.to/lastmile_qr_scan", "ios": "https://dc.lft.to/lastmile_qr_scan"}, "is_reserved": 0, "is_disabled": 0, "type": "electric_scooter", "bike_id": "b6bbd7a762b44e32fec6eb49aa44dff5"}, {"lon": -77.03193183333333, "lat": 38.907722166666666, "name": "dea1bba0c79a136818ff31e0acca4604", "fusion_lat": 0.0, "fusion_lon": 0.0, "rental_uris": {"android": "https://dc.lft.to/lastmile_qr_scan", "ios": "https://dc.lft.to/lastmile_qr_scan"}, "is_reserved": 0, "is_disabled": 0, "type": "electric_scooter", "bike_id": "dea1bba0c79a136818ff31e0acca4604"}, {"lon": -77.02695833333334, "lat": 38.91827166666667, "name": "1a215b2e7bb239e01b96afc76c53e30a", "fusion_lat": 0.0, "fusion_lon": 0.0, "rental_uris": {"android": "https://dc.lft.to/lastmile_qr_scan", "ios": "https://dc.lft.to/lastmile_qr_scan"}, "is_reserved": 0, "is_disabled": 0, "type": "electric_scooter", "bike_id": "1a215b2e7bb239e01b96afc76c53e30a"}, {"lon": -77.01778883333333, "lat": 38.90041216666667, "name": "bb13205c4ef9a545943c9a9838bffcaa", "fusion_lat": 0.0, "fusion_lon": 0.0, "rental_uris": {"android": "https://dc.lft.to/lastmile_qr_scan", "ios": "https://dc.lft.to/lastmile_qr_scan"}, "is_reserved": 0, "is_disabled": 0, "type": "electric_scooter", "bike_id": "bb13205c4ef9a545943c9a9838bffcaa"}, {"lon": -76.97629516666667, "lat": 38.89279966666667, "name": "dbeeb6d91f2017c35c0b723e6bb245bf", "fusion_lat": 0.0, "fusion_lon": 0.0, "rental_uris": {"android": "https://dc.lft.to/lastmile_qr_scan", "ios": "https://dc.lft.to/lastmile_qr_scan"}, "is_reserved": 0, "is_disabled": 0, "type": "electric_bike", "bike_id": "dbeeb6d91f2017c35c0b723e6bb245bf"}, {"lon": -77.04148516666666, "lat": 38.9197785, "name": "ee4f455174127b4fd3823660b2de3f29", "fusion_lat": 0.0, "fusion_lon": 0.0, "rental_uris": {"android": "https://dc.lft.to/lastmile_qr_scan", "ios": "https://dc.lft.to/lastmile_qr_scan"}, "is_reserved": 0, "is_disabled": 0, "type": "electric_scooter", "bike_id": "ee4f455174127b4fd3823660b2de3f29"}, {"lon": -76.98603683333333, "lat": 38.89917033333333, "name": "e81312cb7ee1d2a6fc4a91f909285a4d", "fusion_lat": 0.0, "fusion_lon": 0.0, "rental_uris": {"android": "https://dc.lft.to/lastmile_qr_scan", "ios": "https://dc.lft.to/lastmile_qr_scan"}, "is_reserved": 0, "is_disabled": 0, "type": "electric_scooter", "bike_id": "e81312cb7ee1d2a6fc4a91f909285a4d"}, {"lon": -77.0385425, "lat": 38.90270816666666, "name": "e17a4939ba82a156225947d5d1f973fd", "fusion_lat": 0.0, "fusion_lon": 0.0, "rental_uris": {"android": "https://dc.lft.to/lastmile_qr_scan", "ios": "https://dc.lft.to/lastmile_qr_scan"}, "is_reserved": 0, "is_disabled": 0, "type": "electric_scooter", "bike_id": "e17a4939ba82a156225947d5d1f973fd"}, {"lon": -76.98613466666667, "lat": 38.854602666666665, "name": "8312b3311029d19450e051a815bc8eff", "fusion_lat": 0.0, "fusion_lon": 0.0, "rental_uris": {"android": "https://dc.lft.to/lastmile_qr_scan", "ios": "https://dc.lft.to/lastmile_qr_scan"}, "is_reserved": 0, "is_disabled": 0, "type": "electric_scooter", "bike_id": "8312b3311029d19450e051a815bc8eff"}, {"lon": -77.037248, "lat": 38.933623833333336, "name": "599e3529a2571607270f0c10e22eb522", "fusion_lat": 0.0, "fusion_lon": 0.0, "rental_uris": {"android": "https://dc.lft.to/lastmile_qr_scan", "ios": "https://dc.lft.to/lastmile_qr_scan"}, "is_reserved": 0, "is_disabled": 0, "type": "electric_scooter", "bike_id": "599e3529a2571607270f0c10e22eb522"}, {"lon": -77.00913783333333, "lat": 38.91039216666667, "name": "bf000903980c8e2d9454bdc77c33a228", "fusion_lat": 0.0, "fusion_lon": 0.0, "rental_uris": {"android": "https://dc.lft.to/lastmile_qr_scan", "ios": "https://dc.lft.to/lastmile_qr_scan"}, "is_reserved": 0, "is_disabled": 0, "type": "electric_scooter", "bike_id": "bf000903980c8e2d9454bdc77c33a228"}, {"lon": -77.02828983333333, "lat": 38.88736866666667, "name": "fd580095feea9d0d9124e2af7d40c598", "fusion_lat": 0.0, "fusion_lon": 0.0, "rental_uris": {"android": "https://dc.lft.to/lastmile_qr_scan", "ios": "https://dc.lft.to/lastmile_qr_scan"}, "is_reserved": 0, "is_disabled": 0, "type": "electric_scooter", "bike_id": "fd580095feea9d0d9124e2af7d40c598"}, {"lon": -76.96560366666667, "lat": 38.91861733333333, "name": "71eb8ed7728c7a3a509bfed1fd2770da", "fusion_lat": 0.0, "fusion_lon": 0.0, "rental_uris": {"android": "https://dc.lft.to/lastmile_qr_scan", "ios": "https://dc.lft.to/lastmile_qr_scan"}, "is_reserved": 0, "is_disabled": 0, "type": "electric_scooter", "bike_id": "71eb8ed7728c7a3a509bfed1fd2770da"}, {"lon": -77.03474116666666, "lat": 38.916964, "name": "5e070936848777b1e00224c4cb22f832", "fusion_lat": 0.0, "fusion_lon": 0.0, "rental_uris": {"android": "https://dc.lft.to/lastmile_qr_scan", "ios": "https://dc.lft.to/lastmile_qr_scan"}, "is_reserved": 0, "is_disabled": 0, "type": "electric_scooter", "bike_id": "5e070936848777b1e00224c4cb22f832"}, {"lon": -77.010765, "lat": 38.96259116666667, "name": "1df415f59fedbb3b7a6a042e14c54b87", "fusion_lat": 0.0, "fusion_lon": 0.0, "rental_uris": {"android": "https://dc.lft.to/lastmile_qr_scan", "ios": "https://dc.lft.to/lastmile_qr_scan"}, "is_reserved": 0, "is_disabled": 0, "type": "electric_bike", "bike_id": "1df415f59fedbb3b7a6a042e14c54b87"}, {"lon": -76.98020516666666, "lat": 38.90379333333333, "name": "bb5cd8525b79a8d517b873488d3253cf", "fusion_lat": 0.0, "fusion_lon": 0.0, "rental_uris": {"android": "https://dc.lft.to/lastmile_qr_scan", "ios": "https://dc.lft.to/lastmile_qr_scan"}, "is_reserved": 0, "is_disabled": 0, "type": "electric_scooter", "bike_id": "bb5cd8525b79a8d517b873488d3253cf"}, {"lon": -77.02170433333333, "lat": 38.90572733333333, "name": "7151d2b93182859f384dfd17306308b4", "fusion_lat": 0.0, "fusion_lon": 0.0, "rental_uris": {"android": "https://dc.lft.to/lastmile_qr_scan", "ios": "https://dc.lft.to/lastmile_qr_scan"}, "is_reserved": 0, "is_disabled": 0, "type": "electric_scooter", "bike_id": "7151d2b93182859f384dfd17306308b4"}, {"lon": -77.03872166666666, "lat": 38.901342666666665, "name": "0adf0584d30b86f53205f514b98f4837", "fusion_lat": 0.0, "fusion_lon": 0.0, "rental_uris": {"android": "https://dc.lft.to/lastmile_qr_scan", "ios": "https://dc.lft.to/lastmile_qr_scan"}, "is_reserved": 0, "is_disabled": 0, "type": "electric_bike", "bike_id": "0adf0584d30b86f53205f514b98f4837"}, {"lon": -77.03856366666666, "lat": 38.91542333333334, "name": "4430dc35b686d5e7f7e9f7dc1027aadf", "fusion_lat": 0.0, "fusion_lon": 0.0, "rental_uris": {"android": "https://dc.lft.to/lastmile_qr_scan", "ios": "https://dc.lft.to/lastmile_qr_scan"}, "is_reserved": 0, "is_disabled": 0, "type": "electric_scooter", "bike_id": "4430dc35b686d5e7f7e9f7dc1027aadf"}, {"lon": -76.99838733333333, "lat": 38.839170833333334, "name": "190c1ca29fa52a83d069be8a73d3f47e", "fusion_lat": 0.0, "fusion_lon": 0.0, "rental_uris": {"android": "https://dc.lft.to/lastmile_qr_scan", "ios": "https://dc.lft.to/lastmile_qr_scan"}, "is_reserved": 0, "is_disabled": 0, "type": "electric_bike", "bike_id": "190c1ca29fa52a83d069be8a73d3f47e"}, {"lon": -77.03107933333334, "lat": 38.9337935, "name": "2b8513c5acfbac6408f36067ae33df5f", "fusion_lat": 0.0, "fusion_lon": 0.0, "rental_uris": {"android": "https://dc.lft.to/lastmile_qr_scan", "ios": "https://dc.lft.to/lastmile_qr_scan"}, "is_reserved": 0, "is_disabled": 0, "type": "electric_scooter", "bike_id": "2b8513c5acfbac6408f36067ae33df5f"}, {"lon": -77.04058933333333, "lat": 38.917716, "name": "4dcdc6e2756cc8ea34d60ef0212e761e", "fusion_lat": 0.0, "fusion_lon": 0.0, "rental_uris": {"android": "https://dc.lft.to/lastmile_qr_scan", "ios": "https://dc.lft.to/lastmile_qr_scan"}, "is_reserved": 0, "is_disabled": 0, "type": "electric_scooter", "bike_id": "4dcdc6e2756cc8ea34d60ef0212e761e"}, {"lon": -77.0309275, "lat": 38.907216, "name": "7050d2e800bea2e6a077d986a7fce5e4", "fusion_lat": 0.0, "fusion_lon": 0.0, "rental_uris": {"android": "https://dc.lft.to/lastmile_qr_scan", "ios": "https://dc.lft.to/lastmile_qr_scan"}, "is_reserved": 0, "is_disabled": 0, "type": "electric_scooter", "bike_id": "7050d2e800bea2e6a077d986a7fce5e4"}, {"lon": -77.053829, "lat": 38.9104855, "name": "a0ec2c57116cae6f1cf1cec704187714", "fusion_lat": 0.0, "fusion_lon": 0.0, "rental_uris": {"android": "https://dc.lft.to/lastmile_qr_scan", "ios": "https://dc.lft.to/lastmile_qr_scan"}, "is_reserved": 0, "is_disabled": 0, "type": "electric_scooter", "bike_id": "a0ec2c57116cae6f1cf1cec704187714"}, {"lon": -77.04058866666666, "lat": 38.91768066666667, "name": "fc20189d26033c6460969e04da909ce1", "fusion_lat": 0.0, "fusion_lon": 0.0, "rental_uris": {"android": "https://dc.lft.to/lastmile_qr_scan", "ios": "https://dc.lft.to/lastmile_qr_scan"}, "is_reserved": 0, "is_disabled": 0, "type": "electric_scooter", "bike_id": "fc20189d26033c6460969e04da909ce1"}, {"lon": -77.11244633333334, "lat": 38.856031, "name": "1aadf98ade0ad23a73a38dcfea88cab3", "fusion_lat": 0.0, "fusion_lon": 0.0, "rental_uris": {"android": "https://dc.lft.to/lastmile_qr_scan", "ios": "https://dc.lft.to/lastmile_qr_scan"}, "is_reserved": 0, "is_disabled": 0, "type": "electric_bike", "bike_id": "1aadf98ade0ad23a73a38dcfea88cab3"}, {"lon": -77.04506833333333, "lat": 38.9127815, "name": "5b62c5aa35d0a965289f4ff668195104", "fusion_lat": 0.0, "fusion_lon": 0.0, "rental_uris": {"android": "https://dc.lft.to/lastmile_qr_scan", "ios": "https://dc.lft.to/lastmile_qr_scan"}, "is_reserved": 0, "is_disabled": 0, "type": "electric_scooter", "bike_id": "5b62c5aa35d0a965289f4ff668195104"}, {"lon": -76.9845935, "lat": 38.91140083333333, "name": "8ef7c9f155e4dc3fb1530ed29ea26467", "fusion_lat": 0.0, "fusion_lon": 0.0, "rental_uris": {"android": "https://dc.lft.to/lastmile_qr_scan", "ios": "https://dc.lft.to/lastmile_qr_scan"}, "is_reserved": 0, "is_disabled": 0, "type": "electric_scooter", "bike_id": "8ef7c9f155e4dc3fb1530ed29ea26467"}, {"lon": -76.99617533333333, "lat": 38.885640333333335, "name": "a74f39718dd8712d86a2c173e77294a6", "fusion_lat": 0.0, "fusion_lon": 0.0, "rental_uris": {"android": "https://dc.lft.to/lastmile_qr_scan", "ios": "https://dc.lft.to/lastmile_qr_scan"}, "is_reserved": 0, "is_disabled": 0, "type": "electric_scooter", "bike_id": "a74f39718dd8712d86a2c173e77294a6"}, {"lon": -76.98729733333333, "lat": 38.867055, "name": "25f11b520658d26e35f6ee0b74503d72", "fusion_lat": 0.0, "fusion_lon": 0.0, "rental_uris": {"android": "https://dc.lft.to/lastmile_qr_scan", "ios": "https://dc.lft.to/lastmile_qr_scan"}, "is_reserved": 0, "is_disabled": 0, "type": "electric_scooter", "bike_id": "25f11b520658d26e35f6ee0b74503d72"}, {"lon": -77.016416, "lat": 38.89988783333333, "name": "bad6e0cba40499655831d7faf22952f3", "fusion_lat": 0.0, "fusion_lon": 0.0, "rental_uris": {"android": "https://dc.lft.to/lastmile_qr_scan", "ios": "https://dc.lft.to/lastmile_qr_scan"}, "is_reserved": 0, "is_disabled": 0, "type": "electric_scooter", "bike_id": "bad6e0cba40499655831d7faf22952f3"}, {"lon": -77.00797933333334, "lat": 38.89716216666667, "name": "b1169d1b29addb7d685531e0d336e6f3", "fusion_lat": 0.0, "fusion_lon": 0.0, "rental_uris": {"android": "https://dc.lft.to/lastmile_qr_scan", "ios": "https://dc.lft.to/lastmile_qr_scan"}, "is_reserved": 0, "is_disabled": 0, "type": "electric_scooter", "bike_id": "b1169d1b29addb7d685531e0d336e6f3"}, {"lon": -77.0499055, "lat": 38.90113083333333, "name": "5cb5bd4c22d79d2f5b32fe4f639765db", "fusion_lat": 0.0, "fusion_lon": 0.0, "rental_uris": {"android": "https://dc.lft.to/lastmile_qr_scan", "ios": "https://dc.lft.to/lastmile_qr_scan"}, "is_reserved": 0, "is_disabled": 0, "type": "electric_scooter", "bike_id": "5cb5bd4c22d79d2f5b32fe4f639765db"}, {"lon": -77.05731033333333, "lat": 38.933745333333334, "name": "d7310f3d003338775b9d5a9e2355216c", "fusion_lat": 0.0, "fusion_lon": 0.0, "rental_uris": {"android": "https://dc.lft.to/lastmile_qr_scan", "ios": "https://dc.lft.to/lastmile_qr_scan"}, "is_reserved": 0, "is_disabled": 0, "type": "electric_scooter", "bike_id": "d7310f3d003338775b9d5a9e2355216c"}, {"lon": -77.02299633333334, "lat": 38.9097235, "name": "2e7ab486388a57c05c041608f795f2b5", "fusion_lat": 0.0, "fusion_lon": 0.0, "rental_uris": {"android": "https://dc.lft.to/lastmile_qr_scan", "ios": "https://dc.lft.to/lastmile_qr_scan"}, "is_reserved": 0, "is_disabled": 0, "type": "electric_scooter", "bike_id": "2e7ab486388a57c05c041608f795f2b5"}, {"lon": -77.01655183333334, "lat": 38.9293525, "name": "e68efb8d7146fe47606e2c427d94a830", "fusion_lat": 0.0, "fusion_lon": 0.0, "rental_uris": {"android": "https://dc.lft.to/lastmile_qr_scan", "ios": "https://dc.lft.to/lastmile_qr_scan"}, "is_reserved": 0, "is_disabled": 0, "type": "electric_scooter", "bike_id": "e68efb8d7146fe47606e2c427d94a830"}, {"lon": -77.02417383333334, "lat": 38.92605616666667, "name": "0a27385cf61b578306d09b501fe97175", "fusion_lat": 0.0, "fusion_lon": 0.0, "rental_uris": {"android": "https://dc.lft.to/lastmile_qr_scan", "ios": "https://dc.lft.to/lastmile_qr_scan"}, "is_reserved": 0, "is_disabled": 0, "type": "electric_scooter", "bike_id": "0a27385cf61b578306d09b501fe97175"}, {"lon": -77.01253183333333, "lat": 38.8762735, "name": "fced415604d05f9fd6a6e75ca00c72f9", "fusion_lat": 0.0, "fusion_lon": 0.0, "rental_uris": {"android": "https://dc.lft.to/lastmile_qr_scan", "ios": "https://dc.lft.to/lastmile_qr_scan"}, "is_reserved": 0, "is_disabled": 0, "type": "electric_scooter", "bike_id": "fced415604d05f9fd6a6e75ca00c72f9"}, {"lon": -77.0204835, "lat": 38.915523666666665, "name": "38ecc28707f400f2c4500ab1d1ffe38c", "fusion_lat": 0.0, "fusion_lon": 0.0, "rental_uris": {"android": "https://dc.lft.to/lastmile_qr_scan", "ios": "https://dc.lft.to/lastmile_qr_scan"}, "is_reserved": 0, "is_disabled": 0, "type": "electric_scooter", "bike_id": "38ecc28707f400f2c4500ab1d1ffe38c"}, {"lon": -77.00221066666667, "lat": 38.90742316666667, "name": "9113e152d96d2c858842cb83bd995fe8", "fusion_lat": 0.0, "fusion_lon": 0.0, "rental_uris": {"android": "https://dc.lft.to/lastmile_qr_scan", "ios": "https://dc.lft.to/lastmile_qr_scan"}, "is_reserved": 0, "is_disabled": 0, "type": "electric_scooter", "bike_id": "9113e152d96d2c858842cb83bd995fe8"}, {"lon": -77.0158955, "lat": 38.95762033333333, "name": "87655d8887b9b7eff2ec00c284a5b7bb", "fusion_lat": 0.0, "fusion_lon": 0.0, "rental_uris": {"android": "https://dc.lft.to/lastmile_qr_scan", "ios": "https://dc.lft.to/lastmile_qr_scan"}, "is_reserved": 0, "is_disabled": 0, "type": "electric_scooter", "bike_id": "87655d8887b9b7eff2ec00c284a5b7bb"}, {"lon": -77.02374166666667, "lat": 38.90720316666667, "name": "a4dbd2a81e6198bfd0f7ad5f47d73241", "fusion_lat": 0.0, "fusion_lon": 0.0, "rental_uris": {"android": "https://dc.lft.to/lastmile_qr_scan", "ios": "https://dc.lft.to/lastmile_qr_scan"}, "is_reserved": 0, "is_disabled": 0, "type": "electric_scooter", "bike_id": "a4dbd2a81e6198bfd0f7ad5f47d73241"}, {"lon": -77.0324975, "lat": 38.930067666666666, "name": "cc8b08ab5694e4c5092268e748afb766", "fusion_lat": 0.0, "fusion_lon": 0.0, "rental_uris": {"android": "https://dc.lft.to/lastmile_qr_scan", "ios": "https://dc.lft.to/lastmile_qr_scan"}, "is_reserved": 0, "is_disabled": 0, "type": "electric_scooter", "bike_id": "cc8b08ab5694e4c5092268e748afb766"}, {"lon": -76.93736483333333, "lat": 38.8901, "name": "ac561b26713b95c71a80ad6c8e19dd3a", "fusion_lat": 0.0, "fusion_lon": 0.0, "rental_uris": {"android": "https://dc.lft.to/lastmile_qr_scan", "ios": "https://dc.lft.to/lastmile_qr_scan"}, "is_reserved": 0, "is_disabled": 0, "type": "electric_scooter", "bike_id": "ac561b26713b95c71a80ad6c8e19dd3a"}, {"lon": -77.00604466666667, "lat": 38.90573583333333, "name": "026d244cd021ee7e482e979a85f7b02c", "fusion_lat": 0.0, "fusion_lon": 0.0, "rental_uris": {"android": "https://dc.lft.to/lastmile_qr_scan", "ios": "https://dc.lft.to/lastmile_qr_scan"}, "is_reserved": 0, "is_disabled": 0, "type": "electric_scooter", "bike_id": "026d244cd021ee7e482e979a85f7b02c"}, {"lon": -76.95186683333333, "lat": 38.89130016666667, "name": "b912c021f2ad63ce5f483b6d93f75567", "fusion_lat": 0.0, "fusion_lon": 0.0, "rental_uris": {"android": "https://dc.lft.to/lastmile_qr_scan", "ios": "https://dc.lft.to/lastmile_qr_scan"}, "is_reserved": 0, "is_disabled": 0, "type": "electric_scooter", "bike_id": "b912c021f2ad63ce5f483b6d93f75567"}, {"lon": -77.00212833333333, "lat": 38.904745, "name": "9b375264af39ea4148818b03437d0794", "fusion_lat": 0.0, "fusion_lon": 0.0, "rental_uris": {"android": "https://dc.lft.to/lastmile_qr_scan", "ios": "https://dc.lft.to/lastmile_qr_scan"}, "is_reserved": 0, "is_disabled": 0, "type": "electric_scooter", "bike_id": "9b375264af39ea4148818b03437d0794"}, {"lon": -77.02178316666667, "lat": 38.909723, "name": "927842813ccd72a5548275693255139b", "fusion_lat": 0.0, "fusion_lon": 0.0, "rental_uris": {"android": "https://dc.lft.to/lastmile_qr_scan", "ios": "https://dc.lft.to/lastmile_qr_scan"}, "is_reserved": 0, "is_disabled": 0, "type": "electric_scooter", "bike_id": "927842813ccd72a5548275693255139b"}, {"lon": -76.96551683333334, "lat": 38.950978, "name": "647328bdebfc5ab3d632d015a4b9c18d", "fusion_lat": 0.0, "fusion_lon": 0.0, "rental_uris": {"android": "https://dc.lft.to/lastmile_qr_scan", "ios": "https://dc.lft.to/lastmile_qr_scan"}, "is_reserved": 0, "is_disabled": 0, "type": "electric_bike", "bike_id": "647328bdebfc5ab3d632d015a4b9c18d"}, {"lon": -77.03737283333334, "lat": 38.928973666666664, "name": "84720f6400e13e904090f06289c1d273", "fusion_lat": 0.0, "fusion_lon": 0.0, "rental_uris": {"android": "https://dc.lft.to/lastmile_qr_scan", "ios": "https://dc.lft.to/lastmile_qr_scan"}, "is_reserved": 0, "is_disabled": 0, "type": "electric_scooter", "bike_id": "84720f6400e13e904090f06289c1d273"}, {"lon": -77.04580033333333, "lat": 38.900068166666664, "name": "7eff1231a956955aefc50a7264886f3a", "fusion_lat": 0.0, "fusion_lon": 0.0, "rental_uris": {"android": "https://dc.lft.to/lastmile_qr_scan", "ios": "https://dc.lft.to/lastmile_qr_scan"}, "is_reserved": 0, "is_disabled": 0, "type": "electric_scooter", "bike_id": "7eff1231a956955aefc50a7264886f3a"}, {"lon": -77.04032183333334, "lat": 38.91700983333333, "name": "2e710a6a3b49f7456d83b0cb42e66a89", "fusion_lat": 0.0, "fusion_lon": 0.0, "rental_uris": {"android": "https://dc.lft.to/lastmile_qr_scan", "ios": "https://dc.lft.to/lastmile_qr_scan"}, "is_reserved": 0, "is_disabled": 0, "type": "electric_scooter", "bike_id": "2e710a6a3b49f7456d83b0cb42e66a89"}, {"lon": -77.078444, "lat": 38.931379166666666, "name": "5ea7a60fabd9cb140c04e01af041fc2e", "fusion_lat": 0.0, "fusion_lon": 0.0, "rental_uris": {"android": "https://dc.lft.to/lastmile_qr_scan", "ios": "https://dc.lft.to/lastmile_qr_scan"}, "is_reserved": 0, "is_disabled": 0, "type": "electric_scooter", "bike_id": "5ea7a60fabd9cb140c04e01af041fc2e"}, {"lon": -77.04110016666667, "lat": 38.916951, "name": "46618b5ea52f256c10dc4a0e44d423f9", "fusion_lat": 0.0, "fusion_lon": 0.0, "rental_uris": {"android": "https://dc.lft.to/lastmile_qr_scan", "ios": "https://dc.lft.to/lastmile_qr_scan"}, "is_reserved": 0, "is_disabled": 0, "type": "electric_scooter", "bike_id": "46618b5ea52f256c10dc4a0e44d423f9"}, {"lon": -77.037269, "lat": 38.920241833333336, "name": "2ac95852b2fa2987018559ccf0ff684e", "fusion_lat": 0.0, "fusion_lon": 0.0, "rental_uris": {"android": "https://dc.lft.to/lastmile_qr_scan", "ios": "https://dc.lft.to/lastmile_qr_scan"}, "is_reserved": 0, "is_disabled": 0, "type": "electric_scooter", "bike_id": "2ac95852b2fa2987018559ccf0ff684e"}, {"lon": -77.00495183333334, "lat": 38.896914333333335, "name": "ba6f1237f42fa2659843c0b23e3f460d", "fusion_lat": 0.0, "fusion_lon": 0.0, "rental_uris": {"android": "https://dc.lft.to/lastmile_qr_scan", "ios": "https://dc.lft.to/lastmile_qr_scan"}, "is_reserved": 0, "is_disabled": 0, "type": "electric_scooter", "bike_id": "ba6f1237f42fa2659843c0b23e3f460d"}, {"lon": -76.99838833333334, "lat": 38.88806233333333, "name": "57f276eb94f8b19c45c69990675b1369", "fusion_lat": 0.0, "fusion_lon": 0.0, "rental_uris": {"android": "https://dc.lft.to/lastmile_qr_scan", "ios": "https://dc.lft.to/lastmile_qr_scan"}, "is_reserved": 0, "is_disabled": 0, "type": "electric_scooter", "bike_id": "57f276eb94f8b19c45c69990675b1369"}, {"lon": -76.9856115, "lat": 38.899488166666664, "name": "04ef7ac67fd551aa39f002b44a6c2f58", "fusion_lat": 0.0, "fusion_lon": 0.0, "rental_uris": {"android": "https://dc.lft.to/lastmile_qr_scan", "ios": "https://dc.lft.to/lastmile_qr_scan"}, "is_reserved": 0, "is_disabled": 0, "type": "electric_scooter", "bike_id": "04ef7ac67fd551aa39f002b44a6c2f58"}, {"lon": -77.0414585, "lat": 38.923005333333336, "name": "b922652b6d03972f31bcd3754dda7565", "fusion_lat": 0.0, "fusion_lon": 0.0, "rental_uris": {"android": "https://dc.lft.to/lastmile_qr_scan", "ios": "https://dc.lft.to/lastmile_qr_scan"}, "is_reserved": 0, "is_disabled": 0, "type": "electric_scooter", "bike_id": "b922652b6d03972f31bcd3754dda7565"}, {"lon": -77.03732883333333, "lat": 38.912561, "name": "0d5c6b2f5db1e97dcde9ce3c36390e96", "fusion_lat": 0.0, "fusion_lon": 0.0, "rental_uris": {"android": "https://dc.lft.to/lastmile_qr_scan", "ios": "https://dc.lft.to/lastmile_qr_scan"}, "is_reserved": 0, "is_disabled": 0, "type": "electric_scooter", "bike_id": "0d5c6b2f5db1e97dcde9ce3c36390e96"}, {"lon": -77.01595733333333, "lat": 38.918619666666665, "name": "a69895899f2714c8f8bc5cf96c7d4fa2", "fusion_lat": 0.0, "fusion_lon": 0.0, "rental_uris": {"android": "https://dc.lft.to/lastmile_qr_scan", "ios": "https://dc.lft.to/lastmile_qr_scan"}, "is_reserved": 0, "is_disabled": 0, "type": "electric_scooter", "bike_id": "a69895899f2714c8f8bc5cf96c7d4fa2"}, {"lon": -77.03352166666667, "lat": 38.89531266666667, "name": "d95f8983ae90b2fda9aead3adca2d498", "fusion_lat": 0.0, "fusion_lon": 0.0, "rental_uris": {"android": "https://dc.lft.to/lastmile_qr_scan", "ios": "https://dc.lft.to/lastmile_qr_scan"}, "is_reserved": 0, "is_disabled": 0, "type": "electric_scooter", "bike_id": "d95f8983ae90b2fda9aead3adca2d498"}, {"lon": -76.98828783333333, "lat": 38.9003735, "name": "5d59b360c8e605dab0c458c8e4dfc5bf", "fusion_lat": 0.0, "fusion_lon": 0.0, "rental_uris": {"android": "https://dc.lft.to/lastmile_qr_scan", "ios": "https://dc.lft.to/lastmile_qr_scan"}, "is_reserved": 0, "is_disabled": 0, "type": "electric_scooter", "bike_id": "5d59b360c8e605dab0c458c8e4dfc5bf"}, {"lon": -77.03294716666667, "lat": 38.90842033333333, "name": "ed5f83cc1cfa733400b686c0d8a84b64", "fusion_lat": 0.0, "fusion_lon": 0.0, "rental_uris": {"android": "https://dc.lft.to/lastmile_qr_scan", "ios": "https://dc.lft.to/lastmile_qr_scan"}, "is_reserved": 0, "is_disabled": 0, "type": "electric_scooter", "bike_id": "ed5f83cc1cfa733400b686c0d8a84b64"}, {"lon": -76.974175, "lat": 38.86423583333333, "name": "7edea0d2cff2cef576cea0715a46d8df", "fusion_lat": 0.0, "fusion_lon": 0.0, "rental_uris": {"android": "https://dc.lft.to/lastmile_qr_scan", "ios": "https://dc.lft.to/lastmile_qr_scan"}, "is_reserved": 0, "is_disabled": 0, "type": "electric_scooter", "bike_id": "7edea0d2cff2cef576cea0715a46d8df"},