{"data": {"bikes": [{"fusion_lat": 0.0, "name": "8e4f9c438d1f8958afbcd911133e3f1a", "is_disabled": 0, "rental_uris": {"android": "https://dc.lft.to/lastmile_qr_scan", "ios": "https://dc.lft.to/lastmile_qr_scan"}, "fusion_lon": 0.0, "lat": 38.9215325, "bike_id": "8e4f9c438d1f8958afbcd911133e3f1a", "type": "electric_scooter", "is_reserved": 0, "lon": -77.0423455}, {"fusion_lat": 0.0, "name": "280c614241de60a80b76156a02b3c5a1", "is_disabled": 0, "rental_uris": {"android": "https://dc.lft.to/lastmile_qr_scan", "ios": "https://dc.lft.to/lastmile_qr_scan"}, "fusion_lon": 0.0, "lat": 38.911731333333336, "bike_id": "280c614241de60a80b76156a02b3c5a1", "type": "electric_scooter", "is_reserved": 0, "lon": -77.031832}, {"fusion_lat": 0.0, "name": "4b24b3f78413b8d43490e846cac14aaf", "is_disabled": 0, "rental_uris": {"android": "https://dc.lft.to/lastmile_qr_scan", "ios": "https://dc.lft.to/lastmile_qr_scan"}, "fusion_lon": 0.0, "lat": 38.89855283333333, "bike_id": "4b24b3f78413b8d43490e846cac14aaf", "type": "electric_scooter", "is_reserved": 0, "lon": -76.95042466666666}, {"fusion_lat": 0.0, "name": "5ffec4dd2e97a4b02d4e167aa7ae338b", "is_disabled": 0, "rental_uris": {"android": "https://dc.lft.to/lastmile_qr_scan", "ios": "https://dc.lft.to/lastmile_qr_scan"}, "fusion_lon": 0.0, "lat": 38.89995733333333, "bike_id": "5ffec4dd2e97a4b02d4e167aa7ae338b", "type": "electric_scooter", "is_reserved": 0, "lon": -77.0270745}, {"fusion_lat": 0.0, "name": "f974b123b864d309d88b17124a0b9f14", "is_disabled": 0, "rental_uris": {"android": "https://dc.lft.to/lastmile_qr_scan", "ios": "https://dc.lft.to/lastmile_qr_scan"}, "fusion_lon": 0.0, "lat": 38.89222933333333, "bike_id": "f974b123b864d309d88b17124a0b9f14", "type": "electric_scooter", "is_reserved": 0, "lon": -77.0480605}, {"fusion_lat": 0.0, "name": "84d104cef02fd1925bf6e9e849da4913", "is_disabled": 0, "rental_uris": {"android": "https://dc.lft.to/lastmile_qr_scan", "ios": "https://dc.lft.to/lastmile_qr_scan"}, "fusion_lon": 0.0, "lat": 38.92065933333333, "bike_id": "84d104cef02fd1925bf6e9e849da4913", "type": "electric_bike", "is_reserved": 0, "lon": -77.23952683333333}, {"fusion_lat": 0.0, "name": "d1928483665ee172f6074b1661259130", "is_disabled": 0, "rental_uris": {"android": "https://dc.lft.to/lastmile_qr_scan", "ios": "https://dc.lft.to/lastmile_qr_scan"}, "fusion_lon": 0.0, "lat": 38.891724333333336, "bike_id": "d1928483665ee172f6074b1661259130", "type": "electric_scooter", "is_reserved": 0, "lon": -76.999446}, {"fusion_lat": 0.0, "name": "380fe847aa5982dc24e33e0bb468a930", "is_disabled": 0, "rental_uris": {"android": "https://dc.lft.to/lastmile_qr_scan", "ios": "https://dc.lft.to/lastmile_qr_scan"}, "fusion_lon": 0.0, "lat": 38.94179233333333, "bike_id": "380fe847aa5982dc24e33e0bb468a930", "type": "electric_scooter", "is_reserved": 0, "lon": -77.024852}, {"fusion_lat": 0.0, "name": "d96f75281f116031a761bcb76e85f06e", "is_disabled": 0, "rental_uris": {"android": "https://dc.lft.to/lastmile_qr_scan", "ios": "https://dc.lft.to/lastmile_qr_scan"}, "fusion_lon": 0.0, "lat": 38.905679166666665, "bike_id": "d96f75281f116031a761bcb76e85f06e", "type": "electric_scooter", "is_reserved": 0, "lon": -77.02410616666667}, {"fusion_lat": 0.0, "name": "8e624de3c5e5a0de5fd72fa8789afc23", "is_disabled": 0, "rental_uris": {"android": "https://dc.lft.to/lastmile_qr_scan", "ios": "https://dc.lft.to/lastmile_qr_scan"}, "fusion_lon": 0.0, "lat": 38.93575383333334, "bike_id": "8e624de3c5e5a0de5fd72fa8789afc23", "type": "electric_scooter", "is_reserved": 0, "lon": -77.03519666666666}, {"fusion_lat": 0.0, "name": "4596f47d54bc36042475ed3698cfb670", "is_disabled": 0, "rental_uris": {"android": "https://dc.lft.to/lastmile_qr_scan", "ios": "https://dc.lft.to/lastmile_qr_scan"}, "fusion_lon": 0.0, "lat": 38.915312, "bike_id": "4596f47d54bc36042475ed3698cfb670", "type": "electric_scooter", "is_reserved": 0, "lon": -77.01220216666667}, {"fusion_lat": 0.0, "name": "e6f0988a6b01d1f6ee098e9bd4a9e81b", "is_disabled": 0, "rental_uris": {"android": "https://dc.lft.to/lastmile_qr_scan", "ios": "https://dc.lft.to/lastmile_qr_scan"}, "fusion_lon": 0.0, "lat": 38.930606833333336, "bike_id": "e6f0988a6b01d1f6ee098e9bd4a9e81b", "type": "electric_scooter", "is_reserved": 0, "lon": -77.0379515}, {"fusion_lat": 0.0, "name": "3cd4f248b00e465bc098c01597521787", "is_disabled": 0, "rental_uris": {"android": "https://dc.lft.to/lastmile_qr_scan", "ios": "https://dc.lft.to/lastmile_qr_scan"}, "fusion_lon": 0.0, "lat": 38.915069, "bike_id": "3cd4f248b00e465bc098c01597521787", "type": "electric_scooter", "is_reserved": 0, "lon": -77.03269483333334}, {"fusion_lat": 0.0, "name": "95a2a7fb8b825c5c043e73ec9c418af6", "is_disabled": 0, "rental_uris": {"android": "https://dc.lft.to/lastmile_qr_scan", "ios": "https://dc.lft.to/lastmile_qr_scan"}, "fusion_lon": 0.0, "lat": 38.89528683333333, "bike_id": "95a2a7fb8b825c5c043e73ec9c418af6", "type": "electric_scooter", "is_reserved": 0, "lon": -76.9489175}, {"fusion_lat": 0.0, "name": "c00e7dc3e0850fd0846f5af2fbdeec49", "is_disabled": 0, "rental_uris": {"android": "https://dc.lft.to/lastmile_qr_scan", "ios": "https://dc.lft.to/lastmile_qr_scan"}, "fusion_lon": 0.0, "lat": 38.89565783333333, "bike_id": "c00e7dc3e0850fd0846f5af2fbdeec49", "type": "electric_bike", "is_reserved": 0, "lon": -77.12736916666667}, {"fusion_lat": 0.0, "name": "e2bb5eb595f4bad70fab6721519b56e4", "is_disabled": 0, "rental_uris": {"android": "https://dc.lft.to/lastmile_qr_scan", "ios": "https://dc.lft.to/lastmile_qr_scan"}, "fusion_lon": 0.0, "lat": 38.922476, "bike_id": "e2bb5eb595f4bad70fab6721519b56e4", "type": "electric_scooter", "is_reserved": 0, "lon": -77.03085483333334}, {"fusion_lat": 0.0, "name": "54b1f441ab7181c5f4702feb82c75d88", "is_disabled": 0, "rental_uris": {"android": "https://dc.lft.to/lastmile_qr_scan", "ios": "https://dc.lft.to/lastmile_qr_scan"}, "fusion_lon": 0.0, "lat": 38.935073833333334, "bike_id": "54b1f441ab7181c5f4702feb82c75d88", "type": "electric_scooter", "is_reserved": 0, "lon": -77.0733215}, {"fusion_lat": 0.0, "name": "dce938f9f9461f33f74e623c2bf9f81a", "is_disabled": 0, "rental_uris": {"android": "https://dc.lft.to/lastmile_qr_scan", "ios": "https://dc.lft.to/lastmile_qr_scan"}, "fusion_lon": 0.0, "lat": 38.905375166666666, "bike_id": "dce938f9f9461f33f74e623c2bf9f81a", "type": "electric_bike", "is_reserved": 0, "lon": -76.9980295}, {"fusion_lat": 0.0, "name": "d8dc3d602d3bda8ef4fe6c2730ccd9b0", "is_disabled": 0, "rental_uris": {"android": "https://dc.lft.to/lastmile_qr_scan", "ios": "https://dc.lft.to/lastmile_qr_scan"}, "fusion_lon": 0.0, "lat": 38.936991, "bike_id": "d8dc3d602d3bda8ef4fe6c2730ccd9b0", "type": "electric_bike", "is_reserved": 0, "lon": -77.0211375}, {"fusion_lat": 0.0, "name": "655f413659c6aac9bcc70b258b8f3df9", "is_disabled": 0, "rental_uris": {"android": "https://dc.lft.to/lastmile_qr_scan", "ios": "https://dc.lft.to/lastmile_qr_scan"}, "fusion_lon": 0.0, "lat": 38.90349883333333, "bike_id": "655f413659c6aac9bcc70b258b8f3df9", "type": "electric_scooter", "is_reserved": 0, "lon": -77.0447675}, {"fusion_lat": 0.0, "name": "47b0fdafc13c2ba8a3d5d63f875dfc64", "is_disabled": 0, "rental_uris": {"android": "https://dc.lft.to/lastmile_qr_scan", "ios": "https://dc.lft.to/lastmile_qr_scan"}, "fusion_lon": 0.0, "lat": 38.90900933333333, "bike_id": "47b0fdafc13c2ba8a3d5d63f875dfc64", "type": "electric_scooter", "is_reserved": 0, "lon": -77.04289883333334}, {"fusion_lat": 0.0, "name": "0fcc496f7482a107d2707fb78d99510a", "is_disabled": 0, "rental_uris": {"android": "https://dc.lft.to/lastmile_qr_scan", "ios": "https://dc.lft.to/lastmile_qr_scan"}, "fusion_lon": 0.0, "lat": 38.907140166666665, "bike_id": "0fcc496f7482a107d2707fb78d99510a", "type": "electric_scooter", "is_reserved": 0, "lon": -77.076145}, {"fusion_lat": 0.0, "name": "41587b470a29a3d71f6cfaff6bbbbed4", "is_disabled": 0, "rental_uris": {"android": "https://dc.lft.to/lastmile_qr_scan", "ios": "https://dc.lft.to/lastmile_qr_scan"}, "fusion_lon": 0.0, "lat": 38.919884, "bike_id": "41587b470a29a3d71f6cfaff6bbbbed4", "type": "electric_scooter", "is_reserved": 0, "lon": -77.02379383333333}, {"fusion_lat": 0.0, "name": "a5d68ca968b45a96d2d46319e618bbeb", "is_disabled": 0, "rental_uris": {"android": "https://dc.lft.to/lastmile_qr_scan", "ios": "https://dc.lft.to/lastmile_qr_scan"}, "fusion_lon": 0.0, "lat": 38.907401, "bike_id": "a5d68ca968b45a96d2d46319e618bbeb", "type": "electric_scooter", "is_reserved": 0, "lon": -77.04339283333333}, {"fusion_lat": 0.0, "name": "f0ef909add51e29b4f8755f50de6e648", "is_disabled": 0, "rental_uris": {"android": "https://dc.lft.to/lastmile_qr_scan", "ios": "https://dc.lft.to/lastmile_qr_scan"}, "fusion_lon": 0.0, "lat": 38.90714333333333, "bike_id": "f0ef909add51e29b4f8755f50de6e648", "type": "electric_scooter", "is_reserved": 0, "lon": -77.03444883333333}, {"fusion_lat": 0.0, "name": "f9bd8a6814f2966c10cc6fb60351575e", "is_disabled": 0, "rental_uris": {"android": "https://dc.lft.to/lastmile_qr_scan", "ios": "https://dc.lft.to/lastmile_qr_scan"}, "fusion_lon": 0.0, "lat": 38.907373666666665, "bike_id": "f9bd8a6814f2966c10cc6fb60351575e", "type": "electric_scooter", "is_reserved": 0, "lon": -77.04346233333334}, {"fusion_lat": 0.0, "name": "c2b128586d0ec25da0f1cdb91bc01b56", "is_disabled": 0, "rental_uris": {"android": "https://dc.lft.to/lastmile_qr_scan", "ios": "https://dc.lft.to/lastmile_qr_scan"}, "fusion_lon": 0.0, "lat": 38.900617, "bike_id": "c2b128586d0ec25da0f1cdb91bc01b56", "type": "electric_scooter", "is_reserved": 0, "lon": -77.04190583333333}, {"fusion_lat": 0.0, "name": "e81cb2667e1afaee2ffa88a2153157e8", "is_disabled": 0, "rental_uris": {"android": "https://dc.lft.to/lastmile_qr_scan", "ios": "https://dc.lft.to/lastmile_qr_scan"}, "fusion_lon": 0.0, "lat": 38.91831033333333, "bike_id": "e81cb2667e1afaee2ffa88a2153157e8", "type": "electric_scooter", "is_reserved": 0, "lon": -77.0229615}, {"fusion_lat": 0.0, "name": "cdb3b60f011750e1251c8592c9a253c3", "is_disabled": 0, "rental_uris": {"android": "https://dc.lft.to/lastmile_qr_scan", "ios": "https://dc.lft.to/lastmile_qr_scan"}, "fusion_lon": 0.0, "lat": 38.935013, "bike_id": "cdb3b60f011750e1251c8592c9a253c3", "type": "electric_scooter", "is_reserved": 0, "lon": -77.03635}, {"fusion_lat": 0.0, "name": "48f1ba6c26b2702f39be49e7f1b879da", "is_disabled": 0, "rental_uris": {"android": "https://dc.lft.to/lastmile_qr_scan", "ios": "https://dc.lft.to/lastmile_qr_scan"}, "fusion_lon": 0.0, "lat": 38.903053666666665, "bike_id": "48f1ba6c26b2702f39be49e7f1b879da", "type": "electric_scooter", "is_reserved": 0, "lon": -76.97652766666667}, {"fusion_lat": 0.0, "name": "ebae3d745bb51cf9baf1d54b532270e4", "is_disabled": 0, "rental_uris": {"android": "https://dc.lft.to/lastmile_qr_scan", "ios": "https://dc.lft.to/lastmile_qr_scan"}, "fusion_lon": 0.0, "lat": 38.92671133333333, "bike_id": "ebae3d745bb51cf9baf1d54b532270e4", "type": "electric_scooter", "is_reserved": 0, "lon": -77.01502533333333}, {"fusion_lat": 0.0, "name": "15123d8f1fd6411a8b28345b8b406d6d", "is_disabled": 0, "rental_uris": {"android": "https://dc.lft.to/lastmile_qr_scan", "ios": "https://dc.lft.to/lastmile_qr_scan"}, "fusion_lon": 0.0, "lat": 38.92366466666667, "bike_id": "15123d8f1fd6411a8b28345b8b406d6d", "type": "electric_scooter", "is_reserved": 0, "lon": -77.05030733333334}, {"fusion_lat": 0.0, "name": "7bc5b143468362fb497cb794aec7cca0", "is_disabled": 0, "rental_uris": {"android": "https://dc.lft.to/lastmile_qr_scan", "ios": "https://dc.lft.to/lastmile_qr_scan"}, "fusion_lon": 0.0, "lat": 38.920878333333334, "bike_id": "7bc5b143468362fb497cb794aec7cca0", "type": "electric_scooter", "is_reserved": 0, "lon": -77.03168033333333}, {"fusion_lat": 0.0, "name": "0831cc7810cb6763c812f3f47025965a", "is_disabled": 0, "rental_uris": {"android": "https://dc.lft.to/lastmile_qr_scan", "ios": "https://dc.lft.to/lastmile_qr_scan"}, "fusion_lon": 0.0, "lat": 38.91746333333333, "bike_id": "0831cc7810cb6763c812f3f47025965a", "type": "electric_scooter", "is_reserved": 0, "lon": -77.03187966666667}, {"fusion_lat": 0.0, "name": "c12417cdcf38ae531a942bde6eca568b", "is_disabled": 0, "rental_uris": {"android": "https://dc.lft.to/lastmile_qr_scan", "ios": "https://dc.lft.to/lastmile_qr_scan"}, "fusion_lon": 0.0, "lat": 38.905817166666665, "bike_id": "c12417cdcf38ae531a942bde6eca568b", "type": "electric_scooter", "is_reserved": 0, "lon": -77.022095}, {"fusion_lat": 0.0, "name": "d1c8d58950c3c076abac3cf99a4d7047", "is_disabled": 0, "rental_uris": {"android": "https://dc.lft.to/lastmile_qr_scan", "ios": "https://dc.lft.to/lastmile_qr_scan"}, "fusion_lon": 0.0, "lat": 38.892215666666665, "bike_id": "d1c8d58950c3c076abac3cf99a4d7047", "type": "electric_scooter", "is_reserved": 0, "lon": -77.041215}, {"fusion_lat": 0.0, "name": "e1aa5dfaddce8d584225ed81d8e67383", "is_disabled": 0, "rental_uris": {"android": "https://dc.lft.to/lastmile_qr_scan", "ios": "https://dc.lft.to/lastmile_qr_scan"}, "fusion_lon": 0.0, "lat": 38.918036, "bike_id": "e1aa5dfaddce8d584225ed81d8e67383", "type": "electric_scooter", "is_reserved": 0, "lon": -77.03441066666667}, {"fusion_lat": 0.0, "name": "480cdde777fa2fe28879b66c1e67208e", "is_disabled": 0, "rental_uris": {"android": "https://dc.lft.to/lastmile_qr_scan", "ios": "https://dc.lft.to/lastmile_qr_scan"}, "fusion_lon": 0.0, "lat": 38.91932716666667, "bike_id": "480cdde777fa2fe28879b66c1e67208e", "type": "electric_scooter", "is_reserved": 0, "lon": -77.02329366666666}, {"fusion_lat": 0.0, "name": "4517f458e84229d40fbf648080abe154", "is_disabled": 0, "rental_uris": {"android": "https://dc.lft.to/lastmile_qr_scan", "ios": "https://dc.lft.to/lastmile_qr_scan"}, "fusion_lon": 0.0, "lat": 38.90258433333333, "bike_id": "4517f458e84229d40fbf648080abe154", "type": "electric_scooter", "is_reserved": 0, "lon": -77.05329766666667}, {"fusion_lat": 0.0, "name": "f8869e7a06dcca166cfb3d0860a35021", "is_disabled": 0, "rental_uris": {"android": "https://dc.lft.to/lastmile_qr_scan", "ios": "https://dc.lft.to/lastmile_qr_scan"}, "fusion_lon": 0.0, "lat": 38.93366266666666, "bike_id": "f8869e7a06dcca166cfb3d0860a35021", "type": "electric_scooter", "is_reserved": 0, "lon": -77.057327}, {"fusion_lat": 0.0, "name": "f321671ff5f05fb48684e7d5969f2546", "is_disabled": 0, "rental_uris": {"android": "https://dc.lft.to/lastmile_qr_scan", "ios": "https://dc.lft.to/lastmile_qr_scan"}, "fusion_lon": 0.0, "lat": 38.916818166666665, "bike_id": "f321671ff5f05fb48684e7d5969f2546", "type": "electric_scooter", "is_reserved": 0, "lon": -77.02287266666667}, {"fusion_lat": 0.0, "name": "caeebfbd3da729f35dc11d5656ed5a13", "is_disabled": 0, "rental_uris": {"android": "https://dc.lft.to/lastmile_qr_scan", "ios": "https://dc.lft.to/lastmile_qr_scan"}, "fusion_lon": 0.0, "lat": 38.99443516666667, "bike_id": "caeebfbd3da729f35dc11d5656ed5a13", "type": "electric_bike", "is_reserved": 0, "lon": -76.99586216666667}, {"fusion_lat": 0.0, "name": "a73a06da9080b4c0a8def382b987a7bc", "is_disabled": 0, "rental_uris": {"android": "https://dc.lft.to/lastmile_qr_scan", "ios": "https://dc.lft.to/lastmile_qr_scan"}, "fusion_lon": 0.0, "lat": 38.88995, "bike_id": "a73a06da9080b4c0a8def382b987a7bc", "type": "electric_scooter", "is_reserved": 0, "lon": -77.0375265}, {"fusion_lat": 0.0, "name": "b0bb590f0a6623beeab7aacbaa25b4cb", "is_disabled": 0, "rental_uris": {"android": "https://dc.lft.to/lastmile_qr_scan", "ios": "https://dc.lft.to/lastmile_qr_scan"}, "fusion_lon": 0.0, "lat": 38.9212685, "bike_id": "b0bb590f0a6623beeab7aacbaa25b4cb", "type": "electric_scooter", "is_reserved": 0, "lon": -77.04420616666667}, {"fusion_lat": 0.0, "name": "2b61a4dcae2b33ba57d15c12c1c66b53", "is_disabled": 0, "rental_uris": {"android": "https://dc.lft.to/lastmile_qr_scan", "ios": "https://dc.lft.to/lastmile_qr_scan"}, "fusion_lon": 0.0, "lat": 38.90666, "bike_id": "2b61a4dcae2b33ba57d15c12c1c66b53", "type": "electric_scooter", "is_reserved": 0, "lon": -77.027108}, {"fusion_lat": 0.0, "name": "f023be924b4c27bf97c0ea3279a025f9", "is_disabled": 0, "rental_uris": {"android": "https://dc.lft.to/lastmile_qr_scan", "ios": "https://dc.lft.to/lastmile_qr_scan"}, "fusion_lon": 0.0, "lat": 38.887198166666664, "bike_id": "f023be924b4c27bf97c0ea3279a025f9", "type": "electric_scooter", "is_reserved": 0, "lon": -77.02182566666667}, {"fusion_lat": 0.0, "name": "e7f30e66f8be0d0df0da98a13eaf0192", "is_disabled": 0, "rental_uris": {"android": "https://dc.lft.to/lastmile_qr_scan", "ios": "https://dc.lft.to/lastmile_qr_scan"}, "fusion_lon": 0.0, "lat": 38.94410883333333, "bike_id": "e7f30e66f8be0d0df0da98a13eaf0192", "type": "electric_scooter", "is_reserved": 0, "lon": -77.063205}, {"fusion_lat": 0.0, "name": "7ff7596014506eb62abbe0bf789f49c5", "is_disabled": 0, "rental_uris": {"android": "https://dc.lft.to/lastmile_qr_scan", "ios": "https://dc.lft.to/lastmile_qr_scan"}, "fusion_lon": 0.0, "lat": 38.911149333333334, "bike_id": "7ff7596014506eb62abbe0bf789f49c5", "type": "electric_scooter", "is_reserved": 0, "lon": -77.03277016666667}, {"fusion_lat": 0.0, "name": "2139d706426ab2b3446fa7ced3cb3937", "is_disabled": 0, "rental_uris": {"android": "https://dc.lft.to/lastmile_qr_scan", "ios": "https://dc.lft.to/lastmile_qr_scan"}, "fusion_lon": 0.0, "lat": 38.958876333333336, "bike_id": "2139d706426ab2b3446fa7ced3cb3937", "type": "electric_scooter", "is_reserved": 0, "lon": -77.0028485}, {"fusion_lat": 0.0, "name": "e7c7447bd63af10449b426ea99dfcafd", "is_disabled": 0, "rental_uris": {"android": "https://dc.lft.to/lastmile_qr_scan", "ios": "https://dc.lft.to/lastmile_qr_scan"}, "fusion_lon": 0.0, "lat": 38.900752, "bike_id": "e7c7447bd63af10449b426ea99dfcafd", "type": "electric_bike", "is_reserved": 0, "lon": -77.03938333333333}, {"fusion_lat": 0.0, "name": "d04dc4a358c733bcc9b88f89861988c1", "is_disabled": 0, "rental_uris": {"android": "https://dc.lft.to/lastmile_qr_scan", "ios": "https://dc.lft.to/lastmile_qr_scan"}, "fusion_lon": 0.0, "lat": 38.8993855, "bike_id": "d04dc4a358c733bcc9b88f89861988c1", "type": "electric_scooter", "is_reserved": 0, "lon": -77.02198983333334}, {"fusion_lat": 0.0, "name": "d9ca7ae5ad3f3bd7f47491941d4c38c4", "is_disabled": 0, "rental_uris": {"android": "https://dc.lft.to/lastmile_qr_scan", "ios": "https://dc.lft.to/lastmile_qr_scan"}, "fusion_lon": 0.0, "lat": 38.876584666666666, "bike_id": "d9ca7ae5ad3f3bd7f47491941d4c38c4", "type": "electric_scooter", "is_reserved": 0, "lon": -77.00469083333333}, {"fusion_lat": 0.0, "name": "0a2cd75753aad5f340091540916795f1", "is_disabled": 0, "rental_uris": {"android": "https://dc.lft.to/lastmile_qr_scan", "ios": "https://dc.lft.to/lastmile_qr_scan"}, "fusion_lon": 0.0, "lat": 38.91689316666667, "bike_id": "0a2cd75753aad5f340091540916795f1", "type": "electric_scooter", "is_reserved": 0, "lon": -77.02595616666666}, {"fusion_lat": 0.0, "name": "4d562756f56bb2fe4cae182b7cecb425", "is_disabled": 0, "rental_uris": {"android": "https://dc.lft.to/lastmile_qr_scan", "ios": "https://dc.lft.to/lastmile_qr_scan"}, "fusion_lon": 0.0, "lat": 38.9244955, "bike_id": "4d562756f56bb2fe4cae182b7cecb425", "type": "electric_scooter", "is_reserved": 0, "lon": -77.03974466666666}, {"fusion_lat": 0.0, "name": "d5d2ba9ecab72cb920f17059be642c7b", "is_disabled": 0, "rental_uris": {"android": "https://dc.lft.to/lastmile_qr_scan", "ios": "https://dc.lft.to/lastmile_qr_scan"}, "fusion_lon": 0.0, "lat": 38.854482, "bike_id": "d5d2ba9ecab72cb920f17059be642c7b", "type": "electric_scooter", "is_reserved": 0, "lon": -76.98579133333334}, {"fusion_lat": 0.0, "name": "963d1de03ee72db3592768ca969c0ff0", "is_disabled": 0, "rental_uris": {"android": "https://dc.lft.to/lastmile_qr_scan", "ios": "https://dc.lft.to/lastmile_qr_scan"}, "fusion_lon": 0.0, "lat": 38.9133475, "bike_id": "963d1de03ee72db3592768ca969c0ff0", "type": "electric_scooter", "is_reserved": 0, "lon": -77.03207366666666}, {"fusion_lat": 0.0, "name": "0dd97a92b98c85a2f8d94727fa5a6e12", "is_disabled": 0, "rental_uris": {"android": "https://dc.lft.to/lastmile_qr_scan", "ios": "https://dc.lft.to/lastmile_qr_scan"}, "fusion_lon": 0.0, "lat": 38.91561883333333, "bike_id": "0dd97a92b98c85a2f8d94727fa5a6e12", "type": "electric_scooter", "is_reserved": 0, "lon": -77.03860383333334}, {"fusion_lat": 0.0, "name": "f1a87c0914388c288e1c040c4fdc0164", "is_disabled": 0, "rental_uris": {"android": "https://dc.lft.to/lastmile_qr_scan", "ios": "https://dc.lft.to/lastmile_qr_scan"}, "fusion_lon": 0.0, "lat": 38.9204225, "bike_id": "f1a87c0914388c288e1c040c4fdc0164", "type": "electric_scooter", "is_reserved": 0, "lon": -77.01791333333334}, {"fusion_lat": 0.0, "name": "aca2c78fd6a4fd87e3fb4efd62cda4e9", "is_disabled": 0, "rental_uris": {"android": "https://dc.lft.to/lastmile_qr_scan", "ios": "https://dc.lft.to/lastmile_qr_scan"}, "fusion_lon": 0.0, "lat": 38.90255066666667, "bike_id": "aca2c78fd6a4fd87e3fb4efd62cda4e9", "type": "electric_scooter", "is_reserved": 0, "lon": -77.05320216666667}, {"fusion_lat": 0.0, "name": "8cc675fd7e4c3ddd267866950ac79d2a", "is_disabled": 0, "rental_uris": {"android": "https://dc.lft.to/lastmile_qr_scan", "ios": "https://dc.lft.to/lastmile_qr_scan"}, "fusion_lon": 0.0, "lat": 38.941926333333335, "bike_id": "8cc675fd7e4c3ddd267866950ac79d2a", "type": "electric_scooter", "is_reserved": 0, "lon": -77.02534133333333}, {"fusion_lat": 0.0, "name": "68822fcde63c0aabf4f65d0c33a19835", "is_disabled": 0, "rental_uris": {"android": "https://dc.lft.to/lastmile_qr_scan", "ios": "https://dc.lft.to/lastmile_qr_scan"}, "fusion_lon": 0.0, "lat": 38.897082166666664, "bike_id": "68822fcde63c0aabf4f65d0c33a19835", "type": "electric_scooter", "is_reserved": 0, "lon": -77.01314383333333}, {"fusion_lat": 0.0, "name": "2075865f3405672ffad16683850a531d", "is_disabled": 0, "rental_uris": {"android": "https://dc.lft.to/lastmile_qr_scan", "ios": "https://dc.lft.to/lastmile_qr_scan"}, "fusion_lon": 0.0, "lat": 38.96183933333333, "bike_id": "2075865f3405672ffad16683850a531d", "type": "electric_bike", "is_reserved": 0, "lon": -77.0526715}, {"fusion_lat": 0.0, "name": "420d0d8560d2a9caca690ad043c2c224", "is_disabled": 0, "rental_uris": {"android": "https://dc.lft.to/lastmile_qr_scan", "ios": "https://dc.lft.to/lastmile_qr_scan"}, "fusion_lon": 0.0, "lat": 38.90787266666667, "bike_id": "420d0d8560d2a9caca690ad043c2c224", "type": "electric_scooter", "is_reserved": 0, "lon": -77.038551}, {"fusion_lat": 0.0, "name": "5e1c25370e84caa1b3213fdbcd73c08a", "is_disabled": 0, "rental_uris": {"android": "https://dc.lft.to/lastmile_qr_scan", "ios": "https://dc.lft.to/lastmile_qr_scan"}, "fusion_lon": 0.0, "lat": 38.900286, "bike_id": "5e1c25370e84caa1b3213fdbcd73c08a", "type": "electric_scooter", "is_reserved": 0, "lon": -77.01196916666666}, {"fusion_lat": 0.0, "name": "c4cbb913ad3138cc8a1577f74b8c66d5", "is_disabled": 0, "rental_uris": {"android": "https://dc.lft.to/lastmile_qr_scan", "ios": "https://dc.lft.to/lastmile_qr_scan"}, "fusion_lon": 0.0, "lat": 38.91262366666667, "bike_id": "c4cbb913ad3138cc8a1577f74b8c66d5", "type": "electric_scooter", "is_reserved": 0, "lon": -77.03862066666667}, {"fusion_lat": 0.0, "name": "24858ea9c696abd2176acfb00e32f099", "is_disabled": 0, "rental_uris": {"android": "https://dc.lft.to/lastmile_qr_scan", "ios": "https://dc.lft.to/lastmile_qr_scan"}, "fusion_lon": 0.0, "lat": 38.9014295, "bike_id": "24858ea9c696abd2176acfb00e32f099", "type": "electric_scooter", "is_reserved": 0, "lon": -77.027384}, {"fusion_lat": 0.0, "name": "a196efbdf404a8cdc3efc29f1e0937bf", "is_disabled": 0, "rental_uris": {"android": "https://dc.lft.to/lastmile_qr_scan", "ios": "https://dc.lft.to/lastmile_qr_scan"}, "fusion_lon": 0.0, "lat": 38.89882, "bike_id": "a196efbdf404a8cdc3efc29f1e0937bf", "type": "electric_scooter", "is_reserved": 0, "lon": -77.03316533333333}, {"fusion_lat": 0.0, "name": "1d9f2b1ce31888744c7c4590401cb59b", "is_disabled": 0, "rental_uris": {"android": "https://dc.lft.to/lastmile_qr_scan", "ios": "https://dc.lft.to/lastmile_qr_scan"}, "fusion_lon": 0.0, "lat": 38.926576833333336, "bike_id": "1d9f2b1ce31888744c7c4590401cb59b", "type": "electric_scooter", "is_reserved": 0, "lon": -77.027799}, {"fusion_lat": 0.0, "name": "31c4f2079e067a716697f468ba9207c3", "is_disabled": 0, "rental_uris": {"android": "https://dc.lft.to/lastmile_qr_scan", "ios": "https://dc.lft.to/lastmile_qr_scan"}, "fusion_lon": 0.0, "lat": 38.924322, "bike_id": "31c4f2079e067a716697f468ba9207c3", "type": "electric_scooter", "is_reserved": 0, "lon": -77.04466416666666}, {"fusion_lat": 0.0, "name": "f75e6695978fa58306607cece7e18fea", "is_disabled": 0, "rental_uris": {"android": "https://dc.lft.to/lastmile_qr_scan", "ios": "https://dc.lft.to/lastmile_qr_scan"}, "fusion_lon": 0.0, "lat": 38.972864, "bike_id": "f75e6695978fa58306607cece7e18fea", "type": "electric_scooter", "is_reserved": 0, "lon": -77.01159466666667}, {"fusion_lat": 0.0, "name": "1779cf6068241f0f1081f06b5dfd0c48", "is_disabled": 0, "rental_uris": {"android": "https://dc.lft.to/lastmile_qr_scan", "ios": "https://dc.lft.to/lastmile_qr_scan"}, "fusion_lon": 0.0, "lat": 38.9206665, "bike_id": "1779cf6068241f0f1081f06b5dfd0c48", "type": "electric_scooter", "is_reserved": 0, "lon": -77.0147675}, {"fusion_lat": 0.0, "name": "e165b22a1d308590fca243ce0337f373", "is_disabled": 0, "rental_uris": {"android": "https://dc.lft.to/lastmile_qr_scan", "ios": "https://dc.lft.to/lastmile_qr_scan"}, "fusion_lon": 0.0, "lat": 38.8983155, "bike_id": "e165b22a1d308590fca243ce0337f373", "type": "electric_scooter", "is_reserved": 0, "lon": -76.94632983333334}, {"fusion_lat": 0.0, "name": "f55eac4b625c80fb929ed5b37501d996", "is_disabled": 0, "rental_uris": {"android": "https://dc.lft.to/lastmile_qr_scan", "ios": "https://dc.lft.to/lastmile_qr_scan"}, "fusion_lon": 0.0, "lat": 38.9120575, "bike_id": "f55eac4b625c80fb929ed5b37501d996", "type": "electric_scooter", "is_reserved": 0, "lon": -77.03202266666666}, {"fusion_lat": 0.0, "name": "68570f601f5e13d984c26c12f9dfcd6b", "is_disabled": 0, "rental_uris": {"android": "https://dc.lft.to/lastmile_qr_scan", "ios": "https://dc.lft.to/lastmile_qr_scan"}, "fusion_lon": 0.0, "lat": 38.902327, "bike_id": "68570f601f5e13d984c26c12f9dfcd6b", "type": "electric_scooter", "is_reserved": 0, "lon": -77.02286883333333}, {"fusion_lat": 0.0, "name": "8cfd629d647858255b54b109ce1ecdbe", "is_disabled": 0, "rental_uris": {"android": "https://dc.lft.to/lastmile_qr_scan", "ios": "https://dc.lft.to/lastmile_qr_scan"}, "fusion_lon": 0.0, "lat": 38.903973, "bike_id": "8cfd629d647858255b54b109ce1ecdbe", "type": "electric_scooter", "is_reserved": 0, "lon": -77.06138983333334}, {"fusion_lat": 0.0, "name": "dac074e5c853c66596ff31a0d8ae221c", "is_disabled": 0, "rental_uris": {"android": "https://dc.lft.to/lastmile_qr_scan", "ios": "https://dc.lft.to/lastmile_qr_scan"}, "fusion_lon": 0.0, "lat": 38.923753, "bike_id": "dac074e5c853c66596ff31a0d8ae221c", "type": "electric_scooter", "is_reserved": 0, "lon": -77.0525495}, {"fusion_lat": 0.0, "name": "4e9d7f562a1ed0b5a2e38ddc41ea00a6", "is_disabled": 0, "rental_uris": {"android": "https://dc.lft.to/lastmile_qr_scan", "ios": "https://dc.lft.to/lastmile_qr_scan"}, "fusion_lon": 0.0, "lat": 38.92435833333333, "bike_id": "4e9d7f562a1ed0b5a2e38ddc41ea00a6", "type": "electric_scooter", "is_reserved": 0, "lon": -77.03532983333334}, {"fusion_lat": 0.0, "name": "4341c851dbaddafe1810a1be17e75ca7", "is_disabled": 0, "rental_uris": {"android": "https://dc.lft.to/lastmile_qr_scan", "ios": "https://dc.lft.to/lastmile_qr_scan"}, "fusion_lon": 0.0, "lat": 38.90520183333334, "bike_id": "4341c851dbaddafe1810a1be17e75ca7", "type": "electric_scooter", "is_reserved": 0, "lon": -77.04772}, {"fusion_lat": 0.0, "name": "f1e71e377f31ba50c72efb783774cf20", "is_disabled": 0, "rental_uris": {"android": "https://dc.lft.to/lastmile_qr_scan", "ios": "https://dc.lft.to/lastmile_qr_scan"}, "fusion_lon": 0.0, "lat": 38.90630183333333, "bike_id": "f1e71e377f31ba50c72efb783774cf20", "type": "electric_scooter", "is_reserved": 0, "lon": -77.02603483333333}, {"fusion_lat": 0.0, "name": "26eede40b49542c660408e6324a65c16", "is_disabled": 0, "rental_uris": {"android": "https://dc.lft.to/lastmile_qr_scan", "ios": "https://dc.lft.to/lastmile_qr_scan"}, "fusion_lon": 0.0, "lat": 38.907415666666665, "bike_id": "26eede40b49542c660408e6324a65c16", "type": "electric_scooter", "is_reserved": 0, "lon": -77.04335983333333}, {"fusion_lat": 0.0, "name": "b959afe4fb6ae0038d301f5b62ea05a5", "is_disabled": 0, "rental_uris": {"android": "https://dc.lft.to/lastmile_qr_scan", "ios": "https://dc.lft.to/lastmile_qr_scan"}, "fusion_lon": 0.0, "lat": 38.97366266666667, "bike_id": "b959afe4fb6ae0038d301f5b62ea05a5", "type": "electric_scooter", "is_reserved": 0, "lon": -77.0243225}, {"fusion_lat": 0.0, "name": "b96bd7c5ccae9c69749df444caa0bdd3", "is_disabled": 0, "rental_uris": {"android": "https://dc.lft.to/lastmile_qr_scan", "ios": "https://dc.lft.to/lastmile_qr_scan"}, "fusion_lon": 0.0, "lat": 38.904916666666665, "bike_id": "b96bd7c5ccae9c69749df444caa0bdd3", "type": "electric_scooter", "is_reserved": 0, "lon": -77.04871383333334}, {"fusion_lat": 0.0, "name": "a1a90962b8f7b3b525a3e5c26247fbda", "is_disabled": 0, "rental_uris": {"android": "https://dc.lft.to/lastmile_qr_scan", "ios": "https://dc.lft.to/lastmile_qr_scan"}, "fusion_lon": 0.0, "lat": 38.92045066666667, "bike_id": "a1a90962b8f7b3b525a3e5c26247fbda", "type": "electric_scooter", "is_reserved": 0, "lon": -77.034759}, {"fusion_lat": 0.0, "name": "38af9e7de20acc054f48cc1f20e5e98a", "is_disabled": 0, "rental_uris": {"android": "https://dc.lft.to/lastmile_qr_scan", "ios": "https://dc.lft.to/lastmile_qr_scan"}, "fusion_lon": 0.0, "lat": 38.90062733333333, "bike_id": "38af9e7de20acc054f48cc1f20e5e98a", "type": "electric_scooter", "is_reserved": 0, "lon": -76.9338575}, {"fusion_lat": 0.0, "name": "5d06c40254f037d21010f6d0babe386e", "is_disabled": 0, "rental_uris": {"android": "https://dc.lft.to/lastmile_qr_scan", "ios": "https://dc.lft.to/lastmile_qr_scan"}, "fusion_lon": 0.0, "lat": 38.9109305, "bike_id": "5d06c40254f037d21010f6d0babe386e", "type": "electric_scooter", "is_reserved": 0, "lon": -77.07344866666666}, {"fusion_lat": 0.0, "name": "b81e5f2529627f0caea947363a328fda", "is_disabled": 0, "rental_uris": {"android": "https://dc.lft.to/lastmile_qr_scan", "ios": "https://dc.lft.to/lastmile_qr_scan"}, "fusion_lon": 0.0, "lat": 38.90806333333333, "bike_id": "b81e5f2529627f0caea947363a328fda", "type": "electric_scooter", "is_reserved": 0, "lon": -77.03448016666667}, {"fusion_lat": 0.0, "name": "03260d11b05182326afbf9f30de9d720", "is_disabled": 0, "rental_uris": {"android": "https://dc.lft.to/lastmile_qr_scan", "ios": "https://dc.lft.to/lastmile_qr_scan"}, "fusion_lon": 0.0, "lat": 38.8774795, "bike_id": "03260d11b05182326afbf9f30de9d720", "type": "electric_scooter", "is_reserved": 0, "lon": -77.00570816666666}, {"fusion_lat": 0.0, "name": "e84086299447a72a62c1170756a982a2", "is_disabled": 0, "rental_uris": {"android": "https://dc.lft.to/lastmile_qr_scan", "ios": "https://dc.lft.to/lastmile_qr_scan"}, "fusion_lon": 0.0, "lat": 38.8934405, "bike_id": "e84086299447a72a62c1170756a982a2", "type": "electric_scooter", "is_reserved": 0, "lon": -76.99155333333333}, {"fusion_lat": 0.0, "name": "51aa2eb5835ae107baefe24dd4f33ba3", "is_disabled": 0, "rental_uris": {"android": "https://dc.lft.to/lastmile_qr_scan", "ios": "https://dc.lft.to/lastmile_qr_scan"}, "fusion_lon": 0.0, "lat": 38.90907116666666, "bike_id": "51aa2eb5835ae107baefe24dd4f33ba3", "type": "electric_scooter", "is_reserved": 0, "lon": -77.04211616666667}, {"fusion_lat": 0.0, "name": "f24ffe54462aefdf8c9168846d9cf438", "is_disabled": 0, "rental_uris": {"android": "https://dc.lft.to/lastmile_qr_scan", "ios": "https://dc.lft.to/lastmile_qr_scan"}, "fusion_lon": 0.0, "lat": 38.91615933333333, "bike_id": "f24ffe54462aefdf8c9168846d9cf438", "type": "electric_scooter", "is_reserved": 0, "lon": -77.02382833333333}, {"fusion_lat": 0.0, "name": "75151ae0e99727b2c3219a946a34adac", "is_disabled": 0, "rental_uris": {"android": "https://dc.lft.to/lastmile_qr_scan", "ios": "https://dc.lft.to/lastmile_qr_scan"}, "fusion_lon": 0.0, "lat": 38.9037375, "bike_id": "75151ae0e99727b2c3219a946a34adac", "type": "electric_scooter", "is_reserved": 0, "lon": -77.038336}, {"fusion_lat": 0.0, "name": "bdaf7f0e0461d88306cd4603d52926a6", "is_disabled": 0, "rental_uris": {"android": "https://dc.lft.to/lastmile_qr_scan", "ios": "https://dc.lft.to/lastmile_qr_scan"}, "fusion_lon": 0.0, "lat": 38.9270605, "bike_id": "bdaf7f0e0461d88306cd4603d52926a6", "type": "electric_bike", "is_reserved": 0, "lon": -77.0242345}, {"fusion_lat": 0.0, "name": "32622f095e148524229f2928e30784ce", "is_disabled": 0, "rental_uris": {"android": "https://dc.lft.to/lastmile_qr_scan", "ios": "https://dc.lft.to/lastmile_qr_scan"}, "fusion_lon": 0.0, "lat": 38.938269, "bike_id": "32622f095e148524229f2928e30784ce", "type": "electric_scooter", "is_reserved": 0, "lon": -76.99187616666667}, {"fusion_lat": 0.0, "name": "5f0f431584af065572942e89be5e5607", "is_disabled": 0, "rental_uris": {"android": "https://dc.lft.to/lastmile_qr_scan", "ios": "https://dc.lft.to/lastmile_qr_scan"}, "fusion_lon": 0.0, "lat": 38.902362, "bike_id": "5f0f431584af065572942e89be5e5607", "type": "electric_scooter", "is_reserved": 0, "lon": -77.03631483333334}, {"fusion_lat": 0.0, "name": "a29165b92ca1133966493fea236df86b", "is_disabled": 0, "rental_uris": {"android": "https://dc.lft.to/lastmile_qr_scan", "ios": "https://dc.lft.to/lastmile_qr_scan"}, "fusion_lon": 0.0, "lat": 38.902347, "bike_id": "a29165b92ca1133966493fea236df86b", "type": "electric_scooter", "is_reserved": 0, "lon": -77.043622}, {"fusion_lat": 0.0, "name": "8118f52b7a1741faf4114edb467b08fc", "is_disabled": 0, "rental_uris": {"android": "https://dc.lft.to/lastmile_qr_scan", "ios": "https://dc.lft.to/lastmile_qr_scan"}, "fusion_lon": 0.0, "lat": 38.922947666666666, "bike_id": "8118f52b7a1741faf4114edb467b08fc", "type": "electric_bike", "is_reserved": 0, "lon": -76.99362733333334}, {"fusion_lat": 0.0, "name": "45c55621536cf2b82cd3feca615aa8bb", "is_disabled": 0, "rental_uris": {"android": "https://dc.lft.to/lastmile_qr_scan", "ios": "https://dc.lft.to/lastmile_qr_scan"}, "fusion_lon": 0.0, "lat": 38.92040316666667, "bike_id": "45c55621536cf2b82cd3feca615aa8bb", "type": "electric_scooter", "is_reserved": 0, "lon": -77.02587233333334}, {"fusion_lat": 0.0, "name": "2bcd9daf46a693cbfbacc54e995c29fa", "is_disabled": 0, "rental_uris": {"android": "https://dc.lft.to/lastmile_qr_scan", "ios": "https://dc.lft.to/lastmile_qr_scan"}, "fusion_lon": 0.0, "lat": 38.93259283333333, "bike_id": "2bcd9daf46a693cbfbacc54e995c29fa", "type": "electric_scooter", "is_reserved": 0, "lon": -77.03456283333334}, {"fusion_lat": 0.0, "name": "e899bf94672288452ba0f4c34e323a93", "is_disabled": 0, "rental_uris": {"android": "https://dc.lft.to/lastmile_qr_scan", "ios": "https://dc.lft.to/lastmile_qr_scan"}, "fusion_lon": 0.0, "lat": 38.935115833333334, "bike_id": "e899bf94672288452ba0f4c34e323a93", "type": "electric_scooter", "is_reserved": 0, "lon": -77.03290816666667}, {"fusion_lat": 0.0, "name": "cfcd501405a88cac39f4e5f80cff4866", "is_disabled": 0, "rental_uris": {"android": "https://dc.lft.to/lastmile_qr_scan", "ios": "https://dc.lft.to/lastmile_qr_scan"}, "fusion_lon": 0.0, "lat": 38.88340633333333, "bike_id": "cfcd501405a88cac39f4e5f80cff4866", "type": "electric_scooter", "is_reserved": 0, "lon": -77.03160983333333}, {"fusion_lat": 0.0, "name": "e14a5b74f2bad5bbe8f0d13ec4380607", "is_disabled": 0, "rental_uris": {"android": "https://dc.lft.to/lastmile_qr_scan", "ios": "https://dc.lft.to/lastmile_qr_scan"}, "fusion_lon": 0.0, "lat": 38.92100816666667, "bike_id": "e14a5b74f2bad5bbe8f0d13ec4380607", "type": "electric_scooter", "is_reserved": 0, "lon": -77.017462}, {"fusion_lat": 0.0, "name": "cc305d2d80293876bf8b6b9097cad21c", "is_disabled": 0, "rental_uris": {"android": "https://dc.lft.to/lastmile_qr_scan", "ios": "https://dc.lft.to/lastmile_qr_scan"}, "fusion_lon": 0.0, "lat": 38.935347166666666, "bike_id": "cc305d2d80293876bf8b6b9097cad21c", "type": "electric_scooter", "is_reserved": 0, "lon": -77.0235255}, {"fusion_lat": 0.0, "name": "55a5011c2239fcdb6edfb9dc3e70d607", "is_disabled": 0, "rental_uris": {"android": "https://dc.lft.to/lastmile_qr_scan", "ios": "https://dc.lft.to/lastmile_qr_scan"}, "fusion_lon": 0.0, "lat": 38.91266983333333, "bike_id": "55a5011c2239fcdb6edfb9dc3e70d607", "type": "electric_scooter", "is_reserved": 0, "lon": -77.01930183333333}, {"fusion_lat": 0.0, "name": "f7f27787bc313f87b8a0ce211a844b7e", "is_disabled": 0, "rental_uris": {"android": "https://dc.lft.to/lastmile_qr_scan", "ios": "https://dc.lft.to/lastmile_qr_scan"}, "fusion_lon": 0.0, "lat": 38.847561, "bike_id": "f7f27787bc313f87b8a0ce211a844b7e", "type": "electric_scooter", "is_reserved": 0, "lon": -76.99499766666666}, {"fusion_lat": 0.0, "name": "6e8620a5f44aff7922352fb43eb892ec", "is_disabled": 0, "rental_uris": {"android": "https://dc.lft.to/lastmile_qr_scan", "ios": "https://dc.lft.to/lastmile_qr_scan"}, "fusion_lon": 0.0, "lat": 38.901709333333336, "bike_id": "6e8620a5f44aff7922352fb43eb892ec", "type": "electric_scooter", "is_reserved": 0, "lon": -76.99265216666667}, {"fusion_lat": 0.0, "name": "9972bb3a1007b529e43ec99ab63bf441", "is_disabled": 0, "rental_uris": {"android": "https://dc.lft.to/lastmile_qr_scan", "ios": "https://dc.lft.to/lastmile_qr_scan"}, "fusion_lon": 0.0, "lat": 38.90682483333333, "bike_id": "9972bb3a1007b529e43ec99ab63bf441", "type": "electric_scooter", "is_reserved": 0, "lon": -77.02693466666666}, {"fusion_lat": 0.0, "name": "804a3ffb7b298f7d2224e22ee178d5cc", "is_disabled": 0, "rental_uris": {"android": "https://dc.lft.to/lastmile_qr_scan", "ios": "https://dc.lft.to/lastmile_qr_scan"}, "fusion_lon": 0.0, "lat": 38.905569666666665, "bike_id": "804a3ffb7b298f7d2224e22ee178d5cc", "type": "electric_scooter", "is_reserved": 0, "lon": -77.0465805}, {"fusion_lat": 0.0, "name": "7d7eb65ea34a81be3767eeb960941ae7", "is_disabled": 0, "rental_uris": {"android": "https://dc.lft.to/lastmile_qr_scan", "ios": "https://dc.lft.to/lastmile_qr_scan"}, "fusion_lon": 0.0, "lat": 38.90532666666667, "bike_id": "7d7eb65ea34a81be3767eeb960941ae7", "type": "electric_scooter", "is_reserved": 0, "lon": -77.00718983333333}, {"fusion_lat": 0.0, "name": "ef8ab8eae116c83f28b7f2fb133f1504", "is_disabled": 0, "rental_uris": {"android": "https://dc.lft.to/lastmile_qr_scan", "ios": "https://dc.lft.to/lastmile_qr_scan"}, "fusion_lon": 0.0, "lat": 38.926447, "bike_id": "ef8ab8eae116c83f28b7f2fb133f1504", "type": "electric_scooter", "is_reserved": 0, "lon": -77.0369865}, {"fusion_lat": 0.0, "name": "05025ada30ced8f097a87f883e2a9761", "is_disabled": 0, "rental_uris": {"android": "https://dc.lft.to/lastmile_qr_scan", "ios": "https://dc.lft.to/lastmile_qr_scan"}, "fusion_lon": 0.0, "lat": 38.900523666666665, "bike_id": "05025ada30ced8f097a87f883e2a9761", "type": "electric_scooter", "is_reserved": 0, "lon": -77.04482366666667}, {"fusion_lat": 0.0, "name": "0ef8619afce925ab7e73c2409e3ad00d", "is_disabled": 0, "rental_uris": {"android": "https://dc.lft.to/lastmile_qr_scan", "ios": "https://dc.lft.to/lastmile_qr_scan"}, "fusion_lon": 0.0, "lat": 38.915487, "bike_id": "0ef8619afce925ab7e73c2409e3ad00d", "type": "electric_scooter", "is_reserved": 0, "lon": -77.038533}, {"fusion_lat": 0.0, "name": "88bc0fc232b6b24c1d5e178e6f2a9de2", "is_disabled": 0, "rental_uris": {"android": "https://dc.lft.to/lastmile_qr_scan", "ios": "https://dc.lft.to/lastmile_qr_scan"}, "fusion_lon": 0.0, "lat": 38.916946833333334, "bike_id": "88bc0fc232b6b24c1d5e178e6f2a9de2", "type": "electric_scooter", "is_reserved": 0, "lon": -77.05311183333333}, {"fusion_lat": 0.0, "name": "9b847c432df13dc1a007ed71fa61d683", "is_disabled": 0, "rental_uris": {"android": "https://dc.lft.to/lastmile_qr_scan", "ios": "https://dc.lft.to/lastmile_qr_scan"}, "fusion_lon": 0.0, "lat": 38.914044, "bike_id": "9b847c432df13dc1a007ed71fa61d683", "type": "electric_scooter", "is_reserved": 0, "lon": -77.04159616666666}, {"fusion_lat": 0.0, "name": "cd8a45d7ab548681479d1c60e85351db", "is_disabled": 0, "rental_uris": {"android": "https://dc.lft.to/lastmile_qr_scan", "ios": "https://dc.lft.to/lastmile_qr_scan"}, "fusion_lon": 0.0, "lat": 38.905733166666664, "bike_id": "cd8a45d7ab548681479d1c60e85351db", "type": "electric_scooter", "is_reserved": 0, "lon": -77.00825166666667}, {"fusion_lat": 0.0, "name": "8965f0fbb536641d95bf5b24b1d699ec", "is_disabled": 0, "rental_uris": {"android": "https://dc.lft.to/lastmile_qr_scan", "ios": "https://dc.lft.to/lastmile_qr_scan"}, "fusion_lon": 0.0, "lat": 38.89221283333333, "bike_id": "8965f0fbb536641d95bf5b24b1d699ec", "type": "electric_scooter", "is_reserved": 0, "lon": -77.04320816666667}, {"fusion_lat": 0.0, "name": "bb42bc3447db21f2f9240e3e0e7f6c98", "is_disabled": 0, "rental_uris": {"android": "https://dc.lft.to/lastmile_qr_scan", "ios": "https://dc.lft.to/lastmile_qr_scan"}, "fusion_lon": 0.0, "lat": 38.9235935, "bike_id": "bb42bc3447db21f2f9240e3e0e7f6c98", "type": "electric_scooter", "is_reserved": 0, "lon": -77.05031633333333}, {"fusion_lat": 0.0, "name": "b75b66b8e1efae483da6a4959d027f25", "is_disabled": 0, "rental_uris": {"android": "https://dc.lft.to/lastmile_qr_scan", "ios": "https://dc.lft.to/lastmile_qr_scan"}, "fusion_lon": 0.0, "lat": 38.9003215, "bike_id": "b75b66b8e1efae483da6a4959d027f25", "type": "electric_scooter", "is_reserved": 0, "lon": -77.00225016666667}, {"fusion_lat": 0.0, "name": "8b000c6ca346006fcf97d1decc43be25", "is_disabled": 0, "rental_uris": {"android": "https://dc.lft.to/lastmile_qr_scan", "ios": "https://dc.lft.to/lastmile_qr_scan"}, "fusion_lon": 0.0, "lat": 38.913348166666665, "bike_id": "8b000c6ca346006fcf97d1decc43be25", "type": "electric_scooter", "is_reserved": 0, "lon": -77.04283016666666}, {"fusion_lat": 0.0, "name": "19bbaff538d45c4704abfbb7a3980293", "is_disabled": 0, "rental_uris": {"android": "https://dc.lft.to/lastmile_qr_scan", "ios": "https://dc.lft.to/lastmile_qr_scan"}, "fusion_lon": 0.0, "lat": 38.8922765, "bike_id": "19bbaff538d45c4704abfbb7a3980293", "type": "electric_scooter", "is_reserved": 0, "lon": -77.0486845}, {"fusion_lat": 0.0, "name": "dcafd58d3cbe5f9d48a08fb99cad1feb", "is_disabled": 0, "rental_uris": {"android": "https://dc.lft.to/lastmile_qr_scan", "ios": "https://dc.lft.to/lastmile_qr_scan"}, "fusion_lon": 0.0, "lat": 38.99437866666667, "bike_id": "dcafd58d3cbe5f9d48a08fb99cad1feb", "type": "electric_bike", "is_reserved": 0, "lon": -77.02913983333333}, {"fusion_lat": 0.0, "name": "95b841460c91e11bff34d1c26d354da3", "is_disabled": 0, "rental_uris": {"android": "https://dc.lft.to/lastmile_qr_scan", "ios": "https://dc.lft.to/lastmile_qr_scan"}, "fusion_lon": 0.0, "lat": 38.91172233333333, "bike_id": "95b841460c91e11bff34d1c26d354da3", "type": "electric_scooter", "is_reserved": 0, "lon": -77.03863783333334}, {"fusion_lat": 0.0, "name": "cb63656aa426484b1dd20f5c9c02ac18", "is_disabled": 0, "rental_uris": {"android": "https://dc.lft.to/lastmile_qr_scan", "ios": "https://dc.lft.to/lastmile_qr_scan"}, "fusion_lon": 0.0, "lat": 38.92851316666667, "bike_id": "cb63656aa426484b1dd20f5c9c02ac18", "type": "electric_scooter", "is_reserved": 0, "lon": -77.05431916666667}, {"fusion_lat": 0.0, "name": "dcd49dd4c967cab5c6ca0f9ae88b08a4", "is_disabled": 0, "rental_uris": {"android": "https://dc.lft.to/lastmile_qr_scan", "ios": "https://dc.lft.to/lastmile_qr_scan"}, "fusion_lon": 0.0, "lat": 38.90648933333333, "bike_id": "dcd49dd4c967cab5c6ca0f9ae88b08a4", "type": "electric_scooter", "is_reserved": 0, "lon": -77.04323683333334}, {"fusion_lat": 0.0, "name": "a8c53f44863322d3c2bf442760e8a23a", "is_disabled": 0, "rental_uris": {"android": "https://dc.lft.to/lastmile_qr_scan", "ios": "https://dc.lft.to/lastmile_qr_scan"}, "fusion_lon": 0.0, "lat": 38.902308833333336, "bike_id": "a8c53f44863322d3c2bf442760e8a23a", "type": "electric_scooter", "is_reserved": 0, "lon": -77.05477266666666}, {"fusion_lat": 0.0, "name": "c8f5bc7b5bf4c7370f87042cb721f0b0", "is_disabled": 0, "rental_uris": {"android": "https://dc.lft.to/lastmile_qr_scan", "ios": "https://dc.lft.to/lastmile_qr_scan"}, "fusion_lon": 0.0, "lat": 38.9051295, "bike_id": "c8f5bc7b5bf4c7370f87042cb721f0b0", "type": "electric_scooter", "is_reserved": 0, "lon": -77.06151833333334}, {"fusion_lat": 0.0, "name": "33d543bd99adeadd27af548e0a4d32cf", "is_disabled": 0, "rental_uris": {"android": "https://dc.lft.to/lastmile_qr_scan", "ios": "https://dc.lft.to/lastmile_qr_scan"}, "fusion_lon": 0.0, "lat": 38.90761883333333, "bike_id": "33d543bd99adeadd27af548e0a4d32cf", "type": "electric_scooter", "is_reserved": 0, "lon": -77.03588933333333}, {"fusion_lat": 0.0, "name": "862cc085f88dad88181913653f987dc5", "is_disabled": 0, "rental_uris": {"android": "https://dc.lft.to/lastmile_qr_scan", "ios": "https://dc.lft.to/lastmile_qr_scan"}, "fusion_lon": 0.0, "lat": 38.89307083333333, "bike_id": "862cc085f88dad88181913653f987dc5", "type": "electric_scooter", "is_reserved": 0, "lon": -77.02603066666667}, {"fusion_lat": 0.0, "name": "9f042eee74ea084debbbf684a084f713", "is_disabled": 0, "rental_uris": {"android": "https://dc.lft.to/lastmile_qr_scan", "ios": "https://dc.lft.to/lastmile_qr_scan"}, "fusion_lon": 0.0, "lat": 38.8874455, "bike_id": "9f042eee74ea084debbbf684a084f713", "type": "electric_scooter", "is_reserved": 0, "lon": -77.0178405}, {"fusion_lat": 0.0, "name": "54371909fd186cd9d4ad7f442d9948a4", "is_disabled": 0, "rental_uris": {"android": "https://dc.lft.to/lastmile_qr_scan", "ios": "https://dc.lft.to/lastmile_qr_scan"}, "fusion_lon": 0.0, "lat": 38.90107066666667, "bike_id": "54371909fd186cd9d4ad7f442d9948a4", "type": "electric_scooter", "is_reserved": 0, "lon": -77.05901883333334}, {"fusion_lat": 0.0, "name": "0f27760e5356002c213978e12ce62814", "is_disabled": 0, "rental_uris": {"android": "https://dc.lft.to/lastmile_qr_scan", "ios": "https://dc.lft.to/lastmile_qr_scan"}, "fusion_lon": 0.0, "lat": 38.89900466666667, "bike_id": "0f27760e5356002c213978e12ce62814", "type": "electric_scooter", "is_reserved": 0, "lon": -76.99390116666666}, {"fusion_lat": 0.0, "name": "889e0ece43a4a7c0a7819fae4f153eb8", "is_disabled": 0, "rental_uris": {"android": "https://dc.lft.to/lastmile_qr_scan", "ios": "https://dc.lft.to/lastmile_qr_scan"}, "fusion_lon": 0.0, "lat": 38.956342, "bike_id": "889e0ece43a4a7c0a7819fae4f153eb8", "type": "electric_bike", "is_reserved": 0, "lon": -76.93868916666666}, {"fusion_lat": 0.0, "name": "8cceac75b2420f7ffa6f66b539ec0dc3", "is_disabled": 0, "rental_uris": {"android": "https://dc.lft.to/lastmile_qr_scan", "ios": "https://dc.lft.to/lastmile_qr_scan"}, "fusion_lon": 0.0, "lat": 38.900432333333335, "bike_id": "8cceac75b2420f7ffa6f66b539ec0dc3", "type": "electric_scooter", "is_reserved": 0, "lon": -77.03922666666666}, {"fusion_lat": 0.0, "name": "df166600b27134581f2a57119ae4b207", "is_disabled": 0, "rental_uris": {"android": "https://dc.lft.to/lastmile_qr_scan", "ios": "https://dc.lft.to/lastmile_qr_scan"}, "fusion_lon": 0.0, "lat": 38.90717266666667, "bike_id": "df166600b27134581f2a57119ae4b207", "type": "electric_scooter", "is_reserved": 0, "lon": -77.0407425}, {"fusion_lat": 0.0, "name": "fd0af9772dbd37538d18fde49cc3b41b", "is_disabled": 0, "rental_uris": {"android": "https://dc.lft.to/lastmile_qr_scan", "ios": "https://dc.lft.to/lastmile_qr_scan"}, "fusion_lon": 0.0, "lat": 38.89524933333333, "bike_id": "fd0af9772dbd37538d18fde49cc3b41b", "type": "electric_scooter", "is_reserved": 0, "lon": -76.934101}, {"fusion_lat": 0.0, "name": "cd5528e43e3661a589062da9c0111402", "is_disabled": 0, "rental_uris": {"android": "https://dc.lft.to/lastmile_qr_scan", "ios": "https://dc.lft.to/lastmile_qr_scan"}, "fusion_lon": 0.0, "lat": 38.907586333333334, "bike_id": "cd5528e43e3661a589062da9c0111402", "type": "electric_scooter", "is_reserved": 0, "lon": -77.03581233333334}, {"fusion_lat": 0.0, "name": "3f9df2b173e562cc9d57158576f9c7cf", "is_disabled": 0, "rental_uris": {"android": "https://dc.lft.to/lastmile_qr_scan", "ios": "https://dc.lft.to/lastmile_qr_scan"}, "fusion_lon": 0.0, "lat": 38.9239635, "bike_id": "3f9df2b173e562cc9d57158576f9c7cf", "type": "electric_scooter", "is_reserved": 0, "lon": -77.025543}, {"fusion_lat": 0.0, "name": "22f2f263228bb608168c873bfead8541", "is_disabled": 0, "rental_uris": {"android": "https://dc.lft.to/lastmile_qr_scan", "ios": "https://dc.lft.to/lastmile_qr_scan"}, "fusion_lon": 0.0, "lat": 38.909530333333336, "bike_id": "22f2f263228bb608168c873bfead8541", "type": "electric_scooter", "is_reserved": 0, "lon": -77.02309483333333}, {"fusion_lat": 0.0, "name": "bf1ec88c1ed4be91172ce0caad7f75df", "is_disabled": 0, "rental_uris": {"android": "https://dc.lft.to/lastmile_qr_scan", "ios": "https://dc.lft.to/lastmile_qr_scan"}, "fusion_lon": 0.0, "lat": 38.8919465, "bike_id": "bf1ec88c1ed4be91172ce0caad7f75df", "type": "electric_scooter", "is_reserved": 0, "lon": -77.04334266666666}, {"fusion_lat": 0.0, "name": "f76aa8f7207ae8f5d17055c12d5dab89", "is_disabled": 0, "rental_uris": {"android": "https://dc.lft.to/lastmile_qr_scan", "ios": "https://dc.lft.to/lastmile_qr_scan"}, "fusion_lon": 0.0, "lat": 38.91265933333333, "bike_id": "f76aa8f7207ae8f5d17055c12d5dab89", "type": "electric_scooter", "is_reserved": 0, "lon": -77.01932616666667}, {"fusion_lat": 0.0, "name": "093e8fdd31da3ea31ee3e3cd71a14f59", "is_disabled": 0, "rental_uris": {"android": "https://dc.lft.to/lastmile_qr_scan", "ios": "https://dc.lft.to/lastmile_qr_scan"}, "fusion_lon": 0.0, "lat": 38.90124383333333, "bike_id": "093e8fdd31da3ea31ee3e3cd71a14f59", "type": "electric_scooter", "is_reserved": 0, "lon": -77.04458916666667}, {"fusion_lat": 0.0, "name": "f11a22dbb83d29b4771bb7b0b211de0d", "is_disabled": 0, "rental_uris": {"android": "https://dc.lft.to/lastmile_qr_scan", "ios": "https://dc.lft.to/lastmile_qr_scan"}, "fusion_lon": 0.0, "lat": 38.91547416666667, "bike_id": "f11a22dbb83d29b4771bb7b0b211de0d", "type": "electric_scooter", "is_reserved": 0, "lon": -77.03849816666667}, {"fusion_lat": 0.0, "name": "f43d4e3f5f10bac12c71c693e1bc8f6d", "is_disabled": 0, "rental_uris": {"android": "https://dc.lft.to/lastmile_qr_scan", "ios": "https://dc.lft.to/lastmile_qr_scan"}, "fusion_lon": 0.0, "lat": 38.917108166666665, "bike_id": "f43d4e3f5f10bac12c71c693e1bc8f6d", "type": "electric_scooter", "is_reserved": 0, "lon": -77.03470916666667}, {"fusion_lat": 0.0, "name": "bbc04d0bbd9a3b90943273eb8adbd6b8", "is_disabled": 0, "rental_uris": {"android": "https://dc.lft.to/lastmile_qr_scan", "ios": "https://dc.lft.to/lastmile_qr_scan"}, "fusion_lon": 0.0, "lat": 38.920966666666665, "bike_id": "bbc04d0bbd9a3b90943273eb8adbd6b8", "type": "electric_scooter", "is_reserved": 0, "lon": -77.02524816666667}, {"fusion_lat": 0.0, "name": "1c2ec7d80d5169960a2c8c83efc6db93", "is_disabled": 0, "rental_uris": {"android": "https://dc.lft.to/lastmile_qr_scan", "ios": "https://dc.lft.to/lastmile_qr_scan"}, "fusion_lon": 0.0, "lat": 38.883350166666666, "bike_id": "1c2ec7d80d5169960a2c8c83efc6db93", "type": "electric_scooter", "is_reserved": 0, "lon": -76.93494433333333}, {"fusion_lat": 0.0, "name": "d20228400a7640df84576e09dd46e223", "is_disabled": 0, "rental_uris": {"android": "https://dc.lft.to/lastmile_qr_scan", "ios": "https://dc.lft.to/lastmile_qr_scan"}, "fusion_lon": 0.0, "lat": 38.9156935, "bike_id": "d20228400a7640df84576e09dd46e223", "type": "electric_scooter", "is_reserved": 0, "lon": -77.0103845}, {"fusion_lat": 0.0, "name": "f1843a6a601b5b0513d4d354910fc869", "is_disabled": 0, "rental_uris": {"android": "https://dc.lft.to/lastmile_qr_scan", "ios": "https://dc.lft.to/lastmile_qr_scan"}, "fusion_lon": 0.0, "lat": 38.89025783333334, "bike_id": "f1843a6a601b5b0513d4d354910fc869", "type": "electric_scooter", "is_reserved": 0, "lon": -77.03177083333334}, {"fusion_lat": 0.0, "name": "17b0c06a2c4ed47f4efa59af0c4076b0", "is_disabled": 0, "rental_uris": {"android": "https://dc.lft.to/lastmile_qr_scan", "ios": "https://dc.lft.to/lastmile_qr_scan"}, "fusion_lon": 0.0, "lat": 38.943885333333334, "bike_id": "17b0c06a2c4ed47f4efa59af0c4076b0", "type": "electric_scooter", "is_reserved": 0, "lon": -77.09506983333333}, {"fusion_lat": 0.0, "name": "b517a8f36646e28b1e1ddee2fc38393c", "is_disabled": 0, "rental_uris": {"android": "https://dc.lft.to/lastmile_qr_scan", "ios": "https://dc.lft.to/lastmile_qr_scan"}, "fusion_lon": 0.0, "lat": 38.89349216666667, "bike_id": "b517a8f36646e28b1e1ddee2fc38393c", "type": "electric_scooter", "is_reserved": 0, "lon": -77.032014}, {"fusion_lat": 0.0, "name": "031de9eac60b28aadcdddca6fc96a039", "is_disabled": 0, "rental_uris": {"android": "https://dc.lft.to/lastmile_qr_scan", "ios": "https://dc.lft.to/lastmile_qr_scan"}, "fusion_lon": 0.0, "lat": 38.91121116666667, "bike_id": "031de9eac60b28aadcdddca6fc96a039", "type": "electric_scooter", "is_reserved": 0, "lon": -77.00772266666667}, {"fusion_lat": 0.0, "name": "f50c4367ed4942907c2e4601db6e019e", "is_disabled": 0, "rental_uris": {"android": "https://dc.lft.to/lastmile_qr_scan", "ios": "https://dc.lft.to/lastmile_qr_scan"}, "fusion_lon": 0.0, "lat": 38.89222633333333, "bike_id": "f50c4367ed4942907c2e4601db6e019e", "type": "electric_scooter", "is_reserved": 0, "lon": -77.04867766666666}, {"fusion_lat": 0.0, "name": "d1d5b120d4105b5407c84d3690ece42b", "is_disabled": 0, "rental_uris": {"android": "https://dc.lft.to/lastmile_qr_scan", "ios": "https://dc.lft.to/lastmile_qr_scan"}, "fusion_lon": 0.0, "lat": 38.907356, "bike_id": "d1d5b120d4105b5407c84d3690ece42b", "type": "electric_scooter", "is_reserved": 0, "lon": -77.04332183333334}, {"fusion_lat": 0.0, "name": "2cdd8c719c572800cb15aa79105d02b9", "is_disabled": 0, "rental_uris": {"android": "https://dc.lft.to/lastmile_qr_scan", "ios": "https://dc.lft.to/lastmile_qr_scan"}, "fusion_lon": 0.0, "lat": 38.90013616666667, "bike_id": "2cdd8c719c572800cb15aa79105d02b9", "type": "electric_scooter", "is_reserved": 0, "lon": -76.98809683333333}, {"fusion_lat": 0.0, "name": "eaf312ae244521281c497e63ff6928b2", "is_disabled": 0, "rental_uris": {"android": "https://dc.lft.to/lastmile_qr_scan", "ios": "https://dc.lft.to/lastmile_qr_scan"}, "fusion_lon": 0.0, "lat": 38.92342266666667, "bike_id": "eaf312ae244521281c497e63ff6928b2", "type": "electric_scooter", "is_reserved": 0, "lon": -77.01915066666666}, {"fusion_lat": 0.0, "name": "1929089133cc38819e7efd08075b6194", "is_disabled": 0, "rental_uris": {"android": "https://dc.lft.to/lastmile_qr_scan", "ios": "https://dc.lft.to/lastmile_qr_scan"}, "fusion_lon": 0.0, "lat": 38.898763833333334, "bike_id": "1929089133cc38819e7efd08075b6194", "type": "electric_scooter", "is_reserved": 0, "lon": -76.93185733333334}, {"fusion_lat": 0.0, "name": "7c8d2face36ac93fb6f6a0917d754ea5", "is_disabled": 0, "rental_uris": {"android": "https://dc.lft.to/lastmile_qr_scan", "ios": "https://dc.lft.to/lastmile_qr_scan"}, "fusion_lon": 0.0, "lat": 38.929694166666664, "bike_id": "7c8d2face36ac93fb6f6a0917d754ea5", "type": "electric_scooter", "is_reserved": 0, "lon": -77.02793266666667}, {"fusion_lat": 0.0, "name": "05687b05821abb49e47092e1ee9208ef", "is_disabled": 0, "rental_uris": {"android": "https://dc.lft.to/lastmile_qr_scan", "ios": "https://dc.lft.to/lastmile_qr_scan"}, "fusion_lon": 0.0, "lat": 38.90433183333333, "bike_id": "05687b05821abb49e47092e1ee9208ef", "type": "electric_scooter", "is_reserved": 0, "lon": -77.02600716666667}, {"fusion_lat": 0.0, "name": "e3263249e43eab2c0705c1cb5abae06c", "is_disabled": 0, "rental_uris": {"android": "https://dc.lft.to/lastmile_qr_scan", "ios": "https://dc.lft.to/lastmile_qr_scan"}, "fusion_lon": 0.0, "lat": 38.920260666666664, "bike_id": "e3263249e43eab2c0705c1cb5abae06c", "type": "electric_scooter", "is_reserved": 0, "lon": -77.01313033333334}, {"fusion_lat": 0.0, "name": "db2f9c2220f685996aa26d70cc8e33a9", "is_disabled": 0, "rental_uris": {"android": "https://dc.lft.to/lastmile_qr_scan", "ios": "https://dc.lft.to/lastmile_qr_scan"}, "fusion_lon": 0.0, "lat": 38.91622683333333, "bike_id": "db2f9c2220f685996aa26d70cc8e33a9", "type": "electric_scooter", "is_reserved": 0, "lon": -77.09655433333333}, {"fusion_lat": 0.0, "name": "19265b5dce6de5dc7515755caa64a056", "is_disabled": 0, "rental_uris": {"android": "https://dc.lft.to/lastmile_qr_scan", "ios": "https://dc.lft.to/lastmile_qr_scan"}, "fusion_lon": 0.0, "lat": 38.90391416666667, "bike_id": "19265b5dce6de5dc7515755caa64a056", "type": "electric_scooter", "is_reserved": 0, "lon": -77.03839683333334}, {"fusion_lat": 0.0, "name": "5adfe5fc5a0c76d0ffc27d96b964cea6", "is_disabled": 0, "rental_uris": {"android": "https://dc.lft.to/lastmile_qr_scan", "ios": "https://dc.lft.to/lastmile_qr_scan"}, "fusion_lon": 0.0, "lat": 38.929252, "bike_id": "5adfe5fc5a0c76d0ffc27d96b964cea6", "type": "electric_scooter", "is_reserved": 0, "lon": -77.03272}, {"fusion_lat": 0.0, "name": "1bf7816f8e6f98ed00a7490c06386696", "is_disabled": 0, "rental_uris": {"android": "https://dc.lft.to/lastmile_qr_scan", "ios": "https://dc.lft.to/lastmile_qr_scan"}, "fusion_lon": 0.0, "lat": 38.93868033333333, "bike_id": "1bf7816f8e6f98ed00a7490c06386696", "type": "electric_scooter", "is_reserved": 0, "lon": -77.02943966666666}, {"fusion_lat": 0.0, "name": "a4f5998fe3af18a3f3d186dd5c8d6840", "is_disabled": 0, "rental_uris": {"android": "https://dc.lft.to/lastmile_qr_scan", "ios": "https://dc.lft.to/lastmile_qr_scan"}, "fusion_lon": 0.0, "lat": 38.916246, "bike_id": "a4f5998fe3af18a3f3d186dd5c8d6840", "type": "electric_scooter", "is_reserved": 0, "lon": -77.02149683333333}, {"fusion_lat": 0.0, "name": "05dccd463e2e97c8028b3f58a9bf251e", "is_disabled": 0, "rental_uris": {"android": "https://dc.lft.to/lastmile_qr_scan", "ios": "https://dc.lft.to/lastmile_qr_scan"}, "fusion_lon": 0.0, "lat": 38.949251, "bike_id": "05dccd463e2e97c8028b3f58a9bf251e", "type": "electric_bike", "is_reserved": 0, "lon": -77.008027}, {"fusion_lat": 0.0, "name": "3b4538ff710e75e73e355979c8c7c950", "is_disabled": 0, "rental_uris": {"android": "https://dc.lft.to/lastmile_qr_scan", "ios": "https://dc.lft.to/lastmile_qr_scan"}, "fusion_lon": 0.0, "lat": 38.90721716666667, "bike_id": "3b4538ff710e75e73e355979c8c7c950", "type": "electric_scooter", "is_reserved": 0, "lon": -76.99819416666666}, {"fusion_lat": 0.0, "name": "c7b5f5a8dd9c4fc417d9b95e6590199d", "is_disabled": 0, "rental_uris": {"android": "https://dc.lft.to/lastmile_qr_scan", "ios": "https://dc.lft.to/lastmile_qr_scan"}, "fusion_lon": 0.0, "lat": 38.91279933333333, "bike_id": "c7b5f5a8dd9c4fc417d9b95e6590199d", "type": "electric_scooter", "is_reserved": 0, "lon": -77.02248883333333}, {"fusion_lat": 0.0, "name": "d21e11ccdf76519888d5099236f67534", "is_disabled": 0, "rental_uris": {"android": "https://dc.lft.to/lastmile_qr_scan", "ios": "https://dc.lft.to/lastmile_qr_scan"}, "fusion_lon": 0.0, "lat": 38.91743733333333, "bike_id": "d21e11ccdf76519888d5099236f67534", "type": "electric_scooter", "is_reserved": 0, "lon": -77.04567733333333}, {"fusion_lat": 0.0, "name": "bfd41e3848289cbde0dde9b09d5d71ad", "is_disabled": 0, "rental_uris": {"android": "https://dc.lft.to/lastmile_qr_scan", "ios": "https://dc.lft.to/lastmile_qr_scan"}, "fusion_lon": 0.0, "lat": 38.92238783333333, "bike_id": "bfd41e3848289cbde0dde9b09d5d71ad", "type": "electric_scooter", "is_reserved": 0, "lon": -77.03900566666667}, {"fusion_lat": 0.0, "name": "311895f1999ab3ba703aece2733b21c8", "is_disabled": 0, "rental_uris": {"android": "https://dc.lft.to/lastmile_qr_scan", "ios": "https://dc.lft.to/lastmile_qr_scan"}, "fusion_lon": 0.0, "lat": 38.941201, "bike_id": "311895f1999ab3ba703aece2733b21c8", "type": "electric_bike", "is_reserved": 0, "lon": -76.99032616666666}, {"fusion_lat": 0.0, "name": "b448503550c00f46aa4a9ced03bda370", "is_disabled": 0, "rental_uris": {"android": "https://dc.lft.to/lastmile_qr_scan", "ios": "https://dc.lft.to/lastmile_qr_scan"}, "fusion_lon": 0.0, "lat": 38.900271333333336, "bike_id": "b448503550c00f46aa4a9ced03bda370", "type": "electric_scooter", "is_reserved": 0, "lon": -77.01202433333333}, {"fusion_lat": 0.0, "name": "cbd5b344ea643f4f8901f7209e8130c2", "is_disabled": 0, "rental_uris": {"android": "https://dc.lft.to/lastmile_qr_scan", "ios": "https://dc.lft.to/lastmile_qr_scan"}, "fusion_lon": 0.0, "lat": 38.90373316666667, "bike_id": "cbd5b344ea643f4f8901f7209e8130c2", "type": "electric_scooter", "is_reserved": 0, "lon": -77.03808166666667}, {"fusion_lat": 0.0, "name": "c121d6b2488dad58c8ce5318dea0d9f2", "is_disabled": 0, "rental_uris": {"android": "https://dc.lft.to/lastmile_qr_scan", "ios": "https://dc.lft.to/lastmile_qr_scan"}, "fusion_lon": 0.0, "lat": 38.924338166666665, "bike_id": "c121d6b2488dad58c8ce5318dea0d9f2", "type": "electric_scooter", "is_reserved": 0, "lon": -77.00063}, {"fusion_lat": 0.0, "name": "f4591fab5f4af325b8ef8219359e0223", "is_disabled": 0, "rental_uris": {"android": "https://dc.lft.to/lastmile_qr_scan", "ios": "https://dc.lft.to/lastmile_qr_scan"}, "fusion_lon": 0.0, "lat": 38.942298, "bike_id": "f4591fab5f4af325b8ef8219359e0223", "type": "electric_scooter", "is_reserved": 0, "lon": -77.0138505}, {"fusion_lat": 0.0, "name": "5d4926ac13a55612aa8a1baa7a9993e9", "is_disabled": 0, "rental_uris": {"android": "https://dc.lft.to/lastmile_qr_scan", "ios": "https://dc.lft.to/lastmile_qr_scan"}, "fusion_lon": 0.0, "lat": 38.88739483333333, "bike_id": "5d4926ac13a55612aa8a1baa7a9993e9", "type": "electric_scooter", "is_reserved": 0, "lon": -77.0031975}, {"fusion_lat": 0.0, "name": "e0f6192b9348cd0c185681dc6f35df15", "is_disabled": 0, "rental_uris": {"android": "https://dc.lft.to/lastmile_qr_scan", "ios": "https://dc.lft.to/lastmile_qr_scan"}, "fusion_lon": 0.0, "lat": 38.90293483333333, "bike_id": "e0f6192b9348cd0c185681dc6f35df15", "type": "electric_scooter", "is_reserved": 0, "lon": -77.03963966666667}, {"fusion_lat": 0.0, "name": "fb11aec0da9d1f5194fa23bfe654ee44", "is_disabled": 0, "rental_uris": {"android": "https://dc.lft.to/lastmile_qr_scan", "ios": "https://dc.lft.to/lastmile_qr_scan"}, "fusion_lon": 0.0, "lat": 38.899606666666664, "bike_id": "fb11aec0da9d1f5194fa23bfe654ee44", "type": "electric_scooter", "is_reserved": 0, "lon": -76.98708533333334}, {"fusion_lat": 0.0, "name": "f35857fcbb8e8c56e219f2914bfe34b9", "is_disabled": 0, "rental_uris": {"android": "https://dc.lft.to/lastmile_qr_scan", "ios": "https://dc.lft.to/lastmile_qr_scan"}, "fusion_lon": 0.0, "lat": 38.887248166666666, "bike_id": "f35857fcbb8e8c56e219f2914bfe34b9", "type": "electric_scooter", "is_reserved": 0, "lon": -76.98356633333333}, {"fusion_lat": 0.0, "name": "06fd0d8858b304c413bed207ec01ed9b", "is_disabled": 0, "rental_uris": {"android": "https://dc.lft.to/lastmile_qr_scan", "ios": "https://dc.lft.to/lastmile_qr_scan"}, "fusion_lon": 0.0, "lat": 38.94195833333333, "bike_id": "06fd0d8858b304c413bed207ec01ed9b", "type": "electric_scooter", "is_reserved": 0, "lon": -77.02534416666667}, {"fusion_lat": 0.0, "name": "a4fa27151daccc0481a3fb24d4d633a6", "is_disabled": 0, "rental_uris": {"android": "https://dc.lft.to/lastmile_qr_scan", "ios": "https://dc.lft.to/lastmile_qr_scan"}, "fusion_lon": 0.0, "lat": 38.920866333333336, "bike_id": "a4fa27151daccc0481a3fb24d4d633a6", "type": "electric_scooter", "is_reserved": 0, "lon": -77.02516066666666}, {"fusion_lat": 0.0, "name": "756a087e2bd76390139feaf4b6ce4b79", "is_disabled": 0, "rental_uris": {"android": "https://dc.lft.to/lastmile_qr_scan", "ios": "https://dc.lft.to/lastmile_qr_scan"}, "fusion_lon": 0.0, "lat": 38.88746916666667, "bike_id": "756a087e2bd76390139feaf4b6ce4b79", "type": "electric_scooter", "is_reserved": 0, "lon": -77.01782083333333}, {"fusion_lat": 0.0, "name": "760386312189b380bb36aed27c26f652", "is_disabled": 0, "rental_uris": {"android": "https://dc.lft.to/lastmile_qr_scan", "ios": "https://dc.lft.to/lastmile_qr_scan"}, "fusion_lon": 0.0, "lat": 38.887354, "bike_id": "760386312189b380bb36aed27c26f652", "type": "electric_scooter", "is_reserved": 0, "lon": -77.03167866666666}, {"fusion_lat": 0.0, "name": "b22a10cdcfbf2cb471f0441862a3588c", "is_disabled": 0, "rental_uris": {"android": "https://dc.lft.to/lastmile_qr_scan", "ios": "https://dc.lft.to/lastmile_qr_scan"}, "fusion_lon": 0.0, "lat": 38.89702416666667, "bike_id": "b22a10cdcfbf2cb471f0441862a3588c", "type": "electric_scooter", "is_reserved": 0, "lon": -77.02755633333334}, {"fusion_lat": 0.0, "name": "47b70aec493d7a92ffaf62c4bc893664", "is_disabled": 0, "rental_uris": {"android": "https://dc.lft.to/lastmile_qr_scan", "ios": "https://dc.lft.to/lastmile_qr_scan"}, "fusion_lon": 0.0, "lat": 38.918201833333335, "bike_id": "47b70aec493d7a92ffaf62c4bc893664", "type": "electric_scooter", "is_reserved": 0, "lon": -77.03682683333334}, {"fusion_lat": 0.0, "name": "f055ff95eb53a0cd3221cadc71fb5e2e", "is_disabled": 0, "rental_uris": {"android": "https://dc.lft.to/lastmile_qr_scan", "ios": "https://dc.lft.to/lastmile_qr_scan"}, "fusion_lon": 0.0, "lat": 38.920005833333335, "bike_id": "f055ff95eb53a0cd3221cadc71fb5e2e", "type": "electric_scooter", "is_reserved": 0, "lon": -77.03276316666667}, {"fusion_lat": 0.0, "name": "b76c9cd6f90c73974be585c86d0a893d", "is_disabled": 0, "rental_uris": {"android": "https://dc.lft.to/lastmile_qr_scan", "ios": "https://dc.lft.to/lastmile_qr_scan"}, "fusion_lon": 0.0, "lat": 38.920772166666666, "bike_id": "b76c9cd6f90c73974be585c86d0a893d", "type": "electric_bike", "is_reserved": 0, "lon": -76.98948266666666}, {"fusion_lat": 0.0, "name": "8897e04221a5191e1eddca95dacdb792", "is_disabled": 0, "rental_uris": {"android": "https://dc.lft.to/lastmile_qr_scan", "ios": "https://dc.lft.to/lastmile_qr_scan"}, "fusion_lon": 0.0, "lat": 38.843544, "bike_id": "8897e04221a5191e1eddca95dacdb792", "type": "electric_bike", "is_reserved": 0, "lon": -76.9782135}, {"fusion_lat": 0.0, "name": "4fba6aecdea3f863e782f439074303cd", "is_disabled": 0, "rental_uris": {"android": "https://dc.lft.to/lastmile_qr_scan", "ios": "https://dc.lft.to/lastmile_qr_scan"}, "fusion_lon": 0.0, "lat": 38.924261, "bike_id": "4fba6aecdea3f863e782f439074303cd", "type": "electric_scooter", "is_reserved": 0, "lon": -77.029806}, {"fusion_lat": 0.0, "name": "5f9605a6491340d557aa88bf7a790c48", "is_disabled": 0, "rental_uris": {"android": "https://dc.lft.to/lastmile_qr_scan", "ios": "https://dc.lft.to/lastmile_qr_scan"}, "fusion_lon": 0.0, "lat": 38.90386866666667, "bike_id": "5f9605a6491340d557aa88bf7a790c48", "type": "electric_scooter", "is_reserved": 0, "lon": -77.038384}, {"fusion_lat": 0.0, "name": "95a7efafd5458a8e9018474103e930d9", "is_disabled": 0, "rental_uris": {"android": "https://dc.lft.to/lastmile_qr_scan", "ios": "https://dc.lft.to/lastmile_qr_scan"}, "fusion_lon": 0.0, "lat": 38.945003166666666, "bike_id": "95a7efafd5458a8e9018474103e930d9", "type": "electric_scooter", "is_reserved": 0, "lon": -77.03151666666666}, {"fusion_lat": 0.0, "name": "664b4a4e0b63b41b41eaa9553f8f8ea8", "is_disabled": 0, "rental_uris": {"android": "https://dc.lft.to/lastmile_qr_scan", "ios": "https://dc.lft.to/lastmile_qr_scan"}, "fusion_lon": 0.0, "lat": 38.9105845, "bike_id": "664b4a4e0b63b41b41eaa9553f8f8ea8", "type": "electric_scooter", "is_reserved": 0, "lon": -77.026563}, {"fusion_lat": 0.0, "name": "66824008cfe718fc1a8736865f7f3a81", "is_disabled": 0, "rental_uris": {"android": "https://dc.lft.to/lastmile_qr_scan", "ios": "https://dc.lft.to/lastmile_qr_scan"}, "fusion_lon": 0.0, "lat": 38.88360766666667, "bike_id": "66824008cfe718fc1a8736865f7f3a81", "type": "electric_scooter", "is_reserved": 0, "lon": -76.941566}, {"fusion_lat": 0.0, "name": "f9a9387ffd5ce1c9441cd12923a50e0a", "is_disabled": 0, "rental_uris": {"android": "https://dc.lft.to/lastmile_qr_scan", "ios": "https://dc.lft.to/lastmile_qr_scan"}, "fusion_lon": 0.0, "lat": 38.9233895, "bike_id": "f9a9387ffd5ce1c9441cd12923a50e0a", "type": "electric_scooter", "is_reserved": 0, "lon": -77.05224883333334}, {"fusion_lat": 0.0, "name": "cabba4cf9be4beebb5d73526c691a58c", "is_disabled": 0, "rental_uris": {"android": "https://dc.lft.to/lastmile_qr_scan", "ios": "https://dc.lft.to/lastmile_qr_scan"}, "fusion_lon": 0.0, "lat": 38.90281, "bike_id": "cabba4cf9be4beebb5d73526c691a58c", "type": "electric_scooter", "is_reserved": 0, "lon": -77.03941633333334}, {"fusion_lat": 0.0, "name": "582a3334d06049245edaf1c3751392f2", "is_disabled": 0, "rental_uris": {"android": "https://dc.lft.to/lastmile_qr_scan", "ios": "https://dc.lft.to/lastmile_qr_scan"}, "fusion_lon": 0.0, "lat": 38.93189116666667, "bike_id": "582a3334d06049245edaf1c3751392f2", "type": "electric_scooter", "is_reserved": 0, "lon": -77.03263283333334}, {"fusion_lat": 0.0, "name": "834a9db61a87fb210ed9a662886824e5", "is_disabled": 0, "rental_uris": {"android": "https://dc.lft.to/lastmile_qr_scan", "ios": "https://dc.lft.to/lastmile_qr_scan"}, "fusion_lon": 0.0, "lat": 38.910958666666666, "bike_id": "834a9db61a87fb210ed9a662886824e5", "type": "electric_scooter", "is_reserved": 0, "lon": -77.0448365}, {"fusion_lat": 0.0, "name": "50cdf999e22f1f45a82dfbcc794f11fc", "is_disabled": 0, "rental_uris": {"android": "https://dc.lft.to/lastmile_qr_scan", "ios": "https://dc.lft.to/lastmile_qr_scan"}, "fusion_lon": 0.0, "lat": 38.9248075, "bike_id": "50cdf999e22f1f45a82dfbcc794f11fc", "type": "electric_bike", "is_reserved": 0, "lon": -77.0320345}, {"fusion_lat": 0.0, "name": "b3ad6a71b83367c861d56bcc2e79c14d", "is_disabled": 0, "rental_uris": {"android": "https://dc.lft.to/lastmile_qr_scan", "ios": "https://dc.lft.to/lastmile_qr_scan"}, "fusion_lon": 0.0, "lat": 38.906733833333334, "bike_id": "b3ad6a71b83367c861d56bcc2e79c14d", "type": "electric_scooter", "is_reserved": 0, "lon": -77.02229516666667}, {"fusion_lat": 0.0, "name": "4032182da554924b3d947d57c846c794", "is_disabled": 0, "rental_uris": {"android": "https://dc.lft.to/lastmile_qr_scan", "ios": "https://dc.lft.to/lastmile_qr_scan"}, "fusion_lon": 0.0, "lat": 38.9111695, "bike_id": "4032182da554924b3d947d57c846c794", "type": "electric_scooter", "is_reserved": 0, "lon": -77.01970516666667}, {"fusion_lat": 0.0, "name": "4a992a5329982613d429ff74197f3114", "is_disabled": 0, "rental_uris": {"android": "https://dc.lft.to/lastmile_qr_scan", "ios": "https://dc.lft.to/lastmile_qr_scan"}, "fusion_lon": 0.0, "lat": 38.90238566666667, "bike_id": "4a992a5329982613d429ff74197f3114", "type": "electric_scooter", "is_reserved": 0, "lon": -77.00196233333334}, {"fusion_lat": 0.0, "name": "4fe9747d901ade0e2d252b3bf3edd5ef", "is_disabled": 0, "rental_uris": {"android": "https://dc.lft.to/lastmile_qr_scan", "ios": "https://dc.lft.to/lastmile_qr_scan"}, "fusion_lon": 0.0, "lat": 38.92573516666667, "bike_id": "4fe9747d901ade0e2d252b3bf3edd5ef", "type": "electric_scooter", "is_reserved": 0, "lon": -77.02691433333334}, {"fusion_lat": 0.0, "name": "511ef14e16d7cfaae4f5f22550fceddb", "is_disabled": 0, "rental_uris": {"android": "https://dc.lft.to/lastmile_qr_scan", "ios": "https://dc.lft.to/lastmile_qr_scan"}, "fusion_lon": 0.0, "lat": 38.91255133333333, "bike_id": "511ef14e16d7cfaae4f5f22550fceddb", "type": "electric_scooter", "is_reserved": 0, "lon": -77.03630983333333}, {"fusion_lat": 0.0, "name": "bd8a44ecdff4bf72674786f578a1dbaf", "is_disabled": 0, "rental_uris": {"android": "https://dc.lft.to/lastmile_qr_scan", "ios": "https://dc.lft.to/lastmile_qr_scan"}, "fusion_lon": 0.0, "lat": 38.906328333333335, "bike_id": "bd8a44ecdff4bf72674786f578a1dbaf", "type": "electric_scooter", "is_reserved": 0, "lon": -77.02598183333333}, {"fusion_lat": 0.0, "name": "504be8ca405de2f64145b8f7235af7eb", "is_disabled": 0, "rental_uris": {"android": "https://dc.lft.to/lastmile_qr_scan", "ios": "https://dc.lft.to/lastmile_qr_scan"}, "fusion_lon": 0.0, "lat": 38.9311455, "bike_id": "504be8ca405de2f64145b8f7235af7eb", "type": "electric_scooter", "is_reserved": 0, "lon": -76.99624516666667}, {"fusion_lat": 0.0, "name": "60e84d976c03e49e0651ac1a995c6714", "is_disabled": 0, "rental_uris": {"android": "https://dc.lft.to/lastmile_qr_scan", "ios": "https://dc.lft.to/lastmile_qr_scan"}, "fusion_lon": 0.0, "lat": 38.904313333333334, "bike_id": "60e84d976c03e49e0651ac1a995c6714", "type": "electric_scooter", "is_reserved": 0, "lon": -77.02596233333334}, {"fusion_lat": 0.0, "name": "6acd2db9f5f976ab101b7c10fa8e6854", "is_disabled": 0, "rental_uris": {"android": "https://dc.lft.to/lastmile_qr_scan", "ios": "https://dc.lft.to/lastmile_qr_scan"}, "fusion_lon": 0.0, "lat": 38.92876483333333, "bike_id": "6acd2db9f5f976ab101b7c10fa8e6854", "type": "electric_scooter", "is_reserved": 0, "lon": -76.99550516666666}, {"fusion_lat": 0.0, "name": "70b85d555403b5c2158e49015682e67f", "is_disabled": 0, "rental_uris": {"android": "https://dc.lft.to/lastmile_qr_scan", "ios": "https://dc.lft.to/lastmile_qr_scan"}, "fusion_lon": 0.0, "lat": 38.880159666666664, "bike_id": "70b85d555403b5c2158e49015682e67f", "type": "electric_scooter", "is_reserved": 0, "lon": -76.98067966666666}, {"fusion_lat": 0.0, "name": "b010625f028cc4cd5250263524635d30", "is_disabled": 0, "rental_uris": {"android": "https://dc.lft.to/lastmile_qr_scan", "ios": "https://dc.lft.to/lastmile_qr_scan"}, "fusion_lon": 0.0, "lat": 38.919198, "bike_id": "b010625f028cc4cd5250263524635d30", "type": "electric_scooter", "is_reserved": 0, "lon": -77.02473183333333}, {"fusion_lat": 0.0, "name": "08982614b25b722c1d4051912609b108", "is_disabled": 0, "rental_uris": {"android": "https://dc.lft.to/lastmile_qr_scan", "ios": "https://dc.lft.to/lastmile_qr_scan"}, "fusion_lon": 0.0, "lat": 38.9262885, "bike_id": "08982614b25b722c1d4051912609b108", "type": "electric_scooter", "is_reserved": 0, "lon": -77.04319183333334}, {"fusion_lat": 0.0, "name": "c28fcd83122e5d84ff730a607a847856", "is_disabled": 0, "rental_uris": {"android": "https://dc.lft.to/lastmile_qr_scan", "ios": "https://dc.lft.to/lastmile_qr_scan"}, "fusion_lon": 0.0, "lat": 38.92256366666667, "bike_id": "c28fcd83122e5d84ff730a607a847856", "type": "electric_scooter", "is_reserved": 0, "lon": -77.0195215}, {"fusion_lat": 0.0, "name": "805826a686ccb0013693e12b9be58f8f", "is_disabled": 0, "rental_uris": {"android": "https://dc.lft.to/lastmile_qr_scan", "ios": "https://dc.lft.to/lastmile_qr_scan"}, "fusion_lon": 0.0, "lat": 38.92546866666667, "bike_id": "805826a686ccb0013693e12b9be58f8f", "type": "electric_scooter", "is_reserved": 0, "lon": -77.0430255}, {"fusion_lat": 0.0, "name": "2a4647a926d638fa20f3904c3fa8eb3f", "is_disabled": 0, "rental_uris": {"android": "https://dc.lft.to/lastmile_qr_scan", "ios": "https://dc.lft.to/lastmile_qr_scan"}, "fusion_lon": 0.0, "lat": 38.9180625, "bike_id": "2a4647a926d638fa20f3904c3fa8eb3f", "type": "electric_scooter", "is_reserved": 0, "lon": -77.03437416666667}, {"fusion_lat": 0.0, "name": "b3e25d762a8b9209ff79a892c3396c4f", "is_disabled": 0, "rental_uris": {"android": "https://dc.lft.to/lastmile_qr_scan", "ios": "https://dc.lft.to/lastmile_qr_scan"}, "fusion_lon": 0.0, "lat": 38.909668, "bike_id": "b3e25d762a8b9209ff79a892c3396c4f", "type": "electric_scooter", "is_reserved": 0, "lon": -77.04841016666667}, {"fusion_lat": 0.0, "name": "9de6e74df64366b43a3715061e097272", "is_disabled": 0, "rental_uris": {"android": "https://dc.lft.to/lastmile_qr_scan", "ios": "https://dc.lft.to/lastmile_qr_scan"}, "fusion_lon": 0.0, "lat": 38.920177, "bike_id": "9de6e74df64366b43a3715061e097272", "type": "electric_scooter", "is_reserved": 0, "lon": -77.025037}, {"fusion_lat": 0.0, "name": "01250ab2a6816b2f9bd73cf07736be9e", "is_disabled": 0, "rental_uris": {"android": "https://dc.lft.to/lastmile_qr_scan", "ios": "https://dc.lft.to/lastmile_qr_scan"}, "fusion_lon": 0.0, "lat": 38.9190815, "bike_id": "01250ab2a6816b2f9bd73cf07736be9e", "type": "electric_scooter", "is_reserved": 0, "lon": -77.01364133333334}, {"fusion_lat": 0.0, "name": "b7f8c70ce63c78bb92c953a3b4773366", "is_disabled": 0, "rental_uris": {"android": "https://dc.lft.to/lastmile_qr_scan", "ios": "https://dc.lft.to/lastmile_qr_scan"}, "fusion_lon": 0.0, "lat": 38.91336733333333, "bike_id": "b7f8c70ce63c78bb92c953a3b4773366", "type": "electric_scooter", "is_reserved": 0, "lon": -77.04784633333334}, {"fusion_lat": 0.0, "name": "f651b4709d26fd1be0980ab53dc310fd", "is_disabled": 0, "rental_uris": {"android": "https://dc.lft.to/lastmile_qr_scan", "ios": "https://dc.lft.to/lastmile_qr_scan"}, "fusion_lon": 0.0, "lat": 38.89219216666667, "bike_id": "f651b4709d26fd1be0980ab53dc310fd", "type": "electric_scooter", "is_reserved": 0, "lon": -77.026679}, {"fusion_lat": 0.0, "name": "4695b7180ef30737acc6c7adaf7f26e9", "is_disabled": 0, "rental_uris": {"android": "https://dc.lft.to/lastmile_qr_scan", "ios": "https://dc.lft.to/lastmile_qr_scan"}, "fusion_lon": 0.0, "lat": 38.8842615, "bike_id": "4695b7180ef30737acc6c7adaf7f26e9", "type": "electric_scooter", "is_reserved": 0, "lon": -76.99611583333333}, {"fusion_lat": 0.0, "name": "98b43592a09c286a1f1284eed2ff9b63", "is_disabled": 0, "rental_uris": {"android": "https://dc.lft.to/lastmile_qr_scan", "ios": "https://dc.lft.to/lastmile_qr_scan"}, "fusion_lon": 0.0, "lat": 38.9154935, "bike_id": "98b43592a09c286a1f1284eed2ff9b63", "type": "electric_scooter", "is_reserved": 0, "lon": -77.032407}, {"fusion_lat": 0.0, "name": "79fb3c3d327622e5794832d20ecb99c5", "is_disabled": 0, "rental_uris": {"android": "https://dc.lft.to/lastmile_qr_scan", "ios": "https://dc.lft.to/lastmile_qr_scan"}, "fusion_lon": 0.0, "lat": 38.887665166666665, "bike_id": "79fb3c3d327622e5794832d20ecb99c5", "type": "electric_scooter", "is_reserved": 0, "lon": -77.0286175}, {"fusion_lat": 0.0, "name": "ea20246983415116a59126b55f8b46e2", "is_disabled": 0, "rental_uris": {"android": "https://dc.lft.to/lastmile_qr_scan", "ios": "https://dc.lft.to/lastmile_qr_scan"}, "fusion_lon": 0.0, "lat": 38.90296266666667, "bike_id": "ea20246983415116a59126b55f8b46e2", "type": "electric_scooter", "is_reserved": 0, "lon": -77.04950033333333}, {"fusion_lat": 0.0, "name": "82f1d24249f51a4057ac2d359d17287e", "is_disabled": 0, "rental_uris": {"android": "https://dc.lft.to/lastmile_qr_scan", "ios": "https://dc.lft.to/lastmile_qr_scan"}, "fusion_lon": 0.0, "lat": 38.85873983333333, "bike_id": "82f1d24249f51a4057ac2d359d17287e", "type": "electric_bike", "is_reserved": 0, "lon": -77.09553566666666}, {"fusion_lat": 0.0, "name": "ae7606fc19fcfed9f863c6ff32973b13", "is_disabled": 0, "rental_uris": {"android": "https://dc.lft.to/lastmile_qr_scan", "ios": "https://dc.lft.to/lastmile_qr_scan"}, "fusion_lon": 0.0, "lat": 38.9097945, "bike_id": "ae7606fc19fcfed9f863c6ff32973b13", "type": "electric_scooter", "is_reserved": 0, "lon": -77.034455}, {"fusion_lat": 0.0, "name": "d44c09e03353ec9feadc76c5b532bfbf", "is_disabled": 0, "rental_uris": {"android": "https://dc.lft.to/lastmile_qr_scan", "ios": "https://dc.lft.to/lastmile_qr_scan"}, "fusion_lon": 0.0, "lat": 38.89796316666666, "bike_id": "d44c09e03353ec9feadc76c5b532bfbf", "type": "electric_scooter", "is_reserved": 0, "lon": -76.98459383333334}, {"fusion_lat": 0.0, "name": "fa3fc34f6434eee23fb99f7381ca6b49", "is_disabled": 0, "rental_uris": {"android": "https://dc.lft.to/lastmile_qr_scan", "ios": "https://dc.lft.to/lastmile_qr_scan"}, "fusion_lon": 0.0, "lat": 38.905765833333334, "bike_id": "fa3fc34f6434eee23fb99f7381ca6b49", "type": "electric_scooter", "is_reserved": 0, "lon": -77.04082316666667}, {"fusion_lat": 0.0, "name": "cc0f2dab6fb3c901557806e4546b5e0c", "is_disabled": 0, "rental_uris": {"android": "https://dc.lft.to/lastmile_qr_scan", "ios": "https://dc.lft.to/lastmile_qr_scan"}, "fusion_lon": 0.0, "lat": 38.87808583333333, "bike_id": "cc0f2dab6fb3c901557806e4546b5e0c", "type": "electric_scooter", "is_reserved": 0, "lon": -77.01525583333333}, {"fusion_lat": 0.0, "name": "b1be878ab98674f7b4f3773be6ab4b07", "is_disabled": 0, "rental_uris": {"android": "https://dc.lft.to/lastmile_qr_scan", "ios": "https://dc.lft.to/lastmile_qr_scan"}, "fusion_lon": 0.0, "lat": 38.92815433333333, "bike_id": "b1be878ab98674f7b4f3773be6ab4b07", "type": "electric_scooter", "is_reserved": 0, "lon": -77.02331933333333}, {"fusion_lat": 0.0, "name": "e279eec40a39454bd5f267c09675353d", "is_disabled": 0, "rental_uris": {"android": "https://dc.lft.to/lastmile_qr_scan", "ios": "https://dc.lft.to/lastmile_qr_scan"}, "fusion_lon": 0.0, "lat": 38.9345345, "bike_id": "e279eec40a39454bd5f267c09675353d", "type": "electric_scooter", "is_reserved": 0, "lon": -77.03869833333333}, {"fusion_lat": 0.0, "name": "4a06dc155bf3ec37f3b48e8e8848271e", "is_disabled": 0, "rental_uris": {"android": "https://dc.lft.to/lastmile_qr_scan", "ios": "https://dc.lft.to/lastmile_qr_scan"}, "fusion_lon": 0.0, "lat": 38.89295583333333, "bike_id": "4a06dc155bf3ec37f3b48e8e8848271e", "type": "electric_scooter", "is_reserved": 0, "lon": -77.0319095}, {"fusion_lat": 0.0, "name": "faffcbfeef73c7afc5b0c6f31a032a69", "is_disabled": 0, "rental_uris": {"android": "https://dc.lft.to/lastmile_qr_scan", "ios": "https://dc.lft.to/lastmile_qr_scan"}, "fusion_lon": 0.0, "lat": 38.8872365, "bike_id": "faffcbfeef73c7afc5b0c6f31a032a69", "type": "electric_scooter", "is_reserved": 0, "lon": -77.021795}, {"fusion_lat": 0.0, "name": "b0cedf379edd9886fcc8bb0c681fce40", "is_disabled": 0, "rental_uris": {"android": "https://dc.lft.to/lastmile_qr_scan", "ios": "https://dc.lft.to/lastmile_qr_scan"}, "fusion_lon": 0.0, "lat": 38.91662433333333, "bike_id": "b0cedf379edd9886fcc8bb0c681fce40", "type": "electric_scooter", "is_reserved": 0, "lon": -77.03852283333333}, {"fusion_lat": 0.0, "name": "1515e6b7c50922138a5146cf7b636687", "is_disabled": 0, "rental_uris": {"android": "https://dc.lft.to/lastmile_qr_scan", "ios": "https://dc.lft.to/lastmile_qr_scan"}, "fusion_lon": 0.0, "lat": 38.92130066666667, "bike_id": "1515e6b7c50922138a5146cf7b636687", "type": "electric_scooter", "is_reserved": 0, "lon": -77.01802016666667}, {"fusion_lat": 0.0, "name": "19786f321d0542279ce47b7c4bd9b96e", "is_disabled": 0, "rental_uris": {"android": "https://dc.lft.to/lastmile_qr_scan", "ios": "https://dc.lft.to/lastmile_qr_scan"}, "fusion_lon": 0.0, "lat": 38.90684916666667, "bike_id": "19786f321d0542279ce47b7c4bd9b96e", "type": "electric_bike", "is_reserved": 0, "lon": -77.0269205}, {"fusion_lat": 0.0, "name": "1b8425c45b31007ac0c7821294fd4dfa", "is_disabled": 0, "rental_uris": {"android": "https://dc.lft.to/lastmile_qr_scan", "ios": "https://dc.lft.to/lastmile_qr_scan"}, "fusion_lon": 0.0, "lat": 38.928092, "bike_id": "1b8425c45b31007ac0c7821294fd4dfa", "type": "electric_scooter", "is_reserved": 0, "lon": -77.04335916666666}, {"fusion_lat": 0.0, "name": "31637f09065926db7b19f4a9ce519e9b", "is_disabled": 0, "rental_uris": {"android": "https://dc.lft.to/lastmile_qr_scan", "ios": "https://dc.lft.to/lastmile_qr_scan"}, "fusion_lon": 0.0, "lat": 38.91981166666667, "bike_id": "31637f09065926db7b19f4a9ce519e9b", "type": "electric_scooter", "is_reserved": 0, "lon": -77.02173783333333}, {"fusion_lat": 0.0, "name": "8257042c908918debce07022b32bc62d", "is_disabled": 0, "rental_uris": {"android": "https://dc.lft.to/lastmile_qr_scan", "ios": "https://dc.lft.to/lastmile_qr_scan"}, "fusion_lon": 0.0, "lat": 38.91710833333333, "bike_id": "8257042c908918debce07022b32bc62d", "type": "electric_scooter", "is_reserved": 0, "lon": -76.97664116666667}, {"fusion_lat": 0.0, "name": "af16c1bb5c063f2180bd1c074d83f353", "is_disabled": 0, "rental_uris": {"android": "https://dc.lft.to/lastmile_qr_scan", "ios": "https://dc.lft.to/lastmile_qr_scan"}, "fusion_lon": 0.0, "lat": 38.900929833333336, "bike_id": "af16c1bb5c063f2180bd1c074d83f353", "type": "electric_scooter", "is_reserved": 0, "lon": -76.98319316666667}, {"fusion_lat": 0.0, "name": "b6158f2bef48a3346e6a48afd68a4d30", "is_disabled": 0, "rental_uris": {"android": "https://dc.lft.to/lastmile_qr_scan", "ios": "https://dc.lft.to/lastmile_qr_scan"}, "fusion_lon": 0.0, "lat": 38.94076883333334, "bike_id": "b6158f2bef48a3346e6a48afd68a4d30", "type": "electric_scooter", "is_reserved": 0, "lon": -77.02993733333334}, {"fusion_lat": 0.0, "name": "1564958ecedf82943b1ad830d2ce45d3", "is_disabled": 0, "rental_uris": {"android": "https://dc.lft.to/lastmile_qr_scan", "ios": "https://dc.lft.to/lastmile_qr_scan"}, "fusion_lon": 0.0, "lat": 38.90007666666666, "bike_id": "1564958ecedf82943b1ad830d2ce45d3", "type": "electric_scooter", "is_reserved": 0, "lon": -77.026997}, {"fusion_lat": 0.0, "name": "63c443f35766260aa3956b8574a980a9", "is_disabled": 0, "rental_uris": {"android": "https://dc.lft.to/lastmile_qr_scan", "ios": "https://dc.lft.to/lastmile_qr_scan"}, "fusion_lon": 0.0, "lat": 38.8796775, "bike_id": "63c443f35766260aa3956b8574a980a9", "type": "electric_bike", "is_reserved": 0, "lon": -76.91613683333334}, {"fusion_lat": 0.0, "name": "e33d3764f905d017fe2e4b8c02009f41", "is_disabled": 0, "rental_uris": {"android": "https://dc.lft.to/lastmile_qr_scan", "ios": "https://dc.lft.to/lastmile_qr_scan"}, "fusion_lon": 0.0, "lat": 38.928846666666665, "bike_id": "e33d3764f905d017fe2e4b8c02009f41", "type": "electric_scooter", "is_reserved": 0, "lon": -77.03248183333334}, {"fusion_lat": 0.0, "name": "5bcebd2ea3c6c4ebc64631e523ef845e", "is_disabled": 0, "rental_uris": {"android": "https://dc.lft.to/lastmile_qr_scan", "ios": "https://dc.lft.to/lastmile_qr_scan"}, "fusion_lon": 0.0, "lat": 38.91561466666667, "bike_id": "5bcebd2ea3c6c4ebc64631e523ef845e", "type": "electric_scooter", "is_reserved": 0, "lon": -77.03135916666666}, {"fusion_lat": 0.0, "name": "885c2d470a530c49344758bfad33f06f", "is_disabled": 0, "rental_uris": {"android": "https://dc.lft.to/lastmile_qr_scan", "ios": "https://dc.lft.to/lastmile_qr_scan"}, "fusion_lon": 0.0, "lat": 38.930298666666665, "bike_id": "885c2d470a530c49344758bfad33f06f", "type": "electric_scooter", "is_reserved": 0, "lon": -77.03792633333333}, {"fusion_lat": 0.0, "name": "e347d0942bc43387e2957f11d8325eb7", "is_disabled": 0, "rental_uris": {"android": "https://dc.lft.to/lastmile_qr_scan", "ios": "https://dc.lft.to/lastmile_qr_scan"}, "fusion_lon": 0.0, "lat": 38.9093175, "bike_id": "e347d0942bc43387e2957f11d8325eb7", "type": "electric_scooter", "is_reserved": 0, "lon": -77.06248133333334}, {"fusion_lat": 0.0, "name": "1795fcc21a33d4372a5864049cefa605", "is_disabled": 0, "rental_uris": {"android": "https://dc.lft.to/lastmile_qr_scan", "ios": "https://dc.lft.to/lastmile_qr_scan"}, "fusion_lon": 0.0, "lat": 38.9085485, "bike_id": "1795fcc21a33d4372a5864049cefa605", "type": "electric_scooter", "is_reserved": 0, "lon": -77.024211}, {"fusion_lat": 0.0, "name": "bc5265bc147bcc823a02829e1f51a2fa", "is_disabled": 0, "rental_uris": {"android": "https://dc.lft.to/lastmile_qr_scan", "ios": "https://dc.lft.to/lastmile_qr_scan"}, "fusion_lon": 0.0, "lat": 38.90351866666666, "bike_id": "bc5265bc147bcc823a02829e1f51a2fa", "type": "electric_scooter", "is_reserved": 0, "lon": -76.9747825}, {"fusion_lat": 0.0, "name": "c492191f597579bdf7c65d8ab97da938", "is_disabled": 0, "rental_uris": {"android": "https://dc.lft.to/lastmile_qr_scan", "ios": "https://dc.lft.to/lastmile_qr_scan"}, "fusion_lon": 0.0, "lat": 38.912056666666665, "bike_id": "c492191f597579bdf7c65d8ab97da938", "type": "electric_scooter", "is_reserved": 0, "lon": -77.03183166666666}, {"fusion_lat": 0.0, "name": "c5fe788782dfe94140681410ff287775", "is_disabled": 0, "rental_uris": {"android": "https://dc.lft.to/lastmile_qr_scan", "ios": "https://dc.lft.to/lastmile_qr_scan"}, "fusion_lon": 0.0, "lat": 38.973677, "bike_id": "c5fe788782dfe94140681410ff287775", "type": "electric_scooter", "is_reserved": 0, "lon": -77.01294066666667}, {"fusion_lat": 0.0, "name": "9796916cea3f34587c7925248838a977", "is_disabled": 0, "rental_uris": {"android": "https://dc.lft.to/lastmile_qr_scan", "ios": "https://dc.lft.to/lastmile_qr_scan"}, "fusion_lon": 0.0, "lat": 38.89813133333333, "bike_id": "9796916cea3f34587c7925248838a977", "type": "electric_scooter", "is_reserved": 0, "lon": -77.04674783333333}, {"fusion_lat": 0.0, "name": "8651ba354524802d6d8c3db6d746f470", "is_disabled": 0, "rental_uris": {"android": "https://dc.lft.to/lastmile_qr_scan", "ios": "https://dc.lft.to/lastmile_qr_scan"}, "fusion_lon": 0.0, "lat": 38.93823616666667, "bike_id": "8651ba354524802d6d8c3db6d746f470", "type": "electric_scooter", "is_reserved": 0, "lon": -77.02641116666666}, {"fusion_lat": 0.0, "name": "b3509d4a31c066d77ced65a175668a9c", "is_disabled": 0, "rental_uris": {"android": "https://dc.lft.to/lastmile_qr_scan", "ios": "https://dc.lft.to/lastmile_qr_scan"}, "fusion_lon": 0.0, "lat": 38.91296883333333, "bike_id": "b3509d4a31c066d77ced65a175668a9c", "type": "electric_scooter", "is_reserved": 0, "lon": -77.0434515}, {"fusion_lat": 0.0, "name": "f90544d4d35512d79b98c60054db622b", "is_disabled": 0, "rental_uris": {"android": "https://dc.lft.to/lastmile_qr_scan", "ios": "https://dc.lft.to/lastmile_qr_scan"}, "fusion_lon": 0.0, "lat": 38.900118166666665, "bike_id": "f90544d4d35512d79b98c60054db622b", "type": "electric_scooter", "is_reserved": 0, "lon": -76.98810716666667}, {"fusion_lat": 0.0, "name": "66643d8e341aa5c9b976442beb107175", "is_disabled": 0, "rental_uris": {"android": "https://dc.lft.to/lastmile_qr_scan", "ios": "https://dc.lft.to/lastmile_qr_scan"}, "fusion_lon": 0.0, "lat": 38.90395866666667, "bike_id": "66643d8e341aa5c9b976442beb107175", "type": "electric_scooter", "is_reserved": 0, "lon": -77.06292066666667}, {"fusion_lat": 0.0, "name": "638274fc373d405713b886f9c0161ff5", "is_disabled": 0, "rental_uris": {"android": "https://dc.lft.to/lastmile_qr_scan", "ios": "https://dc.lft.to/lastmile_qr_scan"}, "fusion_lon": 0.0, "lat": 38.892914166666664, "bike_id": "638274fc373d405713b886f9c0161ff5", "type": "electric_scooter", "is_reserved": 0, "lon": -77.03198016666667}, {"fusion_lat": 0.0, "name": "1a69c7f0addb02fe61a2a2e02c86d005", "is_disabled": 0, "rental_uris": {"android": "https://dc.lft.to/lastmile_qr_scan", "ios": "https://dc.lft.to/lastmile_qr_scan"}, "fusion_lon": 0.0, "lat": 38.883955666666665, "bike_id": "1a69c7f0addb02fe61a2a2e02c86d005", "type": "electric_scooter", "is_reserved": 0, "lon": -77.0082305}, {"fusion_lat": 0.0, "name": "62bb0b231b2310374a723d8f60b3e734", "is_disabled": 0, "rental_uris": {"android": "https://dc.lft.to/lastmile_qr_scan", "ios": "https://dc.lft.to/lastmile_qr_scan"}, "fusion_lon": 0.0, "lat": 38.90636133333334, "bike_id": "62bb0b231b2310374a723d8f60b3e734", "type": "electric_scooter", "is_reserved": 0, "lon": -77.0344585}, {"fusion_lat": 0.0, "name": "402934ccd44b5fe904af9e3fb26f4457", "is_disabled": 0, "rental_uris": {"android": "https://dc.lft.to/lastmile_qr_scan", "ios": "https://dc.lft.to/lastmile_qr_scan"}, "fusion_lon": 0.0, "lat": 38.92250283333333, "bike_id": "402934ccd44b5fe904af9e3fb26f4457", "type": "electric_scooter", "is_reserved": 0, "lon": -77.04258433333334}, {"fusion_lat": 0.0, "name": "013d70500d580bce375945f66d939850", "is_disabled": 0, "rental_uris": {"android": "https://dc.lft.to/lastmile_qr_scan", "ios": "https://dc.lft.to/lastmile_qr_scan"}, "fusion_lon": 0.0, "lat": 38.93526083333333, "bike_id": "013d70500d580bce375945f66d939850", "type": "electric_scooter", "is_reserved": 0, "lon": -77.04517633333333}, {"fusion_lat": 0.0, "name": "a4a86e104c440c29af258cb755936073", "is_disabled": 0, "rental_uris": {"android": "https://dc.lft.to/lastmile_qr_scan", "ios": "https://dc.lft.to/lastmile_qr_scan"}, "fusion_lon": 0.0, "lat": 38.89236183333333, "bike_id": "a4a86e104c440c29af258cb755936073", "type": "electric_scooter", "is_reserved": 0, "lon": -77.031962}, {"fusion_lat": 0.0, "name": "2a6bcafd030cfdf9b894c69b61101155", "is_disabled": 0, "rental_uris": {"android": "https://dc.lft.to/lastmile_qr_scan", "ios": "https://dc.lft.to/lastmile_qr_scan"}, "fusion_lon": 0.0, "lat": 38.92094516666667, "bike_id": "2a6bcafd030cfdf9b894c69b61101155", "type": "electric_scooter", "is_reserved": 0, "lon": -77.03170666666666}, {"fusion_lat": 0.0, "name": "dea347d1ff8d2ce3d1564d63ffd2f185", "is_disabled": 0, "rental_uris": {"android": "https://dc.lft.to/lastmile_qr_scan", "ios": "https://dc.lft.to/lastmile_qr_scan"}, "fusion_lon": 0.0, "lat": 38.881876, "bike_id": "dea347d1ff8d2ce3d1564d63ffd2f185", "type": "electric_scooter", "is_reserved": 0, "lon": -77.0035255}, {"fusion_lat": 0.0, "name": "7ffdb86cf08785c8c968f6628375094a", "is_disabled": 0, "rental_uris": {"android": "https://dc.lft.to/lastmile_qr_scan", "ios": "https://dc.lft.to/lastmile_qr_scan"}, "fusion_lon": 0.0, "lat": 38.9201655, "bike_id": "7ffdb86cf08785c8c968f6628375094a", "type": "electric_scooter", "is_reserved": 0, "lon": -77.0388925}, {"fusion_lat": 0.0, "name": "02b01bc24f35cae549b1d41c29b64844", "is_disabled": 0, "rental_uris": {"android": "https://dc.lft.to/lastmile_qr_scan", "ios": "https://dc.lft.to/lastmile_qr_scan"}, "fusion_lon": 0.0, "lat": 38.90403516666667, "bike_id": "02b01bc24f35cae549b1d41c29b64844", "type": "electric_scooter", "is_reserved": 0, "lon": -77.051253}, {"fusion_lat": 0.0, "name": "a354f9e83437a76703d14500a1b8f7af", "is_disabled": 0, "rental_uris": {"android": "https://dc.lft.to/lastmile_qr_scan", "ios": "https://dc.lft.to/lastmile_qr_scan"}, "fusion_lon": 0.0, "lat": 38.9273525, "bike_id": "a354f9e83437a76703d14500a1b8f7af", "type": "electric_scooter", "is_reserved": 0, "lon": -77.05250583333333}, {"fusion_lat": 0.0, "name": "969a3ee84621e23575661f87f61864f2", "is_disabled": 0, "rental_uris": {"android": "https://dc.lft.to/lastmile_qr_scan", "ios": "https://dc.lft.to/lastmile_qr_scan"}, "fusion_lon": 0.0, "lat": 38.9238065, "bike_id": "969a3ee84621e23575661f87f61864f2", "type": "electric_scooter", "is_reserved": 0, "lon": -77.04462633333333}, {"fusion_lat": 0.0, "name": "507e370d9073c6ee4f42e887e1c6ebec", "is_disabled": 0, "rental_uris": {"android": "https://dc.lft.to/lastmile_qr_scan", "ios": "https://dc.lft.to/lastmile_qr_scan"}, "fusion_lon": 0.0, "lat": 38.900822833333336, "bike_id": "507e370d9073c6ee4f42e887e1c6ebec", "type": "electric_bike", "is_reserved": 0, "lon": -77.05907333333333}, {"fusion_lat": 0.0, "name": "dbda537e5d106a3c587cf3970c826183", "is_disabled": 0, "rental_uris": {"android": "https://dc.lft.to/lastmile_qr_scan", "ios": "https://dc.lft.to/lastmile_qr_scan"}, "fusion_lon": 0.0, "lat": 38.96396416666666, "bike_id": "dbda537e5d106a3c587cf3970c826183", "type": "electric_scooter", "is_reserved": 0, "lon": -77.02589866666666}, {"fusion_lat": 0.0, "name": "a4a758a6ae26d50718f63d0b617759c1", "is_disabled": 0, "rental_uris": {"android": "https://dc.lft.to/lastmile_qr_scan", "ios": "https://dc.lft.to/lastmile_qr_scan"}, "fusion_lon": 0.0, "lat": 38.9038215, "bike_id": "a4a758a6ae26d50718f63d0b617759c1", "type": "electric_scooter", "is_reserved": 0, "lon": -76.9761605}, {"fusion_lat": 0.0, "name": "4a4411d0affed7bcbec1dd8d75e994ab", "is_disabled": 0, "rental_uris": {"android": "https://dc.lft.to/lastmile_qr_scan", "ios": "https://dc.lft.to/lastmile_qr_scan"}, "fusion_lon": 0.0, "lat": 38.879638166666666, "bike_id": "4a4411d0affed7bcbec1dd8d75e994ab", "type": "electric_scooter", "is_reserved": 0, "lon": -77.0059925}, {"fusion_lat": 0.0, "name": "023612bb682c91499725c91f48f4a8b2", "is_disabled": 0, "rental_uris": {"android": "https://dc.lft.to/lastmile_qr_scan", "ios": "https://dc.lft.to/lastmile_qr_scan"}, "fusion_lon": 0.0, "lat": 38.90714533333333, "bike_id": "023612bb682c91499725c91f48f4a8b2", "type": "electric_scooter", "is_reserved": 0, "lon": -77.031947}, {"fusion_lat": 0.0, "name": "2ed25fefe5be5847eb4e4622b8935dc6", "is_disabled": 0, "rental_uris": {"android": "https://dc.lft.to/lastmile_qr_scan", "ios": "https://dc.lft.to/lastmile_qr_scan"}, "fusion_lon": 0.0, "lat": 38.917284333333335, "bike_id": "2ed25fefe5be5847eb4e4622b8935dc6", "type": "electric_scooter", "is_reserved": 0, "lon": -77.04169066666667}, {"fusion_lat": 0.0, "name": "90f6a78ccb5109a4c8d333ed61b92848", "is_disabled": 0, "rental_uris": {"android": "https://dc.lft.to/lastmile_qr_scan", "ios": "https://dc.lft.to/lastmile_qr_scan"}, "fusion_lon": 0.0, "lat": 38.916852166666665, "bike_id": "90f6a78ccb5109a4c8d333ed61b92848", "type": "electric_scooter", "is_reserved": 0, "lon": -77.022908}, {"fusion_lat": 0.0, "name": "5d649219a8801df6470eebcb976dc2dc", "is_disabled": 0, "rental_uris": {"android": "https://dc.lft.to/lastmile_qr_scan", "ios": "https://dc.lft.to/lastmile_qr_scan"}, "fusion_lon": 0.0, "lat": 38.90022233333333, "bike_id": "5d649219a8801df6470eebcb976dc2dc", "type": "electric_scooter", "is_reserved": 0, "lon": -77.01179933333333}, {"fusion_lat": 0.0, "name": "e4d73369d9af7053103cd9c7c7ebec88", "is_disabled": 0, "rental_uris": {"android": "https://dc.lft.to/lastmile_qr_scan", "ios": "https://dc.lft.to/lastmile_qr_scan"}, "fusion_lon": 0.0, "lat": 38.8029595, "bike_id": "e4d73369d9af7053103cd9c7c7ebec88", "type": "electric_bike", "is_reserved": 0, "lon": -77.05938833333333}, {"fusion_lat": 0.0, "name": "67491b38d8d5b42343a9cf9e12ee1e74", "is_disabled": 0, "rental_uris": {"android": "https://dc.lft.to/lastmile_qr_scan", "ios": "https://dc.lft.to/lastmile_qr_scan"}, "fusion_lon": 0.0, "lat": 38.93865266666667, "bike_id": "67491b38d8d5b42343a9cf9e12ee1e74", "type": "electric_scooter", "is_reserved": 0, "lon": -77.03168083333334}, {"fusion_lat": 0.0, "name": "2bc2d543a204cebac2c521b2897d5c9a", "is_disabled": 0, "rental_uris": {"android": "https://dc.lft.to/lastmile_qr_scan", "ios": "https://dc.lft.to/lastmile_qr_scan"}, "fusion_lon": 0.0, "lat": 38.89242083333333, "bike_id": "2bc2d543a204cebac2c521b2897d5c9a", "type": "electric_scooter", "is_reserved": 0, "lon": -77.0435835}, {"fusion_lat": 0.0, "name": "6b5193d5ccd646952af6560746303410", "is_disabled": 0, "rental_uris": {"android": "https://dc.lft.to/lastmile_qr_scan", "ios": "https://dc.lft.to/lastmile_qr_scan"}, "fusion_lon": 0.0, "lat": 38.9228305, "bike_id": "6b5193d5ccd646952af6560746303410", "type": "electric_scooter", "is_reserved": 0, "lon": -77.03659683333333}, {"fusion_lat": 0.0, "name": "4183d747ba40da32ff32efeefc96d428", "is_disabled": 0, "rental_uris": {"android": "https://dc.lft.to/lastmile_qr_scan", "ios": "https://dc.lft.to/lastmile_qr_scan"}, "fusion_lon": 0.0, "lat": 38.91550433333333, "bike_id": "4183d747ba40da32ff32efeefc96d428", "type": "electric_scooter", "is_reserved": 0, "lon": -77.038621}, {"fusion_lat": 0.0, "name": "1a0e8072308c6e35c821aab5dd2cbc6d", "is_disabled": 0, "rental_uris": {"android": "https://dc.lft.to/lastmile_qr_scan", "ios": "https://dc.lft.to/lastmile_qr_scan"}, "fusion_lon": 0.0, "lat": 38.9161105, "bike_id": "1a0e8072308c6e35c821aab5dd2cbc6d", "type": "electric_scooter", "is_reserved": 0, "lon": -77.04547666666667}, {"fusion_lat": 0.0, "name": "47f0a86846000740dfce32ebbf5101b0", "is_disabled": 0, "rental_uris": {"android": "https://dc.lft.to/lastmile_qr_scan", "ios": "https://dc.lft.to/lastmile_qr_scan"}, "fusion_lon": 0.0, "lat": 38.928211166666664, "bike_id": "47f0a86846000740dfce32ebbf5101b0", "type": "electric_scooter", "is_reserved": 0, "lon": -77.043587}, {"fusion_lat": 0.0, "name": "140e41aeaff47bc128b3416427b7f3e1", "is_disabled": 0, "rental_uris": {"android": "https://dc.lft.to/lastmile_qr_scan", "ios": "https://dc.lft.to/lastmile_qr_scan"}, "fusion_lon": 0.0, "lat": 38.89809066666667, "bike_id": "140e41aeaff47bc128b3416427b7f3e1", "type": "electric_scooter", "is_reserved": 0, "lon": -77.05008133333334}, {"fusion_lat": 0.0, "name": "bfff1d59c115e5f1c96392466b7ae64b", "is_disabled": 0, "rental_uris": {"android": "https://dc.lft.to/lastmile_qr_scan", "ios": "https://dc.lft.to/lastmile_qr_scan"}, "fusion_lon": 0.0, "lat": 38.90111066666667, "bike_id": "bfff1d59c115e5f1c96392466b7ae64b", "type": "electric_scooter", "is_reserved": 0, "lon": -76.97425516666667}, {"fusion_lat": 0.0, "name": "8f27c5c067cff45f6da65bcff1ca4a10", "is_disabled": 0, "rental_uris": {"android": "https://dc.lft.to/lastmile_qr_scan", "ios": "https://dc.lft.to/lastmile_qr_scan"}, "fusion_lon": 0.0, "lat": 38.908066, "bike_id": "8f27c5c067cff45f6da65bcff1ca4a10", "type": "electric_scooter", "is_reserved": 0, "lon": -77.03445883333333}, {"fusion_lat": 0.0, "name": "3d59d6fc9495949fa7880861b9f331d8", "is_disabled": 0, "rental_uris": {"android": "https://dc.lft.to/lastmile_qr_scan", "ios": "https://dc.lft.to/lastmile_qr_scan"}, "fusion_lon": 0.0, "lat": 38.904444, "bike_id": "3d59d6fc9495949fa7880861b9f331d8", "type": "electric_scooter", "is_reserved": 0, "lon": -77.058564},