{"data": {"bikes": [{"type": "electric_scooter", "name": "2cd950b60a41fd1e8b8877edbf704200", "rental_uris": {"ios": "https://dc.lft.to/lastmile_qr_scan", "android": "https://dc.lft.to/lastmile_qr_scan"}, "fusion_lon": 0.0, "lat": 38.908852833333334, "is_disabled": 0, "bike_id": "2cd950b60a41fd1e8b8877edbf704200", "fusion_lat": 0.0, "is_reserved": 0, "lon": -77.07526866666667}, {"type": "electric_scooter", "name": "e67890a2dfd561fa9c9ff3bab9371af0", "rental_uris": {"ios": "https://dc.lft.to/lastmile_qr_scan", "android": "https://dc.lft.to/lastmile_qr_scan"}, "fusion_lon": 0.0, "lat": 38.9377855, "is_disabled": 0, "bike_id": "e67890a2dfd561fa9c9ff3bab9371af0", "fusion_lat": 0.0, "is_reserved": 0, "lon": -77.03283733333333}, {"type": "electric_scooter", "name": "e78a7441fd2cb6dfff41da83bfa520e9", "rental_uris": {"ios": "https://dc.lft.to/lastmile_qr_scan", "android": "https://dc.lft.to/lastmile_qr_scan"}, "fusion_lon": 0.0, "lat": 38.911251166666666, "is_disabled": 0, "bike_id": "e78a7441fd2cb6dfff41da83bfa520e9", "fusion_lat": 0.0, "is_reserved": 0, "lon": -77.02718783333333}, {"type": "electric_scooter", "name": "990ffd2f20eacdc0b0800dd63c374513", "rental_uris": {"ios": "https://dc.lft.to/lastmile_qr_scan", "android": "https://dc.lft.to/lastmile_qr_scan"}, "fusion_lon": 0.0, "lat": 38.901807833333336, "is_disabled": 0, "bike_id": "990ffd2f20eacdc0b0800dd63c374513", "fusion_lat": 0.0, "is_reserved": 0, "lon": -76.980775}, {"type": "electric_scooter", "name": "cf8dfe23911ef35bd88af5c8ddbe039d", "rental_uris": {"ios": "https://dc.lft.to/lastmile_qr_scan", "android": "https://dc.lft.to/lastmile_qr_scan"}, "fusion_lon": 0.0, "lat": 38.89694716666666, "is_disabled": 0, "bike_id": "cf8dfe23911ef35bd88af5c8ddbe039d", "fusion_lat": 0.0, "is_reserved": 0, "lon": -77.007572}, {"type": "electric_scooter", "name": "3cd3b82a5bdf285042923188c637c0dc", "rental_uris": {"ios": "https://dc.lft.to/lastmile_qr_scan", "android": "https://dc.lft.to/lastmile_qr_scan"}, "fusion_lon": 0.0, "lat": 38.889437666666666, "is_disabled": 0, "bike_id": "3cd3b82a5bdf285042923188c637c0dc", "fusion_lat": 0.0, "is_reserved": 0, "lon": -76.991605}, {"type": "electric_bike", "name": "36e54efc32eeeb79832b004a628ec2b9", "rental_uris": {"ios": "https://dc.lft.to/lastmile_qr_scan", "android": "https://dc.lft.to/lastmile_qr_scan"}, "fusion_lon": 0.0, "lat": 38.905025, "is_disabled": 0, "bike_id": "36e54efc32eeeb79832b004a628ec2b9", "fusion_lat": 0.0, "is_reserved": 0, "lon": -77.02961133333334}, {"type": "electric_scooter", "name": "aeddd7679377b4aa9b5f4366f3c245fc", "rental_uris": {"ios": "https://dc.lft.to/lastmile_qr_scan", "android": "https://dc.lft.to/lastmile_qr_scan"}, "fusion_lon": 0.0, "lat": 38.94420483333333, "is_disabled": 0, "bike_id": "aeddd7679377b4aa9b5f4366f3c245fc", "fusion_lat": 0.0, "is_reserved": 0, "lon": -77.01780016666666}, {"type": "electric_scooter", "name": "8b60fd1bc81994e4cda9e8f9f35941a1", "rental_uris": {"ios": "https://dc.lft.to/lastmile_qr_scan", "android": "https://dc.lft.to/lastmile_qr_scan"}, "fusion_lon": 0.0, "lat": 38.916906166666664, "is_disabled": 0, "bike_id": "8b60fd1bc81994e4cda9e8f9f35941a1", "fusion_lat": 0.0, "is_reserved": 0, "lon": -77.03338466666666}, {"type": "electric_scooter", "name": "2e3263cdfb841213902cbc773b9fc63e", "rental_uris": {"ios": "https://dc.lft.to/lastmile_qr_scan", "android": "https://dc.lft.to/lastmile_qr_scan"}, "fusion_lon": 0.0, "lat": 38.94201733333333, "is_disabled": 0, "bike_id": "2e3263cdfb841213902cbc773b9fc63e", "fusion_lat": 0.0, "is_reserved": 0, "lon": -77.02588766666666}, {"type": "electric_scooter", "name": "a0e81ba0722af835b4ba8609ee053aff", "rental_uris": {"ios": "https://dc.lft.to/lastmile_qr_scan", "android": "https://dc.lft.to/lastmile_qr_scan"}, "fusion_lon": 0.0, "lat": 38.917206, "is_disabled": 0, "bike_id": "a0e81ba0722af835b4ba8609ee053aff", "fusion_lat": 0.0, "is_reserved": 0, "lon": -77.02978583333334}, {"type": "electric_bike", "name": "4b9b2a7e200e9d0e5569a711c261093e", "rental_uris": {"ios": "https://dc.lft.to/lastmile_qr_scan", "android": "https://dc.lft.to/lastmile_qr_scan"}, "fusion_lon": 0.0, "lat": 38.8217485, "is_disabled": 0, "bike_id": "4b9b2a7e200e9d0e5569a711c261093e", "fusion_lat": 0.0, "is_reserved": 0, "lon": -76.99514}, {"type": "electric_scooter", "name": "83e4520266677a73a2087359c1bfa1bd", "rental_uris": {"ios": "https://dc.lft.to/lastmile_qr_scan", "android": "https://dc.lft.to/lastmile_qr_scan"}, "fusion_lon": 0.0, "lat": 38.94595666666667, "is_disabled": 0, "bike_id": "83e4520266677a73a2087359c1bfa1bd", "fusion_lat": 0.0, "is_reserved": 0, "lon": -77.02982833333333}, {"type": "electric_scooter", "name": "5b4dc5665583ba2609c5a917773f1b60", "rental_uris": {"ios": "https://dc.lft.to/lastmile_qr_scan", "android": "https://dc.lft.to/lastmile_qr_scan"}, "fusion_lon": 0.0, "lat": 38.87432316666667, "is_disabled": 0, "bike_id": "5b4dc5665583ba2609c5a917773f1b60", "fusion_lat": 0.0, "is_reserved": 0, "lon": -77.0004245}, {"type": "electric_scooter", "name": "eb88642f571d2727632be3de6cf222d2", "rental_uris": {"ios": "https://dc.lft.to/lastmile_qr_scan", "android": "https://dc.lft.to/lastmile_qr_scan"}, "fusion_lon": 0.0, "lat": 38.901886, "is_disabled": 0, "bike_id": "eb88642f571d2727632be3de6cf222d2", "fusion_lat": 0.0, "is_reserved": 0, "lon": -77.01302966666667}, {"type": "electric_scooter", "name": "763ece2db4421a29e870102c4883e274", "rental_uris": {"ios": "https://dc.lft.to/lastmile_qr_scan", "android": "https://dc.lft.to/lastmile_qr_scan"}, "fusion_lon": 0.0, "lat": 38.920844, "is_disabled": 0, "bike_id": "763ece2db4421a29e870102c4883e274", "fusion_lat": 0.0, "is_reserved": 0, "lon": -77.02411433333333}, {"type": "electric_scooter", "name": "283d17a861c34a29ce3c56e03ab979b6", "rental_uris": {"ios": "https://dc.lft.to/lastmile_qr_scan", "android": "https://dc.lft.to/lastmile_qr_scan"}, "fusion_lon": 0.0, "lat": 38.887117, "is_disabled": 0, "bike_id": "283d17a861c34a29ce3c56e03ab979b6", "fusion_lat": 0.0, "is_reserved": 0, "lon": -77.00244383333333}, {"type": "electric_bike", "name": "eed95753a3cc0ba95c8dcee974e87ab7", "rental_uris": {"ios": "https://dc.lft.to/lastmile_qr_scan", "android": "https://dc.lft.to/lastmile_qr_scan"}, "fusion_lon": 0.0, "lat": 38.80752666666667, "is_disabled": 0, "bike_id": "eed95753a3cc0ba95c8dcee974e87ab7", "fusion_lat": 0.0, "is_reserved": 0, "lon": -77.09451366666667}, {"type": "electric_bike", "name": "2ab19ab80dc93f94dca8520e9df6b0db", "rental_uris": {"ios": "https://dc.lft.to/lastmile_qr_scan", "android": "https://dc.lft.to/lastmile_qr_scan"}, "fusion_lon": 0.0, "lat": 38.85246566666667, "is_disabled": 0, "bike_id": "2ab19ab80dc93f94dca8520e9df6b0db", "fusion_lat": 0.0, "is_reserved": 0, "lon": -77.1078765}, {"type": "electric_scooter", "name": "e322f059f8edd6daaad7c585a7e10097", "rental_uris": {"ios": "https://dc.lft.to/lastmile_qr_scan", "android": "https://dc.lft.to/lastmile_qr_scan"}, "fusion_lon": 0.0, "lat": 38.90260633333333, "is_disabled": 0, "bike_id": "e322f059f8edd6daaad7c585a7e10097", "fusion_lat": 0.0, "is_reserved": 0, "lon": -77.04466333333333}, {"type": "electric_scooter", "name": "5fb8f716f47830cc125e5e509e329154", "rental_uris": {"ios": "https://dc.lft.to/lastmile_qr_scan", "android": "https://dc.lft.to/lastmile_qr_scan"}, "fusion_lon": 0.0, "lat": 38.9241735, "is_disabled": 0, "bike_id": "5fb8f716f47830cc125e5e509e329154", "fusion_lat": 0.0, "is_reserved": 0, "lon": -77.0200895}, {"type": "electric_scooter", "name": "c3b2a12a01c416eb9451df3ab4eb5dba", "rental_uris": {"ios": "https://dc.lft.to/lastmile_qr_scan", "android": "https://dc.lft.to/lastmile_qr_scan"}, "fusion_lon": 0.0, "lat": 38.9387135, "is_disabled": 0, "bike_id": "c3b2a12a01c416eb9451df3ab4eb5dba", "fusion_lat": 0.0, "is_reserved": 0, "lon": -77.02885566666667}, {"type": "electric_scooter", "name": "25eaaf6c1632f0f315bd789c0e6faf8f", "rental_uris": {"ios": "https://dc.lft.to/lastmile_qr_scan", "android": "https://dc.lft.to/lastmile_qr_scan"}, "fusion_lon": 0.0, "lat": 38.9160695, "is_disabled": 0, "bike_id": "25eaaf6c1632f0f315bd789c0e6faf8f", "fusion_lat": 0.0, "is_reserved": 0, "lon": -77.04874883333333}, {"type": "electric_scooter", "name": "988e95b3a42bd24b2add68dec8aea940", "rental_uris": {"ios": "https://dc.lft.to/lastmile_qr_scan", "android": "https://dc.lft.to/lastmile_qr_scan"}, "fusion_lon": 0.0, "lat": 38.8982545, "is_disabled": 0, "bike_id": "988e95b3a42bd24b2add68dec8aea940", "fusion_lat": 0.0, "is_reserved": 0, "lon": -76.946259}, {"type": "electric_scooter", "name": "6a8097bfcfe5722abc9b3ff6fa10c57c", "rental_uris": {"ios": "https://dc.lft.to/lastmile_qr_scan", "android": "https://dc.lft.to/lastmile_qr_scan"}, "fusion_lon": 0.0, "lat": 38.91767016666667, "is_disabled": 0, "bike_id": "6a8097bfcfe5722abc9b3ff6fa10c57c", "fusion_lat": 0.0, "is_reserved": 0, "lon": -77.02287283333334}, {"type": "electric_scooter", "name": "4fa2eaabec796ff90a36f71e576a3847", "rental_uris": {"ios": "https://dc.lft.to/lastmile_qr_scan", "android": "https://dc.lft.to/lastmile_qr_scan"}, "fusion_lon": 0.0, "lat": 38.883283666666664, "is_disabled": 0, "bike_id": "4fa2eaabec796ff90a36f71e576a3847", "fusion_lat": 0.0, "is_reserved": 0, "lon": -77.01774983333334}, {"type": "electric_scooter", "name": "fc77f724a13e75d6749832f4a01a2935", "rental_uris": {"ios": "https://dc.lft.to/lastmile_qr_scan", "android": "https://dc.lft.to/lastmile_qr_scan"}, "fusion_lon": 0.0, "lat": 38.86630016666667, "is_disabled": 0, "bike_id": "fc77f724a13e75d6749832f4a01a2935", "fusion_lat": 0.0, "is_reserved": 0, "lon": -76.98216416666666}, {"type": "electric_scooter", "name": "59270affe9a2fa8437a36c334962c552", "rental_uris": {"ios": "https://dc.lft.to/lastmile_qr_scan", "android": "https://dc.lft.to/lastmile_qr_scan"}, "fusion_lon": 0.0, "lat": 38.887431, "is_disabled": 0, "bike_id": "59270affe9a2fa8437a36c334962c552", "fusion_lat": 0.0, "is_reserved": 0, "lon": -77.03161316666667}, {"type": "electric_scooter", "name": "32d2bd8452ee0bb6e8150263f79cbe2b", "rental_uris": {"ios": "https://dc.lft.to/lastmile_qr_scan", "android": "https://dc.lft.to/lastmile_qr_scan"}, "fusion_lon": 0.0, "lat": 38.885079166666664, "is_disabled": 0, "bike_id": "32d2bd8452ee0bb6e8150263f79cbe2b", "fusion_lat": 0.0, "is_reserved": 0, "lon": -76.99755533333334}, {"type": "electric_bike", "name": "6bd4026182675bddf047faca4353a108", "rental_uris": {"ios": "https://dc.lft.to/lastmile_qr_scan", "android": "https://dc.lft.to/lastmile_qr_scan"}, "fusion_lon": 0.0, "lat": 38.81607266666666, "is_disabled": 0, "bike_id": "6bd4026182675bddf047faca4353a108", "fusion_lat": 0.0, "is_reserved": 0, "lon": -76.99657416666666}, {"type": "electric_bike", "name": "590082ab8c6121118c1926e9a891a065", "rental_uris": {"ios": "https://dc.lft.to/lastmile_qr_scan", "android": "https://dc.lft.to/lastmile_qr_scan"}, "fusion_lon": 0.0, "lat": 38.85788516666667, "is_disabled": 0, "bike_id": "590082ab8c6121118c1926e9a891a065", "fusion_lat": 0.0, "is_reserved": 0, "lon": -77.0996195}, {"type": "electric_bike", "name": "63c4b3dca16ee44015fa2186fd170cbf", "rental_uris": {"ios": "https://dc.lft.to/lastmile_qr_scan", "android": "https://dc.lft.to/lastmile_qr_scan"}, "fusion_lon": 0.0, "lat": 39.014141333333335, "is_disabled": 0, "bike_id": "63c4b3dca16ee44015fa2186fd170cbf", "fusion_lat": 0.0, "is_reserved": 0, "lon": -77.04498483333333}, {"type": "electric_scooter", "name": "c4c23fd2443811c3d7ce44fa163ffe48", "rental_uris": {"ios": "https://dc.lft.to/lastmile_qr_scan", "android": "https://dc.lft.to/lastmile_qr_scan"}, "fusion_lon": 0.0, "lat": 38.9177075, "is_disabled": 0, "bike_id": "c4c23fd2443811c3d7ce44fa163ffe48", "fusion_lat": 0.0, "is_reserved": 0, "lon": -77.01918983333333}, {"type": "electric_bike", "name": "215eb4ab9f12546f73548dde55d9b249", "rental_uris": {"ios": "https://dc.lft.to/lastmile_qr_scan", "android": "https://dc.lft.to/lastmile_qr_scan"}, "fusion_lon": 0.0, "lat": 38.89817083333333, "is_disabled": 0, "bike_id": "215eb4ab9f12546f73548dde55d9b249", "fusion_lat": 0.0, "is_reserved": 0, "lon": -76.99063416666667}, {"type": "electric_scooter", "name": "6c62930dc16eb74b21a1631560150118", "rental_uris": {"ios": "https://dc.lft.to/lastmile_qr_scan", "android": "https://dc.lft.to/lastmile_qr_scan"}, "fusion_lon": 0.0, "lat": 38.909137, "is_disabled": 0, "bike_id": "6c62930dc16eb74b21a1631560150118", "fusion_lat": 0.0, "is_reserved": 0, "lon": -76.98633383333333}, {"type": "electric_scooter", "name": "c14d3e900879347500f6dc348ff5d46b", "rental_uris": {"ios": "https://dc.lft.to/lastmile_qr_scan", "android": "https://dc.lft.to/lastmile_qr_scan"}, "fusion_lon": 0.0, "lat": 38.9611015, "is_disabled": 0, "bike_id": "c14d3e900879347500f6dc348ff5d46b", "fusion_lat": 0.0, "is_reserved": 0, "lon": -77.00949316666667}, {"type": "electric_scooter", "name": "8d627f5ff1467d676ee915a824de061f", "rental_uris": {"ios": "https://dc.lft.to/lastmile_qr_scan", "android": "https://dc.lft.to/lastmile_qr_scan"}, "fusion_lon": 0.0, "lat": 38.89522316666667, "is_disabled": 0, "bike_id": "8d627f5ff1467d676ee915a824de061f", "fusion_lat": 0.0, "is_reserved": 0, "lon": -77.00204733333334}, {"type": "electric_bike", "name": "bd9dfd20826ecc6b6a739180aef5258c", "rental_uris": {"ios": "https://dc.lft.to/lastmile_qr_scan", "android": "https://dc.lft.to/lastmile_qr_scan"}, "fusion_lon": 0.0, "lat": 38.9304455, "is_disabled": 0, "bike_id": "bd9dfd20826ecc6b6a739180aef5258c", "fusion_lat": 0.0, "is_reserved": 0, "lon": -76.958344}, {"type": "electric_scooter", "name": "055dbc8357ee225c740f1c15007de7a8", "rental_uris": {"ios": "https://dc.lft.to/lastmile_qr_scan", "android": "https://dc.lft.to/lastmile_qr_scan"}, "fusion_lon": 0.0, "lat": 38.902374, "is_disabled": 0, "bike_id": "055dbc8357ee225c740f1c15007de7a8", "fusion_lat": 0.0, "is_reserved": 0, "lon": -77.00203}, {"type": "electric_scooter", "name": "846b78a2af9722c47ca782cacc6f9d9e", "rental_uris": {"ios": "https://dc.lft.to/lastmile_qr_scan", "android": "https://dc.lft.to/lastmile_qr_scan"}, "fusion_lon": 0.0, "lat": 38.922839333333336, "is_disabled": 0, "bike_id": "846b78a2af9722c47ca782cacc6f9d9e", "fusion_lat": 0.0, "is_reserved": 0, "lon": -77.02974216666667}, {"type": "electric_scooter", "name": "99983907e3c9256cb6b13cc36a8bd0a5", "rental_uris": {"ios": "https://dc.lft.to/lastmile_qr_scan", "android": "https://dc.lft.to/lastmile_qr_scan"}, "fusion_lon": 0.0, "lat": 38.9018815, "is_disabled": 0, "bike_id": "99983907e3c9256cb6b13cc36a8bd0a5", "fusion_lat": 0.0, "is_reserved": 0, "lon": -76.92899383333334}, {"type": "electric_scooter", "name": "32fddd4e4e1bfcfea2174c6f9b0d0763", "rental_uris": {"ios": "https://dc.lft.to/lastmile_qr_scan", "android": "https://dc.lft.to/lastmile_qr_scan"}, "fusion_lon": 0.0, "lat": 38.88371266666667, "is_disabled": 0, "bike_id": "32fddd4e4e1bfcfea2174c6f9b0d0763", "fusion_lat": 0.0, "is_reserved": 0, "lon": -76.99585583333334}, {"type": "electric_scooter", "name": "d684bbb3fd532267be6ab0d2da42dc3e", "rental_uris": {"ios": "https://dc.lft.to/lastmile_qr_scan", "android": "https://dc.lft.to/lastmile_qr_scan"}, "fusion_lon": 0.0, "lat": 38.882686, "is_disabled": 0, "bike_id": "d684bbb3fd532267be6ab0d2da42dc3e", "fusion_lat": 0.0, "is_reserved": 0, "lon": -76.99487966666666}, {"type": "electric_scooter", "name": "fa8dc9374f4cc47bbf333ebb231ba3e0", "rental_uris": {"ios": "https://dc.lft.to/lastmile_qr_scan", "android": "https://dc.lft.to/lastmile_qr_scan"}, "fusion_lon": 0.0, "lat": 38.917730666666664, "is_disabled": 0, "bike_id": "fa8dc9374f4cc47bbf333ebb231ba3e0", "fusion_lat": 0.0, "is_reserved": 0, "lon": -77.04098616666667}, {"type": "electric_scooter", "name": "2099bc7a0639d20addd3168802bbe1e1", "rental_uris": {"ios": "https://dc.lft.to/lastmile_qr_scan", "android": "https://dc.lft.to/lastmile_qr_scan"}, "fusion_lon": 0.0, "lat": 38.9071455, "is_disabled": 0, "bike_id": "2099bc7a0639d20addd3168802bbe1e1", "fusion_lat": 0.0, "is_reserved": 0, "lon": -77.0344685}, {"type": "electric_scooter", "name": "7b697dc17b865f6197696bbe1068fe52", "rental_uris": {"ios": "https://dc.lft.to/lastmile_qr_scan", "android": "https://dc.lft.to/lastmile_qr_scan"}, "fusion_lon": 0.0, "lat": 38.892236833333335, "is_disabled": 0, "bike_id": "7b697dc17b865f6197696bbe1068fe52", "fusion_lat": 0.0, "is_reserved": 0, "lon": -77.04805983333334}, {"type": "electric_scooter", "name": "c74bc5f4b59d07344b14c748a0695b1f", "rental_uris": {"ios": "https://dc.lft.to/lastmile_qr_scan", "android": "https://dc.lft.to/lastmile_qr_scan"}, "fusion_lon": 0.0, "lat": 38.91114183333333, "is_disabled": 0, "bike_id": "c74bc5f4b59d07344b14c748a0695b1f", "fusion_lat": 0.0, "is_reserved": 0, "lon": -77.03149433333333}, {"type": "electric_scooter", "name": "f404e7bbf55289865f3d5500b81e7a77", "rental_uris": {"ios": "https://dc.lft.to/lastmile_qr_scan", "android": "https://dc.lft.to/lastmile_qr_scan"}, "fusion_lon": 0.0, "lat": 38.879427166666666, "is_disabled": 0, "bike_id": "f404e7bbf55289865f3d5500b81e7a77", "fusion_lat": 0.0, "is_reserved": 0, "lon": -76.9837915}, {"type": "electric_scooter", "name": "d79fa53a1f1de0fd5ac8e5dd8dc8e95a", "rental_uris": {"ios": "https://dc.lft.to/lastmile_qr_scan", "android": "https://dc.lft.to/lastmile_qr_scan"}, "fusion_lon": 0.0, "lat": 38.917135, "is_disabled": 0, "bike_id": "d79fa53a1f1de0fd5ac8e5dd8dc8e95a", "fusion_lat": 0.0, "is_reserved": 0, "lon": -77.04033366666667}, {"type": "electric_scooter", "name": "ddf42763c19ce5f4a0cd14e81f1087ba", "rental_uris": {"ios": "https://dc.lft.to/lastmile_qr_scan", "android": "https://dc.lft.to/lastmile_qr_scan"}, "fusion_lon": 0.0, "lat": 38.89825533333333, "is_disabled": 0, "bike_id": "ddf42763c19ce5f4a0cd14e81f1087ba", "fusion_lat": 0.0, "is_reserved": 0, "lon": -77.03177366666667}, {"type": "electric_scooter", "name": "94833ba7c3ebfeffcd56e63545a322b3", "rental_uris": {"ios": "https://dc.lft.to/lastmile_qr_scan", "android": "https://dc.lft.to/lastmile_qr_scan"}, "fusion_lon": 0.0, "lat": 38.917629833333336, "is_disabled": 0, "bike_id": "94833ba7c3ebfeffcd56e63545a322b3", "fusion_lat": 0.0, "is_reserved": 0, "lon": -77.022952}, {"type": "electric_scooter", "name": "375cc5b1cbf39cbcee6fc89896a2f848", "rental_uris": {"ios": "https://dc.lft.to/lastmile_qr_scan", "android": "https://dc.lft.to/lastmile_qr_scan"}, "fusion_lon": 0.0, "lat": 38.90390083333333, "is_disabled": 0, "bike_id": "375cc5b1cbf39cbcee6fc89896a2f848", "fusion_lat": 0.0, "is_reserved": 0, "lon": -77.065135}, {"type": "electric_scooter", "name": "d4944e2b1ea9b928ffb0395d25aead56", "rental_uris": {"ios": "https://dc.lft.to/lastmile_qr_scan", "android": "https://dc.lft.to/lastmile_qr_scan"}, "fusion_lon": 0.0, "lat": 38.910515, "is_disabled": 0, "bike_id": "d4944e2b1ea9b928ffb0395d25aead56", "fusion_lat": 0.0, "is_reserved": 0, "lon": -77.04351733333333}, {"type": "electric_scooter", "name": "eb0651898cb80b8b3d7032a14235998f", "rental_uris": {"ios": "https://dc.lft.to/lastmile_qr_scan", "android": "https://dc.lft.to/lastmile_qr_scan"}, "fusion_lon": 0.0, "lat": 38.89726433333333, "is_disabled": 0, "bike_id": "eb0651898cb80b8b3d7032a14235998f", "fusion_lat": 0.0, "is_reserved": 0, "lon": -77.05522983333333}, {"type": "electric_scooter", "name": "8e22711e831c77bcb16ea74e6cfc7f90", "rental_uris": {"ios": "https://dc.lft.to/lastmile_qr_scan", "android": "https://dc.lft.to/lastmile_qr_scan"}, "fusion_lon": 0.0, "lat": 38.925396166666665, "is_disabled": 0, "bike_id": "8e22711e831c77bcb16ea74e6cfc7f90", "fusion_lat": 0.0, "is_reserved": 0, "lon": -77.03382383333333}, {"type": "electric_scooter", "name": "ed933f4b79aef44fc389f481159e1c08", "rental_uris": {"ios": "https://dc.lft.to/lastmile_qr_scan", "android": "https://dc.lft.to/lastmile_qr_scan"}, "fusion_lon": 0.0, "lat": 38.950743333333335, "is_disabled": 0, "bike_id": "ed933f4b79aef44fc389f481159e1c08", "fusion_lat": 0.0, "is_reserved": 0, "lon": -76.99617116666667}, {"type": "electric_scooter", "name": "c957ab07f6c06d94c19754329020bdc1", "rental_uris": {"ios": "https://dc.lft.to/lastmile_qr_scan", "android": "https://dc.lft.to/lastmile_qr_scan"}, "fusion_lon": 0.0, "lat": 38.90512566666666, "is_disabled": 0, "bike_id": "c957ab07f6c06d94c19754329020bdc1", "fusion_lat": 0.0, "is_reserved": 0, "lon": -77.0613785}, {"type": "electric_scooter", "name": "b0dbd79b313c4e41abaaa1e1290213a5", "rental_uris": {"ios": "https://dc.lft.to/lastmile_qr_scan", "android": "https://dc.lft.to/lastmile_qr_scan"}, "fusion_lon": 0.0, "lat": 38.911237, "is_disabled": 0, "bike_id": "b0dbd79b313c4e41abaaa1e1290213a5", "fusion_lat": 0.0, "is_reserved": 0, "lon": -77.03733483333333}, {"type": "electric_scooter", "name": "e0c7dd02e151b415e4867ea5e7f35b90", "rental_uris": {"ios": "https://dc.lft.to/lastmile_qr_scan", "android": "https://dc.lft.to/lastmile_qr_scan"}, "fusion_lon": 0.0, "lat": 38.91558366666667, "is_disabled": 0, "bike_id": "e0c7dd02e151b415e4867ea5e7f35b90", "fusion_lat": 0.0, "is_reserved": 0, "lon": -77.03960966666666}, {"type": "electric_bike", "name": "ea3be2fad379b72d6d48bbb166cd321e", "rental_uris": {"ios": "https://dc.lft.to/lastmile_qr_scan", "android": "https://dc.lft.to/lastmile_qr_scan"}, "fusion_lon": 0.0, "lat": 39.0342535, "is_disabled": 0, "bike_id": "ea3be2fad379b72d6d48bbb166cd321e", "fusion_lat": 0.0, "is_reserved": 0, "lon": -77.04315183333334}, {"type": "electric_scooter", "name": "23181d325d989ed3ce72157e4790848a", "rental_uris": {"ios": "https://dc.lft.to/lastmile_qr_scan", "android": "https://dc.lft.to/lastmile_qr_scan"}, "fusion_lon": 0.0, "lat": 38.91908866666667, "is_disabled": 0, "bike_id": "23181d325d989ed3ce72157e4790848a", "fusion_lat": 0.0, "is_reserved": 0, "lon": -77.02403433333333}, {"type": "electric_bike", "name": "335f249377a3e23b0dddfe0867f6cbea", "rental_uris": {"ios": "https://dc.lft.to/lastmile_qr_scan", "android": "https://dc.lft.to/lastmile_qr_scan"}, "fusion_lon": 0.0, "lat": 38.9725495, "is_disabled": 0, "bike_id": "335f249377a3e23b0dddfe0867f6cbea", "fusion_lat": 0.0, "is_reserved": 0, "lon": -76.99274766666667}, {"type": "electric_scooter", "name": "45aa309fe1bb7f60d01c8ebf06f07d2d", "rental_uris": {"ios": "https://dc.lft.to/lastmile_qr_scan", "android": "https://dc.lft.to/lastmile_qr_scan"}, "fusion_lon": 0.0, "lat": 38.861331, "is_disabled": 0, "bike_id": "45aa309fe1bb7f60d01c8ebf06f07d2d", "fusion_lat": 0.0, "is_reserved": 0, "lon": -76.9716535}, {"type": "electric_scooter", "name": "27ea82c6d0585368a7b6cc545974c41e", "rental_uris": {"ios": "https://dc.lft.to/lastmile_qr_scan", "android": "https://dc.lft.to/lastmile_qr_scan"}, "fusion_lon": 0.0, "lat": 38.89874533333333, "is_disabled": 0, "bike_id": "27ea82c6d0585368a7b6cc545974c41e", "fusion_lat": 0.0, "is_reserved": 0, "lon": -77.028158}, {"type": "electric_scooter", "name": "7675c4d738808e79bf6fdccbe2da783c", "rental_uris": {"ios": "https://dc.lft.to/lastmile_qr_scan", "android": "https://dc.lft.to/lastmile_qr_scan"}, "fusion_lon": 0.0, "lat": 38.9337505, "is_disabled": 0, "bike_id": "7675c4d738808e79bf6fdccbe2da783c", "fusion_lat": 0.0, "is_reserved": 0, "lon": -77.0268205}, {"type": "electric_bike", "name": "df487f4fb74ef3364accc35ea13a6d1d", "rental_uris": {"ios": "https://dc.lft.to/lastmile_qr_scan", "android": "https://dc.lft.to/lastmile_qr_scan"}, "fusion_lon": 0.0, "lat": 39.05633783333333, "is_disabled": 0, "bike_id": "df487f4fb74ef3364accc35ea13a6d1d", "fusion_lat": 0.0, "is_reserved": 0, "lon": -77.125261}, {"type": "electric_scooter", "name": "056929adc251ea1a4f4722dd30292218", "rental_uris": {"ios": "https://dc.lft.to/lastmile_qr_scan", "android": "https://dc.lft.to/lastmile_qr_scan"}, "fusion_lon": 0.0, "lat": 38.920507, "is_disabled": 0, "bike_id": "056929adc251ea1a4f4722dd30292218", "fusion_lat": 0.0, "is_reserved": 0, "lon": -77.04189983333333}, {"type": "electric_scooter", "name": "bb1a865a46bf4c33ea6485f01454fb81", "rental_uris": {"ios": "https://dc.lft.to/lastmile_qr_scan", "android": "https://dc.lft.to/lastmile_qr_scan"}, "fusion_lon": 0.0, "lat": 38.8961325, "is_disabled": 0, "bike_id": "bb1a865a46bf4c33ea6485f01454fb81", "fusion_lat": 0.0, "is_reserved": 0, "lon": -77.045026}, {"type": "electric_scooter", "name": "ac3f6b7d486464c95b07f0de2117137b", "rental_uris": {"ios": "https://dc.lft.to/lastmile_qr_scan", "android": "https://dc.lft.to/lastmile_qr_scan"}, "fusion_lon": 0.0, "lat": 38.93750583333333, "is_disabled": 0, "bike_id": "ac3f6b7d486464c95b07f0de2117137b", "fusion_lat": 0.0, "is_reserved": 0, "lon": -77.03252583333334}, {"type": "electric_bike", "name": "b8ff402f4066efff5cf42ef77387f972", "rental_uris": {"ios": "https://dc.lft.to/lastmile_qr_scan", "android": "https://dc.lft.to/lastmile_qr_scan"}, "fusion_lon": 0.0, "lat": 38.92591983333333, "is_disabled": 0, "bike_id": "b8ff402f4066efff5cf42ef77387f972", "fusion_lat": 0.0, "is_reserved": 0, "lon": -77.02426616666666}, {"type": "electric_scooter", "name": "4fd247a3458855241d505b844ae0ac71", "rental_uris": {"ios": "https://dc.lft.to/lastmile_qr_scan", "android": "https://dc.lft.to/lastmile_qr_scan"}, "fusion_lon": 0.0, "lat": 38.921166166666666, "is_disabled": 0, "bike_id": "4fd247a3458855241d505b844ae0ac71", "fusion_lat": 0.0, "is_reserved": 0, "lon": -77.046874}, {"type": "electric_scooter", "name": "bca58ef3d62c651c9f1499a8422de2b0", "rental_uris": {"ios": "https://dc.lft.to/lastmile_qr_scan", "android": "https://dc.lft.to/lastmile_qr_scan"}, "fusion_lon": 0.0, "lat": 38.923465, "is_disabled": 0, "bike_id": "bca58ef3d62c651c9f1499a8422de2b0", "fusion_lat": 0.0, "is_reserved": 0, "lon": -77.00025466666666}, {"type": "electric_scooter", "name": "19ffd0d63561b246b62a84e532956877", "rental_uris": {"ios": "https://dc.lft.to/lastmile_qr_scan", "android": "https://dc.lft.to/lastmile_qr_scan"}, "fusion_lon": 0.0, "lat": 38.89383866666667, "is_disabled": 0, "bike_id": "19ffd0d63561b246b62a84e532956877", "fusion_lat": 0.0, "is_reserved": 0, "lon": -76.9230685}, {"type": "electric_scooter", "name": "206b313e6915dd140a6b676c6af95ca4", "rental_uris": {"ios": "https://dc.lft.to/lastmile_qr_scan", "android": "https://dc.lft.to/lastmile_qr_scan"}, "fusion_lon": 0.0, "lat": 38.93877366666667, "is_disabled": 0, "bike_id": "206b313e6915dd140a6b676c6af95ca4", "fusion_lat": 0.0, "is_reserved": 0, "lon": -77.024657}, {"type": "electric_scooter", "name": "b054cf6dfab21b3215ad572378fd5d31", "rental_uris": {"ios": "https://dc.lft.to/lastmile_qr_scan", "android": "https://dc.lft.to/lastmile_qr_scan"}, "fusion_lon": 0.0, "lat": 38.8985945, "is_disabled": 0, "bike_id": "b054cf6dfab21b3215ad572378fd5d31", "fusion_lat": 0.0, "is_reserved": 0, "lon": -76.94640666666666}, {"type": "electric_scooter", "name": "e4498899b4bd715cb43c24d3bb1a537c", "rental_uris": {"ios": "https://dc.lft.to/lastmile_qr_scan", "android": "https://dc.lft.to/lastmile_qr_scan"}, "fusion_lon": 0.0, "lat": 38.931090166666664, "is_disabled": 0, "bike_id": "e4498899b4bd715cb43c24d3bb1a537c", "fusion_lat": 0.0, "is_reserved": 0, "lon": -77.029844}, {"type": "electric_scooter", "name": "ac279af12e312c7ee0b5c176fe8e7e2b", "rental_uris": {"ios": "https://dc.lft.to/lastmile_qr_scan", "android": "https://dc.lft.to/lastmile_qr_scan"}, "fusion_lon": 0.0, "lat": 38.908624, "is_disabled": 0, "bike_id": "ac279af12e312c7ee0b5c176fe8e7e2b", "fusion_lat": 0.0, "is_reserved": 0, "lon": -76.99792833333333}, {"type": "electric_scooter", "name": "f623418d942108544f6382cc654e2e09", "rental_uris": {"ios": "https://dc.lft.to/lastmile_qr_scan", "android": "https://dc.lft.to/lastmile_qr_scan"}, "fusion_lon": 0.0, "lat": 38.927875, "is_disabled": 0, "bike_id": "f623418d942108544f6382cc654e2e09", "fusion_lat": 0.0, "is_reserved": 0, "lon": -77.02503766666666}, {"type": "electric_scooter", "name": "8fcde94a47bf2ba8f56abacce2643c84", "rental_uris": {"ios": "https://dc.lft.to/lastmile_qr_scan", "android": "https://dc.lft.to/lastmile_qr_scan"}, "fusion_lon": 0.0, "lat": 38.90899366666667, "is_disabled": 0, "bike_id": "8fcde94a47bf2ba8f56abacce2643c84", "fusion_lat": 0.0, "is_reserved": 0, "lon": -77.02316333333333}, {"type": "electric_scooter", "name": "aa9584d823580c769a44224317de4d3c", "rental_uris": {"ios": "https://dc.lft.to/lastmile_qr_scan", "android": "https://dc.lft.to/lastmile_qr_scan"}, "fusion_lon": 0.0, "lat": 38.92148916666667, "is_disabled": 0, "bike_id": "aa9584d823580c769a44224317de4d3c", "fusion_lat": 0.0, "is_reserved": 0, "lon": -77.0331765}, {"type": "electric_scooter", "name": "06f7d15f2c568226192ed9b310ac96d6", "rental_uris": {"ios": "https://dc.lft.to/lastmile_qr_scan", "android": "https://dc.lft.to/lastmile_qr_scan"}, "fusion_lon": 0.0, "lat": 38.894378, "is_disabled": 0, "bike_id": "06f7d15f2c568226192ed9b310ac96d6", "fusion_lat": 0.0, "is_reserved": 0, "lon": -76.98357433333334}, {"type": "electric_scooter", "name": "a85c219ca7003b1e4f32b67d6d3625c0", "rental_uris": {"ios": "https://dc.lft.to/lastmile_qr_scan", "android": "https://dc.lft.to/lastmile_qr_scan"}, "fusion_lon": 0.0, "lat": 38.929714833333335, "is_disabled": 0, "bike_id": "a85c219ca7003b1e4f32b67d6d3625c0", "fusion_lat": 0.0, "is_reserved": 0, "lon": -77.02822533333334}, {"type": "electric_scooter", "name": "f78c87e264e42e93de5aaa2280625bdf", "rental_uris": {"ios": "https://dc.lft.to/lastmile_qr_scan", "android": "https://dc.lft.to/lastmile_qr_scan"}, "fusion_lon": 0.0, "lat": 38.89956566666667, "is_disabled": 0, "bike_id": "f78c87e264e42e93de5aaa2280625bdf", "fusion_lat": 0.0, "is_reserved": 0, "lon": -76.975362}, {"type": "electric_scooter", "name": "5ec8ec5af7f21663660665589a898b6d", "rental_uris": {"ios": "https://dc.lft.to/lastmile_qr_scan", "android": "https://dc.lft.to/lastmile_qr_scan"}, "fusion_lon": 0.0, "lat": 38.926563333333334, "is_disabled": 0, "bike_id": "5ec8ec5af7f21663660665589a898b6d", "fusion_lat": 0.0, "is_reserved": 0, "lon": -77.02426816666667}, {"type": "electric_scooter", "name": "b5b961d1cd87b82e648a3b259c9355d5", "rental_uris": {"ios": "https://dc.lft.to/lastmile_qr_scan", "android": "https://dc.lft.to/lastmile_qr_scan"}, "fusion_lon": 0.0, "lat": 38.90014683333333, "is_disabled": 0, "bike_id": "b5b961d1cd87b82e648a3b259c9355d5", "fusion_lat": 0.0, "is_reserved": 0, "lon": -77.03330716666666}, {"type": "electric_scooter", "name": "abe06f312d9672dd21487d5899cf1c84", "rental_uris": {"ios": "https://dc.lft.to/lastmile_qr_scan", "android": "https://dc.lft.to/lastmile_qr_scan"}, "fusion_lon": 0.0, "lat": 38.89249816666667, "is_disabled": 0, "bike_id": "abe06f312d9672dd21487d5899cf1c84", "fusion_lat": 0.0, "is_reserved": 0, "lon": -77.01957616666667}, {"type": "electric_scooter", "name": "73b21eabc4a5d88cbcdd9429e853b281", "rental_uris": {"ios": "https://dc.lft.to/lastmile_qr_scan", "android": "https://dc.lft.to/lastmile_qr_scan"}, "fusion_lon": 0.0, "lat": 38.894619, "is_disabled": 0, "bike_id": "73b21eabc4a5d88cbcdd9429e853b281", "fusion_lat": 0.0, "is_reserved": 0, "lon": -77.02693016666667}, {"type": "electric_scooter", "name": "880871c241de7113016da339ec0d65ed", "rental_uris": {"ios": "https://dc.lft.to/lastmile_qr_scan", "android": "https://dc.lft.to/lastmile_qr_scan"}, "fusion_lon": 0.0, "lat": 38.899930833333336, "is_disabled": 0, "bike_id": "880871c241de7113016da339ec0d65ed", "fusion_lat": 0.0, "is_reserved": 0, "lon": -77.0553005}, {"type": "electric_scooter", "name": "08700beb5d44a3da61cb41d7c57c7fff", "rental_uris": {"ios": "https://dc.lft.to/lastmile_qr_scan", "android": "https://dc.lft.to/lastmile_qr_scan"}, "fusion_lon": 0.0, "lat": 38.9012855, "is_disabled": 0, "bike_id": "08700beb5d44a3da61cb41d7c57c7fff", "fusion_lat": 0.0, "is_reserved": 0, "lon": -77.01702533333334}, {"type": "electric_bike", "name": "81077e9f1b9517004cc305c125e01794", "rental_uris": {"ios": "https://dc.lft.to/lastmile_qr_scan", "android": "https://dc.lft.to/lastmile_qr_scan"}, "fusion_lon": 0.0, "lat": 38.88070283333333, "is_disabled": 0, "bike_id": "81077e9f1b9517004cc305c125e01794", "fusion_lat": 0.0, "is_reserved": 0, "lon": -77.08635916666667}, {"type": "electric_scooter", "name": "d4eedfcac71194ff03245174faea8264", "rental_uris": {"ios": "https://dc.lft.to/lastmile_qr_scan", "android": "https://dc.lft.to/lastmile_qr_scan"}, "fusion_lon": 0.0, "lat": 38.89692183333333, "is_disabled": 0, "bike_id": "d4eedfcac71194ff03245174faea8264", "fusion_lat": 0.0, "is_reserved": 0, "lon": -77.054947}, {"type": "electric_scooter", "name": "1ea11f198bcac1b83f8f607f71313367", "rental_uris": {"ios": "https://dc.lft.to/lastmile_qr_scan", "android": "https://dc.lft.to/lastmile_qr_scan"}, "fusion_lon": 0.0, "lat": 38.921645166666664, "is_disabled": 0, "bike_id": "1ea11f198bcac1b83f8f607f71313367", "fusion_lat": 0.0, "is_reserved": 0, "lon": -77.0384735}, {"type": "electric_scooter", "name": "940b8ffa8af9798010f4922b6d0e75c2", "rental_uris": {"ios": "https://dc.lft.to/lastmile_qr_scan", "android": "https://dc.lft.to/lastmile_qr_scan"}, "fusion_lon": 0.0, "lat": 38.892212666666666, "is_disabled": 0, "bike_id": "940b8ffa8af9798010f4922b6d0e75c2", "fusion_lat": 0.0, "is_reserved": 0, "lon": -77.04864116666667}, {"type": "electric_scooter", "name": "af16acb3fb822020f266471f917e02bd", "rental_uris": {"ios": "https://dc.lft.to/lastmile_qr_scan", "android": "https://dc.lft.to/lastmile_qr_scan"}, "fusion_lon": 0.0, "lat": 38.92481166666666, "is_disabled": 0, "bike_id": "af16acb3fb822020f266471f917e02bd", "fusion_lat": 0.0, "is_reserved": 0, "lon": -77.02751933333333}, {"type": "electric_scooter", "name": "e11630d39bc5931bdfda2da6dfd84c38", "rental_uris": {"ios": "https://dc.lft.to/lastmile_qr_scan", "android": "https://dc.lft.to/lastmile_qr_scan"}, "fusion_lon": 0.0, "lat": 38.93228916666666, "is_disabled": 0, "bike_id": "e11630d39bc5931bdfda2da6dfd84c38", "fusion_lat": 0.0, "is_reserved": 0, "lon": -76.995362}, {"type": "electric_scooter", "name": "a248844149818501bfbb19b32a169546", "rental_uris": {"ios": "https://dc.lft.to/lastmile_qr_scan", "android": "https://dc.lft.to/lastmile_qr_scan"}, "fusion_lon": 0.0, "lat": 38.911933, "is_disabled": 0, "bike_id": "a248844149818501bfbb19b32a169546", "fusion_lat": 0.0, "is_reserved": 0, "lon": -77.0325505}, {"type": "electric_scooter", "name": "43008b88e8459fffd698eb1b0ea17e43", "rental_uris": {"ios": "https://dc.lft.to/lastmile_qr_scan", "android": "https://dc.lft.to/lastmile_qr_scan"}, "fusion_lon": 0.0, "lat": 38.90520466666667, "is_disabled": 0, "bike_id": "43008b88e8459fffd698eb1b0ea17e43", "fusion_lat": 0.0, "is_reserved": 0, "lon": -77.00589166666667}, {"type": "electric_bike", "name": "98fca92a280862c5be643b4eca39c056", "rental_uris": {"ios": "https://dc.lft.to/lastmile_qr_scan", "android": "https://dc.lft.to/lastmile_qr_scan"}, "fusion_lon": 0.0, "lat": 38.959597333333335, "is_disabled": 0, "bike_id": "98fca92a280862c5be643b4eca39c056", "fusion_lat": 0.0, "is_reserved": 0, "lon": -76.98155033333333}, {"type": "electric_scooter", "name": "585480cc1f7d6ab2574f098c7b78e3a2", "rental_uris": {"ios": "https://dc.lft.to/lastmile_qr_scan", "android": "https://dc.lft.to/lastmile_qr_scan"}, "fusion_lon": 0.0, "lat": 38.917044833333335, "is_disabled": 0, "bike_id": "585480cc1f7d6ab2574f098c7b78e3a2", "fusion_lat": 0.0, "is_reserved": 0, "lon": -77.028248}, {"type": "electric_bike", "name": "d6a5c7776abd88f95797ef363ed2a560", "rental_uris": {"ios": "https://dc.lft.to/lastmile_qr_scan", "android": "https://dc.lft.to/lastmile_qr_scan"}, "fusion_lon": 0.0, "lat": 38.95753033333333, "is_disabled": 0, "bike_id": "d6a5c7776abd88f95797ef363ed2a560", "fusion_lat": 0.0, "is_reserved": 0, "lon": -76.9809045}, {"type": "electric_scooter", "name": "f20bc25b38b00e4269a51b075fba1c3f", "rental_uris": {"ios": "https://dc.lft.to/lastmile_qr_scan", "android": "https://dc.lft.to/lastmile_qr_scan"}, "fusion_lon": 0.0, "lat": 38.91937033333333, "is_disabled": 0, "bike_id": "f20bc25b38b00e4269a51b075fba1c3f", "fusion_lat": 0.0, "is_reserved": 0, "lon": -77.021985}, {"type": "electric_scooter", "name": "7fcc14e4596fca2287f5a3aeaa68f4b6", "rental_uris": {"ios": "https://dc.lft.to/lastmile_qr_scan", "android": "https://dc.lft.to/lastmile_qr_scan"}, "fusion_lon": 0.0, "lat": 38.898520166666664, "is_disabled": 0, "bike_id": "7fcc14e4596fca2287f5a3aeaa68f4b6", "fusion_lat": 0.0, "is_reserved": 0, "lon": -77.032643}, {"type": "electric_scooter", "name": "6bc57ee57cd697025e42e63388ff5185", "rental_uris": {"ios": "https://dc.lft.to/lastmile_qr_scan", "android": "https://dc.lft.to/lastmile_qr_scan"}, "fusion_lon": 0.0, "lat": 38.9013645, "is_disabled": 0, "bike_id": "6bc57ee57cd697025e42e63388ff5185", "fusion_lat": 0.0, "is_reserved": 0, "lon": -77.013128}, {"type": "electric_scooter", "name": "7586b585dfc7255592b776261bca4497", "rental_uris": {"ios": "https://dc.lft.to/lastmile_qr_scan", "android": "https://dc.lft.to/lastmile_qr_scan"}, "fusion_lon": 0.0, "lat": 38.91256166666667, "is_disabled": 0, "bike_id": "7586b585dfc7255592b776261bca4497", "fusion_lat": 0.0, "is_reserved": 0, "lon": -76.98354733333333}, {"type": "electric_scooter", "name": "dce1d29a098816a619341b328ba32a1d", "rental_uris": {"ios": "https://dc.lft.to/lastmile_qr_scan", "android": "https://dc.lft.to/lastmile_qr_scan"}, "fusion_lon": 0.0, "lat": 38.8965805, "is_disabled": 0, "bike_id": "dce1d29a098816a619341b328ba32a1d", "fusion_lat": 0.0, "is_reserved": 0, "lon": -77.026137}, {"type": "electric_scooter", "name": "1eacef042d56a2ae758060a4aa825ddb", "rental_uris": {"ios": "https://dc.lft.to/lastmile_qr_scan", "android": "https://dc.lft.to/lastmile_qr_scan"}, "fusion_lon": 0.0, "lat": 38.92424066666667, "is_disabled": 0, "bike_id": "1eacef042d56a2ae758060a4aa825ddb", "fusion_lat": 0.0, "is_reserved": 0, "lon": -77.02981833333334}, {"type": "electric_scooter", "name": "e21d9eba2f95a961a75c9e4ad170b0bd", "rental_uris": {"ios": "https://dc.lft.to/lastmile_qr_scan", "android": "https://dc.lft.to/lastmile_qr_scan"}, "fusion_lon": 0.0, "lat": 38.901140166666664, "is_disabled": 0, "bike_id": "e21d9eba2f95a961a75c9e4ad170b0bd", "fusion_lat": 0.0, "is_reserved": 0, "lon": -77.01682283333334}, {"type": "electric_scooter", "name": "77c75426d32363e6dea35615fdfa7a4d", "rental_uris": {"ios": "https://dc.lft.to/lastmile_qr_scan", "android": "https://dc.lft.to/lastmile_qr_scan"}, "fusion_lon": 0.0, "lat": 38.936809833333335, "is_disabled": 0, "bike_id": "77c75426d32363e6dea35615fdfa7a4d", "fusion_lat": 0.0, "is_reserved": 0, "lon": -77.0844245}, {"type": "electric_scooter", "name": "889880a77bdba5f437fc7d4b094c43c2", "rental_uris": {"ios": "https://dc.lft.to/lastmile_qr_scan", "android": "https://dc.lft.to/lastmile_qr_scan"}, "fusion_lon": 0.0, "lat": 38.886396833333336, "is_disabled": 0, "bike_id": "889880a77bdba5f437fc7d4b094c43c2", "fusion_lat": 0.0, "is_reserved": 0, "lon": -77.01543366666667}, {"type": "electric_scooter", "name": "37e2186b34ccc70ddc12170c0746c2a9", "rental_uris": {"ios": "https://dc.lft.to/lastmile_qr_scan", "android": "https://dc.lft.to/lastmile_qr_scan"}, "fusion_lon": 0.0, "lat": 38.87667916666667, "is_disabled": 0, "bike_id": "37e2186b34ccc70ddc12170c0746c2a9", "fusion_lat": 0.0, "is_reserved": 0, "lon": -77.00525166666667}, {"type": "electric_scooter", "name": "d5d41cb5f3bfb577e86e27ee18765bb0", "rental_uris": {"ios": "https://dc.lft.to/lastmile_qr_scan", "android": "https://dc.lft.to/lastmile_qr_scan"}, "fusion_lon": 0.0, "lat": 38.900353, "is_disabled": 0, "bike_id": "d5d41cb5f3bfb577e86e27ee18765bb0", "fusion_lat": 0.0, "is_reserved": 0, "lon": -76.98827283333334}, {"type": "electric_scooter", "name": "6e836626e479a4cae90cfea95c3b81e4", "rental_uris": {"ios": "https://dc.lft.to/lastmile_qr_scan", "android": "https://dc.lft.to/lastmile_qr_scan"}, "fusion_lon": 0.0, "lat": 38.906021, "is_disabled": 0, "bike_id": "6e836626e479a4cae90cfea95c3b81e4", "fusion_lat": 0.0, "is_reserved": 0, "lon": -77.06391233333333}, {"type": "electric_scooter", "name": "0539e3d203780f5535046897fecb65ec", "rental_uris": {"ios": "https://dc.lft.to/lastmile_qr_scan", "android": "https://dc.lft.to/lastmile_qr_scan"}, "fusion_lon": 0.0, "lat": 38.9154735, "is_disabled": 0, "bike_id": "0539e3d203780f5535046897fecb65ec", "fusion_lat": 0.0, "is_reserved": 0, "lon": -77.0377955}, {"type": "electric_scooter", "name": "105adea043a9941626e97166d163cef9", "rental_uris": {"ios": "https://dc.lft.to/lastmile_qr_scan", "android": "https://dc.lft.to/lastmile_qr_scan"}, "fusion_lon": 0.0, "lat": 38.92363066666667, "is_disabled": 0, "bike_id": "105adea043a9941626e97166d163cef9", "fusion_lat": 0.0, "is_reserved": 0, "lon": -77.0503195}, {"type": "electric_scooter", "name": "44be24e17251cf95de6a816fcea8d83a", "rental_uris": {"ios": "https://dc.lft.to/lastmile_qr_scan", "android": "https://dc.lft.to/lastmile_qr_scan"}, "fusion_lon": 0.0, "lat": 38.92522433333333, "is_disabled": 0, "bike_id": "44be24e17251cf95de6a816fcea8d83a", "fusion_lat": 0.0, "is_reserved": 0, "lon": -77.02144166666666}, {"type": "electric_bike", "name": "a41c6bf286f339eba973337faaafc0f9", "rental_uris": {"ios": "https://dc.lft.to/lastmile_qr_scan", "android": "https://dc.lft.to/lastmile_qr_scan"}, "fusion_lon": 0.0, "lat": 38.89195016666667, "is_disabled": 0, "bike_id": "a41c6bf286f339eba973337faaafc0f9", "fusion_lat": 0.0, "is_reserved": 0, "lon": -76.93842716666667}, {"type": "electric_scooter", "name": "c66ab3275a379c7d174da70c2bcef19e", "rental_uris": {"ios": "https://dc.lft.to/lastmile_qr_scan", "android": "https://dc.lft.to/lastmile_qr_scan"}, "fusion_lon": 0.0, "lat": 38.924759, "is_disabled": 0, "bike_id": "c66ab3275a379c7d174da70c2bcef19e", "fusion_lat": 0.0, "is_reserved": 0, "lon": -77.035502}, {"type": "electric_scooter", "name": "b6fb7d2dc5990979236e8396a8aa0a8e", "rental_uris": {"ios": "https://dc.lft.to/lastmile_qr_scan", "android": "https://dc.lft.to/lastmile_qr_scan"}, "fusion_lon": 0.0, "lat": 38.88382133333333, "is_disabled": 0, "bike_id": "b6fb7d2dc5990979236e8396a8aa0a8e", "fusion_lat": 0.0, "is_reserved": 0, "lon": -76.99521966666667}, {"type": "electric_scooter", "name": "e4a4ab14ddede38e64a2d4c97d7d7b7c", "rental_uris": {"ios": "https://dc.lft.to/lastmile_qr_scan", "android": "https://dc.lft.to/lastmile_qr_scan"}, "fusion_lon": 0.0, "lat": 38.923342166666664, "is_disabled": 0, "bike_id": "e4a4ab14ddede38e64a2d4c97d7d7b7c", "fusion_lat": 0.0, "is_reserved": 0, "lon": -77.05344816666667}, {"type": "electric_scooter", "name": "0482047c7a3f957882e5e9b2b3134ebc", "rental_uris": {"ios": "https://dc.lft.to/lastmile_qr_scan", "android": "https://dc.lft.to/lastmile_qr_scan"}, "fusion_lon": 0.0, "lat": 38.876006333333336, "is_disabled": 0, "bike_id": "0482047c7a3f957882e5e9b2b3134ebc", "fusion_lat": 0.0, "is_reserved": 0, "lon": -77.009355}, {"type": "electric_scooter", "name": "57cad1544d954192ab47e95ac373bf5e", "rental_uris": {"ios": "https://dc.lft.to/lastmile_qr_scan", "android": "https://dc.lft.to/lastmile_qr_scan"}, "fusion_lon": 0.0, "lat": 38.92412316666667, "is_disabled": 0, "bike_id": "57cad1544d954192ab47e95ac373bf5e", "fusion_lat": 0.0, "is_reserved": 0, "lon": -77.04029033333333}, {"type": "electric_bike", "name": "91610bc702ecdf7ad24e1c2c4910f546", "rental_uris": {"ios": "https://dc.lft.to/lastmile_qr_scan", "android": "https://dc.lft.to/lastmile_qr_scan"}, "fusion_lon": 0.0, "lat": 38.893511333333336, "is_disabled": 0, "bike_id": "91610bc702ecdf7ad24e1c2c4910f546", "fusion_lat": 0.0, "is_reserved": 0, "lon": -77.18742916666666}, {"type": "electric_bike", "name": "397b62aca2a6a04557436db1630c798c", "rental_uris": {"ios": "https://dc.lft.to/lastmile_qr_scan", "android": "https://dc.lft.to/lastmile_qr_scan"}, "fusion_lon": 0.0, "lat": 38.91132533333333, "is_disabled": 0, "bike_id": "397b62aca2a6a04557436db1630c798c", "fusion_lat": 0.0, "is_reserved": 0, "lon": -77.0657525}, {"type": "electric_scooter", "name": "0292c3a14b3d38a098f661712f2c558a", "rental_uris": {"ios": "https://dc.lft.to/lastmile_qr_scan", "android": "https://dc.lft.to/lastmile_qr_scan"}, "fusion_lon": 0.0, "lat": 38.905900833333334, "is_disabled": 0, "bike_id": "0292c3a14b3d38a098f661712f2c558a", "fusion_lat": 0.0, "is_reserved": 0, "lon": -77.04689566666667}, {"type": "electric_scooter", "name": "0bc547c6e2245ec615b9227a3cda5d1b", "rental_uris": {"ios": "https://dc.lft.to/lastmile_qr_scan", "android": "https://dc.lft.to/lastmile_qr_scan"}, "fusion_lon": 0.0, "lat": 38.894872166666666, "is_disabled": 0, "bike_id": "0bc547c6e2245ec615b9227a3cda5d1b", "fusion_lat": 0.0, "is_reserved": 0, "lon": -77.00978616666667}, {"type": "electric_scooter", "name": "0ed0225944ff6556cb65d02df2a0d46d", "rental_uris": {"ios": "https://dc.lft.to/lastmile_qr_scan", "android": "https://dc.lft.to/lastmile_qr_scan"}, "fusion_lon": 0.0, "lat": 38.91451516666667, "is_disabled": 0, "bike_id": "0ed0225944ff6556cb65d02df2a0d46d", "fusion_lat": 0.0, "is_reserved": 0, "lon": -77.021868}, {"type": "electric_scooter", "name": "817e5a5b58468ad74c9e6767f34836a4", "rental_uris": {"ios": "https://dc.lft.to/lastmile_qr_scan", "android": "https://dc.lft.to/lastmile_qr_scan"}, "fusion_lon": 0.0, "lat": 38.865114, "is_disabled": 0, "bike_id": "817e5a5b58468ad74c9e6767f34836a4", "fusion_lat": 0.0, "is_reserved": 0, "lon": -76.99004583333334}, {"type": "electric_scooter", "name": "1f42cf01a37b76c5bc87194bfeff6d89", "rental_uris": {"ios": "https://dc.lft.to/lastmile_qr_scan", "android": "https://dc.lft.to/lastmile_qr_scan"}, "fusion_lon": 0.0, "lat": 38.9263995, "is_disabled": 0, "bike_id": "1f42cf01a37b76c5bc87194bfeff6d89", "fusion_lat": 0.0, "is_reserved": 0, "lon": -77.03473083333333}, {"type": "electric_bike", "name": "f7f33e81c3f0f2d714af525103b23237", "rental_uris": {"ios": "https://dc.lft.to/lastmile_qr_scan", "android": "https://dc.lft.to/lastmile_qr_scan"}, "fusion_lon": 0.0, "lat": 38.819381, "is_disabled": 0, "bike_id": "f7f33e81c3f0f2d714af525103b23237", "fusion_lat": 0.0, "is_reserved": 0, "lon": -77.0020365}, {"type": "electric_scooter", "name": "6f5f802cd1fd474fa7d459a35029f609", "rental_uris": {"ios": "https://dc.lft.to/lastmile_qr_scan", "android": "https://dc.lft.to/lastmile_qr_scan"}, "fusion_lon": 0.0, "lat": 38.8942655, "is_disabled": 0, "bike_id": "6f5f802cd1fd474fa7d459a35029f609", "fusion_lat": 0.0, "is_reserved": 0, "lon": -77.00098483333333}, {"type": "electric_scooter", "name": "4027b0ef6572f0c89b9b4a42cc00bcb0", "rental_uris": {"ios": "https://dc.lft.to/lastmile_qr_scan", "android": "https://dc.lft.to/lastmile_qr_scan"}, "fusion_lon": 0.0, "lat": 38.89464783333333, "is_disabled": 0, "bike_id": "4027b0ef6572f0c89b9b4a42cc00bcb0", "fusion_lat": 0.0, "is_reserved": 0, "lon": -77.001875}, {"type": "electric_scooter", "name": "863ba1efb5cc41ec84a824a3306f9ecb", "rental_uris": {"ios": "https://dc.lft.to/lastmile_qr_scan", "android": "https://dc.lft.to/lastmile_qr_scan"}, "fusion_lon": 0.0, "lat": 38.916947666666665, "is_disabled": 0, "bike_id": "863ba1efb5cc41ec84a824a3306f9ecb", "fusion_lat": 0.0, "is_reserved": 0, "lon": -77.03769066666666}, {"type": "electric_scooter", "name": "8b4d68dd7358a95d8aa41c41bcd7478e", "rental_uris": {"ios": "https://dc.lft.to/lastmile_qr_scan", "android": "https://dc.lft.to/lastmile_qr_scan"}, "fusion_lon": 0.0, "lat": 38.906751, "is_disabled": 0, "bike_id": "8b4d68dd7358a95d8aa41c41bcd7478e", "fusion_lat": 0.0, "is_reserved": 0, "lon": -77.0713045}, {"type": "electric_scooter", "name": "51d37f6c4f09c7618d5dcbbb383cab3d", "rental_uris": {"ios": "https://dc.lft.to/lastmile_qr_scan", "android": "https://dc.lft.to/lastmile_qr_scan"}, "fusion_lon": 0.0, "lat": 38.92426666666667, "is_disabled": 0, "bike_id": "51d37f6c4f09c7618d5dcbbb383cab3d", "fusion_lat": 0.0, "is_reserved": 0, "lon": -77.05180266666666}, {"type": "electric_scooter", "name": "5d6494bf155cca8163e987d3fd4e1f1c", "rental_uris": {"ios": "https://dc.lft.to/lastmile_qr_scan", "android": "https://dc.lft.to/lastmile_qr_scan"}, "fusion_lon": 0.0, "lat": 38.90965333333333, "is_disabled": 0, "bike_id": "5d6494bf155cca8163e987d3fd4e1f1c", "fusion_lat": 0.0, "is_reserved": 0, "lon": -77.03374516666666}, {"type": "electric_scooter", "name": "886882aeb3df2f9aa6998bf9d14154f2", "rental_uris": {"ios": "https://dc.lft.to/lastmile_qr_scan", "android": "https://dc.lft.to/lastmile_qr_scan"}, "fusion_lon": 0.0, "lat": 38.908811666666665, "is_disabled": 0, "bike_id": "886882aeb3df2f9aa6998bf9d14154f2", "fusion_lat": 0.0, "is_reserved": 0, "lon": -77.02006816666666}, {"type": "electric_scooter", "name": "a51d94242a6ff4669d220d03dfb068d4", "rental_uris": {"ios": "https://dc.lft.to/lastmile_qr_scan", "android": "https://dc.lft.to/lastmile_qr_scan"}, "fusion_lon": 0.0, "lat": 38.917468666666664, "is_disabled": 0, "bike_id": "a51d94242a6ff4669d220d03dfb068d4", "fusion_lat": 0.0, "is_reserved": 0, "lon": -77.0459895}, {"type": "electric_scooter", "name": "7aeddd678b5b04490c10c2c10aaad900", "rental_uris": {"ios": "https://dc.lft.to/lastmile_qr_scan", "android": "https://dc.lft.to/lastmile_qr_scan"}, "fusion_lon": 0.0, "lat": 38.8838205, "is_disabled": 0, "bike_id": "7aeddd678b5b04490c10c2c10aaad900", "fusion_lat": 0.0, "is_reserved": 0, "lon": -77.02007683333333}, {"type": "electric_bike", "name": "7b4962ebc66662b5887f336579996824", "rental_uris": {"ios": "https://dc.lft.to/lastmile_qr_scan", "android": "https://dc.lft.to/lastmile_qr_scan"}, "fusion_lon": 0.0, "lat": 38.849875, "is_disabled": 0, "bike_id": "7b4962ebc66662b5887f336579996824", "fusion_lat": 0.0, "is_reserved": 0, "lon": -77.09760816666666}, {"type": "electric_scooter", "name": "18791e0cc9650889e41f300888271bbf", "rental_uris": {"ios": "https://dc.lft.to/lastmile_qr_scan", "android": "https://dc.lft.to/lastmile_qr_scan"}, "fusion_lon": 0.0, "lat": 38.900139, "is_disabled": 0, "bike_id": "18791e0cc9650889e41f300888271bbf", "fusion_lat": 0.0, "is_reserved": 0, "lon": -76.99169783333333}, {"type": "electric_scooter", "name": "c45143ba231be86f04a4744023d45916", "rental_uris": {"ios": "https://dc.lft.to/lastmile_qr_scan", "android": "https://dc.lft.to/lastmile_qr_scan"}, "fusion_lon": 0.0, "lat": 38.882988, "is_disabled": 0, "bike_id": "c45143ba231be86f04a4744023d45916", "fusion_lat": 0.0, "is_reserved": 0, "lon": -77.02482066666667}, {"type": "electric_bike", "name": "5d086c994d2a6a817dad1e498b257ad1", "rental_uris": {"ios": "https://dc.lft.to/lastmile_qr_scan", "android": "https://dc.lft.to/lastmile_qr_scan"}, "fusion_lon": 0.0, "lat": 38.93193333333333, "is_disabled": 0, "bike_id": "5d086c994d2a6a817dad1e498b257ad1", "fusion_lat": 0.0, "is_reserved": 0, "lon": -77.22927966666667}, {"type": "electric_scooter", "name": "6d1d516283cb5d88d638b9062a62e86b", "rental_uris": {"ios": "https://dc.lft.to/lastmile_qr_scan", "android": "https://dc.lft.to/lastmile_qr_scan"}, "fusion_lon": 0.0, "lat": 38.927135166666666, "is_disabled": 0, "bike_id": "6d1d516283cb5d88d638b9062a62e86b", "fusion_lat": 0.0, "is_reserved": 0, "lon": -77.0159435}, {"type": "electric_scooter", "name": "4de727daa19ab3924b573107dd34d69b", "rental_uris": {"ios": "https://dc.lft.to/lastmile_qr_scan", "android": "https://dc.lft.to/lastmile_qr_scan"}, "fusion_lon": 0.0, "lat": 38.913539666666665, "is_disabled": 0, "bike_id": "4de727daa19ab3924b573107dd34d69b", "fusion_lat": 0.0, "is_reserved": 0, "lon": -77.034473}, {"type": "electric_scooter", "name": "b9c5b5dd6f2c87e6a769f5ce06a0cefe", "rental_uris": {"ios": "https://dc.lft.to/lastmile_qr_scan", "android": "https://dc.lft.to/lastmile_qr_scan"}, "fusion_lon": 0.0, "lat": 38.917036, "is_disabled": 0, "bike_id": "b9c5b5dd6f2c87e6a769f5ce06a0cefe", "fusion_lat": 0.0, "is_reserved": 0, "lon": -77.04146216666666}, {"type": "electric_bike", "name": "00b1f6dec56192eb6ea9b051ad346606", "rental_uris": {"ios": "https://dc.lft.to/lastmile_qr_scan", "android": "https://dc.lft.to/lastmile_qr_scan"}, "fusion_lon": 0.0, "lat": 38.813291166666666, "is_disabled": 0, "bike_id": "00b1f6dec56192eb6ea9b051ad346606", "fusion_lat": 0.0, "is_reserved": 0, "lon": -77.05082916666667}, {"type": "electric_scooter", "name": "3689d664993060887377e800a06fb353", "rental_uris": {"ios": "https://dc.lft.to/lastmile_qr_scan", "android": "https://dc.lft.to/lastmile_qr_scan"}, "fusion_lon": 0.0, "lat": 38.887146333333334, "is_disabled": 0, "bike_id": "3689d664993060887377e800a06fb353", "fusion_lat": 0.0, "is_reserved": 0, "lon": -76.9969}, {"type": "electric_bike", "name": "4d308c30c835e3c37d33ac5154528ec9", "rental_uris": {"ios": "https://dc.lft.to/lastmile_qr_scan", "android": "https://dc.lft.to/lastmile_qr_scan"}, "fusion_lon": 0.0, "lat": 38.804492833333335, "is_disabled": 0, "bike_id": "4d308c30c835e3c37d33ac5154528ec9", "fusion_lat": 0.0, "is_reserved": 0, "lon": -77.053895}, {"type": "electric_scooter", "name": "0fdb99fe0665eb1191f214f467639f24", "rental_uris": {"ios": "https://dc.lft.to/lastmile_qr_scan", "android": "https://dc.lft.to/lastmile_qr_scan"}, "fusion_lon": 0.0, "lat": 38.93239233333333, "is_disabled": 0, "bike_id": "0fdb99fe0665eb1191f214f467639f24", "fusion_lat": 0.0, "is_reserved": 0, "lon": -77.0341585}, {"type": "electric_scooter", "name": "ea256ccdbf4ab3d97d29ca0d76b26e4a", "rental_uris": {"ios": "https://dc.lft.to/lastmile_qr_scan", "android": "https://dc.lft.to/lastmile_qr_scan"}, "fusion_lon": 0.0, "lat": 38.91032633333333, "is_disabled": 0, "bike_id": "ea256ccdbf4ab3d97d29ca0d76b26e4a", "fusion_lat": 0.0, "is_reserved": 0, "lon": -77.02928716666666}, {"type": "electric_scooter", "name": "dba31d0339c1654d70cd7bb56cf48c85", "rental_uris": {"ios": "https://dc.lft.to/lastmile_qr_scan", "android": "https://dc.lft.to/lastmile_qr_scan"}, "fusion_lon": 0.0, "lat": 38.906019666666666, "is_disabled": 0, "bike_id": "dba31d0339c1654d70cd7bb56cf48c85", "fusion_lat": 0.0, "is_reserved": 0, "lon": -77.056933}, {"type": "electric_scooter", "name": "61a91b4318e921faa18468d3fc0d2882", "rental_uris": {"ios": "https://dc.lft.to/lastmile_qr_scan", "android": "https://dc.lft.to/lastmile_qr_scan"}, "fusion_lon": 0.0, "lat": 38.89843316666666, "is_disabled": 0, "bike_id": "61a91b4318e921faa18468d3fc0d2882", "fusion_lat": 0.0, "is_reserved": 0, "lon": -77.04159933333334}, {"type": "electric_scooter", "name": "4d6033f341a22b13e4957e777d848836", "rental_uris": {"ios": "https://dc.lft.to/lastmile_qr_scan", "android": "https://dc.lft.to/lastmile_qr_scan"}, "fusion_lon": 0.0, "lat": 38.909611, "is_disabled": 0, "bike_id": "4d6033f341a22b13e4957e777d848836", "fusion_lat": 0.0, "is_reserved": 0, "lon": -77.03392983333333}, {"type": "electric_scooter", "name": "c59057cb3c0740e69c6daade3c06ff58", "rental_uris": {"ios": "https://dc.lft.to/lastmile_qr_scan", "android": "https://dc.lft.to/lastmile_qr_scan"}, "fusion_lon": 0.0, "lat": 38.926572, "is_disabled": 0, "bike_id": "c59057cb3c0740e69c6daade3c06ff58", "fusion_lat": 0.0, "is_reserved": 0, "lon": -77.01493583333334}, {"type": "electric_bike", "name": "b75f2ac08a6a6e9834f4bc893bd620f0", "rental_uris": {"ios": "https://dc.lft.to/lastmile_qr_scan", "android": "https://dc.lft.to/lastmile_qr_scan"}, "fusion_lon": 0.0, "lat": 38.896133666666664, "is_disabled": 0, "bike_id": "b75f2ac08a6a6e9834f4bc893bd620f0", "fusion_lat": 0.0, "is_reserved": 0, "lon": -76.90741083333333}, {"type": "electric_scooter", "name": "f18125a83a6e14ff55dc64629bddb82d", "rental_uris": {"ios": "https://dc.lft.to/lastmile_qr_scan", "android": "https://dc.lft.to/lastmile_qr_scan"}, "fusion_lon": 0.0, "lat": 38.93143516666667, "is_disabled": 0, "bike_id": "f18125a83a6e14ff55dc64629bddb82d", "fusion_lat": 0.0, "is_reserved": 0, "lon": -77.04187966666667}, {"type": "electric_scooter", "name": "372c9cb499fbf7cc13240615fe11547f", "rental_uris": {"ios": "https://dc.lft.to/lastmile_qr_scan", "android": "https://dc.lft.to/lastmile_qr_scan"}, "fusion_lon": 0.0, "lat": 38.901165166666665, "is_disabled": 0, "bike_id": "372c9cb499fbf7cc13240615fe11547f", "fusion_lat": 0.0, "is_reserved": 0, "lon": -77.03263183333334}, {"type": "electric_scooter", "name": "25adeb4d9c10c654d8598aecc0e269c4", "rental_uris": {"ios": "https://dc.lft.to/lastmile_qr_scan", "android": "https://dc.lft.to/lastmile_qr_scan"}, "fusion_lon": 0.0, "lat": 38.93168983333333, "is_disabled": 0, "bike_id": "25adeb4d9c10c654d8598aecc0e269c4", "fusion_lat": 0.0, "is_reserved": 0, "lon": -77.07068716666667}, {"type": "electric_scooter", "name": "a6bc71c6ce6aefa17a13da965b23057d", "rental_uris": {"ios": "https://dc.lft.to/lastmile_qr_scan", "android": "https://dc.lft.to/lastmile_qr_scan"}, "fusion_lon": 0.0, "lat": 38.90438866666667, "is_disabled": 0, "bike_id": "a6bc71c6ce6aefa17a13da965b23057d", "fusion_lat": 0.0, "is_reserved": 0, "lon": -77.043423}, {"type": "electric_scooter", "name": "49d46ce39ec02509947fd56614c646c2", "rental_uris": {"ios": "https://dc.lft.to/lastmile_qr_scan", "android": "https://dc.lft.to/lastmile_qr_scan"}, "fusion_lon": 0.0, "lat": 38.8981305, "is_disabled": 0, "bike_id": "49d46ce39ec02509947fd56614c646c2", "fusion_lat": 0.0, "is_reserved": 0, "lon": -77.03333666666667}, {"type": "electric_scooter", "name": "8ff6a749d32ef01a2363847b079dfb36", "rental_uris": {"ios": "https://dc.lft.to/lastmile_qr_scan", "android": "https://dc.lft.to/lastmile_qr_scan"}, "fusion_lon": 0.0, "lat": 38.9050045, "is_disabled": 0, "bike_id": "8ff6a749d32ef01a2363847b079dfb36", "fusion_lat": 0.0, "is_reserved": 0, "lon": -77.06124983333333}, {"type": "electric_scooter", "name": "1e74e25e313a058ca5f8794976555c3d", "rental_uris": {"ios": "https://dc.lft.to/lastmile_qr_scan", "android": "https://dc.lft.to/lastmile_qr_scan"}, "fusion_lon": 0.0, "lat": 38.916623, "is_disabled": 0, "bike_id": "1e74e25e313a058ca5f8794976555c3d", "fusion_lat": 0.0, "is_reserved": 0, "lon": -77.0471465}, {"type": "electric_bike", "name": "0747cc219b311a8911a77b7a7bbfc482", "rental_uris": {"ios": "https://dc.lft.to/lastmile_qr_scan", "android": "https://dc.lft.to/lastmile_qr_scan"}, "fusion_lon": 0.0, "lat": 38.936272833333334, "is_disabled": 0, "bike_id": "0747cc219b311a8911a77b7a7bbfc482", "fusion_lat": 0.0, "is_reserved": 0, "lon": -77.036507}, {"type": "electric_scooter", "name": "1e8aa7f5682ab249332df305be2d6ef0", "rental_uris": {"ios": "https://dc.lft.to/lastmile_qr_scan", "android": "https://dc.lft.to/lastmile_qr_scan"}, "fusion_lon": 0.0, "lat": 38.923860833333336, "is_disabled": 0, "bike_id": "1e8aa7f5682ab249332df305be2d6ef0", "fusion_lat": 0.0, "is_reserved": 0, "lon": -77.02488783333334}, {"type": "electric_scooter", "name": "57ba52efb0499a89548884b95ab4f951", "rental_uris": {"ios": "https://dc.lft.to/lastmile_qr_scan", "android": "https://dc.lft.to/lastmile_qr_scan"}, "fusion_lon": 0.0, "lat": 38.876906, "is_disabled": 0, "bike_id": "57ba52efb0499a89548884b95ab4f951", "fusion_lat": 0.0, "is_reserved": 0, "lon": -77.00418766666667}, {"type": "electric_scooter", "name": "77a04c3479fae9f96a47813d81e00ff6", "rental_uris": {"ios": "https://dc.lft.to/lastmile_qr_scan", "android": "https://dc.lft.to/lastmile_qr_scan"}, "fusion_lon": 0.0, "lat": 38.86597533333333, "is_disabled": 0, "bike_id": "77a04c3479fae9f96a47813d81e00ff6", "fusion_lat": 0.0, "is_reserved": 0, "lon": -76.98205216666666}, {"type": "electric_scooter", "name": "02ef2f088839870d6525d1517984c9c4", "rental_uris": {"ios": "https://dc.lft.to/lastmile_qr_scan", "android": "https://dc.lft.to/lastmile_qr_scan"}, "fusion_lon": 0.0, "lat": 38.913177166666664, "is_disabled": 0, "bike_id": "02ef2f088839870d6525d1517984c9c4", "fusion_lat": 0.0, "is_reserved": 0, "lon": -77.01750916666667}, {"type": "electric_bike", "name": "132bc86a69d4465e037465a78cb9fc99", "rental_uris": {"ios": "https://dc.lft.to/lastmile_qr_scan", "android": "https://dc.lft.to/lastmile_qr_scan"}, "fusion_lon": 0.0, "lat": 38.985008666666666, "is_disabled": 0, "bike_id": "132bc86a69d4465e037465a78cb9fc99", "fusion_lat": 0.0, "is_reserved": 0, "lon": -76.98207833333333}, {"type": "electric_scooter", "name": "9da8f6f1672604fd085417fb0351309f", "rental_uris": {"ios": "https://dc.lft.to/lastmile_qr_scan", "android": "https://dc.lft.to/lastmile_qr_scan"}, "fusion_lon": 0.0, "lat": 38.91424383333333, "is_disabled": 0, "bike_id": "9da8f6f1672604fd085417fb0351309f", "fusion_lat": 0.0, "is_reserved": 0, "lon": -77.064211}, {"type": "electric_scooter", "name": "b8302e7e49ed59c8bb61f9d4ba10f2c8", "rental_uris": {"ios": "https://dc.lft.to/lastmile_qr_scan", "android": "https://dc.lft.to/lastmile_qr_scan"}, "fusion_lon": 0.0, "lat": 38.895562166666664, "is_disabled": 0, "bike_id": "b8302e7e49ed59c8bb61f9d4ba10f2c8", "fusion_lat": 0.0, "is_reserved": 0, "lon": -76.9983885}, {"type": "electric_scooter", "name": "c3c742992cfc99f39df98763c7ee1bc2", "rental_uris": {"ios": "https://dc.lft.to/lastmile_qr_scan", "android": "https://dc.lft.to/lastmile_qr_scan"}, "fusion_lon": 0.0, "lat": 38.901089666666664, "is_disabled": 0, "bike_id": "c3c742992cfc99f39df98763c7ee1bc2", "fusion_lat": 0.0, "is_reserved": 0, "lon": -77.04642816666667}, {"type": "electric_scooter", "name": "83d0f8d2d3d9f8fc3cbc0ebc08ec5a4b", "rental_uris": {"ios": "https://dc.lft.to/lastmile_qr_scan", "android": "https://dc.lft.to/lastmile_qr_scan"}, "fusion_lon": 0.0, "lat": 38.951012, "is_disabled": 0, "bike_id": "83d0f8d2d3d9f8fc3cbc0ebc08ec5a4b", "fusion_lat": 0.0, "is_reserved": 0, "lon": -77.09713033333334}, {"type": "electric_scooter", "name": "229627e8b2b9a568ff16d58adbc497f8", "rental_uris": {"ios": "https://dc.lft.to/lastmile_qr_scan", "android": "https://dc.lft.to/lastmile_qr_scan"}, "fusion_lon": 0.0, "lat": 38.884280333333336, "is_disabled": 0, "bike_id": "229627e8b2b9a568ff16d58adbc497f8", "fusion_lat": 0.0, "is_reserved": 0, "lon": -76.99599133333334}, {"type": "electric_scooter", "name": "e72b44576cf1d16d9eddd5943a5ee994", "rental_uris": {"ios": "https://dc.lft.to/lastmile_qr_scan", "android": "https://dc.lft.to/lastmile_qr_scan"}, "fusion_lon": 0.0, "lat": 38.90326733333333, "is_disabled": 0, "bike_id": "e72b44576cf1d16d9eddd5943a5ee994", "fusion_lat": 0.0, "is_reserved": 0, "lon": -77.02463266666666}, {"type": "electric_scooter", "name": "c91306505c24533c5bfc9391ab29f0ce", "rental_uris": {"ios": "https://dc.lft.to/lastmile_qr_scan", "android": "https://dc.lft.to/lastmile_qr_scan"}, "fusion_lon": 0.0, "lat": 38.917124666666666, "is_disabled": 0, "bike_id": "c91306505c24533c5bfc9391ab29f0ce", "fusion_lat": 0.0, "is_reserved": 0, "lon": -77.04154883333334}, {"type": "electric_scooter", "name": "068d504b1c8d11d0cb1252c62477b597", "rental_uris": {"ios": "https://dc.lft.to/lastmile_qr_scan", "android": "https://dc.lft.to/lastmile_qr_scan"}, "fusion_lon": 0.0, "lat": 38.914703, "is_disabled": 0, "bike_id": "068d504b1c8d11d0cb1252c62477b597", "fusion_lat": 0.0, "is_reserved": 0, "lon": -77.02963533333333}, {"type": "electric_scooter", "name": "92955087ad6a461365c45868d26e69c9", "rental_uris": {"ios": "https://dc.lft.to/lastmile_qr_scan", "android": "https://dc.lft.to/lastmile_qr_scan"}, "fusion_lon": 0.0, "lat": 38.885143166666666, "is_disabled": 0, "bike_id": "92955087ad6a461365c45868d26e69c9", "fusion_lat": 0.0, "is_reserved": 0, "lon": -77.01509666666666}, {"type": "electric_scooter", "name": "7356d9a8ee0cd712602670349192cae5", "rental_uris": {"ios": "https://dc.lft.to/lastmile_qr_scan", "android": "https://dc.lft.to/lastmile_qr_scan"}, "fusion_lon": 0.0, "lat": 38.930335666666664, "is_disabled": 0, "bike_id": "7356d9a8ee0cd712602670349192cae5", "fusion_lat": 0.0, "is_reserved": 0, "lon": -77.03799983333333}, {"type": "electric_scooter", "name": "e0e52a99bd73c2d1824f4ba9ea504083", "rental_uris": {"ios": "https://dc.lft.to/lastmile_qr_scan", "android": "https://dc.lft.to/lastmile_qr_scan"}, "fusion_lon": 0.0, "lat": 38.87460466666667, "is_disabled": 0, "bike_id": "e0e52a99bd73c2d1824f4ba9ea504083", "fusion_lat": 0.0, "is_reserved": 0, "lon": -77.00966383333333}, {"type": "electric_scooter", "name": "369a35ca146f953c3ed8df22b5721828", "rental_uris": {"ios": "https://dc.lft.to/lastmile_qr_scan", "android": "https://dc.lft.to/lastmile_qr_scan"}, "fusion_lon": 0.0, "lat": 38.8605925, "is_disabled": 0, "bike_id": "369a35ca146f953c3ed8df22b5721828", "fusion_lat": 0.0, "is_reserved": 0, "lon": -76.9849505}, {"type": "electric_scooter", "name": "5c1061abaaeedff48651ba830e30c3f9", "rental_uris": {"ios": "https://dc.lft.to/lastmile_qr_scan", "android": "https://dc.lft.to/lastmile_qr_scan"}, "fusion_lon": 0.0, "lat": 38.9285295, "is_disabled": 0, "bike_id": "5c1061abaaeedff48651ba830e30c3f9", "fusion_lat": 0.0, "is_reserved": 0, "lon": -77.03610133333333}, {"type": "electric_scooter", "name": "c2b5b3e66cf20771d9730bd978b2fbb0", "rental_uris": {"ios": "https://dc.lft.to/lastmile_qr_scan", "android": "https://dc.lft.to/lastmile_qr_scan"}, "fusion_lon": 0.0, "lat": 38.903103, "is_disabled": 0, "bike_id": "c2b5b3e66cf20771d9730bd978b2fbb0", "fusion_lat": 0.0, "is_reserved": 0, "lon": -77.00584983333333}, {"type": "electric_scooter", "name": "2bba105b2d9ebe033d1e61ea6027186c", "rental_uris": {"ios": "https://dc.lft.to/lastmile_qr_scan", "android": "https://dc.lft.to/lastmile_qr_scan"}, "fusion_lon": 0.0, "lat": 38.904487333333336, "is_disabled": 0, "bike_id": "2bba105b2d9ebe033d1e61ea6027186c", "fusion_lat": 0.0, "is_reserved": 0, "lon": -76.99625666666667}, {"type": "electric_scooter", "name": "6f0918a2cc23cca1658881bf85883b18", "rental_uris": {"ios": "https://dc.lft.to/lastmile_qr_scan", "android": "https://dc.lft.to/lastmile_qr_scan"}, "fusion_lon": 0.0, "lat": 38.91760883333333, "is_disabled": 0, "bike_id": "6f0918a2cc23cca1658881bf85883b18", "fusion_lat": 0.0, "is_reserved": 0, "lon": -77.012166}, {"type": "electric_scooter", "name": "0ac5ae48ee4ca4cbf150552504b8443b", "rental_uris": {"ios": "https://dc.lft.to/lastmile_qr_scan", "android": "https://dc.lft.to/lastmile_qr_scan"}, "fusion_lon": 0.0, "lat": 38.8849105, "is_disabled": 0, "bike_id": "0ac5ae48ee4ca4cbf150552504b8443b", "fusion_lat": 0.0, "is_reserved": 0, "lon": -77.00723083333334}, {"type": "electric_scooter", "name": "61c220d6d65ea9e4a89ab30bd55b0a73", "rental_uris": {"ios": "https://dc.lft.to/lastmile_qr_scan", "android": "https://dc.lft.to/lastmile_qr_scan"}, "fusion_lon": 0.0, "lat": 38.887397, "is_disabled": 0, "bike_id": "61c220d6d65ea9e4a89ab30bd55b0a73", "fusion_lat": 0.0, "is_reserved": 0, "lon": -77.01726316666667}, {"type": "electric_scooter", "name": "f259c2e32e222ceb17c3e8fad919b0e0", "rental_uris": {"ios": "https://dc.lft.to/lastmile_qr_scan", "android": "https://dc.lft.to/lastmile_qr_scan"}, "fusion_lon": 0.0, "lat": 38.924121, "is_disabled": 0, "bike_id": "f259c2e32e222ceb17c3e8fad919b0e0", "fusion_lat": 0.0, "is_reserved": 0, "lon": -77.05179133333333}, {"type": "electric_scooter", "name": "e3a3695e14be080d77da08c8fe5f9708", "rental_uris": {"ios": "https://dc.lft.to/lastmile_qr_scan", "android": "https://dc.lft.to/lastmile_qr_scan"}, "fusion_lon": 0.0, "lat": 38.92859766666667, "is_disabled": 0, "bike_id": "e3a3695e14be080d77da08c8fe5f9708", "fusion_lat": 0.0, "is_reserved": 0, "lon": -77.0331655}, {"type": "electric_scooter", "name": "3a5f13c3b9cae5317c6599ee5f615fe3", "rental_uris": {"ios": "https://dc.lft.to/lastmile_qr_scan", "android": "https://dc.lft.to/lastmile_qr_scan"}, "fusion_lon": 0.0, "lat": 38.884886333333334, "is_disabled": 0, "bike_id": "3a5f13c3b9cae5317c6599ee5f615fe3", "fusion_lat": 0.0, "is_reserved": 0, "lon": -77.00709566666667}, {"type": "electric_bike", "name": "8012a46db8c97b518257033728b3d38b", "rental_uris": {"ios": "https://dc.lft.to/lastmile_qr_scan", "android": "https://dc.lft.to/lastmile_qr_scan"}, "fusion_lon": 0.0, "lat": 38.9253205, "is_disabled": 0, "bike_id": "8012a46db8c97b518257033728b3d38b", "fusion_lat": 0.0, "is_reserved": 0, "lon": -77.078964}, {"type": "electric_bike", "name": "1ce066a6d71ccbe197a35d855f4592c8", "rental_uris": {"ios": "https://dc.lft.to/lastmile_qr_scan", "android": "https://dc.lft.to/lastmile_qr_scan"}, "fusion_lon": 0.0, "lat": 38.85524566666667, "is_disabled": 0, "bike_id": "1ce066a6d71ccbe197a35d855f4592c8", "fusion_lat": 0.0, "is_reserved": 0, "lon": -77.12020416666667}, {"type": "electric_scooter", "name": "684274a66f2273db3969b5f3c3c86f4c", "rental_uris": {"ios": "https://dc.lft.to/lastmile_qr_scan", "android": "https://dc.lft.to/lastmile_qr_scan"}, "fusion_lon": 0.0, "lat": 38.920457666666664, "is_disabled": 0, "bike_id": "684274a66f2273db3969b5f3c3c86f4c", "fusion_lat": 0.0, "is_reserved": 0, "lon": -77.02575616666667}, {"type": "electric_scooter", "name": "466dbe8b3fb428889167e582d4cf82b0", "rental_uris": {"ios": "https://dc.lft.to/lastmile_qr_scan", "android": "https://dc.lft.to/lastmile_qr_scan"}, "fusion_lon": 0.0, "lat": 38.913570666666665, "is_disabled": 0, "bike_id": "466dbe8b3fb428889167e582d4cf82b0", "fusion_lat": 0.0, "is_reserved": 0, "lon": -77.04401233333333}, {"type": "electric_scooter", "name": "0eb66afe2d45185945ae55913dda1ca7", "rental_uris": {"ios": "https://dc.lft.to/lastmile_qr_scan", "android": "https://dc.lft.to/lastmile_qr_scan"}, "fusion_lon": 0.0, "lat": 38.895165, "is_disabled": 0, "bike_id": "0eb66afe2d45185945ae55913dda1ca7", "fusion_lat": 0.0, "is_reserved": 0, "lon": -77.0258915}, {"type": "electric_scooter", "name": "cddd50b114f00c55e8dee0adddbc2c06", "rental_uris": {"ios": "https://dc.lft.to/lastmile_qr_scan", "android": "https://dc.lft.to/lastmile_qr_scan"}, "fusion_lon": 0.0, "lat": 38.876263, "is_disabled": 0, "bike_id": "cddd50b114f00c55e8dee0adddbc2c06", "fusion_lat": 0.0, "is_reserved": 0, "lon": -77.00613166666666}, {"type": "electric_scooter", "name": "65fe131710f1b07dd83d0f4e4c093761", "rental_uris": {"ios": "https://dc.lft.to/lastmile_qr_scan", "android": "https://dc.lft.to/lastmile_qr_scan"}, "fusion_lon": 0.0, "lat": 38.910433833333336, "is_disabled": 0, "bike_id": "65fe131710f1b07dd83d0f4e4c093761", "fusion_lat": 0.0, "is_reserved": 0, "lon": -77.03383683333334}, {"type": "electric_scooter", "name": "5d1c490c0dc79f1f37f014ce3085a483", "rental_uris": {"ios": "https://dc.lft.to/lastmile_qr_scan", "android": "https://dc.lft.to/lastmile_qr_scan"}, "fusion_lon": 0.0, "lat": 38.940644166666665, "is_disabled": 0, "bike_id": "5d1c490c0dc79f1f37f014ce3085a483", "fusion_lat": 0.0, "is_reserved": 0, "lon": -76.99935816666667}, {"type": "electric_scooter", "name": "8c74002a27bc7314171ff27feb807f0e", "rental_uris": {"ios": "https://dc.lft.to/lastmile_qr_scan", "android": "https://dc.lft.to/lastmile_qr_scan"}, "fusion_lon": 0.0, "lat": 38.91663116666667, "is_disabled": 0, "bike_id": "8c74002a27bc7314171ff27feb807f0e", "fusion_lat": 0.0, "is_reserved": 0, "lon": -77.02713616666666}, {"type": "electric_scooter", "name": "c346be56b194512c59cc36dc8118446d", "rental_uris": {"ios": "https://dc.lft.to/lastmile_qr_scan", "android": "https://dc.lft.to/lastmile_qr_scan"}, "fusion_lon": 0.0, "lat": 38.89828083333333, "is_disabled": 0, "bike_id": "c346be56b194512c59cc36dc8118446d", "fusion_lat": 0.0, "is_reserved": 0, "lon": -77.03338566666666}, {"type": "electric_scooter", "name": "33c8b93afe938bd4d9f3d8a2e8a5d2be", "rental_uris": {"ios": "https://dc.lft.to/lastmile_qr_scan", "android": "https://dc.lft.to/lastmile_qr_scan"}, "fusion_lon": 0.0, "lat": 38.918336833333335, "is_disabled": 0, "bike_id": "33c8b93afe938bd4d9f3d8a2e8a5d2be", "fusion_lat": 0.0, "is_reserved": 0, "lon": -77.040298}, {"type": "electric_scooter", "name": "fe96735e4a22e98f06553f0a2fba4d0a", "rental_uris": {"ios": "https://dc.lft.to/lastmile_qr_scan", "android": "https://dc.lft.to/lastmile_qr_scan"}, "fusion_lon": 0.0, "lat": 38.921375, "is_disabled": 0, "bike_id": "fe96735e4a22e98f06553f0a2fba4d0a", "fusion_lat": 0.0, "is_reserved": 0, "lon": -77.01167983333333}, {"type": "electric_scooter", "name": "7345c99c8b4fae181cfb6a7e733ed3e2", "rental_uris": {"ios": "https://dc.lft.to/lastmile_qr_scan", "android": "https://dc.lft.to/lastmile_qr_scan"}, "fusion_lon": 0.0, "lat": 38.9023345, "is_disabled": 0, "bike_id": "7345c99c8b4fae181cfb6a7e733ed3e2", "fusion_lat": 0.0, "is_reserved": 0, "lon": -77.04009883333333}, {"type": "electric_scooter", "name": "6a6227886aa03f9dfd1321ab726d1225", "rental_uris": {"ios": "https://dc.lft.to/lastmile_qr_scan", "android": "https://dc.lft.to/lastmile_qr_scan"}, "fusion_lon": 0.0, "lat": 38.96476333333333, "is_disabled": 0, "bike_id": "6a6227886aa03f9dfd1321ab726d1225", "fusion_lat": 0.0, "is_reserved": 0, "lon": -77.01195816666667}, {"type": "electric_bike", "name": "ded76b193880032fd589ff379757e37d", "rental_uris": {"ios": "https://dc.lft.to/lastmile_qr_scan", "android": "https://dc.lft.to/lastmile_qr_scan"}, "fusion_lon": 0.0, "lat": 38.99225583333333, "is_disabled": 0, "bike_id": "ded76b193880032fd589ff379757e37d", "fusion_lat": 0.0, "is_reserved": 0, "lon": -76.944289}, {"type": "electric_scooter", "name": "f643ceaef12a9426fb59751123bf7583", "rental_uris": {"ios": "https://dc.lft.to/lastmile_qr_scan", "android": "https://dc.lft.to/lastmile_qr_scan"}, "fusion_lon": 0.0, "lat": 38.8920345, "is_disabled": 0, "bike_id": "f643ceaef12a9426fb59751123bf7583", "fusion_lat": 0.0, "is_reserved": 0, "lon": -76.95696433333333}, {"type": "electric_bike", "name": "4616aba43696f2a5f377d62628791f15", "rental_uris": {"ios": "https://dc.lft.to/lastmile_qr_scan", "android": "https://dc.lft.to/lastmile_qr_scan"}, "fusion_lon": 0.0, "lat": 38.857812333333335, "is_disabled": 0, "bike_id": "4616aba43696f2a5f377d62628791f15", "fusion_lat": 0.0, "is_reserved": 0, "lon": -77.12022583333334}, {"type": "electric_bike", "name": "04f653042a3224e407b490bef51b9e7b", "rental_uris": {"ios": "https://dc.lft.to/lastmile_qr_scan", "android": "https://dc.lft.to/lastmile_qr_scan"}, "fusion_lon": 0.0, "lat": 38.89966583333333, "is_disabled": 0, "bike_id": "04f653042a3224e407b490bef51b9e7b", "fusion_lat": 0.0, "is_reserved": 0, "lon": -76.986761}, {"type": "electric_scooter", "name": "1bd9cd339de886e3c18af53960ae6cee", "rental_uris": {"ios": "https://dc.lft.to/lastmile_qr_scan", "android": "https://dc.lft.to/lastmile_qr_scan"}, "fusion_lon": 0.0, "lat": 38.926151833333336, "is_disabled": 0, "bike_id": "1bd9cd339de886e3c18af53960ae6cee", "fusion_lat": 0.0, "is_reserved": 0, "lon": -77.039247}, {"type": "electric_scooter", "name": "a17957cbd33f7f8ea4fd5b2acb887d62", "rental_uris": {"ios": "https://dc.lft.to/lastmile_qr_scan", "android": "https://dc.lft.to/lastmile_qr_scan"}, "fusion_lon": 0.0, "lat": 38.931858, "is_disabled": 0, "bike_id": "a17957cbd33f7f8ea4fd5b2acb887d62", "fusion_lat": 0.0, "is_reserved": 0, "lon": -77.01985333333333}, {"type": "electric_scooter", "name": "7b9cb87355a8b5339ff3c4e558a54dee", "rental_uris": {"ios": "https://dc.lft.to/lastmile_qr_scan", "android": "https://dc.lft.to/lastmile_qr_scan"}, "fusion_lon": 0.0, "lat": 38.90494866666667, "is_disabled": 0, "bike_id": "7b9cb87355a8b5339ff3c4e558a54dee", "fusion_lat": 0.0, "is_reserved": 0, "lon": -76.9812975}, {"type": "electric_scooter", "name": "9fafc69e103977512cd3c8816a87a589", "rental_uris": {"ios": "https://dc.lft.to/lastmile_qr_scan", "android": "https://dc.lft.to/lastmile_qr_scan"}, "fusion_lon": 0.0, "lat": 38.92270833333333, "is_disabled": 0, "bike_id": "9fafc69e103977512cd3c8816a87a589", "fusion_lat": 0.0, "is_reserved": 0, "lon": -77.021109}, {"type": "electric_scooter", "name": "dc19327a0e115489aa0619e22d196ac0", "rental_uris": {"ios": "https://dc.lft.to/lastmile_qr_scan", "android": "https://dc.lft.to/lastmile_qr_scan"}, "fusion_lon": 0.0, "lat": 38.900208166666665, "is_disabled": 0, "bike_id": "dc19327a0e115489aa0619e22d196ac0", "fusion_lat": 0.0, "is_reserved": 0, "lon": -76.97398083333333}, {"type": "electric_scooter", "name": "98658f252325d1ced099d9b859b5356b", "rental_uris": {"ios": "https://dc.lft.to/lastmile_qr_scan", "android": "https://dc.lft.to/lastmile_qr_scan"}, "fusion_lon": 0.0, "lat": 38.9216125, "is_disabled": 0, "bike_id": "98658f252325d1ced099d9b859b5356b", "fusion_lat": 0.0, "is_reserved": 0, "lon": -77.03307266666667}, {"type": "electric_scooter", "name": "9d1b10de90b8485048ab840ccacbe199", "rental_uris": {"ios": "https://dc.lft.to/lastmile_qr_scan", "android": "https://dc.lft.to/lastmile_qr_scan"}, "fusion_lon": 0.0, "lat": 38.916213666666664, "is_disabled": 0, "bike_id": "9d1b10de90b8485048ab840ccacbe199", "fusion_lat": 0.0, "is_reserved": 0, "lon": -77.037428}, {"type": "electric_scooter", "name": "7d02ac881e356fffcc62e1d7dc860df5", "rental_uris": {"ios": "https://dc.lft.to/lastmile_qr_scan", "android": "https://dc.lft.to/lastmile_qr_scan"}, "fusion_lon": 0.0, "lat": 38.90570966666667, "is_disabled": 0, "bike_id": "7d02ac881e356fffcc62e1d7dc860df5", "fusion_lat": 0.0, "is_reserved": 0, "lon": -77.02216283333334}, {"type": "electric_scooter", "name": "041a95d253729b634c0f856311741075", "rental_uris": {"ios": "https://dc.lft.to/lastmile_qr_scan", "android": "https://dc.lft.to/lastmile_qr_scan"}, "fusion_lon": 0.0, "lat": 38.91335616666667, "is_disabled": 0, "bike_id": "041a95d253729b634c0f856311741075", "fusion_lat": 0.0, "is_reserved": 0, "lon": -77.04860816666667}, {"type": "electric_scooter", "name": "f022e5472609d9a1db0050882514646a", "rental_uris": {"ios": "https://dc.lft.to/lastmile_qr_scan", "android": "https://dc.lft.to/lastmile_qr_scan"}, "fusion_lon": 0.0, "lat": 38.931864833333336, "is_disabled": 0, "bike_id": "f022e5472609d9a1db0050882514646a", "fusion_lat": 0.0, "is_reserved": 0, "lon": -77.0723205}, {"type": "electric_bike", "name": "0c9f41877cc47d86ff729b9434bd0b77", "rental_uris": {"ios": "https://dc.lft.to/lastmile_qr_scan", "android": "https://dc.lft.to/lastmile_qr_scan"}, "fusion_lon": 0.0, "lat": 38.95360216666667, "is_disabled": 0, "bike_id": "0c9f41877cc47d86ff729b9434bd0b77", "fusion_lat": 0.0, "is_reserved": 0, "lon": -76.9809145}, {"type": "electric_scooter", "name": "d7e17ddfb8446dfa50ef139ba56b6099", "rental_uris": {"ios": "https://dc.lft.to/lastmile_qr_scan", "android": "https://dc.lft.to/lastmile_qr_scan"}, "fusion_lon": 0.0, "lat": 38.882577, "is_disabled": 0, "bike_id": "d7e17ddfb8446dfa50ef139ba56b6099", "fusion_lat": 0.0, "is_reserved": 0, "lon": -76.92668816666666}, {"type": "electric_scooter", "name": "97e6382c90cf3e44f03eba6c194b4831", "rental_uris": {"ios": "https://dc.lft.to/lastmile_qr_scan", "android": "https://dc.lft.to/lastmile_qr_scan"}, "fusion_lon": 0.0, "lat": 38.87461783333333, "is_disabled": 0, "bike_id": "97e6382c90cf3e44f03eba6c194b4831", "fusion_lat": 0.0, "is_reserved": 0, "lon": -77.0080815}, {"type": "electric_scooter", "name": "066a864b6ec6f3c56e849c7aa8b8bc3e", "rental_uris": {"ios": "https://dc.lft.to/lastmile_qr_scan", "android": "https://dc.lft.to/lastmile_qr_scan"}, "fusion_lon": 0.0, "lat": 38.88810516666667, "is_disabled": 0, "bike_id": "066a864b6ec6f3c56e849c7aa8b8bc3e", "fusion_lat": 0.0, "is_reserved": 0, "lon": -76.98356283333334}, {"type": "electric_scooter", "name": "3c6fc47658564cafee66d6b3e4961d4c", "rental_uris": {"ios": "https://dc.lft.to/lastmile_qr_scan", "android": "https://dc.lft.to/lastmile_qr_scan"}, "fusion_lon": 0.0, "lat": 38.8969875, "is_disabled": 0, "bike_id": "3c6fc47658564cafee66d6b3e4961d4c", "fusion_lat": 0.0, "is_reserved": 0, "lon": -77.016162}, {"type": "electric_scooter", "name": "248d537b1bd6c0ff83258708bb3c9750", "rental_uris": {"ios": "https://dc.lft.to/lastmile_qr_scan", "android": "https://dc.lft.to/lastmile_qr_scan"}, "fusion_lon": 0.0, "lat": 38.88488666666667, "is_disabled": 0, "bike_id": "248d537b1bd6c0ff83258708bb3c9750", "fusion_lat": 0.0, "is_reserved": 0, "lon": -77.007131}, {"type": "electric_scooter", "name": "e6963428f309b48bc496d3eb24b3b96a", "rental_uris": {"ios": "https://dc.lft.to/lastmile_qr_scan", "android": "https://dc.lft.to/lastmile_qr_scan"}, "fusion_lon": 0.0, "lat": 38.921160666666665, "is_disabled": 0, "bike_id": "e6963428f309b48bc496d3eb24b3b96a", "fusion_lat": 0.0, "is_reserved": 0, "lon": -77.00922233333333}, {"type": "electric_scooter", "name": "ab6b4fdefd1f04a525550f00e9e6d9a8", "rental_uris": {"ios": "https://dc.lft.to/lastmile_qr_scan", "android": "https://dc.lft.to/lastmile_qr_scan"}, "fusion_lon": 0.0, "lat": 38.92316116666667, "is_disabled": 0, "bike_id": "ab6b4fdefd1f04a525550f00e9e6d9a8", "fusion_lat": 0.0, "is_reserved": 0, "lon": -77.0401485}, {"type": "electric_scooter", "name": "1ecb17843cee61c838d673ed743fe734", "rental_uris": {"ios": "https://dc.lft.to/lastmile_qr_scan", "android": "https://dc.lft.to/lastmile_qr_scan"}, "fusion_lon": 0.0, "lat": 38.867300666666665, "is_disabled": 0, "bike_id": "1ecb17843cee61c838d673ed743fe734", "fusion_lat": 0.0, "is_reserved": 0, "lon": -76.98698866666666}, {"type": "electric_scooter", "name": "bbc60dd7733e8ce8febf4c0e8660a9b8", "rental_uris": {"ios": "https://dc.lft.to/lastmile_qr_scan", "android": "https://dc.lft.to/lastmile_qr_scan"}, "fusion_lon": 0.0, "lat": 38.90125233333333, "is_disabled": 0, "bike_id": "bbc60dd7733e8ce8febf4c0e8660a9b8", "fusion_lat": 0.0, "is_reserved": 0, "lon": -77.01621333333334}, {"type": "electric_scooter", "name": "d577a00a94f8431fd6aac28b527b8b76", "rental_uris": {"ios": "https://dc.lft.to/lastmile_qr_scan", "android": "https://dc.lft.to/lastmile_qr_scan"}, "fusion_lon": 0.0, "lat": 38.919961, "is_disabled": 0, "bike_id": "d577a00a94f8431fd6aac28b527b8b76", "fusion_lat": 0.0, "is_reserved": 0, "lon": -77.03215966666667}, {"type": "electric_scooter", "name": "c553435fecf9e1e71a9297825af12ea4", "rental_uris": {"ios": "https://dc.lft.to/lastmile_qr_scan", "android": "https://dc.lft.to/lastmile_qr_scan"}, "fusion_lon": 0.0, "lat": 38.91745683333333, "is_disabled": 0, "bike_id": "c553435fecf9e1e71a9297825af12ea4", "fusion_lat": 0.0, "is_reserved": 0, "lon": -77.03193433333334}, {"type": "electric_scooter", "name": "257c779cdf5e24234b128717a36c89ca", "rental_uris": {"ios": "https://dc.lft.to/lastmile_qr_scan", "android": "https://dc.lft.to/lastmile_qr_scan"}, "fusion_lon": 0.0, "lat": 38.926165, "is_disabled": 0, "bike_id": "257c779cdf5e24234b128717a36c89ca", "fusion_lat": 0.0, "is_reserved": 0, "lon": -77.02218616666667}, {"type": "electric_scooter", "name": "7e924a05da9d9fe6310fff6e3bee27b5", "rental_uris": {"ios": "https://dc.lft.to/lastmile_qr_scan", "android": "https://dc.lft.to/lastmile_qr_scan"}, "fusion_lon": 0.0, "lat": 38.9121275, "is_disabled": 0, "bike_id": "7e924a05da9d9fe6310fff6e3bee27b5", "fusion_lat": 0.0, "is_reserved": 0, "lon": -77.0446425}, {"type": "electric_scooter", "name": "af44ec44f46fed0ac8f5600ae48f97b0", "rental_uris": {"ios": "https://dc.lft.to/lastmile_qr_scan", "android": "https://dc.lft.to/lastmile_qr_scan"}, "fusion_lon": 0.0, "lat": 38.90143166666667, "is_disabled": 0, "bike_id": "af44ec44f46fed0ac8f5600ae48f97b0", "fusion_lat": 0.0, "is_reserved": 0, "lon": -77.0356325}, {"type": "electric_scooter", "name": "e9d557d21cfae3259bb1112ca40a3dbd", "rental_uris": {"ios": "https://dc.lft.to/lastmile_qr_scan", "android": "https://dc.lft.to/lastmile_qr_scan"}, "fusion_lon": 0.0, "lat": 38.8972905, "is_disabled": 0, "bike_id": "e9d557d21cfae3259bb1112ca40a3dbd", "fusion_lat": 0.0, "is_reserved": 0, "lon": -77.00213683333334}, {"type": "electric_scooter", "name": "8b68d73f0cb3e5bc486e99f1f22f2b99", "rental_uris": {"ios": "https://dc.lft.to/lastmile_qr_scan", "android": "https://dc.lft.to/lastmile_qr_scan"}, "fusion_lon": 0.0, "lat": 38.903521166666664, "is_disabled": 0, "bike_id": "8b68d73f0cb3e5bc486e99f1f22f2b99", "fusion_lat": 0.0, "is_reserved": 0, "lon": -77.04997783333333}, {"type": "electric_scooter", "name": "2f9d8ace0198bc7563848f7697c90691", "rental_uris": {"ios": "https://dc.lft.to/lastmile_qr_scan", "android": "https://dc.lft.to/lastmile_qr_scan"}, "fusion_lon": 0.0, "lat": 38.89222133333333, "is_disabled": 0, "bike_id": "2f9d8ace0198bc7563848f7697c90691", "fusion_lat": 0.0, "is_reserved": 0, "lon": -77.03991983333333}, {"type": "electric_scooter", "name": "a9654372eb1230a9d46a633ce4c529ad", "rental_uris": {"ios": "https://dc.lft.to/lastmile_qr_scan", "android": "https://dc.lft.to/lastmile_qr_scan"}, "fusion_lon": 0.0, "lat": 38.8668075, "is_disabled": 0, "bike_id": "a9654372eb1230a9d46a633ce4c529ad", "fusion_lat": 0.0, "is_reserved": 0, "lon": -76.9857235}, {"type": "electric_scooter", "name": "0dcca670d02b3abe94e293218968b3dc", "rental_uris": {"ios": "https://dc.lft.to/lastmile_qr_scan", "android": "https://dc.lft.to/lastmile_qr_scan"}, "fusion_lon": 0.0, "lat": 38.899237666666664, "is_disabled": 0, "bike_id": "0dcca670d02b3abe94e293218968b3dc", "fusion_lat": 0.0, "is_reserved": 0, "lon": -77.0317935}, {"type": "electric_scooter", "name": "e6ccfa9eff5a1a7e8e57c2eb68362ac8", "rental_uris": {"ios": "https://dc.lft.to/lastmile_qr_scan", "android": "https://dc.lft.to/lastmile_qr_scan"}, "fusion_lon": 0.0, "lat": 38.91756633333333, "is_disabled": 0, "bike_id": "e6ccfa9eff5a1a7e8e57c2eb68362ac8", "fusion_lat": 0.0, "is_reserved": 0, "lon": -77.02286983333333}, {"type": "electric_scooter", "name": "1e84885eed0643de9e14328b26aab4aa", "rental_uris": {"ios": "https://dc.lft.to/lastmile_qr_scan", "android": "https://dc.lft.to/lastmile_qr_scan"}, "fusion_lon": 0.0, "lat": 38.9145205, "is_disabled": 0, "bike_id": "1e84885eed0643de9e14328b26aab4aa", "fusion_lat": 0.0, "is_reserved": 0, "lon": -77.02214633333334}, {"type": "electric_scooter", "name": "3a76b0c274b87963db19e562407f0b12", "rental_uris": {"ios": "https://dc.lft.to/lastmile_qr_scan", "android": "https://dc.lft.to/lastmile_qr_scan"}, "fusion_lon": 0.0, "lat": 38.89503283333333, "is_disabled": 0, "bike_id": "3a76b0c274b87963db19e562407f0b12", "fusion_lat": 0.0, "is_reserved": 0, "lon": -77.0107795}, {"type": "electric_scooter", "name": "f46bddf9485e80854c044c9b5077cc93", "rental_uris": {"ios": "https://dc.lft.to/lastmile_qr_scan", "android": "https://dc.lft.to/lastmile_qr_scan"}, "fusion_lon": 0.0, "lat": 38.92160783333333, "is_disabled": 0, "bike_id": "f46bddf9485e80854c044c9b5077cc93", "fusion_lat": 0.0, "is_reserved": 0, "lon": -77.04705766666666}, {"type": "electric_scooter", "name": "d26c44f6d0e9d0c7b88987a69c5da81e", "rental_uris": {"ios": "https://dc.lft.to/lastmile_qr_scan", "android": "https://dc.lft.to/lastmile_qr_scan"}, "fusion_lon": 0.0, "lat": 38.88733, "is_disabled": 0, "bike_id": "d26c44f6d0e9d0c7b88987a69c5da81e", "fusion_lat": 0.0, "is_reserved": 0, "lon": -77.0258025}, {"type": "electric_scooter", "name": "e5c8b6dabd3a67b8618e68463cf3abd5", "rental_uris": {"ios": "https://dc.lft.to/lastmile_qr_scan", "android": "https://dc.lft.to/lastmile_qr_scan"}, "fusion_lon": 0.0, "lat": 38.89645616666667, "is_disabled": 0, "bike_id": "e5c8b6dabd3a67b8618e68463cf3abd5", "fusion_lat": 0.0, "is_reserved": 0, "lon": -77.00932183333333}, {"type": "electric_scooter", "name": "53f44ac24a15d18bc6898edcde1f4b3a", "rental_uris": {"ios": "https://dc.lft.to/lastmile_qr_scan", "android": "https://dc.lft.to/lastmile_qr_scan"}, "fusion_lon": 0.0, "lat": 38.89813616666667, "is_disabled": 0, "bike_id": "53f44ac24a15d18bc6898edcde1f4b3a", "fusion_lat": 0.0, "is_reserved": 0, "lon": -77.02422733333333}, {"type": "electric_scooter", "name": "0c845579625db7259104b1324519bab0", "rental_uris": {"ios": "https://dc.lft.to/lastmile_qr_scan", "android": "https://dc.lft.to/lastmile_qr_scan"}, "fusion_lon": 0.0, "lat": 38.89743683333333, "is_disabled": 0, "bike_id": "0c845579625db7259104b1324519bab0", "fusion_lat": 0.0, "is_reserved": 0, "lon": -76.97981416666667}, {"type": "electric_scooter", "name": "5f52eaa0373b048ae98e62d320d3fac7", "rental_uris": {"ios": "https://dc.lft.to/lastmile_qr_scan", "android": "https://dc.lft.to/lastmile_qr_scan"}, "fusion_lon": 0.0, "lat": 38.90407866666666, "is_disabled": 0, "bike_id": "5f52eaa0373b048ae98e62d320d3fac7", "fusion_lat": 0.0, "is_reserved": 0, "lon": -76.97330516666666}, {"type": "electric_scooter", "name": "7c3d3945e1f9cfc28cb0de0da07bc2b3", "rental_uris": {"ios": "https://dc.lft.to/lastmile_qr_scan", "android": "https://dc.lft.to/lastmile_qr_scan"}, "fusion_lon": 0.0, "lat": 38.892233166666664, "is_disabled": 0, "bike_id": "7c3d3945e1f9cfc28cb0de0da07bc2b3", "fusion_lat": 0.0, "is_reserved": 0, "lon": -77.045137}, {"type": "electric_scooter", "name": "d7639b81464ee777ffb456eb64856b97", "rental_uris": {"ios": "https://dc.lft.to/lastmile_qr_scan", "android": "https://dc.lft.to/lastmile_qr_scan"}, "fusion_lon": 0.0, "lat": 38.93173983333333, "is_disabled": 0, "bike_id": "d7639b81464ee777ffb456eb64856b97", "fusion_lat": 0.0, "is_reserved": 0, "lon": -77.04304333333333}, {"type": "electric_scooter", "name": "620901033f95ff6ea181eecda4a259e8", "rental_uris": {"ios": "https://dc.lft.to/lastmile_qr_scan", "android": "https://dc.lft.to/lastmile_qr_scan"}, "fusion_lon": 0.0, "lat": 38.900645833333336, "is_disabled": 0, "bike_id": "620901033f95ff6ea181eecda4a259e8", "fusion_lat": 0.0, "is_reserved": 0, "lon": -77.02979283333333}, {"type": "electric_scooter", "name": "ec66db4faa20acde0b0aeea12976e1ea", "rental_uris": {"ios": "https://dc.lft.to/lastmile_qr_scan", "android": "https://dc.lft.to/lastmile_qr_scan"}, "fusion_lon": 0.0, "lat": 38.91114683333333, "is_disabled": 0, "bike_id": "ec66db4faa20acde0b0aeea12976e1ea", "fusion_lat": 0.0, "is_reserved": 0, "lon": -77.03569516666667}, {"type": "electric_scooter", "name": "9ee2d125591a6d8ecf06c20558e6eff5", "rental_uris": {"ios": "https://dc.lft.to/lastmile_qr_scan", "android": "https://dc.lft.to/lastmile_qr_scan"}, "fusion_lon": 0.0, "lat": 38.907681833333335, "is_disabled": 0, "bike_id": "9ee2d125591a6d8ecf06c20558e6eff5", "fusion_lat": 0.0, "is_reserved": 0, "lon": -77.03294316666667}, {"type": "electric_scooter", "name": "8ff48257b2a1818a8d35a89959cc2076", "rental_uris": {"ios": "https://dc.lft.to/lastmile_qr_scan", "android": "https://dc.lft.to/lastmile_qr_scan"}, "fusion_lon": 0.0, "lat": 38.945238, "is_disabled": 0, "bike_id": "8ff48257b2a1818a8d35a89959cc2076", "fusion_lat": 0.0, "is_reserved": 0, "lon": -77.064053}, {"type": "electric_bike", "name": "1bf5f51966d2c411dcc77d82b31914fb", "rental_uris": {"ios": "https://dc.lft.to/lastmile_qr_scan", "android": "https://dc.lft.to/lastmile_qr_scan"}, "fusion_lon": 0.0, "lat": 39.01223266666667, "is_disabled": 0, "bike_id": "1bf5f51966d2c411dcc77d82b31914fb", "fusion_lat": 0.0, "is_reserved": 0, "lon": -77.11097283333334}, {"type": "electric_scooter", "name": "199064cd4c834c46a4581d4c5b06e8f1", "rental_uris": {"ios": "https://dc.lft.to/lastmile_qr_scan", "android": "https://dc.lft.to/lastmile_qr_scan"}, "fusion_lon": 0.0, "lat": 38.915360666666665, "is_disabled": 0, "bike_id": "199064cd4c834c46a4581d4c5b06e8f1", "fusion_lat": 0.0, "is_reserved": 0, "lon": -77.032001}, {"type": "electric_scooter", "name": "35eccf9bf45540152848ea519857500f", "rental_uris": {"ios": "https://dc.lft.to/lastmile_qr_scan", "android": "https://dc.lft.to/lastmile_qr_scan"}, "fusion_lon": 0.0, "lat": 38.92374566666667, "is_disabled": 0, "bike_id": "35eccf9bf45540152848ea519857500f", "fusion_lat": 0.0, "is_reserved": 0, "lon": -77.019073}, {"type": "electric_scooter", "name": "55aeef532fe274cefd8bbea52d569eb0", "rental_uris": {"ios": "https://dc.lft.to/lastmile_qr_scan", "android": "https://dc.lft.to/lastmile_qr_scan"}, "fusion_lon": 0.0, "lat": 38.903637833333335, "is_disabled": 0, "bike_id": "55aeef532fe274cefd8bbea52d569eb0", "fusion_lat": 0.0, "is_reserved": 0, "lon": -77.00346416666666}, {"type": "electric_scooter", "name": "e93a73bd9d3f203bd3ee0ebed5f6e61b", "rental_uris": {"ios": "https://dc.lft.to/lastmile_qr_scan", "android": "https://dc.lft.to/lastmile_qr_scan"}, "fusion_lon": 0.0, "lat": 38.884919833333335, "is_disabled": 0, "bike_id": "e93a73bd9d3f203bd3ee0ebed5f6e61b", "fusion_lat": 0.0, "is_reserved": 0, "lon": -77.01081866666667}, {"type": "electric_scooter", "name": "7fc3379322f02a508b9cb3cb64593ad6", "rental_uris": {"ios": "https://dc.lft.to/lastmile_qr_scan", "android": "https://dc.lft.to/lastmile_qr_scan"}, "fusion_lon": 0.0, "lat": 38.923650333333335, "is_disabled": 0, "bike_id": "7fc3379322f02a508b9cb3cb64593ad6", "fusion_lat": 0.0, "is_reserved": 0, "lon": -77.05032066666666}, {"type": "electric_scooter", "name": "56b6e3cfaaba25c395ae5cbd2fc646d0", "rental_uris": {"ios": "https://dc.lft.to/lastmile_qr_scan", "android": "https://dc.lft.to/lastmile_qr_scan"}, "fusion_lon": 0.0, "lat": 38.944792166666666, "is_disabled": 0, "bike_id": "56b6e3cfaaba25c395ae5cbd2fc646d0", "fusion_lat": 0.0, "is_reserved": 0, "lon": -77.063995}, {"type": "electric_scooter", "name": "9342afeb548c5e2b1033574344f00774", "rental_uris": {"ios": "https://dc.lft.to/lastmile_qr_scan", "android": "https://dc.lft.to/lastmile_qr_scan"}, "fusion_lon": 0.0, "lat": 38.905001, "is_disabled": 0, "bike_id": "9342afeb548c5e2b1033574344f00774", "fusion_lat": 0.0, "is_reserved": 0, "lon": -77.02945583333333}, {"type": "electric_scooter", "name": "ec107355527ea597e75e7389c3c8704d", "rental_uris": {"ios": "https://dc.lft.to/lastmile_qr_scan", "android": "https://dc.lft.to/lastmile_qr_scan"}, "fusion_lon": 0.0, "lat": 38.896478333333334, "is_disabled": 0, "bike_id": "ec107355527ea597e75e7389c3c8704d", "fusion_lat": 0.0, "is_reserved": 0, "lon": -77.014793}, {"type": "electric_scooter", "name": "f5d2fbbac3af32b7458c5bbc63f4dfb2", "rental_uris": {"ios": "https://dc.lft.to/lastmile_qr_scan", "android": "https://dc.lft.to/lastmile_qr_scan"}, "fusion_lon": 0.0, "lat": 38.884612, "is_disabled": 0, "bike_id": "f5d2fbbac3af32b7458c5bbc63f4dfb2", "fusion_lat": 0.0, "is_reserved": 0, "lon": -77.0150875}, {"type": "electric_scooter", "name": "00f28c387cb11da97fa8217331041a0d", "rental_uris": {"ios": "https://dc.lft.to/lastmile_qr_scan", "android": "https://dc.lft.to/lastmile_qr_scan"}, "fusion_lon": 0.0, "lat": 38.9128045, "is_disabled": 0, "bike_id": "00f28c387cb11da97fa8217331041a0d", "fusion_lat": 0.0, "is_reserved": 0, "lon": -76.98458483333333}, {"type": "electric_scooter", "name": "26a0e8755ab76276285830831ddc1745", "rental_uris": {"ios": "https://dc.lft.to/lastmile_qr_scan", "android": "https://dc.lft.to/lastmile_qr_scan"}, "fusion_lon": 0.0, "lat": 38.91933916666667, "is_disabled": 0, "bike_id": "26a0e8755ab76276285830831ddc1745", "fusion_lat": 0.0, "is_reserved": 0, "lon": -77.020659}, {"type": "electric_bike", "name": "89084b334705566fb9803dfc47c8c542", "rental_uris": {"ios": "https://dc.lft.to/lastmile_qr_scan", "android": "https://dc.lft.to/lastmile_qr_scan"}, "fusion_lon": 0.0, "lat": 39.003811666666664, "is_disabled": 0, "bike_id": "89084b334705566fb9803dfc47c8c542", "fusion_lat": 0.0, "is_reserved": 0, "lon": -77.01296266666667}, {"type": "electric_scooter", "name": "79e2bdf8468f4dde9b8f6d2f57b64ade", "rental_uris": {"ios": "https://dc.lft.to/lastmile_qr_scan", "android": "https://dc.lft.to/lastmile_qr_scan"}, "fusion_lon": 0.0, "lat": 38.933551, "is_disabled": 0, "bike_id": "79e2bdf8468f4dde9b8f6d2f57b64ade", "fusion_lat": 0.0, "is_reserved": 0, "lon": -77.073879}, {"type": "electric_scooter", "name": "5a90b7f7ddc6c187e3d8b755d17e519f", "rental_uris": {"ios": "https://dc.lft.to/lastmile_qr_scan", "android": "https://dc.lft.to/lastmile_qr_scan"}, "fusion_lon": 0.0, "lat": 38.929640666666664, "is_disabled": 0, "bike_id": "5a90b7f7ddc6c187e3d8b755d17e519f", "fusion_lat": 0.0, "is_reserved": 0, "lon": -77.03181966666666}, {"type": "electric_scooter", "name": "a76d1d147701b748980649968c6e2254", "rental_uris": {"ios": "https://dc.lft.to/lastmile_qr_scan", "android": "https://dc.lft.to/lastmile_qr_scan"}, "fusion_lon": 0.0, "lat": 38.899899, "is_disabled": 0, "bike_id": "a76d1d147701b748980649968c6e2254", "fusion_lat": 0.0, "is_reserved": 0, "lon": -76.98436016666666}, {"type": "electric_bike", "name": "78028d65904faa60acc009e4f86592cd", "rental_uris": {"ios": "https://dc.lft.to/lastmile_qr_scan", "android": "https://dc.lft.to/lastmile_qr_scan"}, "fusion_lon": 0.0, "lat": 38.99414983333333, "is_disabled": 0, "bike_id": "78028d65904faa60acc009e4f86592cd", "fusion_lat": 0.0, "is_reserved": 0, "lon": -77.077006}, {"type": "electric_scooter", "name": "782fd91af700d79e512f52e23300829d", "rental_uris": {"ios": "https://dc.lft.to/lastmile_qr_scan", "android": "https://dc.lft.to/lastmile_qr_scan"}, "fusion_lon": 0.0, "lat": 38.92810866666667, "is_disabled": 0, "bike_id": "782fd91af700d79e512f52e23300829d", "fusion_lat": 0.0, "is_reserved": 0, "lon": -77.05971833333334}, {"type": "electric_scooter", "name": "8849d4fdd89497cb3374be384a1a06d8", "rental_uris": {"ios": "https://dc.lft.to/lastmile_qr_scan", "android": "https://dc.lft.to/lastmile_qr_scan"}, "fusion_lon": 0.0, "lat": 38.916241666666664, "is_disabled": 0, "bike_id": "8849d4fdd89497cb3374be384a1a06d8", "fusion_lat": 0.0, "is_reserved": 0, "lon": -77.03172216666667}, {"type": "electric_bike", "name": "f46c5c2aaed2f6d39a1dab139f161197", "rental_uris": {"ios": "https://dc.lft.to/lastmile_qr_scan", "android": "https://dc.lft.to/lastmile_qr_scan"}, "fusion_lon": 0.0, "lat": 38.95166583333334, "is_disabled": 0, "bike_id": "f46c5c2aaed2f6d39a1dab139f161197", "fusion_lat": 0.0, "is_reserved": 0, "lon": -77.03162133333333}, {"type": "electric_scooter", "name": "c51875758d8907b27d1234ce25e08655", "rental_uris": {"ios": "https://dc.lft.to/lastmile_qr_scan", "android": "https://dc.lft.to/lastmile_qr_scan"}, "fusion_lon": 0.0, "lat": 38.924388, "is_disabled": 0, "bike_id": "c51875758d8907b27d1234ce25e08655", "fusion_lat": 0.0, "is_reserved": 0, "lon": -77.033739}, {"type": "electric_scooter", "name": "c284078554d662cff3c02982fe7da00c", "rental_uris": {"ios": "https://dc.lft.to/lastmile_qr_scan", "android": "https://dc.lft.to/lastmile_qr_scan"}, "fusion_lon": 0.0, "lat": 38.9241865, "is_disabled": 0, "bike_id": "c284078554d662cff3c02982fe7da00c", "fusion_lat": 0.0, "is_reserved": 0, "lon": -77.02239866666666}, {"type": "electric_scooter", "name": "38e5b9e8f45ff70cf2dd4733a8727a5e", "rental_uris": {"ios": "https://dc.lft.to/lastmile_qr_scan", "android": "https://dc.lft.to/lastmile_qr_scan"}, "fusion_lon": 0.0, "lat": 38.888385, "is_disabled": 0, "bike_id": "38e5b9e8f45ff70cf2dd4733a8727a5e", "fusion_lat": 0.0, "is_reserved": 0, "lon": -76.917609}, {"type": "electric_scooter", "name": "9987e64a631ba34c7700166c622fb3cb", "rental_uris": {"ios": "https://dc.lft.to/lastmile_qr_scan", "android": "https://dc.lft.to/lastmile_qr_scan"}, "fusion_lon": 0.0, "lat": 38.9170915, "is_disabled": 0, "bike_id": "9987e64a631ba34c7700166c622fb3cb", "fusion_lat": 0.0, "is_reserved": 0, "lon": -77.03131233333333}, {"type": "electric_scooter", "name": "f9012ae6f28653761d9a02f044b237e8", "rental_uris": {"ios": "https://dc.lft.to/lastmile_qr_scan", "android": "https://dc.lft.to/lastmile_qr_scan"}, "fusion_lon": 0.0, "lat": 38.89691033333333, "is_disabled": 0, "bike_id": "f9012ae6f28653761d9a02f044b237e8", "fusion_lat": 0.0, "is_reserved": 0, "lon": -77.0295415}, {"type": "electric_bike", "name": "febbb68683b5634079952e567fa98cc4", "rental_uris": {"ios": "https://dc.lft.to/lastmile_qr_scan", "android": "https://dc.lft.to/lastmile_qr_scan"}, "fusion_lon": 0.0, "lat": 39.0360565, "is_disabled": 0, "bike_id": "febbb68683b5634079952e567fa98cc4", "fusion_lat": 0.0, "is_reserved": 0, "lon": -77.0554775}, {"type": "electric_scooter", "name": "81eaf7d40a3861483211581f2baae683", "rental_uris": {"ios": "https://dc.lft.to/lastmile_qr_scan", "android": "https://dc.lft.to/lastmile_qr_scan"}, "fusion_lon": 0.0, "lat": 38.93671783333333, "is_disabled": 0, "bike_id": "81eaf7d40a3861483211581f2baae683", "fusion_lat": 0.0, "is_reserved": 0, "lon": -77.035903}, {"type": "electric_scooter", "name": "e9d5a451bccc354b7d99da8cd9975aca", "rental_uris": {"ios": "https://dc.lft.to/lastmile_qr_scan", "android": "https://dc.lft.to/lastmile_qr_scan"}, "fusion_lon": 0.0, "lat": 38.8222125, "is_disabled": 0, "bike_id": "e9d5a451bccc354b7d99da8cd9975aca", "fusion_lat": 0.0, "is_reserved": 0, "lon": -77.00180033333334}, {"type": "electric_scooter", "name": "15a65b7c8b2092fedf00271d556e6c54", "rental_uris": {"ios": "https://dc.lft.to/lastmile_qr_scan", "android": "https://dc.lft.to/lastmile_qr_scan"}, "fusion_lon": 0.0, "lat": 38.93425283333333, "is_disabled": 0, "bike_id": "15a65b7c8b2092fedf00271d556e6c54", "fusion_lat": 0.0, "is_reserved": 0, "lon": -77.0399915}, {"type": "electric_scooter", "name": "cc1ceb39c8f43685a3aa38eea8160326", "rental_uris": {"ios": "https://dc.lft.to/lastmile_qr_scan", "android": "https://dc.lft.to/lastmile_qr_scan"}, "fusion_lon": 0.0, "lat": 38.90807133333333, "is_disabled": 0, "bike_id": "cc1ceb39c8f43685a3aa38eea8160326", "fusion_lat": 0.0, "is_reserved": 0, "lon": -77.04189916666667}, {"type": "electric_scooter", "name": "82efd37b8cafa69b8ef9be148a452f84", "rental_uris": {"ios": "https://dc.lft.to/lastmile_qr_scan", "android": "https://dc.lft.to/lastmile_qr_scan"},