{"data": {"bikes": [{"name": "397d19ef084b7b06147b8ffcc1436736", "fusion_lat": 0.0, "type": "electric_scooter", "lat": 38.906222, "is_reserved": 0, "is_disabled": 0, "fusion_lon": 0.0, "bike_id": "397d19ef084b7b06147b8ffcc1436736", "lon": -77.04152833333333, "rental_uris": {"ios": "https://dc.lft.to/lastmile_qr_scan", "android": "https://dc.lft.to/lastmile_qr_scan"}}, {"name": "a13de582c92200e0dfdf1b6092904cb0", "fusion_lat": 0.0, "type": "electric_scooter", "lat": 38.900309, "is_reserved": 0, "is_disabled": 0, "fusion_lon": 0.0, "bike_id": "a13de582c92200e0dfdf1b6092904cb0", "lon": -77.00199233333333, "rental_uris": {"ios": "https://dc.lft.to/lastmile_qr_scan", "android": "https://dc.lft.to/lastmile_qr_scan"}}, {"name": "13cabd28a7a8c21340224cb997d1c929", "fusion_lat": 0.0, "type": "electric_scooter", "lat": 38.9455885, "is_reserved": 0, "is_disabled": 0, "fusion_lon": 0.0, "bike_id": "13cabd28a7a8c21340224cb997d1c929", "lon": -77.07770866666667, "rental_uris": {"ios": "https://dc.lft.to/lastmile_qr_scan", "android": "https://dc.lft.to/lastmile_qr_scan"}}, {"name": "c58ccde967c9f6157435d9cc9cd25868", "fusion_lat": 0.0, "type": "electric_scooter", "lat": 38.915950333333335, "is_reserved": 0, "is_disabled": 0, "fusion_lon": 0.0, "bike_id": "c58ccde967c9f6157435d9cc9cd25868", "lon": -77.031903, "rental_uris": {"ios": "https://dc.lft.to/lastmile_qr_scan", "android": "https://dc.lft.to/lastmile_qr_scan"}}, {"name": "7077173cac59c355148f5aca917ac37c", "fusion_lat": 0.0, "type": "electric_bike", "lat": 38.842676833333336, "is_reserved": 0, "is_disabled": 0, "fusion_lon": 0.0, "bike_id": "7077173cac59c355148f5aca917ac37c", "lon": -76.98836183333333, "rental_uris": {"ios": "https://dc.lft.to/lastmile_qr_scan", "android": "https://dc.lft.to/lastmile_qr_scan"}}, {"name": "6c8f69c8c294d70938fa85d326f1f2c1", "fusion_lat": 0.0, "type": "electric_scooter", "lat": 38.93393866666667, "is_reserved": 0, "is_disabled": 0, "fusion_lon": 0.0, "bike_id": "6c8f69c8c294d70938fa85d326f1f2c1", "lon": -77.03521333333333, "rental_uris": {"ios": "https://dc.lft.to/lastmile_qr_scan", "android": "https://dc.lft.to/lastmile_qr_scan"}}, {"name": "9f5852bc6fa43197a3791fa7b7b5665c", "fusion_lat": 0.0, "type": "electric_scooter", "lat": 38.880392, "is_reserved": 0, "is_disabled": 0, "fusion_lon": 0.0, "bike_id": "9f5852bc6fa43197a3791fa7b7b5665c", "lon": -77.00473716666667, "rental_uris": {"ios": "https://dc.lft.to/lastmile_qr_scan", "android": "https://dc.lft.to/lastmile_qr_scan"}}, {"name": "18a9770e52c17e04ed3b80b4c7197405", "fusion_lat": 0.0, "type": "electric_scooter", "lat": 38.893538666666664, "is_reserved": 0, "is_disabled": 0, "fusion_lon": 0.0, "bike_id": "18a9770e52c17e04ed3b80b4c7197405", "lon": -77.00333633333334, "rental_uris": {"ios": "https://dc.lft.to/lastmile_qr_scan", "android": "https://dc.lft.to/lastmile_qr_scan"}}, {"name": "22cc0cf53d9cc0b8dc3f6d155de78dc3", "fusion_lat": 0.0, "type": "electric_scooter", "lat": 38.877453833333334, "is_reserved": 0, "is_disabled": 0, "fusion_lon": 0.0, "bike_id": "22cc0cf53d9cc0b8dc3f6d155de78dc3", "lon": -77.019947, "rental_uris": {"ios": "https://dc.lft.to/lastmile_qr_scan", "android": "https://dc.lft.to/lastmile_qr_scan"}}, {"name": "eb0c4c30c8eca344afab5834fb942bdb", "fusion_lat": 0.0, "type": "electric_scooter", "lat": 38.926959333333336, "is_reserved": 0, "is_disabled": 0, "fusion_lon": 0.0, "bike_id": "eb0c4c30c8eca344afab5834fb942bdb", "lon": -77.02108566666666, "rental_uris": {"ios": "https://dc.lft.to/lastmile_qr_scan", "android": "https://dc.lft.to/lastmile_qr_scan"}}, {"name": "b23af2743af1d7dea7d227c6e53c4f92", "fusion_lat": 0.0, "type": "electric_scooter", "lat": 38.902640833333336, "is_reserved": 0, "is_disabled": 0, "fusion_lon": 0.0, "bike_id": "b23af2743af1d7dea7d227c6e53c4f92", "lon": -77.062511, "rental_uris": {"ios": "https://dc.lft.to/lastmile_qr_scan", "android": "https://dc.lft.to/lastmile_qr_scan"}}, {"name": "9da592e13dbf265944b5f6da96b156f2", "fusion_lat": 0.0, "type": "electric_scooter", "lat": 38.918175833333336, "is_reserved": 0, "is_disabled": 0, "fusion_lon": 0.0, "bike_id": "9da592e13dbf265944b5f6da96b156f2", "lon": -77.040028, "rental_uris": {"ios": "https://dc.lft.to/lastmile_qr_scan", "android": "https://dc.lft.to/lastmile_qr_scan"}}, {"name": "a3b2caf1e988ab2302d7e22f14bb725c", "fusion_lat": 0.0, "type": "electric_scooter", "lat": 38.892231333333335, "is_reserved": 0, "is_disabled": 0, "fusion_lon": 0.0, "bike_id": "a3b2caf1e988ab2302d7e22f14bb725c", "lon": -77.05007366666666, "rental_uris": {"ios": "https://dc.lft.to/lastmile_qr_scan", "android": "https://dc.lft.to/lastmile_qr_scan"}}, {"name": "95bec96039b46f41aa2769a8be9271f7", "fusion_lat": 0.0, "type": "electric_scooter", "lat": 38.91689616666667, "is_reserved": 0, "is_disabled": 0, "fusion_lon": 0.0, "bike_id": "95bec96039b46f41aa2769a8be9271f7", "lon": -77.0125595, "rental_uris": {"ios": "https://dc.lft.to/lastmile_qr_scan", "android": "https://dc.lft.to/lastmile_qr_scan"}}, {"name": "2a4ddeecd5966ea4624d2174dfd06510", "fusion_lat": 0.0, "type": "electric_scooter", "lat": 38.91671083333333, "is_reserved": 0, "is_disabled": 0, "fusion_lon": 0.0, "bike_id": "2a4ddeecd5966ea4624d2174dfd06510", "lon": -77.02974166666667, "rental_uris": {"ios": "https://dc.lft.to/lastmile_qr_scan", "android": "https://dc.lft.to/lastmile_qr_scan"}}, {"name": "a35841ce4bd3f72d00bb124485093a28", "fusion_lat": 0.0, "type": "electric_scooter", "lat": 38.93514716666667, "is_reserved": 0, "is_disabled": 0, "fusion_lon": 0.0, "bike_id": "a35841ce4bd3f72d00bb124485093a28", "lon": -77.02841183333334, "rental_uris": {"ios": "https://dc.lft.to/lastmile_qr_scan", "android": "https://dc.lft.to/lastmile_qr_scan"}}, {"name": "a24cc855d06d3af9d708d8f0ad74d331", "fusion_lat": 0.0, "type": "electric_scooter", "lat": 38.9309075, "is_reserved": 0, "is_disabled": 0, "fusion_lon": 0.0, "bike_id": "a24cc855d06d3af9d708d8f0ad74d331", "lon": -77.02400766666666, "rental_uris": {"ios": "https://dc.lft.to/lastmile_qr_scan", "android": "https://dc.lft.to/lastmile_qr_scan"}}, {"name": "5e9d31da449dddd1f8b5760217e89ba7", "fusion_lat": 0.0, "type": "electric_scooter", "lat": 38.90057733333333, "is_reserved": 0, "is_disabled": 0, "fusion_lon": 0.0, "bike_id": "5e9d31da449dddd1f8b5760217e89ba7", "lon": -77.01611316666667, "rental_uris": {"ios": "https://dc.lft.to/lastmile_qr_scan", "android": "https://dc.lft.to/lastmile_qr_scan"}}, {"name": "dcff4e91ee82a6842b7899043e279cc7", "fusion_lat": 0.0, "type": "electric_scooter", "lat": 38.89844683333333, "is_reserved": 0, "is_disabled": 0, "fusion_lon": 0.0, "bike_id": "dcff4e91ee82a6842b7899043e279cc7", "lon": -77.007327, "rental_uris": {"ios": "https://dc.lft.to/lastmile_qr_scan", "android": "https://dc.lft.to/lastmile_qr_scan"}}, {"name": "4d99873213a1a3a8334f2e4d7500c29d", "fusion_lat": 0.0, "type": "electric_scooter", "lat": 38.9185115, "is_reserved": 0, "is_disabled": 0, "fusion_lon": 0.0, "bike_id": "4d99873213a1a3a8334f2e4d7500c29d", "lon": -77.01500016666667, "rental_uris": {"ios": "https://dc.lft.to/lastmile_qr_scan", "android": "https://dc.lft.to/lastmile_qr_scan"}}, {"name": "f93349c4234d655e43c5980bc436e538", "fusion_lat": 0.0, "type": "electric_scooter", "lat": 38.907213, "is_reserved": 0, "is_disabled": 0, "fusion_lon": 0.0, "bike_id": "f93349c4234d655e43c5980bc436e538", "lon": -77.0432335, "rental_uris": {"ios": "https://dc.lft.to/lastmile_qr_scan", "android": "https://dc.lft.to/lastmile_qr_scan"}}, {"name": "46a80514cd1b402a258daf95b7a2988c", "fusion_lat": 0.0, "type": "electric_scooter", "lat": 38.92678133333333, "is_reserved": 0, "is_disabled": 0, "fusion_lon": 0.0, "bike_id": "46a80514cd1b402a258daf95b7a2988c", "lon": -77.01519783333333, "rental_uris": {"ios": "https://dc.lft.to/lastmile_qr_scan", "android": "https://dc.lft.to/lastmile_qr_scan"}}, {"name": "903b51778ab6abebbf3a77fb7602ec1d", "fusion_lat": 0.0, "type": "electric_bike", "lat": 38.897715, "is_reserved": 0, "is_disabled": 0, "fusion_lon": 0.0, "bike_id": "903b51778ab6abebbf3a77fb7602ec1d", "lon": -76.90439983333333, "rental_uris": {"ios": "https://dc.lft.to/lastmile_qr_scan", "android": "https://dc.lft.to/lastmile_qr_scan"}}, {"name": "c2bc6ddc140ac55c5d924ec553a8f700", "fusion_lat": 0.0, "type": "electric_scooter", "lat": 38.93893816666667, "is_reserved": 0, "is_disabled": 0, "fusion_lon": 0.0, "bike_id": "c2bc6ddc140ac55c5d924ec553a8f700", "lon": -77.03275516666666, "rental_uris": {"ios": "https://dc.lft.to/lastmile_qr_scan", "android": "https://dc.lft.to/lastmile_qr_scan"}}, {"name": "e8f4801e88813abba0286a17c008499b", "fusion_lat": 0.0, "type": "electric_scooter", "lat": 38.90764083333333, "is_reserved": 0, "is_disabled": 0, "fusion_lon": 0.0, "bike_id": "e8f4801e88813abba0286a17c008499b", "lon": -77.038532, "rental_uris": {"ios": "https://dc.lft.to/lastmile_qr_scan", "android": "https://dc.lft.to/lastmile_qr_scan"}}, {"name": "bcb2b033d8f9425e1004d2683d5a88e8", "fusion_lat": 0.0, "type": "electric_scooter", "lat": 38.93562416666666, "is_reserved": 0, "is_disabled": 0, "fusion_lon": 0.0, "bike_id": "bcb2b033d8f9425e1004d2683d5a88e8", "lon": -77.021237, "rental_uris": {"ios": "https://dc.lft.to/lastmile_qr_scan", "android": "https://dc.lft.to/lastmile_qr_scan"}}, {"name": "b157cd438c6b84618a19018acb7ccdd8", "fusion_lat": 0.0, "type": "electric_scooter", "lat": 38.897395333333336, "is_reserved": 0, "is_disabled": 0, "fusion_lon": 0.0, "bike_id": "b157cd438c6b84618a19018acb7ccdd8", "lon": -76.99612783333333, "rental_uris": {"ios": "https://dc.lft.to/lastmile_qr_scan", "android": "https://dc.lft.to/lastmile_qr_scan"}}, {"name": "cd1ce98ae0497a69e33c4c98d0246914", "fusion_lat": 0.0, "type": "electric_scooter", "lat": 38.900791166666664, "is_reserved": 0, "is_disabled": 0, "fusion_lon": 0.0, "bike_id": "cd1ce98ae0497a69e33c4c98d0246914", "lon": -77.05003933333333, "rental_uris": {"ios": "https://dc.lft.to/lastmile_qr_scan", "android": "https://dc.lft.to/lastmile_qr_scan"}}, {"name": "3c2b8618900fd09f274e5798bc3eb662", "fusion_lat": 0.0, "type": "electric_scooter", "lat": 38.9125655, "is_reserved": 0, "is_disabled": 0, "fusion_lon": 0.0, "bike_id": "3c2b8618900fd09f274e5798bc3eb662", "lon": -77.03866166666667, "rental_uris": {"ios": "https://dc.lft.to/lastmile_qr_scan", "android": "https://dc.lft.to/lastmile_qr_scan"}}, {"name": "4d068eafda81a53dcd4ae96c5bb862b6", "fusion_lat": 0.0, "type": "electric_scooter", "lat": 38.86246466666667, "is_reserved": 0, "is_disabled": 0, "fusion_lon": 0.0, "bike_id": "4d068eafda81a53dcd4ae96c5bb862b6", "lon": -76.9952865, "rental_uris": {"ios": "https://dc.lft.to/lastmile_qr_scan", "android": "https://dc.lft.to/lastmile_qr_scan"}}, {"name": "49e4d048602f9830165384a9a3b47915", "fusion_lat": 0.0, "type": "electric_bike", "lat": 38.839838, "is_reserved": 0, "is_disabled": 0, "fusion_lon": 0.0, "bike_id": "49e4d048602f9830165384a9a3b47915", "lon": -77.00568466666667, "rental_uris": {"ios": "https://dc.lft.to/lastmile_qr_scan", "android": "https://dc.lft.to/lastmile_qr_scan"}}, {"name": "a3797ada98f49160eb8ca29912ca1979", "fusion_lat": 0.0, "type": "electric_scooter", "lat": 38.8896515, "is_reserved": 0, "is_disabled": 0, "fusion_lon": 0.0, "bike_id": "a3797ada98f49160eb8ca29912ca1979", "lon": -76.99177816666666, "rental_uris": {"ios": "https://dc.lft.to/lastmile_qr_scan", "android": "https://dc.lft.to/lastmile_qr_scan"}}, {"name": "448462b3af8065b04e61341c595fdcb1", "fusion_lat": 0.0, "type": "electric_scooter", "lat": 38.8850165, "is_reserved": 0, "is_disabled": 0, "fusion_lon": 0.0, "bike_id": "448462b3af8065b04e61341c595fdcb1", "lon": -77.00569216666666, "rental_uris": {"ios": "https://dc.lft.to/lastmile_qr_scan", "android": "https://dc.lft.to/lastmile_qr_scan"}}, {"name": "91abd238a22c5cfd13ef5f1050366b7e", "fusion_lat": 0.0, "type": "electric_scooter", "lat": 38.862377, "is_reserved": 0, "is_disabled": 0, "fusion_lon": 0.0, "bike_id": "91abd238a22c5cfd13ef5f1050366b7e", "lon": -76.994976, "rental_uris": {"ios": "https://dc.lft.to/lastmile_qr_scan", "android": "https://dc.lft.to/lastmile_qr_scan"}}, {"name": "51f1655a61794cd3479c11cb96e1cf94", "fusion_lat": 0.0, "type": "electric_scooter", "lat": 38.94313016666667, "is_reserved": 0, "is_disabled": 0, "fusion_lon": 0.0, "bike_id": "51f1655a61794cd3479c11cb96e1cf94", "lon": -77.02479666666666, "rental_uris": {"ios": "https://dc.lft.to/lastmile_qr_scan", "android": "https://dc.lft.to/lastmile_qr_scan"}}, {"name": "a7677081978c89ef7c03c9f3c4b56276", "fusion_lat": 0.0, "type": "electric_bike", "lat": 38.887480833333335, "is_reserved": 0, "is_disabled": 0, "fusion_lon": 0.0, "bike_id": "a7677081978c89ef7c03c9f3c4b56276", "lon": -76.9007285, "rental_uris": {"ios": "https://dc.lft.to/lastmile_qr_scan", "android": "https://dc.lft.to/lastmile_qr_scan"}}, {"name": "84a78cdc74bb694a87b71765d2cbc7f9", "fusion_lat": 0.0, "type": "electric_scooter", "lat": 38.90387466666667, "is_reserved": 0, "is_disabled": 0, "fusion_lon": 0.0, "bike_id": "84a78cdc74bb694a87b71765d2cbc7f9", "lon": -77.04128783333333, "rental_uris": {"ios": "https://dc.lft.to/lastmile_qr_scan", "android": "https://dc.lft.to/lastmile_qr_scan"}}, {"name": "895e98f4b637e56b3ca4ce383f4aaca0", "fusion_lat": 0.0, "type": "electric_scooter", "lat": 38.9244435, "is_reserved": 0, "is_disabled": 0, "fusion_lon": 0.0, "bike_id": "895e98f4b637e56b3ca4ce383f4aaca0", "lon": -77.039641, "rental_uris": {"ios": "https://dc.lft.to/lastmile_qr_scan", "android": "https://dc.lft.to/lastmile_qr_scan"}}, {"name": "84524aa267758fd5b5cd1da35e4b482a", "fusion_lat": 0.0, "type": "electric_scooter", "lat": 38.912507, "is_reserved": 0, "is_disabled": 0, "fusion_lon": 0.0, "bike_id": "84524aa267758fd5b5cd1da35e4b482a", "lon": -77.03839233333333, "rental_uris": {"ios": "https://dc.lft.to/lastmile_qr_scan", "android": "https://dc.lft.to/lastmile_qr_scan"}}, {"name": "8bbffce29775a189b46d352d4122587a", "fusion_lat": 0.0, "type": "electric_scooter", "lat": 38.885958333333335, "is_reserved": 0, "is_disabled": 0, "fusion_lon": 0.0, "bike_id": "8bbffce29775a189b46d352d4122587a", "lon": -77.02202316666667, "rental_uris": {"ios": "https://dc.lft.to/lastmile_qr_scan", "android": "https://dc.lft.to/lastmile_qr_scan"}}, {"name": "0676ef5646707bdae9fcfc4d174ff30c", "fusion_lat": 0.0, "type": "electric_scooter", "lat": 38.9297045, "is_reserved": 0, "is_disabled": 0, "fusion_lon": 0.0, "bike_id": "0676ef5646707bdae9fcfc4d174ff30c", "lon": -77.0144245, "rental_uris": {"ios": "https://dc.lft.to/lastmile_qr_scan", "android": "https://dc.lft.to/lastmile_qr_scan"}}, {"name": "4e8e6cf473614dd32674ea8b8c299bf3", "fusion_lat": 0.0, "type": "electric_scooter", "lat": 38.90032033333333, "is_reserved": 0, "is_disabled": 0, "fusion_lon": 0.0, "bike_id": "4e8e6cf473614dd32674ea8b8c299bf3", "lon": -77.0505065, "rental_uris": {"ios": "https://dc.lft.to/lastmile_qr_scan", "android": "https://dc.lft.to/lastmile_qr_scan"}}, {"name": "797795f9ae1029514bd498b780ec8844", "fusion_lat": 0.0, "type": "electric_bike", "lat": 38.999877166666664, "is_reserved": 0, "is_disabled": 0, "fusion_lon": 0.0, "bike_id": "797795f9ae1029514bd498b780ec8844", "lon": -77.08008133333334, "rental_uris": {"ios": "https://dc.lft.to/lastmile_qr_scan", "android": "https://dc.lft.to/lastmile_qr_scan"}}, {"name": "7307126129fab6154e8303ab736f15ef", "fusion_lat": 0.0, "type": "electric_scooter", "lat": 38.942256666666665, "is_reserved": 0, "is_disabled": 0, "fusion_lon": 0.0, "bike_id": "7307126129fab6154e8303ab736f15ef", "lon": -77.02159466666667, "rental_uris": {"ios": "https://dc.lft.to/lastmile_qr_scan", "android": "https://dc.lft.to/lastmile_qr_scan"}}, {"name": "acdffc9dfd50763e19faaf993ff1d73a", "fusion_lat": 0.0, "type": "electric_scooter", "lat": 38.89216566666666, "is_reserved": 0, "is_disabled": 0, "fusion_lon": 0.0, "bike_id": "acdffc9dfd50763e19faaf993ff1d73a", "lon": -77.0222625, "rental_uris": {"ios": "https://dc.lft.to/lastmile_qr_scan", "android": "https://dc.lft.to/lastmile_qr_scan"}}, {"name": "7bcf8e90bf6a8bf157e03fdd857dc2ee", "fusion_lat": 0.0, "type": "electric_scooter", "lat": 38.921751, "is_reserved": 0, "is_disabled": 0, "fusion_lon": 0.0, "bike_id": "7bcf8e90bf6a8bf157e03fdd857dc2ee", "lon": -77.02661116666667, "rental_uris": {"ios": "https://dc.lft.to/lastmile_qr_scan", "android": "https://dc.lft.to/lastmile_qr_scan"}}, {"name": "d89bb755f486a2caa72effb03da485d6", "fusion_lat": 0.0, "type": "electric_scooter", "lat": 38.875724166666664, "is_reserved": 0, "is_disabled": 0, "fusion_lon": 0.0, "bike_id": "d89bb755f486a2caa72effb03da485d6", "lon": -77.01057933333334, "rental_uris": {"ios": "https://dc.lft.to/lastmile_qr_scan", "android": "https://dc.lft.to/lastmile_qr_scan"}}, {"name": "06b94ad7da852124548c435c816128a1", "fusion_lat": 0.0, "type": "electric_bike", "lat": 38.942702, "is_reserved": 0, "is_disabled": 0, "fusion_lon": 0.0, "bike_id": "06b94ad7da852124548c435c816128a1", "lon": -76.98073033333333, "rental_uris": {"ios": "https://dc.lft.to/lastmile_qr_scan", "android": "https://dc.lft.to/lastmile_qr_scan"}}, {"name": "04f30a2849d35c43f095235170adae4d", "fusion_lat": 0.0, "type": "electric_scooter", "lat": 38.910060333333334, "is_reserved": 0, "is_disabled": 0, "fusion_lon": 0.0, "bike_id": "04f30a2849d35c43f095235170adae4d", "lon": -76.99388333333333, "rental_uris": {"ios": "https://dc.lft.to/lastmile_qr_scan", "android": "https://dc.lft.to/lastmile_qr_scan"}}, {"name": "94d8e39d1e90341e067a9dfc8cbb67b6", "fusion_lat": 0.0, "type": "electric_scooter", "lat": 38.898464, "is_reserved": 0, "is_disabled": 0, "fusion_lon": 0.0, "bike_id": "94d8e39d1e90341e067a9dfc8cbb67b6", "lon": -77.02370333333333, "rental_uris": {"ios": "https://dc.lft.to/lastmile_qr_scan", "android": "https://dc.lft.to/lastmile_qr_scan"}}, {"name": "cba68ae25ea460b09888714eb6440920", "fusion_lat": 0.0, "type": "electric_scooter", "lat": 38.917991, "is_reserved": 0, "is_disabled": 0, "fusion_lon": 0.0, "bike_id": "cba68ae25ea460b09888714eb6440920", "lon": -77.028129, "rental_uris": {"ios": "https://dc.lft.to/lastmile_qr_scan", "android": "https://dc.lft.to/lastmile_qr_scan"}}, {"name": "d7e33b5247f832bc24b713dea127ada1", "fusion_lat": 0.0, "type": "electric_scooter", "lat": 38.920598, "is_reserved": 0, "is_disabled": 0, "fusion_lon": 0.0, "bike_id": "d7e33b5247f832bc24b713dea127ada1", "lon": -77.0425185, "rental_uris": {"ios": "https://dc.lft.to/lastmile_qr_scan", "android": "https://dc.lft.to/lastmile_qr_scan"}}, {"name": "98053226813fd7dfec6733bc1e7985fc", "fusion_lat": 0.0, "type": "electric_scooter", "lat": 38.8836675, "is_reserved": 0, "is_disabled": 0, "fusion_lon": 0.0, "bike_id": "98053226813fd7dfec6733bc1e7985fc", "lon": -77.02626733333334, "rental_uris": {"ios": "https://dc.lft.to/lastmile_qr_scan", "android": "https://dc.lft.to/lastmile_qr_scan"}}, {"name": "3ad8f10234842af11f2de5c493a5ee81", "fusion_lat": 0.0, "type": "electric_bike", "lat": 38.87474066666667, "is_reserved": 0, "is_disabled": 0, "fusion_lon": 0.0, "bike_id": "3ad8f10234842af11f2de5c493a5ee81", "lon": -76.96522716666666, "rental_uris": {"ios": "https://dc.lft.to/lastmile_qr_scan", "android": "https://dc.lft.to/lastmile_qr_scan"}}, {"name": "307e90101a63f000c43f0982e0cfda8b", "fusion_lat": 0.0, "type": "electric_scooter", "lat": 38.927410333333334, "is_reserved": 0, "is_disabled": 0, "fusion_lon": 0.0, "bike_id": "307e90101a63f000c43f0982e0cfda8b", "lon": -77.03470283333333, "rental_uris": {"ios": "https://dc.lft.to/lastmile_qr_scan", "android": "https://dc.lft.to/lastmile_qr_scan"}}, {"name": "a90a104c060ac90e5c4785bac22182e8", "fusion_lat": 0.0, "type": "electric_scooter", "lat": 38.886024166666665, "is_reserved": 0, "is_disabled": 0, "fusion_lon": 0.0, "bike_id": "a90a104c060ac90e5c4785bac22182e8", "lon": -77.01971033333334, "rental_uris": {"ios": "https://dc.lft.to/lastmile_qr_scan", "android": "https://dc.lft.to/lastmile_qr_scan"}}, {"name": "1638c1753fe0d7bbfd4e3b2385ca7504", "fusion_lat": 0.0, "type": "electric_scooter", "lat": 38.866591166666666, "is_reserved": 0, "is_disabled": 0, "fusion_lon": 0.0, "bike_id": "1638c1753fe0d7bbfd4e3b2385ca7504", "lon": -76.988841, "rental_uris": {"ios": "https://dc.lft.to/lastmile_qr_scan", "android": "https://dc.lft.to/lastmile_qr_scan"}}, {"name": "f5ea40dfe13669e7c77a5d40bb371f19", "fusion_lat": 0.0, "type": "electric_scooter", "lat": 38.9070105, "is_reserved": 0, "is_disabled": 0, "fusion_lon": 0.0, "bike_id": "f5ea40dfe13669e7c77a5d40bb371f19", "lon": -77.0239005, "rental_uris": {"ios": "https://dc.lft.to/lastmile_qr_scan", "android": "https://dc.lft.to/lastmile_qr_scan"}}, {"name": "a7a1f69c2a6b97fed7a6d0c3902f1f4e", "fusion_lat": 0.0, "type": "electric_scooter", "lat": 38.90030433333333, "is_reserved": 0, "is_disabled": 0, "fusion_lon": 0.0, "bike_id": "a7a1f69c2a6b97fed7a6d0c3902f1f4e", "lon": -77.00624733333333, "rental_uris": {"ios": "https://dc.lft.to/lastmile_qr_scan", "android": "https://dc.lft.to/lastmile_qr_scan"}}, {"name": "a1ed0b34136548be527e57afe150f9b5", "fusion_lat": 0.0, "type": "electric_scooter", "lat": 38.91780816666667, "is_reserved": 0, "is_disabled": 0, "fusion_lon": 0.0, "bike_id": "a1ed0b34136548be527e57afe150f9b5", "lon": -77.02336933333333, "rental_uris": {"ios": "https://dc.lft.to/lastmile_qr_scan", "android": "https://dc.lft.to/lastmile_qr_scan"}}, {"name": "292bcea4b89f910e9a400dd81ef5a542", "fusion_lat": 0.0, "type": "electric_scooter", "lat": 38.906600833333336, "is_reserved": 0, "is_disabled": 0, "fusion_lon": 0.0, "bike_id": "292bcea4b89f910e9a400dd81ef5a542", "lon": -77.02703866666667, "rental_uris": {"ios": "https://dc.lft.to/lastmile_qr_scan", "android": "https://dc.lft.to/lastmile_qr_scan"}}, {"name": "6a359aa46f2f7abf69ed15f6a6c72dd5", "fusion_lat": 0.0, "type": "electric_scooter", "lat": 38.90269216666667, "is_reserved": 0, "is_disabled": 0, "fusion_lon": 0.0, "bike_id": "6a359aa46f2f7abf69ed15f6a6c72dd5", "lon": -77.0171845, "rental_uris": {"ios": "https://dc.lft.to/lastmile_qr_scan", "android": "https://dc.lft.to/lastmile_qr_scan"}}, {"name": "249c9910dd98a89a7d97ee1e505e8a13", "fusion_lat": 0.0, "type": "electric_scooter", "lat": 38.90463533333333, "is_reserved": 0, "is_disabled": 0, "fusion_lon": 0.0, "bike_id": "249c9910dd98a89a7d97ee1e505e8a13", "lon": -77.04182316666666, "rental_uris": {"ios": "https://dc.lft.to/lastmile_qr_scan", "android": "https://dc.lft.to/lastmile_qr_scan"}}, {"name": "511e5246542cbb796ce23d09152c7823", "fusion_lat": 0.0, "type": "electric_bike", "lat": 38.95354016666667, "is_reserved": 0, "is_disabled": 0, "fusion_lon": 0.0, "bike_id": "511e5246542cbb796ce23d09152c7823", "lon": -77.08860783333333, "rental_uris": {"ios": "https://dc.lft.to/lastmile_qr_scan", "android": "https://dc.lft.to/lastmile_qr_scan"}}, {"name": "cd2b482da035abbd2aab485a6cfddebb", "fusion_lat": 0.0, "type": "electric_scooter", "lat": 38.90968066666667, "is_reserved": 0, "is_disabled": 0, "fusion_lon": 0.0, "bike_id": "cd2b482da035abbd2aab485a6cfddebb", "lon": -77.04479466666666, "rental_uris": {"ios": "https://dc.lft.to/lastmile_qr_scan", "android": "https://dc.lft.to/lastmile_qr_scan"}}, {"name": "3523a6d0de6ab576a2673f78b76f4210", "fusion_lat": 0.0, "type": "electric_scooter", "lat": 38.90281266666667, "is_reserved": 0, "is_disabled": 0, "fusion_lon": 0.0, "bike_id": "3523a6d0de6ab576a2673f78b76f4210", "lon": -77.03206516666667, "rental_uris": {"ios": "https://dc.lft.to/lastmile_qr_scan", "android": "https://dc.lft.to/lastmile_qr_scan"}}, {"name": "82e5f0360451ce2c3b766aded76cc4f5", "fusion_lat": 0.0, "type": "electric_scooter", "lat": 38.92507716666667, "is_reserved": 0, "is_disabled": 0, "fusion_lon": 0.0, "bike_id": "82e5f0360451ce2c3b766aded76cc4f5", "lon": -77.02388483333333, "rental_uris": {"ios": "https://dc.lft.to/lastmile_qr_scan", "android": "https://dc.lft.to/lastmile_qr_scan"}}, {"name": "9f6b0529579fe4bb43a6265462ec3843", "fusion_lat": 0.0, "type": "electric_scooter", "lat": 38.95832733333334, "is_reserved": 0, "is_disabled": 0, "fusion_lon": 0.0, "bike_id": "9f6b0529579fe4bb43a6265462ec3843", "lon": -77.0268725, "rental_uris": {"ios": "https://dc.lft.to/lastmile_qr_scan", "android": "https://dc.lft.to/lastmile_qr_scan"}}, {"name": "915a12ce9e601c6b3e87a17d8aaabcf6", "fusion_lat": 0.0, "type": "electric_scooter", "lat": 38.924141666666664, "is_reserved": 0, "is_disabled": 0, "fusion_lon": 0.0, "bike_id": "915a12ce9e601c6b3e87a17d8aaabcf6", "lon": -77.0194215, "rental_uris": {"ios": "https://dc.lft.to/lastmile_qr_scan", "android": "https://dc.lft.to/lastmile_qr_scan"}}, {"name": "e92278622e6550f99dd6ab7236c1bbf0", "fusion_lat": 0.0, "type": "electric_scooter", "lat": 38.896572166666665, "is_reserved": 0, "is_disabled": 0, "fusion_lon": 0.0, "bike_id": "e92278622e6550f99dd6ab7236c1bbf0", "lon": -77.04909133333334, "rental_uris": {"ios": "https://dc.lft.to/lastmile_qr_scan", "android": "https://dc.lft.to/lastmile_qr_scan"}}, {"name": "d6a4c2e818b3036cb3c2a62346c2deef", "fusion_lat": 0.0, "type": "electric_scooter", "lat": 38.9193115, "is_reserved": 0, "is_disabled": 0, "fusion_lon": 0.0, "bike_id": "d6a4c2e818b3036cb3c2a62346c2deef", "lon": -77.02374616666667, "rental_uris": {"ios": "https://dc.lft.to/lastmile_qr_scan", "android": "https://dc.lft.to/lastmile_qr_scan"}}, {"name": "e7c65b20e87bff783fb133db68945bf6", "fusion_lat": 0.0, "type": "electric_scooter", "lat": 38.90481033333333, "is_reserved": 0, "is_disabled": 0, "fusion_lon": 0.0, "bike_id": "e7c65b20e87bff783fb133db68945bf6", "lon": -77.04174616666667, "rental_uris": {"ios": "https://dc.lft.to/lastmile_qr_scan", "android": "https://dc.lft.to/lastmile_qr_scan"}}, {"name": "647cb30f7cdc4b9e9e4f2f137eeec213", "fusion_lat": 0.0, "type": "electric_scooter", "lat": 38.895306, "is_reserved": 0, "is_disabled": 0, "fusion_lon": 0.0, "bike_id": "647cb30f7cdc4b9e9e4f2f137eeec213", "lon": -77.03097333333334, "rental_uris": {"ios": "https://dc.lft.to/lastmile_qr_scan", "android": "https://dc.lft.to/lastmile_qr_scan"}}, {"name": "08bc3c41c57af66492412de794d0e532", "fusion_lat": 0.0, "type": "electric_scooter", "lat": 38.89221716666667, "is_reserved": 0, "is_disabled": 0, "fusion_lon": 0.0, "bike_id": "08bc3c41c57af66492412de794d0e532", "lon": -77.04503683333333, "rental_uris": {"ios": "https://dc.lft.to/lastmile_qr_scan", "android": "https://dc.lft.to/lastmile_qr_scan"}}, {"name": "a8dde84625a844cbdb433c8dbdcae0b3", "fusion_lat": 0.0, "type": "electric_scooter", "lat": 38.90662616666667, "is_reserved": 0, "is_disabled": 0, "fusion_lon": 0.0, "bike_id": "a8dde84625a844cbdb433c8dbdcae0b3", "lon": -77.0060835, "rental_uris": {"ios": "https://dc.lft.to/lastmile_qr_scan", "android": "https://dc.lft.to/lastmile_qr_scan"}}, {"name": "365b66567b1c207886fa1312d1f68d95", "fusion_lat": 0.0, "type": "electric_scooter", "lat": 38.91798416666666, "is_reserved": 0, "is_disabled": 0, "fusion_lon": 0.0, "bike_id": "365b66567b1c207886fa1312d1f68d95", "lon": -77.0401575, "rental_uris": {"ios": "https://dc.lft.to/lastmile_qr_scan", "android": "https://dc.lft.to/lastmile_qr_scan"}}, {"name": "74253c9477ee3a3fb30f9da08ca71b55", "fusion_lat": 0.0, "type": "electric_scooter", "lat": 38.90576033333333, "is_reserved": 0, "is_disabled": 0, "fusion_lon": 0.0, "bike_id": "74253c9477ee3a3fb30f9da08ca71b55", "lon": -77.0060605, "rental_uris": {"ios": "https://dc.lft.to/lastmile_qr_scan", "android": "https://dc.lft.to/lastmile_qr_scan"}}, {"name": "adf66a8b2ea7d133ca2f3f29370675da", "fusion_lat": 0.0, "type": "electric_bike", "lat": 38.8524325, "is_reserved": 0, "is_disabled": 0, "fusion_lon": 0.0, "bike_id": "adf66a8b2ea7d133ca2f3f29370675da", "lon": -77.11426083333333, "rental_uris": {"ios": "https://dc.lft.to/lastmile_qr_scan", "android": "https://dc.lft.to/lastmile_qr_scan"}}, {"name": "baa5885daa3a5209b991b9202224fb0e", "fusion_lat": 0.0, "type": "electric_scooter", "lat": 38.892146333333336, "is_reserved": 0, "is_disabled": 0, "fusion_lon": 0.0, "bike_id": "baa5885daa3a5209b991b9202224fb0e", "lon": -77.022261, "rental_uris": {"ios": "https://dc.lft.to/lastmile_qr_scan", "android": "https://dc.lft.to/lastmile_qr_scan"}}, {"name": "fa017de86de8a977669e6063dbdc47cc", "fusion_lat": 0.0, "type": "electric_scooter", "lat": 38.918104, "is_reserved": 0, "is_disabled": 0, "fusion_lon": 0.0, "bike_id": "fa017de86de8a977669e6063dbdc47cc", "lon": -77.032145, "rental_uris": {"ios": "https://dc.lft.to/lastmile_qr_scan", "android": "https://dc.lft.to/lastmile_qr_scan"}}, {"name": "e99c1e0e40d24d90f1cf031390596aec", "fusion_lat": 0.0, "type": "electric_scooter", "lat": 38.916993166666664, "is_reserved": 0, "is_disabled": 0, "fusion_lon": 0.0, "bike_id": "e99c1e0e40d24d90f1cf031390596aec", "lon": -77.03136583333334, "rental_uris": {"ios": "https://dc.lft.to/lastmile_qr_scan", "android": "https://dc.lft.to/lastmile_qr_scan"}}, {"name": "311e35341c8a8257890e2f407eab5dd7", "fusion_lat": 0.0, "type": "electric_scooter", "lat": 38.88487883333333, "is_reserved": 0, "is_disabled": 0, "fusion_lon": 0.0, "bike_id": "311e35341c8a8257890e2f407eab5dd7", "lon": -77.00710316666667, "rental_uris": {"ios": "https://dc.lft.to/lastmile_qr_scan", "android": "https://dc.lft.to/lastmile_qr_scan"}}, {"name": "ce625934f8df3562298b1a3065e5577c", "fusion_lat": 0.0, "type": "electric_scooter", "lat": 38.897991166666664, "is_reserved": 0, "is_disabled": 0, "fusion_lon": 0.0, "bike_id": "ce625934f8df3562298b1a3065e5577c", "lon": -77.04612733333333, "rental_uris": {"ios": "https://dc.lft.to/lastmile_qr_scan", "android": "https://dc.lft.to/lastmile_qr_scan"}}, {"name": "41baac5e5d4e2d41a84b373aadee6360", "fusion_lat": 0.0, "type": "electric_scooter", "lat": 38.922198, "is_reserved": 0, "is_disabled": 0, "fusion_lon": 0.0, "bike_id": "41baac5e5d4e2d41a84b373aadee6360", "lon": -77.02111933333333, "rental_uris": {"ios": "https://dc.lft.to/lastmile_qr_scan", "android": "https://dc.lft.to/lastmile_qr_scan"}}, {"name": "1a93741772ae8d75bfe7cea65f96964d", "fusion_lat": 0.0, "type": "electric_scooter", "lat": 38.9127005, "is_reserved": 0, "is_disabled": 0, "fusion_lon": 0.0, "bike_id": "1a93741772ae8d75bfe7cea65f96964d", "lon": -77.03864533333333, "rental_uris": {"ios": "https://dc.lft.to/lastmile_qr_scan", "android": "https://dc.lft.to/lastmile_qr_scan"}}, {"name": "d7e8e8eabf7bcc3f4395a10d287b7ed7", "fusion_lat": 0.0, "type": "electric_scooter", "lat": 38.90739716666667, "is_reserved": 0, "is_disabled": 0, "fusion_lon": 0.0, "bike_id": "d7e8e8eabf7bcc3f4395a10d287b7ed7", "lon": -77.04348366666666, "rental_uris": {"ios": "https://dc.lft.to/lastmile_qr_scan", "android": "https://dc.lft.to/lastmile_qr_scan"}}, {"name": "bc952abdfff7e3fa9bf181a9ae1c6168", "fusion_lat": 0.0, "type": "electric_scooter", "lat": 38.899439666666666, "is_reserved": 0, "is_disabled": 0, "fusion_lon": 0.0, "bike_id": "bc952abdfff7e3fa9bf181a9ae1c6168", "lon": -77.0548195, "rental_uris": {"ios": "https://dc.lft.to/lastmile_qr_scan", "android": "https://dc.lft.to/lastmile_qr_scan"}}, {"name": "3df2ffd35c441bfdd5bc13e42a624c3e", "fusion_lat": 0.0, "type": "electric_scooter", "lat": 38.93181633333333, "is_reserved": 0, "is_disabled": 0, "fusion_lon": 0.0, "bike_id": "3df2ffd35c441bfdd5bc13e42a624c3e", "lon": -77.034503, "rental_uris": {"ios": "https://dc.lft.to/lastmile_qr_scan", "android": "https://dc.lft.to/lastmile_qr_scan"}}, {"name": "a98cf1b6832e403129a9cbe9ae600c3f", "fusion_lat": 0.0, "type": "electric_scooter", "lat": 38.921766, "is_reserved": 0, "is_disabled": 0, "fusion_lon": 0.0, "bike_id": "a98cf1b6832e403129a9cbe9ae600c3f", "lon": -77.04275766666666, "rental_uris": {"ios": "https://dc.lft.to/lastmile_qr_scan", "android": "https://dc.lft.to/lastmile_qr_scan"}}, {"name": "90b6e584fbb9483030baae92fa9ebd2a", "fusion_lat": 0.0, "type": "electric_scooter", "lat": 38.91804833333333, "is_reserved": 0, "is_disabled": 0, "fusion_lon": 0.0, "bike_id": "90b6e584fbb9483030baae92fa9ebd2a", "lon": -77.0462235, "rental_uris": {"ios": "https://dc.lft.to/lastmile_qr_scan", "android": "https://dc.lft.to/lastmile_qr_scan"}}, {"name": "4f8a25a2d33bb1fd382ce537db4eef58", "fusion_lat": 0.0, "type": "electric_scooter", "lat": 38.9192715, "is_reserved": 0, "is_disabled": 0, "fusion_lon": 0.0, "bike_id": "4f8a25a2d33bb1fd382ce537db4eef58", "lon": -77.023696, "rental_uris": {"ios": "https://dc.lft.to/lastmile_qr_scan", "android": "https://dc.lft.to/lastmile_qr_scan"}}, {"name": "36c304f4ac7b5239e4b845fce691d68e", "fusion_lat": 0.0, "type": "electric_scooter", "lat": 38.90736233333333, "is_reserved": 0, "is_disabled": 0, "fusion_lon": 0.0, "bike_id": "36c304f4ac7b5239e4b845fce691d68e", "lon": -77.0268965, "rental_uris": {"ios": "https://dc.lft.to/lastmile_qr_scan", "android": "https://dc.lft.to/lastmile_qr_scan"}}, {"name": "12e6624fe5900d16e8ed8d47c1c5f5af", "fusion_lat": 0.0, "type": "electric_scooter", "lat": 38.896191, "is_reserved": 0, "is_disabled": 0, "fusion_lon": 0.0, "bike_id": "12e6624fe5900d16e8ed8d47c1c5f5af", "lon": -77.02166883333334, "rental_uris": {"ios": "https://dc.lft.to/lastmile_qr_scan", "android": "https://dc.lft.to/lastmile_qr_scan"}}, {"name": "881de660953454cd3813c89343da4fd1", "fusion_lat": 0.0, "type": "electric_scooter", "lat": 38.90596683333333, "is_reserved": 0, "is_disabled": 0, "fusion_lon": 0.0, "bike_id": "881de660953454cd3813c89343da4fd1", "lon": -77.04676033333334, "rental_uris": {"ios": "https://dc.lft.to/lastmile_qr_scan", "android": "https://dc.lft.to/lastmile_qr_scan"}}, {"name": "bb68f3938732459fe982ad559c4ba174", "fusion_lat": 0.0, "type": "electric_scooter", "lat": 38.9127925, "is_reserved": 0, "is_disabled": 0, "fusion_lon": 0.0, "bike_id": "bb68f3938732459fe982ad559c4ba174", "lon": -77.044971, "rental_uris": {"ios": "https://dc.lft.to/lastmile_qr_scan", "android": "https://dc.lft.to/lastmile_qr_scan"}}, {"name": "36e2ab099daceb3e84ea6626d8bde84e", "fusion_lat": 0.0, "type": "electric_scooter", "lat": 38.91534516666667, "is_reserved": 0, "is_disabled": 0, "fusion_lon": 0.0, "bike_id": "36e2ab099daceb3e84ea6626d8bde84e", "lon": -77.03203216666667, "rental_uris": {"ios": "https://dc.lft.to/lastmile_qr_scan", "android": "https://dc.lft.to/lastmile_qr_scan"}}, {"name": "61880e3dddbd40d86305bed4ac2933cc", "fusion_lat": 0.0, "type": "electric_scooter", "lat": 38.90550483333333, "is_reserved": 0, "is_disabled": 0, "fusion_lon": 0.0, "bike_id": "61880e3dddbd40d86305bed4ac2933cc", "lon": -77.04549666666666, "rental_uris": {"ios": "https://dc.lft.to/lastmile_qr_scan", "android": "https://dc.lft.to/lastmile_qr_scan"}}, {"name": "107a42efbee11e24237bc507686ab653", "fusion_lat": 0.0, "type": "electric_scooter", "lat": 38.922945, "is_reserved": 0, "is_disabled": 0, "fusion_lon": 0.0, "bike_id": "107a42efbee11e24237bc507686ab653", "lon": -77.0429785, "rental_uris": {"ios": "https://dc.lft.to/lastmile_qr_scan", "android": "https://dc.lft.to/lastmile_qr_scan"}}, {"name": "7ffa42ef70341d8660a45fcdf1963e31", "fusion_lat": 0.0, "type": "electric_scooter", "lat": 38.94064816666667, "is_reserved": 0, "is_disabled": 0, "fusion_lon": 0.0, "bike_id": "7ffa42ef70341d8660a45fcdf1963e31", "lon": -77.029606, "rental_uris": {"ios": "https://dc.lft.to/lastmile_qr_scan", "android": "https://dc.lft.to/lastmile_qr_scan"}}, {"name": "18fe6d7f8a4e453e8dd080b8349cafa5", "fusion_lat": 0.0, "type": "electric_scooter", "lat": 38.927513833333336, "is_reserved": 0, "is_disabled": 0, "fusion_lon": 0.0, "bike_id": "18fe6d7f8a4e453e8dd080b8349cafa5", "lon": -77.02427066666667, "rental_uris": {"ios": "https://dc.lft.to/lastmile_qr_scan", "android": "https://dc.lft.to/lastmile_qr_scan"}}, {"name": "fef9f30155b67b52d3f3ca440674f643", "fusion_lat": 0.0, "type": "electric_bike", "lat": 38.97514666666667, "is_reserved": 0, "is_disabled": 0, "fusion_lon": 0.0, "bike_id": "fef9f30155b67b52d3f3ca440674f643", "lon": -77.016885, "rental_uris": {"ios": "https://dc.lft.to/lastmile_qr_scan", "android": "https://dc.lft.to/lastmile_qr_scan"}}, {"name": "facd4e18251f249491864f7eeb01d2df", "fusion_lat": 0.0, "type": "electric_scooter", "lat": 38.905337, "is_reserved": 0, "is_disabled": 0, "fusion_lon": 0.0, "bike_id": "facd4e18251f249491864f7eeb01d2df", "lon": -77.04728283333333, "rental_uris": {"ios": "https://dc.lft.to/lastmile_qr_scan", "android": "https://dc.lft.to/lastmile_qr_scan"}}, {"name": "99ec866793f3e0e96237534374d74115", "fusion_lat": 0.0, "type": "electric_scooter", "lat": 38.90231383333333, "is_reserved": 0, "is_disabled": 0, "fusion_lon": 0.0, "bike_id": "99ec866793f3e0e96237534374d74115", "lon": -77.05371583333333, "rental_uris": {"ios": "https://dc.lft.to/lastmile_qr_scan", "android": "https://dc.lft.to/lastmile_qr_scan"}}, {"name": "dfc1929e86e1b1d89a1fd03849a51435", "fusion_lat": 0.0, "type": "electric_scooter", "lat": 38.8958685, "is_reserved": 0, "is_disabled": 0, "fusion_lon": 0.0, "bike_id": "dfc1929e86e1b1d89a1fd03849a51435", "lon": -77.04264766666667, "rental_uris": {"ios": "https://dc.lft.to/lastmile_qr_scan", "android": "https://dc.lft.to/lastmile_qr_scan"}}, {"name": "7d5db3aced46d37288133fce68f296ca", "fusion_lat": 0.0, "type": "electric_bike", "lat": 38.843447833333336, "is_reserved": 0, "is_disabled": 0, "fusion_lon": 0.0, "bike_id": "7d5db3aced46d37288133fce68f296ca", "lon": -77.06399116666667, "rental_uris": {"ios": "https://dc.lft.to/lastmile_qr_scan", "android": "https://dc.lft.to/lastmile_qr_scan"}}, {"name": "4ee32355953a772b84bb263f74ff7c96", "fusion_lat": 0.0, "type": "electric_scooter", "lat": 38.902696666666664, "is_reserved": 0, "is_disabled": 0, "fusion_lon": 0.0, "bike_id": "4ee32355953a772b84bb263f74ff7c96", "lon": -77.0446225, "rental_uris": {"ios": "https://dc.lft.to/lastmile_qr_scan", "android": "https://dc.lft.to/lastmile_qr_scan"}}, {"name": "fb76770b28bf0c63f88ae1e91ac1aa50", "fusion_lat": 0.0, "type": "electric_scooter", "lat": 38.88339716666667, "is_reserved": 0, "is_disabled": 0, "fusion_lon": 0.0, "bike_id": "fb76770b28bf0c63f88ae1e91ac1aa50", "lon": -76.936445, "rental_uris": {"ios": "https://dc.lft.to/lastmile_qr_scan", "android": "https://dc.lft.to/lastmile_qr_scan"}}, {"name": "3c33ace0deb6753676113a863c8750df", "fusion_lat": 0.0, "type": "electric_scooter", "lat": 38.927003166666665, "is_reserved": 0, "is_disabled": 0, "fusion_lon": 0.0, "bike_id": "3c33ace0deb6753676113a863c8750df", "lon": -77.03726066666667, "rental_uris": {"ios": "https://dc.lft.to/lastmile_qr_scan", "android": "https://dc.lft.to/lastmile_qr_scan"}}, {"name": "d9b74afb75892d089045208c4f2027e5", "fusion_lat": 0.0, "type": "electric_scooter", "lat": 38.8958035, "is_reserved": 0, "is_disabled": 0, "fusion_lon": 0.0, "bike_id": "d9b74afb75892d089045208c4f2027e5", "lon": -77.04333583333333, "rental_uris": {"ios": "https://dc.lft.to/lastmile_qr_scan", "android": "https://dc.lft.to/lastmile_qr_scan"}}, {"name": "206ddf87db537dc0f3cbf9867f901c71", "fusion_lat": 0.0, "type": "electric_bike", "lat": 38.9357505, "is_reserved": 0, "is_disabled": 0, "fusion_lon": 0.0, "bike_id": "206ddf87db537dc0f3cbf9867f901c71", "lon": -77.10682033333333, "rental_uris": {"ios": "https://dc.lft.to/lastmile_qr_scan", "android": "https://dc.lft.to/lastmile_qr_scan"}}, {"name": "0e09849fceb54b51cbd9aee818fcea15", "fusion_lat": 0.0, "type": "electric_scooter", "lat": 38.86364866666667, "is_reserved": 0, "is_disabled": 0, "fusion_lon": 0.0, "bike_id": "0e09849fceb54b51cbd9aee818fcea15", "lon": -77.0136525, "rental_uris": {"ios": "https://dc.lft.to/lastmile_qr_scan", "android": "https://dc.lft.to/lastmile_qr_scan"}}, {"name": "0aaf5c81558a227c5539f8e66ae26c7b", "fusion_lat": 0.0, "type": "electric_scooter", "lat": 38.897233, "is_reserved": 0, "is_disabled": 0, "fusion_lon": 0.0, "bike_id": "0aaf5c81558a227c5539f8e66ae26c7b", "lon": -77.0471545, "rental_uris": {"ios": "https://dc.lft.to/lastmile_qr_scan", "android": "https://dc.lft.to/lastmile_qr_scan"}}, {"name": "5e5911dff0d5a2c0463860eed87f9e0f", "fusion_lat": 0.0, "type": "electric_scooter", "lat": 38.930566166666665, "is_reserved": 0, "is_disabled": 0, "fusion_lon": 0.0, "bike_id": "5e5911dff0d5a2c0463860eed87f9e0f", "lon": -77.023218, "rental_uris": {"ios": "https://dc.lft.to/lastmile_qr_scan", "android": "https://dc.lft.to/lastmile_qr_scan"}}, {"name": "2720ca7494177d23e11ca547005fd2b8", "fusion_lat": 0.0, "type": "electric_scooter", "lat": 38.93260433333333, "is_reserved": 0, "is_disabled": 0, "fusion_lon": 0.0, "bike_id": "2720ca7494177d23e11ca547005fd2b8", "lon": -77.03266766666667, "rental_uris": {"ios": "https://dc.lft.to/lastmile_qr_scan", "android": "https://dc.lft.to/lastmile_qr_scan"}}, {"name": "ba4ec92aad0544fdb32305cf9e6f573f", "fusion_lat": 0.0, "type": "electric_scooter", "lat": 38.901354166666664, "is_reserved": 0, "is_disabled": 0, "fusion_lon": 0.0, "bike_id": "ba4ec92aad0544fdb32305cf9e6f573f", "lon": -77.02530666666667, "rental_uris": {"ios": "https://dc.lft.to/lastmile_qr_scan", "android": "https://dc.lft.to/lastmile_qr_scan"}}, {"name": "e44defac4d82c4a0ca8a5118fc0e9446", "fusion_lat": 0.0, "type": "electric_scooter", "lat": 38.90281983333333, "is_reserved": 0, "is_disabled": 0, "fusion_lon": 0.0, "bike_id": "e44defac4d82c4a0ca8a5118fc0e9446", "lon": -77.04268433333333, "rental_uris": {"ios": "https://dc.lft.to/lastmile_qr_scan", "android": "https://dc.lft.to/lastmile_qr_scan"}}, {"name": "dc37d0d988b31a83c085b52afd378907", "fusion_lat": 0.0, "type": "electric_scooter", "lat": 38.91252766666667, "is_reserved": 0, "is_disabled": 0, "fusion_lon": 0.0, "bike_id": "dc37d0d988b31a83c085b52afd378907", "lon": -77.00766816666666, "rental_uris": {"ios": "https://dc.lft.to/lastmile_qr_scan", "android": "https://dc.lft.to/lastmile_qr_scan"}}, {"name": "7398a3b9cd69a0c19937a146311104d9", "fusion_lat": 0.0, "type": "electric_scooter", "lat": 38.916808, "is_reserved": 0, "is_disabled": 0, "fusion_lon": 0.0, "bike_id": "7398a3b9cd69a0c19937a146311104d9", "lon": -77.0122585, "rental_uris": {"ios": "https://dc.lft.to/lastmile_qr_scan", "android": "https://dc.lft.to/lastmile_qr_scan"}}, {"name": "c6cb6868bef2fdd31dc9b31b5a3a647d", "fusion_lat": 0.0, "type": "electric_scooter", "lat": 38.910138, "is_reserved": 0, "is_disabled": 0, "fusion_lon": 0.0, "bike_id": "c6cb6868bef2fdd31dc9b31b5a3a647d", "lon": -76.99670666666667, "rental_uris": {"ios": "https://dc.lft.to/lastmile_qr_scan", "android": "https://dc.lft.to/lastmile_qr_scan"}}, {"name": "4fe78c597b3567f8e3f993d11ae8e4ab", "fusion_lat": 0.0, "type": "electric_bike", "lat": 38.884000666666665, "is_reserved": 0, "is_disabled": 0, "fusion_lon": 0.0, "bike_id": "4fe78c597b3567f8e3f993d11ae8e4ab", "lon": -76.9606315, "rental_uris": {"ios": "https://dc.lft.to/lastmile_qr_scan", "android": "https://dc.lft.to/lastmile_qr_scan"}}, {"name": "6d6354071adb25eecf1e890986e721ce", "fusion_lat": 0.0, "type": "electric_scooter", "lat": 38.9002945, "is_reserved": 0, "is_disabled": 0, "fusion_lon": 0.0, "bike_id": "6d6354071adb25eecf1e890986e721ce", "lon": -77.04859033333334, "rental_uris": {"ios": "https://dc.lft.to/lastmile_qr_scan", "android": "https://dc.lft.to/lastmile_qr_scan"}}, {"name": "5ab413fa6199b6f3a08c34a4ddff42ac", "fusion_lat": 0.0, "type": "electric_scooter", "lat": 38.9193735, "is_reserved": 0, "is_disabled": 0, "fusion_lon": 0.0, "bike_id": "5ab413fa6199b6f3a08c34a4ddff42ac", "lon": -77.03437816666667, "rental_uris": {"ios": "https://dc.lft.to/lastmile_qr_scan", "android": "https://dc.lft.to/lastmile_qr_scan"}}, {"name": "c840ca1277ef3295076278077cb2c99e", "fusion_lat": 0.0, "type": "electric_scooter", "lat": 38.937047, "is_reserved": 0, "is_disabled": 0, "fusion_lon": 0.0, "bike_id": "c840ca1277ef3295076278077cb2c99e", "lon": -77.06102283333334, "rental_uris": {"ios": "https://dc.lft.to/lastmile_qr_scan", "android": "https://dc.lft.to/lastmile_qr_scan"}}, {"name": "e43040f44890d038b81b852321cbe2ee", "fusion_lat": 0.0, "type": "electric_scooter", "lat": 38.90026833333334, "is_reserved": 0, "is_disabled": 0, "fusion_lon": 0.0, "bike_id": "e43040f44890d038b81b852321cbe2ee", "lon": -76.98883616666667, "rental_uris": {"ios": "https://dc.lft.to/lastmile_qr_scan", "android": "https://dc.lft.to/lastmile_qr_scan"}}, {"name": "bc0275a88f6ae95ea30781a17f3af0e9", "fusion_lat": 0.0, "type": "electric_scooter", "lat": 38.84678566666667, "is_reserved": 0, "is_disabled": 0, "fusion_lon": 0.0, "bike_id": "bc0275a88f6ae95ea30781a17f3af0e9", "lon": -76.99202266666667, "rental_uris": {"ios": "https://dc.lft.to/lastmile_qr_scan", "android": "https://dc.lft.to/lastmile_qr_scan"}}, {"name": "862120fe1a59ce7da8e8a8a050cb3b13", "fusion_lat": 0.0, "type": "electric_scooter", "lat": 38.858036166666665, "is_reserved": 0, "is_disabled": 0, "fusion_lon": 0.0, "bike_id": "862120fe1a59ce7da8e8a8a050cb3b13", "lon": -76.98654283333333, "rental_uris": {"ios": "https://dc.lft.to/lastmile_qr_scan", "android": "https://dc.lft.to/lastmile_qr_scan"}}, {"name": "27a0b8e3a8d84422638f8b03d8b0a628", "fusion_lat": 0.0, "type": "electric_scooter", "lat": 38.932622333333335, "is_reserved": 0, "is_disabled": 0, "fusion_lon": 0.0, "bike_id": "27a0b8e3a8d84422638f8b03d8b0a628", "lon": -77.038942, "rental_uris": {"ios": "https://dc.lft.to/lastmile_qr_scan", "android": "https://dc.lft.to/lastmile_qr_scan"}}, {"name": "a9e33de2c8415369f234c43d2b49ecf9", "fusion_lat": 0.0, "type": "electric_scooter", "lat": 38.93821616666666, "is_reserved": 0, "is_disabled": 0, "fusion_lon": 0.0, "bike_id": "a9e33de2c8415369f234c43d2b49ecf9", "lon": -77.02475116666666, "rental_uris": {"ios": "https://dc.lft.to/lastmile_qr_scan", "android": "https://dc.lft.to/lastmile_qr_scan"}}, {"name": "4e42156ad12d1cf260e2064d48e10738", "fusion_lat": 0.0, "type": "electric_scooter", "lat": 38.857108833333335, "is_reserved": 0, "is_disabled": 0, "fusion_lon": 0.0, "bike_id": "4e42156ad12d1cf260e2064d48e10738", "lon": -76.980864, "rental_uris": {"ios": "https://dc.lft.to/lastmile_qr_scan", "android": "https://dc.lft.to/lastmile_qr_scan"}}, {"name": "765b80c8b604ddd8b0e6764c1dbafaf8", "fusion_lat": 0.0, "type": "electric_scooter", "lat": 38.9010405, "is_reserved": 0, "is_disabled": 0, "fusion_lon": 0.0, "bike_id": "765b80c8b604ddd8b0e6764c1dbafaf8", "lon": -77.05007633333334, "rental_uris": {"ios": "https://dc.lft.to/lastmile_qr_scan", "android": "https://dc.lft.to/lastmile_qr_scan"}}, {"name": "f52cc195d71f04e40a953bd07b9b5b39", "fusion_lat": 0.0, "type": "electric_scooter", "lat": 38.883054333333334, "is_reserved": 0, "is_disabled": 0, "fusion_lon": 0.0, "bike_id": "f52cc195d71f04e40a953bd07b9b5b39", "lon": -77.01647233333334, "rental_uris": {"ios": "https://dc.lft.to/lastmile_qr_scan", "android": "https://dc.lft.to/lastmile_qr_scan"}}, {"name": "3833f75461caa5b9ab5f9baf1f29188d", "fusion_lat": 0.0, "type": "electric_bike", "lat": 38.99057583333333, "is_reserved": 0, "is_disabled": 0, "fusion_lon": 0.0, "bike_id": "3833f75461caa5b9ab5f9baf1f29188d", "lon": -77.1002885, "rental_uris": {"ios": "https://dc.lft.to/lastmile_qr_scan", "android": "https://dc.lft.to/lastmile_qr_scan"}}, {"name": "38695df957af95683fa9e7fd61fd0b29", "fusion_lat": 0.0, "type": "electric_scooter", "lat": 38.89851, "is_reserved": 0, "is_disabled": 0, "fusion_lon": 0.0, "bike_id": "38695df957af95683fa9e7fd61fd0b29", "lon": -76.97666816666667, "rental_uris": {"ios": "https://dc.lft.to/lastmile_qr_scan", "android": "https://dc.lft.to/lastmile_qr_scan"}}, {"name": "4d3e034ab91dfe00a64bb9f9b8b1d85b", "fusion_lat": 0.0, "type": "electric_scooter", "lat": 38.902451166666665, "is_reserved": 0, "is_disabled": 0, "fusion_lon": 0.0, "bike_id": "4d3e034ab91dfe00a64bb9f9b8b1d85b", "lon": -77.04344066666667, "rental_uris": {"ios": "https://dc.lft.to/lastmile_qr_scan", "android": "https://dc.lft.to/lastmile_qr_scan"}}, {"name": "635b15d64946a1be279fe48490ae102d", "fusion_lat": 0.0, "type": "electric_scooter", "lat": 38.846307333333336, "is_reserved": 0, "is_disabled": 0, "fusion_lon": 0.0, "bike_id": "635b15d64946a1be279fe48490ae102d", "lon": -76.98437883333334, "rental_uris": {"ios": "https://dc.lft.to/lastmile_qr_scan", "android": "https://dc.lft.to/lastmile_qr_scan"}}, {"name": "ac91c659211af388c037a0ef17fb475a", "fusion_lat": 0.0, "type": "electric_scooter", "lat": 38.90586366666667, "is_reserved": 0, "is_disabled": 0, "fusion_lon": 0.0, "bike_id": "ac91c659211af388c037a0ef17fb475a", "lon": -77.01616733333333, "rental_uris": {"ios": "https://dc.lft.to/lastmile_qr_scan", "android": "https://dc.lft.to/lastmile_qr_scan"}}, {"name": "662845a89d3d84495f34a40767737bb1", "fusion_lat": 0.0, "type": "electric_scooter", "lat": 38.885042, "is_reserved": 0, "is_disabled": 0, "fusion_lon": 0.0, "bike_id": "662845a89d3d84495f34a40767737bb1", "lon": -77.01578583333334, "rental_uris": {"ios": "https://dc.lft.to/lastmile_qr_scan", "android": "https://dc.lft.to/lastmile_qr_scan"}}, {"name": "b24cc785651ba2a6ea466b94bc2bbe26", "fusion_lat": 0.0, "type": "electric_scooter", "lat": 38.92357583333333, "is_reserved": 0, "is_disabled": 0, "fusion_lon": 0.0, "bike_id": "b24cc785651ba2a6ea466b94bc2bbe26", "lon": -77.03366916666667, "rental_uris": {"ios": "https://dc.lft.to/lastmile_qr_scan", "android": "https://dc.lft.to/lastmile_qr_scan"}}, {"name": "16c4cfe8effc2a23e8683fa35dfb05ec", "fusion_lat": 0.0, "type": "electric_scooter", "lat": 38.8973165, "is_reserved": 0, "is_disabled": 0, "fusion_lon": 0.0, "bike_id": "16c4cfe8effc2a23e8683fa35dfb05ec", "lon": -77.0259305, "rental_uris": {"ios": "https://dc.lft.to/lastmile_qr_scan", "android": "https://dc.lft.to/lastmile_qr_scan"}}, {"name": "63e25a30168ad039823c966963ca0580", "fusion_lat": 0.0, "type": "electric_bike", "lat": 38.90715633333333, "is_reserved": 0, "is_disabled": 0, "fusion_lon": 0.0, "bike_id": "63e25a30168ad039823c966963ca0580", "lon": -77.0432905, "rental_uris": {"ios": "https://dc.lft.to/lastmile_qr_scan", "android": "https://dc.lft.to/lastmile_qr_scan"}}, {"name": "95c0711215246ae25461e2342b2cfab6", "fusion_lat": 0.0, "type": "electric_scooter", "lat": 38.900318, "is_reserved": 0, "is_disabled": 0, "fusion_lon": 0.0, "bike_id": "95c0711215246ae25461e2342b2cfab6", "lon": -77.04877666666667, "rental_uris": {"ios": "https://dc.lft.to/lastmile_qr_scan", "android": "https://dc.lft.to/lastmile_qr_scan"}}, {"name": "c699e8ab664cbc300607050710b79bbc", "fusion_lat": 0.0, "type": "electric_bike", "lat": 38.82869933333333, "is_reserved": 0, "is_disabled": 0, "fusion_lon": 0.0, "bike_id": "c699e8ab664cbc300607050710b79bbc", "lon": -77.11219, "rental_uris": {"ios": "https://dc.lft.to/lastmile_qr_scan", "android": "https://dc.lft.to/lastmile_qr_scan"}}, {"name": "d027f3b0d1bb29a537884df80da27134", "fusion_lat": 0.0, "type": "electric_bike", "lat": 38.990877166666664, "is_reserved": 0, "is_disabled": 0, "fusion_lon": 0.0, "bike_id": "d027f3b0d1bb29a537884df80da27134", "lon": -76.8749685, "rental_uris": {"ios": "https://dc.lft.to/lastmile_qr_scan", "android": "https://dc.lft.to/lastmile_qr_scan"}}, {"name": "58c4cfb89ffa2782140b493530bc9b37", "fusion_lat": 0.0, "type": "electric_scooter", "lat": 38.88737366666667, "is_reserved": 0, "is_disabled": 0, "fusion_lon": 0.0, "bike_id": "58c4cfb89ffa2782140b493530bc9b37", "lon": -77.02346033333333, "rental_uris": {"ios": "https://dc.lft.to/lastmile_qr_scan", "android": "https://dc.lft.to/lastmile_qr_scan"}}, {"name": "1294cefdd2e7f0cc1a3e35a17cb95bfa", "fusion_lat": 0.0, "type": "electric_scooter", "lat": 38.904881333333336, "is_reserved": 0, "is_disabled": 0, "fusion_lon": 0.0, "bike_id": "1294cefdd2e7f0cc1a3e35a17cb95bfa", "lon": -77.040484, "rental_uris": {"ios": "https://dc.lft.to/lastmile_qr_scan", "android": "https://dc.lft.to/lastmile_qr_scan"}}, {"name": "36cea37eea66b60802b38cc1cfc81f55", "fusion_lat": 0.0, "type": "electric_scooter", "lat": 38.899652, "is_reserved": 0, "is_disabled": 0, "fusion_lon": 0.0, "bike_id": "36cea37eea66b60802b38cc1cfc81f55", "lon": -77.05700366666666, "rental_uris": {"ios": "https://dc.lft.to/lastmile_qr_scan", "android": "https://dc.lft.to/lastmile_qr_scan"}}, {"name": "2b91b7e60bd99f17fc1c2cc323b19afd", "fusion_lat": 0.0, "type": "electric_scooter", "lat": 38.876445833333335, "is_reserved": 0, "is_disabled": 0, "fusion_lon": 0.0, "bike_id": "2b91b7e60bd99f17fc1c2cc323b19afd", "lon": -77.00804016666666, "rental_uris": {"ios": "https://dc.lft.to/lastmile_qr_scan", "android": "https://dc.lft.to/lastmile_qr_scan"}}, {"name": "e10ca5df28812f2cdec35af0c4ed1e89", "fusion_lat": 0.0, "type": "electric_scooter", "lat": 38.91805183333334, "is_reserved": 0, "is_disabled": 0, "fusion_lon": 0.0, "bike_id": "e10ca5df28812f2cdec35af0c4ed1e89", "lon": -77.03998416666667, "rental_uris": {"ios": "https://dc.lft.to/lastmile_qr_scan", "android": "https://dc.lft.to/lastmile_qr_scan"}}, {"name": "ac0b72c1dd4543bc8b186b1ed0c3d974", "fusion_lat": 0.0, "type": "electric_scooter", "lat": 38.90738616666667, "is_reserved": 0, "is_disabled": 0, "fusion_lon": 0.0, "bike_id": "ac0b72c1dd4543bc8b186b1ed0c3d974", "lon": -77.03467783333333, "rental_uris": {"ios": "https://dc.lft.to/lastmile_qr_scan", "android": "https://dc.lft.to/lastmile_qr_scan"}}, {"name": "073262a75ce1f52954e7bd469f9b7261", "fusion_lat": 0.0, "type": "electric_scooter", "lat": 38.896040666666664, "is_reserved": 0, "is_disabled": 0, "fusion_lon": 0.0, "bike_id": "073262a75ce1f52954e7bd469f9b7261", "lon": -77.04764833333333, "rental_uris": {"ios": "https://dc.lft.to/lastmile_qr_scan", "android": "https://dc.lft.to/lastmile_qr_scan"}}, {"name": "6eba219dd5d6f97a71c7f33a84f4fb8e", "fusion_lat": 0.0, "type": "electric_scooter", "lat": 38.926977666666666, "is_reserved": 0, "is_disabled": 0, "fusion_lon": 0.0, "bike_id": "6eba219dd5d6f97a71c7f33a84f4fb8e", "lon": -77.02072433333333, "rental_uris": {"ios": "https://dc.lft.to/lastmile_qr_scan", "android": "https://dc.lft.to/lastmile_qr_scan"}}, {"name": "6d892b9d0d1fb162ec001d18f77dce94", "fusion_lat": 0.0, "type": "electric_scooter", "lat": 38.90382433333333, "is_reserved": 0, "is_disabled": 0, "fusion_lon": 0.0, "bike_id": "6d892b9d0d1fb162ec001d18f77dce94", "lon": -77.030053, "rental_uris": {"ios": "https://dc.lft.to/lastmile_qr_scan", "android": "https://dc.lft.to/lastmile_qr_scan"}}, {"name": "d826d990bbd0e7b0fa639c2cd3261a8b", "fusion_lat": 0.0, "type": "electric_scooter", "lat": 38.93661766666666, "is_reserved": 0, "is_disabled": 0, "fusion_lon": 0.0, "bike_id": "d826d990bbd0e7b0fa639c2cd3261a8b", "lon": -77.0326215, "rental_uris": {"ios": "https://dc.lft.to/lastmile_qr_scan", "android": "https://dc.lft.to/lastmile_qr_scan"}}, {"name": "6da73f28c0c32681282b797ba33a16c9", "fusion_lat": 0.0, "type": "electric_scooter", "lat": 38.90733066666667, "is_reserved": 0, "is_disabled": 0, "fusion_lon": 0.0, "bike_id": "6da73f28c0c32681282b797ba33a16c9", "lon": -77.0269205, "rental_uris": {"ios": "https://dc.lft.to/lastmile_qr_scan", "android": "https://dc.lft.to/lastmile_qr_scan"}}, {"name": "1ad8879fa4317cafc0c061b09f13c753", "fusion_lat": 0.0, "type": "electric_scooter", "lat": 38.914024, "is_reserved": 0, "is_disabled": 0, "fusion_lon": 0.0, "bike_id": "1ad8879fa4317cafc0c061b09f13c753", "lon": -77.03996733333334, "rental_uris": {"ios": "https://dc.lft.to/lastmile_qr_scan", "android": "https://dc.lft.to/lastmile_qr_scan"}}, {"name": "ca982e7f1109315ac7e737ca570fece5", "fusion_lat": 0.0, "type": "electric_scooter", "lat": 38.9063125, "is_reserved": 0, "is_disabled": 0, "fusion_lon": 0.0, "bike_id": "ca982e7f1109315ac7e737ca570fece5", "lon": -77.00581016666666, "rental_uris": {"ios": "https://dc.lft.to/lastmile_qr_scan", "android": "https://dc.lft.to/lastmile_qr_scan"}}, {"name": "a8cae1e84cfbf330fa6e2482b2ae7fdc", "fusion_lat": 0.0, "type": "electric_scooter", "lat": 38.9120495, "is_reserved": 0, "is_disabled": 0, "fusion_lon": 0.0, "bike_id": "a8cae1e84cfbf330fa6e2482b2ae7fdc", "lon": -77.04461833333333, "rental_uris": {"ios": "https://dc.lft.to/lastmile_qr_scan", "android": "https://dc.lft.to/lastmile_qr_scan"}}, {"name": "07e8c5a38d26e8f3eb59ec8694338473", "fusion_lat": 0.0, "type": "electric_scooter", "lat": 38.87812133333333, "is_reserved": 0, "is_disabled": 0, "fusion_lon": 0.0, "bike_id": "07e8c5a38d26e8f3eb59ec8694338473", "lon": -77.00344816666667, "rental_uris": {"ios": "https://dc.lft.to/lastmile_qr_scan", "android": "https://dc.lft.to/lastmile_qr_scan"}}, {"name": "0e03d70f3be466766b6a9fc35516a433", "fusion_lat": 0.0, "type": "electric_scooter", "lat": 38.91709266666667, "is_reserved": 0, "is_disabled": 0, "fusion_lon": 0.0, "bike_id": "0e03d70f3be466766b6a9fc35516a433", "lon": -77.03546283333333, "rental_uris": {"ios": "https://dc.lft.to/lastmile_qr_scan", "android": "https://dc.lft.to/lastmile_qr_scan"}}, {"name": "d78d3a91230b4d883818d80104d480e6", "fusion_lat": 0.0, "type": "electric_scooter", "lat": 38.8921865, "is_reserved": 0, "is_disabled": 0, "fusion_lon": 0.0, "bike_id": "d78d3a91230b4d883818d80104d480e6", "lon": -77.0137325, "rental_uris": {"ios": "https://dc.lft.to/lastmile_qr_scan", "android": "https://dc.lft.to/lastmile_qr_scan"}}, {"name": "44f354a6c1e176c7e618c51051aa34f6", "fusion_lat": 0.0, "type": "electric_bike", "lat": 38.853739166666664, "is_reserved": 0, "is_disabled": 0, "fusion_lon": 0.0, "bike_id": "44f354a6c1e176c7e618c51051aa34f6", "lon": -77.09866233333334, "rental_uris": {"ios": "https://dc.lft.to/lastmile_qr_scan", "android": "https://dc.lft.to/lastmile_qr_scan"}}, {"name": "909b16543a248ef1bd01b660c0233c44", "fusion_lat": 0.0, "type": "electric_scooter", "lat": 38.9087545, "is_reserved": 0, "is_disabled": 0, "fusion_lon": 0.0, "bike_id": "909b16543a248ef1bd01b660c0233c44", "lon": -77.07585716666667, "rental_uris": {"ios": "https://dc.lft.to/lastmile_qr_scan", "android": "https://dc.lft.to/lastmile_qr_scan"}}, {"name": "658644ad464aa7f9b1878ea67dd73bd8", "fusion_lat": 0.0, "type": "electric_scooter", "lat": 38.9176935, "is_reserved": 0, "is_disabled": 0, "fusion_lon": 0.0, "bike_id": "658644ad464aa7f9b1878ea67dd73bd8", "lon": -77.04748933333333, "rental_uris": {"ios": "https://dc.lft.to/lastmile_qr_scan", "android": "https://dc.lft.to/lastmile_qr_scan"}}, {"name": "ac3aa8ae35aa1a705919dd99a9bf853b", "fusion_lat": 0.0, "type": "electric_scooter", "lat": 38.92908083333333, "is_reserved": 0, "is_disabled": 0, "fusion_lon": 0.0, "bike_id": "ac3aa8ae35aa1a705919dd99a9bf853b", "lon": -77.01959, "rental_uris": {"ios": "https://dc.lft.to/lastmile_qr_scan", "android": "https://dc.lft.to/lastmile_qr_scan"}}, {"name": "24f4ba1866b9b0e043203c0b1d5d6a6f", "fusion_lat": 0.0, "type": "electric_scooter", "lat": 38.916911, "is_reserved": 0, "is_disabled": 0, "fusion_lon": 0.0, "bike_id": "24f4ba1866b9b0e043203c0b1d5d6a6f", "lon": -77.02889016666667, "rental_uris": {"ios": "https://dc.lft.to/lastmile_qr_scan", "android": "https://dc.lft.to/lastmile_qr_scan"}}, {"name": "76bb70d8abbd9a00836b612fb2ad0df2", "fusion_lat": 0.0, "type": "electric_scooter", "lat": 38.90959433333333, "is_reserved": 0, "is_disabled": 0, "fusion_lon": 0.0, "bike_id": "76bb70d8abbd9a00836b612fb2ad0df2", "lon": -77.03888966666666, "rental_uris": {"ios": "https://dc.lft.to/lastmile_qr_scan", "android": "https://dc.lft.to/lastmile_qr_scan"}}, {"name": "5c959d4127662b107e40e4485d18711e", "fusion_lat": 0.0, "type": "electric_scooter", "lat": 38.91799316666667, "is_reserved": 0, "is_disabled": 0, "fusion_lon": 0.0, "bike_id": "5c959d4127662b107e40e4485d18711e", "lon": -77.02815983333333, "rental_uris": {"ios": "https://dc.lft.to/lastmile_qr_scan", "android": "https://dc.lft.to/lastmile_qr_scan"}}, {"name": "d7e74a3efba1dfa37187db903275d83c", "fusion_lat": 0.0, "type": "electric_scooter", "lat": 38.918177, "is_reserved": 0, "is_disabled": 0, "fusion_lon": 0.0, "bike_id": "d7e74a3efba1dfa37187db903275d83c", "lon": -77.04016083333333, "rental_uris": {"ios": "https://dc.lft.to/lastmile_qr_scan", "android": "https://dc.lft.to/lastmile_qr_scan"}}, {"name": "60fda328815c44bd0738dd4a69b93259", "fusion_lat": 0.0, "type": "electric_scooter", "lat": 38.90135816666667, "is_reserved": 0, "is_disabled": 0, "fusion_lon": 0.0, "bike_id": "60fda328815c44bd0738dd4a69b93259", "lon": -76.99967783333334, "rental_uris": {"ios": "https://dc.lft.to/lastmile_qr_scan", "android": "https://dc.lft.to/lastmile_qr_scan"}}, {"name": "b609eb511d7edaa3f1caf7948d326daa", "fusion_lat": 0.0, "type": "electric_scooter", "lat": 38.9308405, "is_reserved": 0, "is_disabled": 0, "fusion_lon": 0.0, "bike_id": "b609eb511d7edaa3f1caf7948d326daa", "lon": -77.02390933333334, "rental_uris": {"ios": "https://dc.lft.to/lastmile_qr_scan", "android": "https://dc.lft.to/lastmile_qr_scan"}}, {"name": "7c2668ad1a20e61f3710f6c4a7f0dc86", "fusion_lat": 0.0, "type": "electric_scooter", "lat": 38.93421683333333, "is_reserved": 0, "is_disabled": 0, "fusion_lon": 0.0, "bike_id": "7c2668ad1a20e61f3710f6c4a7f0dc86", "lon": -77.03996666666667, "rental_uris": {"ios": "https://dc.lft.to/lastmile_qr_scan", "android": "https://dc.lft.to/lastmile_qr_scan"}}, {"name": "7927d2062d3c3d03ad199426bb7bd8b6", "fusion_lat": 0.0, "type": "electric_bike", "lat": 38.97321616666667, "is_reserved": 0, "is_disabled": 0, "fusion_lon": 0.0, "bike_id": "7927d2062d3c3d03ad199426bb7bd8b6", "lon": -77.021484, "rental_uris": {"ios": "https://dc.lft.to/lastmile_qr_scan", "android": "https://dc.lft.to/lastmile_qr_scan"}}, {"name": "27f5d0652b364edd7306447d452361c3", "fusion_lat": 0.0, "type": "electric_scooter", "lat": 38.899136, "is_reserved": 0, "is_disabled": 0, "fusion_lon": 0.0, "bike_id": "27f5d0652b364edd7306447d452361c3", "lon": -76.9338145, "rental_uris": {"ios": "https://dc.lft.to/lastmile_qr_scan", "android": "https://dc.lft.to/lastmile_qr_scan"}}, {"name": "9d4cac83b99cbd3fd2dc7b2c4b41716a", "fusion_lat": 0.0, "type": "electric_bike", "lat": 38.90283566666667, "is_reserved": 0, "is_disabled": 0, "fusion_lon": 0.0, "bike_id": "9d4cac83b99cbd3fd2dc7b2c4b41716a", "lon": -76.9808485, "rental_uris": {"ios": "https://dc.lft.to/lastmile_qr_scan", "android": "https://dc.lft.to/lastmile_qr_scan"}}, {"name": "807417f43915c0c433326fb8b3ee85a6", "fusion_lat": 0.0, "type": "electric_scooter", "lat": 38.903126, "is_reserved": 0, "is_disabled": 0, "fusion_lon": 0.0, "bike_id": "807417f43915c0c433326fb8b3ee85a6", "lon": -77.038474, "rental_uris": {"ios": "https://dc.lft.to/lastmile_qr_scan", "android": "https://dc.lft.to/lastmile_qr_scan"}}, {"name": "d4a05d868b31969d4f364f1d26a62c0f", "fusion_lat": 0.0, "type": "electric_bike", "lat": 38.882413166666666, "is_reserved": 0, "is_disabled": 0, "fusion_lon": 0.0, "bike_id": "d4a05d868b31969d4f364f1d26a62c0f", "lon": -77.17984133333333, "rental_uris": {"ios": "https://dc.lft.to/lastmile_qr_scan", "android": "https://dc.lft.to/lastmile_qr_scan"}}, {"name": "98e422ac6b15629ed3d0bc58f4efcc21", "fusion_lat": 0.0, "type": "electric_bike", "lat": 38.86159216666667, "is_reserved": 0, "is_disabled": 0, "fusion_lon": 0.0, "bike_id": "98e422ac6b15629ed3d0bc58f4efcc21", "lon": -77.13092283333333, "rental_uris": {"ios": "https://dc.lft.to/lastmile_qr_scan", "android": "https://dc.lft.to/lastmile_qr_scan"}}, {"name": "968605b077ab20f854d2684d22667ffb", "fusion_lat": 0.0, "type": "electric_scooter", "lat": 38.90256883333333, "is_reserved": 0, "is_disabled": 0, "fusion_lon": 0.0, "bike_id": "968605b077ab20f854d2684d22667ffb", "lon": -77.03060333333333, "rental_uris": {"ios": "https://dc.lft.to/lastmile_qr_scan", "android": "https://dc.lft.to/lastmile_qr_scan"}}, {"name": "bb701116cb917a3eca40932e9af8ce64", "fusion_lat": 0.0, "type": "electric_scooter", "lat": 38.89229666666667, "is_reserved": 0, "is_disabled": 0, "fusion_lon": 0.0, "bike_id": "bb701116cb917a3eca40932e9af8ce64", "lon": -77.03176766666667, "rental_uris": {"ios": "https://dc.lft.to/lastmile_qr_scan", "android": "https://dc.lft.to/lastmile_qr_scan"}}, {"name": "68e867d03d84c918568193c77441f621", "fusion_lat": 0.0, "type": "electric_scooter", "lat": 38.8832615, "is_reserved": 0, "is_disabled": 0, "fusion_lon": 0.0, "bike_id": "68e867d03d84c918568193c77441f621", "lon": -77.02313233333334, "rental_uris": {"ios": "https://dc.lft.to/lastmile_qr_scan", "android": "https://dc.lft.to/lastmile_qr_scan"}}, {"name": "245b68420e1232ab0f465da5cb7beb0a", "fusion_lat": 0.0, "type": "electric_scooter", "lat": 38.9217435, "is_reserved": 0, "is_disabled": 0, "fusion_lon": 0.0, "bike_id": "245b68420e1232ab0f465da5cb7beb0a", "lon": -77.02660666666667, "rental_uris": {"ios": "https://dc.lft.to/lastmile_qr_scan", "android": "https://dc.lft.to/lastmile_qr_scan"}}, {"name": "6e5fc87fe1773d4c4532d0661e43bc82", "fusion_lat": 0.0, "type": "electric_scooter", "lat": 38.8972705, "is_reserved": 0, "is_disabled": 0, "fusion_lon": 0.0, "bike_id": "6e5fc87fe1773d4c4532d0661e43bc82", "lon": -77.0495145, "rental_uris": {"ios": "https://dc.lft.to/lastmile_qr_scan", "android": "https://dc.lft.to/lastmile_qr_scan"}}, {"name": "01db5148d58680c9ce841c879b75ffab", "fusion_lat": 0.0, "type": "electric_bike", "lat": 38.96757933333333, "is_reserved": 0, "is_disabled": 0, "fusion_lon": 0.0, "bike_id": "01db5148d58680c9ce841c879b75ffab", "lon": -77.0916095, "rental_uris": {"ios": "https://dc.lft.to/lastmile_qr_scan", "android": "https://dc.lft.to/lastmile_qr_scan"}}, {"name": "3528efee3b012ac686992f419fa0775e", "fusion_lat": 0.0, "type": "electric_scooter", "lat": 38.91337216666667, "is_reserved": 0, "is_disabled": 0, "fusion_lon": 0.0, "bike_id": "3528efee3b012ac686992f419fa0775e", "lon": -77.002256, "rental_uris": {"ios": "https://dc.lft.to/lastmile_qr_scan", "android": "https://dc.lft.to/lastmile_qr_scan"}}, {"name": "0c711274a1409f24fc82ce071450e28d", "fusion_lat": 0.0, "type": "electric_scooter", "lat": 38.88743766666666, "is_reserved": 0, "is_disabled": 0, "fusion_lon": 0.0, "bike_id": "0c711274a1409f24fc82ce071450e28d", "lon": -77.015419, "rental_uris": {"ios": "https://dc.lft.to/lastmile_qr_scan", "android": "https://dc.lft.to/lastmile_qr_scan"}}, {"name": "ddfdccab41cec42c26b8a3c9f8dd3546", "fusion_lat": 0.0, "type": "electric_scooter", "lat": 38.91402166666666, "is_reserved": 0, "is_disabled": 0, "fusion_lon": 0.0, "bike_id": "ddfdccab41cec42c26b8a3c9f8dd3546", "lon": -77.0080435, "rental_uris": {"ios": "https://dc.lft.to/lastmile_qr_scan", "android": "https://dc.lft.to/lastmile_qr_scan"}}, {"name": "c256d7020581f1de58416faa33bfde76", "fusion_lat": 0.0, "type": "electric_scooter", "lat": 38.9247325, "is_reserved": 0, "is_disabled": 0, "fusion_lon": 0.0, "bike_id": "c256d7020581f1de58416faa33bfde76", "lon": -77.022519, "rental_uris": {"ios": "https://dc.lft.to/lastmile_qr_scan", "android": "https://dc.lft.to/lastmile_qr_scan"}}, {"name": "b7b1a3bf83c6605401f395e0a05337d1", "fusion_lat": 0.0, "type": "electric_scooter", "lat": 38.90229983333333, "is_reserved": 0, "is_disabled": 0, "fusion_lon": 0.0, "bike_id": "b7b1a3bf83c6605401f395e0a05337d1", "lon": -76.97405883333333, "rental_uris": {"ios": "https://dc.lft.to/lastmile_qr_scan", "android": "https://dc.lft.to/lastmile_qr_scan"}}, {"name": "eeecd1fcfe1ed91a6437f8520aaf4f81", "fusion_lat": 0.0, "type": "electric_scooter", "lat": 38.91112866666667, "is_reserved": 0, "is_disabled": 0, "fusion_lon": 0.0, "bike_id": "eeecd1fcfe1ed91a6437f8520aaf4f81", "lon": -77.03858133333334, "rental_uris": {"ios": "https://dc.lft.to/lastmile_qr_scan", "android": "https://dc.lft.to/lastmile_qr_scan"}}, {"name": "891a7e74dfbf0cce0abc8fd926237bcb", "fusion_lat": 0.0, "type": "electric_scooter", "lat": 38.9125595, "is_reserved": 0, "is_disabled": 0, "fusion_lon": 0.0, "bike_id": "891a7e74dfbf0cce0abc8fd926237bcb", "lon": -77.0386685, "rental_uris": {"ios": "https://dc.lft.to/lastmile_qr_scan", "android": "https://dc.lft.to/lastmile_qr_scan"}}, {"name": "fe63cf213813a499c2dc785c3a12f1b6", "fusion_lat": 0.0, "type": "electric_scooter", "lat": 38.89762266666666, "is_reserved": 0, "is_disabled": 0, "fusion_lon": 0.0, "bike_id": "fe63cf213813a499c2dc785c3a12f1b6", "lon": -77.0257965, "rental_uris": {"ios": "https://dc.lft.to/lastmile_qr_scan", "android": "https://dc.lft.to/lastmile_qr_scan"}}, {"name": "e1cf930e7c710144dcd7e2b704b954f4", "fusion_lat": 0.0, "type": "electric_scooter", "lat": 38.931096, "is_reserved": 0, "is_disabled": 0, "fusion_lon": 0.0, "bike_id": "e1cf930e7c710144dcd7e2b704b954f4", "lon": -77.035096, "rental_uris": {"ios": "https://dc.lft.to/lastmile_qr_scan", "android": "https://dc.lft.to/lastmile_qr_scan"}}, {"name": "6d7764ba4adaf91c7fbebad35d60edad", "fusion_lat": 0.0, "type": "electric_scooter", "lat": 38.8850445, "is_reserved": 0, "is_disabled": 0, "fusion_lon": 0.0, "bike_id": "6d7764ba4adaf91c7fbebad35d60edad", "lon": -77.00568766666666, "rental_uris": {"ios": "https://dc.lft.to/lastmile_qr_scan", "android": "https://dc.lft.to/lastmile_qr_scan"}}, {"name": "0166e08a8de4ac92dfe8834c1f68470f", "fusion_lat": 0.0, "type": "electric_scooter", "lat": 38.90854866666667, "is_reserved": 0, "is_disabled": 0, "fusion_lon": 0.0, "bike_id": "0166e08a8de4ac92dfe8834c1f68470f", "lon": -76.9979405, "rental_uris": {"ios": "https://dc.lft.to/lastmile_qr_scan", "android": "https://dc.lft.to/lastmile_qr_scan"}}, {"name": "dc4b6988d117dc7ee3b65186f2f56cb2", "fusion_lat": 0.0, "type": "electric_bike", "lat": 38.853204, "is_reserved": 0, "is_disabled": 0, "fusion_lon": 0.0, "bike_id": "dc4b6988d117dc7ee3b65186f2f56cb2", "lon": -76.98013066666667, "rental_uris": {"ios": "https://dc.lft.to/lastmile_qr_scan", "android": "https://dc.lft.to/lastmile_qr_scan"}}, {"name": "b965471987753a8313e9afeed0f7edc0", "fusion_lat": 0.0, "type": "electric_scooter", "lat": 38.92766, "is_reserved": 0, "is_disabled": 0, "fusion_lon": 0.0, "bike_id": "b965471987753a8313e9afeed0f7edc0", "lon": -77.02778816666667, "rental_uris": {"ios": "https://dc.lft.to/lastmile_qr_scan", "android": "https://dc.lft.to/lastmile_qr_scan"}}, {"name": "79b93ab889ec132a079bddb1aec2ba2d", "fusion_lat": 0.0, "type": "electric_scooter", "lat": 38.895455, "is_reserved": 0, "is_disabled": 0, "fusion_lon": 0.0, "bike_id": "79b93ab889ec132a079bddb1aec2ba2d", "lon": -76.94872916666667, "rental_uris": {"ios": "https://dc.lft.to/lastmile_qr_scan", "android": "https://dc.lft.to/lastmile_qr_scan"}}, {"name": "45228aa1856e8d86c3c978ca14b6ad9b", "fusion_lat": 0.0, "type": "electric_scooter", "lat": 38.925945, "is_reserved": 0, "is_disabled": 0, "fusion_lon": 0.0, "bike_id": "45228aa1856e8d86c3c978ca14b6ad9b", "lon": -77.0250245, "rental_uris": {"ios": "https://dc.lft.to/lastmile_qr_scan", "android": "https://dc.lft.to/lastmile_qr_scan"}}, {"name": "7d3e054f5a3c1962692d20d43159f286", "fusion_lat": 0.0, "type": "electric_scooter", "lat": 38.9234535, "is_reserved": 0, "is_disabled": 0, "fusion_lon": 0.0, "bike_id": "7d3e054f5a3c1962692d20d43159f286", "lon": -77.035391, "rental_uris": {"ios": "https://dc.lft.to/lastmile_qr_scan", "android": "https://dc.lft.to/lastmile_qr_scan"}}, {"name": "52accc895e198370e04bc6d84afe6baf", "fusion_lat": 0.0, "type": "electric_scooter", "lat": 38.927001833333335, "is_reserved": 0, "is_disabled": 0, "fusion_lon": 0.0, "bike_id": "52accc895e198370e04bc6d84afe6baf", "lon": -77.03722166666667, "rental_uris": {"ios": "https://dc.lft.to/lastmile_qr_scan", "android": "https://dc.lft.to/lastmile_qr_scan"}}, {"name": "777658e581aab060af0f5de50dd22686", "fusion_lat": 0.0, "type": "electric_scooter", "lat": 38.91121716666667, "is_reserved": 0, "is_disabled": 0, "fusion_lon": 0.0, "bike_id": "777658e581aab060af0f5de50dd22686", "lon": -77.04772366666667, "rental_uris": {"ios": "https://dc.lft.to/lastmile_qr_scan", "android": "https://dc.lft.to/lastmile_qr_scan"}}, {"name": "2da1bd134e344a9130d036f871f0a61c", "fusion_lat": 0.0, "type": "electric_scooter", "lat": 38.898476, "is_reserved": 0, "is_disabled": 0, "fusion_lon": 0.0, "bike_id": "2da1bd134e344a9130d036f871f0a61c", "lon": -77.03309266666666, "rental_uris": {"ios": "https://dc.lft.to/lastmile_qr_scan", "android": "https://dc.lft.to/lastmile_qr_scan"}}, {"name": "2967af40c1d346ac3b065c305d2183c8", "fusion_lat": 0.0, "type": "electric_scooter", "lat": 38.931064, "is_reserved": 0, "is_disabled": 0, "fusion_lon": 0.0, "bike_id": "2967af40c1d346ac3b065c305d2183c8", "lon": -77.0383955, "rental_uris": {"ios": "https://dc.lft.to/lastmile_qr_scan", "android": "https://dc.lft.to/lastmile_qr_scan"}}, {"name": "e29e932693c8c5a1b63ff0b11c45f0b7", "fusion_lat": 0.0, "type": "electric_scooter", "lat": 38.91777283333333, "is_reserved": 0, "is_disabled": 0, "fusion_lon": 0.0, "bike_id": "e29e932693c8c5a1b63ff0b11c45f0b7", "lon": -77.0234575, "rental_uris": {"ios": "https://dc.lft.to/lastmile_qr_scan", "android": "https://dc.lft.to/lastmile_qr_scan"}}, {"name": "45ceb18dba390b43c47ae77d6c06d0ff", "fusion_lat": 0.0, "type": "electric_scooter", "lat": 38.9393585, "is_reserved": 0, "is_disabled": 0, "fusion_lon": 0.0, "bike_id": "45ceb18dba390b43c47ae77d6c06d0ff", "lon": -77.03616216666667, "rental_uris": {"ios": "https://dc.lft.to/lastmile_qr_scan", "android": "https://dc.lft.to/lastmile_qr_scan"}}, {"name": "2993965b1bf29f8749a74e66fddcbbb2", "fusion_lat": 0.0, "type": "electric_scooter", "lat": 38.9028005, "is_reserved": 0, "is_disabled": 0, "fusion_lon": 0.0, "bike_id": "2993965b1bf29f8749a74e66fddcbbb2", "lon": -77.06268116666666, "rental_uris": {"ios": "https://dc.lft.to/lastmile_qr_scan", "android": "https://dc.lft.to/lastmile_qr_scan"}}, {"name": "5146c8ac2edeb4507c2bc1dcd753f697", "fusion_lat": 0.0, "type": "electric_scooter", "lat": 38.91188616666667, "is_reserved": 0, "is_disabled": 0, "fusion_lon": 0.0, "bike_id": "5146c8ac2edeb4507c2bc1dcd753f697", "lon": -77.00718766666667, "rental_uris": {"ios": "https://dc.lft.to/lastmile_qr_scan", "android": "https://dc.lft.to/lastmile_qr_scan"}}, {"name": "75e6fdd02654176b59d339f39a0dde9e", "fusion_lat": 0.0, "type": "electric_bike", "lat": 38.935392666666665, "is_reserved": 0, "is_disabled": 0, "fusion_lon": 0.0, "bike_id": "75e6fdd02654176b59d339f39a0dde9e", "lon": -77.08230816666666, "rental_uris": {"ios": "https://dc.lft.to/lastmile_qr_scan", "android": "https://dc.lft.to/lastmile_qr_scan"}}, {"name": "5c35defe594461ab4b45016983a80566", "fusion_lat": 0.0, "type": "electric_scooter", "lat": 38.907338833333334, "is_reserved": 0, "is_disabled": 0, "fusion_lon": 0.0, "bike_id": "5c35defe594461ab4b45016983a80566", "lon": -77.0466875, "rental_uris": {"ios": "https://dc.lft.to/lastmile_qr_scan", "android": "https://dc.lft.to/lastmile_qr_scan"}}, {"name": "43afef3e3bf0414a12a849b9844bc2cb", "fusion_lat": 0.0, "type": "electric_bike", "lat": 38.892792, "is_reserved": 0, "is_disabled": 0, "fusion_lon": 0.0, "bike_id": "43afef3e3bf0414a12a849b9844bc2cb", "lon": -77.0135515, "rental_uris": {"ios": "https://dc.lft.to/lastmile_qr_scan", "android": "https://dc.lft.to/lastmile_qr_scan"}}, {"name": "aabb932bcc85c15203b71b9a8e94c8fd", "fusion_lat": 0.0, "type": "electric_scooter", "lat": 38.9109645, "is_reserved": 0, "is_disabled": 0, "fusion_lon": 0.0, "bike_id": "aabb932bcc85c15203b71b9a8e94c8fd", "lon": -77.01057166666666, "rental_uris": {"ios": "https://dc.lft.to/lastmile_qr_scan", "android": "https://dc.lft.to/lastmile_qr_scan"}}, {"name": "9eecafae5d45898c8606162dccdd7227", "fusion_lat": 0.0, "type": "electric_scooter", "lat": 38.9050565, "is_reserved": 0, "is_disabled": 0, "fusion_lon": 0.0, "bike_id": "9eecafae5d45898c8606162dccdd7227", "lon": -77.0693755, "rental_uris": {"ios": "https://dc.lft.to/lastmile_qr_scan", "android": "https://dc.lft.to/lastmile_qr_scan"}}, {"name": "dface20cbd934fa9c30b07b0a29d5308", "fusion_lat": 0.0, "type": "electric_scooter", "lat": 38.923186666666666, "is_reserved": 0, "is_disabled": 0, "fusion_lon": 0.0, "bike_id": "dface20cbd934fa9c30b07b0a29d5308", "lon": -77.054642, "rental_uris": {"ios": "https://dc.lft.to/lastmile_qr_scan", "android": "https://dc.lft.to/lastmile_qr_scan"}}, {"name": "5a93e68114b86c5c14544d009b38268a", "fusion_lat": 0.0, "type": "electric_scooter", "lat": 38.909692666666665, "is_reserved": 0, "is_disabled": 0, "fusion_lon": 0.0, "bike_id": "5a93e68114b86c5c14544d009b38268a", "lon": -77.01711016666667, "rental_uris": {"ios": "https://dc.lft.to/lastmile_qr_scan", "android": "https://dc.lft.to/lastmile_qr_scan"}}, {"name": "a183bda953180bb4e1d5da5ae51067ff", "fusion_lat": 0.0, "type": "electric_bike", "lat": 38.92863283333333, "is_reserved": 0, "is_disabled": 0, "fusion_lon": 0.0, "bike_id": "a183bda953180bb4e1d5da5ae51067ff", "lon": -76.961047, "rental_uris": {"ios": "https://dc.lft.to/lastmile_qr_scan", "android": "https://dc.lft.to/lastmile_qr_scan"}}, {"name": "b6d6e3f384412a414b63a2b1caf89db4", "fusion_lat": 0.0, "type": "electric_scooter", "lat": 38.9058015, "is_reserved": 0, "is_disabled": 0, "fusion_lon": 0.0, "bike_id": "b6d6e3f384412a414b63a2b1caf89db4", "lon": -77.04878216666667, "rental_uris": {"ios": "https://dc.lft.to/lastmile_qr_scan", "android": "https://dc.lft.to/lastmile_qr_scan"}}, {"name": "e9eb94ea82158a77c7c2ae3d771457a4", "fusion_lat": 0.0, "type": "electric_scooter", "lat": 38.930166666666665, "is_reserved": 0, "is_disabled": 0, "fusion_lon": 0.0, "bike_id": "e9eb94ea82158a77c7c2ae3d771457a4", "lon": -77.037842, "rental_uris": {"ios": "https://dc.lft.to/lastmile_qr_scan", "android": "https://dc.lft.to/lastmile_qr_scan"}}, {"name": "791c38750156b4beeaee6081973e8ad2", "fusion_lat": 0.0, "type": "electric_scooter", "lat": 38.90620416666667, "is_reserved": 0, "is_disabled": 0, "fusion_lon": 0.0, "bike_id": "791c38750156b4beeaee6081973e8ad2", "lon": -77.03889383333333, "rental_uris": {"ios": "https://dc.lft.to/lastmile_qr_scan", "android": "https://dc.lft.to/lastmile_qr_scan"}}, {"name": "4f347b0870a9940fed470e94394aaa5a", "fusion_lat": 0.0, "type": "electric_scooter", "lat": 38.8984395, "is_reserved": 0, "is_disabled": 0, "fusion_lon": 0.0, "bike_id": "4f347b0870a9940fed470e94394aaa5a", "lon": -77.02006933333334, "rental_uris": {"ios": "https://dc.lft.to/lastmile_qr_scan", "android": "https://dc.lft.to/lastmile_qr_scan"}}, {"name": "097cc980cd9b628e8701d9114cdbab32", "fusion_lat": 0.0, "type": "electric_scooter", "lat": 38.938724, "is_reserved": 0, "is_disabled": 0, "fusion_lon": 0.0, "bike_id": "097cc980cd9b628e8701d9114cdbab32", "lon": -77.03257783333333, "rental_uris": {"ios": "https://dc.lft.to/lastmile_qr_scan", "android": "https://dc.lft.to/lastmile_qr_scan"}}, {"name": "e516be4f5a4a17610c82658a1c181826", "fusion_lat": 0.0, "type": "electric_scooter", "lat": 38.965565166666664, "is_reserved": 0, "is_disabled": 0, "fusion_lon": 0.0, "bike_id": "e516be4f5a4a17610c82658a1c181826", "lon": -77.01619016666666, "rental_uris": {"ios": "https://dc.lft.to/lastmile_qr_scan", "android": "https://dc.lft.to/lastmile_qr_scan"}}, {"name": "14d664954a9438ddd9e33c6d770e6a04", "fusion_lat": 0.0, "type": "electric_scooter", "lat": 38.90416966666667, "is_reserved": 0, "is_disabled": 0, "fusion_lon": 0.0, "bike_id": "14d664954a9438ddd9e33c6d770e6a04", "lon": -77.0260265, "rental_uris": {"ios": "https://dc.lft.to/lastmile_qr_scan", "android": "https://dc.lft.to/lastmile_qr_scan"}}, {"name": "6c6b85d03b11b2ec3c85c846c78dc6b2", "fusion_lat": 0.0, "type": "electric_scooter", "lat": 38.926809, "is_reserved": 0, "is_disabled": 0, "fusion_lon": 0.0, "bike_id": "6c6b85d03b11b2ec3c85c846c78dc6b2", "lon": -77.02778983333333, "rental_uris": {"ios": "https://dc.lft.to/lastmile_qr_scan", "android": "https://dc.lft.to/lastmile_qr_scan"}}, {"name": "9e7abe1259f62d16adf0019ff8a2f4ce", "fusion_lat": 0.0, "type": "electric_scooter", "lat": 38.931121166666664, "is_reserved": 0, "is_disabled": 0, "fusion_lon": 0.0, "bike_id": "9e7abe1259f62d16adf0019ff8a2f4ce", "lon": -77.03741683333334, "rental_uris": {"ios": "https://dc.lft.to/lastmile_qr_scan", "android": "https://dc.lft.to/lastmile_qr_scan"}}, {"name": "d49e8ac3ce06a5b8974b4ef8052ecc11", "fusion_lat": 0.0, "type": "electric_scooter", "lat": 38.902505166666664, "is_reserved": 0, "is_disabled": 0, "fusion_lon": 0.0, "bike_id": "d49e8ac3ce06a5b8974b4ef8052ecc11", "lon": -77.046061, "rental_uris": {"ios": "https://dc.lft.to/lastmile_qr_scan", "android": "https://dc.lft.to/lastmile_qr_scan"}}, {"name": "2282f8980772146e95488e1d1a4fcf64", "fusion_lat": 0.0, "type": "electric_bike", "lat": 38.8522425, "is_reserved": 0, "is_disabled": 0, "fusion_lon": 0.0, "bike_id": "2282f8980772146e95488e1d1a4fcf64", "lon": -77.103359, "rental_uris": {"ios": "https://dc.lft.to/lastmile_qr_scan", "android": "https://dc.lft.to/lastmile_qr_scan"}}, {"name": "9d421125aafd1d9d2410f5b987e30463", "fusion_lat": 0.0, "type": "electric_scooter", "lat": 38.9061925, "is_reserved": 0, "is_disabled": 0, "fusion_lon": 0.0, "bike_id": "9d421125aafd1d9d2410f5b987e30463", "lon": -77.03661516666666, "rental_uris": {"ios": "https://dc.lft.to/lastmile_qr_scan", "android": "https://dc.lft.to/lastmile_qr_scan"}}, {"name": "444ecf4b32915786eea571cfafc0cca3", "fusion_lat": 0.0, "type": "electric_scooter", "lat": 38.8803625, "is_reserved": 0, "is_disabled": 0, "fusion_lon": 0.0, "bike_id": "444ecf4b32915786eea571cfafc0cca3", "lon": -76.927206, "rental_uris": {"ios": "https://dc.lft.to/lastmile_qr_scan", "android": "https://dc.lft.to/lastmile_qr_scan"}}, {"name": "0d9e2e2679c8bef03d4f8f215445f5ef", "fusion_lat": 0.0, "type": "electric_scooter", "lat": 38.91405483333333, "is_reserved": 0, "is_disabled": 0, "fusion_lon": 0.0, "bike_id": "0d9e2e2679c8bef03d4f8f215445f5ef", "lon": -77.04566, "rental_uris": {"ios": "https://dc.lft.to/lastmile_qr_scan", "android": "https://dc.lft.to/lastmile_qr_scan"}}, {"name": "c40ff483b07744ea4847647b99688f18", "fusion_lat": 0.0, "type": "electric_bike", "lat": 38.98813616666666, "is_reserved": 0, "is_disabled": 0, "fusion_lon": 0.0, "bike_id": "c40ff483b07744ea4847647b99688f18", "lon": -77.026544, "rental_uris": {"ios": "https://dc.lft.to/lastmile_qr_scan", "android": "https://dc.lft.to/lastmile_qr_scan"}}, {"name": "72f3b561aed04c1e81801c700bbbeb38", "fusion_lat": 0.0, "type": "electric_bike", "lat": 38.88038016666667, "is_reserved": 0, "is_disabled": 0, "fusion_lon": 0.0, "bike_id": "72f3b561aed04c1e81801c700bbbeb38", "lon": -77.01323716666667, "rental_uris": {"ios": "https://dc.lft.to/lastmile_qr_scan", "android": "https://dc.lft.to/lastmile_qr_scan"}}, {"name": "ff343aeabdae0333b864651f19685716", "fusion_lat": 0.0, "type": "electric_scooter", "lat": 38.933946, "is_reserved": 0, "is_disabled": 0, "fusion_lon": 0.0, "bike_id": "ff343aeabdae0333b864651f19685716", "lon": -77.0272545, "rental_uris": {"ios": "https://dc.lft.to/lastmile_qr_scan", "android": "https://dc.lft.to/lastmile_qr_scan"}}, {"name": "18f19f196b85e99f76b3c1c7b70883e2", "fusion_lat": 0.0, "type": "electric_scooter", "lat": 38.91132833333333, "is_reserved": 0, "is_disabled": 0, "fusion_lon": 0.0, "bike_id": "18f19f196b85e99f76b3c1c7b70883e2", "lon": -77.04193166666667, "rental_uris": {"ios": "https://dc.lft.to/lastmile_qr_scan", "android": "https://dc.lft.to/lastmile_qr_scan"}}, {"name": "d0af7a784c4b4b1574acab8090bfd485", "fusion_lat": 0.0, "type": "electric_scooter", "lat": 38.8982685, "is_reserved": 0, "is_disabled": 0, "fusion_lon": 0.0, "bike_id": "d0af7a784c4b4b1574acab8090bfd485", "lon": -77.03345283333333, "rental_uris": {"ios": "https://dc.lft.to/lastmile_qr_scan", "android": "https://dc.lft.to/lastmile_qr_scan"}}, {"name": "88f90eb8ea87b9265c5ec8e26e220c3b", "fusion_lat": 0.0, "type": "electric_bike", "lat": 38.93054983333333, "is_reserved": 0, "is_disabled": 0, "fusion_lon": 0.0, "bike_id": "88f90eb8ea87b9265c5ec8e26e220c3b", "lon": -76.9731895, "rental_uris": {"ios": "https://dc.lft.to/lastmile_qr_scan", "android": "https://dc.lft.to/lastmile_qr_scan"}}, {"name": "5e74104926a4a2b58142f531e7a6b266", "fusion_lat": 0.0, "type": "electric_scooter", "lat": 38.88533666666667, "is_reserved": 0, "is_disabled": 0, "fusion_lon": 0.0, "bike_id": "5e74104926a4a2b58142f531e7a6b266", "lon": -77.03339883333334, "rental_uris": {"ios": "https://dc.lft.to/lastmile_qr_scan", "android": "https://dc.lft.to/lastmile_qr_scan"}}, {"name": "9a04fc2edc655b7faa292617e4cc8f51", "fusion_lat": 0.0, "type": "electric_bike", "lat": 38.90350183333334, "is_reserved": 0, "is_disabled": 0, "fusion_lon": 0.0, "bike_id": "9a04fc2edc655b7faa292617e4cc8f51", "lon": -77.04501016666667, "rental_uris": {"ios": "https://dc.lft.to/lastmile_qr_scan", "android": "https://dc.lft.to/lastmile_qr_scan"}}, {"name": "36a1df2078a4935b48ee11dca5087399", "fusion_lat": 0.0, "type": "electric_scooter", "lat": 38.8983605, "is_reserved": 0, "is_disabled": 0, "fusion_lon": 0.0, "bike_id": "36a1df2078a4935b48ee11dca5087399", "lon": -77.00743733333333, "rental_uris": {"ios": "https://dc.lft.to/lastmile_qr_scan", "android": "https://dc.lft.to/lastmile_qr_scan"}}, {"name": "e7dad7754f523c42ebe8ccfb2c4b8f3c", "fusion_lat": 0.0, "type": "electric_scooter", "lat": 38.9312505, "is_reserved": 0, "is_disabled": 0, "fusion_lon": 0.0, "bike_id": "e7dad7754f523c42ebe8ccfb2c4b8f3c", "lon": -77.02821216666666, "rental_uris": {"ios": "https://dc.lft.to/lastmile_qr_scan", "android": "https://dc.lft.to/lastmile_qr_scan"}}, {"name": "fb50fedc8b5b52981748f967ca56c971", "fusion_lat": 0.0, "type": "electric_scooter", "lat": 38.929476333333334, "is_reserved": 0, "is_disabled": 0, "fusion_lon": 0.0, "bike_id": "fb50fedc8b5b52981748f967ca56c971", "lon": -77.0326865, "rental_uris": {"ios": "https://dc.lft.to/lastmile_qr_scan", "android": "https://dc.lft.to/lastmile_qr_scan"}}, {"name": "f116b035a9347cafec46c2148cf93388", "fusion_lat": 0.0, "type": "electric_scooter", "lat": 38.89190116666666, "is_reserved": 0, "is_disabled": 0, "fusion_lon": 0.0, "bike_id": "f116b035a9347cafec46c2148cf93388", "lon": -77.00289766666667, "rental_uris": {"ios": "https://dc.lft.to/lastmile_qr_scan", "android": "https://dc.lft.to/lastmile_qr_scan"}}, {"name": "241390ea0a376816a582fb6fe46256cb", "fusion_lat": 0.0, "type": "electric_scooter", "lat": 38.89574, "is_reserved": 0, "is_disabled": 0, "fusion_lon": 0.0, "bike_id": "241390ea0a376816a582fb6fe46256cb", "lon": -76.94863483333333, "rental_uris": {"ios": "https://dc.lft.to/lastmile_qr_scan", "android": "https://dc.lft.to/lastmile_qr_scan"}}, {"name": "baf9cb057a5abbdf23b981b59c2dcae7", "fusion_lat": 0.0, "type": "electric_scooter", "lat": 38.9013485, "is_reserved": 0, "is_disabled": 0, "fusion_lon": 0.0, "bike_id": "baf9cb057a5abbdf23b981b59c2dcae7", "lon": -76.99747416666666, "rental_uris": {"ios": "https://dc.lft.to/lastmile_qr_scan", "android": "https://dc.lft.to/lastmile_qr_scan"}}, {"name": "b9a8b68b1d4e4317fdb8101c69b8f6f2", "fusion_lat": 0.0, "type": "electric_scooter", "lat": 38.918499833333335, "is_reserved": 0, "is_disabled": 0, "fusion_lon": 0.0, "bike_id": "b9a8b68b1d4e4317fdb8101c69b8f6f2", "lon": -77.045815, "rental_uris": {"ios": "https://dc.lft.to/lastmile_qr_scan", "android": "https://dc.lft.to/lastmile_qr_scan"}}, {"name": "31e46c4574cb287e490e594ab297f05c", "fusion_lat": 0.0, "type": "electric_scooter", "lat": 38.896366666666665, "is_reserved": 0, "is_disabled": 0, "fusion_lon": 0.0, "bike_id": "31e46c4574cb287e490e594ab297f05c", "lon": -77.02830683333333, "rental_uris": {"ios": "https://dc.lft.to/lastmile_qr_scan", "android": "https://dc.lft.to/lastmile_qr_scan"}}, {"name": "b0e5d1d847f1f8e04abb814aadedad94", "fusion_lat": 0.0, "type": "electric_scooter", "lat": 38.87421966666667, "is_reserved": 0, "is_disabled": 0, "fusion_lon": 0.0, "bike_id": "b0e5d1d847f1f8e04abb814aadedad94", "lon": -77.0205995, "rental_uris": {"ios": "https://dc.lft.to/lastmile_qr_scan", "android": "https://dc.lft.to/lastmile_qr_scan"}}, {"name": "66328d80078eaf14748918ecdf8ee181", "fusion_lat": 0.0, "type": "electric_scooter", "lat": 38.92787366666667, "is_reserved": 0, "is_disabled": 0, "fusion_lon": 0.0, "bike_id": "66328d80078eaf14748918ecdf8ee181", "lon": -77.03263533333333, "rental_uris": {"ios": "https://dc.lft.to/lastmile_qr_scan", "android": "https://dc.lft.to/lastmile_qr_scan"}}, {"name": "39c94dbf66e22cded5815e34e1fd1577", "fusion_lat": 0.0, "type": "electric_scooter", "lat": 38.89328866666666, "is_reserved": 0, "is_disabled": 0, "fusion_lon": 0.0, "bike_id": "39c94dbf66e22cded5815e34e1fd1577", "lon": -76.928917, "rental_uris": {"ios": "https://dc.lft.to/lastmile_qr_scan", "android": "https://dc.lft.to/lastmile_qr_scan"}}, {"name": "53bf8db91cdf7589b4e873db7d0f554e", "fusion_lat": 0.0, "type": "electric_scooter", "lat": 38.863693166666664, "is_reserved": 0, "is_disabled": 0, "fusion_lon": 0.0, "bike_id": "53bf8db91cdf7589b4e873db7d0f554e", "lon": -77.0135995, "rental_uris": {"ios": "https://dc.lft.to/lastmile_qr_scan", "android": "https://dc.lft.to/lastmile_qr_scan"}}, {"name": "5d15ca12910eea227b452a9a6044f5f4", "fusion_lat": 0.0, "type": "electric_scooter", "lat": 38.903123666666666, "is_reserved": 0, "is_disabled": 0, "fusion_lon": 0.0, "bike_id": "5d15ca12910eea227b452a9a6044f5f4", "lon": -77.02578733333333, "rental_uris": {"ios": "https://dc.lft.to/lastmile_qr_scan", "android": "https://dc.lft.to/lastmile_qr_scan"}}, {"name": "4da3a7532f9d57ca07053ad8a0a5c65b", "fusion_lat": 0.0, "type": "electric_scooter", "lat": 38.88046816666667, "is_reserved": 0, "is_disabled": 0, "fusion_lon": 0.0, "bike_id": "4da3a7532f9d57ca07053ad8a0a5c65b", "lon": -77.01323766666667, "rental_uris": {"ios": "https://dc.lft.to/lastmile_qr_scan", "android": "https://dc.lft.to/lastmile_qr_scan"}}, {"name": "e7c5cab949eccae9b3bcc2b131f59d36", "fusion_lat": 0.0, "type": "electric_bike", "lat": 38.94620483333333, "is_reserved": 0, "is_disabled": 0, "fusion_lon": 0.0, "bike_id": "e7c5cab949eccae9b3bcc2b131f59d36", "lon": -76.94626466666666, "rental_uris": {"ios": "https://dc.lft.to/lastmile_qr_scan", "android": "https://dc.lft.to/lastmile_qr_scan"}}, {"name": "d6ae6be428b6b7b5046f63e89caafa7f", "fusion_lat": 0.0, "type": "electric_bike", "lat": 38.8729855, "is_reserved": 0, "is_disabled": 0, "fusion_lon": 0.0, "bike_id": "d6ae6be428b6b7b5046f63e89caafa7f", "lon": -77.01094266666666, "rental_uris": {"ios": "https://dc.lft.to/lastmile_qr_scan", "android": "https://dc.lft.to/lastmile_qr_scan"}}, {"name": "947b78cf3a082be77bb55422ce109f62", "fusion_lat": 0.0, "type": "electric_scooter", "lat": 38.8989375, "is_reserved": 0, "is_disabled": 0, "fusion_lon": 0.0, "bike_id": "947b78cf3a082be77bb55422ce109f62", "lon": -77.03923266666666, "rental_uris": {"ios": "https://dc.lft.to/lastmile_qr_scan", "android": "https://dc.lft.to/lastmile_qr_scan"}}, {"name": "090c634a8f804e0214c1a2d4b125a529", "fusion_lat": 0.0, "type": "electric_scooter", "lat": 38.934239, "is_reserved": 0, "is_disabled": 0, "fusion_lon": 0.0, "bike_id": "090c634a8f804e0214c1a2d4b125a529", "lon": -77.0221245, "rental_uris": {"ios": "https://dc.lft.to/lastmile_qr_scan", "android": "https://dc.lft.to/lastmile_qr_scan"}}, {"name": "76c2066e2f82e1a50d7a71feb76ebcdf", "fusion_lat": 0.0, "type": "electric_scooter", "lat": 38.9170175, "is_reserved": 0, "is_disabled": 0, "fusion_lon": 0.0, "bike_id": "76c2066e2f82e1a50d7a71feb76ebcdf", "lon": -77.03122466666666, "rental_uris": {"ios": "https://dc.lft.to/lastmile_qr_scan", "android": "https://dc.lft.to/lastmile_qr_scan"}}, {"name": "0af8a0d9c6f11867ec41b4f9dae16f33", "fusion_lat": 0.0, "type": "electric_scooter", "lat": 38.89544683333333, "is_reserved": 0, "is_disabled": 0, "fusion_lon": 0.0, "bike_id": "0af8a0d9c6f11867ec41b4f9dae16f33", "lon": -77.029233, "rental_uris": {"ios": "https://dc.lft.to/lastmile_qr_scan", "android": "https://dc.lft.to/lastmile_qr_scan"}}, {"name": "528c901dd38b850e6ac55260d0e47329", "fusion_lat": 0.0, "type": "electric_scooter", "lat": 38.9162705, "is_reserved": 0, "is_disabled": 0, "fusion_lon": 0.0, "bike_id": "528c901dd38b850e6ac55260d0e47329", "lon": -77.0316345, "rental_uris": {"ios": "https://dc.lft.to/lastmile_qr_scan", "android": "https://dc.lft.to/lastmile_qr_scan"}}, {"name": "d09dcd4bf077ea8f9f6eaa6143f7cb30", "fusion_lat": 0.0, "type": "electric_scooter", "lat": 38.915482, "is_reserved": 0, "is_disabled": 0, "fusion_lon": 0.0, "bike_id": "d09dcd4bf077ea8f9f6eaa6143f7cb30", "lon": -77.035116, "rental_uris": {"ios": "https://dc.lft.to/lastmile_qr_scan", "android": "https://dc.lft.to/lastmile_qr_scan"}}, {"name": "bded984b52daf93c903466814f1cd77a", "fusion_lat": 0.0, "type": "electric_scooter", "lat": 38.93235, "is_reserved": 0, "is_disabled": 0, "fusion_lon": 0.0, "bike_id": "bded984b52daf93c903466814f1cd77a", "lon": -77.03856466666667, "rental_uris": {"ios": "https://dc.lft.to/lastmile_qr_scan", "android": "https://dc.lft.to/lastmile_qr_scan"}}, {"name": "946bf4559c05046c178e5cdf41bc6708", "fusion_lat": 0.0, "type": "electric_scooter", "lat": 38.918729166666665, "is_reserved": 0, "is_disabled": 0, "fusion_lon": 0.0, "bike_id": "946bf4559c05046c178e5cdf41bc6708", "lon": -77.04484833333333, "rental_uris": {"ios": "https://dc.lft.to/lastmile_qr_scan", "android": "https://dc.lft.to/lastmile_qr_scan"}}, {"name": "940020c22291efbd1bf6135f00ab4cf8", "fusion_lat": 0.0, "type": "electric_scooter", "lat": 38.8999075, "is_reserved": 0, "is_disabled": 0, "fusion_lon": 0.0, "bike_id": "940020c22291efbd1bf6135f00ab4cf8", "lon": -77.03971483333333, "rental_uris": {"ios": "https://dc.lft.to/lastmile_qr_scan", "android": "https://dc.lft.to/lastmile_qr_scan"}}, {"name": "b7fa17641734e92049a3ce5c67349d72", "fusion_lat": 0.0, "type": "electric_scooter", "lat": 38.8872945, "is_reserved": 0, "is_disabled": 0, "fusion_lon": 0.0, "bike_id": "b7fa17641734e92049a3ce5c67349d72", "lon": -77.01764133333333, "rental_uris": {"ios": "https://dc.lft.to/lastmile_qr_scan", "android": "https://dc.lft.to/lastmile_qr_scan"}}, {"name": "d9ca28d80efd418e7f3faeaf8f24a4bb", "fusion_lat": 0.0, "type": "electric_scooter", "lat": 38.9067265, "is_reserved": 0, "is_disabled": 0, "fusion_lon": 0.0, "bike_id": "d9ca28d80efd418e7f3faeaf8f24a4bb", "lon": -77.0381565, "rental_uris": {"ios": "https://dc.lft.to/lastmile_qr_scan", "android": "https://dc.lft.to/lastmile_qr_scan"}}, {"name": "4b1b4626c83a8a393a1a0b070b951252", "fusion_lat": 0.0, "type": "electric_scooter", "lat": 38.887376, "is_reserved": 0, "is_disabled": 0, "fusion_lon": 0.0, "bike_id": "4b1b4626c83a8a393a1a0b070b951252", "lon": -76.99644083333334, "rental_uris": {"ios": "https://dc.lft.to/lastmile_qr_scan", "android": "https://dc.lft.to/lastmile_qr_scan"}}, {"name": "74561ed2e4915a183ded30e7c4b82e17", "fusion_lat": 0.0, "type": "electric_scooter", "lat": 38.9206675, "is_reserved": 0, "is_disabled": 0, "fusion_lon": 0.0, "bike_id": "74561ed2e4915a183ded30e7c4b82e17", "lon": -76.99849116666667, "rental_uris": {"ios": "https://dc.lft.to/lastmile_qr_scan", "android": "https://dc.lft.to/lastmile_qr_scan"}}, {"name": "ec52f6a716aa9365e6cb2387e256dd1b", "fusion_lat": 0.0, "type": "electric_scooter", "lat": 38.90657, "is_reserved": 0, "is_disabled": 0, "fusion_lon": 0.0, "bike_id": "ec52f6a716aa9365e6cb2387e256dd1b", "lon": -77.05322266666667, "rental_uris": {"ios": "https://dc.lft.to/lastmile_qr_scan", "android": "https://dc.lft.to/lastmile_qr_scan"}}, {"name": "0768592c7b03dcda75a3486230f407b0", "fusion_lat": 0.0, "type": "electric_scooter", "lat": 38.90198866666667, "is_reserved": 0, "is_disabled": 0, "fusion_lon": 0.0, "bike_id": "0768592c7b03dcda75a3486230f407b0", "lon": -77.02172433333334, "rental_uris": {"ios": "https://dc.lft.to/lastmile_qr_scan", "android": "https://dc.lft.to/lastmile_qr_scan"}}, {"name": "bdf439174bd63c8b1aac3324df3b919a", "fusion_lat": 0.0, "type": "electric_scooter", "lat": 38.92155233333333, "is_reserved": 0, "is_disabled": 0, "fusion_lon": 0.0, "bike_id": "bdf439174bd63c8b1aac3324df3b919a", "lon": -77.03432633333334, "rental_uris": {"ios": "https://dc.lft.to/lastmile_qr_scan", "android": "https://dc.lft.to/lastmile_qr_scan"}}, {"name": "8d0cfc0fdaae6f3b9649098c585cd7f1", "fusion_lat": 0.0, "type": "electric_scooter", "lat": 38.92368283333333, "is_reserved": 0, "is_disabled": 0, "fusion_lon": 0.0, "bike_id": "8d0cfc0fdaae6f3b9649098c585cd7f1", "lon": -77.01922883333333, "rental_uris": {"ios": "https://dc.lft.to/lastmile_qr_scan", "android": "https://dc.lft.to/lastmile_qr_scan"}}, {"name": "693807a446432e0fc4254bc2af5b6420", "fusion_lat": 0.0, "type": "electric_scooter", "lat": 38.90039316666667, "is_reserved": 0, "is_disabled": 0, "fusion_lon": 0.0, "bike_id": "693807a446432e0fc4254bc2af5b6420", "lon": -76.91913933333333, "rental_uris": {"ios": "https://dc.lft.to/lastmile_qr_scan", "android": "https://dc.lft.to/lastmile_qr_scan"}}, {"name": "3113fa40dddf3c243beecfaa0dd81a94", "fusion_lat": 0.0, "type": "electric_scooter", "lat": 38.901083, "is_reserved": 0, "is_disabled": 0, "fusion_lon": 0.0, "bike_id": "3113fa40dddf3c243beecfaa0dd81a94", "lon": -77.05006033333333, "rental_uris": {"ios": "https://dc.lft.to/lastmile_qr_scan", "android": "https://dc.lft.to/lastmile_qr_scan"}}, {"name": "62593fe8b5e297f0a9abeb2ad8d8de8b", "fusion_lat": 0.0, "type": "electric_scooter", "lat": 38.90330683333333, "is_reserved": 0, "is_disabled": 0, "fusion_lon": 0.0, "bike_id": "62593fe8b5e297f0a9abeb2ad8d8de8b", "lon": -77.03858083333333, "rental_uris": {"ios": "https://dc.lft.to/lastmile_qr_scan", "android": "https://dc.lft.to/lastmile_qr_scan"}}, {"name": "780658dc7ff1b01b64755211586d6094", "fusion_lat": 0.0, "type": "electric_bike", "lat": 38.93772233333333, "is_reserved": 0, "is_disabled": 0, "fusion_lon": 0.0, "bike_id": "780658dc7ff1b01b64755211586d6094", "lon": -77.01907833333334, "rental_uris": {"ios": "https://dc.lft.to/lastmile_qr_scan", "android": "https://dc.lft.to/lastmile_qr_scan"}}, {"name": "2a1160f8a1163cd9760d079e36269967", "fusion_lat": 0.0, "type": "electric_scooter", "lat": 38.8764645, "is_reserved": 0, "is_disabled": 0, "fusion_lon": 0.0, "bike_id": "2a1160f8a1163cd9760d079e36269967", "lon": -76.96504583333333, "rental_uris": {"ios": "https://dc.lft.to/lastmile_qr_scan", "android": "https://dc.lft.to/lastmile_qr_scan"}}, {"name": "e719bb722655446bf8827d3945d16df5", "fusion_lat": 0.0, "type": "electric_scooter", "lat": 38.933897333333334, "is_reserved": 0, "is_disabled": 0, "fusion_lon": 0.0, "bike_id": "e719bb722655446bf8827d3945d16df5", "lon": -77.03155233333334, "rental_uris": {"ios": "https://dc.lft.to/lastmile_qr_scan", "android": "https://dc.lft.to/lastmile_qr_scan"}}, {"name": "39b1ec53e6c8dc5f9bc6893102940b54", "fusion_lat": 0.0, "type": "electric_scooter", "lat": 38.90018833333333, "is_reserved": 0, "is_disabled": 0, "fusion_lon": 0.0, "bike_id": "39b1ec53e6c8dc5f9bc6893102940b54", "lon": -77.01184466666666, "rental_uris": {"ios": "https://dc.lft.to/lastmile_qr_scan", "android": "https://dc.lft.to/lastmile_qr_scan"}}, {"name": "2ba82bc90df28a3b8ea663de1c5a80b3", "fusion_lat": 0.0, "type": "electric_scooter", "lat": 38.89019, "is_reserved": 0, "is_disabled": 0, "fusion_lon": 0.0, "bike_id": "2ba82bc90df28a3b8ea663de1c5a80b3", "lon": -76.93495566666667, "rental_uris": {"ios": "https://dc.lft.to/lastmile_qr_scan", "android": "https://dc.lft.to/lastmile_qr_scan"}}, {"name": "d4cc6c192f919f5fe3c3403be814853b", "fusion_lat": 0.0, "type": "electric_scooter", "lat": 38.91799616666667, "is_reserved": 0, "is_disabled": 0, "fusion_lon": 0.0, "bike_id": "d4cc6c192f919f5fe3c3403be814853b", "lon": -77.02818816666667, "rental_uris": {"ios": "https://dc.lft.to/lastmile_qr_scan", "android": "https://dc.lft.to/lastmile_qr_scan"}}, {"name": "d7f378e0a00bbfe4858e03f8a8f15170", "fusion_lat": 0.0, "type": "electric_scooter", "lat": 38.87781916666667, "is_reserved": 0, "is_disabled": 0, "fusion_lon": 0.0, "bike_id": "d7f378e0a00bbfe4858e03f8a8f15170", "lon": -76.99407633333334, "rental_uris": {"ios": "https://dc.lft.to/lastmile_qr_scan", "android": "https://dc.lft.to/lastmile_qr_scan"}}, {"name": "c4cfa193373cb985c28e4139d886051e", "fusion_lat": 0.0, "type": "electric_scooter", "lat": 38.91564833333333, "is_reserved": 0, "is_disabled": 0, "fusion_lon": 0.0, "bike_id": "c4cfa193373cb985c28e4139d886051e", "lon": -77.01412316666666, "rental_uris": {"ios": "https://dc.lft.to/lastmile_qr_scan", "android": "https://dc.lft.to/lastmile_qr_scan"}}, {"name": "8bb2b06cb8f4a3b37ed744ffc8d7b1d9", "fusion_lat": 0.0, "type": "electric_scooter", "lat": 38.9075025, "is_reserved": 0, "is_disabled": 0, "fusion_lon": 0.0, "bike_id": "8bb2b06cb8f4a3b37ed744ffc8d7b1d9", "lon": -77.04481516666667, "rental_uris": {"ios": "https://dc.lft.to/lastmile_qr_scan", "android": "https://dc.lft.to/lastmile_qr_scan"}},