{"data": {"bikes": [{"lat": 38.88741183333333, "is_disabled": 0, "type": "electric_scooter", "lon": -77.01533866666666, "bike_id": "12ebe765754b08734169b20a586b34e7", "fusion_lat": 0.0, "name": "12ebe765754b08734169b20a586b34e7", "is_reserved": 0, "rental_uris": {"android": "https://dc.lft.to/lastmile_qr_scan", "ios": "https://dc.lft.to/lastmile_qr_scan"}, "fusion_lon": 0.0}, {"lat": 38.919050166666665, "is_disabled": 0, "type": "electric_scooter", "lon": -77.00039983333333, "bike_id": "022e692abec06e2dcfb1193538777755", "fusion_lat": 0.0, "name": "022e692abec06e2dcfb1193538777755", "is_reserved": 0, "rental_uris": {"android": "https://dc.lft.to/lastmile_qr_scan", "ios": "https://dc.lft.to/lastmile_qr_scan"}, "fusion_lon": 0.0}, {"lat": 38.920837166666665, "is_disabled": 0, "type": "electric_scooter", "lon": -77.03648533333333, "bike_id": "3c09d041a1f294919070ad12b456367f", "fusion_lat": 0.0, "name": "3c09d041a1f294919070ad12b456367f", "is_reserved": 0, "rental_uris": {"android": "https://dc.lft.to/lastmile_qr_scan", "ios": "https://dc.lft.to/lastmile_qr_scan"}, "fusion_lon": 0.0}, {"lat": 38.90799716666667, "is_disabled": 0, "type": "electric_scooter", "lon": -77.02690383333334, "bike_id": "975f489119e097b9f695979d250261a9", "fusion_lat": 0.0, "name": "975f489119e097b9f695979d250261a9", "is_reserved": 0, "rental_uris": {"android": "https://dc.lft.to/lastmile_qr_scan", "ios": "https://dc.lft.to/lastmile_qr_scan"}, "fusion_lon": 0.0}, {"lat": 38.92086716666667, "is_disabled": 0, "type": "electric_scooter", "lon": -77.01746933333334, "bike_id": "ff95213772ea982dcd2c9f94e807439a", "fusion_lat": 0.0, "name": "ff95213772ea982dcd2c9f94e807439a", "is_reserved": 0, "rental_uris": {"android": "https://dc.lft.to/lastmile_qr_scan", "ios": "https://dc.lft.to/lastmile_qr_scan"}, "fusion_lon": 0.0}, {"lat": 38.900703166666666, "is_disabled": 0, "type": "electric_scooter", "lon": -77.00207283333333, "bike_id": "ab0efc5e19723265d37b9c3376d397c3", "fusion_lat": 0.0, "name": "ab0efc5e19723265d37b9c3376d397c3", "is_reserved": 0, "rental_uris": {"android": "https://dc.lft.to/lastmile_qr_scan", "ios": "https://dc.lft.to/lastmile_qr_scan"}, "fusion_lon": 0.0}, {"lat": 38.91696316666667, "is_disabled": 0, "type": "electric_scooter", "lon": -77.02802566666666, "bike_id": "0e2ff071f18a138d5ba9f1176a445a36", "fusion_lat": 0.0, "name": "0e2ff071f18a138d5ba9f1176a445a36", "is_reserved": 0, "rental_uris": {"android": "https://dc.lft.to/lastmile_qr_scan", "ios": "https://dc.lft.to/lastmile_qr_scan"}, "fusion_lon": 0.0}, {"lat": 38.91919266666667, "is_disabled": 0, "type": "electric_scooter", "lon": -77.02414916666666, "bike_id": "d991fc76ea2eca73a6b7919b1b060d1a", "fusion_lat": 0.0, "name": "d991fc76ea2eca73a6b7919b1b060d1a", "is_reserved": 0, "rental_uris": {"android": "https://dc.lft.to/lastmile_qr_scan", "ios": "https://dc.lft.to/lastmile_qr_scan"}, "fusion_lon": 0.0}, {"lat": 38.91693683333333, "is_disabled": 0, "type": "electric_scooter", "lon": -77.03129683333333, "bike_id": "8b480593b06db722a81f8da57f80dcfa", "fusion_lat": 0.0, "name": "8b480593b06db722a81f8da57f80dcfa", "is_reserved": 0, "rental_uris": {"android": "https://dc.lft.to/lastmile_qr_scan", "ios": "https://dc.lft.to/lastmile_qr_scan"}, "fusion_lon": 0.0}, {"lat": 38.90115816666667, "is_disabled": 0, "type": "electric_scooter", "lon": -76.99548733333333, "bike_id": "7d73cba374306ddb2e4bd1f084947d66", "fusion_lat": 0.0, "name": "7d73cba374306ddb2e4bd1f084947d66", "is_reserved": 0, "rental_uris": {"android": "https://dc.lft.to/lastmile_qr_scan", "ios": "https://dc.lft.to/lastmile_qr_scan"}, "fusion_lon": 0.0}, {"lat": 38.89558983333333, "is_disabled": 0, "type": "electric_bike", "lon": -77.1272965, "bike_id": "3d632665f7a2c37d8edd24d40ef82ea3", "fusion_lat": 0.0, "name": "3d632665f7a2c37d8edd24d40ef82ea3", "is_reserved": 0, "rental_uris": {"android": "https://dc.lft.to/lastmile_qr_scan", "ios": "https://dc.lft.to/lastmile_qr_scan"}, "fusion_lon": 0.0}, {"lat": 38.911397, "is_disabled": 0, "type": "electric_scooter", "lon": -77.02687816666666, "bike_id": "3931039c5eb45cadb9437f8562ed5c4e", "fusion_lat": 0.0, "name": "3931039c5eb45cadb9437f8562ed5c4e", "is_reserved": 0, "rental_uris": {"android": "https://dc.lft.to/lastmile_qr_scan", "ios": "https://dc.lft.to/lastmile_qr_scan"}, "fusion_lon": 0.0}, {"lat": 38.93093066666667, "is_disabled": 0, "type": "electric_scooter", "lon": -77.0344265, "bike_id": "8fb8cf4cb31fb8745f59f080634e7122", "fusion_lat": 0.0, "name": "8fb8cf4cb31fb8745f59f080634e7122", "is_reserved": 0, "rental_uris": {"android": "https://dc.lft.to/lastmile_qr_scan", "ios": "https://dc.lft.to/lastmile_qr_scan"}, "fusion_lon": 0.0}, {"lat": 38.904188, "is_disabled": 0, "type": "electric_scooter", "lon": -77.06889133333334, "bike_id": "3ce4d92c3167ab7d53012bf9cd39cbfc", "fusion_lat": 0.0, "name": "3ce4d92c3167ab7d53012bf9cd39cbfc", "is_reserved": 0, "rental_uris": {"android": "https://dc.lft.to/lastmile_qr_scan", "ios": "https://dc.lft.to/lastmile_qr_scan"}, "fusion_lon": 0.0}, {"lat": 38.928562166666666, "is_disabled": 0, "type": "electric_bike", "lon": -77.22219566666666, "bike_id": "b48110cda229f24e6a3ef2d80e16a0c3", "fusion_lat": 0.0, "name": "b48110cda229f24e6a3ef2d80e16a0c3", "is_reserved": 0, "rental_uris": {"android": "https://dc.lft.to/lastmile_qr_scan", "ios": "https://dc.lft.to/lastmile_qr_scan"}, "fusion_lon": 0.0}, {"lat": 38.92482733333333, "is_disabled": 0, "type": "electric_bike", "lon": -76.99028583333333, "bike_id": "ee68c68a89c8b6fd5c21f5b304321374", "fusion_lat": 0.0, "name": "ee68c68a89c8b6fd5c21f5b304321374", "is_reserved": 0, "rental_uris": {"android": "https://dc.lft.to/lastmile_qr_scan", "ios": "https://dc.lft.to/lastmile_qr_scan"}, "fusion_lon": 0.0}, {"lat": 38.92067983333333, "is_disabled": 0, "type": "electric_scooter", "lon": -77.02519566666666, "bike_id": "0b0818172b2203aa8987f30df886a9ff", "fusion_lat": 0.0, "name": "0b0818172b2203aa8987f30df886a9ff", "is_reserved": 0, "rental_uris": {"android": "https://dc.lft.to/lastmile_qr_scan", "ios": "https://dc.lft.to/lastmile_qr_scan"}, "fusion_lon": 0.0}, {"lat": 38.92850883333333, "is_disabled": 0, "type": "electric_bike", "lon": -77.03304916666667, "bike_id": "7f602f4f5d990330014702d549439b12", "fusion_lat": 0.0, "name": "7f602f4f5d990330014702d549439b12", "is_reserved": 0, "rental_uris": {"android": "https://dc.lft.to/lastmile_qr_scan", "ios": "https://dc.lft.to/lastmile_qr_scan"}, "fusion_lon": 0.0}, {"lat": 38.89273766666667, "is_disabled": 0, "type": "electric_scooter", "lon": -77.0504285, "bike_id": "59b2d25aa162bf13568dc450a9452869", "fusion_lat": 0.0, "name": "59b2d25aa162bf13568dc450a9452869", "is_reserved": 0, "rental_uris": {"android": "https://dc.lft.to/lastmile_qr_scan", "ios": "https://dc.lft.to/lastmile_qr_scan"}, "fusion_lon": 0.0}, {"lat": 38.91769433333333, "is_disabled": 0, "type": "electric_scooter", "lon": -77.04746866666666, "bike_id": "befd797c89a37145626861b4e6c3d33d", "fusion_lat": 0.0, "name": "befd797c89a37145626861b4e6c3d33d", "is_reserved": 0, "rental_uris": {"android": "https://dc.lft.to/lastmile_qr_scan", "ios": "https://dc.lft.to/lastmile_qr_scan"}, "fusion_lon": 0.0}, {"lat": 38.909584333333335, "is_disabled": 0, "type": "electric_scooter", "lon": -77.0342635, "bike_id": "3d90b5284aebe56030efbf27578cad86", "fusion_lat": 0.0, "name": "3d90b5284aebe56030efbf27578cad86", "is_reserved": 0, "rental_uris": {"android": "https://dc.lft.to/lastmile_qr_scan", "ios": "https://dc.lft.to/lastmile_qr_scan"}, "fusion_lon": 0.0}, {"lat": 38.918209, "is_disabled": 0, "type": "electric_scooter", "lon": -77.04182066666667, "bike_id": "09ed421395dc1a750736879cd75cce7e", "fusion_lat": 0.0, "name": "09ed421395dc1a750736879cd75cce7e", "is_reserved": 0, "rental_uris": {"android": "https://dc.lft.to/lastmile_qr_scan", "ios": "https://dc.lft.to/lastmile_qr_scan"}, "fusion_lon": 0.0}, {"lat": 39.08860033333333, "is_disabled": 0, "type": "electric_bike", "lon": -77.17839816666667, "bike_id": "71ca7f70ba3c29ef77bf3f005323a076", "fusion_lat": 0.0, "name": "71ca7f70ba3c29ef77bf3f005323a076", "is_reserved": 0, "rental_uris": {"android": "https://dc.lft.to/lastmile_qr_scan", "ios": "https://dc.lft.to/lastmile_qr_scan"}, "fusion_lon": 0.0}, {"lat": 38.87237833333333, "is_disabled": 0, "type": "electric_bike", "lon": -77.01169866666666, "bike_id": "d8c7abb5de24a634b8b85726209beb1a", "fusion_lat": 0.0, "name": "d8c7abb5de24a634b8b85726209beb1a", "is_reserved": 0, "rental_uris": {"android": "https://dc.lft.to/lastmile_qr_scan", "ios": "https://dc.lft.to/lastmile_qr_scan"}, "fusion_lon": 0.0}, {"lat": 38.9076715, "is_disabled": 0, "type": "electric_bike", "lon": -77.0699855, "bike_id": "374257b6859c7e21a31a2d3641852c1f", "fusion_lat": 0.0, "name": "374257b6859c7e21a31a2d3641852c1f", "is_reserved": 0, "rental_uris": {"android": "https://dc.lft.to/lastmile_qr_scan", "ios": "https://dc.lft.to/lastmile_qr_scan"}, "fusion_lon": 0.0}, {"lat": 38.91132183333333, "is_disabled": 0, "type": "electric_bike", "lon": -77.06586583333333, "bike_id": "da1a61840d979d1fd408bcd95a2d8a66", "fusion_lat": 0.0, "name": "da1a61840d979d1fd408bcd95a2d8a66", "is_reserved": 0, "rental_uris": {"android": "https://dc.lft.to/lastmile_qr_scan", "ios": "https://dc.lft.to/lastmile_qr_scan"}, "fusion_lon": 0.0}, {"lat": 38.9430695, "is_disabled": 0, "type": "electric_scooter", "lon": -77.05928166666666, "bike_id": "553284bd732c0f1741ee2898594885ff", "fusion_lat": 0.0, "name": "553284bd732c0f1741ee2898594885ff", "is_reserved": 0, "rental_uris": {"android": "https://dc.lft.to/lastmile_qr_scan", "ios": "https://dc.lft.to/lastmile_qr_scan"}, "fusion_lon": 0.0}, {"lat": 38.908035, "is_disabled": 0, "type": "electric_scooter", "lon": -77.0434205, "bike_id": "ed78f051ef10c93b08c2b89dcaadf13a", "fusion_lat": 0.0, "name": "ed78f051ef10c93b08c2b89dcaadf13a", "is_reserved": 0, "rental_uris": {"android": "https://dc.lft.to/lastmile_qr_scan", "ios": "https://dc.lft.to/lastmile_qr_scan"}, "fusion_lon": 0.0}, {"lat": 38.924675, "is_disabled": 0, "type": "electric_scooter", "lon": -77.02714483333334, "bike_id": "54a048bc73ce538dc6af8bbaddc6cc07", "fusion_lat": 0.0, "name": "54a048bc73ce538dc6af8bbaddc6cc07", "is_reserved": 0, "rental_uris": {"android": "https://dc.lft.to/lastmile_qr_scan", "ios": "https://dc.lft.to/lastmile_qr_scan"}, "fusion_lon": 0.0}, {"lat": 38.863825, "is_disabled": 0, "type": "electric_scooter", "lon": -76.99250783333333, "bike_id": "a289bad9cdfd92419e47df66070239f0", "fusion_lat": 0.0, "name": "a289bad9cdfd92419e47df66070239f0", "is_reserved": 0, "rental_uris": {"android": "https://dc.lft.to/lastmile_qr_scan", "ios": "https://dc.lft.to/lastmile_qr_scan"}, "fusion_lon": 0.0}, {"lat": 38.90964916666667, "is_disabled": 0, "type": "electric_scooter", "lon": -77.03813316666667, "bike_id": "8eb5ae2c5747611c2710b459d920938f", "fusion_lat": 0.0, "name": "8eb5ae2c5747611c2710b459d920938f", "is_reserved": 0, "rental_uris": {"android": "https://dc.lft.to/lastmile_qr_scan", "ios": "https://dc.lft.to/lastmile_qr_scan"}, "fusion_lon": 0.0}, {"lat": 38.978375666666665, "is_disabled": 0, "type": "electric_bike", "lon": -77.02652333333333, "bike_id": "7b322657cc961cef7dc3787aab150589", "fusion_lat": 0.0, "name": "7b322657cc961cef7dc3787aab150589", "is_reserved": 0, "rental_uris": {"android": "https://dc.lft.to/lastmile_qr_scan", "ios": "https://dc.lft.to/lastmile_qr_scan"}, "fusion_lon": 0.0}, {"lat": 38.918277333333336, "is_disabled": 0, "type": "electric_scooter", "lon": -77.02418416666667, "bike_id": "a439272e7e205c08ac7833e6dd306ae6", "fusion_lat": 0.0, "name": "a439272e7e205c08ac7833e6dd306ae6", "is_reserved": 0, "rental_uris": {"android": "https://dc.lft.to/lastmile_qr_scan", "ios": "https://dc.lft.to/lastmile_qr_scan"}, "fusion_lon": 0.0}, {"lat": 38.91119416666667, "is_disabled": 0, "type": "electric_scooter", "lon": -77.02332966666667, "bike_id": "d33facd2ba4b03b782536a2a75c6092c", "fusion_lat": 0.0, "name": "d33facd2ba4b03b782536a2a75c6092c", "is_reserved": 0, "rental_uris": {"android": "https://dc.lft.to/lastmile_qr_scan", "ios": "https://dc.lft.to/lastmile_qr_scan"}, "fusion_lon": 0.0}, {"lat": 38.9235255, "is_disabled": 0, "type": "electric_scooter", "lon": -77.04391233333334, "bike_id": "e5bf1c80b37238a570c69ff51e9ea75f", "fusion_lat": 0.0, "name": "e5bf1c80b37238a570c69ff51e9ea75f", "is_reserved": 0, "rental_uris": {"android": "https://dc.lft.to/lastmile_qr_scan", "ios": "https://dc.lft.to/lastmile_qr_scan"}, "fusion_lon": 0.0}, {"lat": 38.854611166666665, "is_disabled": 0, "type": "electric_scooter", "lon": -76.9723625, "bike_id": "f87333550f248e15c754b6a530949862", "fusion_lat": 0.0, "name": "f87333550f248e15c754b6a530949862", "is_reserved": 0, "rental_uris": {"android": "https://dc.lft.to/lastmile_qr_scan", "ios": "https://dc.lft.to/lastmile_qr_scan"}, "fusion_lon": 0.0}, {"lat": 38.91659033333333, "is_disabled": 0, "type": "electric_scooter", "lon": -77.02194433333334, "bike_id": "918683683abb76a80f9b86e86a70a0bb", "fusion_lat": 0.0, "name": "918683683abb76a80f9b86e86a70a0bb", "is_reserved": 0, "rental_uris": {"android": "https://dc.lft.to/lastmile_qr_scan", "ios": "https://dc.lft.to/lastmile_qr_scan"}, "fusion_lon": 0.0}, {"lat": 38.90272566666667, "is_disabled": 0, "type": "electric_bike", "lon": -77.06351983333333, "bike_id": "87478a3a967fc92f6f476e4a56365fba", "fusion_lat": 0.0, "name": "87478a3a967fc92f6f476e4a56365fba", "is_reserved": 0, "rental_uris": {"android": "https://dc.lft.to/lastmile_qr_scan", "ios": "https://dc.lft.to/lastmile_qr_scan"}, "fusion_lon": 0.0}, {"lat": 38.90098233333333, "is_disabled": 0, "type": "electric_scooter", "lon": -77.000675, "bike_id": "ce0578bf8d8a349129fe09425587c95b", "fusion_lat": 0.0, "name": "ce0578bf8d8a349129fe09425587c95b", "is_reserved": 0, "rental_uris": {"android": "https://dc.lft.to/lastmile_qr_scan", "ios": "https://dc.lft.to/lastmile_qr_scan"}, "fusion_lon": 0.0}, {"lat": 38.90503733333333, "is_disabled": 0, "type": "electric_scooter", "lon": -77.0294815, "bike_id": "382b1770f95814b4848d08e326f6d0c1", "fusion_lat": 0.0, "name": "382b1770f95814b4848d08e326f6d0c1", "is_reserved": 0, "rental_uris": {"android": "https://dc.lft.to/lastmile_qr_scan", "ios": "https://dc.lft.to/lastmile_qr_scan"}, "fusion_lon": 0.0}, {"lat": 38.919096333333336, "is_disabled": 0, "type": "electric_scooter", "lon": -77.02594433333333, "bike_id": "74161e88041c14eeebfcb41e51ece3bf", "fusion_lat": 0.0, "name": "74161e88041c14eeebfcb41e51ece3bf", "is_reserved": 0, "rental_uris": {"android": "https://dc.lft.to/lastmile_qr_scan", "ios": "https://dc.lft.to/lastmile_qr_scan"}, "fusion_lon": 0.0}, {"lat": 38.873478166666665, "is_disabled": 0, "type": "electric_scooter", "lon": -76.9916965, "bike_id": "1453f8a52ef55e64e5973e38ff729feb", "fusion_lat": 0.0, "name": "1453f8a52ef55e64e5973e38ff729feb", "is_reserved": 0, "rental_uris": {"android": "https://dc.lft.to/lastmile_qr_scan", "ios": "https://dc.lft.to/lastmile_qr_scan"}, "fusion_lon": 0.0}, {"lat": 38.9062425, "is_disabled": 0, "type": "electric_scooter", "lon": -77.02188166666667, "bike_id": "5f0439f51d412cdfa2cfa1896420a67f", "fusion_lat": 0.0, "name": "5f0439f51d412cdfa2cfa1896420a67f", "is_reserved": 0, "rental_uris": {"android": "https://dc.lft.to/lastmile_qr_scan", "ios": "https://dc.lft.to/lastmile_qr_scan"}, "fusion_lon": 0.0}, {"lat": 38.887446833333335, "is_disabled": 0, "type": "electric_scooter", "lon": -77.02207816666666, "bike_id": "9713624b36f68c932bbd126c229c9b30", "fusion_lat": 0.0, "name": "9713624b36f68c932bbd126c229c9b30", "is_reserved": 0, "rental_uris": {"android": "https://dc.lft.to/lastmile_qr_scan", "ios": "https://dc.lft.to/lastmile_qr_scan"}, "fusion_lon": 0.0}, {"lat": 38.954137333333335, "is_disabled": 0, "type": "electric_bike", "lon": -76.980585, "bike_id": "06e14a57fe750465cd8a0dc6c7a73617", "fusion_lat": 0.0, "name": "06e14a57fe750465cd8a0dc6c7a73617", "is_reserved": 0, "rental_uris": {"android": "https://dc.lft.to/lastmile_qr_scan", "ios": "https://dc.lft.to/lastmile_qr_scan"}, "fusion_lon": 0.0}, {"lat": 38.876312, "is_disabled": 0, "type": "electric_scooter", "lon": -76.96525383333334, "bike_id": "4dd25295db5e7e3bcabeb0aa112dcf18", "fusion_lat": 0.0, "name": "4dd25295db5e7e3bcabeb0aa112dcf18", "is_reserved": 0, "rental_uris": {"android": "https://dc.lft.to/lastmile_qr_scan", "ios": "https://dc.lft.to/lastmile_qr_scan"}, "fusion_lon": 0.0}, {"lat": 38.9156575, "is_disabled": 0, "type": "electric_scooter", "lon": -77.02003083333334, "bike_id": "d817749fa5cd970fce66fa52bebf537e", "fusion_lat": 0.0, "name": "d817749fa5cd970fce66fa52bebf537e", "is_reserved": 0, "rental_uris": {"android": "https://dc.lft.to/lastmile_qr_scan", "ios": "https://dc.lft.to/lastmile_qr_scan"}, "fusion_lon": 0.0}, {"lat": 38.9236235, "is_disabled": 0, "type": "electric_scooter", "lon": -77.051292, "bike_id": "c3132d90ebb7f2e7a6dc35602da3d0bf", "fusion_lat": 0.0, "name": "c3132d90ebb7f2e7a6dc35602da3d0bf", "is_reserved": 0, "rental_uris": {"android": "https://dc.lft.to/lastmile_qr_scan", "ios": "https://dc.lft.to/lastmile_qr_scan"}, "fusion_lon": 0.0}, {"lat": 38.861707333333335, "is_disabled": 0, "type": "electric_bike", "lon": -77.131457, "bike_id": "c6bf22fb393a53c902dc16c40812c57f", "fusion_lat": 0.0, "name": "c6bf22fb393a53c902dc16c40812c57f", "is_reserved": 0, "rental_uris": {"android": "https://dc.lft.to/lastmile_qr_scan", "ios": "https://dc.lft.to/lastmile_qr_scan"}, "fusion_lon": 0.0}, {"lat": 38.9056545, "is_disabled": 0, "type": "electric_scooter", "lon": -77.01774716666667, "bike_id": "b62b9afe29ceee7fbc0f6898b62a7305", "fusion_lat": 0.0, "name": "b62b9afe29ceee7fbc0f6898b62a7305", "is_reserved": 0, "rental_uris": {"android": "https://dc.lft.to/lastmile_qr_scan", "ios": "https://dc.lft.to/lastmile_qr_scan"}, "fusion_lon": 0.0}, {"lat": 38.917885, "is_disabled": 0, "type": "electric_bike", "lon": -76.9718615, "bike_id": "ce0f8523606cd6a96a495dd4e8f56d3b", "fusion_lat": 0.0, "name": "ce0f8523606cd6a96a495dd4e8f56d3b", "is_reserved": 0, "rental_uris": {"android": "https://dc.lft.to/lastmile_qr_scan", "ios": "https://dc.lft.to/lastmile_qr_scan"}, "fusion_lon": 0.0}, {"lat": 38.9174425, "is_disabled": 0, "type": "electric_scooter", "lon": -77.031797, "bike_id": "ccbab775fbdfdf77695f68cba60c3f56", "fusion_lat": 0.0, "name": "ccbab775fbdfdf77695f68cba60c3f56", "is_reserved": 0, "rental_uris": {"android": "https://dc.lft.to/lastmile_qr_scan", "ios": "https://dc.lft.to/lastmile_qr_scan"}, "fusion_lon": 0.0}, {"lat": 38.92092366666667, "is_disabled": 0, "type": "electric_scooter", "lon": -77.03937466666666, "bike_id": "b4af68387d517843aa36bebc20d88224", "fusion_lat": 0.0, "name": "b4af68387d517843aa36bebc20d88224", "is_reserved": 0, "rental_uris": {"android": "https://dc.lft.to/lastmile_qr_scan", "ios": "https://dc.lft.to/lastmile_qr_scan"}, "fusion_lon": 0.0}, {"lat": 38.88525816666667, "is_disabled": 0, "type": "electric_scooter", "lon": -77.0113405, "bike_id": "0924dc2de89f5ee4acccc9392d4a76cc", "fusion_lat": 0.0, "name": "0924dc2de89f5ee4acccc9392d4a76cc", "is_reserved": 0, "rental_uris": {"android": "https://dc.lft.to/lastmile_qr_scan", "ios": "https://dc.lft.to/lastmile_qr_scan"}, "fusion_lon": 0.0}, {"lat": 38.91546816666666, "is_disabled": 0, "type": "electric_scooter", "lon": -77.0385565, "bike_id": "134c6de6a970f709d59a50dc57fb70b2", "fusion_lat": 0.0, "name": "134c6de6a970f709d59a50dc57fb70b2", "is_reserved": 0, "rental_uris": {"android": "https://dc.lft.to/lastmile_qr_scan", "ios": "https://dc.lft.to/lastmile_qr_scan"}, "fusion_lon": 0.0}, {"lat": 38.93116933333334, "is_disabled": 0, "type": "electric_scooter", "lon": -77.0209615, "bike_id": "ecefaf97568c31e1fb3e0de3b912f8be", "fusion_lat": 0.0, "name": "ecefaf97568c31e1fb3e0de3b912f8be", "is_reserved": 0, "rental_uris": {"android": "https://dc.lft.to/lastmile_qr_scan", "ios": "https://dc.lft.to/lastmile_qr_scan"}, "fusion_lon": 0.0}, {"lat": 38.86704916666667, "is_disabled": 0, "type": "electric_scooter", "lon": -76.98715316666667, "bike_id": "51e90021ecf3ae25f21ed302758c28bd", "fusion_lat": 0.0, "name": "51e90021ecf3ae25f21ed302758c28bd", "is_reserved": 0, "rental_uris": {"android": "https://dc.lft.to/lastmile_qr_scan", "ios": "https://dc.lft.to/lastmile_qr_scan"}, "fusion_lon": 0.0}, {"lat": 38.964425, "is_disabled": 0, "type": "electric_bike", "lon": -77.02071966666666, "bike_id": "15e6c0064c083af60be79884c3d3257b", "fusion_lat": 0.0, "name": "15e6c0064c083af60be79884c3d3257b", "is_reserved": 0, "rental_uris": {"android": "https://dc.lft.to/lastmile_qr_scan", "ios": "https://dc.lft.to/lastmile_qr_scan"}, "fusion_lon": 0.0}, {"lat": 38.90684, "is_disabled": 0, "type": "electric_scooter", "lon": -77.0101135, "bike_id": "b34316d76f74af2b4cc27cb004958017", "fusion_lat": 0.0, "name": "b34316d76f74af2b4cc27cb004958017", "is_reserved": 0, "rental_uris": {"android": "https://dc.lft.to/lastmile_qr_scan", "ios": "https://dc.lft.to/lastmile_qr_scan"}, "fusion_lon": 0.0}, {"lat": 38.936030333333335, "is_disabled": 0, "type": "electric_scooter", "lon": -77.03662183333333, "bike_id": "341e8aba112f6dc8f8cbd77b3f38d2c3", "fusion_lat": 0.0, "name": "341e8aba112f6dc8f8cbd77b3f38d2c3", "is_reserved": 0, "rental_uris": {"android": "https://dc.lft.to/lastmile_qr_scan", "ios": "https://dc.lft.to/lastmile_qr_scan"}, "fusion_lon": 0.0}, {"lat": 38.910026, "is_disabled": 0, "type": "electric_scooter", "lon": -77.01503716666667, "bike_id": "8b0c00808471ce41075275f41c8f33f7", "fusion_lat": 0.0, "name": "8b0c00808471ce41075275f41c8f33f7", "is_reserved": 0, "rental_uris": {"android": "https://dc.lft.to/lastmile_qr_scan", "ios": "https://dc.lft.to/lastmile_qr_scan"}, "fusion_lon": 0.0}, {"lat": 38.91106716666667, "is_disabled": 0, "type": "electric_scooter", "lon": -77.042067, "bike_id": "36a502a7f8c4914e449e33bbd9bbca61", "fusion_lat": 0.0, "name": "36a502a7f8c4914e449e33bbd9bbca61", "is_reserved": 0, "rental_uris": {"android": "https://dc.lft.to/lastmile_qr_scan", "ios": "https://dc.lft.to/lastmile_qr_scan"}, "fusion_lon": 0.0}, {"lat": 38.89223616666666, "is_disabled": 0, "type": "electric_scooter", "lon": -77.02317483333333, "bike_id": "d15aad1bb65445f134ab4983f700c559", "fusion_lat": 0.0, "name": "d15aad1bb65445f134ab4983f700c559", "is_reserved": 0, "rental_uris": {"android": "https://dc.lft.to/lastmile_qr_scan", "ios": "https://dc.lft.to/lastmile_qr_scan"}, "fusion_lon": 0.0}, {"lat": 38.924679, "is_disabled": 0, "type": "electric_bike", "lon": -77.20835516666666, "bike_id": "075da9441af5fa25f790009826ef4a94", "fusion_lat": 0.0, "name": "075da9441af5fa25f790009826ef4a94", "is_reserved": 0, "rental_uris": {"android": "https://dc.lft.to/lastmile_qr_scan", "ios": "https://dc.lft.to/lastmile_qr_scan"}, "fusion_lon": 0.0}, {"lat": 38.908305, "is_disabled": 0, "type": "electric_scooter", "lon": -76.99701133333333, "bike_id": "4dd50ba4fbf1be418035a1814be4c4ea", "fusion_lat": 0.0, "name": "4dd50ba4fbf1be418035a1814be4c4ea", "is_reserved": 0, "rental_uris": {"android": "https://dc.lft.to/lastmile_qr_scan", "ios": "https://dc.lft.to/lastmile_qr_scan"}, "fusion_lon": 0.0}, {"lat": 38.917155666666666, "is_disabled": 0, "type": "electric_scooter", "lon": -77.03247366666666, "bike_id": "3c212e7b203ce00bd5f14c28247c28d4", "fusion_lat": 0.0, "name": "3c212e7b203ce00bd5f14c28247c28d4", "is_reserved": 0, "rental_uris": {"android": "https://dc.lft.to/lastmile_qr_scan", "ios": "https://dc.lft.to/lastmile_qr_scan"}, "fusion_lon": 0.0}, {"lat": 38.90530416666667, "is_disabled": 0, "type": "electric_scooter", "lon": -77.04181583333333, "bike_id": "617d3097b7f09c113fb2e97355489053", "fusion_lat": 0.0, "name": "617d3097b7f09c113fb2e97355489053", "is_reserved": 0, "rental_uris": {"android": "https://dc.lft.to/lastmile_qr_scan", "ios": "https://dc.lft.to/lastmile_qr_scan"}, "fusion_lon": 0.0}, {"lat": 38.91549166666667, "is_disabled": 0, "type": "electric_scooter", "lon": -77.03851566666667, "bike_id": "fc53d034a5eec46b8baac075c60f4f08", "fusion_lat": 0.0, "name": "fc53d034a5eec46b8baac075c60f4f08", "is_reserved": 0, "rental_uris": {"android": "https://dc.lft.to/lastmile_qr_scan", "ios": "https://dc.lft.to/lastmile_qr_scan"}, "fusion_lon": 0.0}, {"lat": 38.900668333333336, "is_disabled": 0, "type": "electric_scooter", "lon": -77.02614866666667, "bike_id": "02fad2a5c21d90911c7d31421e9618f7", "fusion_lat": 0.0, "name": "02fad2a5c21d90911c7d31421e9618f7", "is_reserved": 0, "rental_uris": {"android": "https://dc.lft.to/lastmile_qr_scan", "ios": "https://dc.lft.to/lastmile_qr_scan"}, "fusion_lon": 0.0}, {"lat": 38.84255016666667, "is_disabled": 0, "type": "electric_bike", "lon": -77.05831666666667, "bike_id": "ca15172591269060ccd89898f980d2c2", "fusion_lat": 0.0, "name": "ca15172591269060ccd89898f980d2c2", "is_reserved": 0, "rental_uris": {"android": "https://dc.lft.to/lastmile_qr_scan", "ios": "https://dc.lft.to/lastmile_qr_scan"}, "fusion_lon": 0.0}, {"lat": 38.9329165, "is_disabled": 0, "type": "electric_scooter", "lon": -77.02803066666667, "bike_id": "5ce46a9fd856c6ea8e646b8b2656c85d", "fusion_lat": 0.0, "name": "5ce46a9fd856c6ea8e646b8b2656c85d", "is_reserved": 0, "rental_uris": {"android": "https://dc.lft.to/lastmile_qr_scan", "ios": "https://dc.lft.to/lastmile_qr_scan"}, "fusion_lon": 0.0}, {"lat": 38.91113033333333, "is_disabled": 0, "type": "electric_scooter", "lon": -77.00328616666667, "bike_id": "bd19d78740ded94e8fcf84cfd77018ec", "fusion_lat": 0.0, "name": "bd19d78740ded94e8fcf84cfd77018ec", "is_reserved": 0, "rental_uris": {"android": "https://dc.lft.to/lastmile_qr_scan", "ios": "https://dc.lft.to/lastmile_qr_scan"}, "fusion_lon": 0.0}, {"lat": 38.91697533333333, "is_disabled": 0, "type": "electric_scooter", "lon": -77.04272633333333, "bike_id": "511f88c93fe1d6bf7fa3f0b4f430c152", "fusion_lat": 0.0, "name": "511f88c93fe1d6bf7fa3f0b4f430c152", "is_reserved": 0, "rental_uris": {"android": "https://dc.lft.to/lastmile_qr_scan", "ios": "https://dc.lft.to/lastmile_qr_scan"}, "fusion_lon": 0.0}, {"lat": 38.91188916666667, "is_disabled": 0, "type": "electric_scooter", "lon": -77.05977833333333, "bike_id": "0af427c95343ec3212339ebf3ab899db", "fusion_lat": 0.0, "name": "0af427c95343ec3212339ebf3ab899db", "is_reserved": 0, "rental_uris": {"android": "https://dc.lft.to/lastmile_qr_scan", "ios": "https://dc.lft.to/lastmile_qr_scan"}, "fusion_lon": 0.0}, {"lat": 38.9097455, "is_disabled": 0, "type": "electric_scooter", "lon": -77.038693, "bike_id": "93610bfab6802236279cb8976785b3f2", "fusion_lat": 0.0, "name": "93610bfab6802236279cb8976785b3f2", "is_reserved": 0, "rental_uris": {"android": "https://dc.lft.to/lastmile_qr_scan", "ios": "https://dc.lft.to/lastmile_qr_scan"}, "fusion_lon": 0.0}, {"lat": 38.922174166666665, "is_disabled": 0, "type": "electric_scooter", "lon": -77.04016316666667, "bike_id": "90a7498c7469382384c5bff8ff70cdca", "fusion_lat": 0.0, "name": "90a7498c7469382384c5bff8ff70cdca", "is_reserved": 0, "rental_uris": {"android": "https://dc.lft.to/lastmile_qr_scan", "ios": "https://dc.lft.to/lastmile_qr_scan"}, "fusion_lon": 0.0}, {"lat": 38.89854783333333, "is_disabled": 0, "type": "electric_scooter", "lon": -77.02033433333334, "bike_id": "e153dc0a4adb73443a6ee59c0902901d", "fusion_lat": 0.0, "name": "e153dc0a4adb73443a6ee59c0902901d", "is_reserved": 0, "rental_uris": {"android": "https://dc.lft.to/lastmile_qr_scan", "ios": "https://dc.lft.to/lastmile_qr_scan"}, "fusion_lon": 0.0}, {"lat": 38.933126666666666, "is_disabled": 0, "type": "electric_scooter", "lon": -77.04522133333333, "bike_id": "43d9b67a1fca96874870b1533ff9502f", "fusion_lat": 0.0, "name": "43d9b67a1fca96874870b1533ff9502f", "is_reserved": 0, "rental_uris": {"android": "https://dc.lft.to/lastmile_qr_scan", "ios": "https://dc.lft.to/lastmile_qr_scan"}, "fusion_lon": 0.0}, {"lat": 38.9058665, "is_disabled": 0, "type": "electric_scooter", "lon": -77.04887933333333, "bike_id": "b3f373179165eed9c03192a70cf9cad3", "fusion_lat": 0.0, "name": "b3f373179165eed9c03192a70cf9cad3", "is_reserved": 0, "rental_uris": {"android": "https://dc.lft.to/lastmile_qr_scan", "ios": "https://dc.lft.to/lastmile_qr_scan"}, "fusion_lon": 0.0}, {"lat": 38.89740716666667, "is_disabled": 0, "type": "electric_scooter", "lon": -77.00073266666666, "bike_id": "5a8f90f7c139a6928832ad9ab60bf401", "fusion_lat": 0.0, "name": "5a8f90f7c139a6928832ad9ab60bf401", "is_reserved": 0, "rental_uris": {"android": "https://dc.lft.to/lastmile_qr_scan", "ios": "https://dc.lft.to/lastmile_qr_scan"}, "fusion_lon": 0.0}, {"lat": 38.86675533333333, "is_disabled": 0, "type": "electric_scooter", "lon": -76.98545333333334, "bike_id": "9b6eed5bb5b1120002f5a4808c2298d6", "fusion_lat": 0.0, "name": "9b6eed5bb5b1120002f5a4808c2298d6", "is_reserved": 0, "rental_uris": {"android": "https://dc.lft.to/lastmile_qr_scan", "ios": "https://dc.lft.to/lastmile_qr_scan"}, "fusion_lon": 0.0}, {"lat": 38.8922265, "is_disabled": 0, "type": "electric_scooter", "lon": -77.04198733333334, "bike_id": "5affd0d73c5de19a3042487638bff3ae", "fusion_lat": 0.0, "name": "5affd0d73c5de19a3042487638bff3ae", "is_reserved": 0, "rental_uris": {"android": "https://dc.lft.to/lastmile_qr_scan", "ios": "https://dc.lft.to/lastmile_qr_scan"}, "fusion_lon": 0.0}, {"lat": 38.87730783333333, "is_disabled": 0, "type": "electric_bike", "lon": -76.98108033333334, "bike_id": "25f6382394bb5f0b04448448ebdba0fd", "fusion_lat": 0.0, "name": "25f6382394bb5f0b04448448ebdba0fd", "is_reserved": 0, "rental_uris": {"android": "https://dc.lft.to/lastmile_qr_scan", "ios": "https://dc.lft.to/lastmile_qr_scan"}, "fusion_lon": 0.0}, {"lat": 38.909771666666664, "is_disabled": 0, "type": "electric_scooter", "lon": -77.03181733333334, "bike_id": "bc1c1ab8906fd2819de1c0734513b343", "fusion_lat": 0.0, "name": "bc1c1ab8906fd2819de1c0734513b343", "is_reserved": 0, "rental_uris": {"android": "https://dc.lft.to/lastmile_qr_scan", "ios": "https://dc.lft.to/lastmile_qr_scan"}, "fusion_lon": 0.0}, {"lat": 38.89770466666667, "is_disabled": 0, "type": "electric_scooter", "lon": -77.02682116666666, "bike_id": "7954febbc6c606344b30e98378f605f0", "fusion_lat": 0.0, "name": "7954febbc6c606344b30e98378f605f0", "is_reserved": 0, "rental_uris": {"android": "https://dc.lft.to/lastmile_qr_scan", "ios": "https://dc.lft.to/lastmile_qr_scan"}, "fusion_lon": 0.0}, {"lat": 38.917843166666664, "is_disabled": 0, "type": "electric_scooter", "lon": -77.03663216666666, "bike_id": "681c9a2d5f6ec1a7fa3ecf30ae277423", "fusion_lat": 0.0, "name": "681c9a2d5f6ec1a7fa3ecf30ae277423", "is_reserved": 0, "rental_uris": {"android": "https://dc.lft.to/lastmile_qr_scan", "ios": "https://dc.lft.to/lastmile_qr_scan"}, "fusion_lon": 0.0}, {"lat": 38.917706833333334, "is_disabled": 0, "type": "electric_scooter", "lon": -77.01455883333334, "bike_id": "62f23c67510e5011799b418504e7634a", "fusion_lat": 0.0, "name": "62f23c67510e5011799b418504e7634a", "is_reserved": 0, "rental_uris": {"android": "https://dc.lft.to/lastmile_qr_scan", "ios": "https://dc.lft.to/lastmile_qr_scan"}, "fusion_lon": 0.0}, {"lat": 38.92817216666667, "is_disabled": 0, "type": "electric_scooter", "lon": -77.02869816666667, "bike_id": "3cb1bb9d058ff9ab1ac4846435076229", "fusion_lat": 0.0, "name": "3cb1bb9d058ff9ab1ac4846435076229", "is_reserved": 0, "rental_uris": {"android": "https://dc.lft.to/lastmile_qr_scan", "ios": "https://dc.lft.to/lastmile_qr_scan"}, "fusion_lon": 0.0}, {"lat": 38.87062783333333, "is_disabled": 0, "type": "electric_scooter", "lon": -77.0084135, "bike_id": "1127a81d54ab08a9b07a66f1b9bd66de", "fusion_lat": 0.0, "name": "1127a81d54ab08a9b07a66f1b9bd66de", "is_reserved": 0, "rental_uris": {"android": "https://dc.lft.to/lastmile_qr_scan", "ios": "https://dc.lft.to/lastmile_qr_scan"}, "fusion_lon": 0.0}, {"lat": 38.919241, "is_disabled": 0, "type": "electric_scooter", "lon": -77.03425583333333, "bike_id": "296f38f88f8b46e99b2cc0ebb691eea7", "fusion_lat": 0.0, "name": "296f38f88f8b46e99b2cc0ebb691eea7", "is_reserved": 0, "rental_uris": {"android": "https://dc.lft.to/lastmile_qr_scan", "ios": "https://dc.lft.to/lastmile_qr_scan"}, "fusion_lon": 0.0}, {"lat": 38.866777, "is_disabled": 0, "type": "electric_scooter", "lon": -76.98541383333334, "bike_id": "d11bd7e194e0948850d3b0c6e014e6d5", "fusion_lat": 0.0, "name": "d11bd7e194e0948850d3b0c6e014e6d5", "is_reserved": 0, "rental_uris": {"android": "https://dc.lft.to/lastmile_qr_scan", "ios": "https://dc.lft.to/lastmile_qr_scan"}, "fusion_lon": 0.0}, {"lat": 38.892198, "is_disabled": 0, "type": "electric_scooter", "lon": -77.023189, "bike_id": "bacc3185179b36fc31298d9da53a2cd3", "fusion_lat": 0.0, "name": "bacc3185179b36fc31298d9da53a2cd3", "is_reserved": 0, "rental_uris": {"android": "https://dc.lft.to/lastmile_qr_scan", "ios": "https://dc.lft.to/lastmile_qr_scan"}, "fusion_lon": 0.0}, {"lat": 38.944658833333335, "is_disabled": 0, "type": "electric_scooter", "lon": -77.00658733333333, "bike_id": "37deb3866d52c17fc57dc855690b8698", "fusion_lat": 0.0, "name": "37deb3866d52c17fc57dc855690b8698", "is_reserved": 0, "rental_uris": {"android": "https://dc.lft.to/lastmile_qr_scan", "ios": "https://dc.lft.to/lastmile_qr_scan"}, "fusion_lon": 0.0}, {"lat": 38.902397, "is_disabled": 0, "type": "electric_scooter", "lon": -77.00200183333334, "bike_id": "025cf033d6f8aac336320f09f71933bf", "fusion_lat": 0.0, "name": "025cf033d6f8aac336320f09f71933bf", "is_reserved": 0, "rental_uris": {"android": "https://dc.lft.to/lastmile_qr_scan", "ios": "https://dc.lft.to/lastmile_qr_scan"}, "fusion_lon": 0.0}, {"lat": 38.9057755, "is_disabled": 0, "type": "electric_scooter", "lon": -77.007197, "bike_id": "69558a96c307caa27ca2aa8410bf8800", "fusion_lat": 0.0, "name": "69558a96c307caa27ca2aa8410bf8800", "is_reserved": 0, "rental_uris": {"android": "https://dc.lft.to/lastmile_qr_scan", "ios": "https://dc.lft.to/lastmile_qr_scan"}, "fusion_lon": 0.0}, {"lat": 38.89178483333333, "is_disabled": 0, "type": "electric_scooter", "lon": -77.03207383333333, "bike_id": "c11527722412ee8e748dfa63e8d0f5c5", "fusion_lat": 0.0, "name": "c11527722412ee8e748dfa63e8d0f5c5", "is_reserved": 0, "rental_uris": {"android": "https://dc.lft.to/lastmile_qr_scan", "ios": "https://dc.lft.to/lastmile_qr_scan"}, "fusion_lon": 0.0}, {"lat": 38.916866, "is_disabled": 0, "type": "electric_scooter", "lon": -77.029722, "bike_id": "54fb84c43ba56cb44653e8af26cbf64a", "fusion_lat": 0.0, "name": "54fb84c43ba56cb44653e8af26cbf64a", "is_reserved": 0, "rental_uris": {"android": "https://dc.lft.to/lastmile_qr_scan", "ios": "https://dc.lft.to/lastmile_qr_scan"}, "fusion_lon": 0.0}, {"lat": 38.862134166666664, "is_disabled": 0, "type": "electric_bike", "lon": -76.99779466666666, "bike_id": "67c14a95de3b2ac0e2557a7c7bf7ae98", "fusion_lat": 0.0, "name": "67c14a95de3b2ac0e2557a7c7bf7ae98", "is_reserved": 0, "rental_uris": {"android": "https://dc.lft.to/lastmile_qr_scan", "ios": "https://dc.lft.to/lastmile_qr_scan"}, "fusion_lon": 0.0}, {"lat": 38.91917466666666, "is_disabled": 0, "type": "electric_scooter", "lon": -77.04811033333333, "bike_id": "33fe873bc8efb3cae3d2ac8857caefee", "fusion_lat": 0.0, "name": "33fe873bc8efb3cae3d2ac8857caefee", "is_reserved": 0, "rental_uris": {"android": "https://dc.lft.to/lastmile_qr_scan", "ios": "https://dc.lft.to/lastmile_qr_scan"}, "fusion_lon": 0.0}, {"lat": 38.871965, "is_disabled": 0, "type": "electric_bike", "lon": -77.01218716666666, "bike_id": "917fc2b427579bf28d09807e905aa2dc", "fusion_lat": 0.0, "name": "917fc2b427579bf28d09807e905aa2dc", "is_reserved": 0, "rental_uris": {"android": "https://dc.lft.to/lastmile_qr_scan", "ios": "https://dc.lft.to/lastmile_qr_scan"}, "fusion_lon": 0.0}, {"lat": 38.90052166666667, "is_disabled": 0, "type": "electric_scooter", "lon": -77.01878183333334, "bike_id": "637125a84a6540d7546a6838f04b1fb4", "fusion_lat": 0.0, "name": "637125a84a6540d7546a6838f04b1fb4", "is_reserved": 0, "rental_uris": {"android": "https://dc.lft.to/lastmile_qr_scan", "ios": "https://dc.lft.to/lastmile_qr_scan"}, "fusion_lon": 0.0}, {"lat": 38.95957516666667, "is_disabled": 0, "type": "electric_bike", "lon": -77.100911, "bike_id": "942f97718976fd5e08ed481a93a7c17e", "fusion_lat": 0.0, "name": "942f97718976fd5e08ed481a93a7c17e", "is_reserved": 0, "rental_uris": {"android": "https://dc.lft.to/lastmile_qr_scan", "ios": "https://dc.lft.to/lastmile_qr_scan"}, "fusion_lon": 0.0}, {"lat": 38.88486866666667, "is_disabled": 0, "type": "electric_scooter", "lon": -77.03472716666667, "bike_id": "30f4666237dab2bf0a9c56e1fb6bfd9b", "fusion_lat": 0.0, "name": "30f4666237dab2bf0a9c56e1fb6bfd9b", "is_reserved": 0, "rental_uris": {"android": "https://dc.lft.to/lastmile_qr_scan", "ios": "https://dc.lft.to/lastmile_qr_scan"}, "fusion_lon": 0.0}, {"lat": 38.91619583333333, "is_disabled": 0, "type": "electric_bike", "lon": -77.0029695, "bike_id": "06dbcef797fc49efcdc164418bcdb5a3", "fusion_lat": 0.0, "name": "06dbcef797fc49efcdc164418bcdb5a3", "is_reserved": 0, "rental_uris": {"android": "https://dc.lft.to/lastmile_qr_scan", "ios": "https://dc.lft.to/lastmile_qr_scan"}, "fusion_lon": 0.0}, {"lat": 38.924987333333334, "is_disabled": 0, "type": "electric_scooter", "lon": -77.02158566666667, "bike_id": "f1112257335395b1b0be9ace3099bc3b", "fusion_lat": 0.0, "name": "f1112257335395b1b0be9ace3099bc3b", "is_reserved": 0, "rental_uris": {"android": "https://dc.lft.to/lastmile_qr_scan", "ios": "https://dc.lft.to/lastmile_qr_scan"}, "fusion_lon": 0.0}, {"lat": 38.95958483333333, "is_disabled": 0, "type": "electric_scooter", "lon": -77.03311116666667, "bike_id": "532f61b75b2c8f034c13159787256011", "fusion_lat": 0.0, "name": "532f61b75b2c8f034c13159787256011", "is_reserved": 0, "rental_uris": {"android": "https://dc.lft.to/lastmile_qr_scan", "ios": "https://dc.lft.to/lastmile_qr_scan"}, "fusion_lon": 0.0}, {"lat": 38.905501666666666, "is_disabled": 0, "type": "electric_scooter", "lon": -77.05717216666666, "bike_id": "53dcc53241cfacd7f8e578f9fd96d8a9", "fusion_lat": 0.0, "name": "53dcc53241cfacd7f8e578f9fd96d8a9", "is_reserved": 0, "rental_uris": {"android": "https://dc.lft.to/lastmile_qr_scan", "ios": "https://dc.lft.to/lastmile_qr_scan"}, "fusion_lon": 0.0}, {"lat": 38.913245333333336, "is_disabled": 0, "type": "electric_scooter", "lon": -77.0326595, "bike_id": "c4d3390b2d1239e09d417903a754c241", "fusion_lat": 0.0, "name": "c4d3390b2d1239e09d417903a754c241", "is_reserved": 0, "rental_uris": {"android": "https://dc.lft.to/lastmile_qr_scan", "ios": "https://dc.lft.to/lastmile_qr_scan"}, "fusion_lon": 0.0}, {"lat": 38.892256333333336, "is_disabled": 0, "type": "electric_scooter", "lon": -77.04681016666666, "bike_id": "96eb84ca72b606d654276efa04d90473", "fusion_lat": 0.0, "name": "96eb84ca72b606d654276efa04d90473", "is_reserved": 0, "rental_uris": {"android": "https://dc.lft.to/lastmile_qr_scan", "ios": "https://dc.lft.to/lastmile_qr_scan"}, "fusion_lon": 0.0}, {"lat": 38.92338483333333, "is_disabled": 0, "type": "electric_scooter", "lon": -77.03510616666667, "bike_id": "31523327a465592ed611f1871f880082", "fusion_lat": 0.0, "name": "31523327a465592ed611f1871f880082", "is_reserved": 0, "rental_uris": {"android": "https://dc.lft.to/lastmile_qr_scan", "ios": "https://dc.lft.to/lastmile_qr_scan"}, "fusion_lon": 0.0}, {"lat": 38.9180125, "is_disabled": 0, "type": "electric_scooter", "lon": -77.0320365, "bike_id": "a1c50cace815246c2bfc2d07d589d228", "fusion_lat": 0.0, "name": "a1c50cace815246c2bfc2d07d589d228", "is_reserved": 0, "rental_uris": {"android": "https://dc.lft.to/lastmile_qr_scan", "ios": "https://dc.lft.to/lastmile_qr_scan"}, "fusion_lon": 0.0}, {"lat": 38.90502383333333, "is_disabled": 0, "type": "electric_scooter", "lon": -77.0295, "bike_id": "e289ea42a104929f4fecfc98de62e244", "fusion_lat": 0.0, "name": "e289ea42a104929f4fecfc98de62e244", "is_reserved": 0, "rental_uris": {"android": "https://dc.lft.to/lastmile_qr_scan", "ios": "https://dc.lft.to/lastmile_qr_scan"}, "fusion_lon": 0.0}, {"lat": 38.90227333333333, "is_disabled": 0, "type": "electric_scooter", "lon": -77.04871533333333, "bike_id": "dbac1838890fcbd080045a20173eaee1", "fusion_lat": 0.0, "name": "dbac1838890fcbd080045a20173eaee1", "is_reserved": 0, "rental_uris": {"android": "https://dc.lft.to/lastmile_qr_scan", "ios": "https://dc.lft.to/lastmile_qr_scan"}, "fusion_lon": 0.0}, {"lat": 38.9013995, "is_disabled": 0, "type": "electric_scooter", "lon": -77.00071616666666, "bike_id": "99ed2c06592ff7c4ca996cc52aed0b9f", "fusion_lat": 0.0, "name": "99ed2c06592ff7c4ca996cc52aed0b9f", "is_reserved": 0, "rental_uris": {"android": "https://dc.lft.to/lastmile_qr_scan", "ios": "https://dc.lft.to/lastmile_qr_scan"}, "fusion_lon": 0.0}, {"lat": 38.92111883333333, "is_disabled": 0, "type": "electric_bike", "lon": -77.03929933333333, "bike_id": "43831368b64f4c427783225012d39712", "fusion_lat": 0.0, "name": "43831368b64f4c427783225012d39712", "is_reserved": 0, "rental_uris": {"android": "https://dc.lft.to/lastmile_qr_scan", "ios": "https://dc.lft.to/lastmile_qr_scan"}, "fusion_lon": 0.0}, {"lat": 38.93403933333333, "is_disabled": 0, "type": "electric_scooter", "lon": -77.0412375, "bike_id": "75365f8ab20556c37262e05973b5c3e6", "fusion_lat": 0.0, "name": "75365f8ab20556c37262e05973b5c3e6", "is_reserved": 0, "rental_uris": {"android": "https://dc.lft.to/lastmile_qr_scan", "ios": "https://dc.lft.to/lastmile_qr_scan"}, "fusion_lon": 0.0}, {"lat": 38.96097183333333, "is_disabled": 0, "type": "electric_scooter", "lon": -77.082865, "bike_id": "582e02fea86ba40f9e9918d9a70a0dd9", "fusion_lat": 0.0, "name": "582e02fea86ba40f9e9918d9a70a0dd9", "is_reserved": 0, "rental_uris": {"android": "https://dc.lft.to/lastmile_qr_scan", "ios": "https://dc.lft.to/lastmile_qr_scan"}, "fusion_lon": 0.0}, {"lat": 38.918429, "is_disabled": 0, "type": "electric_scooter", "lon": -77.02305583333333, "bike_id": "9b29e57c7ca55d20085aa7c67ae6b677", "fusion_lat": 0.0, "name": "9b29e57c7ca55d20085aa7c67ae6b677", "is_reserved": 0, "rental_uris": {"android": "https://dc.lft.to/lastmile_qr_scan", "ios": "https://dc.lft.to/lastmile_qr_scan"}, "fusion_lon": 0.0}, {"lat": 38.9221565, "is_disabled": 0, "type": "electric_scooter", "lon": -77.03291583333333, "bike_id": "0279b0d51049b3f65b56fba308fccde6", "fusion_lat": 0.0, "name": "0279b0d51049b3f65b56fba308fccde6", "is_reserved": 0, "rental_uris": {"android": "https://dc.lft.to/lastmile_qr_scan", "ios": "https://dc.lft.to/lastmile_qr_scan"}, "fusion_lon": 0.0}, {"lat": 38.919887333333335, "is_disabled": 0, "type": "electric_scooter", "lon": -77.03266316666667, "bike_id": "01e3915dd451bc516b794e55156d5e6e", "fusion_lat": 0.0, "name": "01e3915dd451bc516b794e55156d5e6e", "is_reserved": 0, "rental_uris": {"android": "https://dc.lft.to/lastmile_qr_scan", "ios": "https://dc.lft.to/lastmile_qr_scan"}, "fusion_lon": 0.0}, {"lat": 38.881420166666665, "is_disabled": 0, "type": "electric_scooter", "lon": -76.99514533333334, "bike_id": "36f1bb8127d1171a198764823b7f912c", "fusion_lat": 0.0, "name": "36f1bb8127d1171a198764823b7f912c", "is_reserved": 0, "rental_uris": {"android": "https://dc.lft.to/lastmile_qr_scan", "ios": "https://dc.lft.to/lastmile_qr_scan"}, "fusion_lon": 0.0}, {"lat": 38.89895033333333, "is_disabled": 0, "type": "electric_scooter", "lon": -76.9972795, "bike_id": "0e98eefd67d90e9d67bb47f4fe20f7ff", "fusion_lat": 0.0, "name": "0e98eefd67d90e9d67bb47f4fe20f7ff", "is_reserved": 0, "rental_uris": {"android": "https://dc.lft.to/lastmile_qr_scan", "ios": "https://dc.lft.to/lastmile_qr_scan"}, "fusion_lon": 0.0}, {"lat": 38.90572916666667, "is_disabled": 0, "type": "electric_scooter", "lon": -77.00567666666667, "bike_id": "b1499f7a2b628f17ad70184b624003b8", "fusion_lat": 0.0, "name": "b1499f7a2b628f17ad70184b624003b8", "is_reserved": 0, "rental_uris": {"android": "https://dc.lft.to/lastmile_qr_scan", "ios": "https://dc.lft.to/lastmile_qr_scan"}, "fusion_lon": 0.0}, {"lat": 38.90581066666667, "is_disabled": 0, "type": "electric_scooter", "lon": -77.008849, "bike_id": "0a9a06192944cd6cc8a99f3385fecd98", "fusion_lat": 0.0, "name": "0a9a06192944cd6cc8a99f3385fecd98", "is_reserved": 0, "rental_uris": {"android": "https://dc.lft.to/lastmile_qr_scan", "ios": "https://dc.lft.to/lastmile_qr_scan"}, "fusion_lon": 0.0}, {"lat": 38.868919, "is_disabled": 0, "type": "electric_scooter", "lon": -76.983144, "bike_id": "4498a22ca48276a40eb4dbe0236b5521", "fusion_lat": 0.0, "name": "4498a22ca48276a40eb4dbe0236b5521", "is_reserved": 0, "rental_uris": {"android": "https://dc.lft.to/lastmile_qr_scan", "ios": "https://dc.lft.to/lastmile_qr_scan"}, "fusion_lon": 0.0}, {"lat": 38.906475666666665, "is_disabled": 0, "type": "electric_scooter", "lon": -77.0532295, "bike_id": "15da300bb7a68c551a4a53263c4a5422", "fusion_lat": 0.0, "name": "15da300bb7a68c551a4a53263c4a5422", "is_reserved": 0, "rental_uris": {"android": "https://dc.lft.to/lastmile_qr_scan", "ios": "https://dc.lft.to/lastmile_qr_scan"}, "fusion_lon": 0.0}, {"lat": 38.9186695, "is_disabled": 0, "type": "electric_scooter", "lon": -77.0247165, "bike_id": "33a7959f66955355b70608029f5f8f1c", "fusion_lat": 0.0, "name": "33a7959f66955355b70608029f5f8f1c", "is_reserved": 0, "rental_uris": {"android": "https://dc.lft.to/lastmile_qr_scan", "ios": "https://dc.lft.to/lastmile_qr_scan"}, "fusion_lon": 0.0}, {"lat": 38.90263616666667, "is_disabled": 0, "type": "electric_scooter", "lon": -77.01776983333333, "bike_id": "380e85d848172a1a554a557480c22f78", "fusion_lat": 0.0, "name": "380e85d848172a1a554a557480c22f78", "is_reserved": 0, "rental_uris": {"android": "https://dc.lft.to/lastmile_qr_scan", "ios": "https://dc.lft.to/lastmile_qr_scan"}, "fusion_lon": 0.0}, {"lat": 38.902958166666664, "is_disabled": 0, "type": "electric_scooter", "lon": -77.0020345, "bike_id": "a5b60df0d8deb539e62e31694cd6edbd", "fusion_lat": 0.0, "name": "a5b60df0d8deb539e62e31694cd6edbd", "is_reserved": 0, "rental_uris": {"android": "https://dc.lft.to/lastmile_qr_scan", "ios": "https://dc.lft.to/lastmile_qr_scan"}, "fusion_lon": 0.0}, {"lat": 38.9023705, "is_disabled": 0, "type": "electric_scooter", "lon": -77.00066516666666, "bike_id": "cdb2b518224338983ed5bfb64535bdd8", "fusion_lat": 0.0, "name": "cdb2b518224338983ed5bfb64535bdd8", "is_reserved": 0, "rental_uris": {"android": "https://dc.lft.to/lastmile_qr_scan", "ios": "https://dc.lft.to/lastmile_qr_scan"}, "fusion_lon": 0.0}, {"lat": 38.9361605, "is_disabled": 0, "type": "electric_scooter", "lon": -77.05861533333334, "bike_id": "9e189aec97520c7ab7d637898fcd241d", "fusion_lat": 0.0, "name": "9e189aec97520c7ab7d637898fcd241d", "is_reserved": 0, "rental_uris": {"android": "https://dc.lft.to/lastmile_qr_scan", "ios": "https://dc.lft.to/lastmile_qr_scan"}, "fusion_lon": 0.0}, {"lat": 38.933341166666665, "is_disabled": 0, "type": "electric_scooter", "lon": -77.04369366666667, "bike_id": "d29d49c1185a84ad87aacdab5074a513", "fusion_lat": 0.0, "name": "d29d49c1185a84ad87aacdab5074a513", "is_reserved": 0, "rental_uris": {"android": "https://dc.lft.to/lastmile_qr_scan", "ios": "https://dc.lft.to/lastmile_qr_scan"}, "fusion_lon": 0.0}, {"lat": 38.902294833333336, "is_disabled": 0, "type": "electric_scooter", "lon": -77.06049833333333, "bike_id": "64e682ac5a751e6bc4b84413472e85d0", "fusion_lat": 0.0, "name": "64e682ac5a751e6bc4b84413472e85d0", "is_reserved": 0, "rental_uris": {"android": "https://dc.lft.to/lastmile_qr_scan", "ios": "https://dc.lft.to/lastmile_qr_scan"}, "fusion_lon": 0.0}, {"lat": 38.924835, "is_disabled": 0, "type": "electric_scooter", "lon": -77.0574945, "bike_id": "f2f47c4cd2689ffc11221ffec670a54f", "fusion_lat": 0.0, "name": "f2f47c4cd2689ffc11221ffec670a54f", "is_reserved": 0, "rental_uris": {"android": "https://dc.lft.to/lastmile_qr_scan", "ios": "https://dc.lft.to/lastmile_qr_scan"}, "fusion_lon": 0.0}, {"lat": 38.9195, "is_disabled": 0, "type": "electric_scooter", "lon": -76.98080216666666, "bike_id": "d55dd668556904ab3014236612508b40", "fusion_lat": 0.0, "name": "d55dd668556904ab3014236612508b40", "is_reserved": 0, "rental_uris": {"android": "https://dc.lft.to/lastmile_qr_scan", "ios": "https://dc.lft.to/lastmile_qr_scan"}, "fusion_lon": 0.0}, {"lat": 38.89221516666667, "is_disabled": 0, "type": "electric_scooter", "lon": -77.04368483333333, "bike_id": "5935309bdb61ca6f1b799f0220a3542c", "fusion_lat": 0.0, "name": "5935309bdb61ca6f1b799f0220a3542c", "is_reserved": 0, "rental_uris": {"android": "https://dc.lft.to/lastmile_qr_scan", "ios": "https://dc.lft.to/lastmile_qr_scan"}, "fusion_lon": 0.0}, {"lat": 38.885284666666664, "is_disabled": 0, "type": "electric_scooter", "lon": -77.011336, "bike_id": "e06307f00e8966c0c44879f33ec4d31b", "fusion_lat": 0.0, "name": "e06307f00e8966c0c44879f33ec4d31b", "is_reserved": 0, "rental_uris": {"android": "https://dc.lft.to/lastmile_qr_scan", "ios": "https://dc.lft.to/lastmile_qr_scan"}, "fusion_lon": 0.0}, {"lat": 38.921548666666666, "is_disabled": 0, "type": "electric_scooter", "lon": -77.0352, "bike_id": "15f30add39125af5ad15666a40aac3ee", "fusion_lat": 0.0, "name": "15f30add39125af5ad15666a40aac3ee", "is_reserved": 0, "rental_uris": {"android": "https://dc.lft.to/lastmile_qr_scan", "ios": "https://dc.lft.to/lastmile_qr_scan"}, "fusion_lon": 0.0}, {"lat": 38.91321466666667, "is_disabled": 0, "type": "electric_scooter", "lon": -77.04010166666667, "bike_id": "a698a249cd2cd9f67501fb18d75f1ed0", "fusion_lat": 0.0, "name": "a698a249cd2cd9f67501fb18d75f1ed0", "is_reserved": 0, "rental_uris": {"android": "https://dc.lft.to/lastmile_qr_scan", "ios": "https://dc.lft.to/lastmile_qr_scan"}, "fusion_lon": 0.0}, {"lat": 38.929082333333334, "is_disabled": 0, "type": "electric_scooter", "lon": -77.03739816666666, "bike_id": "98a7c2146040bb3b197f81843710f781", "fusion_lat": 0.0, "name": "98a7c2146040bb3b197f81843710f781", "is_reserved": 0, "rental_uris": {"android": "https://dc.lft.to/lastmile_qr_scan", "ios": "https://dc.lft.to/lastmile_qr_scan"}, "fusion_lon": 0.0}, {"lat": 38.9227465, "is_disabled": 0, "type": "electric_scooter", "lon": -77.04463166666666, "bike_id": "8d8f0bd9b3fa755351d158a0f9aa7318", "fusion_lat": 0.0, "name": "8d8f0bd9b3fa755351d158a0f9aa7318", "is_reserved": 0, "rental_uris": {"android": "https://dc.lft.to/lastmile_qr_scan", "ios": "https://dc.lft.to/lastmile_qr_scan"}, "fusion_lon": 0.0}, {"lat": 38.90683516666667, "is_disabled": 0, "type": "electric_scooter", "lon": -77.07433583333334, "bike_id": "e5bf4c44815f280244754093aa32c54e", "fusion_lat": 0.0, "name": "e5bf4c44815f280244754093aa32c54e", "is_reserved": 0, "rental_uris": {"android": "https://dc.lft.to/lastmile_qr_scan", "ios": "https://dc.lft.to/lastmile_qr_scan"}, "fusion_lon": 0.0}, {"lat": 38.92388366666667, "is_disabled": 0, "type": "electric_scooter", "lon": -77.035399, "bike_id": "bdbe1055360b528c09c5738898af780a", "fusion_lat": 0.0, "name": "bdbe1055360b528c09c5738898af780a", "is_reserved": 0, "rental_uris": {"android": "https://dc.lft.to/lastmile_qr_scan", "ios": "https://dc.lft.to/lastmile_qr_scan"}, "fusion_lon": 0.0}, {"lat": 38.9142795, "is_disabled": 0, "type": "electric_scooter", "lon": -77.03180933333333, "bike_id": "1a811a6a6561fdd9faed3052a0251a23", "fusion_lat": 0.0, "name": "1a811a6a6561fdd9faed3052a0251a23", "is_reserved": 0, "rental_uris": {"android": "https://dc.lft.to/lastmile_qr_scan", "ios": "https://dc.lft.to/lastmile_qr_scan"}, "fusion_lon": 0.0}, {"lat": 38.905333666666664, "is_disabled": 0, "type": "electric_scooter", "lon": -77.0513535, "bike_id": "8443fd9ef42f46ea89357596a32cb11b", "fusion_lat": 0.0, "name": "8443fd9ef42f46ea89357596a32cb11b", "is_reserved": 0, "rental_uris": {"android": "https://dc.lft.to/lastmile_qr_scan", "ios": "https://dc.lft.to/lastmile_qr_scan"}, "fusion_lon": 0.0}, {"lat": 38.8579835, "is_disabled": 0, "type": "electric_scooter", "lon": -76.9871505, "bike_id": "90044b0b79af0e4934a949ddda428486", "fusion_lat": 0.0, "name": "90044b0b79af0e4934a949ddda428486", "is_reserved": 0, "rental_uris": {"android": "https://dc.lft.to/lastmile_qr_scan", "ios": "https://dc.lft.to/lastmile_qr_scan"}, "fusion_lon": 0.0}, {"lat": 38.880401, "is_disabled": 0, "type": "electric_scooter", "lon": -77.003664, "bike_id": "5503f3176b8aec047328142a743552b8", "fusion_lat": 0.0, "name": "5503f3176b8aec047328142a743552b8", "is_reserved": 0, "rental_uris": {"android": "https://dc.lft.to/lastmile_qr_scan", "ios": "https://dc.lft.to/lastmile_qr_scan"}, "fusion_lon": 0.0}, {"lat": 38.9093865, "is_disabled": 0, "type": "electric_bike", "lon": -77.04872283333333, "bike_id": "260544efc58b3a9cd7d5170c4ab7d6a4", "fusion_lat": 0.0, "name": "260544efc58b3a9cd7d5170c4ab7d6a4", "is_reserved": 0, "rental_uris": {"android": "https://dc.lft.to/lastmile_qr_scan", "ios": "https://dc.lft.to/lastmile_qr_scan"}, "fusion_lon": 0.0}, {"lat": 38.9181695, "is_disabled": 0, "type": "electric_scooter", "lon": -77.02486666666667, "bike_id": "2a4a7999be63697408f89d49ab5a333d", "fusion_lat": 0.0, "name": "2a4a7999be63697408f89d49ab5a333d", "is_reserved": 0, "rental_uris": {"android": "https://dc.lft.to/lastmile_qr_scan", "ios": "https://dc.lft.to/lastmile_qr_scan"}, "fusion_lon": 0.0}, {"lat": 38.9198845, "is_disabled": 0, "type": "electric_bike", "lon": -77.00327133333333, "bike_id": "518a7a18366aad2a4a7a270a97180a5a", "fusion_lat": 0.0, "name": "518a7a18366aad2a4a7a270a97180a5a", "is_reserved": 0, "rental_uris": {"android": "https://dc.lft.to/lastmile_qr_scan", "ios": "https://dc.lft.to/lastmile_qr_scan"}, "fusion_lon": 0.0}, {"lat": 38.8849525, "is_disabled": 0, "type": "electric_scooter", "lon": -77.00703816666666, "bike_id": "339abbcc632c6ea94acb07afe0258b98", "fusion_lat": 0.0, "name": "339abbcc632c6ea94acb07afe0258b98", "is_reserved": 0, "rental_uris": {"android": "https://dc.lft.to/lastmile_qr_scan", "ios": "https://dc.lft.to/lastmile_qr_scan"}, "fusion_lon": 0.0}, {"lat": 38.91267, "is_disabled": 0, "type": "electric_scooter", "lon": -77.01838616666667, "bike_id": "e64533f4b6f764c6b7ba0ba50a2e3000", "fusion_lat": 0.0, "name": "e64533f4b6f764c6b7ba0ba50a2e3000", "is_reserved": 0, "rental_uris": {"android": "https://dc.lft.to/lastmile_qr_scan", "ios": "https://dc.lft.to/lastmile_qr_scan"}, "fusion_lon": 0.0}, {"lat": 38.800614333333336, "is_disabled": 0, "type": "electric_bike", "lon": -77.07111783333333, "bike_id": "5a041d16bfca2eeb1bdbe70ffad8ac59", "fusion_lat": 0.0, "name": "5a041d16bfca2eeb1bdbe70ffad8ac59", "is_reserved": 0, "rental_uris": {"android": "https://dc.lft.to/lastmile_qr_scan", "ios": "https://dc.lft.to/lastmile_qr_scan"}, "fusion_lon": 0.0}, {"lat": 38.940503666666665, "is_disabled": 0, "type": "electric_bike", "lon": -76.98820216666667, "bike_id": "977509a2777fbc2519f4a62e4b0fc33d", "fusion_lat": 0.0, "name": "977509a2777fbc2519f4a62e4b0fc33d", "is_reserved": 0, "rental_uris": {"android": "https://dc.lft.to/lastmile_qr_scan", "ios": "https://dc.lft.to/lastmile_qr_scan"}, "fusion_lon": 0.0}, {"lat": 38.903914666666665, "is_disabled": 0, "type": "electric_scooter", "lon": -76.990108, "bike_id": "25bbf2e600e6b4b7b8669775c582e834", "fusion_lat": 0.0, "name": "25bbf2e600e6b4b7b8669775c582e834", "is_reserved": 0, "rental_uris": {"android": "https://dc.lft.to/lastmile_qr_scan", "ios": "https://dc.lft.to/lastmile_qr_scan"}, "fusion_lon": 0.0}, {"lat": 38.9142865, "is_disabled": 0, "type": "electric_scooter", "lon": -77.0321055, "bike_id": "f1be2425ca129c65a9a044463a0b45f8", "fusion_lat": 0.0, "name": "f1be2425ca129c65a9a044463a0b45f8", "is_reserved": 0, "rental_uris": {"android": "https://dc.lft.to/lastmile_qr_scan", "ios": "https://dc.lft.to/lastmile_qr_scan"}, "fusion_lon": 0.0}, {"lat": 38.90849033333333, "is_disabled": 0, "type": "electric_scooter", "lon": -77.02056616666667, "bike_id": "9365b3bbe57a4fd7cf6c46d94d06f4e9", "fusion_lat": 0.0, "name": "9365b3bbe57a4fd7cf6c46d94d06f4e9", "is_reserved": 0, "rental_uris": {"android": "https://dc.lft.to/lastmile_qr_scan", "ios": "https://dc.lft.to/lastmile_qr_scan"}, "fusion_lon": 0.0}, {"lat": 38.956353666666665, "is_disabled": 0, "type": "electric_bike", "lon": -77.02296416666667, "bike_id": "89f3ab6f70ec649e8230250e096140be", "fusion_lat": 0.0, "name": "89f3ab6f70ec649e8230250e096140be", "is_reserved": 0, "rental_uris": {"android": "https://dc.lft.to/lastmile_qr_scan", "ios": "https://dc.lft.to/lastmile_qr_scan"}, "fusion_lon": 0.0}, {"lat": 38.920686833333335, "is_disabled": 0, "type": "electric_scooter", "lon": -77.02529816666667, "bike_id": "63c17c978a8c71b399017d670a573660", "fusion_lat": 0.0, "name": "63c17c978a8c71b399017d670a573660", "is_reserved": 0, "rental_uris": {"android": "https://dc.lft.to/lastmile_qr_scan", "ios": "https://dc.lft.to/lastmile_qr_scan"}, "fusion_lon": 0.0}, {"lat": 38.86651916666667, "is_disabled": 0, "type": "electric_scooter", "lon": -76.98883866666667, "bike_id": "d02f13c8939c643095b3205ee4cfef12", "fusion_lat": 0.0, "name": "d02f13c8939c643095b3205ee4cfef12", "is_reserved": 0, "rental_uris": {"android": "https://dc.lft.to/lastmile_qr_scan", "ios": "https://dc.lft.to/lastmile_qr_scan"}, "fusion_lon": 0.0}, {"lat": 38.922513, "is_disabled": 0, "type": "electric_scooter", "lon": -77.03073783333333, "bike_id": "fe85ae4a0479a60031e7a4b89bf320de", "fusion_lat": 0.0, "name": "fe85ae4a0479a60031e7a4b89bf320de", "is_reserved": 0, "rental_uris": {"android": "https://dc.lft.to/lastmile_qr_scan", "ios": "https://dc.lft.to/lastmile_qr_scan"}, "fusion_lon": 0.0}, {"lat": 38.94980283333334, "is_disabled": 0, "type": "electric_scooter", "lon": -77.06565533333334, "bike_id": "fcfc250a15ddc3355bf292ba67c434f0", "fusion_lat": 0.0, "name": "fcfc250a15ddc3355bf292ba67c434f0", "is_reserved": 0, "rental_uris": {"android": "https://dc.lft.to/lastmile_qr_scan", "ios": "https://dc.lft.to/lastmile_qr_scan"}, "fusion_lon": 0.0}, {"lat": 38.89206, "is_disabled": 0, "type": "electric_scooter", "lon": -76.98564616666667, "bike_id": "fa10a52b63d1b4df013508d3c59ea035", "fusion_lat": 0.0, "name": "fa10a52b63d1b4df013508d3c59ea035", "is_reserved": 0, "rental_uris": {"android": "https://dc.lft.to/lastmile_qr_scan", "ios": "https://dc.lft.to/lastmile_qr_scan"}, "fusion_lon": 0.0}, {"lat": 38.998150833333334, "is_disabled": 0, "type": "electric_bike", "lon": -76.88371716666667, "bike_id": "13914c79983255c8a940c52151a172ed", "fusion_lat": 0.0, "name": "13914c79983255c8a940c52151a172ed", "is_reserved": 0, "rental_uris": {"android": "https://dc.lft.to/lastmile_qr_scan", "ios": "https://dc.lft.to/lastmile_qr_scan"}, "fusion_lon": 0.0}, {"lat": 38.938651, "is_disabled": 0, "type": "electric_scooter", "lon": -77.0309405, "bike_id": "c62dab5a42772a18c4b91948d190366e", "fusion_lat": 0.0, "name": "c62dab5a42772a18c4b91948d190366e", "is_reserved": 0, "rental_uris": {"android": "https://dc.lft.to/lastmile_qr_scan", "ios": "https://dc.lft.to/lastmile_qr_scan"}, "fusion_lon": 0.0}, {"lat": 38.89979566666667, "is_disabled": 0, "type": "electric_scooter", "lon": -77.02067633333333, "bike_id": "93b6e109da4924d4883dd2bc1b60c9d2", "fusion_lat": 0.0, "name": "93b6e109da4924d4883dd2bc1b60c9d2", "is_reserved": 0, "rental_uris": {"android": "https://dc.lft.to/lastmile_qr_scan", "ios": "https://dc.lft.to/lastmile_qr_scan"}, "fusion_lon": 0.0}, {"lat": 38.87647066666667, "is_disabled": 0, "type": "electric_scooter", "lon": -77.00430033333333, "bike_id": "3e9b0ab36fb2c3bb71352c1f7b6e281c", "fusion_lat": 0.0, "name": "3e9b0ab36fb2c3bb71352c1f7b6e281c", "is_reserved": 0, "rental_uris": {"android": "https://dc.lft.to/lastmile_qr_scan", "ios": "https://dc.lft.to/lastmile_qr_scan"}, "fusion_lon": 0.0}, {"lat": 38.9170765, "is_disabled": 0, "type": "electric_scooter", "lon": -77.02734166666667, "bike_id": "b03fabe22e4cbf6466cff3ef613035ad", "fusion_lat": 0.0, "name": "b03fabe22e4cbf6466cff3ef613035ad", "is_reserved": 0, "rental_uris": {"android": "https://dc.lft.to/lastmile_qr_scan", "ios": "https://dc.lft.to/lastmile_qr_scan"}, "fusion_lon": 0.0}, {"lat": 39.024315666666666, "is_disabled": 0, "type": "electric_bike", "lon": -77.13099283333334, "bike_id": "83c42f1bbfd7357160b410980de3139b", "fusion_lat": 0.0, "name": "83c42f1bbfd7357160b410980de3139b", "is_reserved": 0, "rental_uris": {"android": "https://dc.lft.to/lastmile_qr_scan", "ios": "https://dc.lft.to/lastmile_qr_scan"}, "fusion_lon": 0.0}, {"lat": 38.9174025, "is_disabled": 0, "type": "electric_scooter", "lon": -77.03184533333334, "bike_id": "cc5063bdcfd7f0736062a0c7f3c72b27", "fusion_lat": 0.0, "name": "cc5063bdcfd7f0736062a0c7f3c72b27", "is_reserved": 0, "rental_uris": {"android": "https://dc.lft.to/lastmile_qr_scan", "ios": "https://dc.lft.to/lastmile_qr_scan"}, "fusion_lon": 0.0}, {"lat": 38.9132155, "is_disabled": 0, "type": "electric_scooter", "lon": -76.98641733333334, "bike_id": "ae08ed9773def53eda4d020e9c7a8ece", "fusion_lat": 0.0, "name": "ae08ed9773def53eda4d020e9c7a8ece", "is_reserved": 0, "rental_uris": {"android": "https://dc.lft.to/lastmile_qr_scan", "ios": "https://dc.lft.to/lastmile_qr_scan"}, "fusion_lon": 0.0}, {"lat": 39.03045916666667, "is_disabled": 0, "type": "electric_bike", "lon": -77.0948645, "bike_id": "556fc47e9dedd93e6ec8c3d436cb4e4c", "fusion_lat": 0.0, "name": "556fc47e9dedd93e6ec8c3d436cb4e4c", "is_reserved": 0, "rental_uris": {"android": "https://dc.lft.to/lastmile_qr_scan", "ios": "https://dc.lft.to/lastmile_qr_scan"}, "fusion_lon": 0.0}, {"lat": 38.89950966666667, "is_disabled": 0, "type": "electric_scooter", "lon": -77.00344016666666, "bike_id": "f84358edfdb9f4dbc6c6a6aa61ca85cb", "fusion_lat": 0.0, "name": "f84358edfdb9f4dbc6c6a6aa61ca85cb", "is_reserved": 0, "rental_uris": {"android": "https://dc.lft.to/lastmile_qr_scan", "ios": "https://dc.lft.to/lastmile_qr_scan"}, "fusion_lon": 0.0}, {"lat": 38.90013716666667, "is_disabled": 0, "type": "electric_scooter", "lon": -76.922282, "bike_id": "f55407cd62113449be45cb39573e1911", "fusion_lat": 0.0, "name": "f55407cd62113449be45cb39573e1911", "is_reserved": 0, "rental_uris": {"android": "https://dc.lft.to/lastmile_qr_scan", "ios": "https://dc.lft.to/lastmile_qr_scan"}, "fusion_lon": 0.0}, {"lat": 38.916913, "is_disabled": 0, "type": "electric_scooter", "lon": -77.02876716666667, "bike_id": "2f374356e752a10946e96ffd966b00e2", "fusion_lat": 0.0, "name": "2f374356e752a10946e96ffd966b00e2", "is_reserved": 0, "rental_uris": {"android": "https://dc.lft.to/lastmile_qr_scan", "ios": "https://dc.lft.to/lastmile_qr_scan"}, "fusion_lon": 0.0}, {"lat": 38.933430666666666, "is_disabled": 0, "type": "electric_scooter", "lon": -76.99305916666667, "bike_id": "6d4d812b580e429126767fb54a7e077a", "fusion_lat": 0.0, "name": "6d4d812b580e429126767fb54a7e077a", "is_reserved": 0, "rental_uris": {"android": "https://dc.lft.to/lastmile_qr_scan", "ios": "https://dc.lft.to/lastmile_qr_scan"}, "fusion_lon": 0.0}, {"lat": 38.91455666666667, "is_disabled": 0, "type": "electric_scooter", "lon": -77.0297845, "bike_id": "45e4c0bde554f3d7fc4afb584d9283e9", "fusion_lat": 0.0, "name": "45e4c0bde554f3d7fc4afb584d9283e9", "is_reserved": 0, "rental_uris": {"android": "https://dc.lft.to/lastmile_qr_scan", "ios": "https://dc.lft.to/lastmile_qr_scan"}, "fusion_lon": 0.0}, {"lat": 38.909614, "is_disabled": 0, "type": "electric_scooter", "lon": -77.02159766666666, "bike_id": "933b0ba6c90d07e7d7e105856f99cb68", "fusion_lat": 0.0, "name": "933b0ba6c90d07e7d7e105856f99cb68", "is_reserved": 0, "rental_uris": {"android": "https://dc.lft.to/lastmile_qr_scan", "ios": "https://dc.lft.to/lastmile_qr_scan"}, "fusion_lon": 0.0}, {"lat": 38.90705916666667, "is_disabled": 0, "type": "electric_scooter", "lon": -77.03089533333333, "bike_id": "27fb4e166cb62befefbd0d38810344cb", "fusion_lat": 0.0, "name": "27fb4e166cb62befefbd0d38810344cb", "is_reserved": 0, "rental_uris": {"android": "https://dc.lft.to/lastmile_qr_scan", "ios": "https://dc.lft.to/lastmile_qr_scan"}, "fusion_lon": 0.0}, {"lat": 38.918203166666665, "is_disabled": 0, "type": "electric_scooter", "lon": -77.02484783333334, "bike_id": "c4bd062fad0ce487e951813bbab02ffa", "fusion_lat": 0.0, "name": "c4bd062fad0ce487e951813bbab02ffa", "is_reserved": 0, "rental_uris": {"android": "https://dc.lft.to/lastmile_qr_scan", "ios": "https://dc.lft.to/lastmile_qr_scan"}, "fusion_lon": 0.0}, {"lat": 38.9041045, "is_disabled": 0, "type": "electric_scooter", "lon": -77.0204735, "bike_id": "9994641f4f1acd4c7f997d603b677720", "fusion_lat": 0.0, "name": "9994641f4f1acd4c7f997d603b677720", "is_reserved": 0, "rental_uris": {"android": "https://dc.lft.to/lastmile_qr_scan", "ios": "https://dc.lft.to/lastmile_qr_scan"}, "fusion_lon": 0.0}, {"lat": 38.92368666666667, "is_disabled": 0, "type": "electric_scooter", "lon": -77.05131483333334, "bike_id": "5556ddf6a8b735a2721a63255e8a4b12", "fusion_lat": 0.0, "name": "5556ddf6a8b735a2721a63255e8a4b12", "is_reserved": 0, "rental_uris": {"android": "https://dc.lft.to/lastmile_qr_scan", "ios": "https://dc.lft.to/lastmile_qr_scan"}, "fusion_lon": 0.0}, {"lat": 38.9233255, "is_disabled": 0, "type": "electric_scooter", "lon": -77.031991, "bike_id": "4dc09f5d017dd877459aa0457f626138", "fusion_lat": 0.0, "name": "4dc09f5d017dd877459aa0457f626138", "is_reserved": 0, "rental_uris": {"android": "https://dc.lft.to/lastmile_qr_scan", "ios": "https://dc.lft.to/lastmile_qr_scan"}, "fusion_lon": 0.0}, {"lat": 38.9072755, "is_disabled": 0, "type": "electric_scooter", "lon": -77.00055366666666, "bike_id": "70a4dfd66113f331c8fd97ed45da3ab7", "fusion_lat": 0.0, "name": "70a4dfd66113f331c8fd97ed45da3ab7", "is_reserved": 0, "rental_uris": {"android": "https://dc.lft.to/lastmile_qr_scan", "ios": "https://dc.lft.to/lastmile_qr_scan"}, "fusion_lon": 0.0}, {"lat": 38.844348, "is_disabled": 0, "type": "electric_scooter", "lon": -76.99814166666667, "bike_id": "c85f7e125ba57e81f43b5b6bd85cc615", "fusion_lat": 0.0, "name": "c85f7e125ba57e81f43b5b6bd85cc615", "is_reserved": 0, "rental_uris": {"android": "https://dc.lft.to/lastmile_qr_scan", "ios": "https://dc.lft.to/lastmile_qr_scan"}, "fusion_lon": 0.0}, {"lat": 38.90274816666667, "is_disabled": 0, "type": "electric_scooter", "lon": -77.04366683333333, "bike_id": "1fd31a42d3e5f67bc5e094c2576ed321", "fusion_lat": 0.0, "name": "1fd31a42d3e5f67bc5e094c2576ed321", "is_reserved": 0, "rental_uris": {"android": "https://dc.lft.to/lastmile_qr_scan", "ios": "https://dc.lft.to/lastmile_qr_scan"}, "fusion_lon": 0.0}, {"lat": 38.90566066666667, "is_disabled": 0, "type": "electric_scooter", "lon": -76.98142783333333, "bike_id": "aa73d037f5c6e927e3532e7b820c389e", "fusion_lat": 0.0, "name": "aa73d037f5c6e927e3532e7b820c389e", "is_reserved": 0, "rental_uris": {"android": "https://dc.lft.to/lastmile_qr_scan", "ios": "https://dc.lft.to/lastmile_qr_scan"}, "fusion_lon": 0.0}, {"lat": 38.92312616666667, "is_disabled": 0, "type": "electric_scooter", "lon": -77.046447, "bike_id": "92cee3a3fa66620964ffd4ee06f705af", "fusion_lat": 0.0, "name": "92cee3a3fa66620964ffd4ee06f705af", "is_reserved": 0, "rental_uris": {"android": "https://dc.lft.to/lastmile_qr_scan", "ios": "https://dc.lft.to/lastmile_qr_scan"}, "fusion_lon": 0.0}, {"lat": 38.9122075, "is_disabled": 0, "type": "electric_scooter", "lon": -77.02800716666667, "bike_id": "d0e6b94f8f5d793bfa65b6e403ae3a6b", "fusion_lat": 0.0, "name": "d0e6b94f8f5d793bfa65b6e403ae3a6b", "is_reserved": 0, "rental_uris": {"android": "https://dc.lft.to/lastmile_qr_scan", "ios": "https://dc.lft.to/lastmile_qr_scan"}, "fusion_lon": 0.0}, {"lat": 38.854237, "is_disabled": 0, "type": "electric_bike", "lon": -76.90960983333333, "bike_id": "083ce08024b6c5442c97387670464a47", "fusion_lat": 0.0, "name": "083ce08024b6c5442c97387670464a47", "is_reserved": 0, "rental_uris": {"android": "https://dc.lft.to/lastmile_qr_scan", "ios": "https://dc.lft.to/lastmile_qr_scan"}, "fusion_lon": 0.0}, {"lat": 38.91814333333333, "is_disabled": 0, "type": "electric_scooter", "lon": -77.02954483333333, "bike_id": "6726bdfe3ceed0753571553583c6a9c4", "fusion_lat": 0.0, "name": "6726bdfe3ceed0753571553583c6a9c4", "is_reserved": 0, "rental_uris": {"android": "https://dc.lft.to/lastmile_qr_scan", "ios": "https://dc.lft.to/lastmile_qr_scan"}, "fusion_lon": 0.0}, {"lat": 38.9246645, "is_disabled": 0, "type": "electric_scooter", "lon": -77.05234633333333, "bike_id": "d9ebe23ebedea6f2d66be2e85f21e8b1", "fusion_lat": 0.0, "name": "d9ebe23ebedea6f2d66be2e85f21e8b1", "is_reserved": 0, "rental_uris": {"android": "https://dc.lft.to/lastmile_qr_scan", "ios": "https://dc.lft.to/lastmile_qr_scan"}, "fusion_lon": 0.0}, {"lat": 38.92559166666667, "is_disabled": 0, "type": "electric_scooter", "lon": -77.03219683333333, "bike_id": "343f0080ddf01c9a6cf173b38f7859d4", "fusion_lat": 0.0, "name": "343f0080ddf01c9a6cf173b38f7859d4", "is_reserved": 0, "rental_uris": {"android": "https://dc.lft.to/lastmile_qr_scan", "ios": "https://dc.lft.to/lastmile_qr_scan"}, "fusion_lon": 0.0}, {"lat": 38.93235883333333, "is_disabled": 0, "type": "electric_scooter", "lon": -77.03895266666666, "bike_id": "cb9ca3972ed5a7a7868932dbb4dbea29", "fusion_lat": 0.0, "name": "cb9ca3972ed5a7a7868932dbb4dbea29", "is_reserved": 0, "rental_uris": {"android": "https://dc.lft.to/lastmile_qr_scan", "ios": "https://dc.lft.to/lastmile_qr_scan"}, "fusion_lon": 0.0}, {"lat": 38.931130833333334, "is_disabled": 0, "type": "electric_scooter", "lon": -77.03841316666667, "bike_id": "4cb381ba8317e34b1aee3b52317ede20", "fusion_lat": 0.0, "name": "4cb381ba8317e34b1aee3b52317ede20", "is_reserved": 0, "rental_uris": {"android": "https://dc.lft.to/lastmile_qr_scan", "ios": "https://dc.lft.to/lastmile_qr_scan"}, "fusion_lon": 0.0}, {"lat": 38.807557, "is_disabled": 0, "type": "electric_bike", "lon": -77.094582, "bike_id": "f107569090138cdc01c3dfe314280a60", "fusion_lat": 0.0, "name": "f107569090138cdc01c3dfe314280a60", "is_reserved": 0, "rental_uris": {"android": "https://dc.lft.to/lastmile_qr_scan", "ios": "https://dc.lft.to/lastmile_qr_scan"}, "fusion_lon": 0.0}, {"lat": 38.8849225, "is_disabled": 0, "type": "electric_scooter", "lon": -77.00711783333334, "bike_id": "87a71db8cace7977c706ae0db25aeefa", "fusion_lat": 0.0, "name": "87a71db8cace7977c706ae0db25aeefa", "is_reserved": 0, "rental_uris": {"android": "https://dc.lft.to/lastmile_qr_scan", "ios": "https://dc.lft.to/lastmile_qr_scan"}, "fusion_lon": 0.0}, {"lat": 38.92469033333333, "is_disabled": 0, "type": "electric_scooter", "lon": -77.02715033333334, "bike_id": "c6bd23e02f1cc090ac0d60933b113ce4", "fusion_lat": 0.0, "name": "c6bd23e02f1cc090ac0d60933b113ce4", "is_reserved": 0, "rental_uris": {"android": "https://dc.lft.to/lastmile_qr_scan", "ios": "https://dc.lft.to/lastmile_qr_scan"}, "fusion_lon": 0.0}, {"lat": 38.9155375, "is_disabled": 0, "type": "electric_scooter", "lon": -77.04181416666667, "bike_id": "abb1b19d2300d41c5501d0841fc5bb6d", "fusion_lat": 0.0, "name": "abb1b19d2300d41c5501d0841fc5bb6d", "is_reserved": 0, "rental_uris": {"android": "https://dc.lft.to/lastmile_qr_scan", "ios": "https://dc.lft.to/lastmile_qr_scan"}, "fusion_lon": 0.0}, {"lat": 38.9164345, "is_disabled": 0, "type": "electric_scooter", "lon": -77.03827883333334, "bike_id": "d66cc782a7e285665975659751a7a115", "fusion_lat": 0.0, "name": "d66cc782a7e285665975659751a7a115", "is_reserved": 0, "rental_uris": {"android": "https://dc.lft.to/lastmile_qr_scan", "ios": "https://dc.lft.to/lastmile_qr_scan"}, "fusion_lon": 0.0}, {"lat": 39.02935383333333, "is_disabled": 0, "type": "electric_bike", "lon": -77.04925566666667, "bike_id": "f96c99dbcbb09cb616a144e5ca03941d", "fusion_lat": 0.0, "name": "f96c99dbcbb09cb616a144e5ca03941d", "is_reserved": 0, "rental_uris": {"android": "https://dc.lft.to/lastmile_qr_scan", "ios": "https://dc.lft.to/lastmile_qr_scan"}, "fusion_lon": 0.0}, {"lat": 38.92235016666667, "is_disabled": 0, "type": "electric_scooter", "lon": -77.0425385, "bike_id": "9b4ce36a9d44918ecf8f96ccc509a3fe", "fusion_lat": 0.0, "name": "9b4ce36a9d44918ecf8f96ccc509a3fe", "is_reserved": 0, "rental_uris": {"android": "https://dc.lft.to/lastmile_qr_scan", "ios": "https://dc.lft.to/lastmile_qr_scan"}, "fusion_lon": 0.0}, {"lat": 38.8921275, "is_disabled": 0, "type": "electric_scooter", "lon": -76.99589483333334, "bike_id": "22721c7346265b4796dc43d55ea72251", "fusion_lat": 0.0, "name": "22721c7346265b4796dc43d55ea72251", "is_reserved": 0, "rental_uris": {"android": "https://dc.lft.to/lastmile_qr_scan", "ios": "https://dc.lft.to/lastmile_qr_scan"}, "fusion_lon": 0.0}, {"lat": 38.922510333333335, "is_disabled": 0, "type": "electric_scooter", "lon": -77.03466233333333, "bike_id": "77510768d5f66ee9d34bcd0d89d8ed5c", "fusion_lat": 0.0, "name": "77510768d5f66ee9d34bcd0d89d8ed5c", "is_reserved": 0, "rental_uris": {"android": "https://dc.lft.to/lastmile_qr_scan", "ios": "https://dc.lft.to/lastmile_qr_scan"}, "fusion_lon": 0.0}, {"lat": 38.9125085, "is_disabled": 0, "type": "electric_scooter", "lon": -77.04764083333333, "bike_id": "be7cc6c434e3283c7ca2d56c5efe5b77", "fusion_lat": 0.0, "name": "be7cc6c434e3283c7ca2d56c5efe5b77", "is_reserved": 0, "rental_uris": {"android": "https://dc.lft.to/lastmile_qr_scan", "ios": "https://dc.lft.to/lastmile_qr_scan"}, "fusion_lon": 0.0}, {"lat": 38.935240666666665, "is_disabled": 0, "type": "electric_scooter", "lon": -77.03348366666667, "bike_id": "4686c91181b528b1f0f41d5c34c8450c", "fusion_lat": 0.0, "name": "4686c91181b528b1f0f41d5c34c8450c", "is_reserved": 0, "rental_uris": {"android": "https://dc.lft.to/lastmile_qr_scan", "ios": "https://dc.lft.to/lastmile_qr_scan"}, "fusion_lon": 0.0}, {"lat": 38.904583, "is_disabled": 0, "type": "electric_scooter", "lon": -77.06295583333333, "bike_id": "26ed575f90838bb30c47df7dc410ca74", "fusion_lat": 0.0, "name": "26ed575f90838bb30c47df7dc410ca74", "is_reserved": 0, "rental_uris": {"android": "https://dc.lft.to/lastmile_qr_scan", "ios": "https://dc.lft.to/lastmile_qr_scan"}, "fusion_lon": 0.0}, {"lat": 38.912657333333335, "is_disabled": 0, "type": "electric_scooter", "lon": -77.03866783333334, "bike_id": "28df963d6dcc7e1f05b7e4d7d2219f23", "fusion_lat": 0.0, "name": "28df963d6dcc7e1f05b7e4d7d2219f23", "is_reserved": 0, "rental_uris": {"android": "https://dc.lft.to/lastmile_qr_scan", "ios": "https://dc.lft.to/lastmile_qr_scan"}, "fusion_lon": 0.0}, {"lat": 38.927708333333335, "is_disabled": 0, "type": "electric_scooter", "lon": -77.02617366666666, "bike_id": "1a70e36344e6df7f934ec71c9ba08073", "fusion_lat": 0.0, "name": "1a70e36344e6df7f934ec71c9ba08073", "is_reserved": 0, "rental_uris": {"android": "https://dc.lft.to/lastmile_qr_scan", "ios": "https://dc.lft.to/lastmile_qr_scan"}, "fusion_lon": 0.0}, {"lat": 38.922864, "is_disabled": 0, "type": "electric_scooter", "lon": -77.03195583333333, "bike_id": "16e116442781b89e756cebe7cbc3d2b9", "fusion_lat": 0.0, "name": "16e116442781b89e756cebe7cbc3d2b9", "is_reserved": 0, "rental_uris": {"android": "https://dc.lft.to/lastmile_qr_scan", "ios": "https://dc.lft.to/lastmile_qr_scan"}, "fusion_lon": 0.0}, {"lat": 38.98136783333333, "is_disabled": 0, "type": "electric_bike", "lon": -77.00766333333333, "bike_id": "80fcfa70d62b073a924a2e0030559e8d", "fusion_lat": 0.0, "name": "80fcfa70d62b073a924a2e0030559e8d", "is_reserved": 0, "rental_uris": {"android": "https://dc.lft.to/lastmile_qr_scan", "ios": "https://dc.lft.to/lastmile_qr_scan"}, "fusion_lon": 0.0}, {"lat": 38.990121, "is_disabled": 0, "type": "electric_bike", "lon": -77.0044195, "bike_id": "23059ce30a523ac64dd2c43804087c2f", "fusion_lat": 0.0, "name": "23059ce30a523ac64dd2c43804087c2f", "is_reserved": 0, "rental_uris": {"android": "https://dc.lft.to/lastmile_qr_scan", "ios": "https://dc.lft.to/lastmile_qr_scan"}, "fusion_lon": 0.0}, {"lat": 38.8922325, "is_disabled": 0, "type": "electric_scooter", "lon": -77.048576, "bike_id": "ea06dc97e167295f972835c0c76c7334", "fusion_lat": 0.0, "name": "ea06dc97e167295f972835c0c76c7334", "is_reserved": 0, "rental_uris": {"android": "https://dc.lft.to/lastmile_qr_scan", "ios": "https://dc.lft.to/lastmile_qr_scan"}, "fusion_lon": 0.0}, {"lat": 38.903400500000004, "is_disabled": 0, "type": "electric_scooter", "lon": -77.04484116666667, "bike_id": "e9af959549d16c6649a007663cb97231", "fusion_lat": 0.0, "name": "e9af959549d16c6649a007663cb97231", "is_reserved": 0, "rental_uris": {"android": "https://dc.lft.to/lastmile_qr_scan", "ios": "https://dc.lft.to/lastmile_qr_scan"}, "fusion_lon": 0.0}, {"lat": 38.939530500000004, "is_disabled": 0, "type": "electric_bike", "lon": -77.36085, "bike_id": "30c3e86bc77dd6e04f3b730d99c637da", "fusion_lat": 0.0, "name": "30c3e86bc77dd6e04f3b730d99c637da", "is_reserved": 0, "rental_uris": {"android": "https://dc.lft.to/lastmile_qr_scan", "ios": "https://dc.lft.to/lastmile_qr_scan"}, "fusion_lon": 0.0}, {"lat": 38.9237095, "is_disabled": 0, "type": "electric_scooter", "lon": -77.03133666666666, "bike_id": "301b746b473402e7339d0563bc383d2d", "fusion_lat": 0.0, "name": "301b746b473402e7339d0563bc383d2d", "is_reserved": 0, "rental_uris": {"android": "https://dc.lft.to/lastmile_qr_scan", "ios": "https://dc.lft.to/lastmile_qr_scan"}, "fusion_lon": 0.0}, {"lat": 38.8956425, "is_disabled": 0, "type": "electric_scooter", "lon": -76.93050716666667, "bike_id": "da4d3aec4595fc992f0704c97b4b1958", "fusion_lat": 0.0, "name": "da4d3aec4595fc992f0704c97b4b1958", "is_reserved": 0, "rental_uris": {"android": "https://dc.lft.to/lastmile_qr_scan", "ios": "https://dc.lft.to/lastmile_qr_scan"}, "fusion_lon": 0.0}, {"lat": 38.93086533333334, "is_disabled": 0, "type": "electric_scooter", "lon": -77.02562166666667, "bike_id": "b3b342c75a8723475f264db5a1e070c7", "fusion_lat": 0.0, "name": "b3b342c75a8723475f264db5a1e070c7", "is_reserved": 0, "rental_uris": {"android": "https://dc.lft.to/lastmile_qr_scan", "ios": "https://dc.lft.to/lastmile_qr_scan"}, "fusion_lon": 0.0}, {"lat": 38.93577366666667, "is_disabled": 0, "type": "electric_scooter", "lon": -77.03738883333334, "bike_id": "5fdfa09abc6cf187301288accfbcf7cf", "fusion_lat": 0.0, "name": "5fdfa09abc6cf187301288accfbcf7cf", "is_reserved": 0, "rental_uris": {"android": "https://dc.lft.to/lastmile_qr_scan", "ios": "https://dc.lft.to/lastmile_qr_scan"}, "fusion_lon": 0.0}, {"lat": 38.95290283333333, "is_disabled": 0, "type": "electric_bike", "lon": -76.94597666666667, "bike_id": "dfcb9ac9f715b1269dea743fe2dc1186", "fusion_lat": 0.0, "name": "dfcb9ac9f715b1269dea743fe2dc1186", "is_reserved": 0, "rental_uris": {"android": "https://dc.lft.to/lastmile_qr_scan", "ios": "https://dc.lft.to/lastmile_qr_scan"}, "fusion_lon": 0.0}, {"lat": 38.9177235, "is_disabled": 0, "type": "electric_scooter", "lon": -77.03178833333334, "bike_id": "fd475bd8dbca4f68f1b00afb75304bf9", "fusion_lat": 0.0, "name": "fd475bd8dbca4f68f1b00afb75304bf9", "is_reserved": 0, "rental_uris": {"android": "https://dc.lft.to/lastmile_qr_scan", "ios": "https://dc.lft.to/lastmile_qr_scan"}, "fusion_lon": 0.0}, {"lat": 38.902773, "is_disabled": 0, "type": "electric_scooter", "lon": -77.0385375, "bike_id": "844d48c622d3d70fe8f1f572d5fb3fa2", "fusion_lat": 0.0, "name": "844d48c622d3d70fe8f1f572d5fb3fa2", "is_reserved": 0, "rental_uris": {"android": "https://dc.lft.to/lastmile_qr_scan", "ios": "https://dc.lft.to/lastmile_qr_scan"}, "fusion_lon": 0.0}, {"lat": 38.869097333333336, "is_disabled": 0, "type": "electric_bike", "lon": -77.13178633333334, "bike_id": "a6a8f597107fb64468de3497883bf77a", "fusion_lat": 0.0, "name": "a6a8f597107fb64468de3497883bf77a", "is_reserved": 0, "rental_uris": {"android": "https://dc.lft.to/lastmile_qr_scan", "ios": "https://dc.lft.to/lastmile_qr_scan"}, "fusion_lon": 0.0}, {"lat": 38.804385333333336, "is_disabled": 0, "type": "electric_bike", "lon": -77.06089633333333, "bike_id": "49acbfc46a6e645b64d29da2a61b9107", "fusion_lat": 0.0, "name": "49acbfc46a6e645b64d29da2a61b9107", "is_reserved": 0, "rental_uris": {"android": "https://dc.lft.to/lastmile_qr_scan", "ios": "https://dc.lft.to/lastmile_qr_scan"}, "fusion_lon": 0.0}, {"lat": 38.92089683333333, "is_disabled": 0, "type": "electric_scooter", "lon": -77.04217983333334, "bike_id": "463824b7e643302269bf71813369d2c0", "fusion_lat": 0.0, "name": "463824b7e643302269bf71813369d2c0", "is_reserved": 0, "rental_uris": {"android": "https://dc.lft.to/lastmile_qr_scan", "ios": "https://dc.lft.to/lastmile_qr_scan"}, "fusion_lon": 0.0}, {"lat": 38.91216766666667, "is_disabled": 0, "type": "electric_scooter", "lon": -77.044728, "bike_id": "69dcbdc18715319a7b6b12ed3ccb040d", "fusion_lat": 0.0, "name": "69dcbdc18715319a7b6b12ed3ccb040d", "is_reserved": 0, "rental_uris": {"android": "https://dc.lft.to/lastmile_qr_scan", "ios": "https://dc.lft.to/lastmile_qr_scan"}, "fusion_lon": 0.0}, {"lat": 39.015779, "is_disabled": 0, "type": "electric_bike", "lon": -77.04234583333333, "bike_id": "45201d38c381bebf964fc96476c906db", "fusion_lat": 0.0, "name": "45201d38c381bebf964fc96476c906db", "is_reserved": 0, "rental_uris": {"android": "https://dc.lft.to/lastmile_qr_scan", "ios": "https://dc.lft.to/lastmile_qr_scan"}, "fusion_lon": 0.0}, {"lat": 38.9078085, "is_disabled": 0, "type": "electric_scooter", "lon": -77.042245, "bike_id": "53b2d88d6b218d7036efee09278250f6", "fusion_lat": 0.0, "name": "53b2d88d6b218d7036efee09278250f6", "is_reserved": 0, "rental_uris": {"android": "https://dc.lft.to/lastmile_qr_scan", "ios": "https://dc.lft.to/lastmile_qr_scan"}, "fusion_lon": 0.0}, {"lat": 38.904917, "is_disabled": 0, "type": "electric_scooter", "lon": -77.02798066666666, "bike_id": "75ca2fea6801207284363f56ef11895a", "fusion_lat": 0.0, "name": "75ca2fea6801207284363f56ef11895a", "is_reserved": 0, "rental_uris": {"android": "https://dc.lft.to/lastmile_qr_scan", "ios": "https://dc.lft.to/lastmile_qr_scan"}, "fusion_lon": 0.0}, {"lat": 38.955760833333336, "is_disabled": 0, "type": "electric_scooter", "lon": -77.07010166666667, "bike_id": "d5d5ad2317023fadf3bb7e04b780a3ed", "fusion_lat": 0.0, "name": "d5d5ad2317023fadf3bb7e04b780a3ed", "is_reserved": 0, "rental_uris": {"android": "https://dc.lft.to/lastmile_qr_scan", "ios": "https://dc.lft.to/lastmile_qr_scan"}, "fusion_lon": 0.0}, {"lat": 38.958788166666665, "is_disabled": 0, "type": "electric_bike", "lon": -77.0102905, "bike_id": "71de12012fb8f41d8ca71ebe07527bfa", "fusion_lat": 0.0, "name": "71de12012fb8f41d8ca71ebe07527bfa", "is_reserved": 0, "rental_uris": {"android": "https://dc.lft.to/lastmile_qr_scan", "ios": "https://dc.lft.to/lastmile_qr_scan"}, "fusion_lon": 0.0}, {"lat": 38.910477666666665, "is_disabled": 0, "type": "electric_scooter", "lon": -77.01507166666667, "bike_id": "c850b54a091a5ab312a4d143d9ca38ed", "fusion_lat": 0.0, "name": "c850b54a091a5ab312a4d143d9ca38ed", "is_reserved": 0, "rental_uris": {"android": "https://dc.lft.to/lastmile_qr_scan", "ios": "https://dc.lft.to/lastmile_qr_scan"}, "fusion_lon": 0.0}, {"lat": 38.88126483333333, "is_disabled": 0, "type": "electric_scooter", "lon": -77.01406683333333, "bike_id": "534936d384dca22708c4292879baa6ec", "fusion_lat": 0.0, "name": "534936d384dca22708c4292879baa6ec", "is_reserved": 0, "rental_uris": {"android": "https://dc.lft.to/lastmile_qr_scan", "ios": "https://dc.lft.to/lastmile_qr_scan"}, "fusion_lon": 0.0}, {"lat": 38.89713483333333, "is_disabled": 0, "type": "electric_scooter", "lon": -77.02146633333334, "bike_id": "4dd3c99ff4d8489b56159585361eab5f", "fusion_lat": 0.0, "name": "4dd3c99ff4d8489b56159585361eab5f", "is_reserved": 0, "rental_uris": {"android": "https://dc.lft.to/lastmile_qr_scan", "ios": "https://dc.lft.to/lastmile_qr_scan"}, "fusion_lon": 0.0}, {"lat": 38.922045833333335, "is_disabled": 0, "type": "electric_scooter", "lon": -77.04014466666666, "bike_id": "98bf87d2cdf1e21657d046ba4afa7902", "fusion_lat": 0.0, "name": "98bf87d2cdf1e21657d046ba4afa7902", "is_reserved": 0, "rental_uris": {"android": "https://dc.lft.to/lastmile_qr_scan", "ios": "https://dc.lft.to/lastmile_qr_scan"}, "fusion_lon": 0.0}, {"lat": 38.90736966666667, "is_disabled": 0, "type": "electric_scooter", "lon": -77.02954483333333, "bike_id": "83c19f8e648782373fad6498d9f0be67", "fusion_lat": 0.0, "name": "83c19f8e648782373fad6498d9f0be67", "is_reserved": 0, "rental_uris": {"android": "https://dc.lft.to/lastmile_qr_scan", "ios": "https://dc.lft.to/lastmile_qr_scan"}, "fusion_lon": 0.0}, {"lat": 38.905524666666665, "is_disabled": 0, "type": "electric_scooter", "lon": -77.05708383333334, "bike_id": "9e72a8148af7323722a3f5f1db965b96", "fusion_lat": 0.0, "name": "9e72a8148af7323722a3f5f1db965b96", "is_reserved": 0, "rental_uris": {"android": "https://dc.lft.to/lastmile_qr_scan", "ios": "https://dc.lft.to/lastmile_qr_scan"}, "fusion_lon": 0.0}, {"lat": 38.91406633333333, "is_disabled": 0, "type": "electric_scooter", "lon": -77.025698, "bike_id": "ac4301bc7979b3239ef44353532354f5", "fusion_lat": 0.0, "name": "ac4301bc7979b3239ef44353532354f5", "is_reserved": 0, "rental_uris": {"android": "https://dc.lft.to/lastmile_qr_scan", "ios": "https://dc.lft.to/lastmile_qr_scan"}, "fusion_lon": 0.0}, {"lat": 38.95403116666667, "is_disabled": 0, "type": "electric_scooter", "lon": -77.03624816666667, "bike_id": "6a04750e7d59361d0196076f35e8284c", "fusion_lat": 0.0, "name": "6a04750e7d59361d0196076f35e8284c", "is_reserved": 0, "rental_uris": {"android": "https://dc.lft.to/lastmile_qr_scan", "ios": "https://dc.lft.to/lastmile_qr_scan"}, "fusion_lon": 0.0}, {"lat": 38.920502166666665, "is_disabled": 0, "type": "electric_scooter", "lon": -77.03205833333334, "bike_id": "be614c8e4077ae327548e3f5423a983f", "fusion_lat": 0.0, "name": "be614c8e4077ae327548e3f5423a983f", "is_reserved": 0, "rental_uris": {"android": "https://dc.lft.to/lastmile_qr_scan", "ios": "https://dc.lft.to/lastmile_qr_scan"}, "fusion_lon": 0.0}, {"lat": 38.8991145, "is_disabled": 0, "type": "electric_scooter", "lon": -77.03280783333334, "bike_id": "699ef04ce83618809dafb683845696b8", "fusion_lat": 0.0, "name": "699ef04ce83618809dafb683845696b8", "is_reserved": 0, "rental_uris": {"android": "https://dc.lft.to/lastmile_qr_scan", "ios": "https://dc.lft.to/lastmile_qr_scan"}, "fusion_lon": 0.0}, {"lat": 38.9095685, "is_disabled": 0, "type": "electric_scooter", "lon": -77.02284716666666, "bike_id": "b8fb47d0c6174abb927c46bea9cfba88", "fusion_lat": 0.0, "name": "b8fb47d0c6174abb927c46bea9cfba88", "is_reserved": 0, "rental_uris": {"android": "https://dc.lft.to/lastmile_qr_scan", "ios": "https://dc.lft.to/lastmile_qr_scan"}, "fusion_lon": 0.0}, {"lat": 38.917116, "is_disabled": 0, "type": "electric_scooter", "lon": -77.03877883333334, "bike_id": "a6e5bcdb77fbe18083d3034eaa58043b", "fusion_lat": 0.0, "name": "a6e5bcdb77fbe18083d3034eaa58043b", "is_reserved": 0, "rental_uris": {"android": "https://dc.lft.to/lastmile_qr_scan", "ios": "https://dc.lft.to/lastmile_qr_scan"}, "fusion_lon": 0.0}, {"lat": 38.915683666666666, "is_disabled": 0, "type": "electric_scooter", "lon": -77.020048, "bike_id": "12ee0d5ab7dcf875f2905620b7d8e73d", "fusion_lat": 0.0, "name": "12ee0d5ab7dcf875f2905620b7d8e73d", "is_reserved": 0, "rental_uris": {"android": "https://dc.lft.to/lastmile_qr_scan", "ios": "https://dc.lft.to/lastmile_qr_scan"}, "fusion_lon": 0.0}, {"lat": 38.90758316666667, "is_disabled": 0, "type": "electric_scooter", "lon": -77.0350825, "bike_id": "457697a85411901b821910cdf8ed80e4", "fusion_lat": 0.0, "name": "457697a85411901b821910cdf8ed80e4", "is_reserved": 0, "rental_uris": {"android": "https://dc.lft.to/lastmile_qr_scan", "ios": "https://dc.lft.to/lastmile_qr_scan"}, "fusion_lon": 0.0}, {"lat": 38.902556, "is_disabled": 0, "type": "electric_scooter", "lon": -77.03962233333333, "bike_id": "2475f16bc3d1a414800c46052897ad4a", "fusion_lat": 0.0, "name": "2475f16bc3d1a414800c46052897ad4a", "is_reserved": 0, "rental_uris": {"android": "https://dc.lft.to/lastmile_qr_scan", "ios": "https://dc.lft.to/lastmile_qr_scan"}, "fusion_lon": 0.0}, {"lat": 38.9233715, "is_disabled": 0, "type": "electric_scooter", "lon": -77.035319, "bike_id": "9cd9d5b00040492f1e01971bfa53da7e", "fusion_lat": 0.0, "name": "9cd9d5b00040492f1e01971bfa53da7e", "is_reserved": 0, "rental_uris": {"android": "https://dc.lft.to/lastmile_qr_scan", "ios": "https://dc.lft.to/lastmile_qr_scan"}, "fusion_lon": 0.0}, {"lat": 38.9030475, "is_disabled": 0, "type": "electric_scooter", "lon": -77.01180466666666, "bike_id": "d02ab4b2e95c85ceba075173d8cbbd91", "fusion_lat": 0.0, "name": "d02ab4b2e95c85ceba075173d8cbbd91", "is_reserved": 0, "rental_uris": {"android": "https://dc.lft.to/lastmile_qr_scan", "ios": "https://dc.lft.to/lastmile_qr_scan"}, "fusion_lon": 0.0}, {"lat": 38.90176066666667, "is_disabled": 0, "type": "electric_scooter", "lon": -77.02477966666666, "bike_id": "080336a0da530908a18be7f08b1e46f2", "fusion_lat": 0.0, "name": "080336a0da530908a18be7f08b1e46f2", "is_reserved": 0, "rental_uris": {"android": "https://dc.lft.to/lastmile_qr_scan", "ios": "https://dc.lft.to/lastmile_qr_scan"}, "fusion_lon": 0.0}, {"lat": 38.90740133333333, "is_disabled": 0, "type": "electric_scooter", "lon": -77.02716966666667, "bike_id": "ce85a42dbf05748afac3b956fcaee20b", "fusion_lat": 0.0, "name": "ce85a42dbf05748afac3b956fcaee20b", "is_reserved": 0, "rental_uris": {"android": "https://dc.lft.to/lastmile_qr_scan", "ios": "https://dc.lft.to/lastmile_qr_scan"}, "fusion_lon": 0.0}, {"lat": 38.918846333333335, "is_disabled": 0, "type": "electric_scooter", "lon": -77.04462083333334, "bike_id": "6f42523716be527367e5d054408abd33", "fusion_lat": 0.0, "name": "6f42523716be527367e5d054408abd33", "is_reserved": 0, "rental_uris": {"android": "https://dc.lft.to/lastmile_qr_scan", "ios": "https://dc.lft.to/lastmile_qr_scan"}, "fusion_lon": 0.0}, {"lat": 38.89970616666667, "is_disabled": 0, "type": "electric_scooter", "lon": -76.92729533333333, "bike_id": "9eff9c647a2715c2e49972a7421aae88", "fusion_lat": 0.0, "name": "9eff9c647a2715c2e49972a7421aae88", "is_reserved": 0, "rental_uris": {"android": "https://dc.lft.to/lastmile_qr_scan", "ios": "https://dc.lft.to/lastmile_qr_scan"}, "fusion_lon": 0.0}, {"lat": 38.91676916666667, "is_disabled": 0, "type": "electric_scooter", "lon": -77.02719766666667, "bike_id": "b3ebd86bead2896dd2c085a6c893c336", "fusion_lat": 0.0, "name": "b3ebd86bead2896dd2c085a6c893c336", "is_reserved": 0, "rental_uris": {"android": "https://dc.lft.to/lastmile_qr_scan", "ios": "https://dc.lft.to/lastmile_qr_scan"}, "fusion_lon": 0.0}, {"lat": 38.929917, "is_disabled": 0, "type": "electric_scooter", "lon": -77.026325, "bike_id": "e6316aaf40ac5c2dd99a0b62e0d4da9c", "fusion_lat": 0.0, "name": "e6316aaf40ac5c2dd99a0b62e0d4da9c", "is_reserved": 0, "rental_uris": {"android": "https://dc.lft.to/lastmile_qr_scan", "ios": "https://dc.lft.to/lastmile_qr_scan"}, "fusion_lon": 0.0}, {"lat": 38.876285333333335, "is_disabled": 0, "type": "electric_scooter", "lon": -76.96527733333333, "bike_id": "29109793584c1b1f1f5b3d9ba5fa1da1", "fusion_lat": 0.0, "name": "29109793584c1b1f1f5b3d9ba5fa1da1", "is_reserved": 0, "rental_uris": {"android": "https://dc.lft.to/lastmile_qr_scan", "ios": "https://dc.lft.to/lastmile_qr_scan"}, "fusion_lon": 0.0}, {"lat": 38.8975915, "is_disabled": 0, "type": "electric_scooter", "lon": -77.0550085, "bike_id": "023230e910b4bc44db55c14dda01fdfc", "fusion_lat": 0.0, "name": "023230e910b4bc44db55c14dda01fdfc", "is_reserved": 0, "rental_uris": {"android": "https://dc.lft.to/lastmile_qr_scan", "ios": "https://dc.lft.to/lastmile_qr_scan"}, "fusion_lon": 0.0}, {"lat": 39.0341745, "is_disabled": 0, "type": "electric_bike", "lon": -77.04229783333334, "bike_id": "327d0102f8c69de872ce707165f1e117", "fusion_lat": 0.0, "name": "327d0102f8c69de872ce707165f1e117", "is_reserved": 0, "rental_uris": {"android": "https://dc.lft.to/lastmile_qr_scan", "ios": "https://dc.lft.to/lastmile_qr_scan"}, "fusion_lon": 0.0}, {"lat": 38.9224315, "is_disabled": 0, "type": "electric_scooter", "lon": -77.02194116666666, "bike_id": "0fc5557d12ae5599a5c2d1c55bbf58cd", "fusion_lat": 0.0, "name": "0fc5557d12ae5599a5c2d1c55bbf58cd", "is_reserved": 0, "rental_uris": {"android": "https://dc.lft.to/lastmile_qr_scan", "ios": "https://dc.lft.to/lastmile_qr_scan"}, "fusion_lon": 0.0}, {"lat": 38.933024333333336, "is_disabled": 0, "type": "electric_scooter", "lon": -77.03589616666666, "bike_id": "284a0a938cf3f5b39f8d7dbb1dd1ed73", "fusion_lat": 0.0, "name": "284a0a938cf3f5b39f8d7dbb1dd1ed73", "is_reserved": 0, "rental_uris": {"android": "https://dc.lft.to/lastmile_qr_scan", "ios": "https://dc.lft.to/lastmile_qr_scan"}, "fusion_lon": 0.0}, {"lat": 38.92231566666667, "is_disabled": 0, "type": "electric_scooter", "lon": -77.04252083333333, "bike_id": "aaa55cb3e4372b4d6a26e047bf7e97b8", "fusion_lat": 0.0, "name": "aaa55cb3e4372b4d6a26e047bf7e97b8", "is_reserved": 0, "rental_uris": {"android": "https://dc.lft.to/lastmile_qr_scan", "ios": "https://dc.lft.to/lastmile_qr_scan"}, "fusion_lon": 0.0}, {"lat": 38.90237183333333, "is_disabled": 0, "type": "electric_scooter", "lon": -77.00197466666667, "bike_id": "94054d56dd62c84332b4ca1508817b34", "fusion_lat": 0.0, "name": "94054d56dd62c84332b4ca1508817b34", "is_reserved": 0, "rental_uris": {"android": "https://dc.lft.to/lastmile_qr_scan", "ios": "https://dc.lft.to/lastmile_qr_scan"}, "fusion_lon": 0.0}, {"lat": 38.93204266666667, "is_disabled": 0, "type": "electric_scooter", "lon": -77.04420816666666, "bike_id": "631bfa4adde41b4bb80e7edf3260d637", "fusion_lat": 0.0, "name": "631bfa4adde41b4bb80e7edf3260d637", "is_reserved": 0, "rental_uris": {"android": "https://dc.lft.to/lastmile_qr_scan", "ios": "https://dc.lft.to/lastmile_qr_scan"}, "fusion_lon": 0.0}, {"lat": 38.91702466666667, "is_disabled": 0, "type": "electric_scooter", "lon": -77.02948883333333, "bike_id": "2a94fc319ce9b2ce8929aace499f91b1", "fusion_lat": 0.0, "name": "2a94fc319ce9b2ce8929aace499f91b1", "is_reserved": 0, "rental_uris": {"android": "https://dc.lft.to/lastmile_qr_scan", "ios": "https://dc.lft.to/lastmile_qr_scan"}, "fusion_lon": 0.0}, {"lat": 38.92212833333333, "is_disabled": 0, "type": "electric_bike", "lon": -76.98800883333334, "bike_id": "33f5feee9176277d5ad08f8d8aeaf02f", "fusion_lat": 0.0, "name": "33f5feee9176277d5ad08f8d8aeaf02f", "is_reserved": 0, "rental_uris": {"android": "https://dc.lft.to/lastmile_qr_scan", "ios": "https://dc.lft.to/lastmile_qr_scan"}, "fusion_lon": 0.0}, {"lat": 38.89086566666667, "is_disabled": 0, "type": "electric_scooter", "lon": -76.9526365, "bike_id": "e5aeaa5637f5c3f34cebf1248f7271dd", "fusion_lat": 0.0, "name": "e5aeaa5637f5c3f34cebf1248f7271dd", "is_reserved": 0, "rental_uris": {"android": "https://dc.lft.to/lastmile_qr_scan", "ios": "https://dc.lft.to/lastmile_qr_scan"}, "fusion_lon": 0.0}, {"lat": 38.8922435, "is_disabled": 0, "type": "electric_scooter", "lon": -77.03214333333334, "bike_id": "ccaac9a2c2ecde96ef638adc02146c6c", "fusion_lat": 0.0, "name": "ccaac9a2c2ecde96ef638adc02146c6c", "is_reserved": 0, "rental_uris": {"android": "https://dc.lft.to/lastmile_qr_scan", "ios": "https://dc.lft.to/lastmile_qr_scan"}, "fusion_lon": 0.0}, {"lat": 38.91107816666667, "is_disabled": 0, "type": "electric_scooter", "lon": -77.03727416666666, "bike_id": "aff75fe54fccad4df3a27f01091e5f9b", "fusion_lat": 0.0, "name": "aff75fe54fccad4df3a27f01091e5f9b", "is_reserved": 0, "rental_uris": {"android": "https://dc.lft.to/lastmile_qr_scan", "ios": "https://dc.lft.to/lastmile_qr_scan"}, "fusion_lon": 0.0}, {"lat": 38.906286, "is_disabled": 0, "type": "electric_scooter", "lon": -77.03147183333333, "bike_id": "41400e5b7ae6c78cc1b6049d5815f164", "fusion_lat": 0.0, "name": "41400e5b7ae6c78cc1b6049d5815f164", "is_reserved": 0, "rental_uris": {"android": "https://dc.lft.to/lastmile_qr_scan", "ios": "https://dc.lft.to/lastmile_qr_scan"}, "fusion_lon": 0.0}, {"lat": 38.916587666666665, "is_disabled": 0, "type": "electric_scooter", "lon": -77.02238216666667, "bike_id": "7a54ccf2335d3c6790a01433421ca4a1", "fusion_lat": 0.0, "name": "7a54ccf2335d3c6790a01433421ca4a1", "is_reserved": 0, "rental_uris": {"android": "https://dc.lft.to/lastmile_qr_scan", "ios": "https://dc.lft.to/lastmile_qr_scan"}, "fusion_lon": 0.0}, {"lat": 38.918204333333335, "is_disabled": 0, "type": "electric_scooter", "lon": -77.04179416666666, "bike_id": "310d1b812cfd82361e33b6ff19de1851", "fusion_lat": 0.0, "name": "310d1b812cfd82361e33b6ff19de1851", "is_reserved": 0, "rental_uris": {"android": "https://dc.lft.to/lastmile_qr_scan", "ios": "https://dc.lft.to/lastmile_qr_scan"}, "fusion_lon": 0.0}, {"lat": 38.952131666666666, "is_disabled": 0, "type": "electric_scooter", "lon": -77.086028, "bike_id": "db6c37ac5257624caab671c04f705f42", "fusion_lat": 0.0, "name": "db6c37ac5257624caab671c04f705f42", "is_reserved": 0, "rental_uris": {"android": "https://dc.lft.to/lastmile_qr_scan", "ios": "https://dc.lft.to/lastmile_qr_scan"}, "fusion_lon": 0.0}, {"lat": 38.99996016666667, "is_disabled": 0, "type": "electric_bike", "lon": -76.92495233333334, "bike_id": "9b31baa45a30b4d4896988bf8994bafa", "fusion_lat": 0.0, "name": "9b31baa45a30b4d4896988bf8994bafa", "is_reserved": 0, "rental_uris": {"android": "https://dc.lft.to/lastmile_qr_scan", "ios": "https://dc.lft.to/lastmile_qr_scan"}, "fusion_lon": 0.0}, {"lat": 38.921470166666666, "is_disabled": 0, "type": "electric_scooter", "lon": -77.04488666666667, "bike_id": "00d2b3cae425af11ed3b233d93138a10", "fusion_lat": 0.0, "name": "00d2b3cae425af11ed3b233d93138a10", "is_reserved": 0, "rental_uris": {"android": "https://dc.lft.to/lastmile_qr_scan", "ios": "https://dc.lft.to/lastmile_qr_scan"}, "fusion_lon": 0.0}, {"lat": 38.9168835, "is_disabled": 0, "type": "electric_scooter", "lon": -77.02274316666667, "bike_id": "ab23df9a9a027133c1fe234cc4efcffa", "fusion_lat": 0.0, "name": "ab23df9a9a027133c1fe234cc4efcffa", "is_reserved": 0, "rental_uris": {"android": "https://dc.lft.to/lastmile_qr_scan", "ios": "https://dc.lft.to/lastmile_qr_scan"}, "fusion_lon": 0.0}, {"lat": 38.89221916666666, "is_disabled": 0, "type": "electric_scooter", "lon": -77.04849816666666, "bike_id": "537e6a5a474225196c447c413150b398", "fusion_lat": 0.0, "name": "537e6a5a474225196c447c413150b398", "is_reserved": 0, "rental_uris": {"android": "https://dc.lft.to/lastmile_qr_scan", "ios": "https://dc.lft.to/lastmile_qr_scan"}, "fusion_lon": 0.0}, {"lat": 38.94078, "is_disabled": 0, "type": "electric_scooter", "lon": -77.02383416666666, "bike_id": "aabdff1f512ec03399ae55a2a4cf016a", "fusion_lat": 0.0, "name": "aabdff1f512ec03399ae55a2a4cf016a", "is_reserved": 0, "rental_uris": {"android": "https://dc.lft.to/lastmile_qr_scan", "ios": "https://dc.lft.to/lastmile_qr_scan"}, "fusion_lon": 0.0}, {"lat": 38.93356966666666, "is_disabled": 0, "type": "electric_scooter", "lon": -77.07357466666667, "bike_id": "50f16814944b6dabc81d1fff85b594de", "fusion_lat": 0.0, "name": "50f16814944b6dabc81d1fff85b594de", "is_reserved": 0, "rental_uris": {"android": "https://dc.lft.to/lastmile_qr_scan", "ios": "https://dc.lft.to/lastmile_qr_scan"}, "fusion_lon": 0.0}, {"lat": 38.958882333333335, "is_disabled": 0, "type": "electric_bike", "lon": -76.9249425, "bike_id": "64f37123d423aba3ac01da954080053a", "fusion_lat": 0.0, "name": "64f37123d423aba3ac01da954080053a", "is_reserved": 0, "rental_uris": {"android": "https://dc.lft.to/lastmile_qr_scan", "ios": "https://dc.lft.to/lastmile_qr_scan"}, "fusion_lon": 0.0}, {"lat": 38.931236166666665, "is_disabled": 0, "type": "electric_scooter", "lon": -77.03397166666667, "bike_id": "333c3497b7ee94b00748b09368fab622", "fusion_lat": 0.0, "name": "333c3497b7ee94b00748b09368fab622", "is_reserved": 0, "rental_uris": {"android": "https://dc.lft.to/lastmile_qr_scan", "ios": "https://dc.lft.to/lastmile_qr_scan"}, "fusion_lon": 0.0}, {"lat": 38.853057, "is_disabled": 0, "type": "electric_bike", "lon": -77.131249, "bike_id": "f8f362e7c3fe388903bef892f450ea5c", "fusion_lat": 0.0, "name": "f8f362e7c3fe388903bef892f450ea5c", "is_reserved": 0, "rental_uris": {"android": "https://dc.lft.to/lastmile_qr_scan", "ios": "https://dc.lft.to/lastmile_qr_scan"}, "fusion_lon": 0.0}, {"lat": 38.907988, "is_disabled": 0, "type": "electric_scooter", "lon": -77.040055, "bike_id": "05c078034c74a451e12aa794bcc28d62", "fusion_lat": 0.0, "name": "05c078034c74a451e12aa794bcc28d62", "is_reserved": 0, "rental_uris": {"android": "https://dc.lft.to/lastmile_qr_scan", "ios": "https://dc.lft.to/lastmile_qr_scan"}, "fusion_lon": 0.0}, {"lat": 38.9169665, "is_disabled": 0, "type": "electric_scooter", "lon": -77.0356465, "bike_id": "25d755facb6121ae9eeab50e1f784ffd", "fusion_lat": 0.0, "name": "25d755facb6121ae9eeab50e1f784ffd", "is_reserved": 0, "rental_uris": {"android": "https://dc.lft.to/lastmile_qr_scan", "ios": "https://dc.lft.to/lastmile_qr_scan"}, "fusion_lon": 0.0},