{"data": {"bikes": [{"is_disabled": 0, "fusion_lon": 0.0, "fusion_lat": 0.0, "lat": 38.91106583333333, "type": "electric_scooter", "lon": -76.99766833333334, "bike_id": "a3bfaf8b25f83cec837c1d8c9769a795", "rental_uris": {"android": "https://dc.lft.to/lastmile_qr_scan", "ios": "https://dc.lft.to/lastmile_qr_scan"}, "name": "a3bfaf8b25f83cec837c1d8c9769a795", "is_reserved": 0}, {"is_disabled": 0, "fusion_lon": 0.0, "fusion_lat": 0.0, "lat": 38.98472483333333, "type": "electric_scooter", "lon": -77.02634983333333, "bike_id": "9e15c40d4dddd0b1c418dd4c8e5b9771", "rental_uris": {"android": "https://dc.lft.to/lastmile_qr_scan", "ios": "https://dc.lft.to/lastmile_qr_scan"}, "name": "9e15c40d4dddd0b1c418dd4c8e5b9771", "is_reserved": 0}, {"is_disabled": 0, "fusion_lon": 0.0, "fusion_lat": 0.0, "lat": 38.87985233333333, "type": "electric_bike", "lon": -76.915993, "bike_id": "92f68c09aaa2be33c2591914ebef957f", "rental_uris": {"android": "https://dc.lft.to/lastmile_qr_scan", "ios": "https://dc.lft.to/lastmile_qr_scan"}, "name": "92f68c09aaa2be33c2591914ebef957f", "is_reserved": 0}, {"is_disabled": 0, "fusion_lon": 0.0, "fusion_lat": 0.0, "lat": 38.90834816666667, "type": "electric_scooter", "lon": -76.99690133333333, "bike_id": "8a884c59705c575f4454c0baee5d5504", "rental_uris": {"android": "https://dc.lft.to/lastmile_qr_scan", "ios": "https://dc.lft.to/lastmile_qr_scan"}, "name": "8a884c59705c575f4454c0baee5d5504", "is_reserved": 0}, {"is_disabled": 0, "fusion_lon": 0.0, "fusion_lat": 0.0, "lat": 38.91183983333333, "type": "electric_scooter", "lon": -77.03213166666667, "bike_id": "178cceaf710bdc7b38345c38a9cdc312", "rental_uris": {"android": "https://dc.lft.to/lastmile_qr_scan", "ios": "https://dc.lft.to/lastmile_qr_scan"}, "name": "178cceaf710bdc7b38345c38a9cdc312", "is_reserved": 0}, {"is_disabled": 0, "fusion_lon": 0.0, "fusion_lat": 0.0, "lat": 38.858021, "type": "electric_bike", "lon": -76.98753016666667, "bike_id": "f4c113a50031131dd8d3ee5e8d81c62c", "rental_uris": {"android": "https://dc.lft.to/lastmile_qr_scan", "ios": "https://dc.lft.to/lastmile_qr_scan"}, "name": "f4c113a50031131dd8d3ee5e8d81c62c", "is_reserved": 0}, {"is_disabled": 0, "fusion_lon": 0.0, "fusion_lat": 0.0, "lat": 38.96647316666667, "type": "electric_bike", "lon": -76.930198, "bike_id": "d3d5de047befa719627a5b80720eb94f", "rental_uris": {"android": "https://dc.lft.to/lastmile_qr_scan", "ios": "https://dc.lft.to/lastmile_qr_scan"}, "name": "d3d5de047befa719627a5b80720eb94f", "is_reserved": 0}, {"is_disabled": 0, "fusion_lon": 0.0, "fusion_lat": 0.0, "lat": 38.921077833333335, "type": "electric_scooter", "lon": -77.04369733333333, "bike_id": "73cb3b4e5d4001485c2677491b379b51", "rental_uris": {"android": "https://dc.lft.to/lastmile_qr_scan", "ios": "https://dc.lft.to/lastmile_qr_scan"}, "name": "73cb3b4e5d4001485c2677491b379b51", "is_reserved": 0}, {"is_disabled": 0, "fusion_lon": 0.0, "fusion_lat": 0.0, "lat": 38.88817516666667, "type": "electric_scooter", "lon": -77.01491216666666, "bike_id": "4637f6dd314f04343be1fac6ad9bbc82", "rental_uris": {"android": "https://dc.lft.to/lastmile_qr_scan", "ios": "https://dc.lft.to/lastmile_qr_scan"}, "name": "4637f6dd314f04343be1fac6ad9bbc82", "is_reserved": 0}, {"is_disabled": 0, "fusion_lon": 0.0, "fusion_lat": 0.0, "lat": 38.90272483333333, "type": "electric_scooter", "lon": -77.034472, "bike_id": "d575a2d0dace304ac7b8a13560908114", "rental_uris": {"android": "https://dc.lft.to/lastmile_qr_scan", "ios": "https://dc.lft.to/lastmile_qr_scan"}, "name": "d575a2d0dace304ac7b8a13560908114", "is_reserved": 0}, {"is_disabled": 0, "fusion_lon": 0.0, "fusion_lat": 0.0, "lat": 38.914137, "type": "electric_scooter", "lon": -77.02213733333333, "bike_id": "4738e75da3395b458703217e1b15ea99", "rental_uris": {"android": "https://dc.lft.to/lastmile_qr_scan", "ios": "https://dc.lft.to/lastmile_qr_scan"}, "name": "4738e75da3395b458703217e1b15ea99", "is_reserved": 0}, {"is_disabled": 0, "fusion_lon": 0.0, "fusion_lat": 0.0, "lat": 38.906164833333335, "type": "electric_scooter", "lon": -77.0514185, "bike_id": "87f2ea71f62fa5e2bf770786f2ea98c8", "rental_uris": {"android": "https://dc.lft.to/lastmile_qr_scan", "ios": "https://dc.lft.to/lastmile_qr_scan"}, "name": "87f2ea71f62fa5e2bf770786f2ea98c8", "is_reserved": 0}, {"is_disabled": 0, "fusion_lon": 0.0, "fusion_lat": 0.0, "lat": 38.911504, "type": "electric_scooter", "lon": -77.08786816666667, "bike_id": "82b1e13ee8b6ee3964a2b455407e7a7a", "rental_uris": {"android": "https://dc.lft.to/lastmile_qr_scan", "ios": "https://dc.lft.to/lastmile_qr_scan"}, "name": "82b1e13ee8b6ee3964a2b455407e7a7a", "is_reserved": 0}, {"is_disabled": 0, "fusion_lon": 0.0, "fusion_lat": 0.0, "lat": 38.943735, "type": "electric_scooter", "lon": -77.077427, "bike_id": "d20933f7f79d338a63dbb97c2a0edb9c", "rental_uris": {"android": "https://dc.lft.to/lastmile_qr_scan", "ios": "https://dc.lft.to/lastmile_qr_scan"}, "name": "d20933f7f79d338a63dbb97c2a0edb9c", "is_reserved": 0}, {"is_disabled": 0, "fusion_lon": 0.0, "fusion_lat": 0.0, "lat": 38.9276295, "type": "electric_scooter", "lon": -77.02913416666667, "bike_id": "723a38d6611974f8228ef078289d59bf", "rental_uris": {"android": "https://dc.lft.to/lastmile_qr_scan", "ios": "https://dc.lft.to/lastmile_qr_scan"}, "name": "723a38d6611974f8228ef078289d59bf", "is_reserved": 0}, {"is_disabled": 0, "fusion_lon": 0.0, "fusion_lat": 0.0, "lat": 38.893189166666666, "type": "electric_scooter", "lon": -77.0320565, "bike_id": "710d57fe4a3d7f1e6688881e59334527", "rental_uris": {"android": "https://dc.lft.to/lastmile_qr_scan", "ios": "https://dc.lft.to/lastmile_qr_scan"}, "name": "710d57fe4a3d7f1e6688881e59334527", "is_reserved": 0}, {"is_disabled": 0, "fusion_lon": 0.0, "fusion_lat": 0.0, "lat": 38.92114016666667, "type": "electric_scooter", "lon": -77.03121816666666, "bike_id": "c746c0386bd9564313116e4a4ac035eb", "rental_uris": {"android": "https://dc.lft.to/lastmile_qr_scan", "ios": "https://dc.lft.to/lastmile_qr_scan"}, "name": "c746c0386bd9564313116e4a4ac035eb", "is_reserved": 0}, {"is_disabled": 0, "fusion_lon": 0.0, "fusion_lat": 0.0, "lat": 38.93818016666667, "type": "electric_scooter", "lon": -76.990439, "bike_id": "b84b4deaa6cca9eb5cfa7e08ba8fed66", "rental_uris": {"android": "https://dc.lft.to/lastmile_qr_scan", "ios": "https://dc.lft.to/lastmile_qr_scan"}, "name": "b84b4deaa6cca9eb5cfa7e08ba8fed66", "is_reserved": 0}, {"is_disabled": 0, "fusion_lon": 0.0, "fusion_lat": 0.0, "lat": 38.903758333333336, "type": "electric_scooter", "lon": -77.0434105, "bike_id": "1113165746824b94aa3e6693da0b7445", "rental_uris": {"android": "https://dc.lft.to/lastmile_qr_scan", "ios": "https://dc.lft.to/lastmile_qr_scan"}, "name": "1113165746824b94aa3e6693da0b7445", "is_reserved": 0}, {"is_disabled": 0, "fusion_lon": 0.0, "fusion_lat": 0.0, "lat": 38.8853095, "type": "electric_scooter", "lon": -77.0221365, "bike_id": "9072ebb47aaaa36c7537748864030e9e", "rental_uris": {"android": "https://dc.lft.to/lastmile_qr_scan", "ios": "https://dc.lft.to/lastmile_qr_scan"}, "name": "9072ebb47aaaa36c7537748864030e9e", "is_reserved": 0}, {"is_disabled": 0, "fusion_lon": 0.0, "fusion_lat": 0.0, "lat": 38.897419, "type": "electric_scooter", "lon": -77.02713683333333, "bike_id": "223a8173401a7d6418672c894d670156", "rental_uris": {"android": "https://dc.lft.to/lastmile_qr_scan", "ios": "https://dc.lft.to/lastmile_qr_scan"}, "name": "223a8173401a7d6418672c894d670156", "is_reserved": 0}, {"is_disabled": 0, "fusion_lon": 0.0, "fusion_lat": 0.0, "lat": 38.917061, "type": "electric_scooter", "lon": -77.0346985, "bike_id": "624c5e0a057860772e04bf5c8a66283e", "rental_uris": {"android": "https://dc.lft.to/lastmile_qr_scan", "ios": "https://dc.lft.to/lastmile_qr_scan"}, "name": "624c5e0a057860772e04bf5c8a66283e", "is_reserved": 0}, {"is_disabled": 0, "fusion_lon": 0.0, "fusion_lat": 0.0, "lat": 38.93010783333333, "type": "electric_scooter", "lon": -77.03267883333334, "bike_id": "717314d7b2a8a9261faed898fe4bcd42", "rental_uris": {"android": "https://dc.lft.to/lastmile_qr_scan", "ios": "https://dc.lft.to/lastmile_qr_scan"}, "name": "717314d7b2a8a9261faed898fe4bcd42", "is_reserved": 0}, {"is_disabled": 0, "fusion_lon": 0.0, "fusion_lat": 0.0, "lat": 38.93080033333333, "type": "electric_scooter", "lon": -77.0343655, "bike_id": "6b038228fda117bf0cc77bd693e7a955", "rental_uris": {"android": "https://dc.lft.to/lastmile_qr_scan", "ios": "https://dc.lft.to/lastmile_qr_scan"}, "name": "6b038228fda117bf0cc77bd693e7a955", "is_reserved": 0}, {"is_disabled": 0, "fusion_lon": 0.0, "fusion_lat": 0.0, "lat": 38.91036366666667, "type": "electric_scooter", "lon": -77.04654283333333, "bike_id": "e1d2061cd9d9836872fe771bdcb067f8", "rental_uris": {"android": "https://dc.lft.to/lastmile_qr_scan", "ios": "https://dc.lft.to/lastmile_qr_scan"}, "name": "e1d2061cd9d9836872fe771bdcb067f8", "is_reserved": 0}, {"is_disabled": 0, "fusion_lon": 0.0, "fusion_lat": 0.0, "lat": 38.9086165, "type": "electric_scooter", "lon": -77.06400933333333, "bike_id": "0fe492bf12e24bc615931b235a98c6fe", "rental_uris": {"android": "https://dc.lft.to/lastmile_qr_scan", "ios": "https://dc.lft.to/lastmile_qr_scan"}, "name": "0fe492bf12e24bc615931b235a98c6fe", "is_reserved": 0}, {"is_disabled": 0, "fusion_lon": 0.0, "fusion_lat": 0.0, "lat": 38.93975866666667, "type": "electric_scooter", "lon": -77.03018483333334, "bike_id": "df3c9db8535e27ea98c7b7528a2d17b6", "rental_uris": {"android": "https://dc.lft.to/lastmile_qr_scan", "ios": "https://dc.lft.to/lastmile_qr_scan"}, "name": "df3c9db8535e27ea98c7b7528a2d17b6", "is_reserved": 0}, {"is_disabled": 0, "fusion_lon": 0.0, "fusion_lat": 0.0, "lat": 38.897144, "type": "electric_scooter", "lon": -77.0266395, "bike_id": "ec01bcbf53683d88e3ca6f2adfdddb8b", "rental_uris": {"android": "https://dc.lft.to/lastmile_qr_scan", "ios": "https://dc.lft.to/lastmile_qr_scan"}, "name": "ec01bcbf53683d88e3ca6f2adfdddb8b", "is_reserved": 0}, {"is_disabled": 0, "fusion_lon": 0.0, "fusion_lat": 0.0, "lat": 38.91637866666667, "type": "electric_scooter", "lon": -77.03841583333333, "bike_id": "b80cbb6893e32c5bd6cd43d2584edfc7", "rental_uris": {"android": "https://dc.lft.to/lastmile_qr_scan", "ios": "https://dc.lft.to/lastmile_qr_scan"}, "name": "b80cbb6893e32c5bd6cd43d2584edfc7", "is_reserved": 0}, {"is_disabled": 0, "fusion_lon": 0.0, "fusion_lat": 0.0, "lat": 38.918239, "type": "electric_scooter", "lon": -77.027141, "bike_id": "81e6ca559e4bcda74b07da599dce3a1e", "rental_uris": {"android": "https://dc.lft.to/lastmile_qr_scan", "ios": "https://dc.lft.to/lastmile_qr_scan"}, "name": "81e6ca559e4bcda74b07da599dce3a1e", "is_reserved": 0}, {"is_disabled": 0, "fusion_lon": 0.0, "fusion_lat": 0.0, "lat": 38.8837635, "type": "electric_scooter", "lon": -76.92373283333333, "bike_id": "d1f079303912aacc32c00b733855df1f", "rental_uris": {"android": "https://dc.lft.to/lastmile_qr_scan", "ios": "https://dc.lft.to/lastmile_qr_scan"}, "name": "d1f079303912aacc32c00b733855df1f", "is_reserved": 0}, {"is_disabled": 0, "fusion_lon": 0.0, "fusion_lat": 0.0, "lat": 38.889962833333335, "type": "electric_scooter", "lon": -77.00044066666666, "bike_id": "3b8dfba7588b3ad1bdc7ab8fe263f9de", "rental_uris": {"android": "https://dc.lft.to/lastmile_qr_scan", "ios": "https://dc.lft.to/lastmile_qr_scan"}, "name": "3b8dfba7588b3ad1bdc7ab8fe263f9de", "is_reserved": 0}, {"is_disabled": 0, "fusion_lon": 0.0, "fusion_lat": 0.0, "lat": 38.93523116666667, "type": "electric_scooter", "lon": -77.023819, "bike_id": "1ea52fe4db93502f547b6e9c17d11062", "rental_uris": {"android": "https://dc.lft.to/lastmile_qr_scan", "ios": "https://dc.lft.to/lastmile_qr_scan"}, "name": "1ea52fe4db93502f547b6e9c17d11062", "is_reserved": 0}, {"is_disabled": 0, "fusion_lon": 0.0, "fusion_lat": 0.0, "lat": 38.90985716666667, "type": "electric_scooter", "lon": -77.02181183333333, "bike_id": "ee950f316f6717d6157072d5d5390154", "rental_uris": {"android": "https://dc.lft.to/lastmile_qr_scan", "ios": "https://dc.lft.to/lastmile_qr_scan"}, "name": "ee950f316f6717d6157072d5d5390154", "is_reserved": 0}, {"is_disabled": 0, "fusion_lon": 0.0, "fusion_lat": 0.0, "lat": 38.86247483333333, "type": "electric_scooter", "lon": -76.9950025, "bike_id": "917a37a770a29ef88348a3d6129966fe", "rental_uris": {"android": "https://dc.lft.to/lastmile_qr_scan", "ios": "https://dc.lft.to/lastmile_qr_scan"}, "name": "917a37a770a29ef88348a3d6129966fe", "is_reserved": 0}, {"is_disabled": 0, "fusion_lon": 0.0, "fusion_lat": 0.0, "lat": 38.895624166666664, "type": "electric_scooter", "lon": -77.0466535, "bike_id": "3d87b346a0107cd489fbfd0d2ffc761f", "rental_uris": {"android": "https://dc.lft.to/lastmile_qr_scan", "ios": "https://dc.lft.to/lastmile_qr_scan"}, "name": "3d87b346a0107cd489fbfd0d2ffc761f", "is_reserved": 0}, {"is_disabled": 0, "fusion_lon": 0.0, "fusion_lat": 0.0, "lat": 38.91826983333333, "type": "electric_scooter", "lon": -77.02426933333334, "bike_id": "efbca449b428b2e619fd9edec06d432f", "rental_uris": {"android": "https://dc.lft.to/lastmile_qr_scan", "ios": "https://dc.lft.to/lastmile_qr_scan"}, "name": "efbca449b428b2e619fd9edec06d432f", "is_reserved": 0}, {"is_disabled": 0, "fusion_lon": 0.0, "fusion_lat": 0.0, "lat": 38.89370366666667, "type": "electric_scooter", "lon": -76.94997633333334, "bike_id": "3f1def4b759f31f0697bb4c6cff79001", "rental_uris": {"android": "https://dc.lft.to/lastmile_qr_scan", "ios": "https://dc.lft.to/lastmile_qr_scan"}, "name": "3f1def4b759f31f0697bb4c6cff79001", "is_reserved": 0}, {"is_disabled": 0, "fusion_lon": 0.0, "fusion_lat": 0.0, "lat": 38.89245566666666, "type": "electric_scooter", "lon": -77.0283045, "bike_id": "843d829485dd26088601d97ca8af1a7a", "rental_uris": {"android": "https://dc.lft.to/lastmile_qr_scan", "ios": "https://dc.lft.to/lastmile_qr_scan"}, "name": "843d829485dd26088601d97ca8af1a7a", "is_reserved": 0}, {"is_disabled": 0, "fusion_lon": 0.0, "fusion_lat": 0.0, "lat": 38.902356, "type": "electric_scooter", "lon": -77.04564983333333, "bike_id": "f5c35a58ed479e81bcbf0ce15b90fdcf", "rental_uris": {"android": "https://dc.lft.to/lastmile_qr_scan", "ios": "https://dc.lft.to/lastmile_qr_scan"}, "name": "f5c35a58ed479e81bcbf0ce15b90fdcf", "is_reserved": 0}, {"is_disabled": 0, "fusion_lon": 0.0, "fusion_lat": 0.0, "lat": 38.9353655, "type": "electric_scooter", "lon": -77.0279985, "bike_id": "c95c6ec1b1b22b5d01c7a4cd08a56288", "rental_uris": {"android": "https://dc.lft.to/lastmile_qr_scan", "ios": "https://dc.lft.to/lastmile_qr_scan"}, "name": "c95c6ec1b1b22b5d01c7a4cd08a56288", "is_reserved": 0}, {"is_disabled": 0, "fusion_lon": 0.0, "fusion_lat": 0.0, "lat": 38.949654, "type": "electric_scooter", "lon": -77.07889783333333, "bike_id": "d87f07ce1c514dfcdb878aeb010c9676", "rental_uris": {"android": "https://dc.lft.to/lastmile_qr_scan", "ios": "https://dc.lft.to/lastmile_qr_scan"}, "name": "d87f07ce1c514dfcdb878aeb010c9676", "is_reserved": 0}, {"is_disabled": 0, "fusion_lon": 0.0, "fusion_lat": 0.0, "lat": 38.928369, "type": "electric_scooter", "lon": -77.014071, "bike_id": "797327d5f09ff953c37f12c6b5d48aed", "rental_uris": {"android": "https://dc.lft.to/lastmile_qr_scan", "ios": "https://dc.lft.to/lastmile_qr_scan"}, "name": "797327d5f09ff953c37f12c6b5d48aed", "is_reserved": 0}, {"is_disabled": 0, "fusion_lon": 0.0, "fusion_lat": 0.0, "lat": 38.9198975, "type": "electric_scooter", "lon": -77.03265266666666, "bike_id": "a109f5cec559040280e5a896cdaf4a1d", "rental_uris": {"android": "https://dc.lft.to/lastmile_qr_scan", "ios": "https://dc.lft.to/lastmile_qr_scan"}, "name": "a109f5cec559040280e5a896cdaf4a1d", "is_reserved": 0}, {"is_disabled": 0, "fusion_lon": 0.0, "fusion_lat": 0.0, "lat": 38.900446333333335, "type": "electric_scooter", "lon": -76.92271416666667, "bike_id": "eb537f9b25c795e7e32e3a9105976287", "rental_uris": {"android": "https://dc.lft.to/lastmile_qr_scan", "ios": "https://dc.lft.to/lastmile_qr_scan"}, "name": "eb537f9b25c795e7e32e3a9105976287", "is_reserved": 0}, {"is_disabled": 0, "fusion_lon": 0.0, "fusion_lat": 0.0, "lat": 38.9341195, "type": "electric_scooter", "lon": -77.03888916666666, "bike_id": "97778ea0c15271ca61234676108f4226", "rental_uris": {"android": "https://dc.lft.to/lastmile_qr_scan", "ios": "https://dc.lft.to/lastmile_qr_scan"}, "name": "97778ea0c15271ca61234676108f4226", "is_reserved": 0}, {"is_disabled": 0, "fusion_lon": 0.0, "fusion_lat": 0.0, "lat": 38.902868, "type": "electric_scooter", "lon": -77.06269066666667, "bike_id": "e81ada2b3f04b1eeb01d53ac0c56d9ac", "rental_uris": {"android": "https://dc.lft.to/lastmile_qr_scan", "ios": "https://dc.lft.to/lastmile_qr_scan"}, "name": "e81ada2b3f04b1eeb01d53ac0c56d9ac", "is_reserved": 0}, {"is_disabled": 0, "fusion_lon": 0.0, "fusion_lat": 0.0, "lat": 38.904455, "type": "electric_scooter", "lon": -77.02418916666667, "bike_id": "8ae64f09da7bc8acc65e0d50c8f616e0", "rental_uris": {"android": "https://dc.lft.to/lastmile_qr_scan", "ios": "https://dc.lft.to/lastmile_qr_scan"}, "name": "8ae64f09da7bc8acc65e0d50c8f616e0", "is_reserved": 0}, {"is_disabled": 0, "fusion_lon": 0.0, "fusion_lat": 0.0, "lat": 38.975248666666666, "type": "electric_bike", "lon": -77.00961066666666, "bike_id": "9699e2af90c7a6427dc27d8c11447b21", "rental_uris": {"android": "https://dc.lft.to/lastmile_qr_scan", "ios": "https://dc.lft.to/lastmile_qr_scan"}, "name": "9699e2af90c7a6427dc27d8c11447b21", "is_reserved": 0}, {"is_disabled": 0, "fusion_lon": 0.0, "fusion_lat": 0.0, "lat": 38.92860116666667, "type": "electric_scooter", "lon": -76.99766033333333, "bike_id": "a8afd950004299892f7a26e35512464d", "rental_uris": {"android": "https://dc.lft.to/lastmile_qr_scan", "ios": "https://dc.lft.to/lastmile_qr_scan"}, "name": "a8afd950004299892f7a26e35512464d", "is_reserved": 0}, {"is_disabled": 0, "fusion_lon": 0.0, "fusion_lat": 0.0, "lat": 38.87887933333333, "type": "electric_scooter", "lon": -77.02298166666667, "bike_id": "cd0a67710d8d279cd813d82d59a11487", "rental_uris": {"android": "https://dc.lft.to/lastmile_qr_scan", "ios": "https://dc.lft.to/lastmile_qr_scan"}, "name": "cd0a67710d8d279cd813d82d59a11487", "is_reserved": 0}, {"is_disabled": 0, "fusion_lon": 0.0, "fusion_lat": 0.0, "lat": 38.916355333333335, "type": "electric_scooter", "lon": -77.04501283333333, "bike_id": "6c06220bf1065d283fa4bd083ce4c8cb", "rental_uris": {"android": "https://dc.lft.to/lastmile_qr_scan", "ios": "https://dc.lft.to/lastmile_qr_scan"}, "name": "6c06220bf1065d283fa4bd083ce4c8cb", "is_reserved": 0}, {"is_disabled": 0, "fusion_lon": 0.0, "fusion_lat": 0.0, "lat": 38.904738, "type": "electric_bike", "lon": -76.92947833333334, "bike_id": "988922c17dad3e5c4d70bfb7546b6a8a", "rental_uris": {"android": "https://dc.lft.to/lastmile_qr_scan", "ios": "https://dc.lft.to/lastmile_qr_scan"}, "name": "988922c17dad3e5c4d70bfb7546b6a8a", "is_reserved": 0}, {"is_disabled": 0, "fusion_lon": 0.0, "fusion_lat": 0.0, "lat": 38.91342216666666, "type": "electric_scooter", "lon": -77.04169233333333, "bike_id": "58c11b79bc46a5a2d1a5edf8bb4c9e56", "rental_uris": {"android": "https://dc.lft.to/lastmile_qr_scan", "ios": "https://dc.lft.to/lastmile_qr_scan"}, "name": "58c11b79bc46a5a2d1a5edf8bb4c9e56", "is_reserved": 0}, {"is_disabled": 0, "fusion_lon": 0.0, "fusion_lat": 0.0, "lat": 38.8528385, "type": "electric_bike", "lon": -76.98148116666667, "bike_id": "b88a6d4f6e4439b177ff4da711b3b663", "rental_uris": {"android": "https://dc.lft.to/lastmile_qr_scan", "ios": "https://dc.lft.to/lastmile_qr_scan"}, "name": "b88a6d4f6e4439b177ff4da711b3b663", "is_reserved": 0}, {"is_disabled": 0, "fusion_lon": 0.0, "fusion_lat": 0.0, "lat": 38.902762, "type": "electric_scooter", "lon": -77.03445783333333, "bike_id": "f710f29c3cbc6e240a095efaafdbe7a4", "rental_uris": {"android": "https://dc.lft.to/lastmile_qr_scan", "ios": "https://dc.lft.to/lastmile_qr_scan"}, "name": "f710f29c3cbc6e240a095efaafdbe7a4", "is_reserved": 0}, {"is_disabled": 0, "fusion_lon": 0.0, "fusion_lat": 0.0, "lat": 38.914153, "type": "electric_scooter", "lon": -77.039943, "bike_id": "511fa721d50f581587464427864db00a", "rental_uris": {"android": "https://dc.lft.to/lastmile_qr_scan", "ios": "https://dc.lft.to/lastmile_qr_scan"}, "name": "511fa721d50f581587464427864db00a", "is_reserved": 0}, {"is_disabled": 0, "fusion_lon": 0.0, "fusion_lat": 0.0, "lat": 38.89251566666667, "type": "electric_scooter", "lon": -77.04893416666667, "bike_id": "276e4ebec857caff33d4949bd3b044e4", "rental_uris": {"android": "https://dc.lft.to/lastmile_qr_scan", "ios": "https://dc.lft.to/lastmile_qr_scan"}, "name": "276e4ebec857caff33d4949bd3b044e4", "is_reserved": 0}, {"is_disabled": 0, "fusion_lon": 0.0, "fusion_lat": 0.0, "lat": 38.9258275, "type": "electric_scooter", "lon": -77.03228233333333, "bike_id": "e82a78168a849d19cbebe8aafa468461", "rental_uris": {"android": "https://dc.lft.to/lastmile_qr_scan", "ios": "https://dc.lft.to/lastmile_qr_scan"}, "name": "e82a78168a849d19cbebe8aafa468461", "is_reserved": 0}, {"is_disabled": 0, "fusion_lon": 0.0, "fusion_lat": 0.0, "lat": 38.92458166666667, "type": "electric_bike", "lon": -76.99948883333333, "bike_id": "814fc476e669ccf3e904046aa444c3d8", "rental_uris": {"android": "https://dc.lft.to/lastmile_qr_scan", "ios": "https://dc.lft.to/lastmile_qr_scan"}, "name": "814fc476e669ccf3e904046aa444c3d8", "is_reserved": 0}, {"is_disabled": 0, "fusion_lon": 0.0, "fusion_lat": 0.0, "lat": 38.8975565, "type": "electric_scooter", "lon": -77.050823, "bike_id": "363847a614b053724c1bd2e03cef3066", "rental_uris": {"android": "https://dc.lft.to/lastmile_qr_scan", "ios": "https://dc.lft.to/lastmile_qr_scan"}, "name": "363847a614b053724c1bd2e03cef3066", "is_reserved": 0}, {"is_disabled": 0, "fusion_lon": 0.0, "fusion_lat": 0.0, "lat": 38.91064266666667, "type": "electric_scooter", "lon": -77.0425425, "bike_id": "11683b6800567667defdce6d1ebf7805", "rental_uris": {"android": "https://dc.lft.to/lastmile_qr_scan", "ios": "https://dc.lft.to/lastmile_qr_scan"}, "name": "11683b6800567667defdce6d1ebf7805", "is_reserved": 0}, {"is_disabled": 0, "fusion_lon": 0.0, "fusion_lat": 0.0, "lat": 38.895389, "type": "electric_scooter", "lon": -76.94919633333333, "bike_id": "32d0405ce9f4a3c46ffe78732eb0893a", "rental_uris": {"android": "https://dc.lft.to/lastmile_qr_scan", "ios": "https://dc.lft.to/lastmile_qr_scan"}, "name": "32d0405ce9f4a3c46ffe78732eb0893a", "is_reserved": 0}, {"is_disabled": 0, "fusion_lon": 0.0, "fusion_lat": 0.0, "lat": 38.93638716666667, "type": "electric_scooter", "lon": -77.02687966666667, "bike_id": "ba3bb6150f0d1b5948e4c70fa30683e9", "rental_uris": {"android": "https://dc.lft.to/lastmile_qr_scan", "ios": "https://dc.lft.to/lastmile_qr_scan"}, "name": "ba3bb6150f0d1b5948e4c70fa30683e9", "is_reserved": 0}, {"is_disabled": 0, "fusion_lon": 0.0, "fusion_lat": 0.0, "lat": 38.909698166666665, "type": "electric_scooter", "lon": -77.03141, "bike_id": "99cfec5a29d039344298019987b988b2", "rental_uris": {"android": "https://dc.lft.to/lastmile_qr_scan", "ios": "https://dc.lft.to/lastmile_qr_scan"}, "name": "99cfec5a29d039344298019987b988b2", "is_reserved": 0}, {"is_disabled": 0, "fusion_lon": 0.0, "fusion_lat": 0.0, "lat": 38.9084835, "type": "electric_scooter", "lon": -77.06081766666667, "bike_id": "2b16ed73af1b05062adf0c60786d8ff4", "rental_uris": {"android": "https://dc.lft.to/lastmile_qr_scan", "ios": "https://dc.lft.to/lastmile_qr_scan"}, "name": "2b16ed73af1b05062adf0c60786d8ff4", "is_reserved": 0}, {"is_disabled": 0, "fusion_lon": 0.0, "fusion_lat": 0.0, "lat": 38.924664, "type": "electric_scooter", "lon": -77.02710883333333, "bike_id": "4125023a028094ab06a38c07fbb89487", "rental_uris": {"android": "https://dc.lft.to/lastmile_qr_scan", "ios": "https://dc.lft.to/lastmile_qr_scan"}, "name": "4125023a028094ab06a38c07fbb89487", "is_reserved": 0}, {"is_disabled": 0, "fusion_lon": 0.0, "fusion_lat": 0.0, "lat": 38.9030815, "type": "electric_bike", "lon": -77.02369283333333, "bike_id": "75291022cd9ad17f9acd09d5b85cb4c6", "rental_uris": {"android": "https://dc.lft.to/lastmile_qr_scan", "ios": "https://dc.lft.to/lastmile_qr_scan"}, "name": "75291022cd9ad17f9acd09d5b85cb4c6", "is_reserved": 0}, {"is_disabled": 0, "fusion_lon": 0.0, "fusion_lat": 0.0, "lat": 38.89729716666667, "type": "electric_scooter", "lon": -77.04902766666666, "bike_id": "565b419ca0fa78969770f14d045a3e9e", "rental_uris": {"android": "https://dc.lft.to/lastmile_qr_scan", "ios": "https://dc.lft.to/lastmile_qr_scan"}, "name": "565b419ca0fa78969770f14d045a3e9e", "is_reserved": 0}, {"is_disabled": 0, "fusion_lon": 0.0, "fusion_lat": 0.0, "lat": 38.89784983333333, "type": "electric_scooter", "lon": -77.02773116666667, "bike_id": "2295f963280ebd5ce109ad30c4427a41", "rental_uris": {"android": "https://dc.lft.to/lastmile_qr_scan", "ios": "https://dc.lft.to/lastmile_qr_scan"}, "name": "2295f963280ebd5ce109ad30c4427a41", "is_reserved": 0}, {"is_disabled": 0, "fusion_lon": 0.0, "fusion_lat": 0.0, "lat": 38.901876666666666, "type": "electric_scooter", "lon": -77.05273216666667, "bike_id": "ba6a762ab17b91abc9b8c187287acff0", "rental_uris": {"android": "https://dc.lft.to/lastmile_qr_scan", "ios": "https://dc.lft.to/lastmile_qr_scan"}, "name": "ba6a762ab17b91abc9b8c187287acff0", "is_reserved": 0}, {"is_disabled": 0, "fusion_lon": 0.0, "fusion_lat": 0.0, "lat": 38.911538666666665, "type": "electric_scooter", "lon": -77.02374666666667, "bike_id": "887801539dc5e7605088c3a5380c8485", "rental_uris": {"android": "https://dc.lft.to/lastmile_qr_scan", "ios": "https://dc.lft.to/lastmile_qr_scan"}, "name": "887801539dc5e7605088c3a5380c8485", "is_reserved": 0}, {"is_disabled": 0, "fusion_lon": 0.0, "fusion_lat": 0.0, "lat": 38.8952425, "type": "electric_scooter", "lon": -77.009208, "bike_id": "3f482508997405e7e8bcec6a80437fc7", "rental_uris": {"android": "https://dc.lft.to/lastmile_qr_scan", "ios": "https://dc.lft.to/lastmile_qr_scan"}, "name": "3f482508997405e7e8bcec6a80437fc7", "is_reserved": 0}, {"is_disabled": 0, "fusion_lon": 0.0, "fusion_lat": 0.0, "lat": 38.865006, "type": "electric_scooter", "lon": -76.98978816666667, "bike_id": "2613faa014be1c96c536ba6d298c628d", "rental_uris": {"android": "https://dc.lft.to/lastmile_qr_scan", "ios": "https://dc.lft.to/lastmile_qr_scan"}, "name": "2613faa014be1c96c536ba6d298c628d", "is_reserved": 0}, {"is_disabled": 0, "fusion_lon": 0.0, "fusion_lat": 0.0, "lat": 38.91427733333333, "type": "electric_scooter", "lon": -77.044904, "bike_id": "b4fa8ea00100836b57c57714f6d17188", "rental_uris": {"android": "https://dc.lft.to/lastmile_qr_scan", "ios": "https://dc.lft.to/lastmile_qr_scan"}, "name": "b4fa8ea00100836b57c57714f6d17188", "is_reserved": 0}, {"is_disabled": 0, "fusion_lon": 0.0, "fusion_lat": 0.0, "lat": 38.92302633333333, "type": "electric_scooter", "lon": -77.0429355, "bike_id": "ac2455e5161e5383a47d4c81622fc0c3", "rental_uris": {"android": "https://dc.lft.to/lastmile_qr_scan", "ios": "https://dc.lft.to/lastmile_qr_scan"}, "name": "ac2455e5161e5383a47d4c81622fc0c3", "is_reserved": 0}, {"is_disabled": 0, "fusion_lon": 0.0, "fusion_lat": 0.0, "lat": 38.918237500000004, "type": "electric_scooter", "lon": -77.03199566666666, "bike_id": "5a3b3ee5d8b6dbc53356962e39b7116f", "rental_uris": {"android": "https://dc.lft.to/lastmile_qr_scan", "ios": "https://dc.lft.to/lastmile_qr_scan"}, "name": "5a3b3ee5d8b6dbc53356962e39b7116f", "is_reserved": 0}, {"is_disabled": 0, "fusion_lon": 0.0, "fusion_lat": 0.0, "lat": 38.941029666666665, "type": "electric_scooter", "lon": -77.0770885, "bike_id": "22c9fcc06a09f72bb4bf6ebe5dc11e70", "rental_uris": {"android": "https://dc.lft.to/lastmile_qr_scan", "ios": "https://dc.lft.to/lastmile_qr_scan"}, "name": "22c9fcc06a09f72bb4bf6ebe5dc11e70", "is_reserved": 0}, {"is_disabled": 0, "fusion_lon": 0.0, "fusion_lat": 0.0, "lat": 38.96817, "type": "electric_scooter", "lon": -77.00889133333334, "bike_id": "e52aa760f81f1b9d3ec02c59348874b4", "rental_uris": {"android": "https://dc.lft.to/lastmile_qr_scan", "ios": "https://dc.lft.to/lastmile_qr_scan"}, "name": "e52aa760f81f1b9d3ec02c59348874b4", "is_reserved": 0}, {"is_disabled": 0, "fusion_lon": 0.0, "fusion_lat": 0.0, "lat": 38.90392533333333, "type": "electric_scooter", "lon": -77.0047275, "bike_id": "6da4191dd38ff036bea042aff62b7763", "rental_uris": {"android": "https://dc.lft.to/lastmile_qr_scan", "ios": "https://dc.lft.to/lastmile_qr_scan"}, "name": "6da4191dd38ff036bea042aff62b7763", "is_reserved": 0}, {"is_disabled": 0, "fusion_lon": 0.0, "fusion_lat": 0.0, "lat": 38.932274666666665, "type": "electric_scooter", "lon": -76.99535133333333, "bike_id": "0d805b6f341901bbc3a3ecb33af45b50", "rental_uris": {"android": "https://dc.lft.to/lastmile_qr_scan", "ios": "https://dc.lft.to/lastmile_qr_scan"}, "name": "0d805b6f341901bbc3a3ecb33af45b50", "is_reserved": 0}, {"is_disabled": 0, "fusion_lon": 0.0, "fusion_lat": 0.0, "lat": 38.8899395, "type": "electric_scooter", "lon": -77.000514, "bike_id": "f34c3d842a7d59c9cd70ed9248b19f84", "rental_uris": {"android": "https://dc.lft.to/lastmile_qr_scan", "ios": "https://dc.lft.to/lastmile_qr_scan"}, "name": "f34c3d842a7d59c9cd70ed9248b19f84", "is_reserved": 0}, {"is_disabled": 0, "fusion_lon": 0.0, "fusion_lat": 0.0, "lat": 39.052053666666666, "type": "electric_bike", "lon": -77.0441115, "bike_id": "63a144a32c7606762bbf9a8099e6faaa", "rental_uris": {"android": "https://dc.lft.to/lastmile_qr_scan", "ios": "https://dc.lft.to/lastmile_qr_scan"}, "name": "63a144a32c7606762bbf9a8099e6faaa", "is_reserved": 0}, {"is_disabled": 0, "fusion_lon": 0.0, "fusion_lat": 0.0, "lat": 38.9185155, "type": "electric_scooter", "lon": -77.02455166666667, "bike_id": "aa181a6695c3945ceee8fcaa50af653d", "rental_uris": {"android": "https://dc.lft.to/lastmile_qr_scan", "ios": "https://dc.lft.to/lastmile_qr_scan"}, "name": "aa181a6695c3945ceee8fcaa50af653d", "is_reserved": 0}, {"is_disabled": 0, "fusion_lon": 0.0, "fusion_lat": 0.0, "lat": 38.90548783333333, "type": "electric_scooter", "lon": -77.02204333333333, "bike_id": "55360887102b7985caaf1f09457610e2", "rental_uris": {"android": "https://dc.lft.to/lastmile_qr_scan", "ios": "https://dc.lft.to/lastmile_qr_scan"}, "name": "55360887102b7985caaf1f09457610e2", "is_reserved": 0}, {"is_disabled": 0, "fusion_lon": 0.0, "fusion_lat": 0.0, "lat": 38.8973005, "type": "electric_bike", "lon": -76.9054075, "bike_id": "508e6626dafd1bc0d18e23781b736732", "rental_uris": {"android": "https://dc.lft.to/lastmile_qr_scan", "ios": "https://dc.lft.to/lastmile_qr_scan"}, "name": "508e6626dafd1bc0d18e23781b736732", "is_reserved": 0}, {"is_disabled": 0, "fusion_lon": 0.0, "fusion_lat": 0.0, "lat": 38.96025083333333, "type": "electric_bike", "lon": -76.92730166666666, "bike_id": "33e8c5d309d5c561890559f06887fd96", "rental_uris": {"android": "https://dc.lft.to/lastmile_qr_scan", "ios": "https://dc.lft.to/lastmile_qr_scan"}, "name": "33e8c5d309d5c561890559f06887fd96", "is_reserved": 0}, {"is_disabled": 0, "fusion_lon": 0.0, "fusion_lat": 0.0, "lat": 38.90848316666667, "type": "electric_scooter", "lon": -77.06338766666667, "bike_id": "6075b236c7a3f537ce34d5f17efeef7a", "rental_uris": {"android": "https://dc.lft.to/lastmile_qr_scan", "ios": "https://dc.lft.to/lastmile_qr_scan"}, "name": "6075b236c7a3f537ce34d5f17efeef7a", "is_reserved": 0}, {"is_disabled": 0, "fusion_lon": 0.0, "fusion_lat": 0.0, "lat": 38.85870966666667, "type": "electric_scooter", "lon": -76.990274, "bike_id": "3a90ed5bd1a8d6838708bb40b9c5102e", "rental_uris": {"android": "https://dc.lft.to/lastmile_qr_scan", "ios": "https://dc.lft.to/lastmile_qr_scan"}, "name": "3a90ed5bd1a8d6838708bb40b9c5102e", "is_reserved": 0}, {"is_disabled": 0, "fusion_lon": 0.0, "fusion_lat": 0.0, "lat": 38.91676916666667, "type": "electric_scooter", "lon": -77.034669, "bike_id": "b70c30bb4104c966ff76ee73ae055a7c", "rental_uris": {"android": "https://dc.lft.to/lastmile_qr_scan", "ios": "https://dc.lft.to/lastmile_qr_scan"}, "name": "b70c30bb4104c966ff76ee73ae055a7c", "is_reserved": 0}, {"is_disabled": 0, "fusion_lon": 0.0, "fusion_lat": 0.0, "lat": 38.9025045, "type": "electric_scooter", "lon": -77.038763, "bike_id": "fd6acf61ad092c23bdf176477b6966c9", "rental_uris": {"android": "https://dc.lft.to/lastmile_qr_scan", "ios": "https://dc.lft.to/lastmile_qr_scan"}, "name": "fd6acf61ad092c23bdf176477b6966c9", "is_reserved": 0}, {"is_disabled": 0, "fusion_lon": 0.0, "fusion_lat": 0.0, "lat": 38.897322333333335, "type": "electric_scooter", "lon": -77.02732433333334, "bike_id": "6d6a4cb9b6c6d295d386e7032293d87f", "rental_uris": {"android": "https://dc.lft.to/lastmile_qr_scan", "ios": "https://dc.lft.to/lastmile_qr_scan"}, "name": "6d6a4cb9b6c6d295d386e7032293d87f", "is_reserved": 0}, {"is_disabled": 0, "fusion_lon": 0.0, "fusion_lat": 0.0, "lat": 38.926127, "type": "electric_scooter", "lon": -77.02160866666667, "bike_id": "81985d853ba26a1fb7366faf566455ae", "rental_uris": {"android": "https://dc.lft.to/lastmile_qr_scan", "ios": "https://dc.lft.to/lastmile_qr_scan"}, "name": "81985d853ba26a1fb7366faf566455ae", "is_reserved": 0}, {"is_disabled": 0, "fusion_lon": 0.0, "fusion_lat": 0.0, "lat": 38.972480833333336, "type": "electric_bike", "lon": -76.99274433333333, "bike_id": "aa64c0cfdca9b6ac70241902febdae51", "rental_uris": {"android": "https://dc.lft.to/lastmile_qr_scan", "ios": "https://dc.lft.to/lastmile_qr_scan"}, "name": "aa64c0cfdca9b6ac70241902febdae51", "is_reserved": 0}, {"is_disabled": 0, "fusion_lon": 0.0, "fusion_lat": 0.0, "lat": 38.9197785, "type": "electric_scooter", "lon": -76.97313833333334, "bike_id": "d4821092c2f0ede56520dd9fa315a47b", "rental_uris": {"android": "https://dc.lft.to/lastmile_qr_scan", "ios": "https://dc.lft.to/lastmile_qr_scan"}, "name": "d4821092c2f0ede56520dd9fa315a47b", "is_reserved": 0}, {"is_disabled": 0, "fusion_lon": 0.0, "fusion_lat": 0.0, "lat": 38.90544466666667, "type": "electric_scooter", "lon": -77.05807, "bike_id": "e34c033c1498228c348a136a5d13140d", "rental_uris": {"android": "https://dc.lft.to/lastmile_qr_scan", "ios": "https://dc.lft.to/lastmile_qr_scan"}, "name": "e34c033c1498228c348a136a5d13140d", "is_reserved": 0}, {"is_disabled": 0, "fusion_lon": 0.0, "fusion_lat": 0.0, "lat": 38.920123833333335, "type": "electric_scooter", "lon": -77.0312365, "bike_id": "a60b63c4bbe40b433755fc29b02900ca", "rental_uris": {"android": "https://dc.lft.to/lastmile_qr_scan", "ios": "https://dc.lft.to/lastmile_qr_scan"}, "name": "a60b63c4bbe40b433755fc29b02900ca", "is_reserved": 0}, {"is_disabled": 0, "fusion_lon": 0.0, "fusion_lat": 0.0, "lat": 38.8937035, "type": "electric_scooter", "lon": -76.97817333333333, "bike_id": "d703bdbc44ff6ee13d7ed21e8dbec035", "rental_uris": {"android": "https://dc.lft.to/lastmile_qr_scan", "ios": "https://dc.lft.to/lastmile_qr_scan"}, "name": "d703bdbc44ff6ee13d7ed21e8dbec035", "is_reserved": 0}, {"is_disabled": 0, "fusion_lon": 0.0, "fusion_lat": 0.0, "lat": 38.89523633333334, "type": "electric_scooter", "lon": -77.00208866666667, "bike_id": "21e20f34e8af7827885e550f02495034", "rental_uris": {"android": "https://dc.lft.to/lastmile_qr_scan", "ios": "https://dc.lft.to/lastmile_qr_scan"}, "name": "21e20f34e8af7827885e550f02495034", "is_reserved": 0}, {"is_disabled": 0, "fusion_lon": 0.0, "fusion_lat": 0.0, "lat": 38.897513000000004, "type": "electric_scooter", "lon": -77.02699033333333, "bike_id": "0c44596da89eb459488bda0a8df893b2", "rental_uris": {"android": "https://dc.lft.to/lastmile_qr_scan", "ios": "https://dc.lft.to/lastmile_qr_scan"}, "name": "0c44596da89eb459488bda0a8df893b2", "is_reserved": 0}, {"is_disabled": 0, "fusion_lon": 0.0, "fusion_lat": 0.0, "lat": 38.9572265, "type": "electric_scooter", "lon": -77.03106533333333, "bike_id": "2f25bd5de4937f6af9c76b8cd7d5406f", "rental_uris": {"android": "https://dc.lft.to/lastmile_qr_scan", "ios": "https://dc.lft.to/lastmile_qr_scan"}, "name": "2f25bd5de4937f6af9c76b8cd7d5406f", "is_reserved": 0}, {"is_disabled": 0, "fusion_lon": 0.0, "fusion_lat": 0.0, "lat": 38.89906216666667, "type": "electric_scooter", "lon": -77.01634983333334, "bike_id": "884349f375d7b0d9b18abf7f17745fd3", "rental_uris": {"android": "https://dc.lft.to/lastmile_qr_scan", "ios": "https://dc.lft.to/lastmile_qr_scan"}, "name": "884349f375d7b0d9b18abf7f17745fd3", "is_reserved": 0}, {"is_disabled": 0, "fusion_lon": 0.0, "fusion_lat": 0.0, "lat": 38.91404166666667, "type": "electric_scooter", "lon": -77.03222266666667, "bike_id": "52cbdfe53b1ea1c2de921ff6a7796ebd", "rental_uris": {"android": "https://dc.lft.to/lastmile_qr_scan", "ios": "https://dc.lft.to/lastmile_qr_scan"}, "name": "52cbdfe53b1ea1c2de921ff6a7796ebd", "is_reserved": 0}, {"is_disabled": 0, "fusion_lon": 0.0, "fusion_lat": 0.0, "lat": 38.8882315, "type": "electric_bike", "lon": -77.12740683333334, "bike_id": "1639d8a44db0e2a08545137a088d1c1c", "rental_uris": {"android": "https://dc.lft.to/lastmile_qr_scan", "ios": "https://dc.lft.to/lastmile_qr_scan"}, "name": "1639d8a44db0e2a08545137a088d1c1c", "is_reserved": 0}, {"is_disabled": 0, "fusion_lon": 0.0, "fusion_lat": 0.0, "lat": 38.91568483333333, "type": "electric_scooter", "lon": -77.0393525, "bike_id": "dc2f811e69f8e02393c515141575e3da", "rental_uris": {"android": "https://dc.lft.to/lastmile_qr_scan", "ios": "https://dc.lft.to/lastmile_qr_scan"}, "name": "dc2f811e69f8e02393c515141575e3da", "is_reserved": 0}, {"is_disabled": 0, "fusion_lon": 0.0, "fusion_lat": 0.0, "lat": 38.975729333333334, "type": "electric_bike", "lon": -76.96401716666666, "bike_id": "73cab1cebe61d92c96ab8a4d13b2d587", "rental_uris": {"android": "https://dc.lft.to/lastmile_qr_scan", "ios": "https://dc.lft.to/lastmile_qr_scan"}, "name": "73cab1cebe61d92c96ab8a4d13b2d587", "is_reserved": 0}, {"is_disabled": 0, "fusion_lon": 0.0, "fusion_lat": 0.0, "lat": 38.90541916666667, "type": "electric_scooter", "lon": -77.058142, "bike_id": "38e64620e00d70b4fb36a9eb6915846a", "rental_uris": {"android": "https://dc.lft.to/lastmile_qr_scan", "ios": "https://dc.lft.to/lastmile_qr_scan"}, "name": "38e64620e00d70b4fb36a9eb6915846a", "is_reserved": 0}, {"is_disabled": 0, "fusion_lon": 0.0, "fusion_lat": 0.0, "lat": 38.8554395, "type": "electric_bike", "lon": -77.10721633333333, "bike_id": "aaabe44da63c9d4e4ed6f70490cb42f6", "rental_uris": {"android": "https://dc.lft.to/lastmile_qr_scan", "ios": "https://dc.lft.to/lastmile_qr_scan"}, "name": "aaabe44da63c9d4e4ed6f70490cb42f6", "is_reserved": 0}, {"is_disabled": 0, "fusion_lon": 0.0, "fusion_lat": 0.0, "lat": 38.8896825, "type": "electric_bike", "lon": -76.9486225, "bike_id": "ae84d0d8efcbb24884e68ab5f06f841a", "rental_uris": {"android": "https://dc.lft.to/lastmile_qr_scan", "ios": "https://dc.lft.to/lastmile_qr_scan"}, "name": "ae84d0d8efcbb24884e68ab5f06f841a", "is_reserved": 0}, {"is_disabled": 0, "fusion_lon": 0.0, "fusion_lat": 0.0, "lat": 38.9909025, "type": "electric_bike", "lon": -76.874948, "bike_id": "a228057761a6fed927cfbb27a13314f5", "rental_uris": {"android": "https://dc.lft.to/lastmile_qr_scan", "ios": "https://dc.lft.to/lastmile_qr_scan"}, "name": "a228057761a6fed927cfbb27a13314f5", "is_reserved": 0}, {"is_disabled": 0, "fusion_lon": 0.0, "fusion_lat": 0.0, "lat": 38.9052075, "type": "electric_scooter", "lon": -77.05116616666666, "bike_id": "1b3031bef03fceb21adfb6cf42e6494e", "rental_uris": {"android": "https://dc.lft.to/lastmile_qr_scan", "ios": "https://dc.lft.to/lastmile_qr_scan"}, "name": "1b3031bef03fceb21adfb6cf42e6494e", "is_reserved": 0}, {"is_disabled": 0, "fusion_lon": 0.0, "fusion_lat": 0.0, "lat": 38.90775816666667, "type": "electric_scooter", "lon": -77.03273066666667, "bike_id": "d4ec5b14d8ccc59fca3c71ba95726841", "rental_uris": {"android": "https://dc.lft.to/lastmile_qr_scan", "ios": "https://dc.lft.to/lastmile_qr_scan"}, "name": "d4ec5b14d8ccc59fca3c71ba95726841", "is_reserved": 0}, {"is_disabled": 0, "fusion_lon": 0.0, "fusion_lat": 0.0, "lat": 38.877341333333334, "type": "electric_scooter", "lon": -77.01793016666667, "bike_id": "7e0999f5148b9b707a190f02f99a0bed", "rental_uris": {"android": "https://dc.lft.to/lastmile_qr_scan", "ios": "https://dc.lft.to/lastmile_qr_scan"}, "name": "7e0999f5148b9b707a190f02f99a0bed", "is_reserved": 0}, {"is_disabled": 0, "fusion_lon": 0.0, "fusion_lat": 0.0, "lat": 38.9430045, "type": "electric_scooter", "lon": -77.0252645, "bike_id": "9f239680a5dda334a0c7caab995fe83b", "rental_uris": {"android": "https://dc.lft.to/lastmile_qr_scan", "ios": "https://dc.lft.to/lastmile_qr_scan"}, "name": "9f239680a5dda334a0c7caab995fe83b", "is_reserved": 0}, {"is_disabled": 0, "fusion_lon": 0.0, "fusion_lat": 0.0, "lat": 38.902690166666666, "type": "electric_scooter", "lon": -77.03469316666667, "bike_id": "6bd1847e0fe673f2a195e420b3cf6fdf", "rental_uris": {"android": "https://dc.lft.to/lastmile_qr_scan", "ios": "https://dc.lft.to/lastmile_qr_scan"}, "name": "6bd1847e0fe673f2a195e420b3cf6fdf", "is_reserved": 0}, {"is_disabled": 0, "fusion_lon": 0.0, "fusion_lat": 0.0, "lat": 38.90956766666667, "type": "electric_scooter", "lon": -77.04845083333333, "bike_id": "9cd2454548350b83b9e4eed8d9699667", "rental_uris": {"android": "https://dc.lft.to/lastmile_qr_scan", "ios": "https://dc.lft.to/lastmile_qr_scan"}, "name": "9cd2454548350b83b9e4eed8d9699667", "is_reserved": 0}, {"is_disabled": 0, "fusion_lon": 0.0, "fusion_lat": 0.0, "lat": 38.894737, "type": "electric_scooter", "lon": -76.93303766666666, "bike_id": "0466e6ef785f6d07c229281e70a59b59", "rental_uris": {"android": "https://dc.lft.to/lastmile_qr_scan", "ios": "https://dc.lft.to/lastmile_qr_scan"}, "name": "0466e6ef785f6d07c229281e70a59b59", "is_reserved": 0}, {"is_disabled": 0, "fusion_lon": 0.0, "fusion_lat": 0.0, "lat": 38.878977166666665, "type": "electric_scooter", "lon": -76.93523733333333, "bike_id": "d5f2b7b68f9cf08a93764ce8444d1eb0", "rental_uris": {"android": "https://dc.lft.to/lastmile_qr_scan", "ios": "https://dc.lft.to/lastmile_qr_scan"}, "name": "d5f2b7b68f9cf08a93764ce8444d1eb0", "is_reserved": 0}, {"is_disabled": 0, "fusion_lon": 0.0, "fusion_lat": 0.0, "lat": 38.9046485, "type": "electric_scooter", "lon": -77.02611116666667, "bike_id": "fadac52c5023740314af29501f2a8a85", "rental_uris": {"android": "https://dc.lft.to/lastmile_qr_scan", "ios": "https://dc.lft.to/lastmile_qr_scan"}, "name": "fadac52c5023740314af29501f2a8a85", "is_reserved": 0}, {"is_disabled": 0, "fusion_lon": 0.0, "fusion_lat": 0.0, "lat": 38.88597733333334, "type": "electric_scooter", "lon": -76.99720183333334, "bike_id": "f7b6e7168a1431ef9e594929a141d674", "rental_uris": {"android": "https://dc.lft.to/lastmile_qr_scan", "ios": "https://dc.lft.to/lastmile_qr_scan"}, "name": "f7b6e7168a1431ef9e594929a141d674", "is_reserved": 0}, {"is_disabled": 0, "fusion_lon": 0.0, "fusion_lat": 0.0, "lat": 38.930366666666664, "type": "electric_scooter", "lon": -77.02963383333334, "bike_id": "961f13c09051bf5320d162f13139bce7", "rental_uris": {"android": "https://dc.lft.to/lastmile_qr_scan", "ios": "https://dc.lft.to/lastmile_qr_scan"}, "name": "961f13c09051bf5320d162f13139bce7", "is_reserved": 0}, {"is_disabled": 0, "fusion_lon": 0.0, "fusion_lat": 0.0, "lat": 38.894856833333336, "type": "electric_scooter", "lon": -77.02151116666667, "bike_id": "093901570ee3c84ea65495a5ba44af6f", "rental_uris": {"android": "https://dc.lft.to/lastmile_qr_scan", "ios": "https://dc.lft.to/lastmile_qr_scan"}, "name": "093901570ee3c84ea65495a5ba44af6f", "is_reserved": 0}, {"is_disabled": 0, "fusion_lon": 0.0, "fusion_lat": 0.0, "lat": 38.910267, "type": "electric_scooter", "lon": -77.00764283333334, "bike_id": "868b0ad67a391c0f86928c19967af2ee", "rental_uris": {"android": "https://dc.lft.to/lastmile_qr_scan", "ios": "https://dc.lft.to/lastmile_qr_scan"}, "name": "868b0ad67a391c0f86928c19967af2ee", "is_reserved": 0}, {"is_disabled": 0, "fusion_lon": 0.0, "fusion_lat": 0.0, "lat": 38.931766, "type": "electric_scooter", "lon": -77.07255483333333, "bike_id": "94d1cffcbc617980c44d23a89f67ba90", "rental_uris": {"android": "https://dc.lft.to/lastmile_qr_scan", "ios": "https://dc.lft.to/lastmile_qr_scan"}, "name": "94d1cffcbc617980c44d23a89f67ba90", "is_reserved": 0}, {"is_disabled": 0, "fusion_lon": 0.0, "fusion_lat": 0.0, "lat": 38.918836, "type": "electric_scooter", "lon": -77.02478766666667, "bike_id": "6cb446e1c4d0f0eecd0dfc1f143b4855", "rental_uris": {"android": "https://dc.lft.to/lastmile_qr_scan", "ios": "https://dc.lft.to/lastmile_qr_scan"}, "name": "6cb446e1c4d0f0eecd0dfc1f143b4855", "is_reserved": 0}, {"is_disabled": 0, "fusion_lon": 0.0, "fusion_lat": 0.0, "lat": 38.898877666666664, "type": "electric_scooter", "lon": -77.052949, "bike_id": "5fee9a30c9f624aa74fb4f523e2fe4d4", "rental_uris": {"android": "https://dc.lft.to/lastmile_qr_scan", "ios": "https://dc.lft.to/lastmile_qr_scan"}, "name": "5fee9a30c9f624aa74fb4f523e2fe4d4", "is_reserved": 0}, {"is_disabled": 0, "fusion_lon": 0.0, "fusion_lat": 0.0, "lat": 38.90311366666667, "type": "electric_scooter", "lon": -76.9824345, "bike_id": "19639b49e6a7fc32ab6fa43bb1879729", "rental_uris": {"android": "https://dc.lft.to/lastmile_qr_scan", "ios": "https://dc.lft.to/lastmile_qr_scan"}, "name": "19639b49e6a7fc32ab6fa43bb1879729", "is_reserved": 0}, {"is_disabled": 0, "fusion_lon": 0.0, "fusion_lat": 0.0, "lat": 38.89842633333333, "type": "electric_scooter", "lon": -76.9463215, "bike_id": "fec99c861cbf4a1081aa36342392b303", "rental_uris": {"android": "https://dc.lft.to/lastmile_qr_scan", "ios": "https://dc.lft.to/lastmile_qr_scan"}, "name": "fec99c861cbf4a1081aa36342392b303", "is_reserved": 0}, {"is_disabled": 0, "fusion_lon": 0.0, "fusion_lat": 0.0, "lat": 38.92602933333333, "type": "electric_scooter", "lon": -77.02156583333333, "bike_id": "b91e73ebb84240c0be9ba07d80e02eea", "rental_uris": {"android": "https://dc.lft.to/lastmile_qr_scan", "ios": "https://dc.lft.to/lastmile_qr_scan"}, "name": "b91e73ebb84240c0be9ba07d80e02eea", "is_reserved": 0}, {"is_disabled": 0, "fusion_lon": 0.0, "fusion_lat": 0.0, "lat": 38.897072333333334, "type": "electric_scooter", "lon": -77.02445783333333, "bike_id": "f8fa1605884ac37ef8c37712e1c9ae50", "rental_uris": {"android": "https://dc.lft.to/lastmile_qr_scan", "ios": "https://dc.lft.to/lastmile_qr_scan"}, "name": "f8fa1605884ac37ef8c37712e1c9ae50", "is_reserved": 0}, {"is_disabled": 0, "fusion_lon": 0.0, "fusion_lat": 0.0, "lat": 38.8990925, "type": "electric_scooter", "lon": -76.93388666666667, "bike_id": "720808c8c901580d7b53d7b26dc52f26", "rental_uris": {"android": "https://dc.lft.to/lastmile_qr_scan", "ios": "https://dc.lft.to/lastmile_qr_scan"}, "name": "720808c8c901580d7b53d7b26dc52f26", "is_reserved": 0}, {"is_disabled": 0, "fusion_lon": 0.0, "fusion_lat": 0.0, "lat": 38.902951, "type": "electric_scooter", "lon": -77.03455583333333, "bike_id": "ff9ada1f60bc7da3619cf3f02ac22af2", "rental_uris": {"android": "https://dc.lft.to/lastmile_qr_scan", "ios": "https://dc.lft.to/lastmile_qr_scan"}, "name": "ff9ada1f60bc7da3619cf3f02ac22af2", "is_reserved": 0}, {"is_disabled": 0, "fusion_lon": 0.0, "fusion_lat": 0.0, "lat": 38.892291, "type": "electric_scooter", "lon": -77.05001216666666, "bike_id": "8f8a1caecb22f312cc7cf3f99c434a6e", "rental_uris": {"android": "https://dc.lft.to/lastmile_qr_scan", "ios": "https://dc.lft.to/lastmile_qr_scan"}, "name": "8f8a1caecb22f312cc7cf3f99c434a6e", "is_reserved": 0}, {"is_disabled": 0, "fusion_lon": 0.0, "fusion_lat": 0.0, "lat": 38.9054465, "type": "electric_scooter", "lon": -77.0220745, "bike_id": "b37d0ee45a81a744337df46d58c889ac", "rental_uris": {"android": "https://dc.lft.to/lastmile_qr_scan", "ios": "https://dc.lft.to/lastmile_qr_scan"}, "name": "b37d0ee45a81a744337df46d58c889ac", "is_reserved": 0}, {"is_disabled": 0, "fusion_lon": 0.0, "fusion_lat": 0.0, "lat": 38.836110833333336, "type": "electric_bike", "lon": -77.0038295, "bike_id": "f27627b95b586bb65d650475959ff6ff", "rental_uris": {"android": "https://dc.lft.to/lastmile_qr_scan", "ios": "https://dc.lft.to/lastmile_qr_scan"}, "name": "f27627b95b586bb65d650475959ff6ff", "is_reserved": 0}, {"is_disabled": 0, "fusion_lon": 0.0, "fusion_lat": 0.0, "lat": 38.92364416666667, "type": "electric_scooter", "lon": -77.05130966666667, "bike_id": "e34bf4003c99a24d8ae66fa9bee87e9a", "rental_uris": {"android": "https://dc.lft.to/lastmile_qr_scan", "ios": "https://dc.lft.to/lastmile_qr_scan"}, "name": "e34bf4003c99a24d8ae66fa9bee87e9a", "is_reserved": 0}, {"is_disabled": 0, "fusion_lon": 0.0, "fusion_lat": 0.0, "lat": 38.9047505, "type": "electric_scooter", "lon": -77.02981283333334, "bike_id": "b54527930f5fa6af53262bcbba502aa8", "rental_uris": {"android": "https://dc.lft.to/lastmile_qr_scan", "ios": "https://dc.lft.to/lastmile_qr_scan"}, "name": "b54527930f5fa6af53262bcbba502aa8", "is_reserved": 0}, {"is_disabled": 0, "fusion_lon": 0.0, "fusion_lat": 0.0, "lat": 38.89906533333333, "type": "electric_scooter", "lon": -77.03939766666667, "bike_id": "a00f4cb08f3a3b311214c2e30242fc0c", "rental_uris": {"android": "https://dc.lft.to/lastmile_qr_scan", "ios": "https://dc.lft.to/lastmile_qr_scan"}, "name": "a00f4cb08f3a3b311214c2e30242fc0c", "is_reserved": 0}, {"is_disabled": 0, "fusion_lon": 0.0, "fusion_lat": 0.0, "lat": 38.96913933333333, "type": "electric_bike", "lon": -77.02596283333334, "bike_id": "526fd1233c6b1805be68448cd772d4d0", "rental_uris": {"android": "https://dc.lft.to/lastmile_qr_scan", "ios": "https://dc.lft.to/lastmile_qr_scan"}, "name": "526fd1233c6b1805be68448cd772d4d0", "is_reserved": 0}, {"is_disabled": 0, "fusion_lon": 0.0, "fusion_lat": 0.0, "lat": 38.9185395, "type": "electric_scooter", "lon": -77.02959133333333, "bike_id": "2bac488e417ebac90c0fc6ad8a881af4", "rental_uris": {"android": "https://dc.lft.to/lastmile_qr_scan", "ios": "https://dc.lft.to/lastmile_qr_scan"}, "name": "2bac488e417ebac90c0fc6ad8a881af4", "is_reserved": 0}, {"is_disabled": 0, "fusion_lon": 0.0, "fusion_lat": 0.0, "lat": 38.919133, "type": "electric_scooter", "lon": -77.04155733333333, "bike_id": "a2fd511302ede7e1bfa2b18897369264", "rental_uris": {"android": "https://dc.lft.to/lastmile_qr_scan", "ios": "https://dc.lft.to/lastmile_qr_scan"}, "name": "a2fd511302ede7e1bfa2b18897369264", "is_reserved": 0}, {"is_disabled": 0, "fusion_lon": 0.0, "fusion_lat": 0.0, "lat": 38.9118905, "type": "electric_scooter", "lon": -77.03833066666667, "bike_id": "fef4669c572d303f53a37e479723c3c8", "rental_uris": {"android": "https://dc.lft.to/lastmile_qr_scan", "ios": "https://dc.lft.to/lastmile_qr_scan"}, "name": "fef4669c572d303f53a37e479723c3c8", "is_reserved": 0}, {"is_disabled": 0, "fusion_lon": 0.0, "fusion_lat": 0.0, "lat": 38.93511, "type": "electric_scooter", "lon": -77.02406533333334, "bike_id": "6de90ae429a9ff008ec988f3e7059598", "rental_uris": {"android": "https://dc.lft.to/lastmile_qr_scan", "ios": "https://dc.lft.to/lastmile_qr_scan"}, "name": "6de90ae429a9ff008ec988f3e7059598", "is_reserved": 0}, {"is_disabled": 0, "fusion_lon": 0.0, "fusion_lat": 0.0, "lat": 38.902601, "type": "electric_scooter", "lon": -77.03445066666667, "bike_id": "68af1978cdbacdd67a48d5d5bac70266", "rental_uris": {"android": "https://dc.lft.to/lastmile_qr_scan", "ios": "https://dc.lft.to/lastmile_qr_scan"}, "name": "68af1978cdbacdd67a48d5d5bac70266", "is_reserved": 0}, {"is_disabled": 0, "fusion_lon": 0.0, "fusion_lat": 0.0, "lat": 38.90267716666666, "type": "electric_scooter", "lon": -77.03441283333333, "bike_id": "54b82d53921d544e0407d7786421b0f6", "rental_uris": {"android": "https://dc.lft.to/lastmile_qr_scan", "ios": "https://dc.lft.to/lastmile_qr_scan"}, "name": "54b82d53921d544e0407d7786421b0f6", "is_reserved": 0}, {"is_disabled": 0, "fusion_lon": 0.0, "fusion_lat": 0.0, "lat": 38.912849666666666, "type": "electric_scooter", "lon": -76.98683866666667, "bike_id": "f46c71fa7703506a4db890802aae697a", "rental_uris": {"android": "https://dc.lft.to/lastmile_qr_scan", "ios": "https://dc.lft.to/lastmile_qr_scan"}, "name": "f46c71fa7703506a4db890802aae697a", "is_reserved": 0}, {"is_disabled": 0, "fusion_lon": 0.0, "fusion_lat": 0.0, "lat": 38.968054333333335, "type": "electric_scooter", "lon": -77.021227, "bike_id": "6ba923ccac85d9d491913dce1bac5093", "rental_uris": {"android": "https://dc.lft.to/lastmile_qr_scan", "ios": "https://dc.lft.to/lastmile_qr_scan"}, "name": "6ba923ccac85d9d491913dce1bac5093", "is_reserved": 0}, {"is_disabled": 0, "fusion_lon": 0.0, "fusion_lat": 0.0, "lat": 38.8802265, "type": "electric_scooter", "lon": -76.98238783333333, "bike_id": "a62b6d212c382a97f72d842509b45278", "rental_uris": {"android": "https://dc.lft.to/lastmile_qr_scan", "ios": "https://dc.lft.to/lastmile_qr_scan"}, "name": "a62b6d212c382a97f72d842509b45278", "is_reserved": 0}, {"is_disabled": 0, "fusion_lon": 0.0, "fusion_lat": 0.0, "lat": 38.907198666666666, "type": "electric_scooter", "lon": -77.02536916666666, "bike_id": "9266ea51ddeb07308508c33c28d0604b", "rental_uris": {"android": "https://dc.lft.to/lastmile_qr_scan", "ios": "https://dc.lft.to/lastmile_qr_scan"}, "name": "9266ea51ddeb07308508c33c28d0604b", "is_reserved": 0}, {"is_disabled": 0, "fusion_lon": 0.0, "fusion_lat": 0.0, "lat": 38.937215333333334, "type": "electric_scooter", "lon": -77.0241005, "bike_id": "dc30f06b44244f3086a52bc5152a09b8", "rental_uris": {"android": "https://dc.lft.to/lastmile_qr_scan", "ios": "https://dc.lft.to/lastmile_qr_scan"}, "name": "dc30f06b44244f3086a52bc5152a09b8", "is_reserved": 0}, {"is_disabled": 0, "fusion_lon": 0.0, "fusion_lat": 0.0, "lat": 38.924052, "type": "electric_scooter", "lon": -77.02542966666667, "bike_id": "7ff34b90f1d12ee1b9fb201c51613b3a", "rental_uris": {"android": "https://dc.lft.to/lastmile_qr_scan", "ios": "https://dc.lft.to/lastmile_qr_scan"}, "name": "7ff34b90f1d12ee1b9fb201c51613b3a", "is_reserved": 0}, {"is_disabled": 0, "fusion_lon": 0.0, "fusion_lat": 0.0, "lat": 38.87471133333333, "type": "electric_scooter", "lon": -77.00520083333333, "bike_id": "ef5be3d7455e5d8e0b8a91f19b7fc100", "rental_uris": {"android": "https://dc.lft.to/lastmile_qr_scan", "ios": "https://dc.lft.to/lastmile_qr_scan"}, "name": "ef5be3d7455e5d8e0b8a91f19b7fc100", "is_reserved": 0}, {"is_disabled": 0, "fusion_lon": 0.0, "fusion_lat": 0.0, "lat": 38.89631, "type": "electric_scooter", "lon": -77.02590566666667, "bike_id": "0b5121fab8d761d6fef50fa8b3c4bade", "rental_uris": {"android": "https://dc.lft.to/lastmile_qr_scan", "ios": "https://dc.lft.to/lastmile_qr_scan"}, "name": "0b5121fab8d761d6fef50fa8b3c4bade", "is_reserved": 0}, {"is_disabled": 0, "fusion_lon": 0.0, "fusion_lat": 0.0, "lat": 38.940890333333336, "type": "electric_scooter", "lon": -77.03816816666667, "bike_id": "0d73fdd20356f78d3eff0fd626b194a2", "rental_uris": {"android": "https://dc.lft.to/lastmile_qr_scan", "ios": "https://dc.lft.to/lastmile_qr_scan"}, "name": "0d73fdd20356f78d3eff0fd626b194a2", "is_reserved": 0}, {"is_disabled": 0, "fusion_lon": 0.0, "fusion_lat": 0.0, "lat": 38.954196, "type": "electric_scooter", "lon": -77.02171533333333, "bike_id": "cab30fd5665a607a74d6084d0b85d4c2", "rental_uris": {"android": "https://dc.lft.to/lastmile_qr_scan", "ios": "https://dc.lft.to/lastmile_qr_scan"}, "name": "cab30fd5665a607a74d6084d0b85d4c2", "is_reserved": 0}, {"is_disabled": 0, "fusion_lon": 0.0, "fusion_lat": 0.0, "lat": 38.880302, "type": "electric_scooter", "lon": -76.995039, "bike_id": "551f30f99341c511e273b695a71dd725", "rental_uris": {"android": "https://dc.lft.to/lastmile_qr_scan", "ios": "https://dc.lft.to/lastmile_qr_scan"}, "name": "551f30f99341c511e273b695a71dd725", "is_reserved": 0}, {"is_disabled": 0, "fusion_lon": 0.0, "fusion_lat": 0.0, "lat": 38.97167, "type": "electric_bike", "lon": -76.980205, "bike_id": "9303ef3d85fa90889ef0adc9fe2e0d0b", "rental_uris": {"android": "https://dc.lft.to/lastmile_qr_scan", "ios": "https://dc.lft.to/lastmile_qr_scan"}, "name": "9303ef3d85fa90889ef0adc9fe2e0d0b", "is_reserved": 0}, {"is_disabled": 0, "fusion_lon": 0.0, "fusion_lat": 0.0, "lat": 38.91636733333333, "type": "electric_scooter", "lon": -77.02696633333333, "bike_id": "44f683aea0dc5545d86ee18336ba010b", "rental_uris": {"android": "https://dc.lft.to/lastmile_qr_scan", "ios": "https://dc.lft.to/lastmile_qr_scan"}, "name": "44f683aea0dc5545d86ee18336ba010b", "is_reserved": 0}, {"is_disabled": 0, "fusion_lon": 0.0, "fusion_lat": 0.0, "lat": 38.95066166666667, "type": "electric_scooter", "lon": -77.02959866666667, "bike_id": "ccc96f6a1b488bacc81b35df300b0303", "rental_uris": {"android": "https://dc.lft.to/lastmile_qr_scan", "ios": "https://dc.lft.to/lastmile_qr_scan"}, "name": "ccc96f6a1b488bacc81b35df300b0303", "is_reserved": 0}, {"is_disabled": 0, "fusion_lon": 0.0, "fusion_lat": 0.0, "lat": 38.9596505, "type": "electric_scooter", "lon": -77.0211405, "bike_id": "f205a0b9934d0666592369ce965caab3", "rental_uris": {"android": "https://dc.lft.to/lastmile_qr_scan", "ios": "https://dc.lft.to/lastmile_qr_scan"}, "name": "f205a0b9934d0666592369ce965caab3", "is_reserved": 0}, {"is_disabled": 0, "fusion_lon": 0.0, "fusion_lat": 0.0, "lat": 38.88074916666667, "type": "electric_scooter", "lon": -76.99509533333334, "bike_id": "8a53f85dc532793de2661a6d19213e6f", "rental_uris": {"android": "https://dc.lft.to/lastmile_qr_scan", "ios": "https://dc.lft.to/lastmile_qr_scan"}, "name": "8a53f85dc532793de2661a6d19213e6f", "is_reserved": 0}, {"is_disabled": 0, "fusion_lon": 0.0, "fusion_lat": 0.0, "lat": 38.902662666666664, "type": "electric_scooter", "lon": -77.0200155, "bike_id": "3df5f6d0d108d7cb043e6246a6ec469d", "rental_uris": {"android": "https://dc.lft.to/lastmile_qr_scan", "ios": "https://dc.lft.to/lastmile_qr_scan"}, "name": "3df5f6d0d108d7cb043e6246a6ec469d", "is_reserved": 0}, {"is_disabled": 0, "fusion_lon": 0.0, "fusion_lat": 0.0, "lat": 38.9180725, "type": "electric_scooter", "lon": -77.0343255, "bike_id": "7d072c7aa515bae2fb119b29318a390a", "rental_uris": {"android": "https://dc.lft.to/lastmile_qr_scan", "ios": "https://dc.lft.to/lastmile_qr_scan"}, "name": "7d072c7aa515bae2fb119b29318a390a", "is_reserved": 0}, {"is_disabled": 0, "fusion_lon": 0.0, "fusion_lat": 0.0, "lat": 38.9355985, "type": "electric_scooter", "lon": -77.08200816666667, "bike_id": "8f011d3dec0ff91908c3e9e892d2447a", "rental_uris": {"android": "https://dc.lft.to/lastmile_qr_scan", "ios": "https://dc.lft.to/lastmile_qr_scan"}, "name": "8f011d3dec0ff91908c3e9e892d2447a", "is_reserved": 0}, {"is_disabled": 0, "fusion_lon": 0.0, "fusion_lat": 0.0, "lat": 38.8459825, "type": "electric_bike", "lon": -76.96876816666666, "bike_id": "14894dbf2c08ea8c5d8a8972717875aa", "rental_uris": {"android": "https://dc.lft.to/lastmile_qr_scan", "ios": "https://dc.lft.to/lastmile_qr_scan"}, "name": "14894dbf2c08ea8c5d8a8972717875aa", "is_reserved": 0}, {"is_disabled": 0, "fusion_lon": 0.0, "fusion_lat": 0.0, "lat": 38.89504783333334, "type": "electric_scooter", "lon": -77.0161255, "bike_id": "3b957b4ccfe9d625113aad85e78ac152", "rental_uris": {"android": "https://dc.lft.to/lastmile_qr_scan", "ios": "https://dc.lft.to/lastmile_qr_scan"}, "name": "3b957b4ccfe9d625113aad85e78ac152", "is_reserved": 0}, {"is_disabled": 0, "fusion_lon": 0.0, "fusion_lat": 0.0, "lat": 38.8990615, "type": "electric_scooter", "lon": -76.93385866666667, "bike_id": "e4cb4d4f1a5be7bd71437307592991d8", "rental_uris": {"android": "https://dc.lft.to/lastmile_qr_scan", "ios": "https://dc.lft.to/lastmile_qr_scan"}, "name": "e4cb4d4f1a5be7bd71437307592991d8", "is_reserved": 0}, {"is_disabled": 0, "fusion_lon": 0.0, "fusion_lat": 0.0, "lat": 38.88400216666667, "type": "electric_bike", "lon": -77.030761, "bike_id": "8600a5c643b63b8bfd05c1ad54f4f483", "rental_uris": {"android": "https://dc.lft.to/lastmile_qr_scan", "ios": "https://dc.lft.to/lastmile_qr_scan"}, "name": "8600a5c643b63b8bfd05c1ad54f4f483", "is_reserved": 0}, {"is_disabled": 0, "fusion_lon": 0.0, "fusion_lat": 0.0, "lat": 38.91379366666666, "type": "electric_scooter", "lon": -77.02969216666666, "bike_id": "4343460fd65a93cfae16f490d3fcec7a", "rental_uris": {"android": "https://dc.lft.to/lastmile_qr_scan", "ios": "https://dc.lft.to/lastmile_qr_scan"}, "name": "4343460fd65a93cfae16f490d3fcec7a", "is_reserved": 0}, {"is_disabled": 0, "fusion_lon": 0.0, "fusion_lat": 0.0, "lat": 38.842917666666665, "type": "electric_scooter", "lon": -76.99946883333334, "bike_id": "b61ab5dd56bc6b50a22fcd0768f22942", "rental_uris": {"android": "https://dc.lft.to/lastmile_qr_scan", "ios": "https://dc.lft.to/lastmile_qr_scan"}, "name": "b61ab5dd56bc6b50a22fcd0768f22942", "is_reserved": 0}, {"is_disabled": 0, "fusion_lon": 0.0, "fusion_lat": 0.0, "lat": 38.9212555, "type": "electric_scooter", "lon": -76.995777, "bike_id": "460302fe9bafca0ce9a9c9a7d8a2c429", "rental_uris": {"android": "https://dc.lft.to/lastmile_qr_scan", "ios": "https://dc.lft.to/lastmile_qr_scan"}, "name": "460302fe9bafca0ce9a9c9a7d8a2c429", "is_reserved": 0}, {"is_disabled": 0, "fusion_lon": 0.0, "fusion_lat": 0.0, "lat": 38.887214, "type": "electric_scooter", "lon": -76.95362916666667, "bike_id": "6c0a6febe026661488bf422f32797543", "rental_uris": {"android": "https://dc.lft.to/lastmile_qr_scan", "ios": "https://dc.lft.to/lastmile_qr_scan"}, "name": "6c0a6febe026661488bf422f32797543", "is_reserved": 0}, {"is_disabled": 0, "fusion_lon": 0.0, "fusion_lat": 0.0, "lat": 38.9073595, "type": "electric_scooter", "lon": -77.034493, "bike_id": "fb06eef85dce741b787014769e54bc42", "rental_uris": {"android": "https://dc.lft.to/lastmile_qr_scan", "ios": "https://dc.lft.to/lastmile_qr_scan"}, "name": "fb06eef85dce741b787014769e54bc42", "is_reserved": 0}, {"is_disabled": 0, "fusion_lon": 0.0, "fusion_lat": 0.0, "lat": 38.96140616666667, "type": "electric_scooter", "lon": -77.028023, "bike_id": "df6e5c38de1ecb92de26d8a094f2903e", "rental_uris": {"android": "https://dc.lft.to/lastmile_qr_scan", "ios": "https://dc.lft.to/lastmile_qr_scan"}, "name": "df6e5c38de1ecb92de26d8a094f2903e", "is_reserved": 0}, {"is_disabled": 0, "fusion_lon": 0.0, "fusion_lat": 0.0, "lat": 38.90399583333333, "type": "electric_scooter", "lon": -77.018485, "bike_id": "9a657381652bcbb167782c52747158fd", "rental_uris": {"android": "https://dc.lft.to/lastmile_qr_scan", "ios": "https://dc.lft.to/lastmile_qr_scan"}, "name": "9a657381652bcbb167782c52747158fd", "is_reserved": 0}, {"is_disabled": 0, "fusion_lon": 0.0, "fusion_lat": 0.0, "lat": 38.9057305, "type": "electric_scooter", "lon": -77.03825633333334, "bike_id": "9a709120b12276c6143ad1a63caaf9b8", "rental_uris": {"android": "https://dc.lft.to/lastmile_qr_scan", "ios": "https://dc.lft.to/lastmile_qr_scan"}, "name": "9a709120b12276c6143ad1a63caaf9b8", "is_reserved": 0}, {"is_disabled": 0, "fusion_lon": 0.0, "fusion_lat": 0.0, "lat": 38.9005675, "type": "electric_scooter", "lon": -76.98680966666667, "bike_id": "7ad5ed48d980e0d9f0bc23dbf6539f79", "rental_uris": {"android": "https://dc.lft.to/lastmile_qr_scan", "ios": "https://dc.lft.to/lastmile_qr_scan"}, "name": "7ad5ed48d980e0d9f0bc23dbf6539f79", "is_reserved": 0}, {"is_disabled": 0, "fusion_lon": 0.0, "fusion_lat": 0.0, "lat": 38.914126, "type": "electric_scooter", "lon": -77.04254566666667, "bike_id": "c6f080bce4e18c280e576ab828514230", "rental_uris": {"android": "https://dc.lft.to/lastmile_qr_scan", "ios": "https://dc.lft.to/lastmile_qr_scan"}, "name": "c6f080bce4e18c280e576ab828514230", "is_reserved": 0}, {"is_disabled": 0, "fusion_lon": 0.0, "fusion_lat": 0.0, "lat": 38.870057333333335, "type": "electric_scooter", "lon": -77.01373583333333, "bike_id": "fd60c1b6176a08dbbc47e02beec8e6b6", "rental_uris": {"android": "https://dc.lft.to/lastmile_qr_scan", "ios": "https://dc.lft.to/lastmile_qr_scan"}, "name": "fd60c1b6176a08dbbc47e02beec8e6b6", "is_reserved": 0}, {"is_disabled": 0, "fusion_lon": 0.0, "fusion_lat": 0.0, "lat": 38.831509833333335, "type": "electric_bike", "lon": -76.99687766666666, "bike_id": "3a567fe6609d502e0be9adfaea7beff0", "rental_uris": {"android": "https://dc.lft.to/lastmile_qr_scan", "ios": "https://dc.lft.to/lastmile_qr_scan"}, "name": "3a567fe6609d502e0be9adfaea7beff0", "is_reserved": 0}, {"is_disabled": 0, "fusion_lon": 0.0, "fusion_lat": 0.0, "lat": 38.94979133333333, "type": "electric_scooter", "lon": -77.0270485, "bike_id": "0fd09156ca08fd6e3d4f49d88dc2d438", "rental_uris": {"android": "https://dc.lft.to/lastmile_qr_scan", "ios": "https://dc.lft.to/lastmile_qr_scan"}, "name": "0fd09156ca08fd6e3d4f49d88dc2d438", "is_reserved": 0}, {"is_disabled": 0, "fusion_lon": 0.0, "fusion_lat": 0.0, "lat": 38.90952883333333, "type": "electric_scooter", "lon": -77.02884983333334, "bike_id": "81296a39b90f3ffb051d341d4efb6989", "rental_uris": {"android": "https://dc.lft.to/lastmile_qr_scan", "ios": "https://dc.lft.to/lastmile_qr_scan"}, "name": "81296a39b90f3ffb051d341d4efb6989", "is_reserved": 0}, {"is_disabled": 0, "fusion_lon": 0.0, "fusion_lat": 0.0, "lat": 38.898523833333336, "type": "electric_scooter", "lon": -77.02233383333333, "bike_id": "f7a6ceb3892e01868a31d27b4a75147c", "rental_uris": {"android": "https://dc.lft.to/lastmile_qr_scan", "ios": "https://dc.lft.to/lastmile_qr_scan"}, "name": "f7a6ceb3892e01868a31d27b4a75147c", "is_reserved": 0}, {"is_disabled": 0, "fusion_lon": 0.0, "fusion_lat": 0.0, "lat": 38.897917166666666, "type": "electric_scooter", "lon": -76.93054466666666, "bike_id": "195615bc9dde70eae6a0dac5ee0801fe", "rental_uris": {"android": "https://dc.lft.to/lastmile_qr_scan", "ios": "https://dc.lft.to/lastmile_qr_scan"}, "name": "195615bc9dde70eae6a0dac5ee0801fe", "is_reserved": 0}, {"is_disabled": 0, "fusion_lon": 0.0, "fusion_lat": 0.0, "lat": 38.90558883333333, "type": "electric_scooter", "lon": -77.02789116666666, "bike_id": "24ad0a486b8b21ab073eedd33349001c", "rental_uris": {"android": "https://dc.lft.to/lastmile_qr_scan", "ios": "https://dc.lft.to/lastmile_qr_scan"}, "name": "24ad0a486b8b21ab073eedd33349001c", "is_reserved": 0}, {"is_disabled": 0, "fusion_lon": 0.0, "fusion_lat": 0.0, "lat": 38.935398, "type": "electric_scooter", "lon": -77.05768266666666, "bike_id": "03caea03df788b20617aab64622b139b", "rental_uris": {"android": "https://dc.lft.to/lastmile_qr_scan", "ios": "https://dc.lft.to/lastmile_qr_scan"}, "name": "03caea03df788b20617aab64622b139b", "is_reserved": 0}, {"is_disabled": 0, "fusion_lon": 0.0, "fusion_lat": 0.0, "lat": 38.9424945, "type": "electric_scooter", "lon": -77.0216545, "bike_id": "e1fbb64cfd0d72872ed0fb334c7d8c1c", "rental_uris": {"android": "https://dc.lft.to/lastmile_qr_scan", "ios": "https://dc.lft.to/lastmile_qr_scan"}, "name": "e1fbb64cfd0d72872ed0fb334c7d8c1c", "is_reserved": 0}, {"is_disabled": 0, "fusion_lon": 0.0, "fusion_lat": 0.0, "lat": 38.867303, "type": "electric_scooter", "lon": -76.98849133333333, "bike_id": "891b77e6f157e2dd00286b706f2cb078", "rental_uris": {"android": "https://dc.lft.to/lastmile_qr_scan", "ios": "https://dc.lft.to/lastmile_qr_scan"}, "name": "891b77e6f157e2dd00286b706f2cb078", "is_reserved": 0}, {"is_disabled": 0, "fusion_lon": 0.0, "fusion_lat": 0.0, "lat": 38.857158, "type": "electric_bike", "lon": -76.9811275, "bike_id": "bb9098a64f9d2145a916fd659882f1f5", "rental_uris": {"android": "https://dc.lft.to/lastmile_qr_scan", "ios": "https://dc.lft.to/lastmile_qr_scan"}, "name": "bb9098a64f9d2145a916fd659882f1f5", "is_reserved": 0}, {"is_disabled": 0, "fusion_lon": 0.0, "fusion_lat": 0.0, "lat": 38.930474, "type": "electric_scooter", "lon": -77.0041525, "bike_id": "f5bc7e67461bdcc579cd80d0dc6b620a", "rental_uris": {"android": "https://dc.lft.to/lastmile_qr_scan", "ios": "https://dc.lft.to/lastmile_qr_scan"}, "name": "f5bc7e67461bdcc579cd80d0dc6b620a", "is_reserved": 0}, {"is_disabled": 0, "fusion_lon": 0.0, "fusion_lat": 0.0, "lat": 38.83119833333333, "type": "electric_bike", "lon": -77.04326183333333, "bike_id": "d42565229c766f6bff989ee2f9d6fc8a", "rental_uris": {"android": "https://dc.lft.to/lastmile_qr_scan", "ios": "https://dc.lft.to/lastmile_qr_scan"}, "name": "d42565229c766f6bff989ee2f9d6fc8a", "is_reserved": 0}, {"is_disabled": 0, "fusion_lon": 0.0, "fusion_lat": 0.0, "lat": 38.93877416666667, "type": "electric_scooter", "lon": -77.03327233333333, "bike_id": "c99e9ab4c63f7e4359a1e50fd173225d", "rental_uris": {"android": "https://dc.lft.to/lastmile_qr_scan", "ios": "https://dc.lft.to/lastmile_qr_scan"}, "name": "c99e9ab4c63f7e4359a1e50fd173225d", "is_reserved": 0}, {"is_disabled": 0, "fusion_lon": 0.0, "fusion_lat": 0.0, "lat": 38.92102283333333, "type": "electric_scooter", "lon": -77.031275, "bike_id": "8a00fee0de2b8d60e012898e22f5d7ee", "rental_uris": {"android": "https://dc.lft.to/lastmile_qr_scan", "ios": "https://dc.lft.to/lastmile_qr_scan"}, "name": "8a00fee0de2b8d60e012898e22f5d7ee", "is_reserved": 0}, {"is_disabled": 0, "fusion_lon": 0.0, "fusion_lat": 0.0, "lat": 39.11507316666667, "type": "electric_bike", "lon": -77.19542116666666, "bike_id": "41b0724e9b32587ef3968599559460f5", "rental_uris": {"android": "https://dc.lft.to/lastmile_qr_scan", "ios": "https://dc.lft.to/lastmile_qr_scan"}, "name": "41b0724e9b32587ef3968599559460f5", "is_reserved": 0}, {"is_disabled": 0, "fusion_lon": 0.0, "fusion_lat": 0.0, "lat": 38.94303283333333, "type": "electric_scooter", "lon": -77.02348516666666, "bike_id": "1caa9025c5d3466a245677ee4d5e6664", "rental_uris": {"android": "https://dc.lft.to/lastmile_qr_scan", "ios": "https://dc.lft.to/lastmile_qr_scan"}, "name": "1caa9025c5d3466a245677ee4d5e6664", "is_reserved": 0}, {"is_disabled": 0, "fusion_lon": 0.0, "fusion_lat": 0.0, "lat": 38.99256183333333, "type": "electric_bike", "lon": -77.04995783333334, "bike_id": "e9c5c5d296ebabb12ff42a4b44c5f639", "rental_uris": {"android": "https://dc.lft.to/lastmile_qr_scan", "ios": "https://dc.lft.to/lastmile_qr_scan"}, "name": "e9c5c5d296ebabb12ff42a4b44c5f639", "is_reserved": 0}, {"is_disabled": 0, "fusion_lon": 0.0, "fusion_lat": 0.0, "lat": 38.838105666666664, "type": "electric_scooter", "lon": -77.00434033333333, "bike_id": "e8da46d45aa8135c5f62c2335b9e1b58", "rental_uris": {"android": "https://dc.lft.to/lastmile_qr_scan", "ios": "https://dc.lft.to/lastmile_qr_scan"}, "name": "e8da46d45aa8135c5f62c2335b9e1b58", "is_reserved": 0}, {"is_disabled": 0, "fusion_lon": 0.0, "fusion_lat": 0.0, "lat": 38.99080266666667, "type": "electric_bike", "lon": -77.00177516666666, "bike_id": "1f7e600d257baa9ad724972722a46a93", "rental_uris": {"android": "https://dc.lft.to/lastmile_qr_scan", "ios": "https://dc.lft.to/lastmile_qr_scan"}, "name": "1f7e600d257baa9ad724972722a46a93", "is_reserved": 0}, {"is_disabled": 0, "fusion_lon": 0.0, "fusion_lat": 0.0, "lat": 38.898941666666666, "type": "electric_scooter", "lon": -77.00908216666667, "bike_id": "90eebe55e64d60ac651232e85255cdef", "rental_uris": {"android": "https://dc.lft.to/lastmile_qr_scan", "ios": "https://dc.lft.to/lastmile_qr_scan"}, "name": "90eebe55e64d60ac651232e85255cdef", "is_reserved": 0}, {"is_disabled": 0, "fusion_lon": 0.0, "fusion_lat": 0.0, "lat": 38.92091583333333, "type": "electric_scooter", "lon": -77.02590983333333, "bike_id": "4cec9c4a5074b544aebeee63d63dc0b2", "rental_uris": {"android": "https://dc.lft.to/lastmile_qr_scan", "ios": "https://dc.lft.to/lastmile_qr_scan"}, "name": "4cec9c4a5074b544aebeee63d63dc0b2", "is_reserved": 0}, {"is_disabled": 0, "fusion_lon": 0.0, "fusion_lat": 0.0, "lat": 38.88448533333333, "type": "electric_scooter", "lon": -76.95097266666667, "bike_id": "a2de61baeb9265ce1642348fef6ca54f", "rental_uris": {"android": "https://dc.lft.to/lastmile_qr_scan", "ios": "https://dc.lft.to/lastmile_qr_scan"}, "name": "a2de61baeb9265ce1642348fef6ca54f", "is_reserved": 0}, {"is_disabled": 0, "fusion_lon": 0.0, "fusion_lat": 0.0, "lat": 38.9094675, "type": "electric_scooter", "lon": -77.0270025, "bike_id": "7e5f84b9af9c0fecc4f9dcbbefaa640b", "rental_uris": {"android": "https://dc.lft.to/lastmile_qr_scan", "ios": "https://dc.lft.to/lastmile_qr_scan"}, "name": "7e5f84b9af9c0fecc4f9dcbbefaa640b", "is_reserved": 0}, {"is_disabled": 0, "fusion_lon": 0.0, "fusion_lat": 0.0, "lat": 38.934123166666666, "type": "electric_scooter", "lon": -77.04262016666667, "bike_id": "bfda86dc8ca1a787a5441da596a97016", "rental_uris": {"android": "https://dc.lft.to/lastmile_qr_scan", "ios": "https://dc.lft.to/lastmile_qr_scan"}, "name": "bfda86dc8ca1a787a5441da596a97016", "is_reserved": 0}, {"is_disabled": 0, "fusion_lon": 0.0, "fusion_lat": 0.0, "lat": 38.91558283333333, "type": "electric_scooter", "lon": -77.03076366666667, "bike_id": "06d6f5ed5601dd4cc6f00912df67cfe7", "rental_uris": {"android": "https://dc.lft.to/lastmile_qr_scan", "ios": "https://dc.lft.to/lastmile_qr_scan"}, "name": "06d6f5ed5601dd4cc6f00912df67cfe7", "is_reserved": 0}, {"is_disabled": 0, "fusion_lon": 0.0, "fusion_lat": 0.0, "lat": 38.897953, "type": "electric_scooter", "lon": -77.04752733333333, "bike_id": "4769c9466146485cdae3ecbf7375983f", "rental_uris": {"android": "https://dc.lft.to/lastmile_qr_scan", "ios": "https://dc.lft.to/lastmile_qr_scan"}, "name": "4769c9466146485cdae3ecbf7375983f", "is_reserved": 0}, {"is_disabled": 0, "fusion_lon": 0.0, "fusion_lat": 0.0, "lat": 38.90318, "type": "electric_scooter", "lon": -77.02136683333333, "bike_id": "1d875efc011bebce4523676c804a450a", "rental_uris": {"android": "https://dc.lft.to/lastmile_qr_scan", "ios": "https://dc.lft.to/lastmile_qr_scan"}, "name": "1d875efc011bebce4523676c804a450a", "is_reserved": 0}, {"is_disabled": 0, "fusion_lon": 0.0, "fusion_lat": 0.0, "lat": 38.84429733333333, "type": "electric_scooter", "lon": -76.9981195, "bike_id": "6c680444c73287beecb6f4b99bf9b452", "rental_uris": {"android": "https://dc.lft.to/lastmile_qr_scan", "ios": "https://dc.lft.to/lastmile_qr_scan"}, "name": "6c680444c73287beecb6f4b99bf9b452", "is_reserved": 0}, {"is_disabled": 0, "fusion_lon": 0.0, "fusion_lat": 0.0, "lat": 38.91173116666667, "type": "electric_scooter", "lon": -77.010789, "bike_id": "7a27295a3c499f65b16fa0d36cba44ab", "rental_uris": {"android": "https://dc.lft.to/lastmile_qr_scan", "ios": "https://dc.lft.to/lastmile_qr_scan"}, "name": "7a27295a3c499f65b16fa0d36cba44ab", "is_reserved": 0}, {"is_disabled": 0, "fusion_lon": 0.0, "fusion_lat": 0.0, "lat": 38.907694, "type": "electric_scooter", "lon": -77.00101983333333, "bike_id": "90c566fdf16da5977fc2ff9136087eaf", "rental_uris": {"android": "https://dc.lft.to/lastmile_qr_scan", "ios": "https://dc.lft.to/lastmile_qr_scan"}, "name": "90c566fdf16da5977fc2ff9136087eaf", "is_reserved": 0}, {"is_disabled": 0, "fusion_lon": 0.0, "fusion_lat": 0.0, "lat": 38.894050666666665, "type": "electric_scooter", "lon": -77.02153516666667, "bike_id": "995997e5825b0066aa994f5f9e11010d", "rental_uris": {"android": "https://dc.lft.to/lastmile_qr_scan", "ios": "https://dc.lft.to/lastmile_qr_scan"}, "name": "995997e5825b0066aa994f5f9e11010d", "is_reserved": 0}, {"is_disabled": 0, "fusion_lon": 0.0, "fusion_lat": 0.0, "lat": 38.9236655, "type": "electric_scooter", "lon": -77.05029933333333, "bike_id": "71dc07557e60349535d5b334e78c90c7", "rental_uris": {"android": "https://dc.lft.to/lastmile_qr_scan", "ios": "https://dc.lft.to/lastmile_qr_scan"}, "name": "71dc07557e60349535d5b334e78c90c7", "is_reserved": 0}, {"is_disabled": 0, "fusion_lon": 0.0, "fusion_lat": 0.0, "lat": 38.90287283333333, "type": "electric_scooter", "lon": -77.02416183333334, "bike_id": "e2077b1f4315997c752628f60df83363", "rental_uris": {"android": "https://dc.lft.to/lastmile_qr_scan", "ios": "https://dc.lft.to/lastmile_qr_scan"}, "name": "e2077b1f4315997c752628f60df83363", "is_reserved": 0}, {"is_disabled": 0, "fusion_lon": 0.0, "fusion_lat": 0.0, "lat": 38.903793, "type": "electric_bike", "lon": -77.05379283333333, "bike_id": "9584d212fe2e9140aa5e3f5b4f2a1495", "rental_uris": {"android": "https://dc.lft.to/lastmile_qr_scan", "ios": "https://dc.lft.to/lastmile_qr_scan"}, "name": "9584d212fe2e9140aa5e3f5b4f2a1495", "is_reserved": 0}, {"is_disabled": 0, "fusion_lon": 0.0, "fusion_lat": 0.0, "lat": 38.99643533333333, "type": "electric_bike", "lon": -77.04010233333334, "bike_id": "e1bd11165721423b971000c02e0e6735", "rental_uris": {"android": "https://dc.lft.to/lastmile_qr_scan", "ios": "https://dc.lft.to/lastmile_qr_scan"}, "name": "e1bd11165721423b971000c02e0e6735", "is_reserved": 0}, {"is_disabled": 0, "fusion_lon": 0.0, "fusion_lat": 0.0, "lat": 38.923061833333335, "type": "electric_scooter", "lon": -77.03105533333333, "bike_id": "6630f2c199037cf137ae4a3f6b957eb0", "rental_uris": {"android": "https://dc.lft.to/lastmile_qr_scan", "ios": "https://dc.lft.to/lastmile_qr_scan"}, "name": "6630f2c199037cf137ae4a3f6b957eb0", "is_reserved": 0}, {"is_disabled": 0, "fusion_lon": 0.0, "fusion_lat": 0.0, "lat": 38.92268033333333, "type": "electric_scooter", "lon": -77.02974416666666, "bike_id": "e92dfd55d7897dee5f54e20e206d06ab", "rental_uris": {"android": "https://dc.lft.to/lastmile_qr_scan", "ios": "https://dc.lft.to/lastmile_qr_scan"}, "name": "e92dfd55d7897dee5f54e20e206d06ab", "is_reserved": 0}, {"is_disabled": 0, "fusion_lon": 0.0, "fusion_lat": 0.0, "lat": 38.94445116666667, "type": "electric_scooter", "lon": -77.06165966666667, "bike_id": "3b193ebd37df318724eed6665a00134a", "rental_uris": {"android": "https://dc.lft.to/lastmile_qr_scan", "ios": "https://dc.lft.to/lastmile_qr_scan"}, "name": "3b193ebd37df318724eed6665a00134a", "is_reserved": 0}, {"is_disabled": 0, "fusion_lon": 0.0, "fusion_lat": 0.0, "lat": 38.90313283333333, "type": "electric_scooter", "lon": -77.02891266666667, "bike_id": "2c6507aab8c818378ef0cef7e2d374e9", "rental_uris": {"android": "https://dc.lft.to/lastmile_qr_scan", "ios": "https://dc.lft.to/lastmile_qr_scan"}, "name": "2c6507aab8c818378ef0cef7e2d374e9", "is_reserved": 0}, {"is_disabled": 0, "fusion_lon": 0.0, "fusion_lat": 0.0, "lat": 38.9044735, "type": "electric_scooter", "lon": -77.06118033333334, "bike_id": "0cd830169d996d1669a4292516b034bd", "rental_uris": {"android": "https://dc.lft.to/lastmile_qr_scan", "ios": "https://dc.lft.to/lastmile_qr_scan"}, "name": "0cd830169d996d1669a4292516b034bd", "is_reserved": 0}, {"is_disabled": 0, "fusion_lon": 0.0, "fusion_lat": 0.0, "lat": 38.901426666666666, "type": "electric_scooter", "lon": -77.05923466666667, "bike_id": "64426e9d134ada98d0770eee3bdb5600", "rental_uris": {"android": "https://dc.lft.to/lastmile_qr_scan", "ios": "https://dc.lft.to/lastmile_qr_scan"}, "name": "64426e9d134ada98d0770eee3bdb5600", "is_reserved": 0}, {"is_disabled": 0, "fusion_lon": 0.0, "fusion_lat": 0.0, "lat": 38.96558916666667, "type": "electric_bike", "lon": -77.02299066666667, "bike_id": "5c67c1da6a7881ea0bb952d025d14e75", "rental_uris": {"android": "https://dc.lft.to/lastmile_qr_scan", "ios": "https://dc.lft.to/lastmile_qr_scan"}, "name": "5c67c1da6a7881ea0bb952d025d14e75", "is_reserved": 0}, {"is_disabled": 0, "fusion_lon": 0.0, "fusion_lat": 0.0, "lat": 38.94200516666667, "type": "electric_scooter", "lon": -77.02577533333333, "bike_id": "7247ee10c848cbfec85248a7e955a929", "rental_uris": {"android": "https://dc.lft.to/lastmile_qr_scan", "ios": "https://dc.lft.to/lastmile_qr_scan"}, "name": "7247ee10c848cbfec85248a7e955a929", "is_reserved": 0}, {"is_disabled": 0, "fusion_lon": 0.0, "fusion_lat": 0.0, "lat": 38.84425233333333, "type": "electric_scooter", "lon": -76.99779116666667, "bike_id": "6f4c4c463fc762d2aa668a4c58016f3f", "rental_uris": {"android": "https://dc.lft.to/lastmile_qr_scan", "ios": "https://dc.lft.to/lastmile_qr_scan"}, "name": "6f4c4c463fc762d2aa668a4c58016f3f", "is_reserved": 0}, {"is_disabled": 0, "fusion_lon": 0.0, "fusion_lat": 0.0, "lat": 38.881197666666665, "type": "electric_scooter", "lon": -77.00094333333334, "bike_id": "218765a95ab3ca393a0353fb0496039e", "rental_uris": {"android": "https://dc.lft.to/lastmile_qr_scan", "ios": "https://dc.lft.to/lastmile_qr_scan"}, "name": "218765a95ab3ca393a0353fb0496039e", "is_reserved": 0}, {"is_disabled": 0, "fusion_lon": 0.0, "fusion_lat": 0.0, "lat": 38.89684316666666, "type": "electric_scooter", "lon": -77.00495633333334, "bike_id": "4ef9501890526f10e272de463fbfbee1", "rental_uris": {"android": "https://dc.lft.to/lastmile_qr_scan", "ios": "https://dc.lft.to/lastmile_qr_scan"}, "name": "4ef9501890526f10e272de463fbfbee1", "is_reserved": 0}, {"is_disabled": 0, "fusion_lon": 0.0, "fusion_lat": 0.0, "lat": 38.89504766666667, "type": "electric_scooter", "lon": -76.948786, "bike_id": "338399c2de9a4532a6a2826632d7649b", "rental_uris": {"android": "https://dc.lft.to/lastmile_qr_scan", "ios": "https://dc.lft.to/lastmile_qr_scan"}, "name": "338399c2de9a4532a6a2826632d7649b", "is_reserved": 0}, {"is_disabled": 0, "fusion_lon": 0.0, "fusion_lat": 0.0, "lat": 38.9131935, "type": "electric_scooter", "lon": -77.03194233333333, "bike_id": "8166289054e4637228cb58d3e4f8ede6", "rental_uris": {"android": "https://dc.lft.to/lastmile_qr_scan", "ios": "https://dc.lft.to/lastmile_qr_scan"}, "name": "8166289054e4637228cb58d3e4f8ede6", "is_reserved": 0}, {"is_disabled": 0, "fusion_lon": 0.0, "fusion_lat": 0.0, "lat": 38.94605266666667, "type": "electric_scooter", "lon": -77.029755, "bike_id": "9a4e35d10f8ae8b6023c7ba52c06616b", "rental_uris": {"android": "https://dc.lft.to/lastmile_qr_scan", "ios": "https://dc.lft.to/lastmile_qr_scan"}, "name": "9a4e35d10f8ae8b6023c7ba52c06616b", "is_reserved": 0}, {"is_disabled": 0, "fusion_lon": 0.0, "fusion_lat": 0.0, "lat": 38.927882833333335, "type": "electric_scooter", "lon": -77.03164433333333, "bike_id": "b6c6faee4547b804792e174e753fe62e", "rental_uris": {"android": "https://dc.lft.to/lastmile_qr_scan", "ios": "https://dc.lft.to/lastmile_qr_scan"}, "name": "b6c6faee4547b804792e174e753fe62e", "is_reserved": 0}, {"is_disabled": 0, "fusion_lon": 0.0, "fusion_lat": 0.0, "lat": 38.87923966666666, "type": "electric_scooter", "lon": -77.00723766666667, "bike_id": "a7b647bd110db93f84bb336697887e4c", "rental_uris": {"android": "https://dc.lft.to/lastmile_qr_scan", "ios": "https://dc.lft.to/lastmile_qr_scan"}, "name": "a7b647bd110db93f84bb336697887e4c", "is_reserved": 0}, {"is_disabled": 0, "fusion_lon": 0.0, "fusion_lat": 0.0, "lat": 38.91305966666667, "type": "electric_scooter", "lon": -77.00848416666666, "bike_id": "5bcdde37550c5aa21ef284a40e0307b2", "rental_uris": {"android": "https://dc.lft.to/lastmile_qr_scan", "ios": "https://dc.lft.to/lastmile_qr_scan"}, "name": "5bcdde37550c5aa21ef284a40e0307b2", "is_reserved": 0}, {"is_disabled": 0, "fusion_lon": 0.0, "fusion_lat": 0.0, "lat": 38.91270683333333, "type": "electric_scooter", "lon": -77.03365516666666, "bike_id": "a673d541d2e265b2500fd5adfcd0068a", "rental_uris": {"android": "https://dc.lft.to/lastmile_qr_scan", "ios": "https://dc.lft.to/lastmile_qr_scan"}, "name": "a673d541d2e265b2500fd5adfcd0068a", "is_reserved": 0}, {"is_disabled": 0, "fusion_lon": 0.0, "fusion_lat": 0.0, "lat": 38.989864833333336, "type": "electric_scooter", "lon": -77.03359116666667, "bike_id": "46258ad7394b2935e502832f6c3b803f", "rental_uris": {"android": "https://dc.lft.to/lastmile_qr_scan", "ios": "https://dc.lft.to/lastmile_qr_scan"}, "name": "46258ad7394b2935e502832f6c3b803f", "is_reserved": 0}, {"is_disabled": 0, "fusion_lon": 0.0, "fusion_lat": 0.0, "lat": 38.9296615, "type": "electric_scooter", "lon": -77.04201916666666, "bike_id": "f863eaf6699e2918bd1f24444bfa7bb4", "rental_uris": {"android": "https://dc.lft.to/lastmile_qr_scan", "ios": "https://dc.lft.to/lastmile_qr_scan"}, "name": "f863eaf6699e2918bd1f24444bfa7bb4", "is_reserved": 0}, {"is_disabled": 0, "fusion_lon": 0.0, "fusion_lat": 0.0, "lat": 38.9247455, "type": "electric_scooter", "lon": -77.072983, "bike_id": "27662519b2510a967a9b9c79e627a309", "rental_uris": {"android": "https://dc.lft.to/lastmile_qr_scan", "ios": "https://dc.lft.to/lastmile_qr_scan"}, "name": "27662519b2510a967a9b9c79e627a309", "is_reserved": 0}, {"is_disabled": 0, "fusion_lon": 0.0, "fusion_lat": 0.0, "lat": 38.924826833333334, "type": "electric_scooter", "lon": -77.0318, "bike_id": "6bfe07fd734a4f9753d491908f743912", "rental_uris": {"android": "https://dc.lft.to/lastmile_qr_scan", "ios": "https://dc.lft.to/lastmile_qr_scan"}, "name": "6bfe07fd734a4f9753d491908f743912", "is_reserved": 0}, {"is_disabled": 0, "fusion_lon": 0.0, "fusion_lat": 0.0, "lat": 38.877557333333336, "type": "electric_bike", "lon": -76.97995666666667, "bike_id": "065d3aff86d647e45b9da96fa52a0712", "rental_uris": {"android": "https://dc.lft.to/lastmile_qr_scan", "ios": "https://dc.lft.to/lastmile_qr_scan"}, "name": "065d3aff86d647e45b9da96fa52a0712", "is_reserved": 0}, {"is_disabled": 0, "fusion_lon": 0.0, "fusion_lat": 0.0, "lat": 38.9035355, "type": "electric_scooter", "lon": -77.05905916666667, "bike_id": "722b2de9310928be9c43a5eb314ccd31", "rental_uris": {"android": "https://dc.lft.to/lastmile_qr_scan", "ios": "https://dc.lft.to/lastmile_qr_scan"}, "name": "722b2de9310928be9c43a5eb314ccd31", "is_reserved": 0}, {"is_disabled": 0, "fusion_lon": 0.0, "fusion_lat": 0.0, "lat": 38.93482016666667, "type": "electric_scooter", "lon": -77.07265016666666, "bike_id": "df57b301485099b211ae10a779c66bfc", "rental_uris": {"android": "https://dc.lft.to/lastmile_qr_scan", "ios": "https://dc.lft.to/lastmile_qr_scan"}, "name": "df57b301485099b211ae10a779c66bfc", "is_reserved": 0}, {"is_disabled": 0, "fusion_lon": 0.0, "fusion_lat": 0.0, "lat": 38.919778, "type": "electric_scooter", "lon": -77.0413085, "bike_id": "19246426fe89a006d7ed9e9a09e8e9a0", "rental_uris": {"android": "https://dc.lft.to/lastmile_qr_scan", "ios": "https://dc.lft.to/lastmile_qr_scan"}, "name": "19246426fe89a006d7ed9e9a09e8e9a0", "is_reserved": 0}, {"is_disabled": 0, "fusion_lon": 0.0, "fusion_lat": 0.0, "lat": 38.93968783333333, "type": "electric_bike", "lon": -77.36094116666666, "bike_id": "0e5f953b6383a088f41b4249e27be1d2", "rental_uris": {"android": "https://dc.lft.to/lastmile_qr_scan", "ios": "https://dc.lft.to/lastmile_qr_scan"}, "name": "0e5f953b6383a088f41b4249e27be1d2", "is_reserved": 0}, {"is_disabled": 0, "fusion_lon": 0.0, "fusion_lat": 0.0, "lat": 38.92282633333333, "type": "electric_scooter", "lon": -77.04468283333334, "bike_id": "d780d8d018ac6e2c2055619ac4ec0762", "rental_uris": {"android": "https://dc.lft.to/lastmile_qr_scan", "ios": "https://dc.lft.to/lastmile_qr_scan"}, "name": "d780d8d018ac6e2c2055619ac4ec0762", "is_reserved": 0}, {"is_disabled": 0, "fusion_lon": 0.0, "fusion_lat": 0.0, "lat": 38.925589333333335, "type": "electric_scooter", "lon": -77.03769183333333, "bike_id": "54e752353baf274dcd90211b00434d40", "rental_uris": {"android": "https://dc.lft.to/lastmile_qr_scan", "ios": "https://dc.lft.to/lastmile_qr_scan"}, "name": "54e752353baf274dcd90211b00434d40", "is_reserved": 0}, {"is_disabled": 0, "fusion_lon": 0.0, "fusion_lat": 0.0, "lat": 38.895280666666665, "type": "electric_scooter", "lon": -77.04845816666666, "bike_id": "44ef8c229810860187035439d47a286b", "rental_uris": {"android": "https://dc.lft.to/lastmile_qr_scan", "ios": "https://dc.lft.to/lastmile_qr_scan"}, "name": "44ef8c229810860187035439d47a286b", "is_reserved": 0}, {"is_disabled": 0, "fusion_lon": 0.0, "fusion_lat": 0.0, "lat": 38.92612283333333, "type": "electric_scooter", "lon": -77.02159666666667, "bike_id": "fd662aed9987a0474d54ad6da9fd8973", "rental_uris": {"android": "https://dc.lft.to/lastmile_qr_scan", "ios": "https://dc.lft.to/lastmile_qr_scan"}, "name": "fd662aed9987a0474d54ad6da9fd8973", "is_reserved": 0}, {"is_disabled": 0, "fusion_lon": 0.0, "fusion_lat": 0.0, "lat": 38.875844666666666, "type": "electric_scooter", "lon": -77.00418166666667, "bike_id": "238b25ff66d213c2be78de7a7abcf072", "rental_uris": {"android": "https://dc.lft.to/lastmile_qr_scan", "ios": "https://dc.lft.to/lastmile_qr_scan"}, "name": "238b25ff66d213c2be78de7a7abcf072", "is_reserved": 0}, {"is_disabled": 0, "fusion_lon": 0.0, "fusion_lat": 0.0, "lat": 38.90385283333333, "type": "electric_scooter", "lon": -77.01799083333333, "bike_id": "2abb3424f57226d6742543543e17a221", "rental_uris": {"android": "https://dc.lft.to/lastmile_qr_scan", "ios": "https://dc.lft.to/lastmile_qr_scan"}, "name": "2abb3424f57226d6742543543e17a221", "is_reserved": 0}, {"is_disabled": 0, "fusion_lon": 0.0, "fusion_lat": 0.0, "lat": 38.918294833333334, "type": "electric_scooter", "lon": -77.02422883333334, "bike_id": "f5f6afce4d2f53070cd0ccb568dd2fe2", "rental_uris": {"android": "https://dc.lft.to/lastmile_qr_scan", "ios": "https://dc.lft.to/lastmile_qr_scan"}, "name": "f5f6afce4d2f53070cd0ccb568dd2fe2", "is_reserved": 0}, {"is_disabled": 0, "fusion_lon": 0.0, "fusion_lat": 0.0, "lat": 38.914103, "type": "electric_scooter", "lon": -77.00803033333334, "bike_id": "a339680e9dcb645dfa7840cc3c54492c", "rental_uris": {"android": "https://dc.lft.to/lastmile_qr_scan", "ios": "https://dc.lft.to/lastmile_qr_scan"}, "name": "a339680e9dcb645dfa7840cc3c54492c", "is_reserved": 0}, {"is_disabled": 0, "fusion_lon": 0.0, "fusion_lat": 0.0, "lat": 38.90410283333333, "type": "electric_scooter", "lon": -77.05339833333333, "bike_id": "e74cc6cdc5ea8ba45265f773e86b91ff", "rental_uris": {"android": "https://dc.lft.to/lastmile_qr_scan", "ios": "https://dc.lft.to/lastmile_qr_scan"}, "name": "e74cc6cdc5ea8ba45265f773e86b91ff", "is_reserved": 0}, {"is_disabled": 0, "fusion_lon": 0.0, "fusion_lat": 0.0, "lat": 38.910186, "type": "electric_scooter", "lon": -77.04403333333333, "bike_id": "a27662c285dcd7fa2a995c06d0766fdf", "rental_uris": {"android": "https://dc.lft.to/lastmile_qr_scan", "ios": "https://dc.lft.to/lastmile_qr_scan"}, "name": "a27662c285dcd7fa2a995c06d0766fdf", "is_reserved": 0}, {"is_disabled": 0, "fusion_lon": 0.0, "fusion_lat": 0.0, "lat": 38.93067283333333, "type": "electric_scooter", "lon": -77.0340455, "bike_id": "a50ed4af0267ab949a453661c1f995fc", "rental_uris": {"android": "https://dc.lft.to/lastmile_qr_scan", "ios": "https://dc.lft.to/lastmile_qr_scan"}, "name": "a50ed4af0267ab949a453661c1f995fc", "is_reserved": 0}, {"is_disabled": 0, "fusion_lon": 0.0, "fusion_lat": 0.0, "lat": 38.8926315, "type": "electric_bike", "lon": -76.99704166666666, "bike_id": "0b488af7b8f36266a1545bd4d1f1deaf", "rental_uris": {"android": "https://dc.lft.to/lastmile_qr_scan", "ios": "https://dc.lft.to/lastmile_qr_scan"}, "name": "0b488af7b8f36266a1545bd4d1f1deaf", "is_reserved": 0}, {"is_disabled": 0, "fusion_lon": 0.0, "fusion_lat": 0.0, "lat": 38.88421866666667, "type": "electric_scooter", "lon": -76.95411733333333, "bike_id": "b3f3cc8219619405db0654046cf3a908", "rental_uris": {"android": "https://dc.lft.to/lastmile_qr_scan", "ios": "https://dc.lft.to/lastmile_qr_scan"}, "name": "b3f3cc8219619405db0654046cf3a908", "is_reserved": 0}, {"is_disabled": 0, "fusion_lon": 0.0, "fusion_lat": 0.0, "lat": 39.08845183333333, "type": "electric_bike", "lon": -77.17805033333333, "bike_id": "e793105337fb6ea5c8255307e32e18fd", "rental_uris": {"android": "https://dc.lft.to/lastmile_qr_scan", "ios": "https://dc.lft.to/lastmile_qr_scan"}, "name": "e793105337fb6ea5c8255307e32e18fd", "is_reserved": 0}, {"is_disabled": 0, "fusion_lon": 0.0, "fusion_lat": 0.0, "lat": 38.88732783333333, "type": "electric_scooter", "lon": -77.0320575, "bike_id": "aed4e00eb43d8631ce54be916e1e8969", "rental_uris": {"android": "https://dc.lft.to/lastmile_qr_scan", "ios": "https://dc.lft.to/lastmile_qr_scan"}, "name": "aed4e00eb43d8631ce54be916e1e8969", "is_reserved": 0}, {"is_disabled": 0, "fusion_lon": 0.0, "fusion_lat": 0.0, "lat": 38.876582666666664, "type": "electric_scooter", "lon": -77.00904933333334, "bike_id": "80120f89d7ccbd2c0814741289001201", "rental_uris": {"android": "https://dc.lft.to/lastmile_qr_scan", "ios": "https://dc.lft.to/lastmile_qr_scan"}, "name": "80120f89d7ccbd2c0814741289001201", "is_reserved": 0}, {"is_disabled": 0, "fusion_lon": 0.0, "fusion_lat": 0.0, "lat": 38.9309905, "type": "electric_scooter", "lon": -77.0726945, "bike_id": "bbbdd196279aaa6dfc9bf4d69ca77612", "rental_uris": {"android": "https://dc.lft.to/lastmile_qr_scan", "ios": "https://dc.lft.to/lastmile_qr_scan"}, "name": "bbbdd196279aaa6dfc9bf4d69ca77612", "is_reserved": 0}, {"is_disabled": 0, "fusion_lon": 0.0, "fusion_lat": 0.0, "lat": 38.900085833333335, "type": "electric_scooter", "lon": -76.99588916666667, "bike_id": "85551b833f3dd1de0304cf6c105bb32b", "rental_uris": {"android": "https://dc.lft.to/lastmile_qr_scan", "ios": "https://dc.lft.to/lastmile_qr_scan"}, "name": "85551b833f3dd1de0304cf6c105bb32b", "is_reserved": 0}, {"is_disabled": 0, "fusion_lon": 0.0, "fusion_lat": 0.0, "lat": 38.9149155, "type": "electric_scooter", "lon": -77.03454016666667, "bike_id": "02af3a8f7d8b663c70593eb16d0fc979", "rental_uris": {"android": "https://dc.lft.to/lastmile_qr_scan", "ios": "https://dc.lft.to/lastmile_qr_scan"}, "name": "02af3a8f7d8b663c70593eb16d0fc979", "is_reserved": 0}, {"is_disabled": 0, "fusion_lon": 0.0, "fusion_lat": 0.0, "lat": 38.90325933333333, "type": "electric_scooter", "lon": -77.02204883333333, "bike_id": "4eb35f1cc3aa4e0e888209b7039c8223", "rental_uris": {"android": "https://dc.lft.to/lastmile_qr_scan", "ios": "https://dc.lft.to/lastmile_qr_scan"}, "name": "4eb35f1cc3aa4e0e888209b7039c8223", "is_reserved": 0}, {"is_disabled": 0, "fusion_lon": 0.0, "fusion_lat": 0.0, "lat": 38.918148, "type": "electric_scooter", "lon": -77.02562183333333, "bike_id": "57aaff8f7980f7626916cd4c4071bb07", "rental_uris": {"android": "https://dc.lft.to/lastmile_qr_scan", "ios": "https://dc.lft.to/lastmile_qr_scan"}, "name": "57aaff8f7980f7626916cd4c4071bb07", "is_reserved": 0}, {"is_disabled": 0, "fusion_lon": 0.0, "fusion_lat": 0.0, "lat": 38.874865, "type": "electric_scooter", "lon": -77.0011115, "bike_id": "e08e2948f79a3c66c99c2818ff9ee218", "rental_uris": {"android": "https://dc.lft.to/lastmile_qr_scan", "ios": "https://dc.lft.to/lastmile_qr_scan"}, "name": "e08e2948f79a3c66c99c2818ff9ee218", "is_reserved": 0}, {"is_disabled": 0, "fusion_lon": 0.0, "fusion_lat": 0.0, "lat": 38.905459, "type": "electric_scooter", "lon": -77.05698183333334, "bike_id": "0abd75709b6cecb3b5c4ce10a0ac0344", "rental_uris": {"android": "https://dc.lft.to/lastmile_qr_scan", "ios": "https://dc.lft.to/lastmile_qr_scan"}, "name": "0abd75709b6cecb3b5c4ce10a0ac0344", "is_reserved": 0}, {"is_disabled": 0, "fusion_lon": 0.0, "fusion_lat": 0.0, "lat": 38.9241055, "type": "electric_scooter", "lon": -77.0354785, "bike_id": "e3249336b3ada07929450b507088d5b6", "rental_uris": {"android": "https://dc.lft.to/lastmile_qr_scan", "ios": "https://dc.lft.to/lastmile_qr_scan"}, "name": "e3249336b3ada07929450b507088d5b6", "is_reserved": 0}, {"is_disabled": 0, "fusion_lon": 0.0, "fusion_lat": 0.0, "lat": 38.88199316666667, "type": "electric_scooter", "lon": -76.92701716666667, "bike_id": "c94c52c460b3835a93fdb2f4eaa1f68f", "rental_uris": {"android": "https://dc.lft.to/lastmile_qr_scan", "ios": "https://dc.lft.to/lastmile_qr_scan"}, "name": "c94c52c460b3835a93fdb2f4eaa1f68f", "is_reserved": 0}, {"is_disabled": 0, "fusion_lon": 0.0, "fusion_lat": 0.0, "lat": 38.925853333333336, "type": "electric_scooter", "lon": -77.03230066666667, "bike_id": "305625a235976316afc6ab09e4364b20", "rental_uris": {"android": "https://dc.lft.to/lastmile_qr_scan", "ios": "https://dc.lft.to/lastmile_qr_scan"}, "name": "305625a235976316afc6ab09e4364b20", "is_reserved": 0}, {"is_disabled": 0, "fusion_lon": 0.0, "fusion_lat": 0.0, "lat": 39.060661, "type": "electric_bike", "lon": -77.06466683333333, "bike_id": "043042f2a4db8441dedafb8985e7f424", "rental_uris": {"android": "https://dc.lft.to/lastmile_qr_scan", "ios": "https://dc.lft.to/lastmile_qr_scan"}, "name": "043042f2a4db8441dedafb8985e7f424", "is_reserved": 0}, {"is_disabled": 0, "fusion_lon": 0.0, "fusion_lat": 0.0, "lat": 38.9041965, "type": "electric_scooter", "lon": -76.98550283333333, "bike_id": "c773a2f670e72f1d9d131557ac77ef20", "rental_uris": {"android": "https://dc.lft.to/lastmile_qr_scan", "ios": "https://dc.lft.to/lastmile_qr_scan"}, "name": "c773a2f670e72f1d9d131557ac77ef20", "is_reserved": 0}, {"is_disabled": 0, "fusion_lon": 0.0, "fusion_lat": 0.0, "lat": 38.8874495, "type": "electric_scooter", "lon": -77.017353, "bike_id": "9292f68def9010e82737157ef0f64cd6", "rental_uris": {"android": "https://dc.lft.to/lastmile_qr_scan", "ios": "https://dc.lft.to/lastmile_qr_scan"}, "name": "9292f68def9010e82737157ef0f64cd6", "is_reserved": 0}, {"is_disabled": 0, "fusion_lon": 0.0, "fusion_lat": 0.0, "lat": 38.91855666666667, "type": "electric_bike", "lon": -76.96085933333333, "bike_id": "e713d8d34a8b081d35f3b39512d38a83", "rental_uris": {"android": "https://dc.lft.to/lastmile_qr_scan", "ios": "https://dc.lft.to/lastmile_qr_scan"}, "name": "e713d8d34a8b081d35f3b39512d38a83", "is_reserved": 0}, {"is_disabled": 0, "fusion_lon": 0.0, "fusion_lat": 0.0, "lat": 38.92044683333334, "type": "electric_scooter", "lon": -76.99607983333334, "bike_id": "3767cd80d0b3a1a24209037434d36698", "rental_uris": {"android": "https://dc.lft.to/lastmile_qr_scan", "ios": "https://dc.lft.to/lastmile_qr_scan"}, "name": "3767cd80d0b3a1a24209037434d36698", "is_reserved": 0}, {"is_disabled": 0, "fusion_lon": 0.0, "fusion_lat": 0.0, "lat": 38.93115, "type": "electric_scooter", "lon": -77.02041733333333, "bike_id": "90677fc0db2a1290a999944ed5f8db3f", "rental_uris": {"android": "https://dc.lft.to/lastmile_qr_scan", "ios": "https://dc.lft.to/lastmile_qr_scan"}, "name": "90677fc0db2a1290a999944ed5f8db3f", "is_reserved": 0}, {"is_disabled": 0, "fusion_lon": 0.0, "fusion_lat": 0.0, "lat": 38.89849983333333, "type": "electric_scooter", "lon": -76.99031416666666, "bike_id": "e224b6856716be98312c4811fa540d08", "rental_uris": {"android": "https://dc.lft.to/lastmile_qr_scan", "ios": "https://dc.lft.to/lastmile_qr_scan"}, "name": "e224b6856716be98312c4811fa540d08", "is_reserved": 0}, {"is_disabled": 0, "fusion_lon": 0.0, "fusion_lat": 0.0, "lat": 38.951760666666665, "type": "electric_scooter", "lon": -77.05654083333333, "bike_id": "834ef3220c460c9f21ffdf17132b70d0", "rental_uris": {"android": "https://dc.lft.to/lastmile_qr_scan", "ios": "https://dc.lft.to/lastmile_qr_scan"}, "name": "834ef3220c460c9f21ffdf17132b70d0", "is_reserved": 0}, {"is_disabled": 0, "fusion_lon": 0.0, "fusion_lat": 0.0, "lat": 38.88264816666667, "type": "electric_scooter", "lon": -76.98542866666666, "bike_id": "bf6022bc418bf1f8dd56e1b4165cc493", "rental_uris": {"android": "https://dc.lft.to/lastmile_qr_scan", "ios": "https://dc.lft.to/lastmile_qr_scan"}, "name": "bf6022bc418bf1f8dd56e1b4165cc493", "is_reserved": 0}, {"is_disabled": 0, "fusion_lon": 0.0, "fusion_lat": 0.0, "lat": 38.91731866666667, "type": "electric_scooter", "lon": -77.0320645, "bike_id": "f1423d347cde3035fd1b69b73b060d8c", "rental_uris": {"android": "https://dc.lft.to/lastmile_qr_scan", "ios": "https://dc.lft.to/lastmile_qr_scan"}, "name": "f1423d347cde3035fd1b69b73b060d8c", "is_reserved": 0}, {"is_disabled": 0, "fusion_lon": 0.0, "fusion_lat": 0.0, "lat": 38.82874783333333, "type": "electric_bike", "lon": -77.11223316666667, "bike_id": "31a9c7a06e89dd5a1fc22e6423ce19a0", "rental_uris": {"android": "https://dc.lft.to/lastmile_qr_scan", "ios": "https://dc.lft.to/lastmile_qr_scan"}, "name": "31a9c7a06e89dd5a1fc22e6423ce19a0", "is_reserved": 0}, {"is_disabled": 0, "fusion_lon": 0.0, "fusion_lat": 0.0, "lat": 38.86248233333333, "type": "electric_scooter", "lon": -76.994999, "bike_id": "a52d784c1852a42c886bf1e8b2edd02f", "rental_uris": {"android": "https://dc.lft.to/lastmile_qr_scan", "ios": "https://dc.lft.to/lastmile_qr_scan"}, "name": "a52d784c1852a42c886bf1e8b2edd02f", "is_reserved": 0}, {"is_disabled": 0, "fusion_lon": 0.0, "fusion_lat": 0.0, "lat": 38.90309583333333, "type": "electric_scooter", "lon": -77.0250855, "bike_id": "3a0cd7181362f6859eb9af25bbbb67f3", "rental_uris": {"android": "https://dc.lft.to/lastmile_qr_scan", "ios": "https://dc.lft.to/lastmile_qr_scan"}, "name": "3a0cd7181362f6859eb9af25bbbb67f3", "is_reserved": 0}, {"is_disabled": 0, "fusion_lon": 0.0, "fusion_lat": 0.0, "lat": 38.91817783333333, "type": "electric_scooter", "lon": -77.032557, "bike_id": "a315b4aa48ed05d56bf5f459d847ee7e", "rental_uris": {"android": "https://dc.lft.to/lastmile_qr_scan", "ios": "https://dc.lft.to/lastmile_qr_scan"}, "name": "a315b4aa48ed05d56bf5f459d847ee7e", "is_reserved": 0}, {"is_disabled": 0, "fusion_lon": 0.0, "fusion_lat": 0.0, "lat": 38.916995, "type": "electric_scooter", "lon": -77.03744283333333, "bike_id": "c9ff901b57dae63381cd4b6b766e4e17", "rental_uris": {"android": "https://dc.lft.to/lastmile_qr_scan", "ios": "https://dc.lft.to/lastmile_qr_scan"}, "name": "c9ff901b57dae63381cd4b6b766e4e17", "is_reserved": 0},