{"data": {"bikes": [{"name": "52d5063f36ffc0ba44ae953d5c5f0edb", "lon": -77.04430116666667, "lat": 38.92119133333333, "type": "electric_scooter", "fusion_lon": 0.0, "is_reserved": 0, "bike_id": "52d5063f36ffc0ba44ae953d5c5f0edb", "fusion_lat": 0.0, "is_disabled": 0, "rental_uris": {"ios": "https://dc.lft.to/lastmile_qr_scan", "android": "https://dc.lft.to/lastmile_qr_scan"}}, {"name": "1c9510da0efc685fbca781ddb97609d8", "lon": -77.02728566666667, "lat": 38.915652, "type": "electric_scooter", "fusion_lon": 0.0, "is_reserved": 0, "bike_id": "1c9510da0efc685fbca781ddb97609d8", "fusion_lat": 0.0, "is_disabled": 0, "rental_uris": {"ios": "https://dc.lft.to/lastmile_qr_scan", "android": "https://dc.lft.to/lastmile_qr_scan"}}, {"name": "09fc1f8fc0084734b91a9dd97428c635", "lon": -76.99444033333333, "lat": 38.9082535, "type": "electric_scooter", "fusion_lon": 0.0, "is_reserved": 0, "bike_id": "09fc1f8fc0084734b91a9dd97428c635", "fusion_lat": 0.0, "is_disabled": 0, "rental_uris": {"ios": "https://dc.lft.to/lastmile_qr_scan", "android": "https://dc.lft.to/lastmile_qr_scan"}}, {"name": "76b94e37e5cc7e99f63130bc3f3d1e1a", "lon": -76.9815305, "lat": 38.92258916666667, "type": "electric_bike", "fusion_lon": 0.0, "is_reserved": 0, "bike_id": "76b94e37e5cc7e99f63130bc3f3d1e1a", "fusion_lat": 0.0, "is_disabled": 0, "rental_uris": {"ios": "https://dc.lft.to/lastmile_qr_scan", "android": "https://dc.lft.to/lastmile_qr_scan"}}, {"name": "464316a70d6e87f9d0176d39a4441d52", "lon": -77.030322, "lat": 38.931177, "type": "electric_scooter", "fusion_lon": 0.0, "is_reserved": 0, "bike_id": "464316a70d6e87f9d0176d39a4441d52", "fusion_lat": 0.0, "is_disabled": 0, "rental_uris": {"ios": "https://dc.lft.to/lastmile_qr_scan", "android": "https://dc.lft.to/lastmile_qr_scan"}}, {"name": "15ec32191a26a6f1272f1d3aebd4fd69", "lon": -76.99804283333333, "lat": 38.908470333333334, "type": "electric_scooter", "fusion_lon": 0.0, "is_reserved": 0, "bike_id": "15ec32191a26a6f1272f1d3aebd4fd69", "fusion_lat": 0.0, "is_disabled": 0, "rental_uris": {"ios": "https://dc.lft.to/lastmile_qr_scan", "android": "https://dc.lft.to/lastmile_qr_scan"}}, {"name": "1e699883fa4fe28c6c8d990839d4a346", "lon": -77.039978, "lat": 38.914089833333335, "type": "electric_scooter", "fusion_lon": 0.0, "is_reserved": 0, "bike_id": "1e699883fa4fe28c6c8d990839d4a346", "fusion_lat": 0.0, "is_disabled": 0, "rental_uris": {"ios": "https://dc.lft.to/lastmile_qr_scan", "android": "https://dc.lft.to/lastmile_qr_scan"}}, {"name": "ef03caa412899ea777b01957837d1db3", "lon": -77.04927966666666, "lat": 39.029322666666665, "type": "electric_bike", "fusion_lon": 0.0, "is_reserved": 0, "bike_id": "ef03caa412899ea777b01957837d1db3", "fusion_lat": 0.0, "is_disabled": 0, "rental_uris": {"ios": "https://dc.lft.to/lastmile_qr_scan", "android": "https://dc.lft.to/lastmile_qr_scan"}}, {"name": "b5cd467248d7a83571bd9712df03f8dd", "lon": -77.04338683333333, "lat": 38.895251, "type": "electric_scooter", "fusion_lon": 0.0, "is_reserved": 0, "bike_id": "b5cd467248d7a83571bd9712df03f8dd", "fusion_lat": 0.0, "is_disabled": 0, "rental_uris": {"ios": "https://dc.lft.to/lastmile_qr_scan", "android": "https://dc.lft.to/lastmile_qr_scan"}}, {"name": "9b129e3ee1315123bcd91322eab1cb9c", "lon": -77.0302435, "lat": 38.904919166666666, "type": "electric_scooter", "fusion_lon": 0.0, "is_reserved": 0, "bike_id": "9b129e3ee1315123bcd91322eab1cb9c", "fusion_lat": 0.0, "is_disabled": 0, "rental_uris": {"ios": "https://dc.lft.to/lastmile_qr_scan", "android": "https://dc.lft.to/lastmile_qr_scan"}}, {"name": "93c50feb8abd5cb60461fe50ec4142d7", "lon": -77.0418435, "lat": 38.916812666666665, "type": "electric_scooter", "fusion_lon": 0.0, "is_reserved": 0, "bike_id": "93c50feb8abd5cb60461fe50ec4142d7", "fusion_lat": 0.0, "is_disabled": 0, "rental_uris": {"ios": "https://dc.lft.to/lastmile_qr_scan", "android": "https://dc.lft.to/lastmile_qr_scan"}}, {"name": "eddedc209787d71e1b8ec257849e4491", "lon": -77.22227166666667, "lat": 38.92855133333333, "type": "electric_bike", "fusion_lon": 0.0, "is_reserved": 0, "bike_id": "eddedc209787d71e1b8ec257849e4491", "fusion_lat": 0.0, "is_disabled": 0, "rental_uris": {"ios": "https://dc.lft.to/lastmile_qr_scan", "android": "https://dc.lft.to/lastmile_qr_scan"}}, {"name": "74a3a989e3625baab084ff259975e44e", "lon": -77.03455483333333, "lat": 38.9056545, "type": "electric_scooter", "fusion_lon": 0.0, "is_reserved": 0, "bike_id": "74a3a989e3625baab084ff259975e44e", "fusion_lat": 0.0, "is_disabled": 0, "rental_uris": {"ios": "https://dc.lft.to/lastmile_qr_scan", "android": "https://dc.lft.to/lastmile_qr_scan"}}, {"name": "df89bc00c810fa9d07f94238d621b803", "lon": -76.95641366666666, "lat": 38.895598666666665, "type": "electric_scooter", "fusion_lon": 0.0, "is_reserved": 0, "bike_id": "df89bc00c810fa9d07f94238d621b803", "fusion_lat": 0.0, "is_disabled": 0, "rental_uris": {"ios": "https://dc.lft.to/lastmile_qr_scan", "android": "https://dc.lft.to/lastmile_qr_scan"}}, {"name": "cc4a5e5f2fd09fd07614231ee6a3eebd", "lon": -77.17836283333334, "lat": 39.088503833333334, "type": "electric_bike", "fusion_lon": 0.0, "is_reserved": 0, "bike_id": "cc4a5e5f2fd09fd07614231ee6a3eebd", "fusion_lat": 0.0, "is_disabled": 0, "rental_uris": {"ios": "https://dc.lft.to/lastmile_qr_scan", "android": "https://dc.lft.to/lastmile_qr_scan"}}, {"name": "3548bffa6361364b38ceb91e3fd87d9e", "lon": -77.03263516666667, "lat": 38.932629666666664, "type": "electric_scooter", "fusion_lon": 0.0, "is_reserved": 0, "bike_id": "3548bffa6361364b38ceb91e3fd87d9e", "fusion_lat": 0.0, "is_disabled": 0, "rental_uris": {"ios": "https://dc.lft.to/lastmile_qr_scan", "android": "https://dc.lft.to/lastmile_qr_scan"}}, {"name": "90ba28190496e78772c619101cce01f8", "lon": -77.08625616666667, "lat": 38.88183466666667, "type": "electric_bike", "fusion_lon": 0.0, "is_reserved": 0, "bike_id": "90ba28190496e78772c619101cce01f8", "fusion_lat": 0.0, "is_disabled": 0, "rental_uris": {"ios": "https://dc.lft.to/lastmile_qr_scan", "android": "https://dc.lft.to/lastmile_qr_scan"}}, {"name": "d0d64fd887ffb6355e0ff5c0d464b8cb", "lon": -77.009668, "lat": 38.90792183333333, "type": "electric_scooter", "fusion_lon": 0.0, "is_reserved": 0, "bike_id": "d0d64fd887ffb6355e0ff5c0d464b8cb", "fusion_lat": 0.0, "is_disabled": 0, "rental_uris": {"ios": "https://dc.lft.to/lastmile_qr_scan", "android": "https://dc.lft.to/lastmile_qr_scan"}}, {"name": "eab80ebe5366c2da1ad0af1af5334637", "lon": -77.01982533333333, "lat": 38.90285216666667, "type": "electric_scooter", "fusion_lon": 0.0, "is_reserved": 0, "bike_id": "eab80ebe5366c2da1ad0af1af5334637", "fusion_lat": 0.0, "is_disabled": 0, "rental_uris": {"ios": "https://dc.lft.to/lastmile_qr_scan", "android": "https://dc.lft.to/lastmile_qr_scan"}}, {"name": "960927ab5ed6137a350bdbd31900de7d", "lon": -77.023124, "lat": 38.89672916666667, "type": "electric_scooter", "fusion_lon": 0.0, "is_reserved": 0, "bike_id": "960927ab5ed6137a350bdbd31900de7d", "fusion_lat": 0.0, "is_disabled": 0, "rental_uris": {"ios": "https://dc.lft.to/lastmile_qr_scan", "android": "https://dc.lft.to/lastmile_qr_scan"}}, {"name": "5e1dadac6b70f5ebe411189848cafa33", "lon": -77.026962, "lat": 38.90687233333333, "type": "electric_scooter", "fusion_lon": 0.0, "is_reserved": 0, "bike_id": "5e1dadac6b70f5ebe411189848cafa33", "fusion_lat": 0.0, "is_disabled": 0, "rental_uris": {"ios": "https://dc.lft.to/lastmile_qr_scan", "android": "https://dc.lft.to/lastmile_qr_scan"}}, {"name": "baf984abb8d865d7bbf02263eec11d42", "lon": -76.9653695, "lat": 38.87479783333333, "type": "electric_bike", "fusion_lon": 0.0, "is_reserved": 0, "bike_id": "baf984abb8d865d7bbf02263eec11d42", "fusion_lat": 0.0, "is_disabled": 0, "rental_uris": {"ios": "https://dc.lft.to/lastmile_qr_scan", "android": "https://dc.lft.to/lastmile_qr_scan"}}, {"name": "4cbad544b2ccf8340a04128327696b3e", "lon": -76.99162533333333, "lat": 38.898033166666664, "type": "electric_scooter", "fusion_lon": 0.0, "is_reserved": 0, "bike_id": "4cbad544b2ccf8340a04128327696b3e", "fusion_lat": 0.0, "is_disabled": 0, "rental_uris": {"ios": "https://dc.lft.to/lastmile_qr_scan", "android": "https://dc.lft.to/lastmile_qr_scan"}}, {"name": "60abe37034027b27c1ca7c9c9d325a7f", "lon": -77.01345666666667, "lat": 38.899164666666664, "type": "electric_scooter", "fusion_lon": 0.0, "is_reserved": 0, "bike_id": "60abe37034027b27c1ca7c9c9d325a7f", "fusion_lat": 0.0, "is_disabled": 0, "rental_uris": {"ios": "https://dc.lft.to/lastmile_qr_scan", "android": "https://dc.lft.to/lastmile_qr_scan"}}, {"name": "1e1bcf2f700d11884c5867e47b0ca9fe", "lon": -77.02411066666667, "lat": 38.89253433333333, "type": "electric_scooter", "fusion_lon": 0.0, "is_reserved": 0, "bike_id": "1e1bcf2f700d11884c5867e47b0ca9fe", "fusion_lat": 0.0, "is_disabled": 0, "rental_uris": {"ios": "https://dc.lft.to/lastmile_qr_scan", "android": "https://dc.lft.to/lastmile_qr_scan"}}, {"name": "345289ba1380ae8c1a78de8252ea14ab", "lon": -77.04557033333333, "lat": 38.917709, "type": "electric_scooter", "fusion_lon": 0.0, "is_reserved": 0, "bike_id": "345289ba1380ae8c1a78de8252ea14ab", "fusion_lat": 0.0, "is_disabled": 0, "rental_uris": {"ios": "https://dc.lft.to/lastmile_qr_scan", "android": "https://dc.lft.to/lastmile_qr_scan"}}, {"name": "0b0f770771a7c5f7e8a9a3dfe4034a22", "lon": -77.023951, "lat": 38.919528, "type": "electric_scooter", "fusion_lon": 0.0, "is_reserved": 0, "bike_id": "0b0f770771a7c5f7e8a9a3dfe4034a22", "fusion_lat": 0.0, "is_disabled": 0, "rental_uris": {"ios": "https://dc.lft.to/lastmile_qr_scan", "android": "https://dc.lft.to/lastmile_qr_scan"}}, {"name": "e88b156521d6f84c65cb57167a935e90", "lon": -77.0232895, "lat": 38.936041833333334, "type": "electric_scooter", "fusion_lon": 0.0, "is_reserved": 0, "bike_id": "e88b156521d6f84c65cb57167a935e90", "fusion_lat": 0.0, "is_disabled": 0, "rental_uris": {"ios": "https://dc.lft.to/lastmile_qr_scan", "android": "https://dc.lft.to/lastmile_qr_scan"}}, {"name": "acc33b72c09e9e79a1044509792edbd6", "lon": -77.02946883333334, "lat": 38.905038, "type": "electric_scooter", "fusion_lon": 0.0, "is_reserved": 0, "bike_id": "acc33b72c09e9e79a1044509792edbd6", "fusion_lat": 0.0, "is_disabled": 0, "rental_uris": {"ios": "https://dc.lft.to/lastmile_qr_scan", "android": "https://dc.lft.to/lastmile_qr_scan"}}, {"name": "53d8e3d1ac2f6f9c5b957a5a89efe464", "lon": -77.02270633333333, "lat": 38.916414, "type": "electric_scooter", "fusion_lon": 0.0, "is_reserved": 0, "bike_id": "53d8e3d1ac2f6f9c5b957a5a89efe464", "fusion_lat": 0.0, "is_disabled": 0, "rental_uris": {"ios": "https://dc.lft.to/lastmile_qr_scan", "android": "https://dc.lft.to/lastmile_qr_scan"}}, {"name": "c87da55b87827e19af07bfa41d64044e", "lon": -77.0246605, "lat": 38.933021, "type": "electric_scooter", "fusion_lon": 0.0, "is_reserved": 0, "bike_id": "c87da55b87827e19af07bfa41d64044e", "fusion_lat": 0.0, "is_disabled": 0, "rental_uris": {"ios": "https://dc.lft.to/lastmile_qr_scan", "android": "https://dc.lft.to/lastmile_qr_scan"}}, {"name": "3d45ed7bd5fe7f19eee8bfb489ab62be", "lon": -77.04829983333333, "lat": 38.916134, "type": "electric_scooter", "fusion_lon": 0.0, "is_reserved": 0, "bike_id": "3d45ed7bd5fe7f19eee8bfb489ab62be", "fusion_lat": 0.0, "is_disabled": 0, "rental_uris": {"ios": "https://dc.lft.to/lastmile_qr_scan", "android": "https://dc.lft.to/lastmile_qr_scan"}}, {"name": "21743e6a4daf6a91c6280040e2acce20", "lon": -77.02387533333334, "lat": 38.919934833333336, "type": "electric_scooter", "fusion_lon": 0.0, "is_reserved": 0, "bike_id": "21743e6a4daf6a91c6280040e2acce20", "fusion_lat": 0.0, "is_disabled": 0, "rental_uris": {"ios": "https://dc.lft.to/lastmile_qr_scan", "android": "https://dc.lft.to/lastmile_qr_scan"}}, {"name": "4015423b9e5c42f491c8fb474f3f1f80", "lon": -77.0269085, "lat": 38.913448833333334, "type": "electric_scooter", "fusion_lon": 0.0, "is_reserved": 0, "bike_id": "4015423b9e5c42f491c8fb474f3f1f80", "fusion_lat": 0.0, "is_disabled": 0, "rental_uris": {"ios": "https://dc.lft.to/lastmile_qr_scan", "android": "https://dc.lft.to/lastmile_qr_scan"}}, {"name": "ec56925d4d81ffb84f3e6e8aaa1c8a11", "lon": -77.02903533333334, "lat": 38.898397, "type": "electric_scooter", "fusion_lon": 0.0, "is_reserved": 0, "bike_id": "ec56925d4d81ffb84f3e6e8aaa1c8a11", "fusion_lat": 0.0, "is_disabled": 0, "rental_uris": {"ios": "https://dc.lft.to/lastmile_qr_scan", "android": "https://dc.lft.to/lastmile_qr_scan"}}, {"name": "54e3a478a21f370342a6cbce0745e8d7", "lon": -77.009111, "lat": 38.895583333333335, "type": "electric_scooter", "fusion_lon": 0.0, "is_reserved": 0, "bike_id": "54e3a478a21f370342a6cbce0745e8d7", "fusion_lat": 0.0, "is_disabled": 0, "rental_uris": {"ios": "https://dc.lft.to/lastmile_qr_scan", "android": "https://dc.lft.to/lastmile_qr_scan"}}, {"name": "05c668f899c68fa2125611d8507c93ac", "lon": -77.0416095, "lat": 38.91951433333333, "type": "electric_scooter", "fusion_lon": 0.0, "is_reserved": 0, "bike_id": "05c668f899c68fa2125611d8507c93ac", "fusion_lat": 0.0, "is_disabled": 0, "rental_uris": {"ios": "https://dc.lft.to/lastmile_qr_scan", "android": "https://dc.lft.to/lastmile_qr_scan"}}, {"name": "bd9376f07720193bdcb990673f41efa0", "lon": -77.04108316666667, "lat": 38.92796633333333, "type": "electric_scooter", "fusion_lon": 0.0, "is_reserved": 0, "bike_id": "bd9376f07720193bdcb990673f41efa0", "fusion_lat": 0.0, "is_disabled": 0, "rental_uris": {"ios": "https://dc.lft.to/lastmile_qr_scan", "android": "https://dc.lft.to/lastmile_qr_scan"}}, {"name": "faf8f16371112fbda6fb6122c1bb25a4", "lon": -76.982565, "lat": 38.9045795, "type": "electric_scooter", "fusion_lon": 0.0, "is_reserved": 0, "bike_id": "faf8f16371112fbda6fb6122c1bb25a4", "fusion_lat": 0.0, "is_disabled": 0, "rental_uris": {"ios": "https://dc.lft.to/lastmile_qr_scan", "android": "https://dc.lft.to/lastmile_qr_scan"}}, {"name": "bd0599b5818ead31b06b57858d3482b7", "lon": -77.07259483333333, "lat": 38.93519833333333, "type": "electric_scooter", "fusion_lon": 0.0, "is_reserved": 0, "bike_id": "bd0599b5818ead31b06b57858d3482b7", "fusion_lat": 0.0, "is_disabled": 0, "rental_uris": {"ios": "https://dc.lft.to/lastmile_qr_scan", "android": "https://dc.lft.to/lastmile_qr_scan"}}, {"name": "33a0c5018a349741e4d8bd8874b90598", "lon": -77.02320566666667, "lat": 38.9206745, "type": "electric_scooter", "fusion_lon": 0.0, "is_reserved": 0, "bike_id": "33a0c5018a349741e4d8bd8874b90598", "fusion_lat": 0.0, "is_disabled": 0, "rental_uris": {"ios": "https://dc.lft.to/lastmile_qr_scan", "android": "https://dc.lft.to/lastmile_qr_scan"}}, {"name": "9e4167af32c0e7a3ebd69f386a11a294", "lon": -77.00654066666667, "lat": 38.911655, "type": "electric_scooter", "fusion_lon": 0.0, "is_reserved": 0, "bike_id": "9e4167af32c0e7a3ebd69f386a11a294", "fusion_lat": 0.0, "is_disabled": 0, "rental_uris": {"ios": "https://dc.lft.to/lastmile_qr_scan", "android": "https://dc.lft.to/lastmile_qr_scan"}}, {"name": "4177f4dcddb974c99220f72f43fa27f8", "lon": -77.06330683333333, "lat": 38.94423333333334, "type": "electric_scooter", "fusion_lon": 0.0, "is_reserved": 0, "bike_id": "4177f4dcddb974c99220f72f43fa27f8", "fusion_lat": 0.0, "is_disabled": 0, "rental_uris": {"ios": "https://dc.lft.to/lastmile_qr_scan", "android": "https://dc.lft.to/lastmile_qr_scan"}}, {"name": "8a16216694a29ac2e85e57463642e9ab", "lon": -77.018168, "lat": 38.92209616666667, "type": "electric_scooter", "fusion_lon": 0.0, "is_reserved": 0, "bike_id": "8a16216694a29ac2e85e57463642e9ab", "fusion_lat": 0.0, "is_disabled": 0, "rental_uris": {"ios": "https://dc.lft.to/lastmile_qr_scan", "android": "https://dc.lft.to/lastmile_qr_scan"}}, {"name": "f542f45ac65cb311f26e3331c58bc3cd", "lon": -77.0386705, "lat": 38.915438333333334, "type": "electric_scooter", "fusion_lon": 0.0, "is_reserved": 0, "bike_id": "f542f45ac65cb311f26e3331c58bc3cd", "fusion_lat": 0.0, "is_disabled": 0, "rental_uris": {"ios": "https://dc.lft.to/lastmile_qr_scan", "android": "https://dc.lft.to/lastmile_qr_scan"}}, {"name": "1d76c44037fd2c3b48d622cda2a76d31", "lon": -76.99032916666667, "lat": 38.902920333333334, "type": "electric_scooter", "fusion_lon": 0.0, "is_reserved": 0, "bike_id": "1d76c44037fd2c3b48d622cda2a76d31", "fusion_lat": 0.0, "is_disabled": 0, "rental_uris": {"ios": "https://dc.lft.to/lastmile_qr_scan", "android": "https://dc.lft.to/lastmile_qr_scan"}}, {"name": "0b917ab5474375902bfea4f6cbe680ad", "lon": -77.12075733333333, "lat": 38.85419, "type": "electric_bike", "fusion_lon": 0.0, "is_reserved": 0, "bike_id": "0b917ab5474375902bfea4f6cbe680ad", "fusion_lat": 0.0, "is_disabled": 0, "rental_uris": {"ios": "https://dc.lft.to/lastmile_qr_scan", "android": "https://dc.lft.to/lastmile_qr_scan"}}, {"name": "10901240fb89947a27d22ec365f56f0f", "lon": -77.02686233333333, "lat": 38.8963685, "type": "electric_scooter", "fusion_lon": 0.0, "is_reserved": 0, "bike_id": "10901240fb89947a27d22ec365f56f0f", "fusion_lat": 0.0, "is_disabled": 0, "rental_uris": {"ios": "https://dc.lft.to/lastmile_qr_scan", "android": "https://dc.lft.to/lastmile_qr_scan"}}, {"name": "815b0dea073acef216ac7a340c6dd049", "lon": -77.02517516666667, "lat": 38.914830333333335, "type": "electric_scooter", "fusion_lon": 0.0, "is_reserved": 0, "bike_id": "815b0dea073acef216ac7a340c6dd049", "fusion_lat": 0.0, "is_disabled": 0, "rental_uris": {"ios": "https://dc.lft.to/lastmile_qr_scan", "android": "https://dc.lft.to/lastmile_qr_scan"}}, {"name": "60b7b568739d856dd150ba3356d959e7", "lon": -77.02835983333334, "lat": 38.88623, "type": "electric_scooter", "fusion_lon": 0.0, "is_reserved": 0, "bike_id": "60b7b568739d856dd150ba3356d959e7", "fusion_lat": 0.0, "is_disabled": 0, "rental_uris": {"ios": "https://dc.lft.to/lastmile_qr_scan", "android": "https://dc.lft.to/lastmile_qr_scan"}}, {"name": "572bd08b7a27eb9ce8c8f08e5fc87b9f", "lon": -77.042178, "lat": 38.920798, "type": "electric_bike", "fusion_lon": 0.0, "is_reserved": 0, "bike_id": "572bd08b7a27eb9ce8c8f08e5fc87b9f", "fusion_lat": 0.0, "is_disabled": 0, "rental_uris": {"ios": "https://dc.lft.to/lastmile_qr_scan", "android": "https://dc.lft.to/lastmile_qr_scan"}}, {"name": "e16efd76a208f04744efa4c81bf5f394", "lon": -76.9375715, "lat": 38.890438833333334, "type": "electric_scooter", "fusion_lon": 0.0, "is_reserved": 0, "bike_id": "e16efd76a208f04744efa4c81bf5f394", "fusion_lat": 0.0, "is_disabled": 0, "rental_uris": {"ios": "https://dc.lft.to/lastmile_qr_scan", "android": "https://dc.lft.to/lastmile_qr_scan"}}, {"name": "71ca6337684aefc4b46541445a198a05", "lon": -77.04800716666666, "lat": 38.892215666666665, "type": "electric_scooter", "fusion_lon": 0.0, "is_reserved": 0, "bike_id": "71ca6337684aefc4b46541445a198a05", "fusion_lat": 0.0, "is_disabled": 0, "rental_uris": {"ios": "https://dc.lft.to/lastmile_qr_scan", "android": "https://dc.lft.to/lastmile_qr_scan"}}, {"name": "ffae2a69989d26aaa90e5b874fc75a27", "lon": -77.04314366666667, "lat": 38.9265935, "type": "electric_scooter", "fusion_lon": 0.0, "is_reserved": 0, "bike_id": "ffae2a69989d26aaa90e5b874fc75a27", "fusion_lat": 0.0, "is_disabled": 0, "rental_uris": {"ios": "https://dc.lft.to/lastmile_qr_scan", "android": "https://dc.lft.to/lastmile_qr_scan"}}, {"name": "02285001ef694602abab9a87b28c84d7", "lon": -77.04072633333334, "lat": 38.91781833333334, "type": "electric_scooter", "fusion_lon": 0.0, "is_reserved": 0, "bike_id": "02285001ef694602abab9a87b28c84d7", "fusion_lat": 0.0, "is_disabled": 0, "rental_uris": {"ios": "https://dc.lft.to/lastmile_qr_scan", "android": "https://dc.lft.to/lastmile_qr_scan"}}, {"name": "606777753db8f0d6b3a04f8ac990661a", "lon": -76.99273166666667, "lat": 38.886371833333335, "type": "electric_scooter", "fusion_lon": 0.0, "is_reserved": 0, "bike_id": "606777753db8f0d6b3a04f8ac990661a", "fusion_lat": 0.0, "is_disabled": 0, "rental_uris": {"ios": "https://dc.lft.to/lastmile_qr_scan", "android": "https://dc.lft.to/lastmile_qr_scan"}}, {"name": "da4e50ec79555443fb46d9458885b370", "lon": -77.03868683333333, "lat": 38.915503666666666, "type": "electric_scooter", "fusion_lon": 0.0, "is_reserved": 0, "bike_id": "da4e50ec79555443fb46d9458885b370", "fusion_lat": 0.0, "is_disabled": 0, "rental_uris": {"ios": "https://dc.lft.to/lastmile_qr_scan", "android": "https://dc.lft.to/lastmile_qr_scan"}}, {"name": "9d83e3e17e7dca485cdd1cfaf2ff07e9", "lon": -77.02382816666666, "lat": 38.89616383333333, "type": "electric_scooter", "fusion_lon": 0.0, "is_reserved": 0, "bike_id": "9d83e3e17e7dca485cdd1cfaf2ff07e9", "fusion_lat": 0.0, "is_disabled": 0, "rental_uris": {"ios": "https://dc.lft.to/lastmile_qr_scan", "android": "https://dc.lft.to/lastmile_qr_scan"}}, {"name": "7c52b0b7f81671bb76d16d8c68518aff", "lon": -77.032026, "lat": 38.91357466666667, "type": "electric_scooter", "fusion_lon": 0.0, "is_reserved": 0, "bike_id": "7c52b0b7f81671bb76d16d8c68518aff", "fusion_lat": 0.0, "is_disabled": 0, "rental_uris": {"ios": "https://dc.lft.to/lastmile_qr_scan", "android": "https://dc.lft.to/lastmile_qr_scan"}}, {"name": "ddd989bcd26b0c8493550947dbf9ac65", "lon": -77.02951766666666, "lat": 38.8994355, "type": "electric_scooter", "fusion_lon": 0.0, "is_reserved": 0, "bike_id": "ddd989bcd26b0c8493550947dbf9ac65", "fusion_lat": 0.0, "is_disabled": 0, "rental_uris": {"ios": "https://dc.lft.to/lastmile_qr_scan", "android": "https://dc.lft.to/lastmile_qr_scan"}}, {"name": "b50b09063baf8d4aafa22a1000c8ef54", "lon": -76.98884233333334, "lat": 38.866494333333335, "type": "electric_scooter", "fusion_lon": 0.0, "is_reserved": 0, "bike_id": "b50b09063baf8d4aafa22a1000c8ef54", "fusion_lat": 0.0, "is_disabled": 0, "rental_uris": {"ios": "https://dc.lft.to/lastmile_qr_scan", "android": "https://dc.lft.to/lastmile_qr_scan"}}, {"name": "42c65a02503e703d313e526fa474e66b", "lon": -76.9941025, "lat": 38.93922883333333, "type": "electric_bike", "fusion_lon": 0.0, "is_reserved": 0, "bike_id": "42c65a02503e703d313e526fa474e66b", "fusion_lat": 0.0, "is_disabled": 0, "rental_uris": {"ios": "https://dc.lft.to/lastmile_qr_scan", "android": "https://dc.lft.to/lastmile_qr_scan"}}, {"name": "7561c933d73209e123384d8471b4f262", "lon": -76.96525683333333, "lat": 38.876244, "type": "electric_scooter", "fusion_lon": 0.0, "is_reserved": 0, "bike_id": "7561c933d73209e123384d8471b4f262", "fusion_lat": 0.0, "is_disabled": 0, "rental_uris": {"ios": "https://dc.lft.to/lastmile_qr_scan", "android": "https://dc.lft.to/lastmile_qr_scan"}}, {"name": "53324968ad96b21eeb6c5c5b0476f1ee", "lon": -76.9701275, "lat": 38.863712166666666, "type": "electric_bike", "fusion_lon": 0.0, "is_reserved": 0, "bike_id": "53324968ad96b21eeb6c5c5b0476f1ee", "fusion_lat": 0.0, "is_disabled": 0, "rental_uris": {"ios": "https://dc.lft.to/lastmile_qr_scan", "android": "https://dc.lft.to/lastmile_qr_scan"}}, {"name": "0747bdc7ccce2f52850440f81961aa1c", "lon": -77.0405225, "lat": 38.911173833333336, "type": "electric_scooter", "fusion_lon": 0.0, "is_reserved": 0, "bike_id": "0747bdc7ccce2f52850440f81961aa1c", "fusion_lat": 0.0, "is_disabled": 0, "rental_uris": {"ios": "https://dc.lft.to/lastmile_qr_scan", "android": "https://dc.lft.to/lastmile_qr_scan"}}, {"name": "25bc46eccdf8eee56fbeab0e5bc8aa81", "lon": -77.11801683333333, "lat": 38.873751166666665, "type": "electric_bike", "fusion_lon": 0.0, "is_reserved": 0, "bike_id": "25bc46eccdf8eee56fbeab0e5bc8aa81", "fusion_lat": 0.0, "is_disabled": 0, "rental_uris": {"ios": "https://dc.lft.to/lastmile_qr_scan", "android": "https://dc.lft.to/lastmile_qr_scan"}}, {"name": "483749f2b242b6c62bc12f0b41ad5b41", "lon": -77.041441, "lat": 38.9229565, "type": "electric_scooter", "fusion_lon": 0.0, "is_reserved": 0, "bike_id": "483749f2b242b6c62bc12f0b41ad5b41", "fusion_lat": 0.0, "is_disabled": 0, "rental_uris": {"ios": "https://dc.lft.to/lastmile_qr_scan", "android": "https://dc.lft.to/lastmile_qr_scan"}}, {"name": "1995da7e3c794e961e8deb000385c7fe", "lon": -76.937354, "lat": 38.8901635, "type": "electric_scooter", "fusion_lon": 0.0, "is_reserved": 0, "bike_id": "1995da7e3c794e961e8deb000385c7fe", "fusion_lat": 0.0, "is_disabled": 0, "rental_uris": {"ios": "https://dc.lft.to/lastmile_qr_scan", "android": "https://dc.lft.to/lastmile_qr_scan"}}, {"name": "ff24751a4eecf0283e1480989eedb10b", "lon": -77.0021475, "lat": 38.911021833333336, "type": "electric_scooter", "fusion_lon": 0.0, "is_reserved": 0, "bike_id": "ff24751a4eecf0283e1480989eedb10b", "fusion_lat": 0.0, "is_disabled": 0, "rental_uris": {"ios": "https://dc.lft.to/lastmile_qr_scan", "android": "https://dc.lft.to/lastmile_qr_scan"}}, {"name": "b1656b7debb53b32bc4e50efd45f7535", "lon": -76.99933583333333, "lat": 38.900163666666664, "type": "electric_scooter", "fusion_lon": 0.0, "is_reserved": 0, "bike_id": "b1656b7debb53b32bc4e50efd45f7535", "fusion_lat": 0.0, "is_disabled": 0, "rental_uris": {"ios": "https://dc.lft.to/lastmile_qr_scan", "android": "https://dc.lft.to/lastmile_qr_scan"}}, {"name": "e8afa010bac8e8c92a83f3dc545c702d", "lon": -77.02708216666667, "lat": 38.901186833333334, "type": "electric_scooter", "fusion_lon": 0.0, "is_reserved": 0, "bike_id": "e8afa010bac8e8c92a83f3dc545c702d", "fusion_lat": 0.0, "is_disabled": 0, "rental_uris": {"ios": "https://dc.lft.to/lastmile_qr_scan", "android": "https://dc.lft.to/lastmile_qr_scan"}}, {"name": "3ce212514213238c07f89da34449a1d3", "lon": -77.007124, "lat": 38.88490783333334, "type": "electric_scooter", "fusion_lon": 0.0, "is_reserved": 0, "bike_id": "3ce212514213238c07f89da34449a1d3", "fusion_lat": 0.0, "is_disabled": 0, "rental_uris": {"ios": "https://dc.lft.to/lastmile_qr_scan", "android": "https://dc.lft.to/lastmile_qr_scan"}}, {"name": "3b11f305542105aa1ce28fbd3cbb2ef2", "lon": -77.011279, "lat": 38.91587833333333, "type": "electric_scooter", "fusion_lon": 0.0, "is_reserved": 0, "bike_id": "3b11f305542105aa1ce28fbd3cbb2ef2", "fusion_lat": 0.0, "is_disabled": 0, "rental_uris": {"ios": "https://dc.lft.to/lastmile_qr_scan", "android": "https://dc.lft.to/lastmile_qr_scan"}}, {"name": "559136bc97a8a5353135b850ce155fcd", "lon": -76.9652745, "lat": 38.876309166666665, "type": "electric_scooter", "fusion_lon": 0.0, "is_reserved": 0, "bike_id": "559136bc97a8a5353135b850ce155fcd", "fusion_lat": 0.0, "is_disabled": 0, "rental_uris": {"ios": "https://dc.lft.to/lastmile_qr_scan", "android": "https://dc.lft.to/lastmile_qr_scan"}}, {"name": "566a02e56b0ff038efd8ac9d109d1a39", "lon": -77.02306133333333, "lat": 38.91795333333334, "type": "electric_scooter", "fusion_lon": 0.0, "is_reserved": 0, "bike_id": "566a02e56b0ff038efd8ac9d109d1a39", "fusion_lat": 0.0, "is_disabled": 0, "rental_uris": {"ios": "https://dc.lft.to/lastmile_qr_scan", "android": "https://dc.lft.to/lastmile_qr_scan"}}, {"name": "1de03b469cadd748e80b3f4d31a583a5", "lon": -77.027971, "lat": 38.91220066666666, "type": "electric_scooter", "fusion_lon": 0.0, "is_reserved": 0, "bike_id": "1de03b469cadd748e80b3f4d31a583a5", "fusion_lat": 0.0, "is_disabled": 0, "rental_uris": {"ios": "https://dc.lft.to/lastmile_qr_scan", "android": "https://dc.lft.to/lastmile_qr_scan"}}, {"name": "0c7bec4274f2f9afc5d66e27bb1b54e6", "lon": -77.0432885, "lat": 38.89225233333333, "type": "electric_scooter", "fusion_lon": 0.0, "is_reserved": 0, "bike_id": "0c7bec4274f2f9afc5d66e27bb1b54e6", "fusion_lat": 0.0, "is_disabled": 0, "rental_uris": {"ios": "https://dc.lft.to/lastmile_qr_scan", "android": "https://dc.lft.to/lastmile_qr_scan"}}, {"name": "054423d4278212deb8c3fc43b1999d5b", "lon": -76.93753433333333, "lat": 38.89052016666667, "type": "electric_scooter", "fusion_lon": 0.0, "is_reserved": 0, "bike_id": "054423d4278212deb8c3fc43b1999d5b", "fusion_lat": 0.0, "is_disabled": 0, "rental_uris": {"ios": "https://dc.lft.to/lastmile_qr_scan", "android": "https://dc.lft.to/lastmile_qr_scan"}}, {"name": "adbab8e25aab058f00c102ae63247447", "lon": -77.24481816666666, "lat": 38.881906666666666, "type": "electric_bike", "fusion_lon": 0.0, "is_reserved": 0, "bike_id": "adbab8e25aab058f00c102ae63247447", "fusion_lat": 0.0, "is_disabled": 0, "rental_uris": {"ios": "https://dc.lft.to/lastmile_qr_scan", "android": "https://dc.lft.to/lastmile_qr_scan"}}, {"name": "367d2c0c1114fd7ef88d60d3ab1e2ffb", "lon": -76.98506483333334, "lat": 38.853612, "type": "electric_scooter", "fusion_lon": 0.0, "is_reserved": 0, "bike_id": "367d2c0c1114fd7ef88d60d3ab1e2ffb", "fusion_lat": 0.0, "is_disabled": 0, "rental_uris": {"ios": "https://dc.lft.to/lastmile_qr_scan", "android": "https://dc.lft.to/lastmile_qr_scan"}}, {"name": "c5a19a016dee1e21b9f19259a546b8d5", "lon": -77.03439866666666, "lat": 38.908057, "type": "electric_scooter", "fusion_lon": 0.0, "is_reserved": 0, "bike_id": "c5a19a016dee1e21b9f19259a546b8d5", "fusion_lat": 0.0, "is_disabled": 0, "rental_uris": {"ios": "https://dc.lft.to/lastmile_qr_scan", "android": "https://dc.lft.to/lastmile_qr_scan"}}, {"name": "5f1e0922bec0a5b7e388e143df0234bb", "lon": -77.043132, "lat": 38.91876966666667, "type": "electric_scooter", "fusion_lon": 0.0, "is_reserved": 0, "bike_id": "5f1e0922bec0a5b7e388e143df0234bb", "fusion_lat": 0.0, "is_disabled": 0, "rental_uris": {"ios": "https://dc.lft.to/lastmile_qr_scan", "android": "https://dc.lft.to/lastmile_qr_scan"}}, {"name": "bab9a36d462b0fbcf11364fecaf4198e", "lon": -76.97169316666667, "lat": 38.916426333333334, "type": "electric_bike", "fusion_lon": 0.0, "is_reserved": 0, "bike_id": "bab9a36d462b0fbcf11364fecaf4198e", "fusion_lat": 0.0, "is_disabled": 0, "rental_uris": {"ios": "https://dc.lft.to/lastmile_qr_scan", "android": "https://dc.lft.to/lastmile_qr_scan"}}, {"name": "27a3a31ae23bca1e4d3894f6336d5699", "lon": -77.03712183333333, "lat": 38.916537, "type": "electric_scooter", "fusion_lon": 0.0, "is_reserved": 0, "bike_id": "27a3a31ae23bca1e4d3894f6336d5699", "fusion_lat": 0.0, "is_disabled": 0, "rental_uris": {"ios": "https://dc.lft.to/lastmile_qr_scan", "android": "https://dc.lft.to/lastmile_qr_scan"}}, {"name": "01847d9cd1de3fb0b51bd798978a2dfd", "lon": -77.23319883333333, "lat": 38.87285416666667, "type": "electric_bike", "fusion_lon": 0.0, "is_reserved": 0, "bike_id": "01847d9cd1de3fb0b51bd798978a2dfd", "fusion_lat": 0.0, "is_disabled": 0, "rental_uris": {"ios": "https://dc.lft.to/lastmile_qr_scan", "android": "https://dc.lft.to/lastmile_qr_scan"}}, {"name": "2a294a215d2fd85660d31507140843ce", "lon": -77.03242616666667, "lat": 38.9615505, "type": "electric_scooter", "fusion_lon": 0.0, "is_reserved": 0, "bike_id": "2a294a215d2fd85660d31507140843ce", "fusion_lat": 0.0, "is_disabled": 0, "rental_uris": {"ios": "https://dc.lft.to/lastmile_qr_scan", "android": "https://dc.lft.to/lastmile_qr_scan"}}, {"name": "224eb2b7063b5f52eddeab8c19c28d3e", "lon": -77.04167333333334, "lat": 38.91818, "type": "electric_scooter", "fusion_lon": 0.0, "is_reserved": 0, "bike_id": "224eb2b7063b5f52eddeab8c19c28d3e", "fusion_lat": 0.0, "is_disabled": 0, "rental_uris": {"ios": "https://dc.lft.to/lastmile_qr_scan", "android": "https://dc.lft.to/lastmile_qr_scan"}}, {"name": "355387c5d03f28301713ca05de470389", "lon": -77.02809433333333, "lat": 38.904709833333335, "type": "electric_scooter", "fusion_lon": 0.0, "is_reserved": 0, "bike_id": "355387c5d03f28301713ca05de470389", "fusion_lat": 0.0, "is_disabled": 0, "rental_uris": {"ios": "https://dc.lft.to/lastmile_qr_scan", "android": "https://dc.lft.to/lastmile_qr_scan"}}, {"name": "1b8225c8c4d3d1fa7983d23696266252", "lon": -77.0433935, "lat": 38.90784466666667, "type": "electric_scooter", "fusion_lon": 0.0, "is_reserved": 0, "bike_id": "1b8225c8c4d3d1fa7983d23696266252", "fusion_lat": 0.0, "is_disabled": 0, "rental_uris": {"ios": "https://dc.lft.to/lastmile_qr_scan", "android": "https://dc.lft.to/lastmile_qr_scan"}}, {"name": "fb7e0dc333f22a90c5351c724cb31b26", "lon": -77.02163033333333, "lat": 38.8833285, "type": "electric_scooter", "fusion_lon": 0.0, "is_reserved": 0, "bike_id": "fb7e0dc333f22a90c5351c724cb31b26", "fusion_lat": 0.0, "is_disabled": 0, "rental_uris": {"ios": "https://dc.lft.to/lastmile_qr_scan", "android": "https://dc.lft.to/lastmile_qr_scan"}}, {"name": "bef47eabeee36c1e0bc8afea82565422", "lon": -77.04482116666667, "lat": 38.9242495, "type": "electric_scooter", "fusion_lon": 0.0, "is_reserved": 0, "bike_id": "bef47eabeee36c1e0bc8afea82565422", "fusion_lat": 0.0, "is_disabled": 0, "rental_uris": {"ios": "https://dc.lft.to/lastmile_qr_scan", "android": "https://dc.lft.to/lastmile_qr_scan"}}, {"name": "ec86d28a69e6e7657466e867514e41f1", "lon": -77.0264225, "lat": 38.933860833333334, "type": "electric_scooter", "fusion_lon": 0.0, "is_reserved": 0, "bike_id": "ec86d28a69e6e7657466e867514e41f1", "fusion_lat": 0.0, "is_disabled": 0, "rental_uris": {"ios": "https://dc.lft.to/lastmile_qr_scan", "android": "https://dc.lft.to/lastmile_qr_scan"}}, {"name": "23dea371bc546f52fd5a8567a9be4321", "lon": -77.03437783333334, "lat": 38.908086833333336, "type": "electric_scooter", "fusion_lon": 0.0, "is_reserved": 0, "bike_id": "23dea371bc546f52fd5a8567a9be4321", "fusion_lat": 0.0, "is_disabled": 0, "rental_uris": {"ios": "https://dc.lft.to/lastmile_qr_scan", "android": "https://dc.lft.to/lastmile_qr_scan"}}, {"name": "00144b439a0ca967da0cf4ab71829547", "lon": -77.035525, "lat": 38.934030166666666, "type": "electric_bike", "fusion_lon": 0.0, "is_reserved": 0, "bike_id": "00144b439a0ca967da0cf4ab71829547", "fusion_lat": 0.0, "is_disabled": 0, "rental_uris": {"ios": "https://dc.lft.to/lastmile_qr_scan", "android": "https://dc.lft.to/lastmile_qr_scan"}}, {"name": "e794529014275adb8b67d589db495a50", "lon": -77.0049065, "lat": 38.87474266666667, "type": "electric_scooter", "fusion_lon": 0.0, "is_reserved": 0, "bike_id": "e794529014275adb8b67d589db495a50", "fusion_lat": 0.0, "is_disabled": 0, "rental_uris": {"ios": "https://dc.lft.to/lastmile_qr_scan", "android": "https://dc.lft.to/lastmile_qr_scan"}}, {"name": "b5ad55e756ab5266928f9359eec6f07b", "lon": -77.033357, "lat": 38.898186333333335, "type": "electric_scooter", "fusion_lon": 0.0, "is_reserved": 0, "bike_id": "b5ad55e756ab5266928f9359eec6f07b", "fusion_lat": 0.0, "is_disabled": 0, "rental_uris": {"ios": "https://dc.lft.to/lastmile_qr_scan", "android": "https://dc.lft.to/lastmile_qr_scan"}}, {"name": "51762d35157357e357ade2f5fbeab97a", "lon": -77.03226433333333, "lat": 38.89655366666667, "type": "electric_scooter", "fusion_lon": 0.0, "is_reserved": 0, "bike_id": "51762d35157357e357ade2f5fbeab97a", "fusion_lat": 0.0, "is_disabled": 0, "rental_uris": {"ios": "https://dc.lft.to/lastmile_qr_scan", "android": "https://dc.lft.to/lastmile_qr_scan"}}, {"name": "ae6155c1cf238d48e30bfb9d495be55d", "lon": -77.01736033333333, "lat": 38.88326766666667, "type": "electric_scooter", "fusion_lon": 0.0, "is_reserved": 0, "bike_id": "ae6155c1cf238d48e30bfb9d495be55d", "fusion_lat": 0.0, "is_disabled": 0, "rental_uris": {"ios": "https://dc.lft.to/lastmile_qr_scan", "android": "https://dc.lft.to/lastmile_qr_scan"}}, {"name": "315b289b8c1f1c1cec6b892eac4eb712", "lon": -76.9962195, "lat": 38.9002445, "type": "electric_scooter", "fusion_lon": 0.0, "is_reserved": 0, "bike_id": "315b289b8c1f1c1cec6b892eac4eb712", "fusion_lat": 0.0, "is_disabled": 0, "rental_uris": {"ios": "https://dc.lft.to/lastmile_qr_scan", "android": "https://dc.lft.to/lastmile_qr_scan"}}, {"name": "a6bcbec36736ef78dee0a9f3a6ff709f", "lon": -77.0393575, "lat": 38.902683333333336, "type": "electric_scooter", "fusion_lon": 0.0, "is_reserved": 0, "bike_id": "a6bcbec36736ef78dee0a9f3a6ff709f", "fusion_lat": 0.0, "is_disabled": 0, "rental_uris": {"ios": "https://dc.lft.to/lastmile_qr_scan", "android": "https://dc.lft.to/lastmile_qr_scan"}}, {"name": "8a585d6feaaf45334090540438c9b847", "lon": -77.03811933333333, "lat": 38.914072, "type": "electric_scooter", "fusion_lon": 0.0, "is_reserved": 0, "bike_id": "8a585d6feaaf45334090540438c9b847", "fusion_lat": 0.0, "is_disabled": 0, "rental_uris": {"ios": "https://dc.lft.to/lastmile_qr_scan", "android": "https://dc.lft.to/lastmile_qr_scan"}}, {"name": "5bf5dc55ed80d6a0e2cf4588d498dce9", "lon": -77.02762866666667, "lat": 38.95424666666667, "type": "electric_scooter", "fusion_lon": 0.0, "is_reserved": 0, "bike_id": "5bf5dc55ed80d6a0e2cf4588d498dce9", "fusion_lat": 0.0, "is_disabled": 0, "rental_uris": {"ios": "https://dc.lft.to/lastmile_qr_scan", "android": "https://dc.lft.to/lastmile_qr_scan"}}, {"name": "00f665709e98c3dd3e73f0abe2e16331", "lon": -76.93362533333334, "lat": 38.89894916666667, "type": "electric_scooter", "fusion_lon": 0.0, "is_reserved": 0, "bike_id": "00f665709e98c3dd3e73f0abe2e16331", "fusion_lat": 0.0, "is_disabled": 0, "rental_uris": {"ios": "https://dc.lft.to/lastmile_qr_scan", "android": "https://dc.lft.to/lastmile_qr_scan"}}, {"name": "559e45c071283ddad2ddbe4f2c7f2d69", "lon": -77.0217745, "lat": 38.9156465, "type": "electric_scooter", "fusion_lon": 0.0, "is_reserved": 0, "bike_id": "559e45c071283ddad2ddbe4f2c7f2d69", "fusion_lat": 0.0, "is_disabled": 0, "rental_uris": {"ios": "https://dc.lft.to/lastmile_qr_scan", "android": "https://dc.lft.to/lastmile_qr_scan"}}, {"name": "64b7a6d6d0ceda0d4b3039be88d874f7", "lon": -77.05004983333333, "lat": 38.892292833333336, "type": "electric_scooter", "fusion_lon": 0.0, "is_reserved": 0, "bike_id": "64b7a6d6d0ceda0d4b3039be88d874f7", "fusion_lat": 0.0, "is_disabled": 0, "rental_uris": {"ios": "https://dc.lft.to/lastmile_qr_scan", "android": "https://dc.lft.to/lastmile_qr_scan"}}, {"name": "bfdad9321547dda0f28da72697cf4a56", "lon": -76.9773325, "lat": 38.8951415, "type": "electric_scooter", "fusion_lon": 0.0, "is_reserved": 0, "bike_id": "bfdad9321547dda0f28da72697cf4a56", "fusion_lat": 0.0, "is_disabled": 0, "rental_uris": {"ios": "https://dc.lft.to/lastmile_qr_scan", "android": "https://dc.lft.to/lastmile_qr_scan"}}, {"name": "a000eb79b635d3b839f287daacb4c5c1", "lon": -76.9791645, "lat": 38.863479833333336, "type": "electric_scooter", "fusion_lon": 0.0, "is_reserved": 0, "bike_id": "a000eb79b635d3b839f287daacb4c5c1", "fusion_lat": 0.0, "is_disabled": 0, "rental_uris": {"ios": "https://dc.lft.to/lastmile_qr_scan", "android": "https://dc.lft.to/lastmile_qr_scan"}}, {"name": "6bc34e6c137e8a2ff4b9074ad7f2b5d2", "lon": -77.03910283333333, "lat": 38.918306, "type": "electric_scooter", "fusion_lon": 0.0, "is_reserved": 0, "bike_id": "6bc34e6c137e8a2ff4b9074ad7f2b5d2", "fusion_lat": 0.0, "is_disabled": 0, "rental_uris": {"ios": "https://dc.lft.to/lastmile_qr_scan", "android": "https://dc.lft.to/lastmile_qr_scan"}}, {"name": "eee8638cc8c3cd939648821650d0637b", "lon": -77.03544933333333, "lat": 38.917133, "type": "electric_scooter", "fusion_lon": 0.0, "is_reserved": 0, "bike_id": "eee8638cc8c3cd939648821650d0637b", "fusion_lat": 0.0, "is_disabled": 0, "rental_uris": {"ios": "https://dc.lft.to/lastmile_qr_scan", "android": "https://dc.lft.to/lastmile_qr_scan"}}, {"name": "8d164ed7a9475c320328ff9f6d4142fa", "lon": -77.06161366666667, "lat": 38.9130125, "type": "electric_scooter", "fusion_lon": 0.0, "is_reserved": 0, "bike_id": "8d164ed7a9475c320328ff9f6d4142fa", "fusion_lat": 0.0, "is_disabled": 0, "rental_uris": {"ios": "https://dc.lft.to/lastmile_qr_scan", "android": "https://dc.lft.to/lastmile_qr_scan"}}, {"name": "67f3a447e802c00fe2c0ce92857f0773", "lon": -77.03823583333333, "lat": 38.93130516666667, "type": "electric_scooter", "fusion_lon": 0.0, "is_reserved": 0, "bike_id": "67f3a447e802c00fe2c0ce92857f0773", "fusion_lat": 0.0, "is_disabled": 0, "rental_uris": {"ios": "https://dc.lft.to/lastmile_qr_scan", "android": "https://dc.lft.to/lastmile_qr_scan"}}, {"name": "97c0c2bbbfd8e641844fe1a8e652c893", "lon": -77.0321385, "lat": 38.91787433333333, "type": "electric_scooter", "fusion_lon": 0.0, "is_reserved": 0, "bike_id": "97c0c2bbbfd8e641844fe1a8e652c893", "fusion_lat": 0.0, "is_disabled": 0, "rental_uris": {"ios": "https://dc.lft.to/lastmile_qr_scan", "android": "https://dc.lft.to/lastmile_qr_scan"}}, {"name": "d218e343185a7bccc5ac0f29eadfd29a", "lon": -76.96526433333334, "lat": 38.87624316666667, "type": "electric_scooter", "fusion_lon": 0.0, "is_reserved": 0, "bike_id": "d218e343185a7bccc5ac0f29eadfd29a", "fusion_lat": 0.0, "is_disabled": 0, "rental_uris": {"ios": "https://dc.lft.to/lastmile_qr_scan", "android": "https://dc.lft.to/lastmile_qr_scan"}}, {"name": "73d1a900872eae1486688d79b230b3c9", "lon": -77.005959, "lat": 38.90553666666667, "type": "electric_scooter", "fusion_lon": 0.0, "is_reserved": 0, "bike_id": "73d1a900872eae1486688d79b230b3c9", "fusion_lat": 0.0, "is_disabled": 0, "rental_uris": {"ios": "https://dc.lft.to/lastmile_qr_scan", "android": "https://dc.lft.to/lastmile_qr_scan"}}, {"name": "eaa49087b4294eec54eb0c82e89b3784", "lon": -77.002068, "lat": 38.900730833333334, "type": "electric_scooter", "fusion_lon": 0.0, "is_reserved": 0, "bike_id": "eaa49087b4294eec54eb0c82e89b3784", "fusion_lat": 0.0, "is_disabled": 0, "rental_uris": {"ios": "https://dc.lft.to/lastmile_qr_scan", "android": "https://dc.lft.to/lastmile_qr_scan"}}, {"name": "b769fe3a76d1f838e59debd3995b2676", "lon": -77.004411, "lat": 38.912387833333334, "type": "electric_scooter", "fusion_lon": 0.0, "is_reserved": 0, "bike_id": "b769fe3a76d1f838e59debd3995b2676", "fusion_lat": 0.0, "is_disabled": 0, "rental_uris": {"ios": "https://dc.lft.to/lastmile_qr_scan", "android": "https://dc.lft.to/lastmile_qr_scan"}}, {"name": "db0f87406f82e5b5674b75127b40ec61", "lon": -77.0387405, "lat": 38.934238666666666, "type": "electric_scooter", "fusion_lon": 0.0, "is_reserved": 0, "bike_id": "db0f87406f82e5b5674b75127b40ec61", "fusion_lat": 0.0, "is_disabled": 0, "rental_uris": {"ios": "https://dc.lft.to/lastmile_qr_scan", "android": "https://dc.lft.to/lastmile_qr_scan"}}, {"name": "605f128e11b126e2d342a1987b67e8a5", "lon": -77.01076216666667, "lat": 38.90731533333334, "type": "electric_scooter", "fusion_lon": 0.0, "is_reserved": 0, "bike_id": "605f128e11b126e2d342a1987b67e8a5", "fusion_lat": 0.0, "is_disabled": 0, "rental_uris": {"ios": "https://dc.lft.to/lastmile_qr_scan", "android": "https://dc.lft.to/lastmile_qr_scan"}}, {"name": "9cefad44337c96fc38bf32f84f1cca33", "lon": -77.03938016666666, "lat": 38.917563333333334, "type": "electric_scooter", "fusion_lon": 0.0, "is_reserved": 0, "bike_id": "9cefad44337c96fc38bf32f84f1cca33", "fusion_lat": 0.0, "is_disabled": 0, "rental_uris": {"ios": "https://dc.lft.to/lastmile_qr_scan", "android": "https://dc.lft.to/lastmile_qr_scan"}}, {"name": "72cf06766b4a3663dce6b76831d83bb6", "lon": -77.02461066666666, "lat": 38.938841833333335, "type": "electric_bike", "fusion_lon": 0.0, "is_reserved": 0, "bike_id": "72cf06766b4a3663dce6b76831d83bb6", "fusion_lat": 0.0, "is_disabled": 0, "rental_uris": {"ios": "https://dc.lft.to/lastmile_qr_scan", "android": "https://dc.lft.to/lastmile_qr_scan"}}, {"name": "e24016a792b4fb7f7ad72a24660f8f7d", "lon": -77.02953516666666, "lat": 38.92855983333333, "type": "electric_scooter", "fusion_lon": 0.0, "is_reserved": 0, "bike_id": "e24016a792b4fb7f7ad72a24660f8f7d", "fusion_lat": 0.0, "is_disabled": 0, "rental_uris": {"ios": "https://dc.lft.to/lastmile_qr_scan", "android": "https://dc.lft.to/lastmile_qr_scan"}}, {"name": "e1dd14496438417062cd66a4fe01330c", "lon": -77.04353283333333, "lat": 38.910474, "type": "electric_scooter", "fusion_lon": 0.0, "is_reserved": 0, "bike_id": "e1dd14496438417062cd66a4fe01330c", "fusion_lat": 0.0, "is_disabled": 0, "rental_uris": {"ios": "https://dc.lft.to/lastmile_qr_scan", "android": "https://dc.lft.to/lastmile_qr_scan"}}, {"name": "e625c440e668974f48d49102b4d374c1", "lon": -77.03266766666667, "lat": 38.932458833333335, "type": "electric_scooter", "fusion_lon": 0.0, "is_reserved": 0, "bike_id": "e625c440e668974f48d49102b4d374c1", "fusion_lat": 0.0, "is_disabled": 0, "rental_uris": {"ios": "https://dc.lft.to/lastmile_qr_scan", "android": "https://dc.lft.to/lastmile_qr_scan"}}, {"name": "069fad415536390cc04e3c0f03187e86", "lon": -77.0294755, "lat": 38.91561216666667, "type": "electric_scooter", "fusion_lon": 0.0, "is_reserved": 0, "bike_id": "069fad415536390cc04e3c0f03187e86", "fusion_lat": 0.0, "is_disabled": 0, "rental_uris": {"ios": "https://dc.lft.to/lastmile_qr_scan", "android": "https://dc.lft.to/lastmile_qr_scan"}}, {"name": "23c9808e3cd19e7e8eb32de5d15a45a5", "lon": -77.0827605, "lat": 38.93007266666667, "type": "electric_scooter", "fusion_lon": 0.0, "is_reserved": 0, "bike_id": "23c9808e3cd19e7e8eb32de5d15a45a5", "fusion_lat": 0.0, "is_disabled": 0, "rental_uris": {"ios": "https://dc.lft.to/lastmile_qr_scan", "android": "https://dc.lft.to/lastmile_qr_scan"}}, {"name": "c76fea6589f2ed34393a2440edbd6de8", "lon": -77.04374166666666, "lat": 38.90614433333333, "type": "electric_scooter", "fusion_lon": 0.0, "is_reserved": 0, "bike_id": "c76fea6589f2ed34393a2440edbd6de8", "fusion_lat": 0.0, "is_disabled": 0, "rental_uris": {"ios": "https://dc.lft.to/lastmile_qr_scan", "android": "https://dc.lft.to/lastmile_qr_scan"}}, {"name": "adc133f5bef4026d5ce263cbe1182316", "lon": -77.04353133333333, "lat": 38.91039633333333, "type": "electric_scooter", "fusion_lon": 0.0, "is_reserved": 0, "bike_id": "adc133f5bef4026d5ce263cbe1182316", "fusion_lat": 0.0, "is_disabled": 0, "rental_uris": {"ios": "https://dc.lft.to/lastmile_qr_scan", "android": "https://dc.lft.to/lastmile_qr_scan"}}, {"name": "a909c7725b762adf1b7d70d67a3caffa", "lon": -77.01296266666667, "lat": 38.900471, "type": "electric_scooter", "fusion_lon": 0.0, "is_reserved": 0, "bike_id": "a909c7725b762adf1b7d70d67a3caffa", "fusion_lat": 0.0, "is_disabled": 0, "rental_uris": {"ios": "https://dc.lft.to/lastmile_qr_scan", "android": "https://dc.lft.to/lastmile_qr_scan"}}, {"name": "f9ec6c369d933b06bb91060bf1a3e580", "lon": -77.0425655, "lat": 38.92064083333333, "type": "electric_scooter", "fusion_lon": 0.0, "is_reserved": 0, "bike_id": "f9ec6c369d933b06bb91060bf1a3e580", "fusion_lat": 0.0, "is_disabled": 0, "rental_uris": {"ios": "https://dc.lft.to/lastmile_qr_scan", "android": "https://dc.lft.to/lastmile_qr_scan"}}, {"name": "db3b4378c7b02042b793c033573474bd", "lon": -77.01219533333334, "lat": 38.921404333333335, "type": "electric_scooter", "fusion_lon": 0.0, "is_reserved": 0, "bike_id": "db3b4378c7b02042b793c033573474bd", "fusion_lat": 0.0, "is_disabled": 0, "rental_uris": {"ios": "https://dc.lft.to/lastmile_qr_scan", "android": "https://dc.lft.to/lastmile_qr_scan"}}, {"name": "a83ba78833aa474dff86d750625d2b83", "lon": -77.046017, "lat": 38.919269666666665, "type": "electric_scooter", "fusion_lon": 0.0, "is_reserved": 0, "bike_id": "a83ba78833aa474dff86d750625d2b83", "fusion_lat": 0.0, "is_disabled": 0, "rental_uris": {"ios": "https://dc.lft.to/lastmile_qr_scan", "android": "https://dc.lft.to/lastmile_qr_scan"}}, {"name": "0e8afe73a101b45c2081339bda902f44", "lon": -77.02405833333333, "lat": 38.90956833333333, "type": "electric_scooter", "fusion_lon": 0.0, "is_reserved": 0, "bike_id": "0e8afe73a101b45c2081339bda902f44", "fusion_lat": 0.0, "is_disabled": 0, "rental_uris": {"ios": "https://dc.lft.to/lastmile_qr_scan", "android": "https://dc.lft.to/lastmile_qr_scan"}}, {"name": "1ebab51eeec0760bb66ea873ab559647", "lon": -77.0306075, "lat": 38.923852833333335, "type": "electric_scooter", "fusion_lon": 0.0, "is_reserved": 0, "bike_id": "1ebab51eeec0760bb66ea873ab559647", "fusion_lat": 0.0, "is_disabled": 0, "rental_uris": {"ios": "https://dc.lft.to/lastmile_qr_scan", "android": "https://dc.lft.to/lastmile_qr_scan"}}, {"name": "6170e4e9cc25540afb80cbee74d08db4", "lon": -77.0363905, "lat": 38.927401, "type": "electric_scooter", "fusion_lon": 0.0, "is_reserved": 0, "bike_id": "6170e4e9cc25540afb80cbee74d08db4", "fusion_lat": 0.0, "is_disabled": 0, "rental_uris": {"ios": "https://dc.lft.to/lastmile_qr_scan", "android": "https://dc.lft.to/lastmile_qr_scan"}}, {"name": "3da41d3cf6d07748fe07237e0d293d2a", "lon": -77.02716366666667, "lat": 38.9311325, "type": "electric_bike", "fusion_lon": 0.0, "is_reserved": 0, "bike_id": "3da41d3cf6d07748fe07237e0d293d2a", "fusion_lat": 0.0, "is_disabled": 0, "rental_uris": {"ios": "https://dc.lft.to/lastmile_qr_scan", "android": "https://dc.lft.to/lastmile_qr_scan"}}, {"name": "5906d6d1c9532617e580fe144bea0007", "lon": -77.02310933333334, "lat": 38.91837, "type": "electric_scooter", "fusion_lon": 0.0, "is_reserved": 0, "bike_id": "5906d6d1c9532617e580fe144bea0007", "fusion_lat": 0.0, "is_disabled": 0, "rental_uris": {"ios": "https://dc.lft.to/lastmile_qr_scan", "android": "https://dc.lft.to/lastmile_qr_scan"}}, {"name": "77a3159360b95ab10cc820a0da0a88d6", "lon": -77.00586616666666, "lat": 38.905505, "type": "electric_scooter", "fusion_lon": 0.0, "is_reserved": 0, "bike_id": "77a3159360b95ab10cc820a0da0a88d6", "fusion_lat": 0.0, "is_disabled": 0, "rental_uris": {"ios": "https://dc.lft.to/lastmile_qr_scan", "android": "https://dc.lft.to/lastmile_qr_scan"}}, {"name": "9ee74159009abb09d72ada39a63a625f", "lon": -77.006588, "lat": 38.94464266666667, "type": "electric_scooter", "fusion_lon": 0.0, "is_reserved": 0, "bike_id": "9ee74159009abb09d72ada39a63a625f", "fusion_lat": 0.0, "is_disabled": 0, "rental_uris": {"ios": "https://dc.lft.to/lastmile_qr_scan", "android": "https://dc.lft.to/lastmile_qr_scan"}}, {"name": "00a03748ed9cd3104fa9254b8d877bbb", "lon": -77.05225783333333, "lat": 38.91057383333333, "type": "electric_scooter", "fusion_lon": 0.0, "is_reserved": 0, "bike_id": "00a03748ed9cd3104fa9254b8d877bbb", "fusion_lat": 0.0, "is_disabled": 0, "rental_uris": {"ios": "https://dc.lft.to/lastmile_qr_scan", "android": "https://dc.lft.to/lastmile_qr_scan"}}, {"name": "84909724bf5cfc49062f058a628d8c37", "lon": -77.11708016666667, "lat": 38.86744866666667, "type": "electric_bike", "fusion_lon": 0.0, "is_reserved": 0, "bike_id": "84909724bf5cfc49062f058a628d8c37", "fusion_lat": 0.0, "is_disabled": 0, "rental_uris": {"ios": "https://dc.lft.to/lastmile_qr_scan", "android": "https://dc.lft.to/lastmile_qr_scan"}}, {"name": "42c186160683484faf2f35e85707efc0", "lon": -76.986321, "lat": 38.88043833333333, "type": "electric_bike", "fusion_lon": 0.0, "is_reserved": 0, "bike_id": "42c186160683484faf2f35e85707efc0", "fusion_lat": 0.0, "is_disabled": 0, "rental_uris": {"ios": "https://dc.lft.to/lastmile_qr_scan", "android": "https://dc.lft.to/lastmile_qr_scan"}}, {"name": "3c4d105cbdfbeb1ac7019c5e9d1898c7", "lon": -77.00210666666666, "lat": 38.81940916666667, "type": "electric_bike", "fusion_lon": 0.0, "is_reserved": 0, "bike_id": "3c4d105cbdfbeb1ac7019c5e9d1898c7", "fusion_lat": 0.0, "is_disabled": 0, "rental_uris": {"ios": "https://dc.lft.to/lastmile_qr_scan", "android": "https://dc.lft.to/lastmile_qr_scan"}}, {"name": "05a850014706616dfadf183a8c9eee27", "lon": -77.05754916666666, "lat": 38.924618333333335, "type": "electric_bike", "fusion_lon": 0.0, "is_reserved": 0, "bike_id": "05a850014706616dfadf183a8c9eee27", "fusion_lat": 0.0, "is_disabled": 0, "rental_uris": {"ios": "https://dc.lft.to/lastmile_qr_scan", "android": "https://dc.lft.to/lastmile_qr_scan"}}, {"name": "1bff5e0ed99d054bd6f7d7fd9fdb0d59", "lon": -77.04173433333334, "lat": 38.9154865, "type": "electric_scooter", "fusion_lon": 0.0, "is_reserved": 0, "bike_id": "1bff5e0ed99d054bd6f7d7fd9fdb0d59", "fusion_lat": 0.0, "is_disabled": 0, "rental_uris": {"ios": "https://dc.lft.to/lastmile_qr_scan", "android": "https://dc.lft.to/lastmile_qr_scan"}}, {"name": "d02066ebde68ec971d4005eb3e07e1c2", "lon": -77.03107616666667, "lat": 38.94645166666667, "type": "electric_scooter", "fusion_lon": 0.0, "is_reserved": 0, "bike_id": "d02066ebde68ec971d4005eb3e07e1c2", "fusion_lat": 0.0, "is_disabled": 0, "rental_uris": {"ios": "https://dc.lft.to/lastmile_qr_scan", "android": "https://dc.lft.to/lastmile_qr_scan"}}, {"name": "9479d207f91ec3e7ad1ad8989b9e8730", "lon": -76.9980545, "lat": 38.90851, "type": "electric_scooter", "fusion_lon": 0.0, "is_reserved": 0, "bike_id": "9479d207f91ec3e7ad1ad8989b9e8730", "fusion_lat": 0.0, "is_disabled": 0, "rental_uris": {"ios": "https://dc.lft.to/lastmile_qr_scan", "android": "https://dc.lft.to/lastmile_qr_scan"}}, {"name": "09c3e82c1649170faee114b04ab31f58", "lon": -77.0240785, "lat": 38.920675333333335, "type": "electric_scooter", "fusion_lon": 0.0, "is_reserved": 0, "bike_id": "09c3e82c1649170faee114b04ab31f58", "fusion_lat": 0.0, "is_disabled": 0, "rental_uris": {"ios": "https://dc.lft.to/lastmile_qr_scan", "android": "https://dc.lft.to/lastmile_qr_scan"}}, {"name": "d2dd8e77a08f389b495bcbb9dbae5c81", "lon": -77.04180633333333, "lat": 38.915539833333334, "type": "electric_scooter", "fusion_lon": 0.0, "is_reserved": 0, "bike_id": "d2dd8e77a08f389b495bcbb9dbae5c81", "fusion_lat": 0.0, "is_disabled": 0, "rental_uris": {"ios": "https://dc.lft.to/lastmile_qr_scan", "android": "https://dc.lft.to/lastmile_qr_scan"}}, {"name": "1d4eefe0f23f70b02fee6ba3b30fdcea", "lon": -77.00376766666666, "lat": 38.8827185, "type": "electric_scooter", "fusion_lon": 0.0, "is_reserved": 0, "bike_id": "1d4eefe0f23f70b02fee6ba3b30fdcea", "fusion_lat": 0.0, "is_disabled": 0, "rental_uris": {"ios": "https://dc.lft.to/lastmile_qr_scan", "android": "https://dc.lft.to/lastmile_qr_scan"}}, {"name": "eeea9471587e5bd232b123a5a9039d8b", "lon": -77.0615255, "lat": 38.9025545, "type": "electric_scooter", "fusion_lon": 0.0, "is_reserved": 0, "bike_id": "eeea9471587e5bd232b123a5a9039d8b", "fusion_lat": 0.0, "is_disabled": 0, "rental_uris": {"ios": "https://dc.lft.to/lastmile_qr_scan", "android": "https://dc.lft.to/lastmile_qr_scan"}}, {"name": "99a0a36db06d7c7a88c7bc602edc25f5", "lon": -77.0632945, "lat": 38.9441845, "type": "electric_scooter", "fusion_lon": 0.0, "is_reserved": 0, "bike_id": "99a0a36db06d7c7a88c7bc602edc25f5", "fusion_lat": 0.0, "is_disabled": 0, "rental_uris": {"ios": "https://dc.lft.to/lastmile_qr_scan", "android": "https://dc.lft.to/lastmile_qr_scan"}}, {"name": "6d34200aa4d4dac2e13442a8c9b7b46c", "lon": -77.05001166666666, "lat": 38.892329333333336, "type": "electric_scooter", "fusion_lon": 0.0, "is_reserved": 0, "bike_id": "6d34200aa4d4dac2e13442a8c9b7b46c", "fusion_lat": 0.0, "is_disabled": 0, "rental_uris": {"ios": "https://dc.lft.to/lastmile_qr_scan", "android": "https://dc.lft.to/lastmile_qr_scan"}}, {"name": "4aed71e62dc0e901f6b057fbf784c4f2", "lon": -77.017623, "lat": 38.876869666666664, "type": "electric_scooter", "fusion_lon": 0.0, "is_reserved": 0, "bike_id": "4aed71e62dc0e901f6b057fbf784c4f2", "fusion_lat": 0.0, "is_disabled": 0, "rental_uris": {"ios": "https://dc.lft.to/lastmile_qr_scan", "android": "https://dc.lft.to/lastmile_qr_scan"}}, {"name": "77b08624705a7a9a64235a2e5b442ee6", "lon": -77.09469783333333, "lat": 38.885947333333334, "type": "electric_bike", "fusion_lon": 0.0, "is_reserved": 0, "bike_id": "77b08624705a7a9a64235a2e5b442ee6", "fusion_lat": 0.0, "is_disabled": 0, "rental_uris": {"ios": "https://dc.lft.to/lastmile_qr_scan", "android": "https://dc.lft.to/lastmile_qr_scan"}}, {"name": "01a9d135da6955a4966f17fe19f57b81", "lon": -77.038523, "lat": 38.9216515, "type": "electric_scooter", "fusion_lon": 0.0, "is_reserved": 0, "bike_id": "01a9d135da6955a4966f17fe19f57b81", "fusion_lat": 0.0, "is_disabled": 0, "rental_uris": {"ios": "https://dc.lft.to/lastmile_qr_scan", "android": "https://dc.lft.to/lastmile_qr_scan"}}, {"name": "0a7efffc5e57536b9db332c11179371d", "lon": -77.032534, "lat": 38.929509333333336, "type": "electric_scooter", "fusion_lon": 0.0, "is_reserved": 0, "bike_id": "0a7efffc5e57536b9db332c11179371d", "fusion_lat": 0.0, "is_disabled": 0, "rental_uris": {"ios": "https://dc.lft.to/lastmile_qr_scan", "android": "https://dc.lft.to/lastmile_qr_scan"}}, {"name": "7f0bf0c2d35fd94f8c2e6a21f1fb7bf2", "lon": -76.99310183333333, "lat": 38.900105, "type": "electric_scooter", "fusion_lon": 0.0, "is_reserved": 0, "bike_id": "7f0bf0c2d35fd94f8c2e6a21f1fb7bf2", "fusion_lat": 0.0, "is_disabled": 0, "rental_uris": {"ios": "https://dc.lft.to/lastmile_qr_scan", "android": "https://dc.lft.to/lastmile_qr_scan"}}, {"name": "382e4935bdb1b004c08d18f63caa5c68", "lon": -77.03842166666666, "lat": 38.914455833333335, "type": "electric_scooter", "fusion_lon": 0.0, "is_reserved": 0, "bike_id": "382e4935bdb1b004c08d18f63caa5c68", "fusion_lat": 0.0, "is_disabled": 0, "rental_uris": {"ios": "https://dc.lft.to/lastmile_qr_scan", "android": "https://dc.lft.to/lastmile_qr_scan"}}, {"name": "fb1fb5f954a7a5ea201f92d7b7b9d00a", "lon": -77.0140465, "lat": 38.88743066666667, "type": "electric_scooter", "fusion_lon": 0.0, "is_reserved": 0, "bike_id": "fb1fb5f954a7a5ea201f92d7b7b9d00a", "fusion_lat": 0.0, "is_disabled": 0, "rental_uris": {"ios": "https://dc.lft.to/lastmile_qr_scan", "android": "https://dc.lft.to/lastmile_qr_scan"}}, {"name": "3f64bdf4bd7c9c4bab2d2ddb60f4aaf7", "lon": -77.02682983333334, "lat": 38.9023905, "type": "electric_scooter", "fusion_lon": 0.0, "is_reserved": 0, "bike_id": "3f64bdf4bd7c9c4bab2d2ddb60f4aaf7", "fusion_lat": 0.0, "is_disabled": 0, "rental_uris": {"ios": "https://dc.lft.to/lastmile_qr_scan", "android": "https://dc.lft.to/lastmile_qr_scan"}}, {"name": "b65c6a49d655f68df87f769ba2968bce", "lon": -77.03649016666667, "lat": 38.903762666666665, "type": "electric_scooter", "fusion_lon": 0.0, "is_reserved": 0, "bike_id": "b65c6a49d655f68df87f769ba2968bce", "fusion_lat": 0.0, "is_disabled": 0, "rental_uris": {"ios": "https://dc.lft.to/lastmile_qr_scan", "android": "https://dc.lft.to/lastmile_qr_scan"}}, {"name": "b02521556cf5eaff57982e7c916417e7", "lon": -77.044814, "lat": 38.92240283333334, "type": "electric_scooter", "fusion_lon": 0.0, "is_reserved": 0, "bike_id": "b02521556cf5eaff57982e7c916417e7", "fusion_lat": 0.0, "is_disabled": 0, "rental_uris": {"ios": "https://dc.lft.to/lastmile_qr_scan", "android": "https://dc.lft.to/lastmile_qr_scan"}}, {"name": "ffdce0ca496460e3eb12c4d71581a066", "lon": -76.93735916666667, "lat": 38.89017316666666, "type": "electric_scooter", "fusion_lon": 0.0, "is_reserved": 0, "bike_id": "ffdce0ca496460e3eb12c4d71581a066", "fusion_lat": 0.0, "is_disabled": 0, "rental_uris": {"ios": "https://dc.lft.to/lastmile_qr_scan", "android": "https://dc.lft.to/lastmile_qr_scan"}}, {"name": "8f05019cff933b63e4797cac8dbdd6f0", "lon": -77.0354805, "lat": 38.907796166666664, "type": "electric_scooter", "fusion_lon": 0.0, "is_reserved": 0, "bike_id": "8f05019cff933b63e4797cac8dbdd6f0", "fusion_lat": 0.0, "is_disabled": 0, "rental_uris": {"ios": "https://dc.lft.to/lastmile_qr_scan", "android": "https://dc.lft.to/lastmile_qr_scan"}}, {"name": "a8c4a7fdefac4d6fb142062cce74b0f5", "lon": -77.02898066666667, "lat": 38.88752366666667, "type": "electric_scooter", "fusion_lon": 0.0, "is_reserved": 0, "bike_id": "a8c4a7fdefac4d6fb142062cce74b0f5", "fusion_lat": 0.0, "is_disabled": 0, "rental_uris": {"ios": "https://dc.lft.to/lastmile_qr_scan", "android": "https://dc.lft.to/lastmile_qr_scan"}}, {"name": "ac16fe745d186069adc9f4fbac699015", "lon": -76.94810033333333, "lat": 38.861906833333336, "type": "electric_bike", "fusion_lon": 0.0, "is_reserved": 0, "bike_id": "ac16fe745d186069adc9f4fbac699015", "fusion_lat": 0.0, "is_disabled": 0, "rental_uris": {"ios": "https://dc.lft.to/lastmile_qr_scan", "android": "https://dc.lft.to/lastmile_qr_scan"}}, {"name": "1127c1347463f3d884e9903f73587cb9", "lon": -77.03259816666667, "lat": 38.927572166666664, "type": "electric_scooter", "fusion_lon": 0.0, "is_reserved": 0, "bike_id": "1127c1347463f3d884e9903f73587cb9", "fusion_lat": 0.0, "is_disabled": 0, "rental_uris": {"ios": "https://dc.lft.to/lastmile_qr_scan", "android": "https://dc.lft.to/lastmile_qr_scan"}}, {"name": "c56b15e3fcdded389b391b2625e2d973", "lon": -77.04132766666666, "lat": 38.9216755, "type": "electric_scooter", "fusion_lon": 0.0, "is_reserved": 0, "bike_id": "c56b15e3fcdded389b391b2625e2d973", "fusion_lat": 0.0, "is_disabled": 0, "rental_uris": {"ios": "https://dc.lft.to/lastmile_qr_scan", "android": "https://dc.lft.to/lastmile_qr_scan"}}, {"name": "bae88a5f2b4ec3acfd827c83a3abfc7e", "lon": -77.00334483333333, "lat": 38.8898585, "type": "electric_scooter", "fusion_lon": 0.0, "is_reserved": 0, "bike_id": "bae88a5f2b4ec3acfd827c83a3abfc7e", "fusion_lat": 0.0, "is_disabled": 0, "rental_uris": {"ios": "https://dc.lft.to/lastmile_qr_scan", "android": "https://dc.lft.to/lastmile_qr_scan"}}, {"name": "afd5ddb99b16cd815075984575893607", "lon": -77.0464925, "lat": 38.905534833333334, "type": "electric_scooter", "fusion_lon": 0.0, "is_reserved": 0, "bike_id": "afd5ddb99b16cd815075984575893607", "fusion_lat": 0.0, "is_disabled": 0, "rental_uris": {"ios": "https://dc.lft.to/lastmile_qr_scan", "android": "https://dc.lft.to/lastmile_qr_scan"}}, {"name": "5f7d8d88220e37563ca96076ddecf9b2", "lon": -77.03121516666667, "lat": 38.915580166666665, "type": "electric_scooter", "fusion_lon": 0.0, "is_reserved": 0, "bike_id": "5f7d8d88220e37563ca96076ddecf9b2", "fusion_lat": 0.0, "is_disabled": 0, "rental_uris": {"ios": "https://dc.lft.to/lastmile_qr_scan", "android": "https://dc.lft.to/lastmile_qr_scan"}}, {"name": "bbce611d2eaa082963b163ef5c5e5834", "lon": -77.04181333333334, "lat": 38.892232666666665, "type": "electric_scooter", "fusion_lon": 0.0, "is_reserved": 0, "bike_id": "bbce611d2eaa082963b163ef5c5e5834", "fusion_lat": 0.0, "is_disabled": 0, "rental_uris": {"ios": "https://dc.lft.to/lastmile_qr_scan", "android": "https://dc.lft.to/lastmile_qr_scan"}}, {"name": "26032c9f8185b4184ff3a1a9f5151c16", "lon": -76.9883875, "lat": 38.90031966666667, "type": "electric_scooter", "fusion_lon": 0.0, "is_reserved": 0, "bike_id": "26032c9f8185b4184ff3a1a9f5151c16", "fusion_lat": 0.0, "is_disabled": 0, "rental_uris": {"ios": "https://dc.lft.to/lastmile_qr_scan", "android": "https://dc.lft.to/lastmile_qr_scan"}}, {"name": "db67a616341b3be87705852397433e93", "lon": -77.023656, "lat": 38.9021115, "type": "electric_scooter", "fusion_lon": 0.0, "is_reserved": 0, "bike_id": "db67a616341b3be87705852397433e93", "fusion_lat": 0.0, "is_disabled": 0, "rental_uris": {"ios": "https://dc.lft.to/lastmile_qr_scan", "android": "https://dc.lft.to/lastmile_qr_scan"}}, {"name": "32bb39bc59171f95fb7fa3e127ce85bb", "lon": -77.03469616666666, "lat": 38.917067, "type": "electric_scooter", "fusion_lon": 0.0, "is_reserved": 0, "bike_id": "32bb39bc59171f95fb7fa3e127ce85bb", "fusion_lat": 0.0, "is_disabled": 0, "rental_uris": {"ios": "https://dc.lft.to/lastmile_qr_scan", "android": "https://dc.lft.to/lastmile_qr_scan"}}, {"name": "e7139d0ce248539bedace32cd565eca0", "lon": -77.0250935, "lat": 38.905609166666665, "type": "electric_scooter", "fusion_lon": 0.0, "is_reserved": 0, "bike_id": "e7139d0ce248539bedace32cd565eca0", "fusion_lat": 0.0, "is_disabled": 0, "rental_uris": {"ios": "https://dc.lft.to/lastmile_qr_scan", "android": "https://dc.lft.to/lastmile_qr_scan"}}, {"name": "1d2d9d62bf46ec00a9b53fcfbdbc723f", "lon": -77.04083833333334, "lat": 38.923803, "type": "electric_scooter", "fusion_lon": 0.0, "is_reserved": 0, "bike_id": "1d2d9d62bf46ec00a9b53fcfbdbc723f", "fusion_lat": 0.0, "is_disabled": 0, "rental_uris": {"ios": "https://dc.lft.to/lastmile_qr_scan", "android": "https://dc.lft.to/lastmile_qr_scan"}}, {"name": "2b1791d61720f1a70642894464f43e22", "lon": -77.1609025, "lat": 38.88688766666667, "type": "electric_bike", "fusion_lon": 0.0, "is_reserved": 0, "bike_id": "2b1791d61720f1a70642894464f43e22", "fusion_lat": 0.0, "is_disabled": 0, "rental_uris": {"ios": "https://dc.lft.to/lastmile_qr_scan", "android": "https://dc.lft.to/lastmile_qr_scan"}}, {"name": "cd54bee52215f439a81c9fae9bc8661b", "lon": -77.07921833333333, "lat": 38.80228833333334, "type": "electric_bike", "fusion_lon": 0.0, "is_reserved": 0, "bike_id": "cd54bee52215f439a81c9fae9bc8661b", "fusion_lat": 0.0, "is_disabled": 0, "rental_uris": {"ios": "https://dc.lft.to/lastmile_qr_scan", "android": "https://dc.lft.to/lastmile_qr_scan"}}, {"name": "363e205f1c13612aff85f20d67764c9c", "lon": -77.0217195, "lat": 38.90559916666667, "type": "electric_scooter", "fusion_lon": 0.0, "is_reserved": 0, "bike_id": "363e205f1c13612aff85f20d67764c9c", "fusion_lat": 0.0, "is_disabled": 0, "rental_uris": {"ios": "https://dc.lft.to/lastmile_qr_scan", "android": "https://dc.lft.to/lastmile_qr_scan"}}, {"name": "56eb65c91e9d1037374806bf7c74357b", "lon": -76.99516966666667, "lat": 38.88373283333333, "type": "electric_scooter", "fusion_lon": 0.0, "is_reserved": 0, "bike_id": "56eb65c91e9d1037374806bf7c74357b", "fusion_lat": 0.0, "is_disabled": 0, "rental_uris": {"ios": "https://dc.lft.to/lastmile_qr_scan", "android": "https://dc.lft.to/lastmile_qr_scan"}}, {"name": "1ae369854f13de5b0b6fc9702767d625", "lon": -77.01474466666667, "lat": 38.87649666666667, "type": "electric_bike", "fusion_lon": 0.0, "is_reserved": 0, "bike_id": "1ae369854f13de5b0b6fc9702767d625", "fusion_lat": 0.0, "is_disabled": 0, "rental_uris": {"ios": "https://dc.lft.to/lastmile_qr_scan", "android": "https://dc.lft.to/lastmile_qr_scan"}}, {"name": "ef8a385f346d7bd1b1ad2b6bbc881bcb", "lon": -77.04010166666667, "lat": 38.92573466666666, "type": "electric_scooter", "fusion_lon": 0.0, "is_reserved": 0, "bike_id": "ef8a385f346d7bd1b1ad2b6bbc881bcb", "fusion_lat": 0.0, "is_disabled": 0, "rental_uris": {"ios": "https://dc.lft.to/lastmile_qr_scan", "android": "https://dc.lft.to/lastmile_qr_scan"}}, {"name": "b4cd443f4cc3a58a35152e040cf77691", "lon": -77.01822233333333, "lat": 38.9203715, "type": "electric_scooter", "fusion_lon": 0.0, "is_reserved": 0, "bike_id": "b4cd443f4cc3a58a35152e040cf77691", "fusion_lat": 0.0, "is_disabled": 0, "rental_uris": {"ios": "https://dc.lft.to/lastmile_qr_scan", "android": "https://dc.lft.to/lastmile_qr_scan"}}, {"name": "3354b286a5463367b3bd675d761d84c2", "lon": -77.02647216666666, "lat": 38.89215766666667, "type": "electric_scooter", "fusion_lon": 0.0, "is_reserved": 0, "bike_id": "3354b286a5463367b3bd675d761d84c2", "fusion_lat": 0.0, "is_disabled": 0, "rental_uris": {"ios": "https://dc.lft.to/lastmile_qr_scan", "android": "https://dc.lft.to/lastmile_qr_scan"}}, {"name": "4adb1fdec6609a54b41d3c10fc9dc044", "lon": -76.980578, "lat": 38.95702216666667, "type": "electric_bike", "fusion_lon": 0.0, "is_reserved": 0, "bike_id": "4adb1fdec6609a54b41d3c10fc9dc044", "fusion_lat": 0.0, "is_disabled": 0, "rental_uris": {"ios": "https://dc.lft.to/lastmile_qr_scan", "android": "https://dc.lft.to/lastmile_qr_scan"}}, {"name": "62b9e6dd26c83b47daa21a6971c62d82", "lon": -76.98882916666666, "lat": 38.8665425, "type": "electric_scooter", "fusion_lon": 0.0, "is_reserved": 0, "bike_id": "62b9e6dd26c83b47daa21a6971c62d82", "fusion_lat": 0.0, "is_disabled": 0, "rental_uris": {"ios": "https://dc.lft.to/lastmile_qr_scan", "android": "https://dc.lft.to/lastmile_qr_scan"}}, {"name": "11b3d1c26c60bc170024ff6e8807efb0", "lon": -77.02946916666667, "lat": 38.9050035, "type": "electric_scooter", "fusion_lon": 0.0, "is_reserved": 0, "bike_id": "11b3d1c26c60bc170024ff6e8807efb0", "fusion_lat": 0.0, "is_disabled": 0, "rental_uris": {"ios": "https://dc.lft.to/lastmile_qr_scan", "android": "https://dc.lft.to/lastmile_qr_scan"}}, {"name": "647860274cfa5d88976b1ae7bd1edfa9", "lon": -77.02985666666666, "lat": 38.8956225, "type": "electric_scooter", "fusion_lon": 0.0, "is_reserved": 0, "bike_id": "647860274cfa5d88976b1ae7bd1edfa9", "fusion_lat": 0.0, "is_disabled": 0, "rental_uris": {"ios": "https://dc.lft.to/lastmile_qr_scan", "android": "https://dc.lft.to/lastmile_qr_scan"}}, {"name": "df03eaa14755acf0197c4764d53956c1", "lon": -77.36094, "lat": 38.93961616666667, "type": "electric_bike", "fusion_lon": 0.0, "is_reserved": 0, "bike_id": "df03eaa14755acf0197c4764d53956c1", "fusion_lat": 0.0, "is_disabled": 0, "rental_uris": {"ios": "https://dc.lft.to/lastmile_qr_scan", "android": "https://dc.lft.to/lastmile_qr_scan"}}, {"name": "5adcf64baab10e59806409ccfce364b3", "lon": -77.033234, "lat": 38.926401166666665, "type": "electric_scooter", "fusion_lon": 0.0, "is_reserved": 0, "bike_id": "5adcf64baab10e59806409ccfce364b3", "fusion_lat": 0.0, "is_disabled": 0, "rental_uris": {"ios": "https://dc.lft.to/lastmile_qr_scan", "android": "https://dc.lft.to/lastmile_qr_scan"}}, {"name": "9a8538bba1c62c7c407c2ae2bda54344", "lon": -76.97708466666667, "lat": 38.94915683333333, "type": "electric_bike", "fusion_lon": 0.0, "is_reserved": 0, "bike_id": "9a8538bba1c62c7c407c2ae2bda54344", "fusion_lat": 0.0, "is_disabled": 0, "rental_uris": {"ios": "https://dc.lft.to/lastmile_qr_scan", "android": "https://dc.lft.to/lastmile_qr_scan"}}, {"name": "07e17c95f895e9f4299a7455a935fde2", "lon": -77.02182633333334, "lat": 38.901563, "type": "electric_scooter", "fusion_lon": 0.0, "is_reserved": 0, "bike_id": "07e17c95f895e9f4299a7455a935fde2", "fusion_lat": 0.0, "is_disabled": 0, "rental_uris": {"ios": "https://dc.lft.to/lastmile_qr_scan", "android": "https://dc.lft.to/lastmile_qr_scan"}}, {"name": "77cc5bdbcff18a27cdc32983672c9845", "lon": -77.01759983333334, "lat": 38.87718316666667, "type": "electric_scooter", "fusion_lon": 0.0, "is_reserved": 0, "bike_id": "77cc5bdbcff18a27cdc32983672c9845", "fusion_lat": 0.0, "is_disabled": 0, "rental_uris": {"ios": "https://dc.lft.to/lastmile_qr_scan", "android": "https://dc.lft.to/lastmile_qr_scan"}}, {"name": "fef9425d0c02d550fcf059c2f0f3394d", "lon": -76.95141266666667, "lat": 38.89036883333333, "type": "electric_scooter", "fusion_lon": 0.0, "is_reserved": 0, "bike_id": "fef9425d0c02d550fcf059c2f0f3394d", "fusion_lat": 0.0, "is_disabled": 0, "rental_uris": {"ios": "https://dc.lft.to/lastmile_qr_scan", "android": "https://dc.lft.to/lastmile_qr_scan"}}, {"name": "48e84784ad7232ec436fa84232fb73f0", "lon": -77.01694366666666, "lat": 38.974984, "type": "electric_scooter", "fusion_lon": 0.0, "is_reserved": 0, "bike_id": "48e84784ad7232ec436fa84232fb73f0", "fusion_lat": 0.0, "is_disabled": 0, "rental_uris": {"ios": "https://dc.lft.to/lastmile_qr_scan", "android": "https://dc.lft.to/lastmile_qr_scan"}}, {"name": "b10c2079992b078d1babddf761bef6ae", "lon": -77.02622416666667, "lat": 38.9622215, "type": "electric_bike", "fusion_lon": 0.0, "is_reserved": 0, "bike_id": "b10c2079992b078d1babddf761bef6ae", "fusion_lat": 0.0, "is_disabled": 0, "rental_uris": {"ios": "https://dc.lft.to/lastmile_qr_scan", "android": "https://dc.lft.to/lastmile_qr_scan"}}, {"name": "1f42c98b60a670212d3f52e275dd2476", "lon": -77.00745683333334, "lat": 38.92675416666667, "type": "electric_scooter", "fusion_lon": 0.0, "is_reserved": 0, "bike_id": "1f42c98b60a670212d3f52e275dd2476", "fusion_lat": 0.0, "is_disabled": 0, "rental_uris": {"ios": "https://dc.lft.to/lastmile_qr_scan", "android": "https://dc.lft.to/lastmile_qr_scan"}}, {"name": "723880a54e51096d82e4ea865395e33f", "lon": -77.03269133333333, "lat": 38.89995866666667, "type": "electric_scooter", "fusion_lon": 0.0, "is_reserved": 0, "bike_id": "723880a54e51096d82e4ea865395e33f", "fusion_lat": 0.0, "is_disabled": 0, "rental_uris": {"ios": "https://dc.lft.to/lastmile_qr_scan", "android": "https://dc.lft.to/lastmile_qr_scan"}}, {"name": "0482e7795afc31f289b4c209b9007215", "lon": -77.0397705, "lat": 38.91185766666667, "type": "electric_scooter", "fusion_lon": 0.0, "is_reserved": 0, "bike_id": "0482e7795afc31f289b4c209b9007215", "fusion_lat": 0.0, "is_disabled": 0, "rental_uris": {"ios": "https://dc.lft.to/lastmile_qr_scan", "android": "https://dc.lft.to/lastmile_qr_scan"}}, {"name": "68912f9919849d8ce46e7709e451d736", "lon": -77.04647616666666, "lat": 38.905533166666665, "type": "electric_scooter", "fusion_lon": 0.0, "is_reserved": 0, "bike_id": "68912f9919849d8ce46e7709e451d736", "fusion_lat": 0.0, "is_disabled": 0, "rental_uris": {"ios": "https://dc.lft.to/lastmile_qr_scan", "android": "https://dc.lft.to/lastmile_qr_scan"}}, {"name": "43adeeba16dea3c8ef401318cf9c8842", "lon": -77.0250205, "lat": 38.9207205, "type": "electric_scooter", "fusion_lon": 0.0, "is_reserved": 0, "bike_id": "43adeeba16dea3c8ef401318cf9c8842", "fusion_lat": 0.0, "is_disabled": 0, "rental_uris": {"ios": "https://dc.lft.to/lastmile_qr_scan", "android": "https://dc.lft.to/lastmile_qr_scan"}}, {"name": "405c67a45cbb3b7a88a092d43f012b4b", "lon": -76.8837525, "lat": 38.9983335, "type": "electric_bike", "fusion_lon": 0.0, "is_reserved": 0, "bike_id": "405c67a45cbb3b7a88a092d43f012b4b", "fusion_lat": 0.0, "is_disabled": 0, "rental_uris": {"ios": "https://dc.lft.to/lastmile_qr_scan", "android": "https://dc.lft.to/lastmile_qr_scan"}}, {"name": "22e3760ffa22ae8c4beda7460c22c252", "lon": -77.01036633333334, "lat": 38.86660216666667, "type": "electric_scooter", "fusion_lon": 0.0, "is_reserved": 0, "bike_id": "22e3760ffa22ae8c4beda7460c22c252", "fusion_lat": 0.0, "is_disabled": 0, "rental_uris": {"ios": "https://dc.lft.to/lastmile_qr_scan", "android": "https://dc.lft.to/lastmile_qr_scan"}}, {"name": "7cb644aa0d6892674795a3176ab69e2a", "lon": -77.05584766666666, "lat": 38.89321133333333, "type": "electric_scooter", "fusion_lon": 0.0, "is_reserved": 0, "bike_id": "7cb644aa0d6892674795a3176ab69e2a", "fusion_lat": 0.0, "is_disabled": 0, "rental_uris": {"ios": "https://dc.lft.to/lastmile_qr_scan", "android": "https://dc.lft.to/lastmile_qr_scan"}}, {"name": "70035b4d353f4efe08a5022613fe71f7", "lon": -77.00742983333333, "lat": 38.898403, "type": "electric_scooter", "fusion_lon": 0.0, "is_reserved": 0, "bike_id": "70035b4d353f4efe08a5022613fe71f7", "fusion_lat": 0.0, "is_disabled": 0, "rental_uris": {"ios": "https://dc.lft.to/lastmile_qr_scan", "android": "https://dc.lft.to/lastmile_qr_scan"}}, {"name": "4216866c0169c2a43f42b523aeb2a1b1", "lon": -77.0499365, "lat": 38.90410966666666, "type": "electric_scooter", "fusion_lon": 0.0, "is_reserved": 0, "bike_id": "4216866c0169c2a43f42b523aeb2a1b1", "fusion_lat": 0.0, "is_disabled": 0, "rental_uris": {"ios": "https://dc.lft.to/lastmile_qr_scan", "android": "https://dc.lft.to/lastmile_qr_scan"}}, {"name": "42c3df01e09d06d6e4ba9ef82802f485", "lon": -77.0427205, "lat": 38.91333016666667, "type": "electric_scooter", "fusion_lon": 0.0, "is_reserved": 0, "bike_id": "42c3df01e09d06d6e4ba9ef82802f485", "fusion_lat": 0.0, "is_disabled": 0, "rental_uris": {"ios": "https://dc.lft.to/lastmile_qr_scan", "android": "https://dc.lft.to/lastmile_qr_scan"}}, {"name": "9a6d4770855c7275f1092f2a58b60caf", "lon": -77.01166716666667, "lat": 38.872296, "type": "electric_bike", "fusion_lon": 0.0, "is_reserved": 0, "bike_id": "9a6d4770855c7275f1092f2a58b60caf", "fusion_lat": 0.0, "is_disabled": 0, "rental_uris": {"ios": "https://dc.lft.to/lastmile_qr_scan", "android": "https://dc.lft.to/lastmile_qr_scan"}}, {"name": "f49ddcd512a5aaacef9c98d63c5205c2", "lon": -77.02529666666666, "lat": 38.94259816666667, "type": "electric_scooter", "fusion_lon": 0.0, "is_reserved": 0, "bike_id": "f49ddcd512a5aaacef9c98d63c5205c2", "fusion_lat": 0.0, "is_disabled": 0, "rental_uris": {"ios": "https://dc.lft.to/lastmile_qr_scan", "android": "https://dc.lft.to/lastmile_qr_scan"}}, {"name": "8e467bbc479d5fe6e12be4bac6740af3", "lon": -77.0461925, "lat": 38.909619, "type": "electric_scooter", "fusion_lon": 0.0, "is_reserved": 0, "bike_id": "8e467bbc479d5fe6e12be4bac6740af3", "fusion_lat": 0.0, "is_disabled": 0, "rental_uris": {"ios": "https://dc.lft.to/lastmile_qr_scan", "android": "https://dc.lft.to/lastmile_qr_scan"}}, {"name": "5ea6ebf696a1842cc1751f12fcb2c372", "lon": -77.01487483333334, "lat": 38.88134483333333, "type": "electric_scooter", "fusion_lon": 0.0, "is_reserved": 0, "bike_id": "5ea6ebf696a1842cc1751f12fcb2c372", "fusion_lat": 0.0, "is_disabled": 0, "rental_uris": {"ios": "https://dc.lft.to/lastmile_qr_scan", "android": "https://dc.lft.to/lastmile_qr_scan"}}, {"name": "55e0e6009b3b4596c80907c0e404937b", "lon": -76.98889833333334, "lat": 38.866591666666665, "type": "electric_scooter", "fusion_lon": 0.0, "is_reserved": 0, "bike_id": "55e0e6009b3b4596c80907c0e404937b", "fusion_lat": 0.0, "is_disabled": 0, "rental_uris": {"ios": "https://dc.lft.to/lastmile_qr_scan", "android": "https://dc.lft.to/lastmile_qr_scan"}}, {"name": "d68d6889c72b4b13c306177068ca18a5", "lon": -76.97839083333334, "lat": 38.87207083333333, "type": "electric_scooter", "fusion_lon": 0.0, "is_reserved": 0, "bike_id": "d68d6889c72b4b13c306177068ca18a5", "fusion_lat": 0.0, "is_disabled": 0, "rental_uris": {"ios": "https://dc.lft.to/lastmile_qr_scan", "android": "https://dc.lft.to/lastmile_qr_scan"}}, {"name": "545a02a859773212adc8ae970e375455", "lon": -77.037821, "lat": 38.9168885, "type": "electric_scooter", "fusion_lon": 0.0, "is_reserved": 0, "bike_id": "545a02a859773212adc8ae970e375455", "fusion_lat": 0.0, "is_disabled": 0, "rental_uris": {"ios": "https://dc.lft.to/lastmile_qr_scan", "android": "https://dc.lft.to/lastmile_qr_scan"}}, {"name": "54e5822dcf21ed7813fbba9de6b5a504", "lon": -76.98548333333333, "lat": 38.9042205, "type": "electric_scooter", "fusion_lon": 0.0, "is_reserved": 0, "bike_id": "54e5822dcf21ed7813fbba9de6b5a504", "fusion_lat": 0.0, "is_disabled": 0, "rental_uris": {"ios": "https://dc.lft.to/lastmile_qr_scan", "android": "https://dc.lft.to/lastmile_qr_scan"}}, {"name": "eed28eac66d7122c7de765acff6927dd", "lon": -77.04187416666667, "lat": 38.9197135, "type": "electric_scooter", "fusion_lon": 0.0, "is_reserved": 0, "bike_id": "eed28eac66d7122c7de765acff6927dd", "fusion_lat": 0.0, "is_disabled": 0, "rental_uris": {"ios": "https://dc.lft.to/lastmile_qr_scan", "android": "https://dc.lft.to/lastmile_qr_scan"}}, {"name": "e20e596ac04f01719fa0025e1027e620", "lon": -77.04156966666666, "lat": 38.91592433333334, "type": "electric_scooter", "fusion_lon": 0.0, "is_reserved": 0, "bike_id": "e20e596ac04f01719fa0025e1027e620", "fusion_lat": 0.0, "is_disabled": 0, "rental_uris": {"ios": "https://dc.lft.to/lastmile_qr_scan", "android": "https://dc.lft.to/lastmile_qr_scan"}}, {"name": "de6119f472cbd40716e27751a4e0c80b", "lon": -77.0296835, "lat": 38.90748333333333, "type": "electric_scooter", "fusion_lon": 0.0, "is_reserved": 0, "bike_id": "de6119f472cbd40716e27751a4e0c80b", "fusion_lat": 0.0, "is_disabled": 0, "rental_uris": {"ios": "https://dc.lft.to/lastmile_qr_scan", "android": "https://dc.lft.to/lastmile_qr_scan"}}, {"name": "21dbcc1c909128ec6237b9ddf989b10d", "lon": -77.11569616666667, "lat": 38.99333566666667, "type": "electric_bike", "fusion_lon": 0.0, "is_reserved": 0, "bike_id": "21dbcc1c909128ec6237b9ddf989b10d", "fusion_lat": 0.0, "is_disabled": 0, "rental_uris": {"ios": "https://dc.lft.to/lastmile_qr_scan", "android": "https://dc.lft.to/lastmile_qr_scan"}}, {"name": "521910d6c61fd765942d02d4df174157", "lon": -77.049288, "lat": 38.90995, "type": "electric_scooter", "fusion_lon": 0.0, "is_reserved": 0, "bike_id": "521910d6c61fd765942d02d4df174157", "fusion_lat": 0.0, "is_disabled": 0, "rental_uris": {"ios": "https://dc.lft.to/lastmile_qr_scan", "android": "https://dc.lft.to/lastmile_qr_scan"}}, {"name": "db675ee986b4bfd4d5bc1f9a20483c9c", "lon": -77.04659183333334, "lat": 38.91363916666667, "type": "electric_scooter", "fusion_lon": 0.0, "is_reserved": 0, "bike_id": "db675ee986b4bfd4d5bc1f9a20483c9c", "fusion_lat": 0.0, "is_disabled": 0, "rental_uris": {"ios": "https://dc.lft.to/lastmile_qr_scan", "android": "https://dc.lft.to/lastmile_qr_scan"}}, {"name": "07368fa095ac55b224f296f172ef61b0", "lon": -77.01968266666667, "lat": 38.95652883333333, "type": "electric_scooter", "fusion_lon": 0.0, "is_reserved": 0, "bike_id": "07368fa095ac55b224f296f172ef61b0", "fusion_lat": 0.0, "is_disabled": 0, "rental_uris": {"ios": "https://dc.lft.to/lastmile_qr_scan", "android": "https://dc.lft.to/lastmile_qr_scan"}}, {"name": "abc4591bbf770662e4d9702f439f3497", "lon": -77.01302633333333, "lat": 38.8947945, "type": "electric_scooter", "fusion_lon": 0.0, "is_reserved": 0, "bike_id": "abc4591bbf770662e4d9702f439f3497", "fusion_lat": 0.0, "is_disabled": 0, "rental_uris": {"ios": "https://dc.lft.to/lastmile_qr_scan", "android": "https://dc.lft.to/lastmile_qr_scan"}}, {"name": "6fed9c577889692c9707f71e8ac58da4", "lon": -77.02971466666666, "lat": 38.90518983333333, "type": "electric_scooter", "fusion_lon": 0.0, "is_reserved": 0, "bike_id": "6fed9c577889692c9707f71e8ac58da4", "fusion_lat": 0.0, "is_disabled": 0, "rental_uris": {"ios": "https://dc.lft.to/lastmile_qr_scan", "android": "https://dc.lft.to/lastmile_qr_scan"}}, {"name": "901153a5eca3e1d1491209d73300453a", "lon": -77.02909616666666, "lat": 38.9170675, "type": "electric_scooter", "fusion_lon": 0.0, "is_reserved": 0, "bike_id": "901153a5eca3e1d1491209d73300453a", "fusion_lat": 0.0, "is_disabled": 0, "rental_uris": {"ios": "https://dc.lft.to/lastmile_qr_scan", "android": "https://dc.lft.to/lastmile_qr_scan"}}, {"name": "289c927ae4683b5e63db3a185d13ad3f", "lon": -77.0300815, "lat": 38.897471333333336, "type": "electric_scooter", "fusion_lon": 0.0, "is_reserved": 0, "bike_id": "289c927ae4683b5e63db3a185d13ad3f", "fusion_lat": 0.0, "is_disabled": 0, "rental_uris": {"ios": "https://dc.lft.to/lastmile_qr_scan", "android": "https://dc.lft.to/lastmile_qr_scan"}}, {"name": "5e0df7166b143b65fb8dad58d088bd7f", "lon": -77.02723966666667, "lat": 38.918194, "type": "electric_scooter", "fusion_lon": 0.0, "is_reserved": 0, "bike_id": "5e0df7166b143b65fb8dad58d088bd7f", "fusion_lat": 0.0, "is_disabled": 0, "rental_uris": {"ios": "https://dc.lft.to/lastmile_qr_scan", "android": "https://dc.lft.to/lastmile_qr_scan"}}, {"name": "294c373709df259a246286bf576e199b", "lon": -77.04428716666666, "lat": 38.92107983333333, "type": "electric_scooter", "fusion_lon": 0.0, "is_reserved": 0, "bike_id": "294c373709df259a246286bf576e199b", "fusion_lat": 0.0, "is_disabled": 0, "rental_uris": {"ios": "https://dc.lft.to/lastmile_qr_scan", "android": "https://dc.lft.to/lastmile_qr_scan"}}, {"name": "b670101cd50291c09f08e73fee4bce28", "lon": -77.04077166666667, "lat": 38.925452666666665, "type": "electric_scooter", "fusion_lon": 0.0, "is_reserved": 0, "bike_id": "b670101cd50291c09f08e73fee4bce28", "fusion_lat": 0.0, "is_disabled": 0, "rental_uris": {"ios": "https://dc.lft.to/lastmile_qr_scan", "android": "https://dc.lft.to/lastmile_qr_scan"}}, {"name": "4da116566cf5ad1bfbcbd6c2b3b6c3fe", "lon": -77.04869933333333, "lat": 38.892715, "type": "electric_scooter", "fusion_lon": 0.0, "is_reserved": 0, "bike_id": "4da116566cf5ad1bfbcbd6c2b3b6c3fe", "fusion_lat": 0.0, "is_disabled": 0, "rental_uris": {"ios": "https://dc.lft.to/lastmile_qr_scan", "android": "https://dc.lft.to/lastmile_qr_scan"}}, {"name": "543e24ec86ce232ae62c56115a014348", "lon": -77.02831433333333, "lat": 38.96509316666667, "type": "electric_bike", "fusion_lon": 0.0, "is_reserved": 0, "bike_id": "543e24ec86ce232ae62c56115a014348", "fusion_lat": 0.0, "is_disabled": 0, "rental_uris": {"ios": "https://dc.lft.to/lastmile_qr_scan", "android": "https://dc.lft.to/lastmile_qr_scan"}}, {"name": "33878d0e9c743742a63c413dead9d0a7", "lon": -77.04616166666666, "lat": 38.92319116666667, "type": "electric_scooter", "fusion_lon": 0.0, "is_reserved": 0, "bike_id": "33878d0e9c743742a63c413dead9d0a7", "fusion_lat": 0.0, "is_disabled": 0, "rental_uris": {"ios": "https://dc.lft.to/lastmile_qr_scan", "android": "https://dc.lft.to/lastmile_qr_scan"}}, {"name": "b08ddcaa25f481a53d02325399b2b6da", "lon": -76.98880183333333, "lat": 38.866561833333336, "type": "electric_scooter", "fusion_lon": 0.0, "is_reserved": 0, "bike_id": "b08ddcaa25f481a53d02325399b2b6da", "fusion_lat": 0.0, "is_disabled": 0, "rental_uris": {"ios": "https://dc.lft.to/lastmile_qr_scan", "android": "https://dc.lft.to/lastmile_qr_scan"}}, {"name": "ca3d8b66dfc3c17056d6ee9515a73732", "lon": -77.18737916666667, "lat": 38.89356266666667, "type": "electric_bike", "fusion_lon": 0.0, "is_reserved": 0, "bike_id": "ca3d8b66dfc3c17056d6ee9515a73732", "fusion_lat": 0.0, "is_disabled": 0, "rental_uris": {"ios": "https://dc.lft.to/lastmile_qr_scan", "android": "https://dc.lft.to/lastmile_qr_scan"}}, {"name": "9df8b070ae265f3cbbfa97d44421854f", "lon": -77.03665416666666, "lat": 38.91724033333333, "type": "electric_scooter", "fusion_lon": 0.0, "is_reserved": 0, "bike_id": "9df8b070ae265f3cbbfa97d44421854f", "fusion_lat": 0.0, "is_disabled": 0, "rental_uris": {"ios": "https://dc.lft.to/lastmile_qr_scan", "android": "https://dc.lft.to/lastmile_qr_scan"}}, {"name": "5dc55023e2c7f12c71cd58b3997053ed", "lon": -77.06286666666666, "lat": 38.96492, "type": "electric_scooter", "fusion_lon": 0.0, "is_reserved": 0, "bike_id": "5dc55023e2c7f12c71cd58b3997053ed", "fusion_lat": 0.0, "is_disabled": 0, "rental_uris": {"ios": "https://dc.lft.to/lastmile_qr_scan", "android": "https://dc.lft.to/lastmile_qr_scan"}}, {"name": "00a7ca6d2992c7890a4c8d6e86547547", "lon": -77.01610733333334, "lat": 38.89960383333333, "type": "electric_scooter", "fusion_lon": 0.0, "is_reserved": 0, "bike_id": "00a7ca6d2992c7890a4c8d6e86547547", "fusion_lat": 0.0, "is_disabled": 0, "rental_uris": {"ios": "https://dc.lft.to/lastmile_qr_scan", "android": "https://dc.lft.to/lastmile_qr_scan"}}, {"name": "c67911d502ef45a9a1088bedf482f35d", "lon": -77.012034, "lat": 38.8709255, "type": "electric_scooter", "fusion_lon": 0.0, "is_reserved": 0, "bike_id": "c67911d502ef45a9a1088bedf482f35d", "fusion_lat": 0.0, "is_disabled": 0, "rental_uris": {"ios": "https://dc.lft.to/lastmile_qr_scan", "android": "https://dc.lft.to/lastmile_qr_scan"}}, {"name": "cae1558b37f5a60702c7168aff3cf9fb", "lon": -77.0345605, "lat": 38.905642, "type": "electric_scooter", "fusion_lon": 0.0, "is_reserved": 0, "bike_id": "cae1558b37f5a60702c7168aff3cf9fb", "fusion_lat": 0.0, "is_disabled": 0, "rental_uris": {"ios": "https://dc.lft.to/lastmile_qr_scan", "android": "https://dc.lft.to/lastmile_qr_scan"}}, {"name": "327383b9c84d48616985526158fc7c6a", "lon": -77.03641783333333, "lat": 38.923395666666664, "type": "electric_scooter", "fusion_lon": 0.0, "is_reserved": 0, "bike_id": "327383b9c84d48616985526158fc7c6a", "fusion_lat": 0.0, "is_disabled": 0, "rental_uris": {"ios": "https://dc.lft.to/lastmile_qr_scan", "android": "https://dc.lft.to/lastmile_qr_scan"}}, {"name": "867633c60f221ea48d5584029f2d91bd", "lon": -77.02959866666667, "lat": 38.90525383333333, "type": "electric_scooter", "fusion_lon": 0.0, "is_reserved": 0, "bike_id": "867633c60f221ea48d5584029f2d91bd", "fusion_lat": 0.0, "is_disabled": 0, "rental_uris": {"ios": "https://dc.lft.to/lastmile_qr_scan", "android": "https://dc.lft.to/lastmile_qr_scan"}}, {"name": "51a58203648f7a9b954a6b5975d16aab", "lon": -77.03872916666667, "lat": 38.921522333333336, "type": "electric_scooter", "fusion_lon": 0.0, "is_reserved": 0, "bike_id": "51a58203648f7a9b954a6b5975d16aab", "fusion_lat": 0.0, "is_disabled": 0, "rental_uris": {"ios": "https://dc.lft.to/lastmile_qr_scan", "android": "https://dc.lft.to/lastmile_qr_scan"}}, {"name": "c1117638014af770ef7aa3b25d62bbf3", "lon": -77.032646, "lat": 38.919954833333335, "type": "electric_scooter", "fusion_lon": 0.0, "is_reserved": 0, "bike_id": "c1117638014af770ef7aa3b25d62bbf3", "fusion_lat": 0.0, "is_disabled": 0, "rental_uris": {"ios": "https://dc.lft.to/lastmile_qr_scan", "android": "https://dc.lft.to/lastmile_qr_scan"}}, {"name": "7a0944f3829bbdf525f35e0cd967da6a", "lon": -77.00197733333333, "lat": 38.900371166666666, "type": "electric_scooter", "fusion_lon": 0.0, "is_reserved": 0, "bike_id": "7a0944f3829bbdf525f35e0cd967da6a", "fusion_lat": 0.0, "is_disabled": 0, "rental_uris": {"ios": "https://dc.lft.to/lastmile_qr_scan", "android": "https://dc.lft.to/lastmile_qr_scan"}}, {"name": "d7a0d1cef723223886de9bf984b00a52", "lon": -77.02194916666667, "lat": 38.9083135, "type": "electric_scooter", "fusion_lon": 0.0, "is_reserved": 0, "bike_id": "d7a0d1cef723223886de9bf984b00a52", "fusion_lat": 0.0, "is_disabled": 0, "rental_uris": {"ios": "https://dc.lft.to/lastmile_qr_scan", "android": "https://dc.lft.to/lastmile_qr_scan"}}, {"name": "f991a9f9a98fc6bb4305732abe90bd9a", "lon": -77.00801666666666, "lat": 38.94918033333333, "type": "electric_bike", "fusion_lon": 0.0, "is_reserved": 0, "bike_id": "f991a9f9a98fc6bb4305732abe90bd9a", "fusion_lat": 0.0, "is_disabled": 0, "rental_uris": {"ios": "https://dc.lft.to/lastmile_qr_scan", "android": "https://dc.lft.to/lastmile_qr_scan"}}, {"name": "70ec8ca74ee5d0d51ced4005e9ba823d", "lon": -77.06711733333333, "lat": 38.9506325, "type": "electric_scooter", "fusion_lon": 0.0, "is_reserved": 0, "bike_id": "70ec8ca74ee5d0d51ced4005e9ba823d", "fusion_lat": 0.0, "is_disabled": 0, "rental_uris": {"ios": "https://dc.lft.to/lastmile_qr_scan", "android": "https://dc.lft.to/lastmile_qr_scan"}}, {"name": "967f7d5e83e9a632d03ac8cea80c12d5", "lon": -77.02967566666666, "lat": 38.927771166666666, "type": "electric_bike", "fusion_lon": 0.0, "is_reserved": 0, "bike_id": "967f7d5e83e9a632d03ac8cea80c12d5", "fusion_lat": 0.0, "is_disabled": 0, "rental_uris": {"ios": "https://dc.lft.to/lastmile_qr_scan", "android": "https://dc.lft.to/lastmile_qr_scan"}}, {"name": "675061a6527fb85e48afb08dc10dac76", "lon": -77.00194033333334, "lat": 38.902441333333336, "type": "electric_scooter", "fusion_lon": 0.0, "is_reserved": 0, "bike_id": "675061a6527fb85e48afb08dc10dac76", "fusion_lat": 0.0, "is_disabled": 0, "rental_uris": {"ios": "https://dc.lft.to/lastmile_qr_scan", "android": "https://dc.lft.to/lastmile_qr_scan"}}, {"name": "74b3026c15ca77b183f1b7397efff411", "lon": -77.04434433333333, "lat": 38.9037965, "type": "electric_scooter", "fusion_lon": 0.0, "is_reserved": 0, "bike_id": "74b3026c15ca77b183f1b7397efff411", "fusion_lat": 0.0, "is_disabled": 0, "rental_uris": {"ios": "https://dc.lft.to/lastmile_qr_scan", "android": "https://dc.lft.to/lastmile_qr_scan"}}, {"name": "8d700b5ab326811bc9eca9f96cbb7558", "lon": -77.03497766666666, "lat": 38.91697816666667, "type": "electric_scooter", "fusion_lon": 0.0, "is_reserved": 0, "bike_id": "8d700b5ab326811bc9eca9f96cbb7558", "fusion_lat": 0.0, "is_disabled": 0, "rental_uris": {"ios": "https://dc.lft.to/lastmile_qr_scan", "android": "https://dc.lft.to/lastmile_qr_scan"}}, {"name": "99a7de3d75229a43b957b73bbab6dbb2", "lon": -77.0242165, "lat": 38.920867, "type": "electric_scooter", "fusion_lon": 0.0, "is_reserved": 0, "bike_id": "99a7de3d75229a43b957b73bbab6dbb2", "fusion_lat": 0.0, "is_disabled": 0, "rental_uris": {"ios": "https://dc.lft.to/lastmile_qr_scan", "android": "https://dc.lft.to/lastmile_qr_scan"}}, {"name": "879bf98b036bb3787a3a0b87cc2a4b9a", "lon": -77.04369416666667, "lat": 38.89220266666667, "type": "electric_scooter", "fusion_lon": 0.0, "is_reserved": 0, "bike_id": "879bf98b036bb3787a3a0b87cc2a4b9a", "fusion_lat": 0.0, "is_disabled": 0, "rental_uris": {"ios": "https://dc.lft.to/lastmile_qr_scan", "android": "https://dc.lft.to/lastmile_qr_scan"}}, {"name": "c330992e13add9435adae06a7051dba3", "lon": -77.04798483333333, "lat": 38.90045766666667, "type": "electric_scooter", "fusion_lon": 0.0, "is_reserved": 0, "bike_id": "c330992e13add9435adae06a7051dba3", "fusion_lat": 0.0, "is_disabled": 0, "rental_uris": {"ios": "https://dc.lft.to/lastmile_qr_scan", "android": "https://dc.lft.to/lastmile_qr_scan"}}, {"name": "91f4843bb96a601885c1ae7a22183c97", "lon": -77.03827483333333, "lat": 38.92479066666667, "type": "electric_scooter", "fusion_lon": 0.0, "is_reserved": 0, "bike_id": "91f4843bb96a601885c1ae7a22183c97", "fusion_lat": 0.0, "is_disabled": 0, "rental_uris": {"ios": "https://dc.lft.to/lastmile_qr_scan", "android": "https://dc.lft.to/lastmile_qr_scan"}}, {"name": "47993a52c05c9ef1bb9de4570f6c18f6", "lon": -77.0349725, "lat": 38.924899, "type": "electric_scooter", "fusion_lon": 0.0, "is_reserved": 0, "bike_id": "47993a52c05c9ef1bb9de4570f6c18f6", "fusion_lat": 0.0, "is_disabled": 0, "rental_uris": {"ios": "https://dc.lft.to/lastmile_qr_scan", "android": "https://dc.lft.to/lastmile_qr_scan"}}, {"name": "54a0e6632c849e688158845961265c0e", "lon": -77.04691766666667, "lat": 39.02395816666667, "type": "electric_bike", "fusion_lon": 0.0, "is_reserved": 0, "bike_id": "54a0e6632c849e688158845961265c0e", "fusion_lat": 0.0, "is_disabled": 0, "rental_uris": {"ios": "https://dc.lft.to/lastmile_qr_scan", "android": "https://dc.lft.to/lastmile_qr_scan"}}, {"name": "4333088b22eb5350fe29b17c48a45c57", "lon": -77.03366416666667, "lat": 38.93589866666667, "type": "electric_scooter", "fusion_lon": 0.0, "is_reserved": 0, "bike_id": "4333088b22eb5350fe29b17c48a45c57", "fusion_lat": 0.0, "is_disabled": 0, "rental_uris": {"ios": "https://dc.lft.to/lastmile_qr_scan", "android": "https://dc.lft.to/lastmile_qr_scan"}}, {"name": "6d96c741a26db21e38f615fb3bd71bf1", "lon": -76.97400766666667, "lat": 38.86510833333333, "type": "electric_scooter", "fusion_lon": 0.0, "is_reserved": 0, "bike_id": "6d96c741a26db21e38f615fb3bd71bf1", "fusion_lat": 0.0, "is_disabled": 0, "rental_uris": {"ios": "https://dc.lft.to/lastmile_qr_scan", "android": "https://dc.lft.to/lastmile_qr_scan"}}, {"name": "d5d56e9e5e78305dbef2bd3cb4d46ce7", "lon": -77.03702533333333, "lat": 38.9355565, "type": "electric_bike", "fusion_lon": 0.0, "is_reserved": 0, "bike_id": "d5d56e9e5e78305dbef2bd3cb4d46ce7", "fusion_lat": 0.0, "is_disabled": 0, "rental_uris": {"ios": "https://dc.lft.to/lastmile_qr_scan", "android": "https://dc.lft.to/lastmile_qr_scan"}}, {"name": "e7dc81b50ca06d9ab107d066c4ab6900", "lon": -77.05005083333333, "lat": 38.90629366666667, "type": "electric_scooter", "fusion_lon": 0.0, "is_reserved": 0, "bike_id": "e7dc81b50ca06d9ab107d066c4ab6900", "fusion_lat": 0.0, "is_disabled": 0, "rental_uris": {"ios": "https://dc.lft.to/lastmile_qr_scan", "android": "https://dc.lft.to/lastmile_qr_scan"}}, {"name": "311cef9d603631ecc03e658c4a51c3e0", "lon": -77.02967216666667, "lat": 38.923276, "type": "electric_scooter", "fusion_lon": 0.0, "is_reserved": 0, "bike_id": "311cef9d603631ecc03e658c4a51c3e0", "fusion_lat": 0.0, "is_disabled": 0, "rental_uris": {"ios": "https://dc.lft.to/lastmile_qr_scan", "android": "https://dc.lft.to/lastmile_qr_scan"}}, {"name": "e47438fb9e73c7e8a9b7795757db109b", "lon": -77.032484, "lat": 38.911866, "type": "electric_scooter", "fusion_lon": 0.0, "is_reserved": 0, "bike_id": "e47438fb9e73c7e8a9b7795757db109b", "fusion_lat": 0.0, "is_disabled": 0, "rental_uris": {"ios": "https://dc.lft.to/lastmile_qr_scan", "android": "https://dc.lft.to/lastmile_qr_scan"}}, {"name": "9644781f89a4d1397df5da82582a84ad", "lon": -77.00758533333334, "lat": 38.910253833333336, "type": "electric_scooter", "fusion_lon": 0.0, "is_reserved": 0, "bike_id": "9644781f89a4d1397df5da82582a84ad", "fusion_lat": 0.0, "is_disabled": 0, "rental_uris": {"ios": "https://dc.lft.to/lastmile_qr_scan", "android": "https://dc.lft.to/lastmile_qr_scan"}}, {"name": "626415fbac0a9e896649c178a5c12ea1", "lon": -77.02409516666667, "lat": 38.919599166666664, "type": "electric_scooter", "fusion_lon": 0.0, "is_reserved": 0, "bike_id": "626415fbac0a9e896649c178a5c12ea1", "fusion_lat": 0.0, "is_disabled": 0, "rental_uris": {"ios": "https://dc.lft.to/lastmile_qr_scan", "android": "https://dc.lft.to/lastmile_qr_scan"}}, {"name": "ec228afbbf3c0f2eb1e3b8c813496b2b", "lon": -77.01760616666667, "lat": 38.8768625, "type": "electric_scooter", "fusion_lon": 0.0, "is_reserved": 0, "bike_id": "ec228afbbf3c0f2eb1e3b8c813496b2b", "fusion_lat": 0.0, "is_disabled": 0, "rental_uris": {"ios": "https://dc.lft.to/lastmile_qr_scan", "android": "https://dc.lft.to/lastmile_qr_scan"}}, {"name": "d508e24d840735cc1ffa6eff0bb62cc7", "lon": -77.12018316666666, "lat": 38.855146833333336, "type": "electric_bike", "fusion_lon": 0.0, "is_reserved": 0, "bike_id": "d508e24d840735cc1ffa6eff0bb62cc7", "fusion_lat": 0.0, "is_disabled": 0, "rental_uris": {"ios": "https://dc.lft.to/lastmile_qr_scan", "android": "https://dc.lft.to/lastmile_qr_scan"}}, {"name": "2dfb5acb9599728a6c30ad8ade9cfd72", "lon": -77.00202516666667, "lat": 38.89351116666667, "type": "electric_scooter", "fusion_lon": 0.0, "is_reserved": 0, "bike_id": "2dfb5acb9599728a6c30ad8ade9cfd72", "fusion_lat": 0.0, "is_disabled": 0, "rental_uris": {"ios": "https://dc.lft.to/lastmile_qr_scan", "android": "https://dc.lft.to/lastmile_qr_scan"}}, {"name": "f2f3a1d7700a094db73f713f18a93afd", "lon": -77.00494233333333, "lat": 38.89687633333333, "type": "electric_scooter", "fusion_lon": 0.0, "is_reserved": 0, "bike_id": "f2f3a1d7700a094db73f713f18a93afd", "fusion_lat": 0.0, "is_disabled": 0, "rental_uris": {"ios": "https://dc.lft.to/lastmile_qr_scan", "android": "https://dc.lft.to/lastmile_qr_scan"}}, {"name": "27a8378420c614c3100bcf915029e2d6", "lon": -77.04190633333333, "lat": 38.893567833333336, "type": "electric_scooter", "fusion_lon": 0.0, "is_reserved": 0, "bike_id": "27a8378420c614c3100bcf915029e2d6", "fusion_lat": 0.0, "is_disabled": 0, "rental_uris": {"ios": "https://dc.lft.to/lastmile_qr_scan", "android": "https://dc.lft.to/lastmile_qr_scan"}}, {"name": "013711034fa5b667b3eb1fe2f98a33ac", "lon": -77.03859366666667, "lat": 38.9101805, "type": "electric_scooter", "fusion_lon": 0.0, "is_reserved": 0, "bike_id": "013711034fa5b667b3eb1fe2f98a33ac", "fusion_lat": 0.0, "is_disabled": 0, "rental_uris": {"ios": "https://dc.lft.to/lastmile_qr_scan", "android": "https://dc.lft.to/lastmile_qr_scan"}}, {"name": "738f870432003eb6e725ced3406cb308", "lon": -77.04515516666666, "lat": 38.892188, "type": "electric_scooter", "fusion_lon": 0.0, "is_reserved": 0, "bike_id": "738f870432003eb6e725ced3406cb308", "fusion_lat": 0.0, "is_disabled": 0, "rental_uris": {"ios": "https://dc.lft.to/lastmile_qr_scan", "android": "https://dc.lft.to/lastmile_qr_scan"}}, {"name": "a35a69f1ec188fd3536a2fbd83a4177e", "lon": -77.039074, "lat": 38.91759233333333, "type": "electric_scooter", "fusion_lon": 0.0, "is_reserved": 0, "bike_id": "a35a69f1ec188fd3536a2fbd83a4177e", "fusion_lat": 0.0, "is_disabled": 0, "rental_uris": {"ios": "https://dc.lft.to/lastmile_qr_scan", "android": "https://dc.lft.to/lastmile_qr_scan"}}, {"name": "6160309aaf24e5d3cf72246c2ff41559", "lon": -77.03665183333334, "lat": 38.91242666666667, "type": "electric_scooter", "fusion_lon": 0.0, "is_reserved": 0, "bike_id": "6160309aaf24e5d3cf72246c2ff41559", "fusion_lat": 0.0, "is_disabled": 0, "rental_uris": {"ios": "https://dc.lft.to/lastmile_qr_scan", "android": "https://dc.lft.to/lastmile_qr_scan"}}, {"name": "24def68752cc06044e5464f75a1f2cf0", "lon": -77.04475266666667, "lat": 38.9186175, "type": "electric_scooter", "fusion_lon": 0.0, "is_reserved": 0, "bike_id": "24def68752cc06044e5464f75a1f2cf0", "fusion_lat": 0.0, "is_disabled": 0, "rental_uris": {"ios": "https://dc.lft.to/lastmile_qr_scan", "android": "https://dc.lft.to/lastmile_qr_scan"}}, {"name": "9aa563ec66729e75361b1eee072b4915", "lon": -76.9418875, "lat": 38.89751483333333, "type": "electric_scooter", "fusion_lon": 0.0, "is_reserved": 0, "bike_id": "9aa563ec66729e75361b1eee072b4915", "fusion_lat": 0.0, "is_disabled": 0, "rental_uris": {"ios": "https://dc.lft.to/lastmile_qr_scan", "android": "https://dc.lft.to/lastmile_qr_scan"}}, {"name": "c8c8a88f4e2187bc12e34ba1a552fdf2", "lon": -77.0640715, "lat": 38.9051345, "type": "electric_scooter", "fusion_lon": 0.0, "is_reserved": 0, "bike_id": "c8c8a88f4e2187bc12e34ba1a552fdf2", "fusion_lat": 0.0, "is_disabled": 0, "rental_uris": {"ios": "https://dc.lft.to/lastmile_qr_scan", "android": "https://dc.lft.to/lastmile_qr_scan"}}, {"name": "d30e65dd31d1ca14550d5ade5a9ffbb3", "lon": -77.02485816666666, "lat": 38.9375755, "type": "electric_scooter", "fusion_lon": 0.0, "is_reserved": 0, "bike_id": "d30e65dd31d1ca14550d5ade5a9ffbb3", "fusion_lat": 0.0, "is_disabled": 0, "rental_uris": {"ios": "https://dc.lft.to/lastmile_qr_scan", "android": "https://dc.lft.to/lastmile_qr_scan"}}, {"name": "dcf91919c8006eb1f49763802368f368", "lon": -77.05133133333334, "lat": 38.90577866666667, "type": "electric_scooter", "fusion_lon": 0.0, "is_reserved": 0, "bike_id": "dcf91919c8006eb1f49763802368f368", "fusion_lat": 0.0, "is_disabled": 0, "rental_uris": {"ios": "https://dc.lft.to/lastmile_qr_scan", "android": "https://dc.lft.to/lastmile_qr_scan"}}, {"name": "4444e6987cb73ad3e95a1fee6cba4bcd", "lon": -77.03254233333334, "lat": 38.9427195, "type": "electric_scooter", "fusion_lon": 0.0, "is_reserved": 0, "bike_id": "4444e6987cb73ad3e95a1fee6cba4bcd", "fusion_lat": 0.0, "is_disabled": 0, "rental_uris": {"ios": "https://dc.lft.to/lastmile_qr_scan", "android": "https://dc.lft.to/lastmile_qr_scan"}}, {"name": "4a0edc3418d3c472b6b6852965570ed7", "lon": -76.99376383333333, "lat": 38.9718725, "type": "electric_bike", "fusion_lon": 0.0, "is_reserved": 0, "bike_id": "4a0edc3418d3c472b6b6852965570ed7", "fusion_lat": 0.0, "is_disabled": 0, "rental_uris": {"ios": "https://dc.lft.to/lastmile_qr_scan", "android": "https://dc.lft.to/lastmile_qr_scan"}},