{"data": {"bikes": [{"is_disabled": 0, "lon": -77.03969916666667, "lat": 38.898725, "name": "52fb62f126eb05bbcaef7c4d1b7b5889", "fusion_lon": 0.0, "fusion_lat": 0.0, "is_reserved": 0, "type": "electric_scooter", "bike_id": "52fb62f126eb05bbcaef7c4d1b7b5889", "rental_uris": {"android": "https://dc.lft.to/lastmile_qr_scan", "ios": "https://dc.lft.to/lastmile_qr_scan"}}, {"is_disabled": 0, "lon": -77.03262583333333, "lat": 38.9330575, "name": "56f29026cb451b64dd8de36ebbe5f5d6", "fusion_lon": 0.0, "fusion_lat": 0.0, "is_reserved": 0, "type": "electric_scooter", "bike_id": "56f29026cb451b64dd8de36ebbe5f5d6", "rental_uris": {"android": "https://dc.lft.to/lastmile_qr_scan", "ios": "https://dc.lft.to/lastmile_qr_scan"}}, {"is_disabled": 0, "lon": -77.09709833333334, "lat": 38.8868565, "name": "72b3cb24469d9af38210c23cab7be923", "fusion_lon": 0.0, "fusion_lat": 0.0, "is_reserved": 0, "type": "electric_bike", "bike_id": "72b3cb24469d9af38210c23cab7be923", "rental_uris": {"android": "https://dc.lft.to/lastmile_qr_scan", "ios": "https://dc.lft.to/lastmile_qr_scan"}}, {"is_disabled": 0, "lon": -77.03634516666666, "lat": 38.927055333333335, "name": "dfc8b60ea4602a19a17273dcf74e11dd", "fusion_lon": 0.0, "fusion_lat": 0.0, "is_reserved": 0, "type": "electric_scooter", "bike_id": "dfc8b60ea4602a19a17273dcf74e11dd", "rental_uris": {"android": "https://dc.lft.to/lastmile_qr_scan", "ios": "https://dc.lft.to/lastmile_qr_scan"}}, {"is_disabled": 0, "lon": -77.02185983333334, "lat": 38.919774, "name": "81388df59bce8d447914a6587eb05d61", "fusion_lon": 0.0, "fusion_lat": 0.0, "is_reserved": 0, "type": "electric_scooter", "bike_id": "81388df59bce8d447914a6587eb05d61", "rental_uris": {"android": "https://dc.lft.to/lastmile_qr_scan", "ios": "https://dc.lft.to/lastmile_qr_scan"}}, {"is_disabled": 0, "lon": -77.0228335, "lat": 38.926837166666665, "name": "6382036d038727f3033ce0448f50b7e8", "fusion_lon": 0.0, "fusion_lat": 0.0, "is_reserved": 0, "type": "electric_scooter", "bike_id": "6382036d038727f3033ce0448f50b7e8", "rental_uris": {"android": "https://dc.lft.to/lastmile_qr_scan", "ios": "https://dc.lft.to/lastmile_qr_scan"}}, {"is_disabled": 0, "lon": -77.0133705, "lat": 38.881272833333334, "name": "f3c6b3baadd6600a5d68a8579e6fcfbe", "fusion_lon": 0.0, "fusion_lat": 0.0, "is_reserved": 0, "type": "electric_scooter", "bike_id": "f3c6b3baadd6600a5d68a8579e6fcfbe", "rental_uris": {"android": "https://dc.lft.to/lastmile_qr_scan", "ios": "https://dc.lft.to/lastmile_qr_scan"}}, {"is_disabled": 0, "lon": -77.025662, "lat": 38.942024333333336, "name": "f249a4d551a1dc5bba8fb3d29a65b6d2", "fusion_lon": 0.0, "fusion_lat": 0.0, "is_reserved": 0, "type": "electric_scooter", "bike_id": "f249a4d551a1dc5bba8fb3d29a65b6d2", "rental_uris": {"android": "https://dc.lft.to/lastmile_qr_scan", "ios": "https://dc.lft.to/lastmile_qr_scan"}}, {"is_disabled": 0, "lon": -77.0254815, "lat": 38.9056585, "name": "946d774b5123a8ebcfb602e53a1a862c", "fusion_lon": 0.0, "fusion_lat": 0.0, "is_reserved": 0, "type": "electric_scooter", "bike_id": "946d774b5123a8ebcfb602e53a1a862c", "rental_uris": {"android": "https://dc.lft.to/lastmile_qr_scan", "ios": "https://dc.lft.to/lastmile_qr_scan"}}, {"is_disabled": 0, "lon": -77.03190966666666, "lat": 38.915721166666664, "name": "624f49145cb0a902576df0034ed60ad2", "fusion_lon": 0.0, "fusion_lat": 0.0, "is_reserved": 0, "type": "electric_scooter", "bike_id": "624f49145cb0a902576df0034ed60ad2", "rental_uris": {"android": "https://dc.lft.to/lastmile_qr_scan", "ios": "https://dc.lft.to/lastmile_qr_scan"}}, {"is_disabled": 0, "lon": -77.03185216666667, "lat": 38.9193225, "name": "8611bebe12e50aff23f2802a7aaf68e7", "fusion_lon": 0.0, "fusion_lat": 0.0, "is_reserved": 0, "type": "electric_scooter", "bike_id": "8611bebe12e50aff23f2802a7aaf68e7", "rental_uris": {"android": "https://dc.lft.to/lastmile_qr_scan", "ios": "https://dc.lft.to/lastmile_qr_scan"}}, {"is_disabled": 0, "lon": -77.04331366666666, "lat": 38.92226866666667, "name": "d2693307b11283f1e406f4654d02cca2", "fusion_lon": 0.0, "fusion_lat": 0.0, "is_reserved": 0, "type": "electric_scooter", "bike_id": "d2693307b11283f1e406f4654d02cca2", "rental_uris": {"android": "https://dc.lft.to/lastmile_qr_scan", "ios": "https://dc.lft.to/lastmile_qr_scan"}}, {"is_disabled": 0, "lon": -77.04240966666667, "lat": 38.919711, "name": "dd1ebed0f4fb16b503c3dbdaab83f4fb", "fusion_lon": 0.0, "fusion_lat": 0.0, "is_reserved": 0, "type": "electric_scooter", "bike_id": "dd1ebed0f4fb16b503c3dbdaab83f4fb", "rental_uris": {"android": "https://dc.lft.to/lastmile_qr_scan", "ios": "https://dc.lft.to/lastmile_qr_scan"}}, {"is_disabled": 0, "lon": -77.038515, "lat": 38.902757666666666, "name": "62f1f9c1fbb74c8fd6d5a94e2a9a2c4d", "fusion_lon": 0.0, "fusion_lat": 0.0, "is_reserved": 0, "type": "electric_scooter", "bike_id": "62f1f9c1fbb74c8fd6d5a94e2a9a2c4d", "rental_uris": {"android": "https://dc.lft.to/lastmile_qr_scan", "ios": "https://dc.lft.to/lastmile_qr_scan"}}, {"is_disabled": 0, "lon": -77.003175, "lat": 38.88604766666667, "name": "379da62fabf5929895dd86b1862d1f93", "fusion_lon": 0.0, "fusion_lat": 0.0, "is_reserved": 0, "type": "electric_scooter", "bike_id": "379da62fabf5929895dd86b1862d1f93", "rental_uris": {"android": "https://dc.lft.to/lastmile_qr_scan", "ios": "https://dc.lft.to/lastmile_qr_scan"}}, {"is_disabled": 0, "lon": -77.033633, "lat": 38.92533266666667, "name": "8445c0226b96c3526ac3f952badc7efc", "fusion_lon": 0.0, "fusion_lat": 0.0, "is_reserved": 0, "type": "electric_scooter", "bike_id": "8445c0226b96c3526ac3f952badc7efc", "rental_uris": {"android": "https://dc.lft.to/lastmile_qr_scan", "ios": "https://dc.lft.to/lastmile_qr_scan"}}, {"is_disabled": 0, "lon": -76.994791, "lat": 38.862321333333334, "name": "1bc16e57d3c5d3a0419d788366e03387", "fusion_lon": 0.0, "fusion_lat": 0.0, "is_reserved": 0, "type": "electric_scooter", "bike_id": "1bc16e57d3c5d3a0419d788366e03387", "rental_uris": {"android": "https://dc.lft.to/lastmile_qr_scan", "ios": "https://dc.lft.to/lastmile_qr_scan"}}, {"is_disabled": 0, "lon": -77.03414166666667, "lat": 38.90242666666666, "name": "1343c9cfe6e2501511a082b1133d6a42", "fusion_lon": 0.0, "fusion_lat": 0.0, "is_reserved": 0, "type": "electric_scooter", "bike_id": "1343c9cfe6e2501511a082b1133d6a42", "rental_uris": {"android": "https://dc.lft.to/lastmile_qr_scan", "ios": "https://dc.lft.to/lastmile_qr_scan"}}, {"is_disabled": 0, "lon": -77.03909983333334, "lat": 38.912620833333335, "name": "b66d0f448e301baff2e561be89341d64", "fusion_lon": 0.0, "fusion_lat": 0.0, "is_reserved": 0, "type": "electric_scooter", "bike_id": "b66d0f448e301baff2e561be89341d64", "rental_uris": {"android": "https://dc.lft.to/lastmile_qr_scan", "ios": "https://dc.lft.to/lastmile_qr_scan"}}, {"is_disabled": 0, "lon": -76.996336, "lat": 38.90535033333333, "name": "1a83df2bb126b194cb6f0d2159b6a4cc", "fusion_lon": 0.0, "fusion_lat": 0.0, "is_reserved": 0, "type": "electric_scooter", "bike_id": "1a83df2bb126b194cb6f0d2159b6a4cc", "rental_uris": {"android": "https://dc.lft.to/lastmile_qr_scan", "ios": "https://dc.lft.to/lastmile_qr_scan"}}, {"is_disabled": 0, "lon": -77.04174966666666, "lat": 38.900640333333335, "name": "a079115bc230169a0eeb03c2b7597c77", "fusion_lon": 0.0, "fusion_lat": 0.0, "is_reserved": 0, "type": "electric_scooter", "bike_id": "a079115bc230169a0eeb03c2b7597c77", "rental_uris": {"android": "https://dc.lft.to/lastmile_qr_scan", "ios": "https://dc.lft.to/lastmile_qr_scan"}}, {"is_disabled": 0, "lon": -76.99107816666667, "lat": 38.857299833333336, "name": "fbeca5d9dec49372aeb5858845225581", "fusion_lon": 0.0, "fusion_lat": 0.0, "is_reserved": 0, "type": "electric_scooter", "bike_id": "fbeca5d9dec49372aeb5858845225581", "rental_uris": {"android": "https://dc.lft.to/lastmile_qr_scan", "ios": "https://dc.lft.to/lastmile_qr_scan"}}, {"is_disabled": 0, "lon": -77.0028195, "lat": 38.906159333333335, "name": "20e161905081fe1707c67210464a9e8a", "fusion_lon": 0.0, "fusion_lat": 0.0, "is_reserved": 0, "type": "electric_scooter", "bike_id": "20e161905081fe1707c67210464a9e8a", "rental_uris": {"android": "https://dc.lft.to/lastmile_qr_scan", "ios": "https://dc.lft.to/lastmile_qr_scan"}}, {"is_disabled": 0, "lon": -77.04179733333334, "lat": 38.8983205, "name": "d6043e7f752610ce2e9ed8c398781fe2", "fusion_lon": 0.0, "fusion_lat": 0.0, "is_reserved": 0, "type": "electric_scooter", "bike_id": "d6043e7f752610ce2e9ed8c398781fe2", "rental_uris": {"android": "https://dc.lft.to/lastmile_qr_scan", "ios": "https://dc.lft.to/lastmile_qr_scan"}}, {"is_disabled": 0, "lon": -77.04140933333333, "lat": 38.9088995, "name": "e00f0b95afb54c1f8ef3f689279520f1", "fusion_lon": 0.0, "fusion_lat": 0.0, "is_reserved": 0, "type": "electric_scooter", "bike_id": "e00f0b95afb54c1f8ef3f689279520f1", "rental_uris": {"android": "https://dc.lft.to/lastmile_qr_scan", "ios": "https://dc.lft.to/lastmile_qr_scan"}}, {"is_disabled": 0, "lon": -77.0254935, "lat": 38.970062666666664, "name": "b17eb636bd28538a1c04a6d1fcf0950a", "fusion_lon": 0.0, "fusion_lat": 0.0, "is_reserved": 0, "type": "electric_scooter", "bike_id": "b17eb636bd28538a1c04a6d1fcf0950a", "rental_uris": {"android": "https://dc.lft.to/lastmile_qr_scan", "ios": "https://dc.lft.to/lastmile_qr_scan"}}, {"is_disabled": 0, "lon": -77.04569266666667, "lat": 38.90371916666667, "name": "374629c7d670064546d1f5e89f218c64", "fusion_lon": 0.0, "fusion_lat": 0.0, "is_reserved": 0, "type": "electric_scooter", "bike_id": "374629c7d670064546d1f5e89f218c64", "rental_uris": {"android": "https://dc.lft.to/lastmile_qr_scan", "ios": "https://dc.lft.to/lastmile_qr_scan"}}, {"is_disabled": 0, "lon": -77.03986133333333, "lat": 38.895378, "name": "ca24daaff75a61947994d7e90fadd676", "fusion_lon": 0.0, "fusion_lat": 0.0, "is_reserved": 0, "type": "electric_scooter", "bike_id": "ca24daaff75a61947994d7e90fadd676", "rental_uris": {"android": "https://dc.lft.to/lastmile_qr_scan", "ios": "https://dc.lft.to/lastmile_qr_scan"}}, {"is_disabled": 0, "lon": -76.96155083333333, "lat": 38.856202, "name": "8f3c7a37a9737318911448331c74614a", "fusion_lon": 0.0, "fusion_lat": 0.0, "is_reserved": 0, "type": "electric_bike", "bike_id": "8f3c7a37a9737318911448331c74614a", "rental_uris": {"android": "https://dc.lft.to/lastmile_qr_scan", "ios": "https://dc.lft.to/lastmile_qr_scan"}}, {"is_disabled": 0, "lon": -77.02892866666667, "lat": 38.897396, "name": "8486476f9a9bf9eed6994b5d05c672c6", "fusion_lon": 0.0, "fusion_lat": 0.0, "is_reserved": 0, "type": "electric_scooter", "bike_id": "8486476f9a9bf9eed6994b5d05c672c6", "rental_uris": {"android": "https://dc.lft.to/lastmile_qr_scan", "ios": "https://dc.lft.to/lastmile_qr_scan"}}, {"is_disabled": 0, "lon": -76.9975225, "lat": 38.88507416666667, "name": "1ce9136d85a38180e9387d8770534a91", "fusion_lon": 0.0, "fusion_lat": 0.0, "is_reserved": 0, "type": "electric_scooter", "bike_id": "1ce9136d85a38180e9387d8770534a91", "rental_uris": {"android": "https://dc.lft.to/lastmile_qr_scan", "ios": "https://dc.lft.to/lastmile_qr_scan"}}, {"is_disabled": 0, "lon": -77.04486766666666, "lat": 38.9032805, "name": "259d2606846b2cbf7075a8f62720685e", "fusion_lon": 0.0, "fusion_lat": 0.0, "is_reserved": 0, "type": "electric_scooter", "bike_id": "259d2606846b2cbf7075a8f62720685e", "rental_uris": {"android": "https://dc.lft.to/lastmile_qr_scan", "ios": "https://dc.lft.to/lastmile_qr_scan"}}, {"is_disabled": 0, "lon": -77.02736466666667, "lat": 38.89674683333333, "name": "43d6abcbfbafb823c61198dd95529e46", "fusion_lon": 0.0, "fusion_lat": 0.0, "is_reserved": 0, "type": "electric_scooter", "bike_id": "43d6abcbfbafb823c61198dd95529e46", "rental_uris": {"android": "https://dc.lft.to/lastmile_qr_scan", "ios": "https://dc.lft.to/lastmile_qr_scan"}}, {"is_disabled": 0, "lon": -77.00933516666667, "lat": 38.9166015, "name": "a13cdeb09ac1e419a02194028315a842", "fusion_lon": 0.0, "fusion_lat": 0.0, "is_reserved": 0, "type": "electric_scooter", "bike_id": "a13cdeb09ac1e419a02194028315a842", "rental_uris": {"android": "https://dc.lft.to/lastmile_qr_scan", "ios": "https://dc.lft.to/lastmile_qr_scan"}}, {"is_disabled": 0, "lon": -77.025957, "lat": 38.98267166666667, "name": "8b2da34beaa3c25a0182e5608c414d6d", "fusion_lon": 0.0, "fusion_lat": 0.0, "is_reserved": 0, "type": "electric_scooter", "bike_id": "8b2da34beaa3c25a0182e5608c414d6d", "rental_uris": {"android": "https://dc.lft.to/lastmile_qr_scan", "ios": "https://dc.lft.to/lastmile_qr_scan"}}, {"is_disabled": 0, "lon": -77.024211, "lat": 38.918230666666666, "name": "060aa6a33090140d1dd75ddd04482c7e", "fusion_lon": 0.0, "fusion_lat": 0.0, "is_reserved": 0, "type": "electric_scooter", "bike_id": "060aa6a33090140d1dd75ddd04482c7e", "rental_uris": {"android": "https://dc.lft.to/lastmile_qr_scan", "ios": "https://dc.lft.to/lastmile_qr_scan"}}, {"is_disabled": 0, "lon": -77.03850716666666, "lat": 38.91669566666667, "name": "573df4503cd5dbd702a6280b65678fe9", "fusion_lon": 0.0, "fusion_lat": 0.0, "is_reserved": 0, "type": "electric_scooter", "bike_id": "573df4503cd5dbd702a6280b65678fe9", "rental_uris": {"android": "https://dc.lft.to/lastmile_qr_scan", "ios": "https://dc.lft.to/lastmile_qr_scan"}}, {"is_disabled": 0, "lon": -77.038465, "lat": 38.91720933333333, "name": "12b41b87bc558d3e281226edceb74ec9", "fusion_lon": 0.0, "fusion_lat": 0.0, "is_reserved": 0, "type": "electric_scooter", "bike_id": "12b41b87bc558d3e281226edceb74ec9", "rental_uris": {"android": "https://dc.lft.to/lastmile_qr_scan", "ios": "https://dc.lft.to/lastmile_qr_scan"}}, {"is_disabled": 0, "lon": -77.00732266666667, "lat": 38.87651366666667, "name": "40ba1a40cfc63be8c54cbcbc22749c28", "fusion_lon": 0.0, "fusion_lat": 0.0, "is_reserved": 0, "type": "electric_scooter", "bike_id": "40ba1a40cfc63be8c54cbcbc22749c28", "rental_uris": {"android": "https://dc.lft.to/lastmile_qr_scan", "ios": "https://dc.lft.to/lastmile_qr_scan"}}, {"is_disabled": 0, "lon": -77.02387983333334, "lat": 38.909765, "name": "45ee51e4b2a4b4d207ee316364808977", "fusion_lon": 0.0, "fusion_lat": 0.0, "is_reserved": 0, "type": "electric_scooter", "bike_id": "45ee51e4b2a4b4d207ee316364808977", "rental_uris": {"android": "https://dc.lft.to/lastmile_qr_scan", "ios": "https://dc.lft.to/lastmile_qr_scan"}}, {"is_disabled": 0, "lon": -77.045726, "lat": 38.90227383333333, "name": "82346591e14ab64648afe7b4b9719cf7", "fusion_lon": 0.0, "fusion_lat": 0.0, "is_reserved": 0, "type": "electric_scooter", "bike_id": "82346591e14ab64648afe7b4b9719cf7", "rental_uris": {"android": "https://dc.lft.to/lastmile_qr_scan", "ios": "https://dc.lft.to/lastmile_qr_scan"}}, {"is_disabled": 0, "lon": -77.01971516666667, "lat": 38.8987335, "name": "698e11d611cfcfdf08d0ef80c0f467c3", "fusion_lon": 0.0, "fusion_lat": 0.0, "is_reserved": 0, "type": "electric_scooter", "bike_id": "698e11d611cfcfdf08d0ef80c0f467c3", "rental_uris": {"android": "https://dc.lft.to/lastmile_qr_scan", "ios": "https://dc.lft.to/lastmile_qr_scan"}}, {"is_disabled": 0, "lon": -77.021352, "lat": 38.919953166666666, "name": "e1156835c23f3380207506a6cb930189", "fusion_lon": 0.0, "fusion_lat": 0.0, "is_reserved": 0, "type": "electric_scooter", "bike_id": "e1156835c23f3380207506a6cb930189", "rental_uris": {"android": "https://dc.lft.to/lastmile_qr_scan", "ios": "https://dc.lft.to/lastmile_qr_scan"}}, {"is_disabled": 0, "lon": -77.02971033333333, "lat": 38.916754166666664, "name": "c65623b4beffd3dcb644786e9d7684a7", "fusion_lon": 0.0, "fusion_lat": 0.0, "is_reserved": 0, "type": "electric_scooter", "bike_id": "c65623b4beffd3dcb644786e9d7684a7", "rental_uris": {"android": "https://dc.lft.to/lastmile_qr_scan", "ios": "https://dc.lft.to/lastmile_qr_scan"}}, {"is_disabled": 0, "lon": -77.00609166666666, "lat": 38.824023333333336, "name": "7b5af05e63066635fc68b5848542fca1", "fusion_lon": 0.0, "fusion_lat": 0.0, "is_reserved": 0, "type": "electric_bike", "bike_id": "7b5af05e63066635fc68b5848542fca1", "rental_uris": {"android": "https://dc.lft.to/lastmile_qr_scan", "ios": "https://dc.lft.to/lastmile_qr_scan"}}, {"is_disabled": 0, "lon": -77.028094, "lat": 38.902923, "name": "75db841c289ecb89b4dcdb133eff4d93", "fusion_lon": 0.0, "fusion_lat": 0.0, "is_reserved": 0, "type": "electric_scooter", "bike_id": "75db841c289ecb89b4dcdb133eff4d93", "rental_uris": {"android": "https://dc.lft.to/lastmile_qr_scan", "ios": "https://dc.lft.to/lastmile_qr_scan"}}, {"is_disabled": 0, "lon": -77.02327483333333, "lat": 38.89657033333334, "name": "5105c956c67ac40dbf916067d35af374", "fusion_lon": 0.0, "fusion_lat": 0.0, "is_reserved": 0, "type": "electric_scooter", "bike_id": "5105c956c67ac40dbf916067d35af374", "rental_uris": {"android": "https://dc.lft.to/lastmile_qr_scan", "ios": "https://dc.lft.to/lastmile_qr_scan"}}, {"is_disabled": 0, "lon": -76.99961733333333, "lat": 38.899030833333335, "name": "cf10a2787da80a95889069d551b2da26", "fusion_lon": 0.0, "fusion_lat": 0.0, "is_reserved": 0, "type": "electric_scooter", "bike_id": "cf10a2787da80a95889069d551b2da26", "rental_uris": {"android": "https://dc.lft.to/lastmile_qr_scan", "ios": "https://dc.lft.to/lastmile_qr_scan"}}, {"is_disabled": 0, "lon": -77.04301133333334, "lat": 38.922995, "name": "7bdf520e7dce65d2c13edd100ab2851c", "fusion_lon": 0.0, "fusion_lat": 0.0, "is_reserved": 0, "type": "electric_scooter", "bike_id": "7bdf520e7dce65d2c13edd100ab2851c", "rental_uris": {"android": "https://dc.lft.to/lastmile_qr_scan", "ios": "https://dc.lft.to/lastmile_qr_scan"}}, {"is_disabled": 0, "lon": -76.907506, "lat": 38.89622583333333, "name": "a71d7e28079f85e74c51504e41d119f8", "fusion_lon": 0.0, "fusion_lat": 0.0, "is_reserved": 0, "type": "electric_bike", "bike_id": "a71d7e28079f85e74c51504e41d119f8", "rental_uris": {"android": "https://dc.lft.to/lastmile_qr_scan", "ios": "https://dc.lft.to/lastmile_qr_scan"}}, {"is_disabled": 0, "lon": -76.977051, "lat": 38.82208466666667, "name": "f5d8e100160342c03e99559b0eb890dd", "fusion_lon": 0.0, "fusion_lat": 0.0, "is_reserved": 0, "type": "electric_bike", "bike_id": "f5d8e100160342c03e99559b0eb890dd", "rental_uris": {"android": "https://dc.lft.to/lastmile_qr_scan", "ios": "https://dc.lft.to/lastmile_qr_scan"}}, {"is_disabled": 0, "lon": -77.03567966666667, "lat": 38.90812483333333, "name": "92af149c263a6b930d8badcc126ad235", "fusion_lon": 0.0, "fusion_lat": 0.0, "is_reserved": 0, "type": "electric_scooter", "bike_id": "92af149c263a6b930d8badcc126ad235", "rental_uris": {"android": "https://dc.lft.to/lastmile_qr_scan", "ios": "https://dc.lft.to/lastmile_qr_scan"}}, {"is_disabled": 0, "lon": -77.03522883333333, "lat": 38.90776833333334, "name": "9c2a7db03b2c359680543dde3fc2143a", "fusion_lon": 0.0, "fusion_lat": 0.0, "is_reserved": 0, "type": "electric_scooter", "bike_id": "9c2a7db03b2c359680543dde3fc2143a", "rental_uris": {"android": "https://dc.lft.to/lastmile_qr_scan", "ios": "https://dc.lft.to/lastmile_qr_scan"}}, {"is_disabled": 0, "lon": -77.0118885, "lat": 38.9003385, "name": "a1d929c1a9c042ffeb451ef572bbb903", "fusion_lon": 0.0, "fusion_lat": 0.0, "is_reserved": 0, "type": "electric_scooter", "bike_id": "a1d929c1a9c042ffeb451ef572bbb903", "rental_uris": {"android": "https://dc.lft.to/lastmile_qr_scan", "ios": "https://dc.lft.to/lastmile_qr_scan"}}, {"is_disabled": 0, "lon": -77.04131216666667, "lat": 38.92270666666667, "name": "41d95d75b1b22ba688dde1fb37826b57", "fusion_lon": 0.0, "fusion_lat": 0.0, "is_reserved": 0, "type": "electric_scooter", "bike_id": "41d95d75b1b22ba688dde1fb37826b57", "rental_uris": {"android": "https://dc.lft.to/lastmile_qr_scan", "ios": "https://dc.lft.to/lastmile_qr_scan"}}, {"is_disabled": 0, "lon": -77.012019, "lat": 38.915583, "name": "c13f4fb40e0987df06b656ee181fb0a0", "fusion_lon": 0.0, "fusion_lat": 0.0, "is_reserved": 0, "type": "electric_scooter", "bike_id": "c13f4fb40e0987df06b656ee181fb0a0", "rental_uris": {"android": "https://dc.lft.to/lastmile_qr_scan", "ios": "https://dc.lft.to/lastmile_qr_scan"}}, {"is_disabled": 0, "lon": -77.02689266666667, "lat": 38.908718, "name": "b392a3f7197643aaa41944a603c55525", "fusion_lon": 0.0, "fusion_lat": 0.0, "is_reserved": 0, "type": "electric_scooter", "bike_id": "b392a3f7197643aaa41944a603c55525", "rental_uris": {"android": "https://dc.lft.to/lastmile_qr_scan", "ios": "https://dc.lft.to/lastmile_qr_scan"}}, {"is_disabled": 0, "lon": -76.99737433333334, "lat": 38.92053133333334, "name": "5a5636cba6b749f3651c4d14c9fe8d1d", "fusion_lon": 0.0, "fusion_lat": 0.0, "is_reserved": 0, "type": "electric_scooter", "bike_id": "5a5636cba6b749f3651c4d14c9fe8d1d", "rental_uris": {"android": "https://dc.lft.to/lastmile_qr_scan", "ios": "https://dc.lft.to/lastmile_qr_scan"}}, {"is_disabled": 0, "lon": -76.935246, "lat": 38.878992833333335, "name": "d594044111c5a40fd6467b5f704542e7", "fusion_lon": 0.0, "fusion_lat": 0.0, "is_reserved": 0, "type": "electric_scooter", "bike_id": "d594044111c5a40fd6467b5f704542e7", "rental_uris": {"android": "https://dc.lft.to/lastmile_qr_scan", "ios": "https://dc.lft.to/lastmile_qr_scan"}}, {"is_disabled": 0, "lon": -77.0453565, "lat": 38.905735666666665, "name": "c6658eeb0035b234a92b958944c4875c", "fusion_lon": 0.0, "fusion_lat": 0.0, "is_reserved": 0, "type": "electric_scooter", "bike_id": "c6658eeb0035b234a92b958944c4875c", "rental_uris": {"android": "https://dc.lft.to/lastmile_qr_scan", "ios": "https://dc.lft.to/lastmile_qr_scan"}}, {"is_disabled": 0, "lon": -77.028396, "lat": 38.930669333333334, "name": "dc86707739bb41c62588ee9a01a6faa3", "fusion_lon": 0.0, "fusion_lat": 0.0, "is_reserved": 0, "type": "electric_scooter", "bike_id": "dc86707739bb41c62588ee9a01a6faa3", "rental_uris": {"android": "https://dc.lft.to/lastmile_qr_scan", "ios": "https://dc.lft.to/lastmile_qr_scan"}}, {"is_disabled": 0, "lon": -77.04997, "lat": 38.9051455, "name": "6f5b67d152041674feecf34e97c145f0", "fusion_lon": 0.0, "fusion_lat": 0.0, "is_reserved": 0, "type": "electric_scooter", "bike_id": "6f5b67d152041674feecf34e97c145f0", "rental_uris": {"android": "https://dc.lft.to/lastmile_qr_scan", "ios": "https://dc.lft.to/lastmile_qr_scan"}}, {"is_disabled": 0, "lon": -77.01213066666666, "lat": 38.89787583333333, "name": "0a24f1149ceeeaf5334747f47654f53f", "fusion_lon": 0.0, "fusion_lat": 0.0, "is_reserved": 0, "type": "electric_scooter", "bike_id": "0a24f1149ceeeaf5334747f47654f53f", "rental_uris": {"android": "https://dc.lft.to/lastmile_qr_scan", "ios": "https://dc.lft.to/lastmile_qr_scan"}}, {"is_disabled": 0, "lon": -77.04002733333333, "lat": 38.90731516666666, "name": "f8cefc360bcd2a5da72152019cbfb6d2", "fusion_lon": 0.0, "fusion_lat": 0.0, "is_reserved": 0, "type": "electric_scooter", "bike_id": "f8cefc360bcd2a5da72152019cbfb6d2", "rental_uris": {"android": "https://dc.lft.to/lastmile_qr_scan", "ios": "https://dc.lft.to/lastmile_qr_scan"}}, {"is_disabled": 0, "lon": -77.08315183333333, "lat": 38.8544595, "name": "1590f67343e382c8e5893a735c8e3439", "fusion_lon": 0.0, "fusion_lat": 0.0, "is_reserved": 0, "type": "electric_bike", "bike_id": "1590f67343e382c8e5893a735c8e3439", "rental_uris": {"android": "https://dc.lft.to/lastmile_qr_scan", "ios": "https://dc.lft.to/lastmile_qr_scan"}}, {"is_disabled": 0, "lon": -77.02697866666666, "lat": 38.94066333333333, "name": "365df7fa0b39e948bdad7df0bbe43644", "fusion_lon": 0.0, "fusion_lat": 0.0, "is_reserved": 0, "type": "electric_scooter", "bike_id": "365df7fa0b39e948bdad7df0bbe43644", "rental_uris": {"android": "https://dc.lft.to/lastmile_qr_scan", "ios": "https://dc.lft.to/lastmile_qr_scan"}}, {"is_disabled": 0, "lon": -77.0726555, "lat": 38.90909033333333, "name": "6f289495cb973cb6a5ad98fdd57b65dd", "fusion_lon": 0.0, "fusion_lat": 0.0, "is_reserved": 0, "type": "electric_scooter", "bike_id": "6f289495cb973cb6a5ad98fdd57b65dd", "rental_uris": {"android": "https://dc.lft.to/lastmile_qr_scan", "ios": "https://dc.lft.to/lastmile_qr_scan"}}, {"is_disabled": 0, "lon": -77.03869716666667, "lat": 38.917075833333335, "name": "25a3da5912764882d56ea1d8846e2294", "fusion_lon": 0.0, "fusion_lat": 0.0, "is_reserved": 0, "type": "electric_scooter", "bike_id": "25a3da5912764882d56ea1d8846e2294", "rental_uris": {"android": "https://dc.lft.to/lastmile_qr_scan", "ios": "https://dc.lft.to/lastmile_qr_scan"}}, {"is_disabled": 0, "lon": -77.02403966666667, "lat": 38.916782166666664, "name": "a75707035e51ed518c8f830a05810626", "fusion_lon": 0.0, "fusion_lat": 0.0, "is_reserved": 0, "type": "electric_scooter", "bike_id": "a75707035e51ed518c8f830a05810626", "rental_uris": {"android": "https://dc.lft.to/lastmile_qr_scan", "ios": "https://dc.lft.to/lastmile_qr_scan"}}, {"is_disabled": 0, "lon": -77.01225133333334, "lat": 38.897732, "name": "3a552220651c6721957020aeffe9db58", "fusion_lon": 0.0, "fusion_lat": 0.0, "is_reserved": 0, "type": "electric_scooter", "bike_id": "3a552220651c6721957020aeffe9db58", "rental_uris": {"android": "https://dc.lft.to/lastmile_qr_scan", "ios": "https://dc.lft.to/lastmile_qr_scan"}}, {"is_disabled": 0, "lon": -77.0400355, "lat": 38.89871183333333, "name": "cafe0a8aa915cdedaab4e64e8043549b", "fusion_lon": 0.0, "fusion_lat": 0.0, "is_reserved": 0, "type": "electric_scooter", "bike_id": "cafe0a8aa915cdedaab4e64e8043549b", "rental_uris": {"android": "https://dc.lft.to/lastmile_qr_scan", "ios": "https://dc.lft.to/lastmile_qr_scan"}}, {"is_disabled": 0, "lon": -77.07293416666667, "lat": 38.922852666666664, "name": "20081431e160627ffe7d40218f3c3434", "fusion_lon": 0.0, "fusion_lat": 0.0, "is_reserved": 0, "type": "electric_scooter", "bike_id": "20081431e160627ffe7d40218f3c3434", "rental_uris": {"android": "https://dc.lft.to/lastmile_qr_scan", "ios": "https://dc.lft.to/lastmile_qr_scan"}}, {"is_disabled": 0, "lon": -77.04663766666667, "lat": 38.904034833333334, "name": "83200f6b3491cecfdc820faa7bca746e", "fusion_lon": 0.0, "fusion_lat": 0.0, "is_reserved": 0, "type": "electric_scooter", "bike_id": "83200f6b3491cecfdc820faa7bca746e", "rental_uris": {"android": "https://dc.lft.to/lastmile_qr_scan", "ios": "https://dc.lft.to/lastmile_qr_scan"}}, {"is_disabled": 0, "lon": -77.00758166666667, "lat": 38.90058783333333, "name": "4112b3aef7a0630dc5860a4e23ef3a94", "fusion_lon": 0.0, "fusion_lat": 0.0, "is_reserved": 0, "type": "electric_scooter", "bike_id": "4112b3aef7a0630dc5860a4e23ef3a94", "rental_uris": {"android": "https://dc.lft.to/lastmile_qr_scan", "ios": "https://dc.lft.to/lastmile_qr_scan"}}, {"is_disabled": 0, "lon": -77.02820766666666, "lat": 38.902370166666664, "name": "614bc7380bea82e43f1c0c3ab83241bf", "fusion_lon": 0.0, "fusion_lat": 0.0, "is_reserved": 0, "type": "electric_scooter", "bike_id": "614bc7380bea82e43f1c0c3ab83241bf", "rental_uris": {"android": "https://dc.lft.to/lastmile_qr_scan", "ios": "https://dc.lft.to/lastmile_qr_scan"}}, {"is_disabled": 0, "lon": -76.98889566666666, "lat": 38.93475183333334, "name": "1a434ac6295e17b02f342b506921d006", "fusion_lon": 0.0, "fusion_lat": 0.0, "is_reserved": 0, "type": "electric_scooter", "bike_id": "1a434ac6295e17b02f342b506921d006", "rental_uris": {"android": "https://dc.lft.to/lastmile_qr_scan", "ios": "https://dc.lft.to/lastmile_qr_scan"}}, {"is_disabled": 0, "lon": -77.0126565, "lat": 38.897289, "name": "ba3daeb19f0f97f63a0797bc906e24bd", "fusion_lon": 0.0, "fusion_lat": 0.0, "is_reserved": 0, "type": "electric_scooter", "bike_id": "ba3daeb19f0f97f63a0797bc906e24bd", "rental_uris": {"android": "https://dc.lft.to/lastmile_qr_scan", "ios": "https://dc.lft.to/lastmile_qr_scan"}}, {"is_disabled": 0, "lon": -77.03612083333333, "lat": 38.92339366666667, "name": "6934107deb9853cf468c538bf1e0902d", "fusion_lon": 0.0, "fusion_lat": 0.0, "is_reserved": 0, "type": "electric_scooter", "bike_id": "6934107deb9853cf468c538bf1e0902d", "rental_uris": {"android": "https://dc.lft.to/lastmile_qr_scan", "ios": "https://dc.lft.to/lastmile_qr_scan"}}, {"is_disabled": 0, "lon": -77.0343495, "lat": 38.927387833333334, "name": "1bc5cdfc643c7f9ac38978ddc0af2795", "fusion_lon": 0.0, "fusion_lat": 0.0, "is_reserved": 0, "type": "electric_scooter", "bike_id": "1bc5cdfc643c7f9ac38978ddc0af2795", "rental_uris": {"android": "https://dc.lft.to/lastmile_qr_scan", "ios": "https://dc.lft.to/lastmile_qr_scan"}}, {"is_disabled": 0, "lon": -77.038425, "lat": 38.903683666666666, "name": "b04ad9150fef117353c679de8e9e728d", "fusion_lon": 0.0, "fusion_lat": 0.0, "is_reserved": 0, "type": "electric_scooter", "bike_id": "b04ad9150fef117353c679de8e9e728d", "rental_uris": {"android": "https://dc.lft.to/lastmile_qr_scan", "ios": "https://dc.lft.to/lastmile_qr_scan"}}, {"is_disabled": 0, "lon": -77.04051233333334, "lat": 38.89536433333333, "name": "1faa12c243a0588eb677af8973c2560e", "fusion_lon": 0.0, "fusion_lat": 0.0, "is_reserved": 0, "type": "electric_scooter", "bike_id": "1faa12c243a0588eb677af8973c2560e", "rental_uris": {"android": "https://dc.lft.to/lastmile_qr_scan", "ios": "https://dc.lft.to/lastmile_qr_scan"}}, {"is_disabled": 0, "lon": -77.02800633333334, "lat": 38.907357, "name": "8b094f71fa42581859b61c3d8ec65c88", "fusion_lon": 0.0, "fusion_lat": 0.0, "is_reserved": 0, "type": "electric_scooter", "bike_id": "8b094f71fa42581859b61c3d8ec65c88", "rental_uris": {"android": "https://dc.lft.to/lastmile_qr_scan", "ios": "https://dc.lft.to/lastmile_qr_scan"}}, {"is_disabled": 0, "lon": -77.0487935, "lat": 38.90019616666667, "name": "9c6dd5ae777f1bb85dbab7866614c082", "fusion_lon": 0.0, "fusion_lat": 0.0, "is_reserved": 0, "type": "electric_scooter", "bike_id": "9c6dd5ae777f1bb85dbab7866614c082", "rental_uris": {"android": "https://dc.lft.to/lastmile_qr_scan", "ios": "https://dc.lft.to/lastmile_qr_scan"}}, {"is_disabled": 0, "lon": -77.05173316666666, "lat": 38.903169166666665, "name": "a733313fa8b5da16417f86214ef5cbf5", "fusion_lon": 0.0, "fusion_lat": 0.0, "is_reserved": 0, "type": "electric_scooter", "bike_id": "a733313fa8b5da16417f86214ef5cbf5", "rental_uris": {"android": "https://dc.lft.to/lastmile_qr_scan", "ios": "https://dc.lft.to/lastmile_qr_scan"}}, {"is_disabled": 0, "lon": -77.04660433333333, "lat": 38.909516333333336, "name": "6992f6d7ea6110f9df905cabedb33728", "fusion_lon": 0.0, "fusion_lat": 0.0, "is_reserved": 0, "type": "electric_scooter", "bike_id": "6992f6d7ea6110f9df905cabedb33728", "rental_uris": {"android": "https://dc.lft.to/lastmile_qr_scan", "ios": "https://dc.lft.to/lastmile_qr_scan"}}, {"is_disabled": 0, "lon": -77.01343283333334, "lat": 38.899476, "name": "91bcbd6fc29cd58a6231709daeb43cca", "fusion_lon": 0.0, "fusion_lat": 0.0, "is_reserved": 0, "type": "electric_scooter", "bike_id": "91bcbd6fc29cd58a6231709daeb43cca", "rental_uris": {"android": "https://dc.lft.to/lastmile_qr_scan", "ios": "https://dc.lft.to/lastmile_qr_scan"}}, {"is_disabled": 0, "lon": -77.03883783333333, "lat": 38.90517216666667, "name": "42edc149b8ba432a52af14b1c9d9fd06", "fusion_lon": 0.0, "fusion_lat": 0.0, "is_reserved": 0, "type": "electric_scooter", "bike_id": "42edc149b8ba432a52af14b1c9d9fd06", "rental_uris": {"android": "https://dc.lft.to/lastmile_qr_scan", "ios": "https://dc.lft.to/lastmile_qr_scan"}}, {"is_disabled": 0, "lon": -77.02488933333333, "lat": 38.941868166666666, "name": "f91697c8cf16dd79acb9f6db85ac63ba", "fusion_lon": 0.0, "fusion_lat": 0.0, "is_reserved": 0, "type": "electric_scooter", "bike_id": "f91697c8cf16dd79acb9f6db85ac63ba", "rental_uris": {"android": "https://dc.lft.to/lastmile_qr_scan", "ios": "https://dc.lft.to/lastmile_qr_scan"}}, {"is_disabled": 0, "lon": -76.99063733333334, "lat": 38.898132833333335, "name": "f9fca412e8e8ada0d479d4c963b02012", "fusion_lon": 0.0, "fusion_lat": 0.0, "is_reserved": 0, "type": "electric_bike", "bike_id": "f9fca412e8e8ada0d479d4c963b02012", "rental_uris": {"android": "https://dc.lft.to/lastmile_qr_scan", "ios": "https://dc.lft.to/lastmile_qr_scan"}}, {"is_disabled": 0, "lon": -77.01540666666666, "lat": 38.891661166666665, "name": "82dfae47f7ca58b980cea5271d3446bc", "fusion_lon": 0.0, "fusion_lat": 0.0, "is_reserved": 0, "type": "electric_scooter", "bike_id": "82dfae47f7ca58b980cea5271d3446bc", "rental_uris": {"android": "https://dc.lft.to/lastmile_qr_scan", "ios": "https://dc.lft.to/lastmile_qr_scan"}}, {"is_disabled": 0, "lon": -77.0209415, "lat": 38.923661, "name": "617d5190e9f02a7a7d3b3bac25a61095", "fusion_lon": 0.0, "fusion_lat": 0.0, "is_reserved": 0, "type": "electric_scooter", "bike_id": "617d5190e9f02a7a7d3b3bac25a61095", "rental_uris": {"android": "https://dc.lft.to/lastmile_qr_scan", "ios": "https://dc.lft.to/lastmile_qr_scan"}}, {"is_disabled": 0, "lon": -77.02811533333333, "lat": 38.91747433333333, "name": "978f52f48badb6143f98bc7a806bdaf0", "fusion_lon": 0.0, "fusion_lat": 0.0, "is_reserved": 0, "type": "electric_scooter", "bike_id": "978f52f48badb6143f98bc7a806bdaf0", "rental_uris": {"android": "https://dc.lft.to/lastmile_qr_scan", "ios": "https://dc.lft.to/lastmile_qr_scan"}}, {"is_disabled": 0, "lon": -77.04519833333333, "lat": 38.8960885, "name": "5599cadeb7ef897c85b8319f20b3c2b9", "fusion_lon": 0.0, "fusion_lat": 0.0, "is_reserved": 0, "type": "electric_scooter", "bike_id": "5599cadeb7ef897c85b8319f20b3c2b9", "rental_uris": {"android": "https://dc.lft.to/lastmile_qr_scan", "ios": "https://dc.lft.to/lastmile_qr_scan"}}, {"is_disabled": 0, "lon": -77.04342233333334, "lat": 38.90397383333333, "name": "48155c9e6c4a864ddcb41e47316c823b", "fusion_lon": 0.0, "fusion_lat": 0.0, "is_reserved": 0, "type": "electric_scooter", "bike_id": "48155c9e6c4a864ddcb41e47316c823b", "rental_uris": {"android": "https://dc.lft.to/lastmile_qr_scan", "ios": "https://dc.lft.to/lastmile_qr_scan"}}, {"is_disabled": 0, "lon": -77.0247785, "lat": 38.938798, "name": "1f45ee25161f7264db668b2ed5c05aa0", "fusion_lon": 0.0, "fusion_lat": 0.0, "is_reserved": 0, "type": "electric_scooter", "bike_id": "1f45ee25161f7264db668b2ed5c05aa0", "rental_uris": {"android": "https://dc.lft.to/lastmile_qr_scan", "ios": "https://dc.lft.to/lastmile_qr_scan"}}, {"is_disabled": 0, "lon": -77.03204, "lat": 38.9205755, "name": "bad1e6e3bdb21e3f12de043584bda7ad", "fusion_lon": 0.0, "fusion_lat": 0.0, "is_reserved": 0, "type": "electric_scooter", "bike_id": "bad1e6e3bdb21e3f12de043584bda7ad", "rental_uris": {"android": "https://dc.lft.to/lastmile_qr_scan", "ios": "https://dc.lft.to/lastmile_qr_scan"}}, {"is_disabled": 0, "lon": -77.01980633333334, "lat": 38.8872155, "name": "134a3b3e91077b03dbc2c4a6a6e8f616", "fusion_lon": 0.0, "fusion_lat": 0.0, "is_reserved": 0, "type": "electric_scooter", "bike_id": "134a3b3e91077b03dbc2c4a6a6e8f616", "rental_uris": {"android": "https://dc.lft.to/lastmile_qr_scan", "ios": "https://dc.lft.to/lastmile_qr_scan"}}, {"is_disabled": 0, "lon": -77.031877, "lat": 38.9021155, "name": "229c03ea645e3500e4c2bbd5189a85d3", "fusion_lon": 0.0, "fusion_lat": 0.0, "is_reserved": 0, "type": "electric_scooter", "bike_id": "229c03ea645e3500e4c2bbd5189a85d3", "rental_uris": {"android": "https://dc.lft.to/lastmile_qr_scan", "ios": "https://dc.lft.to/lastmile_qr_scan"}}, {"is_disabled": 0, "lon": -77.01203083333333, "lat": 38.950745166666664, "name": "7f3376fe4268fab8059c93d183f70d8a", "fusion_lon": 0.0, "fusion_lat": 0.0, "is_reserved": 0, "type": "electric_bike", "bike_id": "7f3376fe4268fab8059c93d183f70d8a", "rental_uris": {"android": "https://dc.lft.to/lastmile_qr_scan", "ios": "https://dc.lft.to/lastmile_qr_scan"}}, {"is_disabled": 0, "lon": -77.02483716666667, "lat": 38.919525166666666, "name": "70538cab7490f585474a600dc80010af", "fusion_lon": 0.0, "fusion_lat": 0.0, "is_reserved": 0, "type": "electric_scooter", "bike_id": "70538cab7490f585474a600dc80010af", "rental_uris": {"android": "https://dc.lft.to/lastmile_qr_scan", "ios": "https://dc.lft.to/lastmile_qr_scan"}}, {"is_disabled": 0, "lon": -76.95565833333333, "lat": 38.985035333333336, "name": "abc5f15faa84d08395b8396363bfe37a", "fusion_lon": 0.0, "fusion_lat": 0.0, "is_reserved": 0, "type": "electric_bike", "bike_id": "abc5f15faa84d08395b8396363bfe37a", "rental_uris": {"android": "https://dc.lft.to/lastmile_qr_scan", "ios": "https://dc.lft.to/lastmile_qr_scan"}}, {"is_disabled": 0, "lon": -77.02374883333333, "lat": 38.89218416666667, "name": "53b32db2792b3d6b61c1fed41e85384e", "fusion_lon": 0.0, "fusion_lat": 0.0, "is_reserved": 0, "type": "electric_scooter", "bike_id": "53b32db2792b3d6b61c1fed41e85384e", "rental_uris": {"android": "https://dc.lft.to/lastmile_qr_scan", "ios": "https://dc.lft.to/lastmile_qr_scan"}}, {"is_disabled": 0, "lon": -77.02545933333333, "lat": 38.920618, "name": "d8924965150c22e30f84d037c5310c70", "fusion_lon": 0.0, "fusion_lat": 0.0, "is_reserved": 0, "type": "electric_scooter", "bike_id": "d8924965150c22e30f84d037c5310c70", "rental_uris": {"android": "https://dc.lft.to/lastmile_qr_scan", "ios": "https://dc.lft.to/lastmile_qr_scan"}}, {"is_disabled": 0, "lon": -77.011034, "lat": 38.895626666666665, "name": "f962ecd469a46d714401f3de7ed7e89a", "fusion_lon": 0.0, "fusion_lat": 0.0, "is_reserved": 0, "type": "electric_scooter", "bike_id": "f962ecd469a46d714401f3de7ed7e89a", "rental_uris": {"android": "https://dc.lft.to/lastmile_qr_scan", "ios": "https://dc.lft.to/lastmile_qr_scan"}}, {"is_disabled": 0, "lon": -77.04453433333333, "lat": 38.9247235, "name": "6e8d3c63dfa4973f664f60458b55a6d8", "fusion_lon": 0.0, "fusion_lat": 0.0, "is_reserved": 0, "type": "electric_scooter", "bike_id": "6e8d3c63dfa4973f664f60458b55a6d8", "rental_uris": {"android": "https://dc.lft.to/lastmile_qr_scan", "ios": "https://dc.lft.to/lastmile_qr_scan"}}, {"is_disabled": 0, "lon": -77.03455533333333, "lat": 38.905079666666666, "name": "7c1ff4b4b2538eacfd1de725e294d34a", "fusion_lon": 0.0, "fusion_lat": 0.0, "is_reserved": 0, "type": "electric_scooter", "bike_id": "7c1ff4b4b2538eacfd1de725e294d34a", "rental_uris": {"android": "https://dc.lft.to/lastmile_qr_scan", "ios": "https://dc.lft.to/lastmile_qr_scan"}}, {"is_disabled": 0, "lon": -77.0629775, "lat": 38.9039625, "name": "0d4f17989be8849f4ea2e97e86811d6a", "fusion_lon": 0.0, "fusion_lat": 0.0, "is_reserved": 0, "type": "electric_scooter", "bike_id": "0d4f17989be8849f4ea2e97e86811d6a", "rental_uris": {"android": "https://dc.lft.to/lastmile_qr_scan", "ios": "https://dc.lft.to/lastmile_qr_scan"}}, {"is_disabled": 0, "lon": -77.02536466666666, "lat": 38.916398666666666, "name": "5544f2b927dc4c5dafe8f2e0d060f70e", "fusion_lon": 0.0, "fusion_lat": 0.0, "is_reserved": 0, "type": "electric_scooter", "bike_id": "5544f2b927dc4c5dafe8f2e0d060f70e", "rental_uris": {"android": "https://dc.lft.to/lastmile_qr_scan", "ios": "https://dc.lft.to/lastmile_qr_scan"}}, {"is_disabled": 0, "lon": -77.0417405, "lat": 38.917318, "name": "7e1c424ebe2e676c8c18221d878522b1", "fusion_lon": 0.0, "fusion_lat": 0.0, "is_reserved": 0, "type": "electric_scooter", "bike_id": "7e1c424ebe2e676c8c18221d878522b1", "rental_uris": {"android": "https://dc.lft.to/lastmile_qr_scan", "ios": "https://dc.lft.to/lastmile_qr_scan"}}, {"is_disabled": 0, "lon": -77.05317516666666, "lat": 38.901657666666665, "name": "ddad1939cca02af064f07c296904f0a5", "fusion_lon": 0.0, "fusion_lat": 0.0, "is_reserved": 0, "type": "electric_scooter", "bike_id": "ddad1939cca02af064f07c296904f0a5", "rental_uris": {"android": "https://dc.lft.to/lastmile_qr_scan", "ios": "https://dc.lft.to/lastmile_qr_scan"}}, {"is_disabled": 0, "lon": -77.0656815, "lat": 38.9326185, "name": "16db063bbb5b894b021863fb079629af", "fusion_lon": 0.0, "fusion_lat": 0.0, "is_reserved": 0, "type": "electric_bike", "bike_id": "16db063bbb5b894b021863fb079629af", "rental_uris": {"android": "https://dc.lft.to/lastmile_qr_scan", "ios": "https://dc.lft.to/lastmile_qr_scan"}}, {"is_disabled": 0, "lon": -77.05211583333333, "lat": 38.90265, "name": "41246a5a1fad48558b2be7522ee3a664", "fusion_lon": 0.0, "fusion_lat": 0.0, "is_reserved": 0, "type": "electric_scooter", "bike_id": "41246a5a1fad48558b2be7522ee3a664", "rental_uris": {"android": "https://dc.lft.to/lastmile_qr_scan", "ios": "https://dc.lft.to/lastmile_qr_scan"}}, {"is_disabled": 0, "lon": -77.01983583333333, "lat": 38.8760575, "name": "82fa95de1a775b9a830ba930368cc889", "fusion_lon": 0.0, "fusion_lat": 0.0, "is_reserved": 0, "type": "electric_scooter", "bike_id": "82fa95de1a775b9a830ba930368cc889", "rental_uris": {"android": "https://dc.lft.to/lastmile_qr_scan", "ios": "https://dc.lft.to/lastmile_qr_scan"}}, {"is_disabled": 0, "lon": -77.0344905, "lat": 38.908122666666664, "name": "ff5174b2965c769407f727bc2ac8144f", "fusion_lon": 0.0, "fusion_lat": 0.0, "is_reserved": 0, "type": "electric_scooter", "bike_id": "ff5174b2965c769407f727bc2ac8144f", "rental_uris": {"android": "https://dc.lft.to/lastmile_qr_scan", "ios": "https://dc.lft.to/lastmile_qr_scan"}}, {"is_disabled": 0, "lon": -77.06822966666667, "lat": 38.916625, "name": "12cbf3b9b4b86e93827d7ef9602e7177", "fusion_lon": 0.0, "fusion_lat": 0.0, "is_reserved": 0, "type": "electric_scooter", "bike_id": "12cbf3b9b4b86e93827d7ef9602e7177", "rental_uris": {"android": "https://dc.lft.to/lastmile_qr_scan", "ios": "https://dc.lft.to/lastmile_qr_scan"}}, {"is_disabled": 0, "lon": -77.02597833333333, "lat": 38.918384333333336, "name": "d7d8cf610ba2fc8bcfb00ecf9b4259b7", "fusion_lon": 0.0, "fusion_lat": 0.0, "is_reserved": 0, "type": "electric_scooter", "bike_id": "d7d8cf610ba2fc8bcfb00ecf9b4259b7", "rental_uris": {"android": "https://dc.lft.to/lastmile_qr_scan", "ios": "https://dc.lft.to/lastmile_qr_scan"}}, {"is_disabled": 0, "lon": -77.04873983333333, "lat": 38.892398, "name": "69125ff2b573dac5dd12e98402cb566b", "fusion_lon": 0.0, "fusion_lat": 0.0, "is_reserved": 0, "type": "electric_scooter", "bike_id": "69125ff2b573dac5dd12e98402cb566b", "rental_uris": {"android": "https://dc.lft.to/lastmile_qr_scan", "ios": "https://dc.lft.to/lastmile_qr_scan"}}, {"is_disabled": 0, "lon": -76.99850566666667, "lat": 38.8962005, "name": "cc5927fb7210d3e86e1da19dfd2e15d9", "fusion_lon": 0.0, "fusion_lat": 0.0, "is_reserved": 0, "type": "electric_scooter", "bike_id": "cc5927fb7210d3e86e1da19dfd2e15d9", "rental_uris": {"android": "https://dc.lft.to/lastmile_qr_scan", "ios": "https://dc.lft.to/lastmile_qr_scan"}}, {"is_disabled": 0, "lon": -77.0385665, "lat": 38.9027065, "name": "2aa08d8da57012e5f0c7af2b729ae2b0", "fusion_lon": 0.0, "fusion_lat": 0.0, "is_reserved": 0, "type": "electric_scooter", "bike_id": "2aa08d8da57012e5f0c7af2b729ae2b0", "rental_uris": {"android": "https://dc.lft.to/lastmile_qr_scan", "ios": "https://dc.lft.to/lastmile_qr_scan"}}, {"is_disabled": 0, "lon": -77.0201765, "lat": 38.90372133333334, "name": "fd8dc68516e5bec6bb3ad005a43faa84", "fusion_lon": 0.0, "fusion_lat": 0.0, "is_reserved": 0, "type": "electric_scooter", "bike_id": "fd8dc68516e5bec6bb3ad005a43faa84", "rental_uris": {"android": "https://dc.lft.to/lastmile_qr_scan", "ios": "https://dc.lft.to/lastmile_qr_scan"}}, {"is_disabled": 0, "lon": -77.04534283333334, "lat": 38.90569266666667, "name": "5f63381266a0c2fcee625e7695841915", "fusion_lon": 0.0, "fusion_lat": 0.0, "is_reserved": 0, "type": "electric_scooter", "bike_id": "5f63381266a0c2fcee625e7695841915", "rental_uris": {"android": "https://dc.lft.to/lastmile_qr_scan", "ios": "https://dc.lft.to/lastmile_qr_scan"}}, {"is_disabled": 0, "lon": -77.02439416666667, "lat": 38.95638433333333, "name": "b474c09e73c373f1588b9dbfc4cca192", "fusion_lon": 0.0, "fusion_lat": 0.0, "is_reserved": 0, "type": "electric_scooter", "bike_id": "b474c09e73c373f1588b9dbfc4cca192", "rental_uris": {"android": "https://dc.lft.to/lastmile_qr_scan", "ios": "https://dc.lft.to/lastmile_qr_scan"}}, {"is_disabled": 0, "lon": -77.020077, "lat": 39.0262345, "name": "8c53d9632af5aab37c4496b2414c0800", "fusion_lon": 0.0, "fusion_lat": 0.0, "is_reserved": 0, "type": "electric_bike", "bike_id": "8c53d9632af5aab37c4496b2414c0800", "rental_uris": {"android": "https://dc.lft.to/lastmile_qr_scan", "ios": "https://dc.lft.to/lastmile_qr_scan"}}, {"is_disabled": 0, "lon": -77.02330633333334, "lat": 38.894682333333336, "name": "3852326de236137ddf7eacd1c6a32492", "fusion_lon": 0.0, "fusion_lat": 0.0, "is_reserved": 0, "type": "electric_scooter", "bike_id": "3852326de236137ddf7eacd1c6a32492", "rental_uris": {"android": "https://dc.lft.to/lastmile_qr_scan", "ios": "https://dc.lft.to/lastmile_qr_scan"}}, {"is_disabled": 0, "lon": -77.1128445, "lat": 38.83106, "name": "c1eaaf48bcde3e2daa5003ad535001a7", "fusion_lon": 0.0, "fusion_lat": 0.0, "is_reserved": 0, "type": "electric_bike", "bike_id": "c1eaaf48bcde3e2daa5003ad535001a7", "rental_uris": {"android": "https://dc.lft.to/lastmile_qr_scan", "ios": "https://dc.lft.to/lastmile_qr_scan"}}, {"is_disabled": 0, "lon": -76.99562883333333, "lat": 38.8619405, "name": "a792d3b715605584af93263769f8a4a0", "fusion_lon": 0.0, "fusion_lat": 0.0, "is_reserved": 0, "type": "electric_bike", "bike_id": "a792d3b715605584af93263769f8a4a0", "rental_uris": {"android": "https://dc.lft.to/lastmile_qr_scan", "ios": "https://dc.lft.to/lastmile_qr_scan"}}, {"is_disabled": 0, "lon": -77.00819683333333, "lat": 38.9156455, "name": "25f06adac4c5cd65737abf3592a0dea8", "fusion_lon": 0.0, "fusion_lat": 0.0, "is_reserved": 0, "type": "electric_scooter", "bike_id": "25f06adac4c5cd65737abf3592a0dea8", "rental_uris": {"android": "https://dc.lft.to/lastmile_qr_scan", "ios": "https://dc.lft.to/lastmile_qr_scan"}}, {"is_disabled": 0, "lon": -77.0269005, "lat": 38.93081033333333, "name": "715297192ddfed51fb62ab6dffba635f", "fusion_lon": 0.0, "fusion_lat": 0.0, "is_reserved": 0, "type": "electric_scooter", "bike_id": "715297192ddfed51fb62ab6dffba635f", "rental_uris": {"android": "https://dc.lft.to/lastmile_qr_scan", "ios": "https://dc.lft.to/lastmile_qr_scan"}}, {"is_disabled": 0, "lon": -77.01824883333333, "lat": 38.921599666666665, "name": "a245c9d11e55650b67f8691afa3ad087", "fusion_lon": 0.0, "fusion_lat": 0.0, "is_reserved": 0, "type": "electric_scooter", "bike_id": "a245c9d11e55650b67f8691afa3ad087", "rental_uris": {"android": "https://dc.lft.to/lastmile_qr_scan", "ios": "https://dc.lft.to/lastmile_qr_scan"}}, {"is_disabled": 0, "lon": -77.03661433333333, "lat": 38.918051166666665, "name": "0d2b172f6aa8620c1043f55b835e74f1", "fusion_lon": 0.0, "fusion_lat": 0.0, "is_reserved": 0, "type": "electric_scooter", "bike_id": "0d2b172f6aa8620c1043f55b835e74f1", "rental_uris": {"android": "https://dc.lft.to/lastmile_qr_scan", "ios": "https://dc.lft.to/lastmile_qr_scan"}}, {"is_disabled": 0, "lon": -77.0342515, "lat": 38.9140645, "name": "010da4f8158eb39cf75c4786e5386a60", "fusion_lon": 0.0, "fusion_lat": 0.0, "is_reserved": 0, "type": "electric_scooter", "bike_id": "010da4f8158eb39cf75c4786e5386a60", "rental_uris": {"android": "https://dc.lft.to/lastmile_qr_scan", "ios": "https://dc.lft.to/lastmile_qr_scan"}}, {"is_disabled": 0, "lon": -77.015104, "lat": 38.9267215, "name": "47626eee4c0fd3fcc70cf2694b4cc205", "fusion_lon": 0.0, "fusion_lat": 0.0, "is_reserved": 0, "type": "electric_scooter", "bike_id": "47626eee4c0fd3fcc70cf2694b4cc205", "rental_uris": {"android": "https://dc.lft.to/lastmile_qr_scan", "ios": "https://dc.lft.to/lastmile_qr_scan"}}, {"is_disabled": 0, "lon": -77.01867916666667, "lat": 38.951537333333334, "name": "20c6b15698bbc7825ffc143df8b3b6ac", "fusion_lon": 0.0, "fusion_lat": 0.0, "is_reserved": 0, "type": "electric_scooter", "bike_id": "20c6b15698bbc7825ffc143df8b3b6ac", "rental_uris": {"android": "https://dc.lft.to/lastmile_qr_scan", "ios": "https://dc.lft.to/lastmile_qr_scan"}}, {"is_disabled": 0, "lon": -77.04642283333334, "lat": 38.900671333333335, "name": "18afb0b682794124facc72a9c8ac4967", "fusion_lon": 0.0, "fusion_lat": 0.0, "is_reserved": 0, "type": "electric_scooter", "bike_id": "18afb0b682794124facc72a9c8ac4967", "rental_uris": {"android": "https://dc.lft.to/lastmile_qr_scan", "ios": "https://dc.lft.to/lastmile_qr_scan"}}, {"is_disabled": 0, "lon": -77.00057566666666, "lat": 38.900281, "name": "b35ed2a916006db8193f92f350da33ab", "fusion_lon": 0.0, "fusion_lat": 0.0, "is_reserved": 0, "type": "electric_scooter", "bike_id": "b35ed2a916006db8193f92f350da33ab", "rental_uris": {"android": "https://dc.lft.to/lastmile_qr_scan", "ios": "https://dc.lft.to/lastmile_qr_scan"}}, {"is_disabled": 0, "lon": -77.02211066666666, "lat": 38.96493733333333, "name": "f6069a3fa20f3269683e6a2f09f2c036", "fusion_lon": 0.0, "fusion_lat": 0.0, "is_reserved": 0, "type": "electric_bike", "bike_id": "f6069a3fa20f3269683e6a2f09f2c036", "rental_uris": {"android": "https://dc.lft.to/lastmile_qr_scan", "ios": "https://dc.lft.to/lastmile_qr_scan"}}, {"is_disabled": 0, "lon": -77.011927, "lat": 38.89794766666667, "name": "f6fe3d52c98bb969f9acc26d533c39fb", "fusion_lon": 0.0, "fusion_lat": 0.0, "is_reserved": 0, "type": "electric_scooter", "bike_id": "f6fe3d52c98bb969f9acc26d533c39fb", "rental_uris": {"android": "https://dc.lft.to/lastmile_qr_scan", "ios": "https://dc.lft.to/lastmile_qr_scan"}}, {"is_disabled": 0, "lon": -77.0258005, "lat": 38.925281, "name": "3991781d067fe9f51673bacbaa45503b", "fusion_lon": 0.0, "fusion_lat": 0.0, "is_reserved": 0, "type": "electric_scooter", "bike_id": "3991781d067fe9f51673bacbaa45503b", "rental_uris": {"android": "https://dc.lft.to/lastmile_qr_scan", "ios": "https://dc.lft.to/lastmile_qr_scan"}}, {"is_disabled": 0, "lon": -77.03210583333333, "lat": 38.917889333333335, "name": "d494e989306608a987999a3c281d753e", "fusion_lon": 0.0, "fusion_lat": 0.0, "is_reserved": 0, "type": "electric_scooter", "bike_id": "d494e989306608a987999a3c281d753e", "rental_uris": {"android": "https://dc.lft.to/lastmile_qr_scan", "ios": "https://dc.lft.to/lastmile_qr_scan"}}, {"is_disabled": 0, "lon": -77.041643, "lat": 38.903809, "name": "491926518a1cb16bb663bc3f4923152e", "fusion_lon": 0.0, "fusion_lat": 0.0, "is_reserved": 0, "type": "electric_scooter", "bike_id": "491926518a1cb16bb663bc3f4923152e", "rental_uris": {"android": "https://dc.lft.to/lastmile_qr_scan", "ios": "https://dc.lft.to/lastmile_qr_scan"}}, {"is_disabled": 0, "lon": -77.01850966666667, "lat": 38.9041475, "name": "f59c8f123d76beae67bb8eb7711aadd7", "fusion_lon": 0.0, "fusion_lat": 0.0, "is_reserved": 0, "type": "electric_scooter", "bike_id": "f59c8f123d76beae67bb8eb7711aadd7", "rental_uris": {"android": "https://dc.lft.to/lastmile_qr_scan", "ios": "https://dc.lft.to/lastmile_qr_scan"}}, {"is_disabled": 0, "lon": -77.04501583333334, "lat": 38.91275683333333, "name": "9a1ff103af8d8566926960c57050adf1", "fusion_lon": 0.0, "fusion_lat": 0.0, "is_reserved": 0, "type": "electric_scooter", "bike_id": "9a1ff103af8d8566926960c57050adf1", "rental_uris": {"android": "https://dc.lft.to/lastmile_qr_scan", "ios": "https://dc.lft.to/lastmile_qr_scan"}}, {"is_disabled": 0, "lon": -77.04230083333333, "lat": 38.9111255, "name": "d96512fb4667a80ac5786be967e72898", "fusion_lon": 0.0, "fusion_lat": 0.0, "is_reserved": 0, "type": "electric_scooter", "bike_id": "d96512fb4667a80ac5786be967e72898", "rental_uris": {"android": "https://dc.lft.to/lastmile_qr_scan", "ios": "https://dc.lft.to/lastmile_qr_scan"}}, {"is_disabled": 0, "lon": -77.0344335, "lat": 38.9074475, "name": "8437c144aef264286e2a736278691a8e", "fusion_lon": 0.0, "fusion_lat": 0.0, "is_reserved": 0, "type": "electric_scooter", "bike_id": "8437c144aef264286e2a736278691a8e", "rental_uris": {"android": "https://dc.lft.to/lastmile_qr_scan", "ios": "https://dc.lft.to/lastmile_qr_scan"}}, {"is_disabled": 0, "lon": -77.04035166666667, "lat": 38.918076, "name": "1c38c63bf796ed110852d4224822fbad", "fusion_lon": 0.0, "fusion_lat": 0.0, "is_reserved": 0, "type": "electric_scooter", "bike_id": "1c38c63bf796ed110852d4224822fbad", "rental_uris": {"android": "https://dc.lft.to/lastmile_qr_scan", "ios": "https://dc.lft.to/lastmile_qr_scan"}}, {"is_disabled": 0, "lon": -76.98244033333333, "lat": 38.95244433333333, "name": "dabf5f07c2e863032c263d1ddfc8d382", "fusion_lon": 0.0, "fusion_lat": 0.0, "is_reserved": 0, "type": "electric_bike", "bike_id": "dabf5f07c2e863032c263d1ddfc8d382", "rental_uris": {"android": "https://dc.lft.to/lastmile_qr_scan", "ios": "https://dc.lft.to/lastmile_qr_scan"}}, {"is_disabled": 0, "lon": -77.02717966666667, "lat": 38.91814766666667, "name": "401b242d01aff51897ea4b564bd3b27a", "fusion_lon": 0.0, "fusion_lat": 0.0, "is_reserved": 0, "type": "electric_scooter", "bike_id": "401b242d01aff51897ea4b564bd3b27a", "rental_uris": {"android": "https://dc.lft.to/lastmile_qr_scan", "ios": "https://dc.lft.to/lastmile_qr_scan"}}, {"is_disabled": 0, "lon": -77.04038116666666, "lat": 38.912834333333336, "name": "dd5a7baa0cc2679b04e0be901e996c36", "fusion_lon": 0.0, "fusion_lat": 0.0, "is_reserved": 0, "type": "electric_scooter", "bike_id": "dd5a7baa0cc2679b04e0be901e996c36", "rental_uris": {"android": "https://dc.lft.to/lastmile_qr_scan", "ios": "https://dc.lft.to/lastmile_qr_scan"}}, {"is_disabled": 0, "lon": -77.0404255, "lat": 38.90422066666667, "name": "ec8b7e1bd4dccc68998bf6c90c4d18c0", "fusion_lon": 0.0, "fusion_lat": 0.0, "is_reserved": 0, "type": "electric_scooter", "bike_id": "ec8b7e1bd4dccc68998bf6c90c4d18c0", "rental_uris": {"android": "https://dc.lft.to/lastmile_qr_scan", "ios": "https://dc.lft.to/lastmile_qr_scan"}}, {"is_disabled": 0, "lon": -77.03312266666667, "lat": 38.900219166666666, "name": "769e7db2350a5e53601c5b0f35f9f668", "fusion_lon": 0.0, "fusion_lat": 0.0, "is_reserved": 0, "type": "electric_scooter", "bike_id": "769e7db2350a5e53601c5b0f35f9f668", "rental_uris": {"android": "https://dc.lft.to/lastmile_qr_scan", "ios": "https://dc.lft.to/lastmile_qr_scan"}}, {"is_disabled": 0, "lon": -77.03011783333334, "lat": 38.900129666666665, "name": "9c7c22f84d6bc28e4fa04199c6e6c649", "fusion_lon": 0.0, "fusion_lat": 0.0, "is_reserved": 0, "type": "electric_bike", "bike_id": "9c7c22f84d6bc28e4fa04199c6e6c649", "rental_uris": {"android": "https://dc.lft.to/lastmile_qr_scan", "ios": "https://dc.lft.to/lastmile_qr_scan"}}, {"is_disabled": 0, "lon": -77.0332385, "lat": 38.8988275, "name": "dfa0cac497a62dc7c39af2bb2ae19923", "fusion_lon": 0.0, "fusion_lat": 0.0, "is_reserved": 0, "type": "electric_scooter", "bike_id": "dfa0cac497a62dc7c39af2bb2ae19923", "rental_uris": {"android": "https://dc.lft.to/lastmile_qr_scan", "ios": "https://dc.lft.to/lastmile_qr_scan"}}, {"is_disabled": 0, "lon": -77.02695316666667, "lat": 38.897453666666664, "name": "262ec510f906d19680db515ccb0dc3d6", "fusion_lon": 0.0, "fusion_lat": 0.0, "is_reserved": 0, "type": "electric_scooter", "bike_id": "262ec510f906d19680db515ccb0dc3d6", "rental_uris": {"android": "https://dc.lft.to/lastmile_qr_scan", "ios": "https://dc.lft.to/lastmile_qr_scan"}}, {"is_disabled": 0, "lon": -77.0051845, "lat": 38.87645416666667, "name": "d0f35766d437c7d123df69772ac9da98", "fusion_lon": 0.0, "fusion_lat": 0.0, "is_reserved": 0, "type": "electric_scooter", "bike_id": "d0f35766d437c7d123df69772ac9da98", "rental_uris": {"android": "https://dc.lft.to/lastmile_qr_scan", "ios": "https://dc.lft.to/lastmile_qr_scan"}}, {"is_disabled": 0, "lon": -77.03642183333334, "lat": 38.912711333333334, "name": "fdf58c4274e955cf60cad7408f5d320a", "fusion_lon": 0.0, "fusion_lat": 0.0, "is_reserved": 0, "type": "electric_scooter", "bike_id": "fdf58c4274e955cf60cad7408f5d320a", "rental_uris": {"android": "https://dc.lft.to/lastmile_qr_scan", "ios": "https://dc.lft.to/lastmile_qr_scan"}}, {"is_disabled": 0, "lon": -77.03801333333334, "lat": 38.93104683333333, "name": "98d293d9613e65cdce89b085b56098e8", "fusion_lon": 0.0, "fusion_lat": 0.0, "is_reserved": 0, "type": "electric_scooter", "bike_id": "98d293d9613e65cdce89b085b56098e8", "rental_uris": {"android": "https://dc.lft.to/lastmile_qr_scan", "ios": "https://dc.lft.to/lastmile_qr_scan"}}, {"is_disabled": 0, "lon": -77.03290083333333, "lat": 38.91414733333333, "name": "f71dd6c89030062d993c46a7f422d75f", "fusion_lon": 0.0, "fusion_lat": 0.0, "is_reserved": 0, "type": "electric_scooter", "bike_id": "f71dd6c89030062d993c46a7f422d75f", "rental_uris": {"android": "https://dc.lft.to/lastmile_qr_scan", "ios": "https://dc.lft.to/lastmile_qr_scan"}}, {"is_disabled": 0, "lon": -76.96710333333333, "lat": 38.85973833333333, "name": "8991e9a407b3022b56945efbbc716c11", "fusion_lon": 0.0, "fusion_lat": 0.0, "is_reserved": 0, "type": "electric_scooter", "bike_id": "8991e9a407b3022b56945efbbc716c11", "rental_uris": {"android": "https://dc.lft.to/lastmile_qr_scan", "ios": "https://dc.lft.to/lastmile_qr_scan"}}, {"is_disabled": 0, "lon": -77.02534483333334, "lat": 38.920778166666665, "name": "66761c0ebf8e1ad69c2635c79f85627f", "fusion_lon": 0.0, "fusion_lat": 0.0, "is_reserved": 0, "type": "electric_scooter", "bike_id": "66761c0ebf8e1ad69c2635c79f85627f", "rental_uris": {"android": "https://dc.lft.to/lastmile_qr_scan", "ios": "https://dc.lft.to/lastmile_qr_scan"}}, {"is_disabled": 0, "lon": -77.0308565, "lat": 38.89554016666666, "name": "688efbbac306adee02c202aa4559b589", "fusion_lon": 0.0, "fusion_lat": 0.0, "is_reserved": 0, "type": "electric_scooter", "bike_id": "688efbbac306adee02c202aa4559b589", "rental_uris": {"android": "https://dc.lft.to/lastmile_qr_scan", "ios": "https://dc.lft.to/lastmile_qr_scan"}}, {"is_disabled": 0, "lon": -77.00248683333334, "lat": 38.952067, "name": "5fcc2d9047f982f758d5523fd951b640", "fusion_lon": 0.0, "fusion_lat": 0.0, "is_reserved": 0, "type": "electric_bike", "bike_id": "5fcc2d9047f982f758d5523fd951b640", "rental_uris": {"android": "https://dc.lft.to/lastmile_qr_scan", "ios": "https://dc.lft.to/lastmile_qr_scan"}}, {"is_disabled": 0, "lon": -77.0194505, "lat": 38.92419816666666, "name": "78e2becd9c457a6f5fff32b5f447ace4", "fusion_lon": 0.0, "fusion_lat": 0.0, "is_reserved": 0, "type": "electric_scooter", "bike_id": "78e2becd9c457a6f5fff32b5f447ace4", "rental_uris": {"android": "https://dc.lft.to/lastmile_qr_scan", "ios": "https://dc.lft.to/lastmile_qr_scan"}}, {"is_disabled": 0, "lon": -77.032967, "lat": 38.937882, "name": "6aa16986ac3725c22e25bd95a7a5e27e", "fusion_lon": 0.0, "fusion_lat": 0.0, "is_reserved": 0, "type": "electric_scooter", "bike_id": "6aa16986ac3725c22e25bd95a7a5e27e", "rental_uris": {"android": "https://dc.lft.to/lastmile_qr_scan", "ios": "https://dc.lft.to/lastmile_qr_scan"}}, {"is_disabled": 0, "lon": -77.05512083333333, "lat": 38.92833916666667, "name": "5550cef3571e8627a7cedfa4bb289098", "fusion_lon": 0.0, "fusion_lat": 0.0, "is_reserved": 0, "type": "electric_scooter", "bike_id": "5550cef3571e8627a7cedfa4bb289098", "rental_uris": {"android": "https://dc.lft.to/lastmile_qr_scan", "ios": "https://dc.lft.to/lastmile_qr_scan"}}, {"is_disabled": 0, "lon": -77.0257405, "lat": 38.9125875, "name": "b9d72f9954867f6ce600e248ebd78ef6", "fusion_lon": 0.0, "fusion_lat": 0.0, "is_reserved": 0, "type": "electric_scooter", "bike_id": "b9d72f9954867f6ce600e248ebd78ef6", "rental_uris": {"android": "https://dc.lft.to/lastmile_qr_scan", "ios": "https://dc.lft.to/lastmile_qr_scan"}}, {"is_disabled": 0, "lon": -77.07573133333334, "lat": 38.896366, "name": "371aad2fe83f7c5753af205f96d704d4", "fusion_lon": 0.0, "fusion_lat": 0.0, "is_reserved": 0, "type": "electric_scooter", "bike_id": "371aad2fe83f7c5753af205f96d704d4", "rental_uris": {"android": "https://dc.lft.to/lastmile_qr_scan", "ios": "https://dc.lft.to/lastmile_qr_scan"}}, {"is_disabled": 0, "lon": -77.03002016666667, "lat": 38.9025125, "name": "1bd86d3f087d7798cf1d9608998d69e6", "fusion_lon": 0.0, "fusion_lat": 0.0, "is_reserved": 0, "type": "electric_scooter", "bike_id": "1bd86d3f087d7798cf1d9608998d69e6", "rental_uris": {"android": "https://dc.lft.to/lastmile_qr_scan", "ios": "https://dc.lft.to/lastmile_qr_scan"}}, {"is_disabled": 0, "lon": -77.02802616666666, "lat": 38.91044733333333, "name": "4eeed713a49c3e6d4cd1bd32c435ed77", "fusion_lon": 0.0, "fusion_lat": 0.0, "is_reserved": 0, "type": "electric_scooter", "bike_id": "4eeed713a49c3e6d4cd1bd32c435ed77", "rental_uris": {"android": "https://dc.lft.to/lastmile_qr_scan", "ios": "https://dc.lft.to/lastmile_qr_scan"}}, {"is_disabled": 0, "lon": -77.02217516666667, "lat": 38.89322266666667, "name": "7e014f86a4ca36af45a8bdede0e06d11", "fusion_lon": 0.0, "fusion_lat": 0.0, "is_reserved": 0, "type": "electric_scooter", "bike_id": "7e014f86a4ca36af45a8bdede0e06d11", "rental_uris": {"android": "https://dc.lft.to/lastmile_qr_scan", "ios": "https://dc.lft.to/lastmile_qr_scan"}}, {"is_disabled": 0, "lon": -77.021656, "lat": 38.919937833333336, "name": "dfd48e27929be44ecbabd8588d315f45", "fusion_lon": 0.0, "fusion_lat": 0.0, "is_reserved": 0, "type": "electric_scooter", "bike_id": "dfd48e27929be44ecbabd8588d315f45", "rental_uris": {"android": "https://dc.lft.to/lastmile_qr_scan", "ios": "https://dc.lft.to/lastmile_qr_scan"}}, {"is_disabled": 0, "lon": -77.0191725, "lat": 38.92024716666667, "name": "c43a5874067f4e34fe23fece125054c7", "fusion_lon": 0.0, "fusion_lat": 0.0, "is_reserved": 0, "type": "electric_scooter", "bike_id": "c43a5874067f4e34fe23fece125054c7", "rental_uris": {"android": "https://dc.lft.to/lastmile_qr_scan", "ios": "https://dc.lft.to/lastmile_qr_scan"}}, {"is_disabled": 0, "lon": -77.01758166666667, "lat": 38.87687316666667, "name": "75f0851ba7e0fc5239a4e0c758bd91d0", "fusion_lon": 0.0, "fusion_lat": 0.0, "is_reserved": 0, "type": "electric_scooter", "bike_id": "75f0851ba7e0fc5239a4e0c758bd91d0", "rental_uris": {"android": "https://dc.lft.to/lastmile_qr_scan", "ios": "https://dc.lft.to/lastmile_qr_scan"}}, {"is_disabled": 0, "lon": -77.0279625, "lat": 38.907366833333334, "name": "00c74da170fc6b2ae8488eeaa74f04b6", "fusion_lon": 0.0, "fusion_lat": 0.0, "is_reserved": 0, "type": "electric_scooter", "bike_id": "00c74da170fc6b2ae8488eeaa74f04b6", "rental_uris": {"android": "https://dc.lft.to/lastmile_qr_scan", "ios": "https://dc.lft.to/lastmile_qr_scan"}}, {"is_disabled": 0, "lon": -77.074525, "lat": 38.93788216666667, "name": "e32c4546a7fe7255a22f88afab71e284", "fusion_lon": 0.0, "fusion_lat": 0.0, "is_reserved": 0, "type": "electric_scooter", "bike_id": "e32c4546a7fe7255a22f88afab71e284", "rental_uris": {"android": "https://dc.lft.to/lastmile_qr_scan", "ios": "https://dc.lft.to/lastmile_qr_scan"}}, {"is_disabled": 0, "lon": -77.05314733333333, "lat": 38.904553, "name": "2e32301df14e9ee81ce1b06d5797fde6", "fusion_lon": 0.0, "fusion_lat": 0.0, "is_reserved": 0, "type": "electric_scooter", "bike_id": "2e32301df14e9ee81ce1b06d5797fde6", "rental_uris": {"android": "https://dc.lft.to/lastmile_qr_scan", "ios": "https://dc.lft.to/lastmile_qr_scan"}}, {"is_disabled": 0, "lon": -77.0195615, "lat": 38.9232835, "name": "55e3bc00d6160a409e352ddcaea73360", "fusion_lon": 0.0, "fusion_lat": 0.0, "is_reserved": 0, "type": "electric_scooter", "bike_id": "55e3bc00d6160a409e352ddcaea73360", "rental_uris": {"android": "https://dc.lft.to/lastmile_qr_scan", "ios": "https://dc.lft.to/lastmile_qr_scan"}}, {"is_disabled": 0, "lon": -77.04311783333333, "lat": 39.034259166666665, "name": "6685af2ad9e94c1a27814ce7b4a9bc72", "fusion_lon": 0.0, "fusion_lat": 0.0, "is_reserved": 0, "type": "electric_bike", "bike_id": "6685af2ad9e94c1a27814ce7b4a9bc72", "rental_uris": {"android": "https://dc.lft.to/lastmile_qr_scan", "ios": "https://dc.lft.to/lastmile_qr_scan"}}, {"is_disabled": 0, "lon": -77.04527516666667, "lat": 38.9038815, "name": "465a8e6238d4f81b9536881279d7bb46", "fusion_lon": 0.0, "fusion_lat": 0.0, "is_reserved": 0, "type": "electric_scooter", "bike_id": "465a8e6238d4f81b9536881279d7bb46", "rental_uris": {"android": "https://dc.lft.to/lastmile_qr_scan", "ios": "https://dc.lft.to/lastmile_qr_scan"}}, {"is_disabled": 0, "lon": -76.99881416666666, "lat": 38.920545833333335, "name": "bcc39f41ed0c169820243987e01aa93d", "fusion_lon": 0.0, "fusion_lat": 0.0, "is_reserved": 0, "type": "electric_scooter", "bike_id": "bcc39f41ed0c169820243987e01aa93d", "rental_uris": {"android": "https://dc.lft.to/lastmile_qr_scan", "ios": "https://dc.lft.to/lastmile_qr_scan"}}, {"is_disabled": 0, "lon": -77.033917, "lat": 38.90967833333333, "name": "0903941cfbf79d205dc08cab2980b021", "fusion_lon": 0.0, "fusion_lat": 0.0, "is_reserved": 0, "type": "electric_scooter", "bike_id": "0903941cfbf79d205dc08cab2980b021", "rental_uris": {"android": "https://dc.lft.to/lastmile_qr_scan", "ios": "https://dc.lft.to/lastmile_qr_scan"}}, {"is_disabled": 0, "lon": -76.97307066666667, "lat": 38.91987683333333, "name": "5662501fe51a8234f11cdedd97bc4c3a", "fusion_lon": 0.0, "fusion_lat": 0.0, "is_reserved": 0, "type": "electric_scooter", "bike_id": "5662501fe51a8234f11cdedd97bc4c3a", "rental_uris": {"android": "https://dc.lft.to/lastmile_qr_scan", "ios": "https://dc.lft.to/lastmile_qr_scan"}}, {"is_disabled": 0, "lon": -77.03956683333334, "lat": 38.89248766666667, "name": "46d6f64a8ee0751daf7af0855165159e", "fusion_lon": 0.0, "fusion_lat": 0.0, "is_reserved": 0, "type": "electric_scooter", "bike_id": "46d6f64a8ee0751daf7af0855165159e", "rental_uris": {"android": "https://dc.lft.to/lastmile_qr_scan", "ios": "https://dc.lft.to/lastmile_qr_scan"}}, {"is_disabled": 0, "lon": -77.0370275, "lat": 38.926388, "name": "676e018b8ae74e499fdc028674cff0dd", "fusion_lon": 0.0, "fusion_lat": 0.0, "is_reserved": 0, "type": "electric_scooter", "bike_id": "676e018b8ae74e499fdc028674cff0dd", "rental_uris": {"android": "https://dc.lft.to/lastmile_qr_scan", "ios": "https://dc.lft.to/lastmile_qr_scan"}}, {"is_disabled": 0, "lon": -77.03614466666667, "lat": 38.925972333333334, "name": "5cf2767850a1e1a2caacbc6afcee5221", "fusion_lon": 0.0, "fusion_lat": 0.0, "is_reserved": 0, "type": "electric_scooter", "bike_id": "5cf2767850a1e1a2caacbc6afcee5221", "rental_uris": {"android": "https://dc.lft.to/lastmile_qr_scan", "ios": "https://dc.lft.to/lastmile_qr_scan"}}, {"is_disabled": 0, "lon": -77.06002916666667, "lat": 38.902175666666665, "name": "10050991b1c5b367a446f1260ca763b9", "fusion_lon": 0.0, "fusion_lat": 0.0, "is_reserved": 0, "type": "electric_scooter", "bike_id": "10050991b1c5b367a446f1260ca763b9", "rental_uris": {"android": "https://dc.lft.to/lastmile_qr_scan", "ios": "https://dc.lft.to/lastmile_qr_scan"}}, {"is_disabled": 0, "lon": -77.0023315, "lat": 38.900183, "name": "a2f041373b61b5ed0238da280641218a", "fusion_lon": 0.0, "fusion_lat": 0.0, "is_reserved": 0, "type": "electric_scooter", "bike_id": "a2f041373b61b5ed0238da280641218a", "rental_uris": {"android": "https://dc.lft.to/lastmile_qr_scan", "ios": "https://dc.lft.to/lastmile_qr_scan"}}, {"is_disabled": 0, "lon": -77.00922916666667, "lat": 38.9006525, "name": "c7add6d1caf709b5526e0ff32aaac3d1", "fusion_lon": 0.0, "fusion_lat": 0.0, "is_reserved": 0, "type": "electric_scooter", "bike_id": "c7add6d1caf709b5526e0ff32aaac3d1", "rental_uris": {"android": "https://dc.lft.to/lastmile_qr_scan", "ios": "https://dc.lft.to/lastmile_qr_scan"}}, {"is_disabled": 0, "lon": -77.01840466666667, "lat": 38.90961133333333, "name": "8862bcf6800dc0e1574104b1299619f6", "fusion_lon": 0.0, "fusion_lat": 0.0, "is_reserved": 0, "type": "electric_scooter", "bike_id": "8862bcf6800dc0e1574104b1299619f6", "rental_uris": {"android": "https://dc.lft.to/lastmile_qr_scan", "ios": "https://dc.lft.to/lastmile_qr_scan"}}, {"is_disabled": 0, "lon": -77.025683, "lat": 38.941976833333335, "name": "3b521fdcbf65dfc222fb8f71dc87a29f", "fusion_lon": 0.0, "fusion_lat": 0.0, "is_reserved": 0, "type": "electric_scooter", "bike_id": "3b521fdcbf65dfc222fb8f71dc87a29f", "rental_uris": {"android": "https://dc.lft.to/lastmile_qr_scan", "ios": "https://dc.lft.to/lastmile_qr_scan"}}, {"is_disabled": 0, "lon": -77.0439505, "lat": 38.90155, "name": "736c0d93af080abc7c11ca263dcf6643", "fusion_lon": 0.0, "fusion_lat": 0.0, "is_reserved": 0, "type": "electric_scooter", "bike_id": "736c0d93af080abc7c11ca263dcf6643", "rental_uris": {"android": "https://dc.lft.to/lastmile_qr_scan", "ios": "https://dc.lft.to/lastmile_qr_scan"}}, {"is_disabled": 0, "lon": -77.02542933333334, "lat": 38.92095533333333, "name": "5c1889d784d9d9848a74693526f7e1c8", "fusion_lon": 0.0, "fusion_lat": 0.0, "is_reserved": 0, "type": "electric_scooter", "bike_id": "5c1889d784d9d9848a74693526f7e1c8", "rental_uris": {"android": "https://dc.lft.to/lastmile_qr_scan", "ios": "https://dc.lft.to/lastmile_qr_scan"}}, {"is_disabled": 0, "lon": -77.04140816666667, "lat": 38.9010385, "name": "63a4737eacc39b31e23b83d6d877b808", "fusion_lon": 0.0, "fusion_lat": 0.0, "is_reserved": 0, "type": "electric_scooter", "bike_id": "63a4737eacc39b31e23b83d6d877b808", "rental_uris": {"android": "https://dc.lft.to/lastmile_qr_scan", "ios": "https://dc.lft.to/lastmile_qr_scan"}}, {"is_disabled": 0, "lon": -77.02382133333333, "lat": 38.9096485, "name": "a4d48102a6c280acba87d5ede1e7c14f", "fusion_lon": 0.0, "fusion_lat": 0.0, "is_reserved": 0, "type": "electric_scooter", "bike_id": "a4d48102a6c280acba87d5ede1e7c14f", "rental_uris": {"android": "https://dc.lft.to/lastmile_qr_scan", "ios": "https://dc.lft.to/lastmile_qr_scan"}}, {"is_disabled": 0, "lon": -77.03492116666666, "lat": 38.91892033333333, "name": "29c0448a92521856203819c0a37f1c22", "fusion_lon": 0.0, "fusion_lat": 0.0, "is_reserved": 0, "type": "electric_scooter", "bike_id": "29c0448a92521856203819c0a37f1c22", "rental_uris": {"android": "https://dc.lft.to/lastmile_qr_scan", "ios": "https://dc.lft.to/lastmile_qr_scan"}}, {"is_disabled": 0, "lon": -77.0362555, "lat": 38.936768666666666, "name": "ad1e0f9b99012603383ac0e1183e67b4", "fusion_lon": 0.0, "fusion_lat": 0.0, "is_reserved": 0, "type": "electric_scooter", "bike_id": "ad1e0f9b99012603383ac0e1183e67b4", "rental_uris": {"android": "https://dc.lft.to/lastmile_qr_scan", "ios": "https://dc.lft.to/lastmile_qr_scan"}}, {"is_disabled": 0, "lon": -77.04136583333333, "lat": 38.90721816666667, "name": "cc08debdef1048c19723a46a280d0314", "fusion_lon": 0.0, "fusion_lat": 0.0, "is_reserved": 0, "type": "electric_scooter", "bike_id": "cc08debdef1048c19723a46a280d0314", "rental_uris": {"android": "https://dc.lft.to/lastmile_qr_scan", "ios": "https://dc.lft.to/lastmile_qr_scan"}}, {"is_disabled": 0, "lon": -77.03805666666666, "lat": 38.90670883333333, "name": "cdcc03cb7dc885f0e77eee0026aa19e2", "fusion_lon": 0.0, "fusion_lat": 0.0, "is_reserved": 0, "type": "electric_scooter", "bike_id": "cdcc03cb7dc885f0e77eee0026aa19e2", "rental_uris": {"android": "https://dc.lft.to/lastmile_qr_scan", "ios": "https://dc.lft.to/lastmile_qr_scan"}}, {"is_disabled": 0, "lon": -76.9732525, "lat": 38.9041315, "name": "f0d55d07ffb6bd8aa141732914c293f6", "fusion_lon": 0.0, "fusion_lat": 0.0, "is_reserved": 0, "type": "electric_scooter", "bike_id": "f0d55d07ffb6bd8aa141732914c293f6", "rental_uris": {"android": "https://dc.lft.to/lastmile_qr_scan", "ios": "https://dc.lft.to/lastmile_qr_scan"}}, {"is_disabled": 0, "lon": -77.05812066666667, "lat": 38.93534666666667, "name": "f404c1ad61c004294badfe50620397fd", "fusion_lon": 0.0, "fusion_lat": 0.0, "is_reserved": 0, "type": "electric_scooter", "bike_id": "f404c1ad61c004294badfe50620397fd", "rental_uris": {"android": "https://dc.lft.to/lastmile_qr_scan", "ios": "https://dc.lft.to/lastmile_qr_scan"}}, {"is_disabled": 0, "lon": -77.041591, "lat": 38.9142515, "name": "6141fae109bb4c2821999a62a033fdcf", "fusion_lon": 0.0, "fusion_lat": 0.0, "is_reserved": 0, "type": "electric_scooter", "bike_id": "6141fae109bb4c2821999a62a033fdcf", "rental_uris": {"android": "https://dc.lft.to/lastmile_qr_scan", "ios": "https://dc.lft.to/lastmile_qr_scan"}}, {"is_disabled": 0, "lon": -77.04422783333334, "lat": 38.89605266666667, "name": "ac69b8041a8f81ec477e73259def80da", "fusion_lon": 0.0, "fusion_lat": 0.0, "is_reserved": 0, "type": "electric_scooter", "bike_id": "ac69b8041a8f81ec477e73259def80da", "rental_uris": {"android": "https://dc.lft.to/lastmile_qr_scan", "ios": "https://dc.lft.to/lastmile_qr_scan"}}, {"is_disabled": 0, "lon": -77.029926, "lat": 38.91710616666667, "name": "5321d0e755ed164ee188e7242a93cfbd", "fusion_lon": 0.0, "fusion_lat": 0.0, "is_reserved": 0, "type": "electric_scooter", "bike_id": "5321d0e755ed164ee188e7242a93cfbd", "rental_uris": {"android": "https://dc.lft.to/lastmile_qr_scan", "ios": "https://dc.lft.to/lastmile_qr_scan"}}, {"is_disabled": 0, "lon": -77.06945366666666, "lat": 38.83627233333333, "name": "8d7c7e1b53ceadaf1707f7fd9e0c7da1", "fusion_lon": 0.0, "fusion_lat": 0.0, "is_reserved": 0, "type": "electric_bike", "bike_id": "8d7c7e1b53ceadaf1707f7fd9e0c7da1", "rental_uris": {"android": "https://dc.lft.to/lastmile_qr_scan", "ios": "https://dc.lft.to/lastmile_qr_scan"}}, {"is_disabled": 0, "lon": -77.06181733333334, "lat": 38.91042366666667, "name": "498de621aa1e9da90a65f96286942607", "fusion_lon": 0.0, "fusion_lat": 0.0, "is_reserved": 0, "type": "electric_scooter", "bike_id": "498de621aa1e9da90a65f96286942607", "rental_uris": {"android": "https://dc.lft.to/lastmile_qr_scan", "ios": "https://dc.lft.to/lastmile_qr_scan"}}, {"is_disabled": 0, "lon": -77.01800116666666, "lat": 38.919454, "name": "7efcafb3f4c1ad7b900a7ec084c9df11", "fusion_lon": 0.0, "fusion_lat": 0.0, "is_reserved": 0, "type": "electric_scooter", "bike_id": "7efcafb3f4c1ad7b900a7ec084c9df11", "rental_uris": {"android": "https://dc.lft.to/lastmile_qr_scan", "ios": "https://dc.lft.to/lastmile_qr_scan"}}, {"is_disabled": 0, "lon": -76.9810075, "lat": 38.95358, "name": "67204ae91bedb4728826a58596d35b82", "fusion_lon": 0.0, "fusion_lat": 0.0, "is_reserved": 0, "type": "electric_bike", "bike_id": "67204ae91bedb4728826a58596d35b82", "rental_uris": {"android": "https://dc.lft.to/lastmile_qr_scan", "ios": "https://dc.lft.to/lastmile_qr_scan"}}, {"is_disabled": 0, "lon": -76.98649133333333, "lat": 38.83191016666667, "name": "217ae2d9339b55866909c6fb61154a39", "fusion_lon": 0.0, "fusion_lat": 0.0, "is_reserved": 0, "type": "electric_bike", "bike_id": "217ae2d9339b55866909c6fb61154a39", "rental_uris": {"android": "https://dc.lft.to/lastmile_qr_scan", "ios": "https://dc.lft.to/lastmile_qr_scan"}}, {"is_disabled": 0, "lon": -76.96211366666667, "lat": 38.932391833333334, "name": "6ad452f7460457435de5a42ce2367a46", "fusion_lon": 0.0, "fusion_lat": 0.0, "is_reserved": 0, "type": "electric_scooter", "bike_id": "6ad452f7460457435de5a42ce2367a46", "rental_uris": {"android": "https://dc.lft.to/lastmile_qr_scan", "ios": "https://dc.lft.to/lastmile_qr_scan"}}, {"is_disabled": 0, "lon": -77.0366305, "lat": 38.93178066666667, "name": "b7507b9a34c9d407e426d10a090df63b", "fusion_lon": 0.0, "fusion_lat": 0.0, "is_reserved": 0, "type": "electric_scooter", "bike_id": "b7507b9a34c9d407e426d10a090df63b", "rental_uris": {"android": "https://dc.lft.to/lastmile_qr_scan", "ios": "https://dc.lft.to/lastmile_qr_scan"}}, {"is_disabled": 0, "lon": -77.04860616666667, "lat": 38.90037216666666, "name": "44adc36f8e2fb6abbdac0aaf4b601f06", "fusion_lon": 0.0, "fusion_lat": 0.0, "is_reserved": 0, "type": "electric_scooter", "bike_id": "44adc36f8e2fb6abbdac0aaf4b601f06", "rental_uris": {"android": "https://dc.lft.to/lastmile_qr_scan", "ios": "https://dc.lft.to/lastmile_qr_scan"}}, {"is_disabled": 0, "lon": -77.02117166666666, "lat": 38.923252166666664, "name": "805b16d540b5c4e266947f1b02656d7d", "fusion_lon": 0.0, "fusion_lat": 0.0, "is_reserved": 0, "type": "electric_scooter", "bike_id": "805b16d540b5c4e266947f1b02656d7d", "rental_uris": {"android": "https://dc.lft.to/lastmile_qr_scan", "ios": "https://dc.lft.to/lastmile_qr_scan"}}, {"is_disabled": 0, "lon": -77.0261065, "lat": 38.904110333333335, "name": "eae37c6e0875c82b1dde5700314be799", "fusion_lon": 0.0, "fusion_lat": 0.0, "is_reserved": 0, "type": "electric_scooter", "bike_id": "eae37c6e0875c82b1dde5700314be799", "rental_uris": {"android": "https://dc.lft.to/lastmile_qr_scan", "ios": "https://dc.lft.to/lastmile_qr_scan"}}, {"is_disabled": 0, "lon": -76.9861685, "lat": 38.93825966666667, "name": "53a5960b27b92e200a57d12f5a2daaba", "fusion_lon": 0.0, "fusion_lat": 0.0, "is_reserved": 0, "type": "electric_scooter", "bike_id": "53a5960b27b92e200a57d12f5a2daaba", "rental_uris": {"android": "https://dc.lft.to/lastmile_qr_scan", "ios": "https://dc.lft.to/lastmile_qr_scan"}}, {"is_disabled": 0, "lon": -77.0390465, "lat": 38.918395333333336, "name": "fbb70b9c7e3549b6b270ee19efad6f68", "fusion_lon": 0.0, "fusion_lat": 0.0, "is_reserved": 0, "type": "electric_scooter", "bike_id": "fbb70b9c7e3549b6b270ee19efad6f68", "rental_uris": {"android": "https://dc.lft.to/lastmile_qr_scan", "ios": "https://dc.lft.to/lastmile_qr_scan"}}, {"is_disabled": 0, "lon": -77.027134, "lat": 38.89866983333334, "name": "5452718c7fa765c499fc1e9c4c2dec91", "fusion_lon": 0.0, "fusion_lat": 0.0, "is_reserved": 0, "type": "electric_scooter", "bike_id": "5452718c7fa765c499fc1e9c4c2dec91", "rental_uris": {"android": "https://dc.lft.to/lastmile_qr_scan", "ios": "https://dc.lft.to/lastmile_qr_scan"}}, {"is_disabled": 0, "lon": -77.03286933333334, "lat": 38.8988105, "name": "a2ba50ddbdb6cc254deeaa1908396bea", "fusion_lon": 0.0, "fusion_lat": 0.0, "is_reserved": 0, "type": "electric_scooter", "bike_id": "a2ba50ddbdb6cc254deeaa1908396bea", "rental_uris": {"android": "https://dc.lft.to/lastmile_qr_scan", "ios": "https://dc.lft.to/lastmile_qr_scan"}}, {"is_disabled": 0, "lon": -77.015121, "lat": 38.88737316666667, "name": "248ab105014e0bcfeb2be403b0ef4ec9", "fusion_lon": 0.0, "fusion_lat": 0.0, "is_reserved": 0, "type": "electric_scooter", "bike_id": "248ab105014e0bcfeb2be403b0ef4ec9", "rental_uris": {"android": "https://dc.lft.to/lastmile_qr_scan", "ios": "https://dc.lft.to/lastmile_qr_scan"}}, {"is_disabled": 0, "lon": -77.0465695, "lat": 38.893422, "name": "ef534120d5d73781b7fd6259bb3f3899", "fusion_lon": 0.0, "fusion_lat": 0.0, "is_reserved": 0, "type": "electric_scooter", "bike_id": "ef534120d5d73781b7fd6259bb3f3899", "rental_uris": {"android": "https://dc.lft.to/lastmile_qr_scan", "ios": "https://dc.lft.to/lastmile_qr_scan"}}, {"is_disabled": 0, "lon": -77.032107, "lat": 38.90893766666667, "name": "a691a3558443230c0d82cb13adcdc734", "fusion_lon": 0.0, "fusion_lat": 0.0, "is_reserved": 0, "type": "electric_scooter", "bike_id": "a691a3558443230c0d82cb13adcdc734", "rental_uris": {"android": "https://dc.lft.to/lastmile_qr_scan", "ios": "https://dc.lft.to/lastmile_qr_scan"}}, {"is_disabled": 0, "lon": -77.0006505, "lat": 38.8811555, "name": "5ac4c2344327d02917e52da02060ebf6", "fusion_lon": 0.0, "fusion_lat": 0.0, "is_reserved": 0, "type": "electric_scooter", "bike_id": "5ac4c2344327d02917e52da02060ebf6", "rental_uris": {"android": "https://dc.lft.to/lastmile_qr_scan", "ios": "https://dc.lft.to/lastmile_qr_scan"}}, {"is_disabled": 0, "lon": -76.97338983333333, "lat": 38.86553, "name": "ce1a1b0f01d34a2eddf26594be7fbd9f", "fusion_lon": 0.0, "fusion_lat": 0.0, "is_reserved": 0, "type": "electric_bike", "bike_id": "ce1a1b0f01d34a2eddf26594be7fbd9f", "rental_uris": {"android": "https://dc.lft.to/lastmile_qr_scan", "ios": "https://dc.lft.to/lastmile_qr_scan"}}, {"is_disabled": 0, "lon": -77.03507633333334, "lat": 38.901506833333336, "name": "ef720f96cdd0bb14f011763ead2ddb26", "fusion_lon": 0.0, "fusion_lat": 0.0, "is_reserved": 0, "type": "electric_scooter", "bike_id": "ef720f96cdd0bb14f011763ead2ddb26", "rental_uris": {"android": "https://dc.lft.to/lastmile_qr_scan", "ios": "https://dc.lft.to/lastmile_qr_scan"}}, {"is_disabled": 0, "lon": -77.041392, "lat": 38.9307265, "name": "c014534b95e273c9f9fa792497d51c53", "fusion_lon": 0.0, "fusion_lat": 0.0, "is_reserved": 0, "type": "electric_scooter", "bike_id": "c014534b95e273c9f9fa792497d51c53", "rental_uris": {"android": "https://dc.lft.to/lastmile_qr_scan", "ios": "https://dc.lft.to/lastmile_qr_scan"}}, {"is_disabled": 0, "lon": -77.03713383333333, "lat": 38.903595833333334, "name": "9b468e0389559b583e78ff61bbcacba9", "fusion_lon": 0.0, "fusion_lat": 0.0, "is_reserved": 0, "type": "electric_scooter", "bike_id": "9b468e0389559b583e78ff61bbcacba9", "rental_uris": {"android": "https://dc.lft.to/lastmile_qr_scan", "ios": "https://dc.lft.to/lastmile_qr_scan"}}, {"is_disabled": 0, "lon": -77.03255816666666, "lat": 38.897225166666665, "name": "9a6041622012fd9634493ffdbbee8d8d", "fusion_lon": 0.0, "fusion_lat": 0.0, "is_reserved": 0, "type": "electric_scooter", "bike_id": "9a6041622012fd9634493ffdbbee8d8d", "rental_uris": {"android": "https://dc.lft.to/lastmile_qr_scan", "ios": "https://dc.lft.to/lastmile_qr_scan"}}, {"is_disabled": 0, "lon": -77.01037983333333, "lat": 38.911379333333336, "name": "66be48d9421fcb78609977ea3d2f36a0", "fusion_lon": 0.0, "fusion_lat": 0.0, "is_reserved": 0, "type": "electric_scooter", "bike_id": "66be48d9421fcb78609977ea3d2f36a0", "rental_uris": {"android": "https://dc.lft.to/lastmile_qr_scan", "ios": "https://dc.lft.to/lastmile_qr_scan"}}, {"is_disabled": 0, "lon": -77.01338683333333, "lat": 38.881327666666664, "name": "4f218986634eb3b75dce10353e3c77ae", "fusion_lon": 0.0, "fusion_lat": 0.0, "is_reserved": 0, "type": "electric_scooter", "bike_id": "4f218986634eb3b75dce10353e3c77ae", "rental_uris": {"android": "https://dc.lft.to/lastmile_qr_scan", "ios": "https://dc.lft.to/lastmile_qr_scan"}}, {"is_disabled": 0, "lon": -77.053358, "lat": 38.92347016666667, "name": "33b0c25fe270d82108a2dc9d4aac788d", "fusion_lon": 0.0, "fusion_lat": 0.0, "is_reserved": 0, "type": "electric_scooter", "bike_id": "33b0c25fe270d82108a2dc9d4aac788d", "rental_uris": {"android": "https://dc.lft.to/lastmile_qr_scan", "ios": "https://dc.lft.to/lastmile_qr_scan"}}, {"is_disabled": 0, "lon": -77.02090583333333, "lat": 38.907331, "name": "c15fb230dd4067c193bff714859c5384", "fusion_lon": 0.0, "fusion_lat": 0.0, "is_reserved": 0, "type": "electric_scooter", "bike_id": "c15fb230dd4067c193bff714859c5384", "rental_uris": {"android": "https://dc.lft.to/lastmile_qr_scan", "ios": "https://dc.lft.to/lastmile_qr_scan"}}, {"is_disabled": 0, "lon": -76.97902816666667, "lat": 38.926981, "name": "16d8022686730504ef07208c70b8fc7a", "fusion_lon": 0.0, "fusion_lat": 0.0, "is_reserved": 0, "type": "electric_bike", "bike_id": "16d8022686730504ef07208c70b8fc7a", "rental_uris": {"android": "https://dc.lft.to/lastmile_qr_scan", "ios": "https://dc.lft.to/lastmile_qr_scan"}}, {"is_disabled": 0, "lon": -77.0431495, "lat": 38.90578166666667, "name": "c52c6fe290ff8ad3f7f90206ba25c264", "fusion_lon": 0.0, "fusion_lat": 0.0, "is_reserved": 0, "type": "electric_scooter", "bike_id": "c52c6fe290ff8ad3f7f90206ba25c264", "rental_uris": {"android": "https://dc.lft.to/lastmile_qr_scan", "ios": "https://dc.lft.to/lastmile_qr_scan"}}, {"is_disabled": 0, "lon": -77.05050083333333, "lat": 38.901542166666665, "name": "f48655e7113a4c5ab6a9629750f98666", "fusion_lon": 0.0, "fusion_lat": 0.0, "is_reserved": 0, "type": "electric_bike", "bike_id": "f48655e7113a4c5ab6a9629750f98666", "rental_uris": {"android": "https://dc.lft.to/lastmile_qr_scan", "ios": "https://dc.lft.to/lastmile_qr_scan"}}, {"is_disabled": 0, "lon": -77.017865, "lat": 38.921279, "name": "6489eb64cec0b35ef28c34ec218c1326", "fusion_lon": 0.0, "fusion_lat": 0.0, "is_reserved": 0, "type": "electric_scooter", "bike_id": "6489eb64cec0b35ef28c34ec218c1326", "rental_uris": {"android": "https://dc.lft.to/lastmile_qr_scan", "ios": "https://dc.lft.to/lastmile_qr_scan"}}, {"is_disabled": 0, "lon": -77.03792783333333, "lat": 38.93322466666667, "name": "906b2b75ec21401f08e10b3b3a9491da", "fusion_lon": 0.0, "fusion_lat": 0.0, "is_reserved": 0, "type": "electric_scooter", "bike_id": "906b2b75ec21401f08e10b3b3a9491da", "rental_uris": {"android": "https://dc.lft.to/lastmile_qr_scan", "ios": "https://dc.lft.to/lastmile_qr_scan"}}, {"is_disabled": 0, "lon": -77.01689783333333, "lat": 38.90132966666667, "name": "f70ab2908d62eaa046c7423dca799de4", "fusion_lon": 0.0, "fusion_lat": 0.0, "is_reserved": 0, "type": "electric_scooter", "bike_id": "f70ab2908d62eaa046c7423dca799de4", "rental_uris": {"android": "https://dc.lft.to/lastmile_qr_scan", "ios": "https://dc.lft.to/lastmile_qr_scan"}}, {"is_disabled": 0, "lon": -77.04557166666666, "lat": 38.900739, "name": "84d095f5820ba6898b1bc3457fa23a99", "fusion_lon": 0.0, "fusion_lat": 0.0, "is_reserved": 0, "type": "electric_scooter", "bike_id": "84d095f5820ba6898b1bc3457fa23a99", "rental_uris": {"android": "https://dc.lft.to/lastmile_qr_scan", "ios": "https://dc.lft.to/lastmile_qr_scan"}}, {"is_disabled": 0, "lon": -77.036608, "lat": 38.9227385, "name": "81596006671d2b1a28f4c5931c03a185", "fusion_lon": 0.0, "fusion_lat": 0.0, "is_reserved": 0, "type": "electric_scooter", "bike_id": "81596006671d2b1a28f4c5931c03a185", "rental_uris": {"android": "https://dc.lft.to/lastmile_qr_scan", "ios": "https://dc.lft.to/lastmile_qr_scan"}}, {"is_disabled": 0, "lon": -77.03752266666666, "lat": 38.906768166666666, "name": "abff7d2737836002e14fb27591b1a2d1", "fusion_lon": 0.0, "fusion_lat": 0.0, "is_reserved": 0, "type": "electric_scooter", "bike_id": "abff7d2737836002e14fb27591b1a2d1", "rental_uris": {"android": "https://dc.lft.to/lastmile_qr_scan", "ios": "https://dc.lft.to/lastmile_qr_scan"}}, {"is_disabled": 0, "lon": -77.04878366666667, "lat": 38.90105783333333, "name": "19185d8d2c50a5944724b9642b182e00", "fusion_lon": 0.0, "fusion_lat": 0.0, "is_reserved": 0, "type": "electric_scooter", "bike_id": "19185d8d2c50a5944724b9642b182e00", "rental_uris": {"android": "https://dc.lft.to/lastmile_qr_scan", "ios": "https://dc.lft.to/lastmile_qr_scan"}}, {"is_disabled": 0, "lon": -77.02205883333333, "lat": 38.89231633333333, "name": "15c6079ce1a217f05517feeb017657fa", "fusion_lon": 0.0, "fusion_lat": 0.0, "is_reserved": 0, "type": "electric_scooter", "bike_id": "15c6079ce1a217f05517feeb017657fa", "rental_uris": {"android": "https://dc.lft.to/lastmile_qr_scan", "ios": "https://dc.lft.to/lastmile_qr_scan"}}, {"is_disabled": 0, "lon": -77.038398, "lat": 38.909825, "name": "de45b9c561d2a8a90ceb6286603122ca", "fusion_lon": 0.0, "fusion_lat": 0.0, "is_reserved": 0, "type": "electric_scooter", "bike_id": "de45b9c561d2a8a90ceb6286603122ca", "rental_uris": {"android": "https://dc.lft.to/lastmile_qr_scan", "ios": "https://dc.lft.to/lastmile_qr_scan"}}, {"is_disabled": 0, "lon": -77.03625583333333, "lat": 38.90387233333333, "name": "d372b2a4aadc5f7e5ea528a55bdf67b7", "fusion_lon": 0.0, "fusion_lat": 0.0, "is_reserved": 0, "type": "electric_scooter", "bike_id": "d372b2a4aadc5f7e5ea528a55bdf67b7", "rental_uris": {"android": "https://dc.lft.to/lastmile_qr_scan", "ios": "https://dc.lft.to/lastmile_qr_scan"}}, {"is_disabled": 0, "lon": -77.0387475, "lat": 38.91714866666667, "name": "aa07bd078cc45d92d0d96e6852a72a92", "fusion_lon": 0.0, "fusion_lat": 0.0, "is_reserved": 0, "type": "electric_scooter", "bike_id": "aa07bd078cc45d92d0d96e6852a72a92", "rental_uris": {"android": "https://dc.lft.to/lastmile_qr_scan", "ios": "https://dc.lft.to/lastmile_qr_scan"}}, {"is_disabled": 0, "lon": -77.01513716666666, "lat": 38.872715666666664, "name": "9bcfc6c780cab6e0e6f282dbb2b60dc3", "fusion_lon": 0.0, "fusion_lat": 0.0, "is_reserved": 0, "type": "electric_scooter", "bike_id": "9bcfc6c780cab6e0e6f282dbb2b60dc3", "rental_uris": {"android": "https://dc.lft.to/lastmile_qr_scan", "ios": "https://dc.lft.to/lastmile_qr_scan"}}, {"is_disabled": 0, "lon": -77.0130755, "lat": 38.921038333333335, "name": "2ea9e932c9f6c4c26756650fd50d8ed7", "fusion_lon": 0.0, "fusion_lat": 0.0, "is_reserved": 0, "type": "electric_scooter", "bike_id": "2ea9e932c9f6c4c26756650fd50d8ed7", "rental_uris": {"android": "https://dc.lft.to/lastmile_qr_scan", "ios": "https://dc.lft.to/lastmile_qr_scan"}}, {"is_disabled": 0, "lon": -76.99491583333334, "lat": 38.882356, "name": "2b7f7d7243e92d3a234f48d4feb9a554", "fusion_lon": 0.0, "fusion_lat": 0.0, "is_reserved": 0, "type": "electric_scooter", "bike_id": "2b7f7d7243e92d3a234f48d4feb9a554", "rental_uris": {"android": "https://dc.lft.to/lastmile_qr_scan", "ios": "https://dc.lft.to/lastmile_qr_scan"}}, {"is_disabled": 0, "lon": -77.02582616666666, "lat": 38.925168666666664, "name": "98754fcfe107ca5f6140651f366b5313", "fusion_lon": 0.0, "fusion_lat": 0.0, "is_reserved": 0, "type": "electric_scooter", "bike_id": "98754fcfe107ca5f6140651f366b5313", "rental_uris": {"android": "https://dc.lft.to/lastmile_qr_scan", "ios": "https://dc.lft.to/lastmile_qr_scan"}}, {"is_disabled": 0, "lon": -76.9885865, "lat": 38.90024716666667, "name": "e0d1c875a52826058dbcdb707d27a021", "fusion_lon": 0.0, "fusion_lat": 0.0, "is_reserved": 0, "type": "electric_scooter", "bike_id": "e0d1c875a52826058dbcdb707d27a021", "rental_uris": {"android": "https://dc.lft.to/lastmile_qr_scan", "ios": "https://dc.lft.to/lastmile_qr_scan"}}, {"is_disabled": 0, "lon": -77.06164033333333, "lat": 38.941304, "name": "bdc879b2a31fc4762d6abba28a29a78e", "fusion_lon": 0.0, "fusion_lat": 0.0, "is_reserved": 0, "type": "electric_scooter", "bike_id": "bdc879b2a31fc4762d6abba28a29a78e", "rental_uris": {"android": "https://dc.lft.to/lastmile_qr_scan", "ios": "https://dc.lft.to/lastmile_qr_scan"}}, {"is_disabled": 0, "lon": -77.02974333333333, "lat": 38.907316333333334, "name": "8b24b6d4fc926cde88fb2b062be67b67", "fusion_lon": 0.0, "fusion_lat": 0.0, "is_reserved": 0, "type": "electric_scooter", "bike_id": "8b24b6d4fc926cde88fb2b062be67b67", "rental_uris": {"android": "https://dc.lft.to/lastmile_qr_scan", "ios": "https://dc.lft.to/lastmile_qr_scan"}}, {"is_disabled": 0, "lon": -77.02646433333334, "lat": 38.930997166666664, "name": "21c10e3c768e415a3d5e696f58781e6d", "fusion_lon": 0.0, "fusion_lat": 0.0, "is_reserved": 0, "type": "electric_scooter", "bike_id": "21c10e3c768e415a3d5e696f58781e6d", "rental_uris": {"android": "https://dc.lft.to/lastmile_qr_scan", "ios": "https://dc.lft.to/lastmile_qr_scan"}}, {"is_disabled": 0, "lon": -77.02385316666667, "lat": 38.909605, "name": "dc8ec3a9e3846b2938827e94ac77d0f9", "fusion_lon": 0.0, "fusion_lat": 0.0, "is_reserved": 0, "type": "electric_scooter", "bike_id": "dc8ec3a9e3846b2938827e94ac77d0f9", "rental_uris": {"android": "https://dc.lft.to/lastmile_qr_scan", "ios": "https://dc.lft.to/lastmile_qr_scan"}}, {"is_disabled": 0, "lon": -77.04012466666667, "lat": 38.905767, "name": "b94202983c8ed8cb10a9424e3b3dcade", "fusion_lon": 0.0, "fusion_lat": 0.0, "is_reserved": 0, "type": "electric_scooter", "bike_id": "b94202983c8ed8cb10a9424e3b3dcade", "rental_uris": {"android": "https://dc.lft.to/lastmile_qr_scan", "ios": "https://dc.lft.to/lastmile_qr_scan"}}, {"is_disabled": 0, "lon": -77.043575, "lat": 38.92243466666667, "name": "0aca186dcb0b4bf4075d1b45c7560b86", "fusion_lon": 0.0, "fusion_lat": 0.0, "is_reserved": 0, "type": "electric_scooter", "bike_id": "0aca186dcb0b4bf4075d1b45c7560b86", "rental_uris": {"android": "https://dc.lft.to/lastmile_qr_scan", "ios": "https://dc.lft.to/lastmile_qr_scan"}}, {"is_disabled": 0, "lon": -77.044499, "lat": 38.923323333333336, "name": "d5454752ea54ae9beb46d2ed1c3f2eb6", "fusion_lon": 0.0, "fusion_lat": 0.0, "is_reserved": 0, "type": "electric_scooter", "bike_id": "d5454752ea54ae9beb46d2ed1c3f2eb6", "rental_uris": {"android": "https://dc.lft.to/lastmile_qr_scan", "ios": "https://dc.lft.to/lastmile_qr_scan"}}, {"is_disabled": 0, "lon": -77.02873983333333, "lat": 38.931650166666664, "name": "0df1bb6095ec7873c73e653e6d31fa4c", "fusion_lon": 0.0, "fusion_lat": 0.0, "is_reserved": 0, "type": "electric_scooter", "bike_id": "0df1bb6095ec7873c73e653e6d31fa4c", "rental_uris": {"android": "https://dc.lft.to/lastmile_qr_scan", "ios": "https://dc.lft.to/lastmile_qr_scan"}}, {"is_disabled": 0, "lon": -76.98059533333333, "lat": 38.9725235, "name": "09a14be2b097048aa30e5105dd3ad59f", "fusion_lon": 0.0, "fusion_lat": 0.0, "is_reserved": 0, "type": "electric_bike", "bike_id": "09a14be2b097048aa30e5105dd3ad59f", "rental_uris": {"android": "https://dc.lft.to/lastmile_qr_scan", "ios": "https://dc.lft.to/lastmile_qr_scan"}}, {"is_disabled": 0, "lon": -77.02598166666667, "lat": 38.91693383333333, "name": "18851ec5d74e7b1ed949a595669c711a", "fusion_lon": 0.0, "fusion_lat": 0.0, "is_reserved": 0, "type": "electric_scooter", "bike_id": "18851ec5d74e7b1ed949a595669c711a", "rental_uris": {"android": "https://dc.lft.to/lastmile_qr_scan", "ios": "https://dc.lft.to/lastmile_qr_scan"}}, {"is_disabled": 0, "lon": -77.02495383333333, "lat": 38.920895, "name": "a738e3cdae50ae8aba92f1a2523da7c4", "fusion_lon": 0.0, "fusion_lat": 0.0, "is_reserved": 0, "type": "electric_scooter", "bike_id": "a738e3cdae50ae8aba92f1a2523da7c4", "rental_uris": {"android": "https://dc.lft.to/lastmile_qr_scan", "ios": "https://dc.lft.to/lastmile_qr_scan"}}, {"is_disabled": 0, "lon": -77.017505, "lat": 38.902986166666665, "name": "e759cba56d1eb6661ee593eea384299d", "fusion_lon": 0.0, "fusion_lat": 0.0, "is_reserved": 0, "type": "electric_scooter", "bike_id": "e759cba56d1eb6661ee593eea384299d", "rental_uris": {"android": "https://dc.lft.to/lastmile_qr_scan", "ios": "https://dc.lft.to/lastmile_qr_scan"}}, {"is_disabled": 0, "lon": -77.07637333333334, "lat": 38.906124, "name": "7c526d580c2de0c7636c4da0a509b249", "fusion_lon": 0.0, "fusion_lat": 0.0, "is_reserved": 0, "type": "electric_bike", "bike_id": "7c526d580c2de0c7636c4da0a509b249", "rental_uris": {"android": "https://dc.lft.to/lastmile_qr_scan", "ios": "https://dc.lft.to/lastmile_qr_scan"}}, {"is_disabled": 0, "lon": -77.0505405, "lat": 38.9006245, "name": "643cdd6e66499c1180d3e530758b90b8", "fusion_lon": 0.0, "fusion_lat": 0.0, "is_reserved": 0, "type": "electric_scooter", "bike_id": "643cdd6e66499c1180d3e530758b90b8", "rental_uris": {"android": "https://dc.lft.to/lastmile_qr_scan", "ios": "https://dc.lft.to/lastmile_qr_scan"}}, {"is_disabled": 0, "lon": -77.019521, "lat": 38.923273, "name": "d6daa79aea521095328312f6e5ca5c99", "fusion_lon": 0.0, "fusion_lat": 0.0, "is_reserved": 0, "type": "electric_scooter", "bike_id": "d6daa79aea521095328312f6e5ca5c99", "rental_uris": {"android": "https://dc.lft.to/lastmile_qr_scan", "ios": "https://dc.lft.to/lastmile_qr_scan"}}, {"is_disabled": 0, "lon": -77.03992733333334, "lat": 38.934007, "name": "dd928caf0678d64abc07b0f2faa6e5a5", "fusion_lon": 0.0, "fusion_lat": 0.0, "is_reserved": 0, "type": "electric_scooter", "bike_id": "dd928caf0678d64abc07b0f2faa6e5a5", "rental_uris": {"android": "https://dc.lft.to/lastmile_qr_scan", "ios": "https://dc.lft.to/lastmile_qr_scan"}}, {"is_disabled": 0, "lon": -77.04156616666667, "lat": 38.915486, "name": "f5119bdfe2dbf2f99c864534a9134021", "fusion_lon": 0.0, "fusion_lat": 0.0, "is_reserved": 0, "type": "electric_scooter", "bike_id": "f5119bdfe2dbf2f99c864534a9134021", "rental_uris": {"android": "https://dc.lft.to/lastmile_qr_scan", "ios": "https://dc.lft.to/lastmile_qr_scan"}}, {"is_disabled": 0, "lon": -77.0269685, "lat": 38.94979683333333, "name": "d825439d7add089846811cc701e5b5b0", "fusion_lon": 0.0, "fusion_lat": 0.0, "is_reserved": 0, "type": "electric_scooter", "bike_id": "d825439d7add089846811cc701e5b5b0", "rental_uris": {"android": "https://dc.lft.to/lastmile_qr_scan", "ios": "https://dc.lft.to/lastmile_qr_scan"}}, {"is_disabled": 0, "lon": -77.03998533333333, "lat": 38.9084275, "name": "0241e83b79380b9f4562f33d67c4ae60", "fusion_lon": 0.0, "fusion_lat": 0.0, "is_reserved": 0, "type": "electric_scooter", "bike_id": "0241e83b79380b9f4562f33d67c4ae60", "rental_uris": {"android": "https://dc.lft.to/lastmile_qr_scan", "ios": "https://dc.lft.to/lastmile_qr_scan"}}, {"is_disabled": 0, "lon": -77.02158483333334, "lat": 38.91954716666667, "name": "7f65e543d0e421b762d6c81748042f04", "fusion_lon": 0.0, "fusion_lat": 0.0, "is_reserved": 0, "type": "electric_scooter", "bike_id": "7f65e543d0e421b762d6c81748042f04", "rental_uris": {"android": "https://dc.lft.to/lastmile_qr_scan", "ios": "https://dc.lft.to/lastmile_qr_scan"}}, {"is_disabled": 0, "lon": -77.03477816666667, "lat": 38.92891783333334, "name": "8124aeb3410515009d1c6b57e318cdea", "fusion_lon": 0.0, "fusion_lat": 0.0, "is_reserved": 0, "type": "electric_scooter", "bike_id": "8124aeb3410515009d1c6b57e318cdea", "rental_uris": {"android": "https://dc.lft.to/lastmile_qr_scan", "ios": "https://dc.lft.to/lastmile_qr_scan"}}, {"is_disabled": 0, "lon": -77.03265716666667, "lat": 38.93525016666667, "name": "cc16eaca13ed0aa27cc0d94b1c9cce41", "fusion_lon": 0.0, "fusion_lat": 0.0, "is_reserved": 0, "type": "electric_scooter", "bike_id": "cc16eaca13ed0aa27cc0d94b1c9cce41", "rental_uris": {"android": "https://dc.lft.to/lastmile_qr_scan", "ios": "https://dc.lft.to/lastmile_qr_scan"}}, {"is_disabled": 0, "lon": -77.00288433333333, "lat": 38.89206016666667, "name": "191dc56c0b72253eb2974861ead78d82", "fusion_lon": 0.0, "fusion_lat": 0.0, "is_reserved": 0, "type": "electric_scooter", "bike_id": "191dc56c0b72253eb2974861ead78d82", "rental_uris": {"android": "https://dc.lft.to/lastmile_qr_scan", "ios": "https://dc.lft.to/lastmile_qr_scan"}}, {"is_disabled": 0, "lon": -77.03076183333333, "lat": 38.905596833333334, "name": "62a14a3eafb9349e43552c2b6caea0b1", "fusion_lon": 0.0, "fusion_lat": 0.0, "is_reserved": 0, "type": "electric_scooter", "bike_id": "62a14a3eafb9349e43552c2b6caea0b1", "rental_uris": {"android": "https://dc.lft.to/lastmile_qr_scan", "ios": "https://dc.lft.to/lastmile_qr_scan"}}, {"is_disabled": 0, "lon": -77.03723183333334, "lat": 38.920347666666665, "name": "f3f25c9f99d9e6c4b9c1b6d563a7f44e", "fusion_lon": 0.0, "fusion_lat": 0.0, "is_reserved": 0, "type": "electric_scooter", "bike_id": "f3f25c9f99d9e6c4b9c1b6d563a7f44e", "rental_uris": {"android": "https://dc.lft.to/lastmile_qr_scan", "ios": "https://dc.lft.to/lastmile_qr_scan"}}, {"is_disabled": 0, "lon": -77.0265135, "lat": 38.98816933333333, "name": "5fb70f3a05f20f3a398d5808c9deb339", "fusion_lon": 0.0, "fusion_lat": 0.0, "is_reserved": 0, "type": "electric_bike", "bike_id": "5fb70f3a05f20f3a398d5808c9deb339", "rental_uris": {"android": "https://dc.lft.to/lastmile_qr_scan", "ios": "https://dc.lft.to/lastmile_qr_scan"}}, {"is_disabled": 0, "lon": -76.9380115, "lat": 38.979722, "name": "559299415fbd37c862ed97328e0cb3c2", "fusion_lon": 0.0, "fusion_lat": 0.0, "is_reserved": 0, "type": "electric_bike", "bike_id": "559299415fbd37c862ed97328e0cb3c2", "rental_uris": {"android": "https://dc.lft.to/lastmile_qr_scan", "ios": "https://dc.lft.to/lastmile_qr_scan"}}, {"is_disabled": 0, "lon": -77.0048065, "lat": 38.8746, "name": "c0c0a7ab87db83bc06212b75af6c44af", "fusion_lon": 0.0, "fusion_lat": 0.0, "is_reserved": 0, "type": "electric_scooter", "bike_id": "c0c0a7ab87db83bc06212b75af6c44af", "rental_uris": {"android": "https://dc.lft.to/lastmile_qr_scan", "ios": "https://dc.lft.to/lastmile_qr_scan"}}, {"is_disabled": 0, "lon": -77.03354683333333, "lat": 38.924495666666665, "name": "8f8787d5360e0039b6d8583bc9669766", "fusion_lon": 0.0, "fusion_lat": 0.0, "is_reserved": 0, "type": "electric_scooter", "bike_id": "8f8787d5360e0039b6d8583bc9669766", "rental_uris": {"android": "https://dc.lft.to/lastmile_qr_scan", "ios": "https://dc.lft.to/lastmile_qr_scan"}}, {"is_disabled": 0, "lon": -77.04660616666666, "lat": 38.909487166666665, "name": "5a2e572538019f91623a52f76bccf6a7", "fusion_lon": 0.0, "fusion_lat": 0.0, "is_reserved": 0, "type": "electric_scooter", "bike_id": "5a2e572538019f91623a52f76bccf6a7", "rental_uris": {"android": "https://dc.lft.to/lastmile_qr_scan", "ios": "https://dc.lft.to/lastmile_qr_scan"}}, {"is_disabled": 0, "lon": -77.015704, "lat": 38.8765645, "name": "3c870d50200fb53447100926ef70f331", "fusion_lon": 0.0, "fusion_lat": 0.0, "is_reserved": 0, "type": "electric_scooter", "bike_id": "3c870d50200fb53447100926ef70f331", "rental_uris": {"android": "https://dc.lft.to/lastmile_qr_scan", "ios": "https://dc.lft.to/lastmile_qr_scan"}}, {"is_disabled": 0, "lon": -77.02653783333334, "lat": 38.92379716666667, "name": "6f3cb82f53cb0e172041071a63770227", "fusion_lon": 0.0, "fusion_lat": 0.0, "is_reserved": 0, "type": "electric_scooter", "bike_id": "6f3cb82f53cb0e172041071a63770227", "rental_uris": {"android": "https://dc.lft.to/lastmile_qr_scan", "ios": "https://dc.lft.to/lastmile_qr_scan"}}, {"is_disabled": 0, "lon": -76.99061533333334, "lat": 38.936933833333335, "name": "09b15c6b71e3a57189f14906db381ceb", "fusion_lon": 0.0, "fusion_lat": 0.0, "is_reserved": 0, "type": "electric_bike", "bike_id": "09b15c6b71e3a57189f14906db381ceb", "rental_uris": {"android": "https://dc.lft.to/lastmile_qr_scan", "ios": "https://dc.lft.to/lastmile_qr_scan"}}, {"is_disabled": 0, "lon": -77.06531733333334, "lat": 38.992309666666664, "name": "7982590656a70cc4c81037d1fac52278", "fusion_lon": 0.0, "fusion_lat": 0.0, "is_reserved": 0, "type": "electric_bike", "bike_id": "7982590656a70cc4c81037d1fac52278", "rental_uris": {"android": "https://dc.lft.to/lastmile_qr_scan", "ios": "https://dc.lft.to/lastmile_qr_scan"}},