{"data": {"bikes": [{"is_reserved": 0, "type": "electric_scooter", "bike_id": "744bfaa53bd0a01dca0273c2492cdd89", "lat": 38.92563583333333, "lon": -77.0228435, "rental_uris": {"android": "https://dc.lft.to/lastmile_qr_scan", "ios": "https://dc.lft.to/lastmile_qr_scan"}, "is_disabled": 0, "fusion_lat": 0.0, "name": "744bfaa53bd0a01dca0273c2492cdd89", "fusion_lon": 0.0}, {"is_reserved": 0, "type": "electric_scooter", "bike_id": "853600445fd9de9adf3bdf9b7090e9b6", "lat": 38.904103666666664, "lon": -77.06892583333334, "rental_uris": {"android": "https://dc.lft.to/lastmile_qr_scan", "ios": "https://dc.lft.to/lastmile_qr_scan"}, "is_disabled": 0, "fusion_lat": 0.0, "name": "853600445fd9de9adf3bdf9b7090e9b6", "fusion_lon": 0.0}, {"is_reserved": 0, "type": "electric_scooter", "bike_id": "04b1ebaadce68d7f69218dc46ad5c679", "lat": 38.919115, "lon": -77.04469166666667, "rental_uris": {"android": "https://dc.lft.to/lastmile_qr_scan", "ios": "https://dc.lft.to/lastmile_qr_scan"}, "is_disabled": 0, "fusion_lat": 0.0, "name": "04b1ebaadce68d7f69218dc46ad5c679", "fusion_lon": 0.0}, {"is_reserved": 0, "type": "electric_scooter", "bike_id": "35cfc19056d88aae9ec9aeea286daee8", "lat": 38.924372166666664, "lon": -77.02023316666667, "rental_uris": {"android": "https://dc.lft.to/lastmile_qr_scan", "ios": "https://dc.lft.to/lastmile_qr_scan"}, "is_disabled": 0, "fusion_lat": 0.0, "name": "35cfc19056d88aae9ec9aeea286daee8", "fusion_lon": 0.0}, {"is_reserved": 0, "type": "electric_scooter", "bike_id": "4d03d0840cb4961e2451b6a09227fd84", "lat": 38.93048866666667, "lon": -77.0233885, "rental_uris": {"android": "https://dc.lft.to/lastmile_qr_scan", "ios": "https://dc.lft.to/lastmile_qr_scan"}, "is_disabled": 0, "fusion_lat": 0.0, "name": "4d03d0840cb4961e2451b6a09227fd84", "fusion_lon": 0.0}, {"is_reserved": 0, "type": "electric_scooter", "bike_id": "7fa315201287d583eb4555f46297f857", "lat": 38.9133415, "lon": -77.0500165, "rental_uris": {"android": "https://dc.lft.to/lastmile_qr_scan", "ios": "https://dc.lft.to/lastmile_qr_scan"}, "is_disabled": 0, "fusion_lat": 0.0, "name": "7fa315201287d583eb4555f46297f857", "fusion_lon": 0.0}, {"is_reserved": 0, "type": "electric_scooter", "bike_id": "9fe5e429efd34d6693b932e87d009abc", "lat": 38.88395416666667, "lon": -76.985869, "rental_uris": {"android": "https://dc.lft.to/lastmile_qr_scan", "ios": "https://dc.lft.to/lastmile_qr_scan"}, "is_disabled": 0, "fusion_lat": 0.0, "name": "9fe5e429efd34d6693b932e87d009abc", "fusion_lon": 0.0}, {"is_reserved": 0, "type": "electric_scooter", "bike_id": "802cd850bc7f18baa1a96b4d99535618", "lat": 38.917911333333336, "lon": -77.02320783333333, "rental_uris": {"android": "https://dc.lft.to/lastmile_qr_scan", "ios": "https://dc.lft.to/lastmile_qr_scan"}, "is_disabled": 0, "fusion_lat": 0.0, "name": "802cd850bc7f18baa1a96b4d99535618", "fusion_lon": 0.0}, {"is_reserved": 0, "type": "electric_scooter", "bike_id": "cf42008e7530660ec1d668adf37dfc19", "lat": 38.899421833333335, "lon": -77.02697016666667, "rental_uris": {"android": "https://dc.lft.to/lastmile_qr_scan", "ios": "https://dc.lft.to/lastmile_qr_scan"}, "is_disabled": 0, "fusion_lat": 0.0, "name": "cf42008e7530660ec1d668adf37dfc19", "fusion_lon": 0.0}, {"is_reserved": 0, "type": "electric_scooter", "bike_id": "a6b30d38845bd060ad998e292b16dc6b", "lat": 38.91116683333333, "lon": -77.02333916666667, "rental_uris": {"android": "https://dc.lft.to/lastmile_qr_scan", "ios": "https://dc.lft.to/lastmile_qr_scan"}, "is_disabled": 0, "fusion_lat": 0.0, "name": "a6b30d38845bd060ad998e292b16dc6b", "fusion_lon": 0.0}, {"is_reserved": 0, "type": "electric_scooter", "bike_id": "baa4a8ff839e9adc7b4d2366f1f5514f", "lat": 38.88180783333333, "lon": -77.01763, "rental_uris": {"android": "https://dc.lft.to/lastmile_qr_scan", "ios": "https://dc.lft.to/lastmile_qr_scan"}, "is_disabled": 0, "fusion_lat": 0.0, "name": "baa4a8ff839e9adc7b4d2366f1f5514f", "fusion_lon": 0.0}, {"is_reserved": 0, "type": "electric_scooter", "bike_id": "cf1be44aaa654f17051c34180ec7a782", "lat": 38.90620416666667, "lon": -77.07021816666666, "rental_uris": {"android": "https://dc.lft.to/lastmile_qr_scan", "ios": "https://dc.lft.to/lastmile_qr_scan"}, "is_disabled": 0, "fusion_lat": 0.0, "name": "cf1be44aaa654f17051c34180ec7a782", "fusion_lon": 0.0}, {"is_reserved": 0, "type": "electric_scooter", "bike_id": "0c414d2bad281b0e91bc8cdf05103fa4", "lat": 38.92021783333333, "lon": -77.01035716666667, "rental_uris": {"android": "https://dc.lft.to/lastmile_qr_scan", "ios": "https://dc.lft.to/lastmile_qr_scan"}, "is_disabled": 0, "fusion_lat": 0.0, "name": "0c414d2bad281b0e91bc8cdf05103fa4", "fusion_lon": 0.0}, {"is_reserved": 0, "type": "electric_scooter", "bike_id": "7832cfd77716d604459fb81292c88ef0", "lat": 38.92074183333333, "lon": -77.0745895, "rental_uris": {"android": "https://dc.lft.to/lastmile_qr_scan", "ios": "https://dc.lft.to/lastmile_qr_scan"}, "is_disabled": 0, "fusion_lat": 0.0, "name": "7832cfd77716d604459fb81292c88ef0", "fusion_lon": 0.0}, {"is_reserved": 0, "type": "electric_scooter", "bike_id": "d3011e84960229aece2b5233570de929", "lat": 38.920973333333336, "lon": -77.03016133333334, "rental_uris": {"android": "https://dc.lft.to/lastmile_qr_scan", "ios": "https://dc.lft.to/lastmile_qr_scan"}, "is_disabled": 0, "fusion_lat": 0.0, "name": "d3011e84960229aece2b5233570de929", "fusion_lon": 0.0}, {"is_reserved": 0, "type": "electric_scooter", "bike_id": "80b068548be6e982e83cb10f8c73efe9", "lat": 38.895368166666664, "lon": -77.01103766666667, "rental_uris": {"android": "https://dc.lft.to/lastmile_qr_scan", "ios": "https://dc.lft.to/lastmile_qr_scan"}, "is_disabled": 0, "fusion_lat": 0.0, "name": "80b068548be6e982e83cb10f8c73efe9", "fusion_lon": 0.0}, {"is_reserved": 0, "type": "electric_scooter", "bike_id": "7348afa9d7b2c17603caa0214f73046a", "lat": 38.897025, "lon": -77.02029633333333, "rental_uris": {"android": "https://dc.lft.to/lastmile_qr_scan", "ios": "https://dc.lft.to/lastmile_qr_scan"}, "is_disabled": 0, "fusion_lat": 0.0, "name": "7348afa9d7b2c17603caa0214f73046a", "fusion_lon": 0.0}, {"is_reserved": 0, "type": "electric_scooter", "bike_id": "b2f944947fc8f257171500f361810a4a", "lat": 38.924005333333334, "lon": -77.02983883333333, "rental_uris": {"android": "https://dc.lft.to/lastmile_qr_scan", "ios": "https://dc.lft.to/lastmile_qr_scan"}, "is_disabled": 0, "fusion_lat": 0.0, "name": "b2f944947fc8f257171500f361810a4a", "fusion_lon": 0.0}, {"is_reserved": 0, "type": "electric_scooter", "bike_id": "43ef0eba079e9aa1320188460eee5282", "lat": 38.900353, "lon": -77.0022665, "rental_uris": {"android": "https://dc.lft.to/lastmile_qr_scan", "ios": "https://dc.lft.to/lastmile_qr_scan"}, "is_disabled": 0, "fusion_lat": 0.0, "name": "43ef0eba079e9aa1320188460eee5282", "fusion_lon": 0.0}, {"is_reserved": 0, "type": "electric_scooter", "bike_id": "61d929773c10f4233c41ac4cfa6d4263", "lat": 38.91668816666667, "lon": -77.02715416666666, "rental_uris": {"android": "https://dc.lft.to/lastmile_qr_scan", "ios": "https://dc.lft.to/lastmile_qr_scan"}, "is_disabled": 0, "fusion_lat": 0.0, "name": "61d929773c10f4233c41ac4cfa6d4263", "fusion_lon": 0.0}, {"is_reserved": 0, "type": "electric_scooter", "bike_id": "635b8459b1583efb347638e2e7a2c26a", "lat": 38.89348566666666, "lon": -77.0283345, "rental_uris": {"android": "https://dc.lft.to/lastmile_qr_scan", "ios": "https://dc.lft.to/lastmile_qr_scan"}, "is_disabled": 0, "fusion_lat": 0.0, "name": "635b8459b1583efb347638e2e7a2c26a", "fusion_lon": 0.0}, {"is_reserved": 0, "type": "electric_scooter", "bike_id": "8fb001d78e1634008e7a7de95cce5cf5", "lat": 38.9012745, "lon": -77.0162065, "rental_uris": {"android": "https://dc.lft.to/lastmile_qr_scan", "ios": "https://dc.lft.to/lastmile_qr_scan"}, "is_disabled": 0, "fusion_lat": 0.0, "name": "8fb001d78e1634008e7a7de95cce5cf5", "fusion_lon": 0.0}, {"is_reserved": 0, "type": "electric_scooter", "bike_id": "fb664d1449147ddd6fbd53417d2aebf7", "lat": 38.93151916666667, "lon": -77.078588, "rental_uris": {"android": "https://dc.lft.to/lastmile_qr_scan", "ios": "https://dc.lft.to/lastmile_qr_scan"}, "is_disabled": 0, "fusion_lat": 0.0, "name": "fb664d1449147ddd6fbd53417d2aebf7", "fusion_lon": 0.0}, {"is_reserved": 0, "type": "electric_scooter", "bike_id": "488c226d8fc9cf409d31724bf1729eb6", "lat": 38.908516, "lon": -77.04345016666667, "rental_uris": {"android": "https://dc.lft.to/lastmile_qr_scan", "ios": "https://dc.lft.to/lastmile_qr_scan"}, "is_disabled": 0, "fusion_lat": 0.0, "name": "488c226d8fc9cf409d31724bf1729eb6", "fusion_lon": 0.0}, {"is_reserved": 0, "type": "electric_scooter", "bike_id": "8e446030b361b8bd45d8bb46cb74da8a", "lat": 38.89982766666667, "lon": -77.02637016666667, "rental_uris": {"android": "https://dc.lft.to/lastmile_qr_scan", "ios": "https://dc.lft.to/lastmile_qr_scan"}, "is_disabled": 0, "fusion_lat": 0.0, "name": "8e446030b361b8bd45d8bb46cb74da8a", "fusion_lon": 0.0}, {"is_reserved": 0, "type": "electric_scooter", "bike_id": "71b5983060904042ca2c56a1c7f9504a", "lat": 38.91596766666667, "lon": -77.01226516666667, "rental_uris": {"android": "https://dc.lft.to/lastmile_qr_scan", "ios": "https://dc.lft.to/lastmile_qr_scan"}, "is_disabled": 0, "fusion_lat": 0.0, "name": "71b5983060904042ca2c56a1c7f9504a", "fusion_lon": 0.0}, {"is_reserved": 0, "type": "electric_scooter", "bike_id": "5d564bd3c8095105442a1fa485c4eedb", "lat": 38.900288833333335, "lon": -77.012231, "rental_uris": {"android": "https://dc.lft.to/lastmile_qr_scan", "ios": "https://dc.lft.to/lastmile_qr_scan"}, "is_disabled": 0, "fusion_lat": 0.0, "name": "5d564bd3c8095105442a1fa485c4eedb", "fusion_lon": 0.0}, {"is_reserved": 0, "type": "electric_scooter", "bike_id": "3d24676217a68bd0fc847937aeacea4d", "lat": 38.919244166666665, "lon": -77.03420983333334, "rental_uris": {"android": "https://dc.lft.to/lastmile_qr_scan", "ios": "https://dc.lft.to/lastmile_qr_scan"}, "is_disabled": 0, "fusion_lat": 0.0, "name": "3d24676217a68bd0fc847937aeacea4d", "fusion_lon": 0.0}, {"is_reserved": 0, "type": "electric_bike", "bike_id": "61edc4b73b519e9b059cbef4a700a9b9", "lat": 38.832327, "lon": -76.94617816666667, "rental_uris": {"android": "https://dc.lft.to/lastmile_qr_scan", "ios": "https://dc.lft.to/lastmile_qr_scan"}, "is_disabled": 0, "fusion_lat": 0.0, "name": "61edc4b73b519e9b059cbef4a700a9b9", "fusion_lon": 0.0}, {"is_reserved": 0, "type": "electric_scooter", "bike_id": "aadda8462caea2f0d3844a46bdee3f9f", "lat": 38.9073375, "lon": -77.0042075, "rental_uris": {"android": "https://dc.lft.to/lastmile_qr_scan", "ios": "https://dc.lft.to/lastmile_qr_scan"}, "is_disabled": 0, "fusion_lat": 0.0, "name": "aadda8462caea2f0d3844a46bdee3f9f", "fusion_lon": 0.0}, {"is_reserved": 0, "type": "electric_scooter", "bike_id": "39a5a1ac9c1702cce331456087da53f2", "lat": 38.911178, "lon": -76.99721666666667, "rental_uris": {"android": "https://dc.lft.to/lastmile_qr_scan", "ios": "https://dc.lft.to/lastmile_qr_scan"}, "is_disabled": 0, "fusion_lat": 0.0, "name": "39a5a1ac9c1702cce331456087da53f2", "fusion_lon": 0.0}, {"is_reserved": 0, "type": "electric_scooter", "bike_id": "be6a1f4a74a54960b9ca1b289ef4c637", "lat": 38.92765983333334, "lon": -77.027822, "rental_uris": {"android": "https://dc.lft.to/lastmile_qr_scan", "ios": "https://dc.lft.to/lastmile_qr_scan"}, "is_disabled": 0, "fusion_lat": 0.0, "name": "be6a1f4a74a54960b9ca1b289ef4c637", "fusion_lon": 0.0}, {"is_reserved": 0, "type": "electric_bike", "bike_id": "9247a3f6e4063b537f4bad5dcc098db5", "lat": 38.82336433333333, "lon": -77.0581955, "rental_uris": {"android": "https://dc.lft.to/lastmile_qr_scan", "ios": "https://dc.lft.to/lastmile_qr_scan"}, "is_disabled": 0, "fusion_lat": 0.0, "name": "9247a3f6e4063b537f4bad5dcc098db5", "fusion_lon": 0.0}, {"is_reserved": 0, "type": "electric_scooter", "bike_id": "98849070f9c5314f7ebb79d2fd2a985a", "lat": 38.9104975, "lon": -77.034427, "rental_uris": {"android": "https://dc.lft.to/lastmile_qr_scan", "ios": "https://dc.lft.to/lastmile_qr_scan"}, "is_disabled": 0, "fusion_lat": 0.0, "name": "98849070f9c5314f7ebb79d2fd2a985a", "fusion_lon": 0.0}, {"is_reserved": 0, "type": "electric_scooter", "bike_id": "18c97c856944b0a269be046667d5bbce", "lat": 38.893261, "lon": -77.022293, "rental_uris": {"android": "https://dc.lft.to/lastmile_qr_scan", "ios": "https://dc.lft.to/lastmile_qr_scan"}, "is_disabled": 0, "fusion_lat": 0.0, "name": "18c97c856944b0a269be046667d5bbce", "fusion_lon": 0.0}, {"is_reserved": 0, "type": "electric_scooter", "bike_id": "890fd720bfc306a888868030c8e6cadb", "lat": 38.905165833333335, "lon": -77.0584205, "rental_uris": {"android": "https://dc.lft.to/lastmile_qr_scan", "ios": "https://dc.lft.to/lastmile_qr_scan"}, "is_disabled": 0, "fusion_lat": 0.0, "name": "890fd720bfc306a888868030c8e6cadb", "fusion_lon": 0.0}, {"is_reserved": 0, "type": "electric_bike", "bike_id": "85b49d3a547d481e1710cb68a5b52ada", "lat": 38.914845666666665, "lon": -77.04158383333333, "rental_uris": {"android": "https://dc.lft.to/lastmile_qr_scan", "ios": "https://dc.lft.to/lastmile_qr_scan"}, "is_disabled": 0, "fusion_lat": 0.0, "name": "85b49d3a547d481e1710cb68a5b52ada", "fusion_lon": 0.0}, {"is_reserved": 0, "type": "electric_bike", "bike_id": "5cd98f3c80ef8fd09dd22ea3eca9500a", "lat": 38.883889833333335, "lon": -76.95447716666666, "rental_uris": {"android": "https://dc.lft.to/lastmile_qr_scan", "ios": "https://dc.lft.to/lastmile_qr_scan"}, "is_disabled": 0, "fusion_lat": 0.0, "name": "5cd98f3c80ef8fd09dd22ea3eca9500a", "fusion_lon": 0.0}, {"is_reserved": 0, "type": "electric_scooter", "bike_id": "a8e547b3ee4c8930081e9ffd6578ab68", "lat": 38.92971033333333, "lon": -77.027904, "rental_uris": {"android": "https://dc.lft.to/lastmile_qr_scan", "ios": "https://dc.lft.to/lastmile_qr_scan"}, "is_disabled": 0, "fusion_lat": 0.0, "name": "a8e547b3ee4c8930081e9ffd6578ab68", "fusion_lon": 0.0}, {"is_reserved": 0, "type": "electric_scooter", "bike_id": "5b3a02f60a7a24d159998c31d408f2c2", "lat": 38.9098645, "lon": -77.03384383333334, "rental_uris": {"android": "https://dc.lft.to/lastmile_qr_scan", "ios": "https://dc.lft.to/lastmile_qr_scan"}, "is_disabled": 0, "fusion_lat": 0.0, "name": "5b3a02f60a7a24d159998c31d408f2c2", "fusion_lon": 0.0}, {"is_reserved": 0, "type": "electric_bike", "bike_id": "a0808237109d2492039f920ab15d5141", "lat": 38.870052666666666, "lon": -77.2298605, "rental_uris": {"android": "https://dc.lft.to/lastmile_qr_scan", "ios": "https://dc.lft.to/lastmile_qr_scan"}, "is_disabled": 0, "fusion_lat": 0.0, "name": "a0808237109d2492039f920ab15d5141", "fusion_lon": 0.0}, {"is_reserved": 0, "type": "electric_scooter", "bike_id": "d43211b740c45dc944a03b0329425048", "lat": 38.90242416666667, "lon": -77.028069, "rental_uris": {"android": "https://dc.lft.to/lastmile_qr_scan", "ios": "https://dc.lft.to/lastmile_qr_scan"}, "is_disabled": 0, "fusion_lat": 0.0, "name": "d43211b740c45dc944a03b0329425048", "fusion_lon": 0.0}, {"is_reserved": 0, "type": "electric_scooter", "bike_id": "ac5367d0c2fc989782ab5e51674448d8", "lat": 38.90216783333334, "lon": -77.02158133333333, "rental_uris": {"android": "https://dc.lft.to/lastmile_qr_scan", "ios": "https://dc.lft.to/lastmile_qr_scan"}, "is_disabled": 0, "fusion_lat": 0.0, "name": "ac5367d0c2fc989782ab5e51674448d8", "fusion_lon": 0.0}, {"is_reserved": 0, "type": "electric_bike", "bike_id": "8004d53d5bf3d6cebdfe1ff75fa64f6f", "lat": 38.863308333333336, "lon": -76.98719666666666, "rental_uris": {"android": "https://dc.lft.to/lastmile_qr_scan", "ios": "https://dc.lft.to/lastmile_qr_scan"}, "is_disabled": 0, "fusion_lat": 0.0, "name": "8004d53d5bf3d6cebdfe1ff75fa64f6f", "fusion_lon": 0.0}, {"is_reserved": 0, "type": "electric_scooter", "bike_id": "74e72569699a6f7f1d72be9aa0ccde98", "lat": 38.9252125, "lon": -77.05061016666667, "rental_uris": {"android": "https://dc.lft.to/lastmile_qr_scan", "ios": "https://dc.lft.to/lastmile_qr_scan"}, "is_disabled": 0, "fusion_lat": 0.0, "name": "74e72569699a6f7f1d72be9aa0ccde98", "fusion_lon": 0.0}, {"is_reserved": 0, "type": "electric_scooter", "bike_id": "25bf45c80cfcc41f5838462892c22bf8", "lat": 38.918285166666664, "lon": -77.032109, "rental_uris": {"android": "https://dc.lft.to/lastmile_qr_scan", "ios": "https://dc.lft.to/lastmile_qr_scan"}, "is_disabled": 0, "fusion_lat": 0.0, "name": "25bf45c80cfcc41f5838462892c22bf8", "fusion_lon": 0.0}, {"is_reserved": 0, "type": "electric_scooter", "bike_id": "841408b841188488dfaef2a94be24f19", "lat": 38.92412016666667, "lon": -77.020136, "rental_uris": {"android": "https://dc.lft.to/lastmile_qr_scan", "ios": "https://dc.lft.to/lastmile_qr_scan"}, "is_disabled": 0, "fusion_lat": 0.0, "name": "841408b841188488dfaef2a94be24f19", "fusion_lon": 0.0}, {"is_reserved": 0, "type": "electric_bike", "bike_id": "4c6b793f01f656123c20528d765c8315", "lat": 38.854173, "lon": -77.08367733333333, "rental_uris": {"android": "https://dc.lft.to/lastmile_qr_scan", "ios": "https://dc.lft.to/lastmile_qr_scan"}, "is_disabled": 0, "fusion_lat": 0.0, "name": "4c6b793f01f656123c20528d765c8315", "fusion_lon": 0.0}, {"is_reserved": 0, "type": "electric_scooter", "bike_id": "f44defdc34b3b623c9f6bfd98aebac65", "lat": 38.900141833333336, "lon": -77.01187866666666, "rental_uris": {"android": "https://dc.lft.to/lastmile_qr_scan", "ios": "https://dc.lft.to/lastmile_qr_scan"}, "is_disabled": 0, "fusion_lat": 0.0, "name": "f44defdc34b3b623c9f6bfd98aebac65", "fusion_lon": 0.0}, {"is_reserved": 0, "type": "electric_scooter", "bike_id": "212597da606c5b79c490405ec8ee191c", "lat": 38.940305, "lon": -77.02644216666667, "rental_uris": {"android": "https://dc.lft.to/lastmile_qr_scan", "ios": "https://dc.lft.to/lastmile_qr_scan"}, "is_disabled": 0, "fusion_lat": 0.0, "name": "212597da606c5b79c490405ec8ee191c", "fusion_lon": 0.0}, {"is_reserved": 0, "type": "electric_bike", "bike_id": "0b19f7aee7d1254750c548b5aed4d1fe", "lat": 38.89562316666667, "lon": -77.1274105, "rental_uris": {"android": "https://dc.lft.to/lastmile_qr_scan", "ios": "https://dc.lft.to/lastmile_qr_scan"}, "is_disabled": 0, "fusion_lat": 0.0, "name": "0b19f7aee7d1254750c548b5aed4d1fe", "fusion_lon": 0.0}, {"is_reserved": 0, "type": "electric_scooter", "bike_id": "b60bbb2447e801683679a1dc7b485956", "lat": 38.903469333333334, "lon": -77.01097833333333, "rental_uris": {"android": "https://dc.lft.to/lastmile_qr_scan", "ios": "https://dc.lft.to/lastmile_qr_scan"}, "is_disabled": 0, "fusion_lat": 0.0, "name": "b60bbb2447e801683679a1dc7b485956", "fusion_lon": 0.0}, {"is_reserved": 0, "type": "electric_scooter", "bike_id": "cb3d628e0b629b30c46710d3977a98f0", "lat": 38.89643566666667, "lon": -77.026046, "rental_uris": {"android": "https://dc.lft.to/lastmile_qr_scan", "ios": "https://dc.lft.to/lastmile_qr_scan"}, "is_disabled": 0, "fusion_lat": 0.0, "name": "cb3d628e0b629b30c46710d3977a98f0", "fusion_lon": 0.0}, {"is_reserved": 0, "type": "electric_scooter", "bike_id": "18291b3509f5756b0e7de31a0ef633b8", "lat": 38.91712416666667, "lon": -77.03149933333333, "rental_uris": {"android": "https://dc.lft.to/lastmile_qr_scan", "ios": "https://dc.lft.to/lastmile_qr_scan"}, "is_disabled": 0, "fusion_lat": 0.0, "name": "18291b3509f5756b0e7de31a0ef633b8", "fusion_lon": 0.0}, {"is_reserved": 0, "type": "electric_scooter", "bike_id": "939091870a2a94d524e2a652318f715f", "lat": 38.90972283333333, "lon": -77.04506383333333, "rental_uris": {"android": "https://dc.lft.to/lastmile_qr_scan", "ios": "https://dc.lft.to/lastmile_qr_scan"}, "is_disabled": 0, "fusion_lat": 0.0, "name": "939091870a2a94d524e2a652318f715f", "fusion_lon": 0.0}, {"is_reserved": 0, "type": "electric_scooter", "bike_id": "ba6b8aefa7e464934d498113c9e0e169", "lat": 38.92095333333333, "lon": -77.01797, "rental_uris": {"android": "https://dc.lft.to/lastmile_qr_scan", "ios": "https://dc.lft.to/lastmile_qr_scan"}, "is_disabled": 0, "fusion_lat": 0.0, "name": "ba6b8aefa7e464934d498113c9e0e169", "fusion_lon": 0.0}, {"is_reserved": 0, "type": "electric_scooter", "bike_id": "24b4996dff0c783355cae8f85533df62", "lat": 38.906177666666665, "lon": -77.05152733333334, "rental_uris": {"android": "https://dc.lft.to/lastmile_qr_scan", "ios": "https://dc.lft.to/lastmile_qr_scan"}, "is_disabled": 0, "fusion_lat": 0.0, "name": "24b4996dff0c783355cae8f85533df62", "fusion_lon": 0.0}, {"is_reserved": 0, "type": "electric_scooter", "bike_id": "765aa5fa922377bc11a498e48def290b", "lat": 38.915015, "lon": -77.00354333333334, "rental_uris": {"android": "https://dc.lft.to/lastmile_qr_scan", "ios": "https://dc.lft.to/lastmile_qr_scan"}, "is_disabled": 0, "fusion_lat": 0.0, "name": "765aa5fa922377bc11a498e48def290b", "fusion_lon": 0.0}, {"is_reserved": 0, "type": "electric_scooter", "bike_id": "f444db4890dd6b7d7ed02e225c8fa859", "lat": 38.926907666666665, "lon": -77.023097, "rental_uris": {"android": "https://dc.lft.to/lastmile_qr_scan", "ios": "https://dc.lft.to/lastmile_qr_scan"}, "is_disabled": 0, "fusion_lat": 0.0, "name": "f444db4890dd6b7d7ed02e225c8fa859", "fusion_lon": 0.0}, {"is_reserved": 0, "type": "electric_scooter", "bike_id": "d134e67b4e39642f26efba0c8e79c9ff", "lat": 38.89964716666667, "lon": -77.0263905, "rental_uris": {"android": "https://dc.lft.to/lastmile_qr_scan", "ios": "https://dc.lft.to/lastmile_qr_scan"}, "is_disabled": 0, "fusion_lat": 0.0, "name": "d134e67b4e39642f26efba0c8e79c9ff", "fusion_lon": 0.0}, {"is_reserved": 0, "type": "electric_scooter", "bike_id": "392dc2ddd7cfc2149611b5d6457c3703", "lat": 38.920717333333336, "lon": -77.02219466666666, "rental_uris": {"android": "https://dc.lft.to/lastmile_qr_scan", "ios": "https://dc.lft.to/lastmile_qr_scan"}, "is_disabled": 0, "fusion_lat": 0.0, "name": "392dc2ddd7cfc2149611b5d6457c3703", "fusion_lon": 0.0}, {"is_reserved": 0, "type": "electric_scooter", "bike_id": "d3db3a60d4a1a8080812c9b161725d1a", "lat": 38.91801733333333, "lon": -77.024904, "rental_uris": {"android": "https://dc.lft.to/lastmile_qr_scan", "ios": "https://dc.lft.to/lastmile_qr_scan"}, "is_disabled": 0, "fusion_lat": 0.0, "name": "d3db3a60d4a1a8080812c9b161725d1a", "fusion_lon": 0.0}, {"is_reserved": 0, "type": "electric_scooter", "bike_id": "0aec2cdc0282e43b9d3e5aa2a5ece8c1", "lat": 38.8959715, "lon": -76.9298525, "rental_uris": {"android": "https://dc.lft.to/lastmile_qr_scan", "ios": "https://dc.lft.to/lastmile_qr_scan"}, "is_disabled": 0, "fusion_lat": 0.0, "name": "0aec2cdc0282e43b9d3e5aa2a5ece8c1", "fusion_lon": 0.0}, {"is_reserved": 0, "type": "electric_scooter", "bike_id": "a34dce1a8ffc2b4e89ed9996744fec4a", "lat": 38.92930033333333, "lon": -77.02051333333333, "rental_uris": {"android": "https://dc.lft.to/lastmile_qr_scan", "ios": "https://dc.lft.to/lastmile_qr_scan"}, "is_disabled": 0, "fusion_lat": 0.0, "name": "a34dce1a8ffc2b4e89ed9996744fec4a", "fusion_lon": 0.0}, {"is_reserved": 0, "type": "electric_scooter", "bike_id": "601aba2936efcf8789e194d92755d737", "lat": 38.90557733333333, "lon": -77.00305266666666, "rental_uris": {"android": "https://dc.lft.to/lastmile_qr_scan", "ios": "https://dc.lft.to/lastmile_qr_scan"}, "is_disabled": 0, "fusion_lat": 0.0, "name": "601aba2936efcf8789e194d92755d737", "fusion_lon": 0.0}, {"is_reserved": 0, "type": "electric_scooter", "bike_id": "3930e11deaa7ce1511de1a7d1fbd2234", "lat": 38.91981083333334, "lon": -77.04178816666666, "rental_uris": {"android": "https://dc.lft.to/lastmile_qr_scan", "ios": "https://dc.lft.to/lastmile_qr_scan"}, "is_disabled": 0, "fusion_lat": 0.0, "name": "3930e11deaa7ce1511de1a7d1fbd2234", "fusion_lon": 0.0}, {"is_reserved": 0, "type": "electric_scooter", "bike_id": "843b7611abbe6ae9b3c120012cea29aa", "lat": 38.91406583333333, "lon": -77.02727916666667, "rental_uris": {"android": "https://dc.lft.to/lastmile_qr_scan", "ios": "https://dc.lft.to/lastmile_qr_scan"}, "is_disabled": 0, "fusion_lat": 0.0, "name": "843b7611abbe6ae9b3c120012cea29aa", "fusion_lon": 0.0}, {"is_reserved": 0, "type": "electric_scooter", "bike_id": "46d27b9a1632a24381ec732992788dc3", "lat": 38.93467583333333, "lon": -77.0276585, "rental_uris": {"android": "https://dc.lft.to/lastmile_qr_scan", "ios": "https://dc.lft.to/lastmile_qr_scan"}, "is_disabled": 0, "fusion_lat": 0.0, "name": "46d27b9a1632a24381ec732992788dc3", "fusion_lon": 0.0}, {"is_reserved": 0, "type": "electric_scooter", "bike_id": "f1eccfe712a5e660e82cb674a9f40f84", "lat": 38.95091083333333, "lon": -77.02530466666667, "rental_uris": {"android": "https://dc.lft.to/lastmile_qr_scan", "ios": "https://dc.lft.to/lastmile_qr_scan"}, "is_disabled": 0, "fusion_lat": 0.0, "name": "f1eccfe712a5e660e82cb674a9f40f84", "fusion_lon": 0.0}, {"is_reserved": 0, "type": "electric_scooter", "bike_id": "053191573a3f6182bfb0ce2671bc7e93", "lat": 38.91660266666667, "lon": -77.02383716666667, "rental_uris": {"android": "https://dc.lft.to/lastmile_qr_scan", "ios": "https://dc.lft.to/lastmile_qr_scan"}, "is_disabled": 0, "fusion_lat": 0.0, "name": "053191573a3f6182bfb0ce2671bc7e93", "fusion_lon": 0.0}, {"is_reserved": 0, "type": "electric_scooter", "bike_id": "af5286eb8af456594b15eceaf241dcbe", "lat": 38.89775933333333, "lon": -77.027025, "rental_uris": {"android": "https://dc.lft.to/lastmile_qr_scan", "ios": "https://dc.lft.to/lastmile_qr_scan"}, "is_disabled": 0, "fusion_lat": 0.0, "name": "af5286eb8af456594b15eceaf241dcbe", "fusion_lon": 0.0}, {"is_reserved": 0, "type": "electric_scooter", "bike_id": "919e2c8cd7d379ed16b1b7d25182b334", "lat": 38.927498666666665, "lon": -77.03282366666667, "rental_uris": {"android": "https://dc.lft.to/lastmile_qr_scan", "ios": "https://dc.lft.to/lastmile_qr_scan"}, "is_disabled": 0, "fusion_lat": 0.0, "name": "919e2c8cd7d379ed16b1b7d25182b334", "fusion_lon": 0.0}, {"is_reserved": 0, "type": "electric_scooter", "bike_id": "367c5955a60415a0b7b9ef248a1d9ced", "lat": 38.89740916666667, "lon": -77.02171333333334, "rental_uris": {"android": "https://dc.lft.to/lastmile_qr_scan", "ios": "https://dc.lft.to/lastmile_qr_scan"}, "is_disabled": 0, "fusion_lat": 0.0, "name": "367c5955a60415a0b7b9ef248a1d9ced", "fusion_lon": 0.0}, {"is_reserved": 0, "type": "electric_scooter", "bike_id": "b0f42f677a4f9fb6a645353e37d57e41", "lat": 38.90026816666666, "lon": -77.02389583333333, "rental_uris": {"android": "https://dc.lft.to/lastmile_qr_scan", "ios": "https://dc.lft.to/lastmile_qr_scan"}, "is_disabled": 0, "fusion_lat": 0.0, "name": "b0f42f677a4f9fb6a645353e37d57e41", "fusion_lon": 0.0}, {"is_reserved": 0, "type": "electric_scooter", "bike_id": "b27e0e2d836c2c0bc6f1a73d746fad85", "lat": 38.92582933333333, "lon": -77.029379, "rental_uris": {"android": "https://dc.lft.to/lastmile_qr_scan", "ios": "https://dc.lft.to/lastmile_qr_scan"}, "is_disabled": 0, "fusion_lat": 0.0, "name": "b27e0e2d836c2c0bc6f1a73d746fad85", "fusion_lon": 0.0}, {"is_reserved": 0, "type": "electric_bike", "bike_id": "c73acc3165265d172a32a7314a00d368", "lat": 38.9496315, "lon": -76.960921, "rental_uris": {"android": "https://dc.lft.to/lastmile_qr_scan", "ios": "https://dc.lft.to/lastmile_qr_scan"}, "is_disabled": 0, "fusion_lat": 0.0, "name": "c73acc3165265d172a32a7314a00d368", "fusion_lon": 0.0}, {"is_reserved": 0, "type": "electric_scooter", "bike_id": "a9c6eb5089c6ab7c0b56c386ee75580a", "lat": 38.91597016666667, "lon": -77.0121995, "rental_uris": {"android": "https://dc.lft.to/lastmile_qr_scan", "ios": "https://dc.lft.to/lastmile_qr_scan"}, "is_disabled": 0, "fusion_lat": 0.0, "name": "a9c6eb5089c6ab7c0b56c386ee75580a", "fusion_lon": 0.0}, {"is_reserved": 0, "type": "electric_scooter", "bike_id": "a4f9375af72c4c30a070f4dc46ba4818", "lat": 38.906821, "lon": -77.06258066666666, "rental_uris": {"android": "https://dc.lft.to/lastmile_qr_scan", "ios": "https://dc.lft.to/lastmile_qr_scan"}, "is_disabled": 0, "fusion_lat": 0.0, "name": "a4f9375af72c4c30a070f4dc46ba4818", "fusion_lon": 0.0}, {"is_reserved": 0, "type": "electric_scooter", "bike_id": "528dedc1dbe64f0caf0092eab52a2a62", "lat": 38.8935065, "lon": -77.028271, "rental_uris": {"android": "https://dc.lft.to/lastmile_qr_scan", "ios": "https://dc.lft.to/lastmile_qr_scan"}, "is_disabled": 0, "fusion_lat": 0.0, "name": "528dedc1dbe64f0caf0092eab52a2a62", "fusion_lon": 0.0}, {"is_reserved": 0, "type": "electric_bike", "bike_id": "3de9c372f6ba4cf128950e9bb0d7bf73", "lat": 38.80865216666667, "lon": -77.11255466666667, "rental_uris": {"android": "https://dc.lft.to/lastmile_qr_scan", "ios": "https://dc.lft.to/lastmile_qr_scan"}, "is_disabled": 0, "fusion_lat": 0.0, "name": "3de9c372f6ba4cf128950e9bb0d7bf73", "fusion_lon": 0.0}, {"is_reserved": 0, "type": "electric_scooter", "bike_id": "1ec673e72d3adee0f50553be5ab710c7", "lat": 38.907493833333334, "lon": -77.0415265, "rental_uris": {"android": "https://dc.lft.to/lastmile_qr_scan", "ios": "https://dc.lft.to/lastmile_qr_scan"}, "is_disabled": 0, "fusion_lat": 0.0, "name": "1ec673e72d3adee0f50553be5ab710c7", "fusion_lon": 0.0}, {"is_reserved": 0, "type": "electric_scooter", "bike_id": "8dfcbf128f38945540bcaee8e8b0c437", "lat": 38.872716, "lon": -77.01714583333333, "rental_uris": {"android": "https://dc.lft.to/lastmile_qr_scan", "ios": "https://dc.lft.to/lastmile_qr_scan"}, "is_disabled": 0, "fusion_lat": 0.0, "name": "8dfcbf128f38945540bcaee8e8b0c437", "fusion_lon": 0.0}, {"is_reserved": 0, "type": "electric_scooter", "bike_id": "9a13b9898055681f64aee0c4e8b819cb", "lat": 38.9051585, "lon": -77.05666916666667, "rental_uris": {"android": "https://dc.lft.to/lastmile_qr_scan", "ios": "https://dc.lft.to/lastmile_qr_scan"}, "is_disabled": 0, "fusion_lat": 0.0, "name": "9a13b9898055681f64aee0c4e8b819cb", "fusion_lon": 0.0}, {"is_reserved": 0, "type": "electric_scooter", "bike_id": "f9887da6a2eaf37ddc6e8c2fb988826b", "lat": 38.900864, "lon": -77.05736483333334, "rental_uris": {"android": "https://dc.lft.to/lastmile_qr_scan", "ios": "https://dc.lft.to/lastmile_qr_scan"}, "is_disabled": 0, "fusion_lat": 0.0, "name": "f9887da6a2eaf37ddc6e8c2fb988826b", "fusion_lon": 0.0}, {"is_reserved": 0, "type": "electric_scooter", "bike_id": "0072f144310f943c4c7dd7b095aadc5d", "lat": 38.90099983333333, "lon": -77.03635016666667, "rental_uris": {"android": "https://dc.lft.to/lastmile_qr_scan", "ios": "https://dc.lft.to/lastmile_qr_scan"}, "is_disabled": 0, "fusion_lat": 0.0, "name": "0072f144310f943c4c7dd7b095aadc5d", "fusion_lon": 0.0}, {"is_reserved": 0, "type": "electric_scooter", "bike_id": "06b69d3e2e5637a4e47129ae6ad6f55c", "lat": 38.9141785, "lon": -77.01412316666666, "rental_uris": {"android": "https://dc.lft.to/lastmile_qr_scan", "ios": "https://dc.lft.to/lastmile_qr_scan"}, "is_disabled": 0, "fusion_lat": 0.0, "name": "06b69d3e2e5637a4e47129ae6ad6f55c", "fusion_lon": 0.0}, {"is_reserved": 0, "type": "electric_scooter", "bike_id": "dae77d9a4fcb2eabce248aa935b97f86", "lat": 38.900921333333336, "lon": -77.01628633333333, "rental_uris": {"android": "https://dc.lft.to/lastmile_qr_scan", "ios": "https://dc.lft.to/lastmile_qr_scan"}, "is_disabled": 0, "fusion_lat": 0.0, "name": "dae77d9a4fcb2eabce248aa935b97f86", "fusion_lon": 0.0}, {"is_reserved": 0, "type": "electric_scooter", "bike_id": "102dccd97f6e074a7dad0808244231c4", "lat": 38.93522733333333, "lon": -77.0195015, "rental_uris": {"android": "https://dc.lft.to/lastmile_qr_scan", "ios": "https://dc.lft.to/lastmile_qr_scan"}, "is_disabled": 0, "fusion_lat": 0.0, "name": "102dccd97f6e074a7dad0808244231c4", "fusion_lon": 0.0}, {"is_reserved": 0, "type": "electric_scooter", "bike_id": "a371b29e5ed82b50f779648e2edac4c9", "lat": 38.925680666666665, "lon": -77.03100066666667, "rental_uris": {"android": "https://dc.lft.to/lastmile_qr_scan", "ios": "https://dc.lft.to/lastmile_qr_scan"}, "is_disabled": 0, "fusion_lat": 0.0, "name": "a371b29e5ed82b50f779648e2edac4c9", "fusion_lon": 0.0}, {"is_reserved": 0, "type": "electric_scooter", "bike_id": "d532de2ee4609dd9991db14f0abf4ed3", "lat": 38.88285533333333, "lon": -76.98613016666667, "rental_uris": {"android": "https://dc.lft.to/lastmile_qr_scan", "ios": "https://dc.lft.to/lastmile_qr_scan"}, "is_disabled": 0, "fusion_lat": 0.0, "name": "d532de2ee4609dd9991db14f0abf4ed3", "fusion_lon": 0.0}, {"is_reserved": 0, "type": "electric_scooter", "bike_id": "366514ef251254ea36083b6935ff798c", "lat": 38.943053, "lon": -77.02002283333333, "rental_uris": {"android": "https://dc.lft.to/lastmile_qr_scan", "ios": "https://dc.lft.to/lastmile_qr_scan"}, "is_disabled": 0, "fusion_lat": 0.0, "name": "366514ef251254ea36083b6935ff798c", "fusion_lon": 0.0}, {"is_reserved": 0, "type": "electric_scooter", "bike_id": "ad681b40caf935d0adc7c9f8aeb91a60", "lat": 38.91708933333334, "lon": -77.03397316666667, "rental_uris": {"android": "https://dc.lft.to/lastmile_qr_scan", "ios": "https://dc.lft.to/lastmile_qr_scan"}, "is_disabled": 0, "fusion_lat": 0.0, "name": "ad681b40caf935d0adc7c9f8aeb91a60", "fusion_lon": 0.0}, {"is_reserved": 0, "type": "electric_scooter", "bike_id": "ddfb335482cfb38c02f8c520643aab47", "lat": 38.9213835, "lon": -77.01223016666667, "rental_uris": {"android": "https://dc.lft.to/lastmile_qr_scan", "ios": "https://dc.lft.to/lastmile_qr_scan"}, "is_disabled": 0, "fusion_lat": 0.0, "name": "ddfb335482cfb38c02f8c520643aab47", "fusion_lon": 0.0}, {"is_reserved": 0, "type": "electric_scooter", "bike_id": "b1d65293e5b84d9ece5412f65d4c4d1b", "lat": 38.907287333333336, "lon": -77.04474533333334, "rental_uris": {"android": "https://dc.lft.to/lastmile_qr_scan", "ios": "https://dc.lft.to/lastmile_qr_scan"}, "is_disabled": 0, "fusion_lat": 0.0, "name": "b1d65293e5b84d9ece5412f65d4c4d1b", "fusion_lon": 0.0}, {"is_reserved": 0, "type": "electric_scooter", "bike_id": "a3c7186d903d2aaeeee56be8a2548798", "lat": 38.903761333333335, "lon": -77.016351, "rental_uris": {"android": "https://dc.lft.to/lastmile_qr_scan", "ios": "https://dc.lft.to/lastmile_qr_scan"}, "is_disabled": 0, "fusion_lat": 0.0, "name": "a3c7186d903d2aaeeee56be8a2548798", "fusion_lon": 0.0}, {"is_reserved": 0, "type": "electric_scooter", "bike_id": "2f57de767bbf98c42095a17d8ad89999", "lat": 38.887679166666665, "lon": -76.93265233333334, "rental_uris": {"android": "https://dc.lft.to/lastmile_qr_scan", "ios": "https://dc.lft.to/lastmile_qr_scan"}, "is_disabled": 0, "fusion_lat": 0.0, "name": "2f57de767bbf98c42095a17d8ad89999", "fusion_lon": 0.0}, {"is_reserved": 0, "type": "electric_scooter", "bike_id": "135ade7ef78cf2a2fe5281502ce6a84c", "lat": 38.931839333333336, "lon": -77.0263235, "rental_uris": {"android": "https://dc.lft.to/lastmile_qr_scan", "ios": "https://dc.lft.to/lastmile_qr_scan"}, "is_disabled": 0, "fusion_lat": 0.0, "name": "135ade7ef78cf2a2fe5281502ce6a84c", "fusion_lon": 0.0}, {"is_reserved": 0, "type": "electric_scooter", "bike_id": "922d56ca80dd3913542ba0b08d4d7183", "lat": 38.93047116666666, "lon": -77.02335633333334, "rental_uris": {"android": "https://dc.lft.to/lastmile_qr_scan", "ios": "https://dc.lft.to/lastmile_qr_scan"}, "is_disabled": 0, "fusion_lat": 0.0, "name": "922d56ca80dd3913542ba0b08d4d7183", "fusion_lon": 0.0}, {"is_reserved": 0, "type": "electric_scooter", "bike_id": "b36dd2a945a5a1f3531c2715d77732a0", "lat": 38.92792333333333, "lon": -77.03593266666667, "rental_uris": {"android": "https://dc.lft.to/lastmile_qr_scan", "ios": "https://dc.lft.to/lastmile_qr_scan"}, "is_disabled": 0, "fusion_lat": 0.0, "name": "b36dd2a945a5a1f3531c2715d77732a0", "fusion_lon": 0.0}, {"is_reserved": 0, "type": "electric_scooter", "bike_id": "de0f5b8ab76307bd7e294822104868d7", "lat": 38.930626, "lon": -77.04219666666667, "rental_uris": {"android": "https://dc.lft.to/lastmile_qr_scan", "ios": "https://dc.lft.to/lastmile_qr_scan"}, "is_disabled": 0, "fusion_lat": 0.0, "name": "de0f5b8ab76307bd7e294822104868d7", "fusion_lon": 0.0}, {"is_reserved": 0, "type": "electric_scooter", "bike_id": "29e4756257c9b7541604750941c224e8", "lat": 38.90897916666667, "lon": -77.04382983333333, "rental_uris": {"android": "https://dc.lft.to/lastmile_qr_scan", "ios": "https://dc.lft.to/lastmile_qr_scan"}, "is_disabled": 0, "fusion_lat": 0.0, "name": "29e4756257c9b7541604750941c224e8", "fusion_lon": 0.0}, {"is_reserved": 0, "type": "electric_scooter", "bike_id": "7ef64e8efe63bce7a7499e3e2145dea0", "lat": 38.900796, "lon": -77.02536933333333, "rental_uris": {"android": "https://dc.lft.to/lastmile_qr_scan", "ios": "https://dc.lft.to/lastmile_qr_scan"}, "is_disabled": 0, "fusion_lat": 0.0, "name": "7ef64e8efe63bce7a7499e3e2145dea0", "fusion_lon": 0.0}, {"is_reserved": 0, "type": "electric_scooter", "bike_id": "0dbd2899dbdddfc837c8bd261fa53782", "lat": 38.926435, "lon": -77.02144966666667, "rental_uris": {"android": "https://dc.lft.to/lastmile_qr_scan", "ios": "https://dc.lft.to/lastmile_qr_scan"}, "is_disabled": 0, "fusion_lat": 0.0, "name": "0dbd2899dbdddfc837c8bd261fa53782", "fusion_lon": 0.0}, {"is_reserved": 0, "type": "electric_scooter", "bike_id": "0536471328e34beecfb134bfc11b68ff", "lat": 38.884066, "lon": -76.995308, "rental_uris": {"android": "https://dc.lft.to/lastmile_qr_scan", "ios": "https://dc.lft.to/lastmile_qr_scan"}, "is_disabled": 0, "fusion_lat": 0.0, "name": "0536471328e34beecfb134bfc11b68ff", "fusion_lon": 0.0}, {"is_reserved": 0, "type": "electric_scooter", "bike_id": "e4f4a869fb76c8740b2d2cda7bc6979f", "lat": 38.88327866666667, "lon": -76.99327533333333, "rental_uris": {"android": "https://dc.lft.to/lastmile_qr_scan", "ios": "https://dc.lft.to/lastmile_qr_scan"}, "is_disabled": 0, "fusion_lat": 0.0, "name": "e4f4a869fb76c8740b2d2cda7bc6979f", "fusion_lon": 0.0}, {"is_reserved": 0, "type": "electric_scooter", "bike_id": "825d5f2400a3a76bde11fcdd43a61c80", "lat": 38.88454933333333, "lon": -76.92621466666667, "rental_uris": {"android": "https://dc.lft.to/lastmile_qr_scan", "ios": "https://dc.lft.to/lastmile_qr_scan"}, "is_disabled": 0, "fusion_lat": 0.0, "name": "825d5f2400a3a76bde11fcdd43a61c80", "fusion_lon": 0.0}, {"is_reserved": 0, "type": "electric_scooter", "bike_id": "1d3a4730dc8fc71e54a9c3065ad22f12", "lat": 38.915716833333335, "lon": -77.036444, "rental_uris": {"android": "https://dc.lft.to/lastmile_qr_scan", "ios": "https://dc.lft.to/lastmile_qr_scan"}, "is_disabled": 0, "fusion_lat": 0.0, "name": "1d3a4730dc8fc71e54a9c3065ad22f12", "fusion_lon": 0.0}, {"is_reserved": 0, "type": "electric_scooter", "bike_id": "aaf984c8203a92586c6acb972ab2e2ac", "lat": 38.9729825, "lon": -77.03624066666667, "rental_uris": {"android": "https://dc.lft.to/lastmile_qr_scan", "ios": "https://dc.lft.to/lastmile_qr_scan"}, "is_disabled": 0, "fusion_lat": 0.0, "name": "aaf984c8203a92586c6acb972ab2e2ac", "fusion_lon": 0.0}, {"is_reserved": 0, "type": "electric_scooter", "bike_id": "cf4eb454477f075eea28a2ace9b262c9", "lat": 38.926025833333334, "lon": -77.02158866666667, "rental_uris": {"android": "https://dc.lft.to/lastmile_qr_scan", "ios": "https://dc.lft.to/lastmile_qr_scan"}, "is_disabled": 0, "fusion_lat": 0.0, "name": "cf4eb454477f075eea28a2ace9b262c9", "fusion_lon": 0.0}, {"is_reserved": 0, "type": "electric_scooter", "bike_id": "4d560b5895c7a6ae36fbfd9b39c722db", "lat": 38.910595666666666, "lon": -77.0551955, "rental_uris": {"android": "https://dc.lft.to/lastmile_qr_scan", "ios": "https://dc.lft.to/lastmile_qr_scan"}, "is_disabled": 0, "fusion_lat": 0.0, "name": "4d560b5895c7a6ae36fbfd9b39c722db", "fusion_lon": 0.0}, {"is_reserved": 0, "type": "electric_scooter", "bike_id": "670a89c34603956c976b91893f170200", "lat": 38.919283166666666, "lon": -77.0197595, "rental_uris": {"android": "https://dc.lft.to/lastmile_qr_scan", "ios": "https://dc.lft.to/lastmile_qr_scan"}, "is_disabled": 0, "fusion_lat": 0.0, "name": "670a89c34603956c976b91893f170200", "fusion_lon": 0.0}, {"is_reserved": 0, "type": "electric_scooter", "bike_id": "e0038e6b3e4e43d2c745e53b556188fa", "lat": 38.91831166666667, "lon": -77.0322055, "rental_uris": {"android": "https://dc.lft.to/lastmile_qr_scan", "ios": "https://dc.lft.to/lastmile_qr_scan"}, "is_disabled": 0, "fusion_lat": 0.0, "name": "e0038e6b3e4e43d2c745e53b556188fa", "fusion_lon": 0.0}, {"is_reserved": 0, "type": "electric_bike", "bike_id": "278b83105f5b291b1e392207351a2ade", "lat": 39.094451166666666, "lon": -77.134635, "rental_uris": {"android": "https://dc.lft.to/lastmile_qr_scan", "ios": "https://dc.lft.to/lastmile_qr_scan"}, "is_disabled": 0, "fusion_lat": 0.0, "name": "278b83105f5b291b1e392207351a2ade", "fusion_lon": 0.0}, {"is_reserved": 0, "type": "electric_scooter", "bike_id": "6b3ef4cfd2fff5bb4a26dc4a6b4de99e", "lat": 38.8971285, "lon": -77.0079745, "rental_uris": {"android": "https://dc.lft.to/lastmile_qr_scan", "ios": "https://dc.lft.to/lastmile_qr_scan"}, "is_disabled": 0, "fusion_lat": 0.0, "name": "6b3ef4cfd2fff5bb4a26dc4a6b4de99e", "fusion_lon": 0.0}, {"is_reserved": 0, "type": "electric_scooter", "bike_id": "b00d2e0c663861e3bb175b0c81145364", "lat": 38.922716333333334, "lon": -77.04023966666666, "rental_uris": {"android": "https://dc.lft.to/lastmile_qr_scan", "ios": "https://dc.lft.to/lastmile_qr_scan"}, "is_disabled": 0, "fusion_lat": 0.0, "name": "b00d2e0c663861e3bb175b0c81145364", "fusion_lon": 0.0}, {"is_reserved": 0, "type": "electric_scooter", "bike_id": "6ef5548844fb0e7bfbe99aa87dcbdbd5", "lat": 38.94037, "lon": -77.02909183333334, "rental_uris": {"android": "https://dc.lft.to/lastmile_qr_scan", "ios": "https://dc.lft.to/lastmile_qr_scan"}, "is_disabled": 0, "fusion_lat": 0.0, "name": "6ef5548844fb0e7bfbe99aa87dcbdbd5", "fusion_lon": 0.0}, {"is_reserved": 0, "type": "electric_scooter", "bike_id": "60abba90813ce64cc8f6480e59224e4a", "lat": 38.916307833333335, "lon": -77.03213916666667, "rental_uris": {"android": "https://dc.lft.to/lastmile_qr_scan", "ios": "https://dc.lft.to/lastmile_qr_scan"}, "is_disabled": 0, "fusion_lat": 0.0, "name": "60abba90813ce64cc8f6480e59224e4a", "fusion_lon": 0.0}, {"is_reserved": 0, "type": "electric_scooter", "bike_id": "b977a280bd2e776356c915e7ad7335aa", "lat": 38.878476166666665, "lon": -76.9955925, "rental_uris": {"android": "https://dc.lft.to/lastmile_qr_scan", "ios": "https://dc.lft.to/lastmile_qr_scan"}, "is_disabled": 0, "fusion_lat": 0.0, "name": "b977a280bd2e776356c915e7ad7335aa", "fusion_lon": 0.0}, {"is_reserved": 0, "type": "electric_scooter", "bike_id": "f8aa9a4d771c13d5922c59c534750834", "lat": 38.90016933333333, "lon": -77.04020883333334, "rental_uris": {"android": "https://dc.lft.to/lastmile_qr_scan", "ios": "https://dc.lft.to/lastmile_qr_scan"}, "is_disabled": 0, "fusion_lat": 0.0, "name": "f8aa9a4d771c13d5922c59c534750834", "fusion_lon": 0.0}, {"is_reserved": 0, "type": "electric_scooter", "bike_id": "9da9bc0a6e0c4ea7c230e700b3e7db58", "lat": 38.903794833333336, "lon": -77.0534985, "rental_uris": {"android": "https://dc.lft.to/lastmile_qr_scan", "ios": "https://dc.lft.to/lastmile_qr_scan"}, "is_disabled": 0, "fusion_lat": 0.0, "name": "9da9bc0a6e0c4ea7c230e700b3e7db58", "fusion_lon": 0.0}, {"is_reserved": 0, "type": "electric_scooter", "bike_id": "2363838a936e5f6c77be16ee7fe93d3d", "lat": 38.906126, "lon": -77.00902616666667, "rental_uris": {"android": "https://dc.lft.to/lastmile_qr_scan", "ios": "https://dc.lft.to/lastmile_qr_scan"}, "is_disabled": 0, "fusion_lat": 0.0, "name": "2363838a936e5f6c77be16ee7fe93d3d", "fusion_lon": 0.0}, {"is_reserved": 0, "type": "electric_scooter", "bike_id": "9ad8e54ed7378f037cebb6bebb3b04bb", "lat": 38.8873425, "lon": -77.01353733333333, "rental_uris": {"android": "https://dc.lft.to/lastmile_qr_scan", "ios": "https://dc.lft.to/lastmile_qr_scan"}, "is_disabled": 0, "fusion_lat": 0.0, "name": "9ad8e54ed7378f037cebb6bebb3b04bb", "fusion_lon": 0.0}, {"is_reserved": 0, "type": "electric_scooter", "bike_id": "f139f75264393c42b8052b4cf9d7c44d", "lat": 38.90450883333333, "lon": -77.052587, "rental_uris": {"android": "https://dc.lft.to/lastmile_qr_scan", "ios": "https://dc.lft.to/lastmile_qr_scan"}, "is_disabled": 0, "fusion_lat": 0.0, "name": "f139f75264393c42b8052b4cf9d7c44d", "fusion_lon": 0.0}, {"is_reserved": 0, "type": "electric_scooter", "bike_id": "2c727b5c10d81bc385bbb88cdd8e0288", "lat": 38.89359316666667, "lon": -76.98682516666666, "rental_uris": {"android": "https://dc.lft.to/lastmile_qr_scan", "ios": "https://dc.lft.to/lastmile_qr_scan"}, "is_disabled": 0, "fusion_lat": 0.0, "name": "2c727b5c10d81bc385bbb88cdd8e0288", "fusion_lon": 0.0}, {"is_reserved": 0, "type": "electric_scooter", "bike_id": "95ed37208f2348569e9755c609ba34e7", "lat": 38.9243665, "lon": -77.02028966666667, "rental_uris": {"android": "https://dc.lft.to/lastmile_qr_scan", "ios": "https://dc.lft.to/lastmile_qr_scan"}, "is_disabled": 0, "fusion_lat": 0.0, "name": "95ed37208f2348569e9755c609ba34e7", "fusion_lon": 0.0}, {"is_reserved": 0, "type": "electric_scooter", "bike_id": "aa7fbdc449412383018e0cf541303253", "lat": 38.912776666666666, "lon": -77.03867566666666, "rental_uris": {"android": "https://dc.lft.to/lastmile_qr_scan", "ios": "https://dc.lft.to/lastmile_qr_scan"}, "is_disabled": 0, "fusion_lat": 0.0, "name": "aa7fbdc449412383018e0cf541303253", "fusion_lon": 0.0}, {"is_reserved": 0, "type": "electric_scooter", "bike_id": "16ee853ea46650c5123c6beed2351d26", "lat": 38.98986216666667, "lon": -77.03362466666667, "rental_uris": {"android": "https://dc.lft.to/lastmile_qr_scan", "ios": "https://dc.lft.to/lastmile_qr_scan"}, "is_disabled": 0, "fusion_lat": 0.0, "name": "16ee853ea46650c5123c6beed2351d26", "fusion_lon": 0.0}, {"is_reserved": 0, "type": "electric_bike", "bike_id": "9718bb79f7c5d6dbf4c83d0b52f0b188", "lat": 38.90525483333333, "lon": -77.041856, "rental_uris": {"android": "https://dc.lft.to/lastmile_qr_scan", "ios": "https://dc.lft.to/lastmile_qr_scan"}, "is_disabled": 0, "fusion_lat": 0.0, "name": "9718bb79f7c5d6dbf4c83d0b52f0b188", "fusion_lon": 0.0}, {"is_reserved": 0, "type": "electric_scooter", "bike_id": "1a4c1c42a7889893174b8de9bbc4cf53", "lat": 38.894928, "lon": -76.9278595, "rental_uris": {"android": "https://dc.lft.to/lastmile_qr_scan", "ios": "https://dc.lft.to/lastmile_qr_scan"}, "is_disabled": 0, "fusion_lat": 0.0, "name": "1a4c1c42a7889893174b8de9bbc4cf53", "fusion_lon": 0.0}, {"is_reserved": 0, "type": "electric_scooter", "bike_id": "eba743d6c4949283cc9ffdd9b8f1c84a", "lat": 38.91480766666667, "lon": -77.00215466666667, "rental_uris": {"android": "https://dc.lft.to/lastmile_qr_scan", "ios": "https://dc.lft.to/lastmile_qr_scan"}, "is_disabled": 0, "fusion_lat": 0.0, "name": "eba743d6c4949283cc9ffdd9b8f1c84a", "fusion_lon": 0.0}, {"is_reserved": 0, "type": "electric_scooter", "bike_id": "6cab55aecc6428bd49e43701afa99f99", "lat": 38.9358175, "lon": -77.03260583333333, "rental_uris": {"android": "https://dc.lft.to/lastmile_qr_scan", "ios": "https://dc.lft.to/lastmile_qr_scan"}, "is_disabled": 0, "fusion_lat": 0.0, "name": "6cab55aecc6428bd49e43701afa99f99", "fusion_lon": 0.0}, {"is_reserved": 0, "type": "electric_scooter", "bike_id": "48c9a1ff8ef58eebc40229983ee47f95", "lat": 38.89875416666667, "lon": -76.93185566666666, "rental_uris": {"android": "https://dc.lft.to/lastmile_qr_scan", "ios": "https://dc.lft.to/lastmile_qr_scan"}, "is_disabled": 0, "fusion_lat": 0.0, "name": "48c9a1ff8ef58eebc40229983ee47f95", "fusion_lon": 0.0}, {"is_reserved": 0, "type": "electric_scooter", "bike_id": "e2359513ccae3f77ab0cf793972bc79d", "lat": 38.916096833333334, "lon": -77.02305383333334, "rental_uris": {"android": "https://dc.lft.to/lastmile_qr_scan", "ios": "https://dc.lft.to/lastmile_qr_scan"}, "is_disabled": 0, "fusion_lat": 0.0, "name": "e2359513ccae3f77ab0cf793972bc79d", "fusion_lon": 0.0}, {"is_reserved": 0, "type": "electric_bike", "bike_id": "afdbc7ff150259fe3d8b3625b1206c42", "lat": 38.95106716666667, "lon": -77.02008183333334, "rental_uris": {"android": "https://dc.lft.to/lastmile_qr_scan", "ios": "https://dc.lft.to/lastmile_qr_scan"}, "is_disabled": 0, "fusion_lat": 0.0, "name": "afdbc7ff150259fe3d8b3625b1206c42", "fusion_lon": 0.0}, {"is_reserved": 0, "type": "electric_scooter", "bike_id": "2c1ffd68a84a00f795e2077609cf12e6", "lat": 38.92866433333333, "lon": -77.05657616666667, "rental_uris": {"android": "https://dc.lft.to/lastmile_qr_scan", "ios": "https://dc.lft.to/lastmile_qr_scan"}, "is_disabled": 0, "fusion_lat": 0.0, "name": "2c1ffd68a84a00f795e2077609cf12e6", "fusion_lon": 0.0}, {"is_reserved": 0, "type": "electric_scooter", "bike_id": "9372c7f2ddceb3216cdce742852f583e", "lat": 38.92643116666667, "lon": -77.02731066666666, "rental_uris": {"android": "https://dc.lft.to/lastmile_qr_scan", "ios": "https://dc.lft.to/lastmile_qr_scan"}, "is_disabled": 0, "fusion_lat": 0.0, "name": "9372c7f2ddceb3216cdce742852f583e", "fusion_lon": 0.0}, {"is_reserved": 0, "type": "electric_bike", "bike_id": "cac763d7ef54ea693087888427337c2b", "lat": 38.90691833333333, "lon": -76.95252866666667, "rental_uris": {"android": "https://dc.lft.to/lastmile_qr_scan", "ios": "https://dc.lft.to/lastmile_qr_scan"}, "is_disabled": 0, "fusion_lat": 0.0, "name": "cac763d7ef54ea693087888427337c2b", "fusion_lon": 0.0}, {"is_reserved": 0, "type": "electric_scooter", "bike_id": "710b8aeed694c879afaedd84ee02a5a6", "lat": 38.875010333333336, "lon": -77.0004465, "rental_uris": {"android": "https://dc.lft.to/lastmile_qr_scan", "ios": "https://dc.lft.to/lastmile_qr_scan"}, "is_disabled": 0, "fusion_lat": 0.0, "name": "710b8aeed694c879afaedd84ee02a5a6", "fusion_lon": 0.0}, {"is_reserved": 0, "type": "electric_scooter", "bike_id": "63cf3ebd77f1912ba1376820983a1fd1", "lat": 38.9195155, "lon": -77.02882883333334, "rental_uris": {"android": "https://dc.lft.to/lastmile_qr_scan", "ios": "https://dc.lft.to/lastmile_qr_scan"}, "is_disabled": 0, "fusion_lat": 0.0, "name": "63cf3ebd77f1912ba1376820983a1fd1", "fusion_lon": 0.0}, {"is_reserved": 0, "type": "electric_scooter", "bike_id": "0c8808c835093c8a471289fc220b8bbf", "lat": 38.909728666666666, "lon": -77.045079, "rental_uris": {"android": "https://dc.lft.to/lastmile_qr_scan", "ios": "https://dc.lft.to/lastmile_qr_scan"}, "is_disabled": 0, "fusion_lat": 0.0, "name": "0c8808c835093c8a471289fc220b8bbf", "fusion_lon": 0.0}, {"is_reserved": 0, "type": "electric_scooter", "bike_id": "e0c063b9c0c1ac6457f54150bd645852", "lat": 38.934549833333335, "lon": -77.07239683333333, "rental_uris": {"android": "https://dc.lft.to/lastmile_qr_scan", "ios": "https://dc.lft.to/lastmile_qr_scan"}, "is_disabled": 0, "fusion_lat": 0.0, "name": "e0c063b9c0c1ac6457f54150bd645852", "fusion_lon": 0.0}, {"is_reserved": 0, "type": "electric_scooter", "bike_id": "971fc45aa186c4e63f064189771b166d", "lat": 38.93975966666667, "lon": -77.05473533333333, "rental_uris": {"android": "https://dc.lft.to/lastmile_qr_scan", "ios": "https://dc.lft.to/lastmile_qr_scan"}, "is_disabled": 0, "fusion_lat": 0.0, "name": "971fc45aa186c4e63f064189771b166d", "fusion_lon": 0.0}, {"is_reserved": 0, "type": "electric_scooter", "bike_id": "ff4aba2fb89ad7fa7f1faf4ce3fad9ed", "lat": 38.918157666666666, "lon": -77.027141, "rental_uris": {"android": "https://dc.lft.to/lastmile_qr_scan", "ios": "https://dc.lft.to/lastmile_qr_scan"}, "is_disabled": 0, "fusion_lat": 0.0, "name": "ff4aba2fb89ad7fa7f1faf4ce3fad9ed", "fusion_lon": 0.0}, {"is_reserved": 0, "type": "electric_scooter", "bike_id": "2f6f1d9ba425ceacfa19c09bd43917a9", "lat": 38.917976333333336, "lon": -77.0271145, "rental_uris": {"android": "https://dc.lft.to/lastmile_qr_scan", "ios": "https://dc.lft.to/lastmile_qr_scan"}, "is_disabled": 0, "fusion_lat": 0.0, "name": "2f6f1d9ba425ceacfa19c09bd43917a9", "fusion_lon": 0.0}, {"is_reserved": 0, "type": "electric_scooter", "bike_id": "562fec2aaf91ee7a8c932f45381834d3", "lat": 38.940247166666666, "lon": -77.02506633333333, "rental_uris": {"android": "https://dc.lft.to/lastmile_qr_scan", "ios": "https://dc.lft.to/lastmile_qr_scan"}, "is_disabled": 0, "fusion_lat": 0.0, "name": "562fec2aaf91ee7a8c932f45381834d3", "fusion_lon": 0.0}, {"is_reserved": 0, "type": "electric_scooter", "bike_id": "1f464db9b61de73abcee96846b902c86", "lat": 38.92466133333333, "lon": -77.02251216666667, "rental_uris": {"android": "https://dc.lft.to/lastmile_qr_scan", "ios": "https://dc.lft.to/lastmile_qr_scan"}, "is_disabled": 0, "fusion_lat": 0.0, "name": "1f464db9b61de73abcee96846b902c86", "fusion_lon": 0.0}, {"is_reserved": 0, "type": "electric_scooter", "bike_id": "96a794d391b681a6ab60cf3c68c854fe", "lat": 38.92240983333333, "lon": -77.04253083333333, "rental_uris": {"android": "https://dc.lft.to/lastmile_qr_scan", "ios": "https://dc.lft.to/lastmile_qr_scan"}, "is_disabled": 0, "fusion_lat": 0.0, "name": "96a794d391b681a6ab60cf3c68c854fe", "fusion_lon": 0.0}, {"is_reserved": 0, "type": "electric_scooter", "bike_id": "daced2e7e67938ae240f10f789f2c3e4", "lat": 38.93105216666667, "lon": -77.0350205, "rental_uris": {"android": "https://dc.lft.to/lastmile_qr_scan", "ios": "https://dc.lft.to/lastmile_qr_scan"}, "is_disabled": 0, "fusion_lat": 0.0, "name": "daced2e7e67938ae240f10f789f2c3e4", "fusion_lon": 0.0}, {"is_reserved": 0, "type": "electric_scooter", "bike_id": "aeaa80d1f07c13fa2b76dc8e80375bbd", "lat": 38.9097645, "lon": -77.028012, "rental_uris": {"android": "https://dc.lft.to/lastmile_qr_scan", "ios": "https://dc.lft.to/lastmile_qr_scan"}, "is_disabled": 0, "fusion_lat": 0.0, "name": "aeaa80d1f07c13fa2b76dc8e80375bbd", "fusion_lon": 0.0}, {"is_reserved": 0, "type": "electric_scooter", "bike_id": "c61f02b0b57bff8ecb6cbe83256dd4a6", "lat": 38.92380416666666, "lon": -77.02958, "rental_uris": {"android": "https://dc.lft.to/lastmile_qr_scan", "ios": "https://dc.lft.to/lastmile_qr_scan"}, "is_disabled": 0, "fusion_lat": 0.0, "name": "c61f02b0b57bff8ecb6cbe83256dd4a6", "fusion_lon": 0.0}, {"is_reserved": 0, "type": "electric_scooter", "bike_id": "ec6e69fa75fbe32389b745f7d30ae425", "lat": 38.89243833333333, "lon": -77.0334965, "rental_uris": {"android": "https://dc.lft.to/lastmile_qr_scan", "ios": "https://dc.lft.to/lastmile_qr_scan"}, "is_disabled": 0, "fusion_lat": 0.0, "name": "ec6e69fa75fbe32389b745f7d30ae425", "fusion_lon": 0.0}, {"is_reserved": 0, "type": "electric_scooter", "bike_id": "fe29fae2e0a6c466f91d44ded0b4abcb", "lat": 38.92238033333334, "lon": -77.02238616666666, "rental_uris": {"android": "https://dc.lft.to/lastmile_qr_scan", "ios": "https://dc.lft.to/lastmile_qr_scan"}, "is_disabled": 0, "fusion_lat": 0.0, "name": "fe29fae2e0a6c466f91d44ded0b4abcb", "fusion_lon": 0.0}, {"is_reserved": 0, "type": "electric_bike", "bike_id": "4482fc7d9f49891ef0ddb0810b31150c", "lat": 38.88339216666667, "lon": -76.93625066666667, "rental_uris": {"android": "https://dc.lft.to/lastmile_qr_scan", "ios": "https://dc.lft.to/lastmile_qr_scan"}, "is_disabled": 0, "fusion_lat": 0.0, "name": "4482fc7d9f49891ef0ddb0810b31150c", "fusion_lon": 0.0}, {"is_reserved": 0, "type": "electric_scooter", "bike_id": "0b65e5f2610dc2a02369acfc7d653f4b", "lat": 38.912547833333335, "lon": -77.00930266666667, "rental_uris": {"android": "https://dc.lft.to/lastmile_qr_scan", "ios": "https://dc.lft.to/lastmile_qr_scan"}, "is_disabled": 0, "fusion_lat": 0.0, "name": "0b65e5f2610dc2a02369acfc7d653f4b", "fusion_lon": 0.0}, {"is_reserved": 0, "type": "electric_scooter", "bike_id": "a28c2c5537fc09ccb9d95d60d69f9767", "lat": 38.931387, "lon": -77.038317, "rental_uris": {"android": "https://dc.lft.to/lastmile_qr_scan", "ios": "https://dc.lft.to/lastmile_qr_scan"}, "is_disabled": 0, "fusion_lat": 0.0, "name": "a28c2c5537fc09ccb9d95d60d69f9767", "fusion_lon": 0.0}, {"is_reserved": 0, "type": "electric_scooter", "bike_id": "eff4b8729469ca0ae21c7ca595662d18", "lat": 38.9345715, "lon": -77.02954933333334, "rental_uris": {"android": "https://dc.lft.to/lastmile_qr_scan", "ios": "https://dc.lft.to/lastmile_qr_scan"}, "is_disabled": 0, "fusion_lat": 0.0, "name": "eff4b8729469ca0ae21c7ca595662d18", "fusion_lon": 0.0}, {"is_reserved": 0, "type": "electric_scooter", "bike_id": "0f94850f0540ae92d4adb6d054c45613", "lat": 38.916784666666665, "lon": -77.03778216666667, "rental_uris": {"android": "https://dc.lft.to/lastmile_qr_scan", "ios": "https://dc.lft.to/lastmile_qr_scan"}, "is_disabled": 0, "fusion_lat": 0.0, "name": "0f94850f0540ae92d4adb6d054c45613", "fusion_lon": 0.0}, {"is_reserved": 0, "type": "electric_scooter", "bike_id": "f1dc5c6b9623b0ae85396f42573bf2d1", "lat": 38.9378035, "lon": -77.0745075, "rental_uris": {"android": "https://dc.lft.to/lastmile_qr_scan", "ios": "https://dc.lft.to/lastmile_qr_scan"}, "is_disabled": 0, "fusion_lat": 0.0, "name": "f1dc5c6b9623b0ae85396f42573bf2d1", "fusion_lon": 0.0}, {"is_reserved": 0, "type": "electric_bike", "bike_id": "44e6bff6d05e7c495ad424cd7c5546a0", "lat": 38.90794066666667, "lon": -77.02409916666667, "rental_uris": {"android": "https://dc.lft.to/lastmile_qr_scan", "ios": "https://dc.lft.to/lastmile_qr_scan"}, "is_disabled": 0, "fusion_lat": 0.0, "name": "44e6bff6d05e7c495ad424cd7c5546a0", "fusion_lon": 0.0}, {"is_reserved": 0, "type": "electric_scooter", "bike_id": "49a71c1cf08ad2a346fb078cea6ff432", "lat": 38.887448, "lon": -77.01738416666667, "rental_uris": {"android": "https://dc.lft.to/lastmile_qr_scan", "ios": "https://dc.lft.to/lastmile_qr_scan"}, "is_disabled": 0, "fusion_lat": 0.0, "name": "49a71c1cf08ad2a346fb078cea6ff432", "fusion_lon": 0.0}, {"is_reserved": 0, "type": "electric_scooter", "bike_id": "c7369d75f65760322450af3dc9803674", "lat": 38.91239383333333, "lon": -77.03852116666667, "rental_uris": {"android": "https://dc.lft.to/lastmile_qr_scan", "ios": "https://dc.lft.to/lastmile_qr_scan"}, "is_disabled": 0, "fusion_lat": 0.0, "name": "c7369d75f65760322450af3dc9803674", "fusion_lon": 0.0}, {"is_reserved": 0, "type": "electric_scooter", "bike_id": "7982c0405512d59aa267bd63622231f8", "lat": 38.90556983333333, "lon": -76.99778466666666, "rental_uris": {"android": "https://dc.lft.to/lastmile_qr_scan", "ios": "https://dc.lft.to/lastmile_qr_scan"}, "is_disabled": 0, "fusion_lat": 0.0, "name": "7982c0405512d59aa267bd63622231f8", "fusion_lon": 0.0}, {"is_reserved": 0, "type": "electric_scooter", "bike_id": "3bc48a0bc1738ac57088d3e8f1fec6ab", "lat": 38.9045815, "lon": -77.003385, "rental_uris": {"android": "https://dc.lft.to/lastmile_qr_scan", "ios": "https://dc.lft.to/lastmile_qr_scan"}, "is_disabled": 0, "fusion_lat": 0.0, "name": "3bc48a0bc1738ac57088d3e8f1fec6ab", "fusion_lon": 0.0}, {"is_reserved": 0, "type": "electric_scooter", "bike_id": "c90dbd8b4207b93afe6675fa07270b9f", "lat": 38.9244815, "lon": -77.0203375, "rental_uris": {"android": "https://dc.lft.to/lastmile_qr_scan", "ios": "https://dc.lft.to/lastmile_qr_scan"}, "is_disabled": 0, "fusion_lat": 0.0, "name": "c90dbd8b4207b93afe6675fa07270b9f", "fusion_lon": 0.0}, {"is_reserved": 0, "type": "electric_scooter", "bike_id": "39839adbe27aac18ed47a0799310e83a", "lat": 38.900951, "lon": -77.01611183333333, "rental_uris": {"android": "https://dc.lft.to/lastmile_qr_scan", "ios": "https://dc.lft.to/lastmile_qr_scan"}, "is_disabled": 0, "fusion_lat": 0.0, "name": "39839adbe27aac18ed47a0799310e83a", "fusion_lon": 0.0}, {"is_reserved": 0, "type": "electric_bike", "bike_id": "62872ce8b36cbbc94a557def27de4731", "lat": 38.95592833333333, "lon": -76.99536166666667, "rental_uris": {"android": "https://dc.lft.to/lastmile_qr_scan", "ios": "https://dc.lft.to/lastmile_qr_scan"}, "is_disabled": 0, "fusion_lat": 0.0, "name": "62872ce8b36cbbc94a557def27de4731", "fusion_lon": 0.0}, {"is_reserved": 0, "type": "electric_scooter", "bike_id": "b274c66b80a30e5bcd1fe49cbbb2c51c", "lat": 38.91934583333333, "lon": -77.0188125, "rental_uris": {"android": "https://dc.lft.to/lastmile_qr_scan", "ios": "https://dc.lft.to/lastmile_qr_scan"}, "is_disabled": 0, "fusion_lat": 0.0, "name": "b274c66b80a30e5bcd1fe49cbbb2c51c", "fusion_lon": 0.0}, {"is_reserved": 0, "type": "electric_scooter", "bike_id": "673d77b542556394dfc61a1b74566fec", "lat": 38.8671605, "lon": -76.980717, "rental_uris": {"android": "https://dc.lft.to/lastmile_qr_scan", "ios": "https://dc.lft.to/lastmile_qr_scan"}, "is_disabled": 0, "fusion_lat": 0.0, "name": "673d77b542556394dfc61a1b74566fec", "fusion_lon": 0.0}, {"is_reserved": 0, "type": "electric_scooter", "bike_id": "011e9165c3bf40d2a73737afaf4212f7", "lat": 38.897773, "lon": -77.02702366666666, "rental_uris": {"android": "https://dc.lft.to/lastmile_qr_scan", "ios": "https://dc.lft.to/lastmile_qr_scan"}, "is_disabled": 0, "fusion_lat": 0.0, "name": "011e9165c3bf40d2a73737afaf4212f7", "fusion_lon": 0.0}, {"is_reserved": 0, "type": "electric_scooter", "bike_id": "d4ec3a4a9d71a821abe2cf3709143655", "lat": 38.911082, "lon": -77.02082933333334, "rental_uris": {"android": "https://dc.lft.to/lastmile_qr_scan", "ios": "https://dc.lft.to/lastmile_qr_scan"}, "is_disabled": 0, "fusion_lat": 0.0, "name": "d4ec3a4a9d71a821abe2cf3709143655", "fusion_lon": 0.0}, {"is_reserved": 0, "type": "electric_scooter", "bike_id": "9707b779e9459081e22cee6c92d887d7", "lat": 38.919635166666666, "lon": -77.04357416666667, "rental_uris": {"android": "https://dc.lft.to/lastmile_qr_scan", "ios": "https://dc.lft.to/lastmile_qr_scan"}, "is_disabled": 0, "fusion_lat": 0.0, "name": "9707b779e9459081e22cee6c92d887d7", "fusion_lon": 0.0}, {"is_reserved": 0, "type": "electric_scooter", "bike_id": "b48906953e387ae6346d360595b30cc9", "lat": 38.906381, "lon": -77.01791283333333, "rental_uris": {"android": "https://dc.lft.to/lastmile_qr_scan", "ios": "https://dc.lft.to/lastmile_qr_scan"}, "is_disabled": 0, "fusion_lat": 0.0, "name": "b48906953e387ae6346d360595b30cc9", "fusion_lon": 0.0}, {"is_reserved": 0, "type": "electric_scooter", "bike_id": "8622b4f4f216d25d851762ec4e5e3587", "lat": 38.8980385, "lon": -76.99688366666666, "rental_uris": {"android": "https://dc.lft.to/lastmile_qr_scan", "ios": "https://dc.lft.to/lastmile_qr_scan"}, "is_disabled": 0, "fusion_lat": 0.0, "name": "8622b4f4f216d25d851762ec4e5e3587", "fusion_lon": 0.0}, {"is_reserved": 0, "type": "electric_scooter", "bike_id": "1f03d37ddcb00e8785848d82ea36626c", "lat": 38.89241966666667, "lon": -77.03344866666667, "rental_uris": {"android": "https://dc.lft.to/lastmile_qr_scan", "ios": "https://dc.lft.to/lastmile_qr_scan"}, "is_disabled": 0, "fusion_lat": 0.0, "name": "1f03d37ddcb00e8785848d82ea36626c", "fusion_lon": 0.0}, {"is_reserved": 0, "type": "electric_scooter", "bike_id": "20984b62adf5cfd32c8f8dc668bff21a", "lat": 38.8876955, "lon": -76.9832175, "rental_uris": {"android": "https://dc.lft.to/lastmile_qr_scan", "ios": "https://dc.lft.to/lastmile_qr_scan"}, "is_disabled": 0, "fusion_lat": 0.0, "name": "20984b62adf5cfd32c8f8dc668bff21a", "fusion_lon": 0.0}, {"is_reserved": 0, "type": "electric_bike", "bike_id": "6c084a7cba1c7530d0356b4ab3901075", "lat": 38.895861333333336, "lon": -76.90693633333333, "rental_uris": {"android": "https://dc.lft.to/lastmile_qr_scan", "ios": "https://dc.lft.to/lastmile_qr_scan"}, "is_disabled": 0, "fusion_lat": 0.0, "name": "6c084a7cba1c7530d0356b4ab3901075", "fusion_lon": 0.0}, {"is_reserved": 0, "type": "electric_scooter", "bike_id": "8c7407c7a95927d67b7c1def9678655b", "lat": 38.89216916666667, "lon": -77.02312666666667, "rental_uris": {"android": "https://dc.lft.to/lastmile_qr_scan", "ios": "https://dc.lft.to/lastmile_qr_scan"}, "is_disabled": 0, "fusion_lat": 0.0, "name": "8c7407c7a95927d67b7c1def9678655b", "fusion_lon": 0.0}, {"is_reserved": 0, "type": "electric_scooter", "bike_id": "92832590a126e09fb7679d4573158f5a", "lat": 38.90033966666667, "lon": -77.002239, "rental_uris": {"android": "https://dc.lft.to/lastmile_qr_scan", "ios": "https://dc.lft.to/lastmile_qr_scan"}, "is_disabled": 0, "fusion_lat": 0.0, "name": "92832590a126e09fb7679d4573158f5a", "fusion_lon": 0.0}, {"is_reserved": 0, "type": "electric_scooter", "bike_id": "573bc9b42bfa04232668ca704b7627fb", "lat": 38.86592816666667, "lon": -76.974558, "rental_uris": {"android": "https://dc.lft.to/lastmile_qr_scan", "ios": "https://dc.lft.to/lastmile_qr_scan"}, "is_disabled": 0, "fusion_lat": 0.0, "name": "573bc9b42bfa04232668ca704b7627fb", "fusion_lon": 0.0}, {"is_reserved": 0, "type": "electric_scooter", "bike_id": "597a1ab3a016db46e7e2a7f23324b457", "lat": 38.924156833333335, "lon": -76.951382, "rental_uris": {"android": "https://dc.lft.to/lastmile_qr_scan", "ios": "https://dc.lft.to/lastmile_qr_scan"}, "is_disabled": 0, "fusion_lat": 0.0, "name": "597a1ab3a016db46e7e2a7f23324b457", "fusion_lon": 0.0}, {"is_reserved": 0, "type": "electric_scooter", "bike_id": "99332343331952e21da72f57d0ba60a1", "lat": 38.892301333333336, "lon": -77.01984366666667, "rental_uris": {"android": "https://dc.lft.to/lastmile_qr_scan", "ios": "https://dc.lft.to/lastmile_qr_scan"}, "is_disabled": 0, "fusion_lat": 0.0, "name": "99332343331952e21da72f57d0ba60a1", "fusion_lon": 0.0}, {"is_reserved": 0, "type": "electric_bike", "bike_id": "5a1ca28428290da9241ac5976ec5e644", "lat": 38.9125395, "lon": -77.04752233333333, "rental_uris": {"android": "https://dc.lft.to/lastmile_qr_scan", "ios": "https://dc.lft.to/lastmile_qr_scan"}, "is_disabled": 0, "fusion_lat": 0.0, "name": "5a1ca28428290da9241ac5976ec5e644", "fusion_lon": 0.0}, {"is_reserved": 0, "type": "electric_scooter", "bike_id": "85c89b9c9d6a5cee663a0bae604246ba", "lat": 38.887384833333336, "lon": -77.01353166666667, "rental_uris": {"android": "https://dc.lft.to/lastmile_qr_scan", "ios": "https://dc.lft.to/lastmile_qr_scan"}, "is_disabled": 0, "fusion_lat": 0.0, "name": "85c89b9c9d6a5cee663a0bae604246ba", "fusion_lon": 0.0}, {"is_reserved": 0, "type": "electric_scooter", "bike_id": "a8ffb69e1e89ac563d5d04d35b056c39", "lat": 38.8711295, "lon": -77.0076005, "rental_uris": {"android": "https://dc.lft.to/lastmile_qr_scan", "ios": "https://dc.lft.to/lastmile_qr_scan"}, "is_disabled": 0, "fusion_lat": 0.0, "name": "a8ffb69e1e89ac563d5d04d35b056c39", "fusion_lon": 0.0}, {"is_reserved": 0, "type": "electric_scooter", "bike_id": "ef1df1d1dc9221ac68bfd1d36d1e8434", "lat": 38.900394666666664, "lon": -77.03194633333334, "rental_uris": {"android": "https://dc.lft.to/lastmile_qr_scan", "ios": "https://dc.lft.to/lastmile_qr_scan"}, "is_disabled": 0, "fusion_lat": 0.0, "name": "ef1df1d1dc9221ac68bfd1d36d1e8434", "fusion_lon": 0.0}, {"is_reserved": 0, "type": "electric_scooter", "bike_id": "45efc110634a57943e6cdaa57b939348", "lat": 38.89874866666667, "lon": -77.04873183333333, "rental_uris": {"android": "https://dc.lft.to/lastmile_qr_scan", "ios": "https://dc.lft.to/lastmile_qr_scan"}, "is_disabled": 0, "fusion_lat": 0.0, "name": "45efc110634a57943e6cdaa57b939348", "fusion_lon": 0.0}, {"is_reserved": 0, "type": "electric_scooter", "bike_id": "ea7ff98f9eab621685badd5a04b3cf4b", "lat": 38.903672666666665, "lon": -77.0287425, "rental_uris": {"android": "https://dc.lft.to/lastmile_qr_scan", "ios": "https://dc.lft.to/lastmile_qr_scan"}, "is_disabled": 0, "fusion_lat": 0.0, "name": "ea7ff98f9eab621685badd5a04b3cf4b", "fusion_lon": 0.0}, {"is_reserved": 0, "type": "electric_scooter", "bike_id": "0e7ede0462f28cd9d78f2bd4d772d8e1", "lat": 38.899386166666666, "lon": -77.0185155, "rental_uris": {"android": "https://dc.lft.to/lastmile_qr_scan", "ios": "https://dc.lft.to/lastmile_qr_scan"}, "is_disabled": 0, "fusion_lat": 0.0, "name": "0e7ede0462f28cd9d78f2bd4d772d8e1", "fusion_lon": 0.0}, {"is_reserved": 0, "type": "electric_scooter", "bike_id": "f86417c028b498059f6859765d29b802", "lat": 38.923438833333336, "lon": -77.03458966666666, "rental_uris": {"android": "https://dc.lft.to/lastmile_qr_scan", "ios": "https://dc.lft.to/lastmile_qr_scan"}, "is_disabled": 0, "fusion_lat": 0.0, "name": "f86417c028b498059f6859765d29b802", "fusion_lon": 0.0}, {"is_reserved": 0, "type": "electric_scooter", "bike_id": "d579de251394db9b4abd44175df72063", "lat": 38.900411166666665, "lon": -77.00224183333333, "rental_uris": {"android": "https://dc.lft.to/lastmile_qr_scan", "ios": "https://dc.lft.to/lastmile_qr_scan"}, "is_disabled": 0, "fusion_lat": 0.0, "name": "d579de251394db9b4abd44175df72063", "fusion_lon": 0.0}, {"is_reserved": 0, "type": "electric_scooter", "bike_id": "fcc76f3e23137ff9182e331faaef396e", "lat": 38.932002, "lon": -77.0385345, "rental_uris": {"android": "https://dc.lft.to/lastmile_qr_scan", "ios": "https://dc.lft.to/lastmile_qr_scan"}, "is_disabled": 0, "fusion_lat": 0.0, "name": "fcc76f3e23137ff9182e331faaef396e", "fusion_lon": 0.0}, {"is_reserved": 0, "type": "electric_scooter", "bike_id": "82713a2bc1216ea371ec88f7816000d1", "lat": 38.90030216666667, "lon": -76.99600533333333, "rental_uris": {"android": "https://dc.lft.to/lastmile_qr_scan", "ios": "https://dc.lft.to/lastmile_qr_scan"}, "is_disabled": 0, "fusion_lat": 0.0, "name": "82713a2bc1216ea371ec88f7816000d1", "fusion_lon": 0.0}, {"is_reserved": 0, "type": "electric_bike", "bike_id": "9edab5f8e3a1d941ab41ee49a12fda1a", "lat": 38.803811333333336, "lon": -76.98810633333333, "rental_uris": {"android": "https://dc.lft.to/lastmile_qr_scan", "ios": "https://dc.lft.to/lastmile_qr_scan"}, "is_disabled": 0, "fusion_lat": 0.0, "name": "9edab5f8e3a1d941ab41ee49a12fda1a", "fusion_lon": 0.0}, {"is_reserved": 0, "type": "electric_scooter", "bike_id": "8762e54f892d56056febc6e60e77cf09", "lat": 38.917894, "lon": -77.02322466666666, "rental_uris": {"android": "https://dc.lft.to/lastmile_qr_scan", "ios": "https://dc.lft.to/lastmile_qr_scan"}, "is_disabled": 0, "fusion_lat": 0.0, "name": "8762e54f892d56056febc6e60e77cf09", "fusion_lon": 0.0}, {"is_reserved": 0, "type": "electric_scooter", "bike_id": "a1b3bb0fa8d1e5fb1d19b82ebcd31732", "lat": 38.848129, "lon": -76.97821733333333, "rental_uris": {"android": "https://dc.lft.to/lastmile_qr_scan", "ios": "https://dc.lft.to/lastmile_qr_scan"}, "is_disabled": 0, "fusion_lat": 0.0, "name": "a1b3bb0fa8d1e5fb1d19b82ebcd31732", "fusion_lon": 0.0}, {"is_reserved": 0, "type": "electric_scooter", "bike_id": "54598144faae2710708e2128b71abf5a", "lat": 38.9262655, "lon": -77.037836, "rental_uris": {"android": "https://dc.lft.to/lastmile_qr_scan", "ios": "https://dc.lft.to/lastmile_qr_scan"}, "is_disabled": 0, "fusion_lat": 0.0, "name": "54598144faae2710708e2128b71abf5a", "fusion_lon": 0.0}, {"is_reserved": 0, "type": "electric_scooter", "bike_id": "f571451dfabed5880da3e614b6bdae67", "lat": 38.90375733333333, "lon": -77.04185583333333, "rental_uris": {"android": "https://dc.lft.to/lastmile_qr_scan", "ios": "https://dc.lft.to/lastmile_qr_scan"}, "is_disabled": 0, "fusion_lat": 0.0, "name": "f571451dfabed5880da3e614b6bdae67", "fusion_lon": 0.0}, {"is_reserved": 0, "type": "electric_scooter", "bike_id": "25a4c9c303fcd86e7805cdf37e61892e", "lat": 38.92098683333333, "lon": -77.03013683333333, "rental_uris": {"android": "https://dc.lft.to/lastmile_qr_scan", "ios": "https://dc.lft.to/lastmile_qr_scan"}, "is_disabled": 0, "fusion_lat": 0.0, "name": "25a4c9c303fcd86e7805cdf37e61892e", "fusion_lon": 0.0}, {"is_reserved": 0, "type": "electric_scooter", "bike_id": "050fe704f7f8f3fe95fd0b966ff54152", "lat": 38.92081, "lon": -77.023027, "rental_uris": {"android": "https://dc.lft.to/lastmile_qr_scan", "ios": "https://dc.lft.to/lastmile_qr_scan"}, "is_disabled": 0, "fusion_lat": 0.0, "name": "050fe704f7f8f3fe95fd0b966ff54152", "fusion_lon": 0.0}, {"is_reserved": 0, "type": "electric_scooter", "bike_id": "e246fce865f18758cf753edcd2410bbb", "lat": 38.90784516666667, "lon": -77.01080533333334, "rental_uris": {"android": "https://dc.lft.to/lastmile_qr_scan", "ios": "https://dc.lft.to/lastmile_qr_scan"}, "is_disabled": 0, "fusion_lat": 0.0, "name": "e246fce865f18758cf753edcd2410bbb", "fusion_lon": 0.0}, {"is_reserved": 0, "type": "electric_scooter", "bike_id": "5c881442fc13ec84ea13fb5369a7532a", "lat": 38.90960916666667, "lon": -77.0235025, "rental_uris": {"android": "https://dc.lft.to/lastmile_qr_scan", "ios": "https://dc.lft.to/lastmile_qr_scan"}, "is_disabled": 0, "fusion_lat": 0.0, "name": "5c881442fc13ec84ea13fb5369a7532a", "fusion_lon": 0.0}, {"is_reserved": 0, "type": "electric_scooter", "bike_id": "fb001be338e1c198c57b7dad25b08491", "lat": 38.91803983333333, "lon": -77.03437216666667, "rental_uris": {"android": "https://dc.lft.to/lastmile_qr_scan", "ios": "https://dc.lft.to/lastmile_qr_scan"}, "is_disabled": 0, "fusion_lat": 0.0, "name": "fb001be338e1c198c57b7dad25b08491", "fusion_lon": 0.0}, {"is_reserved": 0, "type": "electric_scooter", "bike_id": "436f2fac4651136cc95cd794eb779085", "lat": 38.89462616666667, "lon": -77.00342, "rental_uris": {"android": "https://dc.lft.to/lastmile_qr_scan", "ios": "https://dc.lft.to/lastmile_qr_scan"}, "is_disabled": 0, "fusion_lat": 0.0, "name": "436f2fac4651136cc95cd794eb779085", "fusion_lon": 0.0}, {"is_reserved": 0, "type": "electric_scooter", "bike_id": "503542f1814610fe8543551f40d0d9e1", "lat": 38.9450965, "lon": -77.0335905, "rental_uris": {"android": "https://dc.lft.to/lastmile_qr_scan", "ios": "https://dc.lft.to/lastmile_qr_scan"}, "is_disabled": 0, "fusion_lat": 0.0, "name": "503542f1814610fe8543551f40d0d9e1", "fusion_lon": 0.0}, {"is_reserved": 0, "type": "electric_scooter", "bike_id": "d8e9d483e6a256f7d8db0260f105bb7b", "lat": 38.895414833333334, "lon": -77.011063, "rental_uris": {"android": "https://dc.lft.to/lastmile_qr_scan", "ios": "https://dc.lft.to/lastmile_qr_scan"}, "is_disabled": 0, "fusion_lat": 0.0, "name": "d8e9d483e6a256f7d8db0260f105bb7b", "fusion_lon": 0.0}, {"is_reserved": 0, "type": "electric_scooter", "bike_id": "006b78bb4ba8ccbe50fddd5d3f972b97", "lat": 38.897240833333335, "lon": -77.0289175, "rental_uris": {"android": "https://dc.lft.to/lastmile_qr_scan", "ios": "https://dc.lft.to/lastmile_qr_scan"}, "is_disabled": 0, "fusion_lat": 0.0, "name": "006b78bb4ba8ccbe50fddd5d3f972b97", "fusion_lon": 0.0}, {"is_reserved": 0, "type": "electric_scooter", "bike_id": "3eeae06ea552743697fcd80c9a617f5c", "lat": 38.8988575, "lon": -77.0396115, "rental_uris": {"android": "https://dc.lft.to/lastmile_qr_scan", "ios": "https://dc.lft.to/lastmile_qr_scan"}, "is_disabled": 0, "fusion_lat": 0.0, "name": "3eeae06ea552743697fcd80c9a617f5c", "fusion_lon": 0.0}, {"is_reserved": 0, "type": "electric_bike", "bike_id": "87ac804f9e56c641ed4c1de0e1d66b30", "lat": 38.9748715, "lon": -77.01814816666666, "rental_uris": {"android": "https://dc.lft.to/lastmile_qr_scan", "ios": "https://dc.lft.to/lastmile_qr_scan"}, "is_disabled": 0, "fusion_lat": 0.0, "name": "87ac804f9e56c641ed4c1de0e1d66b30", "fusion_lon": 0.0}, {"is_reserved": 0, "type": "electric_scooter", "bike_id": "201585c477e1751efd25725002e82092", "lat": 38.91802883333333, "lon": -77.024937, "rental_uris": {"android": "https://dc.lft.to/lastmile_qr_scan", "ios": "https://dc.lft.to/lastmile_qr_scan"}, "is_disabled": 0, "fusion_lat": 0.0, "name": "201585c477e1751efd25725002e82092", "fusion_lon": 0.0}, {"is_reserved": 0, "type": "electric_scooter", "bike_id": "f840b083fe378c4dfed2f462fc5cf735", "lat": 38.9160985, "lon": -77.02309716666667, "rental_uris": {"android": "https://dc.lft.to/lastmile_qr_scan", "ios": "https://dc.lft.to/lastmile_qr_scan"}, "is_disabled": 0, "fusion_lat": 0.0, "name": "f840b083fe378c4dfed2f462fc5cf735", "fusion_lon": 0.0}, {"is_reserved": 0, "type": "electric_scooter", "bike_id": "82fbe27086fd54c3e116a0f340baa7c4", "lat": 38.918987666666666, "lon": -77.03189866666666, "rental_uris": {"android": "https://dc.lft.to/lastmile_qr_scan", "ios": "https://dc.lft.to/lastmile_qr_scan"}, "is_disabled": 0, "fusion_lat": 0.0, "name": "82fbe27086fd54c3e116a0f340baa7c4", "fusion_lon": 0.0}, {"is_reserved": 0, "type": "electric_scooter", "bike_id": "682a9c80d215b13dcff9fd6c27d67566", "lat": 38.90502266666667, "lon": -76.99180166666666, "rental_uris": {"android": "https://dc.lft.to/lastmile_qr_scan", "ios": "https://dc.lft.to/lastmile_qr_scan"}, "is_disabled": 0, "fusion_lat": 0.0, "name": "682a9c80d215b13dcff9fd6c27d67566", "fusion_lon": 0.0}, {"is_reserved": 0, "type": "electric_scooter", "bike_id": "15e0ef665d72893d714201a0258aabd4", "lat": 38.879388166666665, "lon": -77.00378666666667, "rental_uris": {"android": "https://dc.lft.to/lastmile_qr_scan", "ios": "https://dc.lft.to/lastmile_qr_scan"}, "is_disabled": 0, "fusion_lat": 0.0, "name": "15e0ef665d72893d714201a0258aabd4", "fusion_lon": 0.0}, {"is_reserved": 0, "type": "electric_scooter", "bike_id": "972398c2ef9486345655c0c2f3240db4", "lat": 38.914109333333336, "lon": -77.02210083333334, "rental_uris": {"android": "https://dc.lft.to/lastmile_qr_scan", "ios": "https://dc.lft.to/lastmile_qr_scan"}, "is_disabled": 0, "fusion_lat": 0.0, "name": "972398c2ef9486345655c0c2f3240db4", "fusion_lon": 0.0}, {"is_reserved": 0, "type": "electric_scooter", "bike_id": "9a89b8b6a883cb9e8ef2fe2b7486355c", "lat": 38.935218666666664, "lon": -77.02852133333333, "rental_uris": {"android": "https://dc.lft.to/lastmile_qr_scan", "ios": "https://dc.lft.to/lastmile_qr_scan"}, "is_disabled": 0, "fusion_lat": 0.0, "name": "9a89b8b6a883cb9e8ef2fe2b7486355c", "fusion_lon": 0.0}, {"is_reserved": 0, "type": "electric_scooter", "bike_id": "1e4eeb37cf90928511a816428f5681aa", "lat": 38.91044933333333, "lon": -77.0369165, "rental_uris": {"android": "https://dc.lft.to/lastmile_qr_scan", "ios": "https://dc.lft.to/lastmile_qr_scan"}, "is_disabled": 0, "fusion_lat": 0.0, "name": "1e4eeb37cf90928511a816428f5681aa", "fusion_lon": 0.0}, {"is_reserved": 0, "type": "electric_scooter", "bike_id": "f1589fcf44f47f19764aafdec0b8c89f", "lat": 38.9005915, "lon": -76.99855, "rental_uris": {"android": "https://dc.lft.to/lastmile_qr_scan", "ios": "https://dc.lft.to/lastmile_qr_scan"}, "is_disabled": 0, "fusion_lat": 0.0, "name": "f1589fcf44f47f19764aafdec0b8c89f", "fusion_lon": 0.0}, {"is_reserved": 0, "type": "electric_scooter", "bike_id": "7ba28d425db12f220df4438e87b5a9f7", "lat": 38.90747733333333, "lon": -77.00768816666667, "rental_uris": {"android": "https://dc.lft.to/lastmile_qr_scan", "ios": "https://dc.lft.to/lastmile_qr_scan"}, "is_disabled": 0, "fusion_lat": 0.0, "name": "7ba28d425db12f220df4438e87b5a9f7", "fusion_lon": 0.0}, {"is_reserved": 0, "type": "electric_scooter", "bike_id": "e8c0f1bb4d9d44a061d33e74ceb26400", "lat": 38.89916083333333, "lon": -77.03373316666666, "rental_uris": {"android": "https://dc.lft.to/lastmile_qr_scan", "ios": "https://dc.lft.to/lastmile_qr_scan"}, "is_disabled": 0, "fusion_lat": 0.0, "name": "e8c0f1bb4d9d44a061d33e74ceb26400", "fusion_lon": 0.0}, {"is_reserved": 0, "type": "electric_scooter", "bike_id": "dc849d318e74917d967fbc2262af4c6e", "lat": 38.9234015, "lon": -77.03502383333333, "rental_uris": {"android": "https://dc.lft.to/lastmile_qr_scan", "ios": "https://dc.lft.to/lastmile_qr_scan"}, "is_disabled": 0, "fusion_lat": 0.0, "name": "dc849d318e74917d967fbc2262af4c6e", "fusion_lon": 0.0}, {"is_reserved": 0, "type": "electric_scooter", "bike_id": "5a533ec77ffe4b9dd04b414c06e12625", "lat": 38.9318525, "lon": -77.038507, "rental_uris": {"android": "https://dc.lft.to/lastmile_qr_scan", "ios": "https://dc.lft.to/lastmile_qr_scan"}, "is_disabled": 0, "fusion_lat": 0.0, "name": "5a533ec77ffe4b9dd04b414c06e12625", "fusion_lon": 0.0}, {"is_reserved": 0, "type": "electric_scooter", "bike_id": "3a968fddcd2de2e16c0b4125c8aed17f", "lat": 38.921496166666664, "lon": -77.0386755, "rental_uris": {"android": "https://dc.lft.to/lastmile_qr_scan", "ios": "https://dc.lft.to/lastmile_qr_scan"}, "is_disabled": 0, "fusion_lat": 0.0, "name": "3a968fddcd2de2e16c0b4125c8aed17f", "fusion_lon": 0.0}, {"is_reserved": 0, "type": "electric_bike", "bike_id": "1741d90c742e00c963a527d2dc7c811b", "lat": 38.83930766666667, "lon": -77.07898383333334, "rental_uris": {"android": "https://dc.lft.to/lastmile_qr_scan", "ios": "https://dc.lft.to/lastmile_qr_scan"}, "is_disabled": 0, "fusion_lat": 0.0, "name": "1741d90c742e00c963a527d2dc7c811b", "fusion_lon": 0.0}, {"is_reserved": 0, "type": "electric_scooter", "bike_id": "31db20b124003eab2027583c0f795d3b", "lat": 38.924849333333334, "lon": -77.03187133333333, "rental_uris": {"android": "https://dc.lft.to/lastmile_qr_scan", "ios": "https://dc.lft.to/lastmile_qr_scan"}, "is_disabled": 0, "fusion_lat": 0.0, "name": "31db20b124003eab2027583c0f795d3b", "fusion_lon": 0.0}, {"is_reserved": 0, "type": "electric_scooter", "bike_id": "c7e8b4792796faade4a47fc082fb252e", "lat": 38.8887365, "lon": -77.04883433333333, "rental_uris": {"android": "https://dc.lft.to/lastmile_qr_scan", "ios": "https://dc.lft.to/lastmile_qr_scan"}, "is_disabled": 0, "fusion_lat": 0.0, "name": "c7e8b4792796faade4a47fc082fb252e", "fusion_lon": 0.0}, {"is_reserved": 0, "type": "electric_scooter", "bike_id": "0c634f5af07b62ddeee351331882eb7b", "lat": 38.90482866666667, "lon": -77.06855133333333, "rental_uris": {"android": "https://dc.lft.to/lastmile_qr_scan", "ios": "https://dc.lft.to/lastmile_qr_scan"}, "is_disabled": 0, "fusion_lat": 0.0, "name": "0c634f5af07b62ddeee351331882eb7b", "fusion_lon": 0.0}, {"is_reserved": 0, "type": "electric_scooter", "bike_id": "2fb22229dbd92eecc1a99c2eaa672b5c", "lat": 38.9260075, "lon": -77.02151733333334, "rental_uris": {"android": "https://dc.lft.to/lastmile_qr_scan", "ios": "https://dc.lft.to/lastmile_qr_scan"}, "is_disabled": 0, "fusion_lat": 0.0, "name": "2fb22229dbd92eecc1a99c2eaa672b5c", "fusion_lon": 0.0}, {"is_reserved": 0, "type": "electric_scooter", "bike_id": "a8cab759a3e0f755a603708ddc4b2240", "lat": 38.905393833333335, "lon": -77.05701866666666, "rental_uris": {"android": "https://dc.lft.to/lastmile_qr_scan", "ios": "https://dc.lft.to/lastmile_qr_scan"}, "is_disabled": 0, "fusion_lat": 0.0, "name": "a8cab759a3e0f755a603708ddc4b2240", "fusion_lon": 0.0}, {"is_reserved": 0, "type": "electric_scooter", "bike_id": "2160cfcd9b130f8a7171d2f1462b5d60", "lat": 38.9133655, "lon": -77.04190466666667, "rental_uris": {"android": "https://dc.lft.to/lastmile_qr_scan", "ios": "https://dc.lft.to/lastmile_qr_scan"}, "is_disabled": 0, "fusion_lat": 0.0, "name": "2160cfcd9b130f8a7171d2f1462b5d60", "fusion_lon": 0.0}, {"is_reserved": 0, "type": "electric_scooter", "bike_id": "83cb8fd82875e7eab2928570ee4cd3ba", "lat": 38.92670783333333, "lon": -77.015095, "rental_uris": {"android": "https://dc.lft.to/lastmile_qr_scan", "ios": "https://dc.lft.to/lastmile_qr_scan"}, "is_disabled": 0, "fusion_lat": 0.0, "name": "83cb8fd82875e7eab2928570ee4cd3ba", "fusion_lon": 0.0}, {"is_reserved": 0, "type": "electric_scooter", "bike_id": "be9cbe8ddf55b3bfd359a18268feecf6", "lat": 38.91521066666667, "lon": -77.01326033333333, "rental_uris": {"android": "https://dc.lft.to/lastmile_qr_scan", "ios": "https://dc.lft.to/lastmile_qr_scan"}, "is_disabled": 0, "fusion_lat": 0.0, "name": "be9cbe8ddf55b3bfd359a18268feecf6", "fusion_lon": 0.0}, {"is_reserved": 0, "type": "electric_scooter", "bike_id": "4a4fc5052199a734678402593a62f9fe", "lat": 38.87683633333333, "lon": -76.99628383333334, "rental_uris": {"android": "https://dc.lft.to/lastmile_qr_scan", "ios": "https://dc.lft.to/lastmile_qr_scan"}, "is_disabled": 0, "fusion_lat": 0.0, "name": "4a4fc5052199a734678402593a62f9fe", "fusion_lon": 0.0}, {"is_reserved": 0, "type": "electric_scooter", "bike_id": "2797369377a138867e7d931de244dd0f", "lat": 38.90013966666667, "lon": -77.01183583333334, "rental_uris": {"android": "https://dc.lft.to/lastmile_qr_scan", "ios": "https://dc.lft.to/lastmile_qr_scan"}, "is_disabled": 0, "fusion_lat": 0.0, "name": "2797369377a138867e7d931de244dd0f", "fusion_lon": 0.0}, {"is_reserved": 0, "type": "electric_scooter", "bike_id": "9f268d72831055233018ffdf01cb740b", "lat": 38.9241495, "lon": -77.03553233333334, "rental_uris": {"android": "https://dc.lft.to/lastmile_qr_scan", "ios": "https://dc.lft.to/lastmile_qr_scan"}, "is_disabled": 0, "fusion_lat": 0.0, "name": "9f268d72831055233018ffdf01cb740b", "fusion_lon": 0.0}, {"is_reserved": 0, "type": "electric_scooter", "bike_id": "02286492f126bd0ec595a422701ad44e", "lat": 38.92610166666667, "lon": -77.02166633333333, "rental_uris": {"android": "https://dc.lft.to/lastmile_qr_scan", "ios": "https://dc.lft.to/lastmile_qr_scan"}, "is_disabled": 0, "fusion_lat": 0.0, "name": "02286492f126bd0ec595a422701ad44e", "fusion_lon": 0.0}, {"is_reserved": 0, "type": "electric_scooter", "bike_id": "a965e4b9862a3b5d4f08ed1db03fdf00", "lat": 38.9211325, "lon": -77.04391216666667, "rental_uris": {"android": "https://dc.lft.to/lastmile_qr_scan", "ios": "https://dc.lft.to/lastmile_qr_scan"}, "is_disabled": 0, "fusion_lat": 0.0, "name": "a965e4b9862a3b5d4f08ed1db03fdf00", "fusion_lon": 0.0}, {"is_reserved": 0, "type": "electric_scooter", "bike_id": "da412eeae94a77d768026e0c8fcfff16", "lat": 38.89273433333334, "lon": -76.95254933333334, "rental_uris": {"android": "https://dc.lft.to/lastmile_qr_scan", "ios": "https://dc.lft.to/lastmile_qr_scan"}, "is_disabled": 0, "fusion_lat": 0.0, "name": "da412eeae94a77d768026e0c8fcfff16", "fusion_lon": 0.0}, {"is_reserved": 0, "type": "electric_scooter", "bike_id": "123ba8f1411f6a31d457aa3f0c431104", "lat": 38.92015116666666, "lon": -77.02950916666667, "rental_uris": {"android": "https://dc.lft.to/lastmile_qr_scan", "ios": "https://dc.lft.to/lastmile_qr_scan"}, "is_disabled": 0, "fusion_lat": 0.0, "name": "123ba8f1411f6a31d457aa3f0c431104", "fusion_lon": 0.0}, {"is_reserved": 0, "type": "electric_scooter", "bike_id": "a8e6ce5c88f3d0927cd08a6096313014", "lat": 38.9210585, "lon": -77.0419055, "rental_uris": {"android": "https://dc.lft.to/lastmile_qr_scan", "ios": "https://dc.lft.to/lastmile_qr_scan"}, "is_disabled": 0, "fusion_lat": 0.0, "name": "a8e6ce5c88f3d0927cd08a6096313014", "fusion_lon": 0.0}, {"is_reserved": 0, "type": "electric_scooter", "bike_id": "8aafb149387f0220bf08f269f33bfe34", "lat": 38.89608416666667, "lon": -77.047025, "rental_uris": {"android": "https://dc.lft.to/lastmile_qr_scan", "ios": "https://dc.lft.to/lastmile_qr_scan"}, "is_disabled": 0, "fusion_lat": 0.0, "name": "8aafb149387f0220bf08f269f33bfe34", "fusion_lon": 0.0}, {"is_reserved": 0, "type": "electric_scooter", "bike_id": "4edaf9e6120f2e19bafea063df0879a7", "lat": 38.90029633333333, "lon": -77.0118815, "rental_uris": {"android": "https://dc.lft.to/lastmile_qr_scan", "ios": "https://dc.lft.to/lastmile_qr_scan"}, "is_disabled": 0, "fusion_lat": 0.0, "name": "4edaf9e6120f2e19bafea063df0879a7", "fusion_lon": 0.0}, {"is_reserved": 0, "type": "electric_bike", "bike_id": "22b871a885eb6973ce83c9de1bda9b40", "lat": 38.951528, "lon": -76.9333245, "rental_uris": {"android": "https://dc.lft.to/lastmile_qr_scan", "ios": "https://dc.lft.to/lastmile_qr_scan"}, "is_disabled": 0, "fusion_lat": 0.0, "name": "22b871a885eb6973ce83c9de1bda9b40", "fusion_lon": 0.0}, {"is_reserved": 0, "type": "electric_bike", "bike_id": "706c8d97c8243cfda4c2415c17f068bf", "lat": 38.802539, "lon": -77.12173766666666, "rental_uris": {"android": "https://dc.lft.to/lastmile_qr_scan", "ios": "https://dc.lft.to/lastmile_qr_scan"}, "is_disabled": 0, "fusion_lat": 0.0, "name": "706c8d97c8243cfda4c2415c17f068bf", "fusion_lon": 0.0}, {"is_reserved": 0, "type": "electric_scooter", "bike_id": "cdab5d1a33d6bf36509dc70f711c6881", "lat": 38.9104795, "lon": -77.015121, "rental_uris": {"android": "https://dc.lft.to/lastmile_qr_scan", "ios": "https://dc.lft.to/lastmile_qr_scan"}, "is_disabled": 0, "fusion_lat": 0.0, "name": "cdab5d1a33d6bf36509dc70f711c6881", "fusion_lon": 0.0}, {"is_reserved": 0, "type": "electric_scooter", "bike_id": "a382f53f0793aacdc1fc9d6c3d53096e", "lat": 38.954742333333336, "lon": -77.069869, "rental_uris": {"android": "https://dc.lft.to/lastmile_qr_scan", "ios": "https://dc.lft.to/lastmile_qr_scan"}, "is_disabled": 0, "fusion_lat": 0.0, "name": "a382f53f0793aacdc1fc9d6c3d53096e", "fusion_lon": 0.0}, {"is_reserved": 0, "type": "electric_bike", "bike_id": "93dd4185ae03e666234de96b05877441", "lat": 38.857869, "lon": -77.09965966666667, "rental_uris": {"android": "https://dc.lft.to/lastmile_qr_scan", "ios": "https://dc.lft.to/lastmile_qr_scan"}, "is_disabled": 0, "fusion_lat": 0.0, "name": "93dd4185ae03e666234de96b05877441", "fusion_lon": 0.0}, {"is_reserved": 0, "type": "electric_bike", "bike_id": "6c8aacb8d001c3e25a14cfd26d2e0a39", "lat": 38.9655235, "lon": -77.01621733333333, "rental_uris": {"android": "https://dc.lft.to/lastmile_qr_scan", "ios": "https://dc.lft.to/lastmile_qr_scan"}, "is_disabled": 0, "fusion_lat": 0.0, "name": "6c8aacb8d001c3e25a14cfd26d2e0a39", "fusion_lon": 0.0}, {"is_reserved": 0, "type": "electric_scooter", "bike_id": "a1adeb1e34b439b49d87d3ced51411d9", "lat": 38.921767833333334, "lon": -77.03241016666666, "rental_uris": {"android": "https://dc.lft.to/lastmile_qr_scan", "ios": "https://dc.lft.to/lastmile_qr_scan"}, "is_disabled": 0, "fusion_lat": 0.0, "name": "a1adeb1e34b439b49d87d3ced51411d9", "fusion_lon": 0.0}, {"is_reserved": 0, "type": "electric_scooter", "bike_id": "9e681f69364e2baccf3087172c08b0b6", "lat": 38.89850466666667, "lon": -76.99028483333333, "rental_uris": {"android": "https://dc.lft.to/lastmile_qr_scan", "ios": "https://dc.lft.to/lastmile_qr_scan"}, "is_disabled": 0, "fusion_lat": 0.0, "name": "9e681f69364e2baccf3087172c08b0b6", "fusion_lon": 0.0}, {"is_reserved": 0, "type": "electric_scooter", "bike_id": "19c12c19b56b8807a831ef9bce7e0cf0", "lat": 38.903949, "lon": -77.04891016666667, "rental_uris": {"android": "https://dc.lft.to/lastmile_qr_scan", "ios": "https://dc.lft.to/lastmile_qr_scan"}, "is_disabled": 0, "fusion_lat": 0.0, "name": "19c12c19b56b8807a831ef9bce7e0cf0", "fusion_lon": 0.0}, {"is_reserved": 0, "type": "electric_scooter", "bike_id": "ab943cb74459f778a17086fc00d7bd13", "lat": 38.90543733333333, "lon": -77.05917416666666, "rental_uris": {"android": "https://dc.lft.to/lastmile_qr_scan", "ios": "https://dc.lft.to/lastmile_qr_scan"}, "is_disabled": 0, "fusion_lat": 0.0, "name": "ab943cb74459f778a17086fc00d7bd13", "fusion_lon": 0.0}, {"is_reserved": 0, "type": "electric_scooter", "bike_id": "5ce3b8bcfb78ca575bc1e4844eda5351", "lat": 38.892743833333334, "lon": -77.03225783333333, "rental_uris": {"android": "https://dc.lft.to/lastmile_qr_scan", "ios": "https://dc.lft.to/lastmile_qr_scan"}, "is_disabled": 0, "fusion_lat": 0.0, "name": "5ce3b8bcfb78ca575bc1e4844eda5351", "fusion_lon": 0.0}, {"is_reserved": 0, "type": "electric_scooter", "bike_id": "961720c88eaf47d30468abe77c554e40", "lat": 38.910990166666664, "lon": -77.04785283333334, "rental_uris": {"android": "https://dc.lft.to/lastmile_qr_scan", "ios": "https://dc.lft.to/lastmile_qr_scan"}, "is_disabled": 0, "fusion_lat": 0.0, "name": "961720c88eaf47d30468abe77c554e40", "fusion_lon": 0.0}, {"is_reserved": 0, "type": "electric_scooter", "bike_id": "9559a5ac538484640aa126333cc39fb8", "lat": 38.9244, "lon": -77.020234, "rental_uris": {"android": "https://dc.lft.to/lastmile_qr_scan", "ios": "https://dc.lft.to/lastmile_qr_scan"}, "is_disabled": 0, "fusion_lat": 0.0, "name": "9559a5ac538484640aa126333cc39fb8", "fusion_lon": 0.0}, {"is_reserved": 0, "type": "electric_scooter", "bike_id": "71220e083670becf4f0fe15a30dfb30b", "lat": 38.92407983333333, "lon": -77.02005733333333, "rental_uris": {"android": "https://dc.lft.to/lastmile_qr_scan", "ios": "https://dc.lft.to/lastmile_qr_scan"}, "is_disabled": 0, "fusion_lat": 0.0, "name": "71220e083670becf4f0fe15a30dfb30b", "fusion_lon": 0.0}, {"is_reserved": 0, "type": "electric_scooter", "bike_id": "f81e41b0ce39224c4cb37a883814ab32", "lat": 38.9224835, "lon": -77.04250183333333, "rental_uris": {"android": "https://dc.lft.to/lastmile_qr_scan", "ios": "https://dc.lft.to/lastmile_qr_scan"}, "is_disabled": 0, "fusion_lat": 0.0, "name": "f81e41b0ce39224c4cb37a883814ab32", "fusion_lon": 0.0}, {"is_reserved": 0, "type": "electric_scooter", "bike_id": "f16edf10ac09801064d3b751c5cb21c1", "lat": 38.90550116666667, "lon": -77.00817033333334, "rental_uris": {"android": "https://dc.lft.to/lastmile_qr_scan", "ios": "https://dc.lft.to/lastmile_qr_scan"}, "is_disabled": 0, "fusion_lat": 0.0, "name": "f16edf10ac09801064d3b751c5cb21c1", "fusion_lon": 0.0}, {"is_reserved": 0, "type": "electric_scooter", "bike_id": "cb1f0629bc3093eeba6fd25c538d7080", "lat": 38.9165875, "lon": -77.0686905, "rental_uris": {"android": "https://dc.lft.to/lastmile_qr_scan", "ios": "https://dc.lft.to/lastmile_qr_scan"}, "is_disabled": 0, "fusion_lat": 0.0, "name": "cb1f0629bc3093eeba6fd25c538d7080", "fusion_lon": 0.0}, {"is_reserved": 0, "type": "electric_scooter", "bike_id": "2be1aaa4df21e870337285c1cc158a1f", "lat": 38.9298465, "lon": -77.03790183333334, "rental_uris": {"android": "https://dc.lft.to/lastmile_qr_scan", "ios": "https://dc.lft.to/lastmile_qr_scan"}, "is_disabled": 0, "fusion_lat": 0.0, "name": "2be1aaa4df21e870337285c1cc158a1f", "fusion_lon": 0.0}, {"is_reserved": 0, "type": "electric_bike", "bike_id": "bd8a288e15ce06478fc13c47040729a6", "lat": 38.8427535, "lon": -76.98840816666667, "rental_uris": {"android": "https://dc.lft.to/lastmile_qr_scan", "ios": "https://dc.lft.to/lastmile_qr_scan"}, "is_disabled": 0, "fusion_lat": 0.0, "name": "bd8a288e15ce06478fc13c47040729a6", "fusion_lon": 0.0}, {"is_reserved": 0, "type": "electric_scooter", "bike_id": "59ee743436006faa5e1d0a9346dfbd44", "lat": 38.89284983333334, "lon": -77.02396433333334, "rental_uris": {"android": "https://dc.lft.to/lastmile_qr_scan", "ios": "https://dc.lft.to/lastmile_qr_scan"}, "is_disabled": 0, "fusion_lat": 0.0, "name": "59ee743436006faa5e1d0a9346dfbd44", "fusion_lon": 0.0}, {"is_reserved": 0, "type": "electric_scooter", "bike_id": "4e9491f5d93c4ebc4ffccce7e382006b", "lat": 38.903813166666666, "lon": -77.0305725, "rental_uris": {"android": "https://dc.lft.to/lastmile_qr_scan", "ios": "https://dc.lft.to/lastmile_qr_scan"}, "is_disabled": 0, "fusion_lat": 0.0, "name": "4e9491f5d93c4ebc4ffccce7e382006b", "fusion_lon": 0.0}, {"is_reserved": 0, "type": "electric_bike", "bike_id": "761857acb80eab32d365fc63486d360b", "lat": 38.99999183333333, "lon": -76.91806083333333, "rental_uris": {"android": "https://dc.lft.to/lastmile_qr_scan", "ios": "https://dc.lft.to/lastmile_qr_scan"}, "is_disabled": 0, "fusion_lat": 0.0, "name": "761857acb80eab32d365fc63486d360b", "fusion_lon": 0.0}, {"is_reserved": 0, "type": "electric_scooter", "bike_id": "29a4d0bef47e069794e184b7dcdf94d9", "lat": 38.9168935, "lon": -77.02925633333334, "rental_uris": {"android": "https://dc.lft.to/lastmile_qr_scan", "ios": "https://dc.lft.to/lastmile_qr_scan"}, "is_disabled": 0, "fusion_lat": 0.0, "name": "29a4d0bef47e069794e184b7dcdf94d9", "fusion_lon": 0.0}, {"is_reserved": 0, "type": "electric_bike", "bike_id": "4578401ebae1ed6b0642c7c69e702d53", "lat": 39.010909833333336, "lon": -77.04957416666667, "rental_uris": {"android": "https://dc.lft.to/lastmile_qr_scan", "ios": "https://dc.lft.to/lastmile_qr_scan"}, "is_disabled": 0, "fusion_lat": 0.0, "name": "4578401ebae1ed6b0642c7c69e702d53", "fusion_lon": 0.0}, {"is_reserved": 0, "type": "electric_bike", "bike_id": "fccbd1c722b0a8d78a06d919d1881c27", "lat": 38.87421033333333, "lon": -77.08570616666667, "rental_uris": {"android": "https://dc.lft.to/lastmile_qr_scan", "ios": "https://dc.lft.to/lastmile_qr_scan"}, "is_disabled": 0, "fusion_lat": 0.0, "name": "fccbd1c722b0a8d78a06d919d1881c27", "fusion_lon": 0.0}, {"is_reserved": 0, "type": "electric_scooter", "bike_id": "f2b35937668a7ff9461850f465ed6cd0", "lat": 38.89884766666667, "lon": -76.9935835, "rental_uris": {"android": "https://dc.lft.to/lastmile_qr_scan", "ios": "https://dc.lft.to/lastmile_qr_scan"}, "is_disabled": 0, "fusion_lat": 0.0, "name": "f2b35937668a7ff9461850f465ed6cd0", "fusion_lon": 0.0}, {"is_reserved": 0, "type": "electric_scooter", "bike_id": "f04a27fb8f70ff8dcf4d3c7b996f0766", "lat": 38.933671333333336, "lon": -77.03471516666667, "rental_uris": {"android": "https://dc.lft.to/lastmile_qr_scan", "ios": "https://dc.lft.to/lastmile_qr_scan"}, "is_disabled": 0, "fusion_lat": 0.0, "name": "f04a27fb8f70ff8dcf4d3c7b996f0766", "fusion_lon": 0.0}, {"is_reserved": 0, "type": "electric_bike", "bike_id": "4a5f800df3f3c9add60c7137b09af4b2", "lat": 38.92198783333333, "lon": -77.04296483333333, "rental_uris": {"android": "https://dc.lft.to/lastmile_qr_scan", "ios": "https://dc.lft.to/lastmile_qr_scan"}, "is_disabled": 0, "fusion_lat": 0.0, "name": "4a5f800df3f3c9add60c7137b09af4b2", "fusion_lon": 0.0}, {"is_reserved": 0, "type": "electric_scooter", "bike_id": "19927662b0707ac111a9dbe05bdbc4f1", "lat": 38.88733533333333, "lon": -77.02398833333334, "rental_uris": {"android": "https://dc.lft.to/lastmile_qr_scan", "ios": "https://dc.lft.to/lastmile_qr_scan"}, "is_disabled": 0, "fusion_lat": 0.0, "name": "19927662b0707ac111a9dbe05bdbc4f1", "fusion_lon": 0.0}, {"is_reserved": 0, "type": "electric_scooter", "bike_id": "9d3aa60ac79b86f550091665baceb570", "lat": 38.91008, "lon": -77.043735, "rental_uris": {"android": "https://dc.lft.to/lastmile_qr_scan", "ios": "https://dc.lft.to/lastmile_qr_scan"}, "is_disabled": 0, "fusion_lat": 0.0, "name": "9d3aa60ac79b86f550091665baceb570", "fusion_lon": 0.0}, {"is_reserved": 0, "type": "electric_bike", "bike_id": "ca6069881a2f4b29dfb0cb7c028b9367", "lat": 38.877284, "lon": -77.11850916666667, "rental_uris": {"android": "https://dc.lft.to/lastmile_qr_scan", "ios": "https://dc.lft.to/lastmile_qr_scan"}, "is_disabled": 0, "fusion_lat": 0.0, "name": "ca6069881a2f4b29dfb0cb7c028b9367", "fusion_lon": 0.0}, {"is_reserved": 0, "type": "electric_scooter", "bike_id": "b190fc6d141d698cb0b4cfe161c83859", "lat": 38.933966, "lon": -77.0284125, "rental_uris": {"android": "https://dc.lft.to/lastmile_qr_scan", "ios": "https://dc.lft.to/lastmile_qr_scan"}, "is_disabled": 0, "fusion_lat": 0.0, "name": "b190fc6d141d698cb0b4cfe161c83859", "fusion_lon": 0.0}, {"is_reserved": 0, "type": "electric_scooter", "bike_id": "799b55a545121d55459bda5d86832d63", "lat": 38.892473, "lon": -77.03362433333334, "rental_uris": {"android": "https://dc.lft.to/lastmile_qr_scan", "ios": "https://dc.lft.to/lastmile_qr_scan"}, "is_disabled": 0, "fusion_lat": 0.0, "name": "799b55a545121d55459bda5d86832d63", "fusion_lon": 0.0}, {"is_reserved": 0, "type": "electric_scooter", "bike_id": "cb7027f3c827445b4e30e1805784d5b7", "lat": 38.9240885, "lon": -77.0200835, "rental_uris": {"android": "https://dc.lft.to/lastmile_qr_scan", "ios": "https://dc.lft.to/lastmile_qr_scan"}, "is_disabled": 0, "fusion_lat": 0.0, "name": "cb7027f3c827445b4e30e1805784d5b7", "fusion_lon": 0.0}, {"is_reserved": 0, "type": "electric_bike", "bike_id": "de3efe3516c333022c8ea97bd9683f59", "lat": 38.84050333333333, "lon": -77.05598916666666, "rental_uris": {"android": "https://dc.lft.to/lastmile_qr_scan", "ios": "https://dc.lft.to/lastmile_qr_scan"}, "is_disabled": 0, "fusion_lat": 0.0, "name": "de3efe3516c333022c8ea97bd9683f59", "fusion_lon": 0.0}, {"is_reserved": 0, "type": "electric_scooter", "bike_id": "edabf3c1102ca5165dcdf6dabeb65f4b", "lat": 38.92364583333333, "lon": -77.03660883333333, "rental_uris": {"android": "https://dc.lft.to/lastmile_qr_scan", "ios": "https://dc.lft.to/lastmile_qr_scan"}, "is_disabled": 0, "fusion_lat": 0.0, "name": "edabf3c1102ca5165dcdf6dabeb65f4b", "fusion_lon": 0.0}, {"is_reserved": 0, "type": "electric_scooter", "bike_id": "3e1abcd9bc854b1a493977f93ff96638", "lat": 38.92148616666667, "lon": -77.03507216666667, "rental_uris": {"android": "https://dc.lft.to/lastmile_qr_scan", "ios": "https://dc.lft.to/lastmile_qr_scan"}, "is_disabled": 0, "fusion_lat": 0.0, "name": "3e1abcd9bc854b1a493977f93ff96638", "fusion_lon": 0.0}, {"is_reserved": 0, "type": "electric_scooter", "bike_id": "cc963a72a7b985ae56d5058c19379812", "lat": 38.90511033333333, "lon": -77.06385083333333, "rental_uris": {"android": "https://dc.lft.to/lastmile_qr_scan", "ios": "https://dc.lft.to/lastmile_qr_scan"}, "is_disabled": 0, "fusion_lat": 0.0, "name": "cc963a72a7b985ae56d5058c19379812", "fusion_lon": 0.0}, {"is_reserved": 0, "type": "electric_scooter", "bike_id": "b64c77670b36b619d87e24672f2f71fb", "lat": 38.93567383333333, "lon": -77.03265783333333, "rental_uris": {"android": "https://dc.lft.to/lastmile_qr_scan", "ios": "https://dc.lft.to/lastmile_qr_scan"}, "is_disabled": 0, "fusion_lat": 0.0, "name": "b64c77670b36b619d87e24672f2f71fb", "fusion_lon": 0.0}, {"is_reserved": 0, "type": "electric_scooter", "bike_id": "2e075c21185985ccc564eeee3e585adf", "lat": 38.8990255, "lon": -77.03189166666667, "rental_uris": {"android": "https://dc.lft.to/lastmile_qr_scan", "ios": "https://dc.lft.to/lastmile_qr_scan"}, "is_disabled": 0, "fusion_lat": 0.0, "name": "2e075c21185985ccc564eeee3e585adf", "fusion_lon": 0.0}, {"is_reserved": 0, "type": "electric_scooter", "bike_id": "5189ea92fdb3d3f1ea8af76dc73a4932", "lat": 38.9258505, "lon": -77.01223233333333, "rental_uris": {"android": "https://dc.lft.to/lastmile_qr_scan", "ios": "https://dc.lft.to/lastmile_qr_scan"}, "is_disabled": 0, "fusion_lat": 0.0, "name": "5189ea92fdb3d3f1ea8af76dc73a4932", "fusion_lon": 0.0},