{"data": {"bikes": [{"fusion_lat": 0.0, "name": "cb6256239b7e6ac187af16808e8b92fd", "is_disabled": 0, "rental_uris": {"android": "https://dc.lft.to/lastmile_qr_scan", "ios": "https://dc.lft.to/lastmile_qr_scan"}, "fusion_lon": 0.0, "lat": 38.916591333333336, "bike_id": "cb6256239b7e6ac187af16808e8b92fd", "type": "electric_scooter", "is_reserved": 0, "lon": -77.0280595}, {"fusion_lat": 0.0, "name": "df966bb6b963564f12bc7707b6bd26b8", "is_disabled": 0, "rental_uris": {"android": "https://dc.lft.to/lastmile_qr_scan", "ios": "https://dc.lft.to/lastmile_qr_scan"}, "fusion_lon": 0.0, "lat": 38.892294, "bike_id": "df966bb6b963564f12bc7707b6bd26b8", "type": "electric_scooter", "is_reserved": 0, "lon": -77.05005333333334}, {"fusion_lat": 0.0, "name": "8084aadb7726dcb4b80181305d888467", "is_disabled": 0, "rental_uris": {"android": "https://dc.lft.to/lastmile_qr_scan", "ios": "https://dc.lft.to/lastmile_qr_scan"}, "fusion_lon": 0.0, "lat": 38.8740255, "bike_id": "8084aadb7726dcb4b80181305d888467", "type": "electric_scooter", "is_reserved": 0, "lon": -77.00068216666666}, {"fusion_lat": 0.0, "name": "3dd0131b0c2279651ea3c7dfb54a4183", "is_disabled": 0, "rental_uris": {"android": "https://dc.lft.to/lastmile_qr_scan", "ios": "https://dc.lft.to/lastmile_qr_scan"}, "fusion_lon": 0.0, "lat": 38.90197033333333, "bike_id": "3dd0131b0c2279651ea3c7dfb54a4183", "type": "electric_scooter", "is_reserved": 0, "lon": -76.97860333333334}, {"fusion_lat": 0.0, "name": "29b982dcf822ecce29d7582924872695", "is_disabled": 0, "rental_uris": {"android": "https://dc.lft.to/lastmile_qr_scan", "ios": "https://dc.lft.to/lastmile_qr_scan"}, "fusion_lon": 0.0, "lat": 38.916305666666666, "bike_id": "29b982dcf822ecce29d7582924872695", "type": "electric_scooter", "is_reserved": 0, "lon": -77.03146716666667}, {"fusion_lat": 0.0, "name": "4f81cae82b2b7db117694c16949f6301", "is_disabled": 0, "rental_uris": {"android": "https://dc.lft.to/lastmile_qr_scan", "ios": "https://dc.lft.to/lastmile_qr_scan"}, "fusion_lon": 0.0, "lat": 38.9310505, "bike_id": "4f81cae82b2b7db117694c16949f6301", "type": "electric_scooter", "is_reserved": 0, "lon": -77.0305315}, {"fusion_lat": 0.0, "name": "b0607dab5793d2ec5ad5829471fe2d6e", "is_disabled": 0, "rental_uris": {"android": "https://dc.lft.to/lastmile_qr_scan", "ios": "https://dc.lft.to/lastmile_qr_scan"}, "fusion_lon": 0.0, "lat": 38.92326716666667, "bike_id": "b0607dab5793d2ec5ad5829471fe2d6e", "type": "electric_scooter", "is_reserved": 0, "lon": -77.03817933333333}, {"fusion_lat": 0.0, "name": "6e87fd04bd2a2c1b361037073f050ab4", "is_disabled": 0, "rental_uris": {"android": "https://dc.lft.to/lastmile_qr_scan", "ios": "https://dc.lft.to/lastmile_qr_scan"}, "fusion_lon": 0.0, "lat": 38.88641833333333, "bike_id": "6e87fd04bd2a2c1b361037073f050ab4", "type": "electric_scooter", "is_reserved": 0, "lon": -77.0195255}, {"fusion_lat": 0.0, "name": "39af301488cbe6ed7dbc4c5ee2a2a56c", "is_disabled": 0, "rental_uris": {"android": "https://dc.lft.to/lastmile_qr_scan", "ios": "https://dc.lft.to/lastmile_qr_scan"}, "fusion_lon": 0.0, "lat": 38.902253, "bike_id": "39af301488cbe6ed7dbc4c5ee2a2a56c", "type": "electric_scooter", "is_reserved": 0, "lon": -77.02335}, {"fusion_lat": 0.0, "name": "dfbbb25467460f37098786b93345514c", "is_disabled": 0, "rental_uris": {"android": "https://dc.lft.to/lastmile_qr_scan", "ios": "https://dc.lft.to/lastmile_qr_scan"}, "fusion_lon": 0.0, "lat": 38.928792333333334, "bike_id": "dfbbb25467460f37098786b93345514c", "type": "electric_scooter", "is_reserved": 0, "lon": -77.0136285}, {"fusion_lat": 0.0, "name": "659266b855a698f5cf2d5c22f58b33c5", "is_disabled": 0, "rental_uris": {"android": "https://dc.lft.to/lastmile_qr_scan", "ios": "https://dc.lft.to/lastmile_qr_scan"}, "fusion_lon": 0.0, "lat": 38.93321616666667, "bike_id": "659266b855a698f5cf2d5c22f58b33c5", "type": "electric_scooter", "is_reserved": 0, "lon": -77.02746816666667}, {"fusion_lat": 0.0, "name": "6dcfbf798269b38c3bba7a953af784c0", "is_disabled": 0, "rental_uris": {"android": "https://dc.lft.to/lastmile_qr_scan", "ios": "https://dc.lft.to/lastmile_qr_scan"}, "fusion_lon": 0.0, "lat": 38.8984305, "bike_id": "6dcfbf798269b38c3bba7a953af784c0", "type": "electric_scooter", "is_reserved": 0, "lon": -77.04065366666667}, {"fusion_lat": 0.0, "name": "df411b521fc99ca26c60ce6c6ebe3162", "is_disabled": 0, "rental_uris": {"android": "https://dc.lft.to/lastmile_qr_scan", "ios": "https://dc.lft.to/lastmile_qr_scan"}, "fusion_lon": 0.0, "lat": 38.902384, "bike_id": "df411b521fc99ca26c60ce6c6ebe3162", "type": "electric_scooter", "is_reserved": 0, "lon": -77.05633583333334}, {"fusion_lat": 0.0, "name": "35f1aa1b98abd018118f21be5b817a06", "is_disabled": 0, "rental_uris": {"android": "https://dc.lft.to/lastmile_qr_scan", "ios": "https://dc.lft.to/lastmile_qr_scan"}, "fusion_lon": 0.0, "lat": 38.907312, "bike_id": "35f1aa1b98abd018118f21be5b817a06", "type": "electric_scooter", "is_reserved": 0, "lon": -77.04731683333333}, {"fusion_lat": 0.0, "name": "b5fe452e75219789b0bb005d58605fc6", "is_disabled": 0, "rental_uris": {"android": "https://dc.lft.to/lastmile_qr_scan", "ios": "https://dc.lft.to/lastmile_qr_scan"}, "fusion_lon": 0.0, "lat": 38.90152066666667, "bike_id": "b5fe452e75219789b0bb005d58605fc6", "type": "electric_scooter", "is_reserved": 0, "lon": -77.0611105}, {"fusion_lat": 0.0, "name": "39afdcb2a9e346edde735d0bab06af8c", "is_disabled": 0, "rental_uris": {"android": "https://dc.lft.to/lastmile_qr_scan", "ios": "https://dc.lft.to/lastmile_qr_scan"}, "fusion_lon": 0.0, "lat": 38.92291516666667, "bike_id": "39afdcb2a9e346edde735d0bab06af8c", "type": "electric_scooter", "is_reserved": 0, "lon": -77.02525983333334}, {"fusion_lat": 0.0, "name": "52cce719a9c50947d1781772ae88dfde", "is_disabled": 0, "rental_uris": {"android": "https://dc.lft.to/lastmile_qr_scan", "ios": "https://dc.lft.to/lastmile_qr_scan"}, "fusion_lon": 0.0, "lat": 38.879024666666666, "bike_id": "52cce719a9c50947d1781772ae88dfde", "type": "electric_scooter", "is_reserved": 0, "lon": -77.013604}, {"fusion_lat": 0.0, "name": "ccb24399f823fd9c8dc252c7a64bf5dc", "is_disabled": 0, "rental_uris": {"android": "https://dc.lft.to/lastmile_qr_scan", "ios": "https://dc.lft.to/lastmile_qr_scan"}, "fusion_lon": 0.0, "lat": 38.895287, "bike_id": "ccb24399f823fd9c8dc252c7a64bf5dc", "type": "electric_scooter", "is_reserved": 0, "lon": -76.9341155}, {"fusion_lat": 0.0, "name": "9285241d4d9a2e998506273b94c2900c", "is_disabled": 0, "rental_uris": {"android": "https://dc.lft.to/lastmile_qr_scan", "ios": "https://dc.lft.to/lastmile_qr_scan"}, "fusion_lon": 0.0, "lat": 38.92477316666667, "bike_id": "9285241d4d9a2e998506273b94c2900c", "type": "electric_scooter", "is_reserved": 0, "lon": -77.0268075}, {"fusion_lat": 0.0, "name": "d82b395616659227d01887b3cd139c4b", "is_disabled": 0, "rental_uris": {"android": "https://dc.lft.to/lastmile_qr_scan", "ios": "https://dc.lft.to/lastmile_qr_scan"}, "fusion_lon": 0.0, "lat": 38.9061865, "bike_id": "d82b395616659227d01887b3cd139c4b", "type": "electric_scooter", "is_reserved": 0, "lon": -77.03693233333334}, {"fusion_lat": 0.0, "name": "48a548d23ca0c868d8bd95a439e7ae63", "is_disabled": 0, "rental_uris": {"android": "https://dc.lft.to/lastmile_qr_scan", "ios": "https://dc.lft.to/lastmile_qr_scan"}, "fusion_lon": 0.0, "lat": 38.925453833333336, "bike_id": "48a548d23ca0c868d8bd95a439e7ae63", "type": "electric_scooter", "is_reserved": 0, "lon": -77.03832366666667}, {"fusion_lat": 0.0, "name": "5d517228de3c07c2cd0b68210723cf4f", "is_disabled": 0, "rental_uris": {"android": "https://dc.lft.to/lastmile_qr_scan", "ios": "https://dc.lft.to/lastmile_qr_scan"}, "fusion_lon": 0.0, "lat": 38.9387555, "bike_id": "5d517228de3c07c2cd0b68210723cf4f", "type": "electric_scooter", "is_reserved": 0, "lon": -77.024743}, {"fusion_lat": 0.0, "name": "2affd36650ac5754e948caeaac86d900", "is_disabled": 0, "rental_uris": {"android": "https://dc.lft.to/lastmile_qr_scan", "ios": "https://dc.lft.to/lastmile_qr_scan"}, "fusion_lon": 0.0, "lat": 38.898972666666666, "bike_id": "2affd36650ac5754e948caeaac86d900", "type": "electric_scooter", "is_reserved": 0, "lon": -77.0151785}, {"fusion_lat": 0.0, "name": "ac2357f9375947fe04e840b0d678439f", "is_disabled": 0, "rental_uris": {"android": "https://dc.lft.to/lastmile_qr_scan", "ios": "https://dc.lft.to/lastmile_qr_scan"}, "fusion_lon": 0.0, "lat": 38.89222683333333, "bike_id": "ac2357f9375947fe04e840b0d678439f", "type": "electric_scooter", "is_reserved": 0, "lon": -77.03145866666667}, {"fusion_lat": 0.0, "name": "1bc05998d56f120a04f39c44bc215231", "is_disabled": 0, "rental_uris": {"android": "https://dc.lft.to/lastmile_qr_scan", "ios": "https://dc.lft.to/lastmile_qr_scan"}, "fusion_lon": 0.0, "lat": 38.9009135, "bike_id": "1bc05998d56f120a04f39c44bc215231", "type": "electric_scooter", "is_reserved": 0, "lon": -76.983317}, {"fusion_lat": 0.0, "name": "befa224e0afec447bca9dade470b840b", "is_disabled": 0, "rental_uris": {"android": "https://dc.lft.to/lastmile_qr_scan", "ios": "https://dc.lft.to/lastmile_qr_scan"}, "fusion_lon": 0.0, "lat": 38.9104065, "bike_id": "befa224e0afec447bca9dade470b840b", "type": "electric_scooter", "is_reserved": 0, "lon": -77.008315}, {"fusion_lat": 0.0, "name": "929998ca040312831215324dd234401e", "is_disabled": 0, "rental_uris": {"android": "https://dc.lft.to/lastmile_qr_scan", "ios": "https://dc.lft.to/lastmile_qr_scan"}, "fusion_lon": 0.0, "lat": 38.922229333333334, "bike_id": "929998ca040312831215324dd234401e", "type": "electric_scooter", "is_reserved": 0, "lon": -77.04237833333333}, {"fusion_lat": 0.0, "name": "05d3fd17722daefcdc6739ee575d60fc", "is_disabled": 0, "rental_uris": {"android": "https://dc.lft.to/lastmile_qr_scan", "ios": "https://dc.lft.to/lastmile_qr_scan"}, "fusion_lon": 0.0, "lat": 38.915707166666664, "bike_id": "05d3fd17722daefcdc6739ee575d60fc", "type": "electric_scooter", "is_reserved": 0, "lon": -77.03857666666667}, {"fusion_lat": 0.0, "name": "dc307fbc6228dbf944a5b8f6a3e96c95", "is_disabled": 0, "rental_uris": {"android": "https://dc.lft.to/lastmile_qr_scan", "ios": "https://dc.lft.to/lastmile_qr_scan"}, "fusion_lon": 0.0, "lat": 38.910395666666666, "bike_id": "dc307fbc6228dbf944a5b8f6a3e96c95", "type": "electric_scooter", "is_reserved": 0, "lon": -77.043439}, {"fusion_lat": 0.0, "name": "66a5ee1f34d7fa63f4aeed459196f971", "is_disabled": 0, "rental_uris": {"android": "https://dc.lft.to/lastmile_qr_scan", "ios": "https://dc.lft.to/lastmile_qr_scan"}, "fusion_lon": 0.0, "lat": 38.8983905, "bike_id": "66a5ee1f34d7fa63f4aeed459196f971", "type": "electric_scooter", "is_reserved": 0, "lon": -77.0263275}, {"fusion_lat": 0.0, "name": "4be46c674bb049dfb15ca3895ffbd2bd", "is_disabled": 0, "rental_uris": {"android": "https://dc.lft.to/lastmile_qr_scan", "ios": "https://dc.lft.to/lastmile_qr_scan"}, "fusion_lon": 0.0, "lat": 38.901783, "bike_id": "4be46c674bb049dfb15ca3895ffbd2bd", "type": "electric_scooter", "is_reserved": 0, "lon": -77.050253}, {"fusion_lat": 0.0, "name": "5ef23964033409f5986cd4d944fe1df3", "is_disabled": 0, "rental_uris": {"android": "https://dc.lft.to/lastmile_qr_scan", "ios": "https://dc.lft.to/lastmile_qr_scan"}, "fusion_lon": 0.0, "lat": 38.89793866666667, "bike_id": "5ef23964033409f5986cd4d944fe1df3", "type": "electric_scooter", "is_reserved": 0, "lon": -77.02201083333334}, {"fusion_lat": 0.0, "name": "702837b93cd519d9537e494391443a73", "is_disabled": 0, "rental_uris": {"android": "https://dc.lft.to/lastmile_qr_scan", "ios": "https://dc.lft.to/lastmile_qr_scan"}, "fusion_lon": 0.0, "lat": 38.884002833333334, "bike_id": "702837b93cd519d9537e494391443a73", "type": "electric_scooter", "is_reserved": 0, "lon": -76.93045116666667}, {"fusion_lat": 0.0, "name": "1d6883059ae5f97030b821ed70fb4d91", "is_disabled": 0, "rental_uris": {"android": "https://dc.lft.to/lastmile_qr_scan", "ios": "https://dc.lft.to/lastmile_qr_scan"}, "fusion_lon": 0.0, "lat": 38.94089266666667, "bike_id": "1d6883059ae5f97030b821ed70fb4d91", "type": "electric_scooter", "is_reserved": 0, "lon": -77.061834}, {"fusion_lat": 0.0, "name": "934dcd97cddd68287d2acce3870002a6", "is_disabled": 0, "rental_uris": {"android": "https://dc.lft.to/lastmile_qr_scan", "ios": "https://dc.lft.to/lastmile_qr_scan"}, "fusion_lon": 0.0, "lat": 38.905216, "bike_id": "934dcd97cddd68287d2acce3870002a6", "type": "electric_scooter", "is_reserved": 0, "lon": -77.06383633333333}, {"fusion_lat": 0.0, "name": "1ae210654d7d302b3a967e48831a479d", "is_disabled": 0, "rental_uris": {"android": "https://dc.lft.to/lastmile_qr_scan", "ios": "https://dc.lft.to/lastmile_qr_scan"}, "fusion_lon": 0.0, "lat": 38.85769483333333, "bike_id": "1ae210654d7d302b3a967e48831a479d", "type": "electric_bike", "is_reserved": 0, "lon": -76.98750966666667}, {"fusion_lat": 0.0, "name": "fd5afd9c514a76b56fb67bd458764088", "is_disabled": 0, "rental_uris": {"android": "https://dc.lft.to/lastmile_qr_scan", "ios": "https://dc.lft.to/lastmile_qr_scan"}, "fusion_lon": 0.0, "lat": 38.8972755, "bike_id": "fd5afd9c514a76b56fb67bd458764088", "type": "electric_scooter", "is_reserved": 0, "lon": -77.05521066666667}, {"fusion_lat": 0.0, "name": "b821cf01520d5182269fec7f253756f8", "is_disabled": 0, "rental_uris": {"android": "https://dc.lft.to/lastmile_qr_scan", "ios": "https://dc.lft.to/lastmile_qr_scan"}, "fusion_lon": 0.0, "lat": 38.865178, "bike_id": "b821cf01520d5182269fec7f253756f8", "type": "electric_bike", "is_reserved": 0, "lon": -77.12932116666667}, {"fusion_lat": 0.0, "name": "81b7d7f91d85387f0fd341c5fd3dbe4e", "is_disabled": 0, "rental_uris": {"android": "https://dc.lft.to/lastmile_qr_scan", "ios": "https://dc.lft.to/lastmile_qr_scan"}, "fusion_lon": 0.0, "lat": 38.92736, "bike_id": "81b7d7f91d85387f0fd341c5fd3dbe4e", "type": "electric_scooter", "is_reserved": 0, "lon": -77.02710433333333}, {"fusion_lat": 0.0, "name": "399e202b573395d6f08efb7d4e87b6b1", "is_disabled": 0, "rental_uris": {"android": "https://dc.lft.to/lastmile_qr_scan", "ios": "https://dc.lft.to/lastmile_qr_scan"}, "fusion_lon": 0.0, "lat": 38.884528833333334, "bike_id": "399e202b573395d6f08efb7d4e87b6b1", "type": "electric_scooter", "is_reserved": 0, "lon": -77.033573}, {"fusion_lat": 0.0, "name": "0bba41262756beadac23b01ffc7dfb8d", "is_disabled": 0, "rental_uris": {"android": "https://dc.lft.to/lastmile_qr_scan", "ios": "https://dc.lft.to/lastmile_qr_scan"}, "fusion_lon": 0.0, "lat": 38.9528395, "bike_id": "0bba41262756beadac23b01ffc7dfb8d", "type": "electric_scooter", "is_reserved": 0, "lon": -77.068869}, {"fusion_lat": 0.0, "name": "62bdf8daafd80055906ff78a82fe9403", "is_disabled": 0, "rental_uris": {"android": "https://dc.lft.to/lastmile_qr_scan", "ios": "https://dc.lft.to/lastmile_qr_scan"}, "fusion_lon": 0.0, "lat": 38.904296333333335, "bike_id": "62bdf8daafd80055906ff78a82fe9403", "type": "electric_scooter", "is_reserved": 0, "lon": -76.98279483333333}, {"fusion_lat": 0.0, "name": "b46e1ac2fa851c16a6f4fc535644ae03", "is_disabled": 0, "rental_uris": {"android": "https://dc.lft.to/lastmile_qr_scan", "ios": "https://dc.lft.to/lastmile_qr_scan"}, "fusion_lon": 0.0, "lat": 38.91912383333333, "bike_id": "b46e1ac2fa851c16a6f4fc535644ae03", "type": "electric_scooter", "is_reserved": 0, "lon": -77.03112533333334}, {"fusion_lat": 0.0, "name": "b57a3f049309fbe9fe10f13d5a7972c7", "is_disabled": 0, "rental_uris": {"android": "https://dc.lft.to/lastmile_qr_scan", "ios": "https://dc.lft.to/lastmile_qr_scan"}, "fusion_lon": 0.0, "lat": 38.909422666666664, "bike_id": "b57a3f049309fbe9fe10f13d5a7972c7", "type": "electric_scooter", "is_reserved": 0, "lon": -77.04664266666667}, {"fusion_lat": 0.0, "name": "cb74bb95ef1c0429b63a6166251b3c3c", "is_disabled": 0, "rental_uris": {"android": "https://dc.lft.to/lastmile_qr_scan", "ios": "https://dc.lft.to/lastmile_qr_scan"}, "fusion_lon": 0.0, "lat": 38.92332783333333, "bike_id": "cb74bb95ef1c0429b63a6166251b3c3c", "type": "electric_scooter", "is_reserved": 0, "lon": -77.04184333333333}, {"fusion_lat": 0.0, "name": "571008ad68b429ba349ff00d9ee83e13", "is_disabled": 0, "rental_uris": {"android": "https://dc.lft.to/lastmile_qr_scan", "ios": "https://dc.lft.to/lastmile_qr_scan"}, "fusion_lon": 0.0, "lat": 38.928816166666664, "bike_id": "571008ad68b429ba349ff00d9ee83e13", "type": "electric_scooter", "is_reserved": 0, "lon": -77.0335375}, {"fusion_lat": 0.0, "name": "9136568c134fc576dda9b302fa3196e4", "is_disabled": 0, "rental_uris": {"android": "https://dc.lft.to/lastmile_qr_scan", "ios": "https://dc.lft.to/lastmile_qr_scan"}, "fusion_lon": 0.0, "lat": 38.87463983333333, "bike_id": "9136568c134fc576dda9b302fa3196e4", "type": "electric_scooter", "is_reserved": 0, "lon": -77.01698483333334}, {"fusion_lat": 0.0, "name": "fda95b2effff2466f3bcd74aeed3b3b6", "is_disabled": 0, "rental_uris": {"android": "https://dc.lft.to/lastmile_qr_scan", "ios": "https://dc.lft.to/lastmile_qr_scan"}, "fusion_lon": 0.0, "lat": 38.92227716666667, "bike_id": "fda95b2effff2466f3bcd74aeed3b3b6", "type": "electric_scooter", "is_reserved": 0, "lon": -77.043307}, {"fusion_lat": 0.0, "name": "cf2995781a520305118ab17e6bfcf3c2", "is_disabled": 0, "rental_uris": {"android": "https://dc.lft.to/lastmile_qr_scan", "ios": "https://dc.lft.to/lastmile_qr_scan"}, "fusion_lon": 0.0, "lat": 38.900375333333336, "bike_id": "cf2995781a520305118ab17e6bfcf3c2", "type": "electric_scooter", "is_reserved": 0, "lon": -77.0018505}, {"fusion_lat": 0.0, "name": "269ebd14a130553859d71a15ed95f890", "is_disabled": 0, "rental_uris": {"android": "https://dc.lft.to/lastmile_qr_scan", "ios": "https://dc.lft.to/lastmile_qr_scan"}, "fusion_lon": 0.0, "lat": 38.94165616666667, "bike_id": "269ebd14a130553859d71a15ed95f890", "type": "electric_bike", "is_reserved": 0, "lon": -76.9664735}, {"fusion_lat": 0.0, "name": "78fddf456242e3d9a57052f0e6099061", "is_disabled": 0, "rental_uris": {"android": "https://dc.lft.to/lastmile_qr_scan", "ios": "https://dc.lft.to/lastmile_qr_scan"}, "fusion_lon": 0.0, "lat": 38.94155333333333, "bike_id": "78fddf456242e3d9a57052f0e6099061", "type": "electric_bike", "is_reserved": 0, "lon": -77.00195666666667}, {"fusion_lat": 0.0, "name": "fcd5a6dfe8ddf90be43d9c9217764ad3", "is_disabled": 0, "rental_uris": {"android": "https://dc.lft.to/lastmile_qr_scan", "ios": "https://dc.lft.to/lastmile_qr_scan"}, "fusion_lon": 0.0, "lat": 38.917101333333335, "bike_id": "fcd5a6dfe8ddf90be43d9c9217764ad3", "type": "electric_scooter", "is_reserved": 0, "lon": -77.00869533333334}, {"fusion_lat": 0.0, "name": "cd96dc06b132a63b571a904371d70944", "is_disabled": 0, "rental_uris": {"android": "https://dc.lft.to/lastmile_qr_scan", "ios": "https://dc.lft.to/lastmile_qr_scan"}, "fusion_lon": 0.0, "lat": 38.8788835, "bike_id": "cd96dc06b132a63b571a904371d70944", "type": "electric_scooter", "is_reserved": 0, "lon": -77.02335416666666}, {"fusion_lat": 0.0, "name": "5eb3279fa760a59f63a6be4f7748edd6", "is_disabled": 0, "rental_uris": {"android": "https://dc.lft.to/lastmile_qr_scan", "ios": "https://dc.lft.to/lastmile_qr_scan"}, "fusion_lon": 0.0, "lat": 38.92978816666667, "bike_id": "5eb3279fa760a59f63a6be4f7748edd6", "type": "electric_scooter", "is_reserved": 0, "lon": -77.031356}, {"fusion_lat": 0.0, "name": "4a1e2489f499d2cd7cd52bd577bd16aa", "is_disabled": 0, "rental_uris": {"android": "https://dc.lft.to/lastmile_qr_scan", "ios": "https://dc.lft.to/lastmile_qr_scan"}, "fusion_lon": 0.0, "lat": 38.89467366666667, "bike_id": "4a1e2489f499d2cd7cd52bd577bd16aa", "type": "electric_scooter", "is_reserved": 0, "lon": -77.04181633333333}, {"fusion_lat": 0.0, "name": "7abc47867393c141072db8be341b3917", "is_disabled": 0, "rental_uris": {"android": "https://dc.lft.to/lastmile_qr_scan", "ios": "https://dc.lft.to/lastmile_qr_scan"}, "fusion_lon": 0.0, "lat": 38.98786966666667, "bike_id": "7abc47867393c141072db8be341b3917", "type": "electric_bike", "is_reserved": 0, "lon": -77.14099083333333}, {"fusion_lat": 0.0, "name": "4bede32114cba0d906079e695efa8daf", "is_disabled": 0, "rental_uris": {"android": "https://dc.lft.to/lastmile_qr_scan", "ios": "https://dc.lft.to/lastmile_qr_scan"}, "fusion_lon": 0.0, "lat": 38.84052366666667, "bike_id": "4bede32114cba0d906079e695efa8daf", "type": "electric_scooter", "is_reserved": 0, "lon": -76.97668016666667}, {"fusion_lat": 0.0, "name": "6d845db7d47f0c3c52cbabf7c39c0f52", "is_disabled": 0, "rental_uris": {"android": "https://dc.lft.to/lastmile_qr_scan", "ios": "https://dc.lft.to/lastmile_qr_scan"}, "fusion_lon": 0.0, "lat": 38.895683166666664, "bike_id": "6d845db7d47f0c3c52cbabf7c39c0f52", "type": "electric_bike", "is_reserved": 0, "lon": -77.12736983333333}, {"fusion_lat": 0.0, "name": "28ee50f59931ac46d7577626f9b28b3d", "is_disabled": 0, "rental_uris": {"android": "https://dc.lft.to/lastmile_qr_scan", "ios": "https://dc.lft.to/lastmile_qr_scan"}, "fusion_lon": 0.0, "lat": 38.927215333333336, "bike_id": "28ee50f59931ac46d7577626f9b28b3d", "type": "electric_scooter", "is_reserved": 0, "lon": -77.0205535}, {"fusion_lat": 0.0, "name": "6096b4c57e300f0cb0cb12153e7e068e", "is_disabled": 0, "rental_uris": {"android": "https://dc.lft.to/lastmile_qr_scan", "ios": "https://dc.lft.to/lastmile_qr_scan"}, "fusion_lon": 0.0, "lat": 38.89522266666667, "bike_id": "6096b4c57e300f0cb0cb12153e7e068e", "type": "electric_scooter", "is_reserved": 0, "lon": -77.02820483333333}, {"fusion_lat": 0.0, "name": "51ed6b731a83ed536ae88e36ce5b7ae1", "is_disabled": 0, "rental_uris": {"android": "https://dc.lft.to/lastmile_qr_scan", "ios": "https://dc.lft.to/lastmile_qr_scan"}, "fusion_lon": 0.0, "lat": 38.900644166666666, "bike_id": "51ed6b731a83ed536ae88e36ce5b7ae1", "type": "electric_scooter", "is_reserved": 0, "lon": -76.933846}, {"fusion_lat": 0.0, "name": "e02151add4604c4a64cfdc3feb1250e4", "is_disabled": 0, "rental_uris": {"android": "https://dc.lft.to/lastmile_qr_scan", "ios": "https://dc.lft.to/lastmile_qr_scan"}, "fusion_lon": 0.0, "lat": 38.94288983333333, "bike_id": "e02151add4604c4a64cfdc3feb1250e4", "type": "electric_scooter", "is_reserved": 0, "lon": -77.02003833333333}, {"fusion_lat": 0.0, "name": "206c45e05e92f7425b1c8d718572a22f", "is_disabled": 0, "rental_uris": {"android": "https://dc.lft.to/lastmile_qr_scan", "ios": "https://dc.lft.to/lastmile_qr_scan"}, "fusion_lon": 0.0, "lat": 38.899861333333334, "bike_id": "206c45e05e92f7425b1c8d718572a22f", "type": "electric_scooter", "is_reserved": 0, "lon": -77.02216183333333}, {"fusion_lat": 0.0, "name": "1f8db4a230f32a9695a61374b7fd92e8", "is_disabled": 0, "rental_uris": {"android": "https://dc.lft.to/lastmile_qr_scan", "ios": "https://dc.lft.to/lastmile_qr_scan"}, "fusion_lon": 0.0, "lat": 38.90552, "bike_id": "1f8db4a230f32a9695a61374b7fd92e8", "type": "electric_scooter", "is_reserved": 0, "lon": -77.0081705}, {"fusion_lat": 0.0, "name": "497b233296fda55dc7b56e0694dd3df6", "is_disabled": 0, "rental_uris": {"android": "https://dc.lft.to/lastmile_qr_scan", "ios": "https://dc.lft.to/lastmile_qr_scan"}, "fusion_lon": 0.0, "lat": 38.93750416666666, "bike_id": "497b233296fda55dc7b56e0694dd3df6", "type": "electric_scooter", "is_reserved": 0, "lon": -77.025284}, {"fusion_lat": 0.0, "name": "00cee3f41d01bfe6df42babcca171615", "is_disabled": 0, "rental_uris": {"android": "https://dc.lft.to/lastmile_qr_scan", "ios": "https://dc.lft.to/lastmile_qr_scan"}, "fusion_lon": 0.0, "lat": 38.903852666666666, "bike_id": "00cee3f41d01bfe6df42babcca171615", "type": "electric_scooter", "is_reserved": 0, "lon": -77.06154133333334}, {"fusion_lat": 0.0, "name": "40f3bfced9adc6c26dee244a3ed39d8e", "is_disabled": 0, "rental_uris": {"android": "https://dc.lft.to/lastmile_qr_scan", "ios": "https://dc.lft.to/lastmile_qr_scan"}, "fusion_lon": 0.0, "lat": 38.8784375, "bike_id": "40f3bfced9adc6c26dee244a3ed39d8e", "type": "electric_bike", "is_reserved": 0, "lon": -77.0302375}, {"fusion_lat": 0.0, "name": "84a6d266622f4956c9fd595468c8438f", "is_disabled": 0, "rental_uris": {"android": "https://dc.lft.to/lastmile_qr_scan", "ios": "https://dc.lft.to/lastmile_qr_scan"}, "fusion_lon": 0.0, "lat": 38.99522433333333, "bike_id": "84a6d266622f4956c9fd595468c8438f", "type": "electric_bike", "is_reserved": 0, "lon": -77.0289925}, {"fusion_lat": 0.0, "name": "22af418aa33e2165b9d6bd360227c140", "is_disabled": 0, "rental_uris": {"android": "https://dc.lft.to/lastmile_qr_scan", "ios": "https://dc.lft.to/lastmile_qr_scan"}, "fusion_lon": 0.0, "lat": 38.90053416666667, "bike_id": "22af418aa33e2165b9d6bd360227c140", "type": "electric_scooter", "is_reserved": 0, "lon": -77.00071633333333}, {"fusion_lat": 0.0, "name": "925cb0b715f11ddf0635cd304d29d0e4", "is_disabled": 0, "rental_uris": {"android": "https://dc.lft.to/lastmile_qr_scan", "ios": "https://dc.lft.to/lastmile_qr_scan"}, "fusion_lon": 0.0, "lat": 38.90292316666667, "bike_id": "925cb0b715f11ddf0635cd304d29d0e4", "type": "electric_scooter", "is_reserved": 0, "lon": -76.990345}, {"fusion_lat": 0.0, "name": "e41b878c9acb28e153dfe51e5d48e10e", "is_disabled": 0, "rental_uris": {"android": "https://dc.lft.to/lastmile_qr_scan", "ios": "https://dc.lft.to/lastmile_qr_scan"}, "fusion_lon": 0.0, "lat": 38.90823966666667, "bike_id": "e41b878c9acb28e153dfe51e5d48e10e", "type": "electric_scooter", "is_reserved": 0, "lon": -77.0336735}, {"fusion_lat": 0.0, "name": "0cc29d541fda4d0386c5c44fb0062e76", "is_disabled": 0, "rental_uris": {"android": "https://dc.lft.to/lastmile_qr_scan", "ios": "https://dc.lft.to/lastmile_qr_scan"}, "fusion_lon": 0.0, "lat": 38.922841, "bike_id": "0cc29d541fda4d0386c5c44fb0062e76", "type": "electric_scooter", "is_reserved": 0, "lon": -77.073221}, {"fusion_lat": 0.0, "name": "51b981de27a6ba3afe48db55ed675e9e", "is_disabled": 0, "rental_uris": {"android": "https://dc.lft.to/lastmile_qr_scan", "ios": "https://dc.lft.to/lastmile_qr_scan"}, "fusion_lon": 0.0, "lat": 38.91809083333333, "bike_id": "51b981de27a6ba3afe48db55ed675e9e", "type": "electric_scooter", "is_reserved": 0, "lon": -77.01143066666667}, {"fusion_lat": 0.0, "name": "4a85fc7b89e9e190c5865ae72982e9dc", "is_disabled": 0, "rental_uris": {"android": "https://dc.lft.to/lastmile_qr_scan", "ios": "https://dc.lft.to/lastmile_qr_scan"}, "fusion_lon": 0.0, "lat": 38.895770666666664, "bike_id": "4a85fc7b89e9e190c5865ae72982e9dc", "type": "electric_bike", "is_reserved": 0, "lon": -77.02165733333334}, {"fusion_lat": 0.0, "name": "aa05bd4df21920819a3ad36da38ed361", "is_disabled": 0, "rental_uris": {"android": "https://dc.lft.to/lastmile_qr_scan", "ios": "https://dc.lft.to/lastmile_qr_scan"}, "fusion_lon": 0.0, "lat": 38.90030616666667, "bike_id": "aa05bd4df21920819a3ad36da38ed361", "type": "electric_scooter", "is_reserved": 0, "lon": -77.03672283333333}, {"fusion_lat": 0.0, "name": "43a305d3fd4d3dfef03bded5552f44f7", "is_disabled": 0, "rental_uris": {"android": "https://dc.lft.to/lastmile_qr_scan", "ios": "https://dc.lft.to/lastmile_qr_scan"}, "fusion_lon": 0.0, "lat": 38.919271333333334, "bike_id": "43a305d3fd4d3dfef03bded5552f44f7", "type": "electric_scooter", "is_reserved": 0, "lon": -77.031865}, {"fusion_lat": 0.0, "name": "d2c836a27842c04fa7f62cc7adefc802", "is_disabled": 0, "rental_uris": {"android": "https://dc.lft.to/lastmile_qr_scan", "ios": "https://dc.lft.to/lastmile_qr_scan"}, "fusion_lon": 0.0, "lat": 38.99754716666666, "bike_id": "d2c836a27842c04fa7f62cc7adefc802", "type": "electric_bike", "is_reserved": 0, "lon": -77.02683483333334}, {"fusion_lat": 0.0, "name": "baf8a4e41e4e56c94c56b56a519ee767", "is_disabled": 0, "rental_uris": {"android": "https://dc.lft.to/lastmile_qr_scan", "ios": "https://dc.lft.to/lastmile_qr_scan"}, "fusion_lon": 0.0, "lat": 38.9184575, "bike_id": "baf8a4e41e4e56c94c56b56a519ee767", "type": "electric_scooter", "is_reserved": 0, "lon": -77.03218566666666}, {"fusion_lat": 0.0, "name": "785b55d50a18ed4949cc0e9545d50768", "is_disabled": 0, "rental_uris": {"android": "https://dc.lft.to/lastmile_qr_scan", "ios": "https://dc.lft.to/lastmile_qr_scan"}, "fusion_lon": 0.0, "lat": 38.921133833333336, "bike_id": "785b55d50a18ed4949cc0e9545d50768", "type": "electric_scooter", "is_reserved": 0, "lon": -77.03158433333333}, {"fusion_lat": 0.0, "name": "dbf404a7db0fb603e158ff64490dcae7", "is_disabled": 0, "rental_uris": {"android": "https://dc.lft.to/lastmile_qr_scan", "ios": "https://dc.lft.to/lastmile_qr_scan"}, "fusion_lon": 0.0, "lat": 38.922866, "bike_id": "dbf404a7db0fb603e158ff64490dcae7", "type": "electric_scooter", "is_reserved": 0, "lon": -77.02331816666667}, {"fusion_lat": 0.0, "name": "8615921e8149c1d61e8438c5bd91bfe4", "is_disabled": 0, "rental_uris": {"android": "https://dc.lft.to/lastmile_qr_scan", "ios": "https://dc.lft.to/lastmile_qr_scan"}, "fusion_lon": 0.0, "lat": 38.897228, "bike_id": "8615921e8149c1d61e8438c5bd91bfe4", "type": "electric_scooter", "is_reserved": 0, "lon": -77.00782383333333}, {"fusion_lat": 0.0, "name": "841d03a5c0c7b70b2a67e34b9299ae94", "is_disabled": 0, "rental_uris": {"android": "https://dc.lft.to/lastmile_qr_scan", "ios": "https://dc.lft.to/lastmile_qr_scan"}, "fusion_lon": 0.0, "lat": 38.8831475, "bike_id": "841d03a5c0c7b70b2a67e34b9299ae94", "type": "electric_scooter", "is_reserved": 0, "lon": -77.01373583333333}, {"fusion_lat": 0.0, "name": "34211741f5187b4114151ac55d619839", "is_disabled": 0, "rental_uris": {"android": "https://dc.lft.to/lastmile_qr_scan", "ios": "https://dc.lft.to/lastmile_qr_scan"}, "fusion_lon": 0.0, "lat": 38.92449766666667, "bike_id": "34211741f5187b4114151ac55d619839", "type": "electric_scooter", "is_reserved": 0, "lon": -77.00879966666666}, {"fusion_lat": 0.0, "name": "f175c4f8a226d235a78338a7bb832b4c", "is_disabled": 0, "rental_uris": {"android": "https://dc.lft.to/lastmile_qr_scan", "ios": "https://dc.lft.to/lastmile_qr_scan"}, "fusion_lon": 0.0, "lat": 38.896700833333334, "bike_id": "f175c4f8a226d235a78338a7bb832b4c", "type": "electric_scooter", "is_reserved": 0, "lon": -77.05090933333334}, {"fusion_lat": 0.0, "name": "bd712bdbfb92e18e053b1cc87976b431", "is_disabled": 0, "rental_uris": {"android": "https://dc.lft.to/lastmile_qr_scan", "ios": "https://dc.lft.to/lastmile_qr_scan"}, "fusion_lon": 0.0, "lat": 38.935851, "bike_id": "bd712bdbfb92e18e053b1cc87976b431", "type": "electric_scooter", "is_reserved": 0, "lon": -77.03354133333333}, {"fusion_lat": 0.0, "name": "0c84551930c0c8b15a56510288debb97", "is_disabled": 0, "rental_uris": {"android": "https://dc.lft.to/lastmile_qr_scan", "ios": "https://dc.lft.to/lastmile_qr_scan"}, "fusion_lon": 0.0, "lat": 38.90935733333333, "bike_id": "0c84551930c0c8b15a56510288debb97", "type": "electric_scooter", "is_reserved": 0, "lon": -77.064077}, {"fusion_lat": 0.0, "name": "5169f78fb54e63344fafa1d42dee1ab3", "is_disabled": 0, "rental_uris": {"android": "https://dc.lft.to/lastmile_qr_scan", "ios": "https://dc.lft.to/lastmile_qr_scan"}, "fusion_lon": 0.0, "lat": 38.8961875, "bike_id": "5169f78fb54e63344fafa1d42dee1ab3", "type": "electric_scooter", "is_reserved": 0, "lon": -77.045041}, {"fusion_lat": 0.0, "name": "bba901ef0aa75433f6d2959df9b7c2fe", "is_disabled": 0, "rental_uris": {"android": "https://dc.lft.to/lastmile_qr_scan", "ios": "https://dc.lft.to/lastmile_qr_scan"}, "fusion_lon": 0.0, "lat": 38.92476166666667, "bike_id": "bba901ef0aa75433f6d2959df9b7c2fe", "type": "electric_scooter", "is_reserved": 0, "lon": -77.03889633333333}, {"fusion_lat": 0.0, "name": "be1afe4f5fe0a94556d79d65b0c4a6ba", "is_disabled": 0, "rental_uris": {"android": "https://dc.lft.to/lastmile_qr_scan", "ios": "https://dc.lft.to/lastmile_qr_scan"}, "fusion_lon": 0.0, "lat": 38.910819000000004, "bike_id": "be1afe4f5fe0a94556d79d65b0c4a6ba", "type": "electric_scooter", "is_reserved": 0, "lon": -77.00882266666666}, {"fusion_lat": 0.0, "name": "2ad7ac3a436b1bc10b8706ab926552bb", "is_disabled": 0, "rental_uris": {"android": "https://dc.lft.to/lastmile_qr_scan", "ios": "https://dc.lft.to/lastmile_qr_scan"}, "fusion_lon": 0.0, "lat": 38.877140833333335, "bike_id": "2ad7ac3a436b1bc10b8706ab926552bb", "type": "electric_scooter", "is_reserved": 0, "lon": -77.017568}, {"fusion_lat": 0.0, "name": "da82719b02f8e3533ed40d0060c93d61", "is_disabled": 0, "rental_uris": {"android": "https://dc.lft.to/lastmile_qr_scan", "ios": "https://dc.lft.to/lastmile_qr_scan"}, "fusion_lon": 0.0, "lat": 38.80686866666667, "bike_id": "da82719b02f8e3533ed40d0060c93d61", "type": "electric_bike", "is_reserved": 0, "lon": -77.06914366666666}, {"fusion_lat": 0.0, "name": "09aa341b8a674869eac3e0ebb8182792", "is_disabled": 0, "rental_uris": {"android": "https://dc.lft.to/lastmile_qr_scan", "ios": "https://dc.lft.to/lastmile_qr_scan"}, "fusion_lon": 0.0, "lat": 38.884497333333336, "bike_id": "09aa341b8a674869eac3e0ebb8182792", "type": "electric_scooter", "is_reserved": 0, "lon": -76.99389216666667}, {"fusion_lat": 0.0, "name": "c48478f62b2fcd3b597668bff8d45b09", "is_disabled": 0, "rental_uris": {"android": "https://dc.lft.to/lastmile_qr_scan", "ios": "https://dc.lft.to/lastmile_qr_scan"}, "fusion_lon": 0.0, "lat": 38.9375115, "bike_id": "c48478f62b2fcd3b597668bff8d45b09", "type": "electric_scooter", "is_reserved": 0, "lon": -77.03591716666666}, {"fusion_lat": 0.0, "name": "f3bde780fae53529bda5ff85fddd70fc", "is_disabled": 0, "rental_uris": {"android": "https://dc.lft.to/lastmile_qr_scan", "ios": "https://dc.lft.to/lastmile_qr_scan"}, "fusion_lon": 0.0, "lat": 38.91334966666667, "bike_id": "f3bde780fae53529bda5ff85fddd70fc", "type": "electric_scooter", "is_reserved": 0, "lon": -77.01027066666667}, {"fusion_lat": 0.0, "name": "cdc6c1791f9579f19b627e6e6495cb6b", "is_disabled": 0, "rental_uris": {"android": "https://dc.lft.to/lastmile_qr_scan", "ios": "https://dc.lft.to/lastmile_qr_scan"}, "fusion_lon": 0.0, "lat": 38.907220833333334, "bike_id": "cdc6c1791f9579f19b627e6e6495cb6b", "type": "electric_scooter", "is_reserved": 0, "lon": -77.05048283333333}, {"fusion_lat": 0.0, "name": "a6edcd23e1adc84483175871adefd616", "is_disabled": 0, "rental_uris": {"android": "https://dc.lft.to/lastmile_qr_scan", "ios": "https://dc.lft.to/lastmile_qr_scan"}, "fusion_lon": 0.0, "lat": 38.919874, "bike_id": "a6edcd23e1adc84483175871adefd616", "type": "electric_bike", "is_reserved": 0, "lon": -76.99236866666666}, {"fusion_lat": 0.0, "name": "6dec324fabd2c3120eb46113a34ff293", "is_disabled": 0, "rental_uris": {"android": "https://dc.lft.to/lastmile_qr_scan", "ios": "https://dc.lft.to/lastmile_qr_scan"}, "fusion_lon": 0.0, "lat": 38.91972466666667, "bike_id": "6dec324fabd2c3120eb46113a34ff293", "type": "electric_scooter", "is_reserved": 0, "lon": -77.07097616666667}, {"fusion_lat": 0.0, "name": "594f481d7047ce8fe45ab3f736784e4d", "is_disabled": 0, "rental_uris": {"android": "https://dc.lft.to/lastmile_qr_scan", "ios": "https://dc.lft.to/lastmile_qr_scan"}, "fusion_lon": 0.0, "lat": 38.84833833333333, "bike_id": "594f481d7047ce8fe45ab3f736784e4d", "type": "electric_bike", "is_reserved": 0, "lon": -77.079244}, {"fusion_lat": 0.0, "name": "7208a54097a735e9e77b77f054d336d4", "is_disabled": 0, "rental_uris": {"android": "https://dc.lft.to/lastmile_qr_scan", "ios": "https://dc.lft.to/lastmile_qr_scan"}, "fusion_lon": 0.0, "lat": 38.9370735, "bike_id": "7208a54097a735e9e77b77f054d336d4", "type": "electric_scooter", "is_reserved": 0, "lon": -77.060988}, {"fusion_lat": 0.0, "name": "237885d3b46e3f4e8002860d0da506d5", "is_disabled": 0, "rental_uris": {"android": "https://dc.lft.to/lastmile_qr_scan", "ios": "https://dc.lft.to/lastmile_qr_scan"}, "fusion_lon": 0.0, "lat": 38.905305, "bike_id": "237885d3b46e3f4e8002860d0da506d5", "type": "electric_scooter", "is_reserved": 0, "lon": -77.05680716666667}, {"fusion_lat": 0.0, "name": "11e14ca6648fb8a1b92ffe5b193e24a3", "is_disabled": 0, "rental_uris": {"android": "https://dc.lft.to/lastmile_qr_scan", "ios": "https://dc.lft.to/lastmile_qr_scan"}, "fusion_lon": 0.0, "lat": 38.89224566666667, "bike_id": "11e14ca6648fb8a1b92ffe5b193e24a3", "type": "electric_scooter", "is_reserved": 0, "lon": -77.04806883333333}, {"fusion_lat": 0.0, "name": "cea986852ea871b64123d8e6d55db87c", "is_disabled": 0, "rental_uris": {"android": "https://dc.lft.to/lastmile_qr_scan", "ios": "https://dc.lft.to/lastmile_qr_scan"}, "fusion_lon": 0.0, "lat": 38.9077335, "bike_id": "cea986852ea871b64123d8e6d55db87c", "type": "electric_scooter", "is_reserved": 0, "lon": -77.03466}, {"fusion_lat": 0.0, "name": "e9b7a46d9a3635b2e9ccc6bbe8d92960", "is_disabled": 0, "rental_uris": {"android": "https://dc.lft.to/lastmile_qr_scan", "ios": "https://dc.lft.to/lastmile_qr_scan"}, "fusion_lon": 0.0, "lat": 38.911128833333336, "bike_id": "e9b7a46d9a3635b2e9ccc6bbe8d92960", "type": "electric_scooter", "is_reserved": 0, "lon": -77.01001733333334}, {"fusion_lat": 0.0, "name": "45c99ea513c9bd24ffdfaedac8e3bbe6", "is_disabled": 0, "rental_uris": {"android": "https://dc.lft.to/lastmile_qr_scan", "ios": "https://dc.lft.to/lastmile_qr_scan"}, "fusion_lon": 0.0, "lat": 38.9228795, "bike_id": "45c99ea513c9bd24ffdfaedac8e3bbe6", "type": "electric_scooter", "is_reserved": 0, "lon": -77.022442}, {"fusion_lat": 0.0, "name": "5d178e3d09ae98db76eb51e0e8c2c5e6", "is_disabled": 0, "rental_uris": {"android": "https://dc.lft.to/lastmile_qr_scan", "ios": "https://dc.lft.to/lastmile_qr_scan"}, "fusion_lon": 0.0, "lat": 38.907267833333336, "bike_id": "5d178e3d09ae98db76eb51e0e8c2c5e6", "type": "electric_scooter", "is_reserved": 0, "lon": -77.04777866666667}, {"fusion_lat": 0.0, "name": "caaf593eb6b9e220e15c9bbd4853f5be", "is_disabled": 0, "rental_uris": {"android": "https://dc.lft.to/lastmile_qr_scan", "ios": "https://dc.lft.to/lastmile_qr_scan"}, "fusion_lon": 0.0, "lat": 38.93981816666667, "bike_id": "caaf593eb6b9e220e15c9bbd4853f5be", "type": "electric_scooter", "is_reserved": 0, "lon": -77.0287125}, {"fusion_lat": 0.0, "name": "cdfc103873810a5257a899d7b91eef41", "is_disabled": 0, "rental_uris": {"android": "https://dc.lft.to/lastmile_qr_scan", "ios": "https://dc.lft.to/lastmile_qr_scan"}, "fusion_lon": 0.0, "lat": 38.89025383333333, "bike_id": "cdfc103873810a5257a899d7b91eef41", "type": "electric_scooter", "is_reserved": 0, "lon": -76.93737883333333}, {"fusion_lat": 0.0, "name": "562a013598fc31bb0f078c05ce0d4e99", "is_disabled": 0, "rental_uris": {"android": "https://dc.lft.to/lastmile_qr_scan", "ios": "https://dc.lft.to/lastmile_qr_scan"}, "fusion_lon": 0.0, "lat": 38.887359833333335, "bike_id": "562a013598fc31bb0f078c05ce0d4e99", "type": "electric_scooter", "is_reserved": 0, "lon": -77.02220716666666}, {"fusion_lat": 0.0, "name": "3971a1cbb98d4ff253d516fc84ad6157", "is_disabled": 0, "rental_uris": {"android": "https://dc.lft.to/lastmile_qr_scan", "ios": "https://dc.lft.to/lastmile_qr_scan"}, "fusion_lon": 0.0, "lat": 38.90855033333333, "bike_id": "3971a1cbb98d4ff253d516fc84ad6157", "type": "electric_scooter", "is_reserved": 0, "lon": -77.00085383333334}, {"fusion_lat": 0.0, "name": "ab43e9b8e6638d58a61bab13b5032ad3", "is_disabled": 0, "rental_uris": {"android": "https://dc.lft.to/lastmile_qr_scan", "ios": "https://dc.lft.to/lastmile_qr_scan"}, "fusion_lon": 0.0, "lat": 38.897189166666664, "bike_id": "ab43e9b8e6638d58a61bab13b5032ad3", "type": "electric_scooter", "is_reserved": 0, "lon": -77.02761683333334}, {"fusion_lat": 0.0, "name": "03fb5c765055ddb925045c33ffe72658", "is_disabled": 0, "rental_uris": {"android": "https://dc.lft.to/lastmile_qr_scan", "ios": "https://dc.lft.to/lastmile_qr_scan"}, "fusion_lon": 0.0, "lat": 38.89605616666667, "bike_id": "03fb5c765055ddb925045c33ffe72658", "type": "electric_scooter", "is_reserved": 0, "lon": -76.98109516666666}, {"fusion_lat": 0.0, "name": "c2f40d8d22502159de031d26c5cbbd62", "is_disabled": 0, "rental_uris": {"android": "https://dc.lft.to/lastmile_qr_scan", "ios": "https://dc.lft.to/lastmile_qr_scan"}, "fusion_lon": 0.0, "lat": 38.896193333333336, "bike_id": "c2f40d8d22502159de031d26c5cbbd62", "type": "electric_scooter", "is_reserved": 0, "lon": -77.02296383333334}, {"fusion_lat": 0.0, "name": "3a8c761e17940c6568e906d38a172ddf", "is_disabled": 0, "rental_uris": {"android": "https://dc.lft.to/lastmile_qr_scan", "ios": "https://dc.lft.to/lastmile_qr_scan"}, "fusion_lon": 0.0, "lat": 38.8877105, "bike_id": "3a8c761e17940c6568e906d38a172ddf", "type": "electric_bike", "is_reserved": 0, "lon": -77.018364}, {"fusion_lat": 0.0, "name": "5ec30f6a073c3b8a1ac491db1d94e699", "is_disabled": 0, "rental_uris": {"android": "https://dc.lft.to/lastmile_qr_scan", "ios": "https://dc.lft.to/lastmile_qr_scan"}, "fusion_lon": 0.0, "lat": 38.84193766666667, "bike_id": "5ec30f6a073c3b8a1ac491db1d94e699", "type": "electric_bike", "is_reserved": 0, "lon": -77.077564}, {"fusion_lat": 0.0, "name": "12f61498354bb37f1e80420834ee9f3d", "is_disabled": 0, "rental_uris": {"android": "https://dc.lft.to/lastmile_qr_scan", "ios": "https://dc.lft.to/lastmile_qr_scan"}, "fusion_lon": 0.0, "lat": 38.88384666666666, "bike_id": "12f61498354bb37f1e80420834ee9f3d", "type": "electric_scooter", "is_reserved": 0, "lon": -76.93045816666667}, {"fusion_lat": 0.0, "name": "2387b523b53a173c796f5b0c9269d0f9", "is_disabled": 0, "rental_uris": {"android": "https://dc.lft.to/lastmile_qr_scan", "ios": "https://dc.lft.to/lastmile_qr_scan"}, "fusion_lon": 0.0, "lat": 38.96636483333333, "bike_id": "2387b523b53a173c796f5b0c9269d0f9", "type": "electric_bike", "is_reserved": 0, "lon": -77.02749666666666}, {"fusion_lat": 0.0, "name": "d518c77ad5fa7f8224ff0c089d34d4ad", "is_disabled": 0, "rental_uris": {"android": "https://dc.lft.to/lastmile_qr_scan", "ios": "https://dc.lft.to/lastmile_qr_scan"}, "fusion_lon": 0.0, "lat": 38.91021883333333, "bike_id": "d518c77ad5fa7f8224ff0c089d34d4ad", "type": "electric_scooter", "is_reserved": 0, "lon": -77.05277733333334}, {"fusion_lat": 0.0, "name": "2175d90065a8ff3522d41138ae9cc54f", "is_disabled": 0, "rental_uris": {"android": "https://dc.lft.to/lastmile_qr_scan", "ios": "https://dc.lft.to/lastmile_qr_scan"}, "fusion_lon": 0.0, "lat": 38.88304516666667, "bike_id": "2175d90065a8ff3522d41138ae9cc54f", "type": "electric_scooter", "is_reserved": 0, "lon": -77.0137765}, {"fusion_lat": 0.0, "name": "9b33950188679d5cdf2d6a8dcdb14e49", "is_disabled": 0, "rental_uris": {"android": "https://dc.lft.to/lastmile_qr_scan", "ios": "https://dc.lft.to/lastmile_qr_scan"}, "fusion_lon": 0.0, "lat": 38.9038435, "bike_id": "9b33950188679d5cdf2d6a8dcdb14e49", "type": "electric_scooter", "is_reserved": 0, "lon": -77.06710916666667}, {"fusion_lat": 0.0, "name": "5d16c9d3d157e74c29454b5b05a31572", "is_disabled": 0, "rental_uris": {"android": "https://dc.lft.to/lastmile_qr_scan", "ios": "https://dc.lft.to/lastmile_qr_scan"}, "fusion_lon": 0.0, "lat": 38.9170025, "bike_id": "5d16c9d3d157e74c29454b5b05a31572", "type": "electric_scooter", "is_reserved": 0, "lon": -77.0377355}, {"fusion_lat": 0.0, "name": "161a6e78c401939a10dcecaefd093edb", "is_disabled": 0, "rental_uris": {"android": "https://dc.lft.to/lastmile_qr_scan", "ios": "https://dc.lft.to/lastmile_qr_scan"}, "fusion_lon": 0.0, "lat": 38.9052235, "bike_id": "161a6e78c401939a10dcecaefd093edb", "type": "electric_scooter", "is_reserved": 0, "lon": -77.0678625}, {"fusion_lat": 0.0, "name": "8baaa1e8eec29d4b12dece9d13ce21f0", "is_disabled": 0, "rental_uris": {"android": "https://dc.lft.to/lastmile_qr_scan", "ios": "https://dc.lft.to/lastmile_qr_scan"}, "fusion_lon": 0.0, "lat": 38.89908, "bike_id": "8baaa1e8eec29d4b12dece9d13ce21f0", "type": "electric_scooter", "is_reserved": 0, "lon": -76.93358366666666}, {"fusion_lat": 0.0, "name": "0e1f0af8004491b60875f7ba94e4a259", "is_disabled": 0, "rental_uris": {"android": "https://dc.lft.to/lastmile_qr_scan", "ios": "https://dc.lft.to/lastmile_qr_scan"}, "fusion_lon": 0.0, "lat": 38.899127, "bike_id": "0e1f0af8004491b60875f7ba94e4a259", "type": "electric_scooter", "is_reserved": 0, "lon": -76.94588516666667}, {"fusion_lat": 0.0, "name": "9ed0aecb7a3efca01c8cd19e83556167", "is_disabled": 0, "rental_uris": {"android": "https://dc.lft.to/lastmile_qr_scan", "ios": "https://dc.lft.to/lastmile_qr_scan"}, "fusion_lon": 0.0, "lat": 38.94962666666667, "bike_id": "9ed0aecb7a3efca01c8cd19e83556167", "type": "electric_scooter", "is_reserved": 0, "lon": -77.08085416666667}, {"fusion_lat": 0.0, "name": "9fa56a1654d70c4b18e8aff2703340ca", "is_disabled": 0, "rental_uris": {"android": "https://dc.lft.to/lastmile_qr_scan", "ios": "https://dc.lft.to/lastmile_qr_scan"}, "fusion_lon": 0.0, "lat": 38.885236666666664, "bike_id": "9fa56a1654d70c4b18e8aff2703340ca", "type": "electric_scooter", "is_reserved": 0, "lon": -76.92913133333333}, {"fusion_lat": 0.0, "name": "50fadf3b3641f6f39afcda7fc9e18cfc", "is_disabled": 0, "rental_uris": {"android": "https://dc.lft.to/lastmile_qr_scan", "ios": "https://dc.lft.to/lastmile_qr_scan"}, "fusion_lon": 0.0, "lat": 38.935320833333336, "bike_id": "50fadf3b3641f6f39afcda7fc9e18cfc", "type": "electric_scooter", "is_reserved": 0, "lon": -77.02357933333333}, {"fusion_lat": 0.0, "name": "68daea33792a5d3ea9a7be3848a8c2ca", "is_disabled": 0, "rental_uris": {"android": "https://dc.lft.to/lastmile_qr_scan", "ios": "https://dc.lft.to/lastmile_qr_scan"}, "fusion_lon": 0.0, "lat": 38.91619083333333, "bike_id": "68daea33792a5d3ea9a7be3848a8c2ca", "type": "electric_scooter", "is_reserved": 0, "lon": -77.00325533333333}, {"fusion_lat": 0.0, "name": "218429d578da1f54907b4b9b7968ed14", "is_disabled": 0, "rental_uris": {"android": "https://dc.lft.to/lastmile_qr_scan", "ios": "https://dc.lft.to/lastmile_qr_scan"}, "fusion_lon": 0.0, "lat": 38.91555533333333, "bike_id": "218429d578da1f54907b4b9b7968ed14", "type": "electric_scooter", "is_reserved": 0, "lon": -77.0316095}, {"fusion_lat": 0.0, "name": "53e35cce959542b7eabfca5d14b58f85", "is_disabled": 0, "rental_uris": {"android": "https://dc.lft.to/lastmile_qr_scan", "ios": "https://dc.lft.to/lastmile_qr_scan"}, "fusion_lon": 0.0, "lat": 38.8757645, "bike_id": "53e35cce959542b7eabfca5d14b58f85", "type": "electric_bike", "is_reserved": 0, "lon": -77.23407366666666}, {"fusion_lat": 0.0, "name": "a0c4a07cb2cd924eadadc5e03810f9a8", "is_disabled": 0, "rental_uris": {"android": "https://dc.lft.to/lastmile_qr_scan", "ios": "https://dc.lft.to/lastmile_qr_scan"}, "fusion_lon": 0.0, "lat": 38.92839883333333, "bike_id": "a0c4a07cb2cd924eadadc5e03810f9a8", "type": "electric_scooter", "is_reserved": 0, "lon": -77.01586666666667}, {"fusion_lat": 0.0, "name": "7e8f20f15101f7c35a0f13d70bc53dd5", "is_disabled": 0, "rental_uris": {"android": "https://dc.lft.to/lastmile_qr_scan", "ios": "https://dc.lft.to/lastmile_qr_scan"}, "fusion_lon": 0.0, "lat": 38.917117833333336, "bike_id": "7e8f20f15101f7c35a0f13d70bc53dd5", "type": "electric_scooter", "is_reserved": 0, "lon": -77.03154383333333}, {"fusion_lat": 0.0, "name": "bf7f57a929f33fcd05bc0e0bffd1bb5c", "is_disabled": 0, "rental_uris": {"android": "https://dc.lft.to/lastmile_qr_scan", "ios": "https://dc.lft.to/lastmile_qr_scan"}, "fusion_lon": 0.0, "lat": 38.93038516666667, "bike_id": "bf7f57a929f33fcd05bc0e0bffd1bb5c", "type": "electric_scooter", "is_reserved": 0, "lon": -77.0330385}, {"fusion_lat": 0.0, "name": "ad90fe7fc60df9ea120314e8ea0f984b", "is_disabled": 0, "rental_uris": {"android": "https://dc.lft.to/lastmile_qr_scan", "ios": "https://dc.lft.to/lastmile_qr_scan"}, "fusion_lon": 0.0, "lat": 38.895149333333336, "bike_id": "ad90fe7fc60df9ea120314e8ea0f984b", "type": "electric_scooter", "is_reserved": 0, "lon": -77.0417025}, {"fusion_lat": 0.0, "name": "32bfe007c205d8c47cb298f2bb110a5c", "is_disabled": 0, "rental_uris": {"android": "https://dc.lft.to/lastmile_qr_scan", "ios": "https://dc.lft.to/lastmile_qr_scan"}, "fusion_lon": 0.0, "lat": 38.9265705, "bike_id": "32bfe007c205d8c47cb298f2bb110a5c", "type": "electric_scooter", "is_reserved": 0, "lon": -77.0242635}, {"fusion_lat": 0.0, "name": "de6f481021e3e053e4bd70104adf077f", "is_disabled": 0, "rental_uris": {"android": "https://dc.lft.to/lastmile_qr_scan", "ios": "https://dc.lft.to/lastmile_qr_scan"}, "fusion_lon": 0.0, "lat": 38.90253883333333, "bike_id": "de6f481021e3e053e4bd70104adf077f", "type": "electric_scooter", "is_reserved": 0, "lon": -77.019248}, {"fusion_lat": 0.0, "name": "00ada83e14626b4c4c7237f420900a25", "is_disabled": 0, "rental_uris": {"android": "https://dc.lft.to/lastmile_qr_scan", "ios": "https://dc.lft.to/lastmile_qr_scan"}, "fusion_lon": 0.0, "lat": 38.9298955, "bike_id": "00ada83e14626b4c4c7237f420900a25", "type": "electric_scooter", "is_reserved": 0, "lon": -77.03236266666667}, {"fusion_lat": 0.0, "name": "03aa60c59169e42527606e209b4688d0", "is_disabled": 0, "rental_uris": {"android": "https://dc.lft.to/lastmile_qr_scan", "ios": "https://dc.lft.to/lastmile_qr_scan"}, "fusion_lon": 0.0, "lat": 38.89298016666667, "bike_id": "03aa60c59169e42527606e209b4688d0", "type": "electric_scooter", "is_reserved": 0, "lon": -77.01238766666667}, {"fusion_lat": 0.0, "name": "ca8a93de35ed620c46533fadacbde673", "is_disabled": 0, "rental_uris": {"android": "https://dc.lft.to/lastmile_qr_scan", "ios": "https://dc.lft.to/lastmile_qr_scan"}, "fusion_lon": 0.0, "lat": 38.9289605, "bike_id": "ca8a93de35ed620c46533fadacbde673", "type": "electric_scooter", "is_reserved": 0, "lon": -77.03357533333333}, {"fusion_lat": 0.0, "name": "31098412d440393f922d4eb78a199946", "is_disabled": 0, "rental_uris": {"android": "https://dc.lft.to/lastmile_qr_scan", "ios": "https://dc.lft.to/lastmile_qr_scan"}, "fusion_lon": 0.0, "lat": 38.87914883333333, "bike_id": "31098412d440393f922d4eb78a199946", "type": "electric_scooter", "is_reserved": 0, "lon": -77.00814066666666}, {"fusion_lat": 0.0, "name": "eb7c4a8cbefce5b3f2eee94e7a58c90e", "is_disabled": 0, "rental_uris": {"android": "https://dc.lft.to/lastmile_qr_scan", "ios": "https://dc.lft.to/lastmile_qr_scan"}, "fusion_lon": 0.0, "lat": 38.91751983333333, "bike_id": "eb7c4a8cbefce5b3f2eee94e7a58c90e", "type": "electric_scooter", "is_reserved": 0, "lon": -77.032034}, {"fusion_lat": 0.0, "name": "e53fd65e9c2f32feb1244bfa446516ab", "is_disabled": 0, "rental_uris": {"android": "https://dc.lft.to/lastmile_qr_scan", "ios": "https://dc.lft.to/lastmile_qr_scan"}, "fusion_lon": 0.0, "lat": 38.917118333333335, "bike_id": "e53fd65e9c2f32feb1244bfa446516ab", "type": "electric_scooter", "is_reserved": 0, "lon": -77.0346525}, {"fusion_lat": 0.0, "name": "65d93f1e6f4f16190e3235c982f6fb96", "is_disabled": 0, "rental_uris": {"android": "https://dc.lft.to/lastmile_qr_scan", "ios": "https://dc.lft.to/lastmile_qr_scan"}, "fusion_lon": 0.0, "lat": 38.90731816666667, "bike_id": "65d93f1e6f4f16190e3235c982f6fb96", "type": "electric_scooter", "is_reserved": 0, "lon": -77.02941083333333}, {"fusion_lat": 0.0, "name": "d30f2297f7143332b5cb5e15da4fe8c5", "is_disabled": 0, "rental_uris": {"android": "https://dc.lft.to/lastmile_qr_scan", "ios": "https://dc.lft.to/lastmile_qr_scan"}, "fusion_lon": 0.0, "lat": 38.887673666666664, "bike_id": "d30f2297f7143332b5cb5e15da4fe8c5", "type": "electric_scooter", "is_reserved": 0, "lon": -76.97749866666666}, {"fusion_lat": 0.0, "name": "94dfdee994987a49baf998fdb7351a81", "is_disabled": 0, "rental_uris": {"android": "https://dc.lft.to/lastmile_qr_scan", "ios": "https://dc.lft.to/lastmile_qr_scan"}, "fusion_lon": 0.0, "lat": 38.91095716666667, "bike_id": "94dfdee994987a49baf998fdb7351a81", "type": "electric_scooter", "is_reserved": 0, "lon": -77.03854933333334}, {"fusion_lat": 0.0, "name": "de9f43fe6cf1d5c785bd7866f862e4cb", "is_disabled": 0, "rental_uris": {"android": "https://dc.lft.to/lastmile_qr_scan", "ios": "https://dc.lft.to/lastmile_qr_scan"}, "fusion_lon": 0.0, "lat": 38.9027195, "bike_id": "de9f43fe6cf1d5c785bd7866f862e4cb", "type": "electric_scooter", "is_reserved": 0, "lon": -77.04489183333334}, {"fusion_lat": 0.0, "name": "02eefcf398ff1685bbdea100b1a40080", "is_disabled": 0, "rental_uris": {"android": "https://dc.lft.to/lastmile_qr_scan", "ios": "https://dc.lft.to/lastmile_qr_scan"}, "fusion_lon": 0.0, "lat": 38.89221466666667, "bike_id": "02eefcf398ff1685bbdea100b1a40080", "type": "electric_scooter", "is_reserved": 0, "lon": -77.03143883333334}, {"fusion_lat": 0.0, "name": "cfc36734104da5f61811813ce8bae30b", "is_disabled": 0, "rental_uris": {"android": "https://dc.lft.to/lastmile_qr_scan", "ios": "https://dc.lft.to/lastmile_qr_scan"}, "fusion_lon": 0.0, "lat": 38.897411166666664, "bike_id": "cfc36734104da5f61811813ce8bae30b", "type": "electric_scooter", "is_reserved": 0, "lon": -77.02621533333334}, {"fusion_lat": 0.0, "name": "1b9e17cc374206acc9bdb3442d6e6699", "is_disabled": 0, "rental_uris": {"android": "https://dc.lft.to/lastmile_qr_scan", "ios": "https://dc.lft.to/lastmile_qr_scan"}, "fusion_lon": 0.0, "lat": 38.854640333333336, "bike_id": "1b9e17cc374206acc9bdb3442d6e6699", "type": "electric_scooter", "is_reserved": 0, "lon": -76.97221183333333}, {"fusion_lat": 0.0, "name": "e53fb2f20a5d8adb6156aebe42550ae5", "is_disabled": 0, "rental_uris": {"android": "https://dc.lft.to/lastmile_qr_scan", "ios": "https://dc.lft.to/lastmile_qr_scan"}, "fusion_lon": 0.0, "lat": 38.91993766666667, "bike_id": "e53fb2f20a5d8adb6156aebe42550ae5", "type": "electric_scooter", "is_reserved": 0, "lon": -77.03275616666667}, {"fusion_lat": 0.0, "name": "9e302ac998a6b04eca68dbc29c30495a", "is_disabled": 0, "rental_uris": {"android": "https://dc.lft.to/lastmile_qr_scan", "ios": "https://dc.lft.to/lastmile_qr_scan"}, "fusion_lon": 0.0, "lat": 38.90024433333333, "bike_id": "9e302ac998a6b04eca68dbc29c30495a", "type": "electric_scooter", "is_reserved": 0, "lon": -77.00028566666667}, {"fusion_lat": 0.0, "name": "6c414eb8bd65611957e6283515c41939", "is_disabled": 0, "rental_uris": {"android": "https://dc.lft.to/lastmile_qr_scan", "ios": "https://dc.lft.to/lastmile_qr_scan"}, "fusion_lon": 0.0, "lat": 38.897007, "bike_id": "6c414eb8bd65611957e6283515c41939", "type": "electric_scooter", "is_reserved": 0, "lon": -77.0239525}, {"fusion_lat": 0.0, "name": "70757bafd0d5b6d930db75df1fb231d8", "is_disabled": 0, "rental_uris": {"android": "https://dc.lft.to/lastmile_qr_scan", "ios": "https://dc.lft.to/lastmile_qr_scan"}, "fusion_lon": 0.0, "lat": 38.9200695, "bike_id": "70757bafd0d5b6d930db75df1fb231d8", "type": "electric_scooter", "is_reserved": 0, "lon": -77.07133183333333}, {"fusion_lat": 0.0, "name": "edb7c4817704265a3f0d323304e623b5", "is_disabled": 0, "rental_uris": {"android": "https://dc.lft.to/lastmile_qr_scan", "ios": "https://dc.lft.to/lastmile_qr_scan"}, "fusion_lon": 0.0, "lat": 38.916006, "bike_id": "edb7c4817704265a3f0d323304e623b5", "type": "electric_scooter", "is_reserved": 0, "lon": -77.04906166666666}, {"fusion_lat": 0.0, "name": "323fe312ab2d97f7492596c9f1f25fa7", "is_disabled": 0, "rental_uris": {"android": "https://dc.lft.to/lastmile_qr_scan", "ios": "https://dc.lft.to/lastmile_qr_scan"}, "fusion_lon": 0.0, "lat": 38.938466, "bike_id": "323fe312ab2d97f7492596c9f1f25fa7", "type": "electric_scooter", "is_reserved": 0, "lon": -77.06244266666667}, {"fusion_lat": 0.0, "name": "346ee8dca141d7e15ec6bd71bed79a10", "is_disabled": 0, "rental_uris": {"android": "https://dc.lft.to/lastmile_qr_scan", "ios": "https://dc.lft.to/lastmile_qr_scan"}, "fusion_lon": 0.0, "lat": 38.9262705, "bike_id": "346ee8dca141d7e15ec6bd71bed79a10", "type": "electric_scooter", "is_reserved": 0, "lon": -77.0432165}, {"fusion_lat": 0.0, "name": "547789064891b819625fa9de47c6332b", "is_disabled": 0, "rental_uris": {"android": "https://dc.lft.to/lastmile_qr_scan", "ios": "https://dc.lft.to/lastmile_qr_scan"}, "fusion_lon": 0.0, "lat": 38.9255285, "bike_id": "547789064891b819625fa9de47c6332b", "type": "electric_scooter", "is_reserved": 0, "lon": -77.042981}, {"fusion_lat": 0.0, "name": "2c29b67a49df8790fe3eff4cee9f8c2b", "is_disabled": 0, "rental_uris": {"android": "https://dc.lft.to/lastmile_qr_scan", "ios": "https://dc.lft.to/lastmile_qr_scan"}, "fusion_lon": 0.0, "lat": 38.931136333333335, "bike_id": "2c29b67a49df8790fe3eff4cee9f8c2b", "type": "electric_scooter", "is_reserved": 0, "lon": -77.02098283333333}, {"fusion_lat": 0.0, "name": "c74304c3ffa1d640a2b62e45cb41e6cf", "is_disabled": 0, "rental_uris": {"android": "https://dc.lft.to/lastmile_qr_scan", "ios": "https://dc.lft.to/lastmile_qr_scan"}, "fusion_lon": 0.0, "lat": 38.90517216666667, "bike_id": "c74304c3ffa1d640a2b62e45cb41e6cf", "type": "electric_scooter", "is_reserved": 0, "lon": -77.06782}, {"fusion_lat": 0.0, "name": "e23bd34076c0248ad6d51b3c0b09b3f2", "is_disabled": 0, "rental_uris": {"android": "https://dc.lft.to/lastmile_qr_scan", "ios": "https://dc.lft.to/lastmile_qr_scan"}, "fusion_lon": 0.0, "lat": 38.88715633333333, "bike_id": "e23bd34076c0248ad6d51b3c0b09b3f2", "type": "electric_scooter", "is_reserved": 0, "lon": -77.017742}, {"fusion_lat": 0.0, "name": "7beb91717d441fb672e19e31ff6030df", "is_disabled": 0, "rental_uris": {"android": "https://dc.lft.to/lastmile_qr_scan", "ios": "https://dc.lft.to/lastmile_qr_scan"}, "fusion_lon": 0.0, "lat": 38.93266283333333, "bike_id": "7beb91717d441fb672e19e31ff6030df", "type": "electric_scooter", "is_reserved": 0, "lon": -77.01918883333333}, {"fusion_lat": 0.0, "name": "cc6da6e18c14e531a3f22d3d47512798", "is_disabled": 0, "rental_uris": {"android": "https://dc.lft.to/lastmile_qr_scan", "ios": "https://dc.lft.to/lastmile_qr_scan"}, "fusion_lon": 0.0, "lat": 38.927261333333334, "bike_id": "cc6da6e18c14e531a3f22d3d47512798", "type": "electric_scooter", "is_reserved": 0, "lon": -77.02090333333334}, {"fusion_lat": 0.0, "name": "2457d240688619a6587c26c0b3c3c797", "is_disabled": 0, "rental_uris": {"android": "https://dc.lft.to/lastmile_qr_scan", "ios": "https://dc.lft.to/lastmile_qr_scan"}, "fusion_lon": 0.0, "lat": 38.931186833333335, "bike_id": "2457d240688619a6587c26c0b3c3c797", "type": "electric_scooter", "is_reserved": 0, "lon": -77.020875}, {"fusion_lat": 0.0, "name": "9a5786a5e8fb922a3c23c2e1ff79b981", "is_disabled": 0, "rental_uris": {"android": "https://dc.lft.to/lastmile_qr_scan", "ios": "https://dc.lft.to/lastmile_qr_scan"}, "fusion_lon": 0.0, "lat": 38.934887833333335, "bike_id": "9a5786a5e8fb922a3c23c2e1ff79b981", "type": "electric_scooter", "is_reserved": 0, "lon": -77.0452815}, {"fusion_lat": 0.0, "name": "fe9bc90308e59473bdefc474bb48b9a0", "is_disabled": 0, "rental_uris": {"android": "https://dc.lft.to/lastmile_qr_scan", "ios": "https://dc.lft.to/lastmile_qr_scan"}, "fusion_lon": 0.0, "lat": 38.91527033333333, "bike_id": "fe9bc90308e59473bdefc474bb48b9a0", "type": "electric_scooter", "is_reserved": 0, "lon": -77.07271383333334}, {"fusion_lat": 0.0, "name": "8a7725d10600e9d7a7b201ece8af9ad3", "is_disabled": 0, "rental_uris": {"android": "https://dc.lft.to/lastmile_qr_scan", "ios": "https://dc.lft.to/lastmile_qr_scan"}, "fusion_lon": 0.0, "lat": 38.939649333333335, "bike_id": "8a7725d10600e9d7a7b201ece8af9ad3", "type": "electric_scooter", "is_reserved": 0, "lon": -77.032857}, {"fusion_lat": 0.0, "name": "def51280d88a574b59f5bf90b22f621a", "is_disabled": 0, "rental_uris": {"android": "https://dc.lft.to/lastmile_qr_scan", "ios": "https://dc.lft.to/lastmile_qr_scan"}, "fusion_lon": 0.0, "lat": 38.909382, "bike_id": "def51280d88a574b59f5bf90b22f621a", "type": "electric_scooter", "is_reserved": 0, "lon": -77.0626225}, {"fusion_lat": 0.0, "name": "702b2f86ef60dfd25e3ca011ec879833", "is_disabled": 0, "rental_uris": {"android": "https://dc.lft.to/lastmile_qr_scan", "ios": "https://dc.lft.to/lastmile_qr_scan"}, "fusion_lon": 0.0, "lat": 38.89669983333334, "bike_id": "702b2f86ef60dfd25e3ca011ec879833", "type": "electric_scooter", "is_reserved": 0, "lon": -76.9320865}, {"fusion_lat": 0.0, "name": "95b9f24c65f7a578b0b6afce7eb51800", "is_disabled": 0, "rental_uris": {"android": "https://dc.lft.to/lastmile_qr_scan", "ios": "https://dc.lft.to/lastmile_qr_scan"}, "fusion_lon": 0.0, "lat": 38.93656416666666, "bike_id": "95b9f24c65f7a578b0b6afce7eb51800", "type": "electric_scooter", "is_reserved": 0, "lon": -77.036522}, {"fusion_lat": 0.0, "name": "053d604569f510e3c55b6189d5ac6b0e", "is_disabled": 0, "rental_uris": {"android": "https://dc.lft.to/lastmile_qr_scan", "ios": "https://dc.lft.to/lastmile_qr_scan"}, "fusion_lon": 0.0, "lat": 38.92495233333333, "bike_id": "053d604569f510e3c55b6189d5ac6b0e", "type": "electric_bike", "is_reserved": 0, "lon": -77.23357333333334}, {"fusion_lat": 0.0, "name": "e879ead263b4d87d7279998fa0bdf00a", "is_disabled": 0, "rental_uris": {"android": "https://dc.lft.to/lastmile_qr_scan", "ios": "https://dc.lft.to/lastmile_qr_scan"}, "fusion_lon": 0.0, "lat": 38.917062666666666, "bike_id": "e879ead263b4d87d7279998fa0bdf00a", "type": "electric_scooter", "is_reserved": 0, "lon": -77.03469783333334}, {"fusion_lat": 0.0, "name": "57f85ec1f66832840dce29837369295d", "is_disabled": 0, "rental_uris": {"android": "https://dc.lft.to/lastmile_qr_scan", "ios": "https://dc.lft.to/lastmile_qr_scan"}, "fusion_lon": 0.0, "lat": 38.926924, "bike_id": "57f85ec1f66832840dce29837369295d", "type": "electric_scooter", "is_reserved": 0, "lon": -77.00774266666667}, {"fusion_lat": 0.0, "name": "7ae38a20473cf01144d7f363898fcb0e", "is_disabled": 0, "rental_uris": {"android": "https://dc.lft.to/lastmile_qr_scan", "ios": "https://dc.lft.to/lastmile_qr_scan"}, "fusion_lon": 0.0, "lat": 38.842845833333335, "bike_id": "7ae38a20473cf01144d7f363898fcb0e", "type": "electric_bike", "is_reserved": 0, "lon": -77.04497533333333}, {"fusion_lat": 0.0, "name": "74f18211622b5627276e2f80392c6149", "is_disabled": 0, "rental_uris": {"android": "https://dc.lft.to/lastmile_qr_scan", "ios": "https://dc.lft.to/lastmile_qr_scan"}, "fusion_lon": 0.0, "lat": 38.929526833333334, "bike_id": "74f18211622b5627276e2f80392c6149", "type": "electric_scooter", "is_reserved": 0, "lon": -77.03470783333333}, {"fusion_lat": 0.0, "name": "c46a65cf63fc4a72a7755a28d3c7bd49", "is_disabled": 0, "rental_uris": {"android": "https://dc.lft.to/lastmile_qr_scan", "ios": "https://dc.lft.to/lastmile_qr_scan"}, "fusion_lon": 0.0, "lat": 38.895659, "bike_id": "c46a65cf63fc4a72a7755a28d3c7bd49", "type": "electric_bike", "is_reserved": 0, "lon": -77.127345}, {"fusion_lat": 0.0, "name": "72da6a3b6e40a41ec66760dd72b11a51", "is_disabled": 0, "rental_uris": {"android": "https://dc.lft.to/lastmile_qr_scan", "ios": "https://dc.lft.to/lastmile_qr_scan"}, "fusion_lon": 0.0, "lat": 38.9113255, "bike_id": "72da6a3b6e40a41ec66760dd72b11a51", "type": "electric_scooter", "is_reserved": 0, "lon": -77.01051916666667}, {"fusion_lat": 0.0, "name": "9d9dd3e5d6d85bbb8db317e5c56bec7b", "is_disabled": 0, "rental_uris": {"android": "https://dc.lft.to/lastmile_qr_scan", "ios": "https://dc.lft.to/lastmile_qr_scan"}, "fusion_lon": 0.0, "lat": 38.853137333333336, "bike_id": "9d9dd3e5d6d85bbb8db317e5c56bec7b", "type": "electric_bike", "is_reserved": 0, "lon": -77.04584066666666}, {"fusion_lat": 0.0, "name": "d2d28bbf1d1675773cb6b58468576271", "is_disabled": 0, "rental_uris": {"android": "https://dc.lft.to/lastmile_qr_scan", "ios": "https://dc.lft.to/lastmile_qr_scan"}, "fusion_lon": 0.0, "lat": 38.897332, "bike_id": "d2d28bbf1d1675773cb6b58468576271", "type": "electric_scooter", "is_reserved": 0, "lon": -76.94701866666666}, {"fusion_lat": 0.0, "name": "d2d9fc0620ed79ce73961f8fb6fbf7b1", "is_disabled": 0, "rental_uris": {"android": "https://dc.lft.to/lastmile_qr_scan", "ios": "https://dc.lft.to/lastmile_qr_scan"}, "fusion_lon": 0.0, "lat": 38.90847633333333, "bike_id": "d2d9fc0620ed79ce73961f8fb6fbf7b1", "type": "electric_scooter", "is_reserved": 0, "lon": -77.06401483333333}, {"fusion_lat": 0.0, "name": "424ce34b5c26f5302aca304b47225a16", "is_disabled": 0, "rental_uris": {"android": "https://dc.lft.to/lastmile_qr_scan", "ios": "https://dc.lft.to/lastmile_qr_scan"}, "fusion_lon": 0.0, "lat": 38.96072083333333, "bike_id": "424ce34b5c26f5302aca304b47225a16", "type": "electric_scooter", "is_reserved": 0, "lon": -77.0009615}, {"fusion_lat": 0.0, "name": "49bfee88984def89a894221ee7b41001", "is_disabled": 0, "rental_uris": {"android": "https://dc.lft.to/lastmile_qr_scan", "ios": "https://dc.lft.to/lastmile_qr_scan"}, "fusion_lon": 0.0, "lat": 38.85563966666667, "bike_id": "49bfee88984def89a894221ee7b41001", "type": "electric_bike", "is_reserved": 0, "lon": -77.11313266666667}, {"fusion_lat": 0.0, "name": "4263dfc7f8f23df0ad3a552f83927c70", "is_disabled": 0, "rental_uris": {"android": "https://dc.lft.to/lastmile_qr_scan", "ios": "https://dc.lft.to/lastmile_qr_scan"}, "fusion_lon": 0.0, "lat": 38.89452633333333, "bike_id": "4263dfc7f8f23df0ad3a552f83927c70", "type": "electric_scooter", "is_reserved": 0, "lon": -77.04543416666667}, {"fusion_lat": 0.0, "name": "1f8b863f3a2ddc1450ccc9ce1ad8ff07", "is_disabled": 0, "rental_uris": {"android": "https://dc.lft.to/lastmile_qr_scan", "ios": "https://dc.lft.to/lastmile_qr_scan"}, "fusion_lon": 0.0, "lat": 38.900841166666666, "bike_id": "1f8b863f3a2ddc1450ccc9ce1ad8ff07", "type": "electric_scooter", "is_reserved": 0, "lon": -77.02711683333334}, {"fusion_lat": 0.0, "name": "53f53f9b17d6378a07c41e5d44fbea02", "is_disabled": 0, "rental_uris": {"android": "https://dc.lft.to/lastmile_qr_scan", "ios": "https://dc.lft.to/lastmile_qr_scan"}, "fusion_lon": 0.0, "lat": 38.9036205, "bike_id": "53f53f9b17d6378a07c41e5d44fbea02", "type": "electric_scooter", "is_reserved": 0, "lon": -77.06266833333333}, {"fusion_lat": 0.0, "name": "6e20e99b87a9d2deacd166501ce9bc8f", "is_disabled": 0, "rental_uris": {"android": "https://dc.lft.to/lastmile_qr_scan", "ios": "https://dc.lft.to/lastmile_qr_scan"}, "fusion_lon": 0.0, "lat": 38.96929183333334, "bike_id": "6e20e99b87a9d2deacd166501ce9bc8f", "type": "electric_bike", "is_reserved": 0, "lon": -77.0261635}, {"fusion_lat": 0.0, "name": "1e1ce79a1906e58fc2d8801b485ec133", "is_disabled": 0, "rental_uris": {"android": "https://dc.lft.to/lastmile_qr_scan", "ios": "https://dc.lft.to/lastmile_qr_scan"}, "fusion_lon": 0.0, "lat": 38.91700616666667, "bike_id": "1e1ce79a1906e58fc2d8801b485ec133", "type": "electric_scooter", "is_reserved": 0, "lon": -77.032125}, {"fusion_lat": 0.0, "name": "43f465b28a43881a50efdb0348bfec3e", "is_disabled": 0, "rental_uris": {"android": "https://dc.lft.to/lastmile_qr_scan", "ios": "https://dc.lft.to/lastmile_qr_scan"}, "fusion_lon": 0.0, "lat": 38.87650983333333, "bike_id": "43f465b28a43881a50efdb0348bfec3e", "type": "electric_scooter", "is_reserved": 0, "lon": -77.007411}, {"fusion_lat": 0.0, "name": "d0b5ea15e449ce9362f54bafd4180765", "is_disabled": 0, "rental_uris": {"android": "https://dc.lft.to/lastmile_qr_scan", "ios": "https://dc.lft.to/lastmile_qr_scan"}, "fusion_lon": 0.0, "lat": 38.903764833333334, "bike_id": "d0b5ea15e449ce9362f54bafd4180765", "type": "electric_scooter", "is_reserved": 0, "lon": -77.03309183333333}, {"fusion_lat": 0.0, "name": "18fc91fdb57f25b5fccbe7689efb3b58", "is_disabled": 0, "rental_uris": {"android": "https://dc.lft.to/lastmile_qr_scan", "ios": "https://dc.lft.to/lastmile_qr_scan"}, "fusion_lon": 0.0, "lat": 38.87681833333333, "bike_id": "18fc91fdb57f25b5fccbe7689efb3b58", "type": "electric_scooter", "is_reserved": 0, "lon": -77.007192}, {"fusion_lat": 0.0, "name": "4690596ad28c0f78f5db0dbee39a1ee6", "is_disabled": 0, "rental_uris": {"android": "https://dc.lft.to/lastmile_qr_scan", "ios": "https://dc.lft.to/lastmile_qr_scan"}, "fusion_lon": 0.0, "lat": 38.86511433333333, "bike_id": "4690596ad28c0f78f5db0dbee39a1ee6", "type": "electric_bike", "is_reserved": 0, "lon": -76.97322433333333}, {"fusion_lat": 0.0, "name": "98de221d479c2dccfb7a173bc647556d", "is_disabled": 0, "rental_uris": {"android": "https://dc.lft.to/lastmile_qr_scan", "ios": "https://dc.lft.to/lastmile_qr_scan"}, "fusion_lon": 0.0, "lat": 38.92811183333333, "bike_id": "98de221d479c2dccfb7a173bc647556d", "type": "electric_scooter", "is_reserved": 0, "lon": -77.0435665}, {"fusion_lat": 0.0, "name": "0b8424f39ce11559fccd3e7a3c01a693", "is_disabled": 0, "rental_uris": {"android": "https://dc.lft.to/lastmile_qr_scan", "ios": "https://dc.lft.to/lastmile_qr_scan"}, "fusion_lon": 0.0, "lat": 38.84913483333333, "bike_id": "0b8424f39ce11559fccd3e7a3c01a693", "type": "electric_bike", "is_reserved": 0, "lon": -77.09977316666667}, {"fusion_lat": 0.0, "name": "dc14ec913481fd677ad611dce01fb2d3", "is_disabled": 0, "rental_uris": {"android": "https://dc.lft.to/lastmile_qr_scan", "ios": "https://dc.lft.to/lastmile_qr_scan"}, "fusion_lon": 0.0, "lat": 38.91402466666667, "bike_id": "dc14ec913481fd677ad611dce01fb2d3", "type": "electric_scooter", "is_reserved": 0, "lon": -77.0318175}, {"fusion_lat": 0.0, "name": "49f5da3a3256b1c5d5303e3971b65960", "is_disabled": 0, "rental_uris": {"android": "https://dc.lft.to/lastmile_qr_scan", "ios": "https://dc.lft.to/lastmile_qr_scan"}, "fusion_lon": 0.0, "lat": 38.92249833333333, "bike_id": "49f5da3a3256b1c5d5303e3971b65960", "type": "electric_scooter", "is_reserved": 0, "lon": -77.0745075}, {"fusion_lat": 0.0, "name": "d06e7c9d1e76c819a89fec5d461d637c", "is_disabled": 0, "rental_uris": {"android": "https://dc.lft.to/lastmile_qr_scan", "ios": "https://dc.lft.to/lastmile_qr_scan"}, "fusion_lon": 0.0, "lat": 38.915028666666664, "bike_id": "d06e7c9d1e76c819a89fec5d461d637c", "type": "electric_scooter", "is_reserved": 0, "lon": -76.9835745}, {"fusion_lat": 0.0, "name": "aa71ebea6edb3c54988290fc05366a0a", "is_disabled": 0, "rental_uris": {"android": "https://dc.lft.to/lastmile_qr_scan", "ios": "https://dc.lft.to/lastmile_qr_scan"}, "fusion_lon": 0.0, "lat": 38.8882655, "bike_id": "aa71ebea6edb3c54988290fc05366a0a", "type": "electric_scooter", "is_reserved": 0, "lon": -76.98662566666667}, {"fusion_lat": 0.0, "name": "eea876d90a9bc443ee587c1ea106ecf2", "is_disabled": 0, "rental_uris": {"android": "https://dc.lft.to/lastmile_qr_scan", "ios": "https://dc.lft.to/lastmile_qr_scan"}, "fusion_lon": 0.0, "lat": 38.9079575, "bike_id": "eea876d90a9bc443ee587c1ea106ecf2", "type": "electric_scooter", "is_reserved": 0, "lon": -76.99428016666667}, {"fusion_lat": 0.0, "name": "607b0ba34b291bfd7b22e102be598480", "is_disabled": 0, "rental_uris": {"android": "https://dc.lft.to/lastmile_qr_scan", "ios": "https://dc.lft.to/lastmile_qr_scan"}, "fusion_lon": 0.0, "lat": 38.91499916666667, "bike_id": "607b0ba34b291bfd7b22e102be598480", "type": "electric_scooter", "is_reserved": 0, "lon": -77.0672495}, {"fusion_lat": 0.0, "name": "60fa954ad73bc0962b660fb37909b46b", "is_disabled": 0, "rental_uris": {"android": "https://dc.lft.to/lastmile_qr_scan", "ios": "https://dc.lft.to/lastmile_qr_scan"}, "fusion_lon": 0.0, "lat": 38.905632, "bike_id": "60fa954ad73bc0962b660fb37909b46b", "type": "electric_scooter", "is_reserved": 0, "lon": -76.98199833333334}, {"fusion_lat": 0.0, "name": "33f80d97de2c7589ce3ea8907b622724", "is_disabled": 0, "rental_uris": {"android": "https://dc.lft.to/lastmile_qr_scan", "ios": "https://dc.lft.to/lastmile_qr_scan"}, "fusion_lon": 0.0, "lat": 38.91556816666667, "bike_id": "33f80d97de2c7589ce3ea8907b622724", "type": "electric_scooter", "is_reserved": 0, "lon": -77.0317495}, {"fusion_lat": 0.0, "name": "9d54992d56d204d3abca20a3aabe9350", "is_disabled": 0, "rental_uris": {"android": "https://dc.lft.to/lastmile_qr_scan", "ios": "https://dc.lft.to/lastmile_qr_scan"}, "fusion_lon": 0.0, "lat": 38.87969, "bike_id": "9d54992d56d204d3abca20a3aabe9350", "type": "electric_bike", "is_reserved": 0, "lon": -76.916125}, {"fusion_lat": 0.0, "name": "66661b46aa2e509d282903515e0084b4", "is_disabled": 0, "rental_uris": {"android": "https://dc.lft.to/lastmile_qr_scan", "ios": "https://dc.lft.to/lastmile_qr_scan"}, "fusion_lon": 0.0, "lat": 38.9181105, "bike_id": "66661b46aa2e509d282903515e0084b4", "type": "electric_scooter", "is_reserved": 0, "lon": -77.03297783333333}, {"fusion_lat": 0.0, "name": "19ec6f55ae5c39c1e0350119765dfae1", "is_disabled": 0, "rental_uris": {"android": "https://dc.lft.to/lastmile_qr_scan", "ios": "https://dc.lft.to/lastmile_qr_scan"}, "fusion_lon": 0.0, "lat": 38.93883616666667, "bike_id": "19ec6f55ae5c39c1e0350119765dfae1", "type": "electric_scooter", "is_reserved": 0, "lon": -77.02468266666666}, {"fusion_lat": 0.0, "name": "ffbef52ba3fa5c3a849183df9d682713", "is_disabled": 0, "rental_uris": {"android": "https://dc.lft.to/lastmile_qr_scan", "ios": "https://dc.lft.to/lastmile_qr_scan"}, "fusion_lon": 0.0, "lat": 38.897147333333336, "bike_id": "ffbef52ba3fa5c3a849183df9d682713", "type": "electric_scooter", "is_reserved": 0, "lon": -77.02147316666667}, {"fusion_lat": 0.0, "name": "14e575a578ade28aaaaa4fa135c7709b", "is_disabled": 0, "rental_uris": {"android": "https://dc.lft.to/lastmile_qr_scan", "ios": "https://dc.lft.to/lastmile_qr_scan"}, "fusion_lon": 0.0, "lat": 38.92421433333333, "bike_id": "14e575a578ade28aaaaa4fa135c7709b", "type": "electric_scooter", "is_reserved": 0, "lon": -77.01954083333334}, {"fusion_lat": 0.0, "name": "5da789d5bb7fc878ca1317bb31b3d657", "is_disabled": 0, "rental_uris": {"android": "https://dc.lft.to/lastmile_qr_scan", "ios": "https://dc.lft.to/lastmile_qr_scan"}, "fusion_lon": 0.0, "lat": 38.915023, "bike_id": "5da789d5bb7fc878ca1317bb31b3d657", "type": "electric_scooter", "is_reserved": 0, "lon": -77.03212433333333}, {"fusion_lat": 0.0, "name": "6e521d69144b5430a98127d5cd8a0302", "is_disabled": 0, "rental_uris": {"android": "https://dc.lft.to/lastmile_qr_scan", "ios": "https://dc.lft.to/lastmile_qr_scan"}, "fusion_lon": 0.0, "lat": 38.91792783333333, "bike_id": "6e521d69144b5430a98127d5cd8a0302", "type": "electric_scooter", "is_reserved": 0, "lon": -77.04025683333333}, {"fusion_lat": 0.0, "name": "fbae8edb10a1f04508b40f3cd285e15e", "is_disabled": 0, "rental_uris": {"android": "https://dc.lft.to/lastmile_qr_scan", "ios": "https://dc.lft.to/lastmile_qr_scan"}, "fusion_lon": 0.0, "lat": 38.913273, "bike_id": "fbae8edb10a1f04508b40f3cd285e15e", "type": "electric_scooter", "is_reserved": 0, "lon": -77.0215505}, {"fusion_lat": 0.0, "name": "2b44b7f74924c0baac741dd0004cce91", "is_disabled": 0, "rental_uris": {"android": "https://dc.lft.to/lastmile_qr_scan", "ios": "https://dc.lft.to/lastmile_qr_scan"}, "fusion_lon": 0.0, "lat": 38.90040033333333, "bike_id": "2b44b7f74924c0baac741dd0004cce91", "type": "electric_scooter", "is_reserved": 0, "lon": -76.98559316666666}, {"fusion_lat": 0.0, "name": "d70abc65808fc44f9f26ed4020633232", "is_disabled": 0, "rental_uris": {"android": "https://dc.lft.to/lastmile_qr_scan", "ios": "https://dc.lft.to/lastmile_qr_scan"}, "fusion_lon": 0.0, "lat": 38.92414933333333, "bike_id": "d70abc65808fc44f9f26ed4020633232", "type": "electric_scooter", "is_reserved": 0, "lon": -77.02106466666666}, {"fusion_lat": 0.0, "name": "1c85dbd8b7d0d6a1c9d178966b6e8546", "is_disabled": 0, "rental_uris": {"android": "https://dc.lft.to/lastmile_qr_scan", "ios": "https://dc.lft.to/lastmile_qr_scan"}, "fusion_lon": 0.0, "lat": 38.923519166666665, "bike_id": "1c85dbd8b7d0d6a1c9d178966b6e8546", "type": "electric_scooter", "is_reserved": 0, "lon": -77.03397383333333}, {"fusion_lat": 0.0, "name": "09d5bb26229d63e361657328f9d09289", "is_disabled": 0, "rental_uris": {"android": "https://dc.lft.to/lastmile_qr_scan", "ios": "https://dc.lft.to/lastmile_qr_scan"}, "fusion_lon": 0.0, "lat": 38.898679, "bike_id": "09d5bb26229d63e361657328f9d09289", "type": "electric_scooter", "is_reserved": 0, "lon": -77.03993616666666}, {"fusion_lat": 0.0, "name": "797f04cb4e36170633493d5e4d5e8c81", "is_disabled": 0, "rental_uris": {"android": "https://dc.lft.to/lastmile_qr_scan", "ios": "https://dc.lft.to/lastmile_qr_scan"}, "fusion_lon": 0.0, "lat": 38.904098, "bike_id": "797f04cb4e36170633493d5e4d5e8c81", "type": "electric_scooter", "is_reserved": 0, "lon": -76.9733475}, {"fusion_lat": 0.0, "name": "43880756121c451d49b089d69d38069d", "is_disabled": 0, "rental_uris": {"android": "https://dc.lft.to/lastmile_qr_scan", "ios": "https://dc.lft.to/lastmile_qr_scan"}, "fusion_lon": 0.0, "lat": 38.914040166666666, "bike_id": "43880756121c451d49b089d69d38069d", "type": "electric_scooter", "is_reserved": 0, "lon": -77.03174566666667}, {"fusion_lat": 0.0, "name": "50c2b5587d8acddb1f7a6dbdeb9b924b", "is_disabled": 0, "rental_uris": {"android": "https://dc.lft.to/lastmile_qr_scan", "ios": "https://dc.lft.to/lastmile_qr_scan"}, "fusion_lon": 0.0, "lat": 38.905218166666664, "bike_id": "50c2b5587d8acddb1f7a6dbdeb9b924b", "type": "electric_scooter", "is_reserved": 0, "lon": -77.06139233333333}, {"fusion_lat": 0.0, "name": "e2d6e58ebf25cad6f76e7a19eb8e5e43", "is_disabled": 0, "rental_uris": {"android": "https://dc.lft.to/lastmile_qr_scan", "ios": "https://dc.lft.to/lastmile_qr_scan"}, "fusion_lon": 0.0, "lat": 38.997821333333334, "bike_id": "e2d6e58ebf25cad6f76e7a19eb8e5e43", "type": "electric_bike", "is_reserved": 0, "lon": -77.04712033333334}, {"fusion_lat": 0.0, "name": "41218003a4da56c9751fc1c9a05de0b2", "is_disabled": 0, "rental_uris": {"android": "https://dc.lft.to/lastmile_qr_scan", "ios": "https://dc.lft.to/lastmile_qr_scan"}, "fusion_lon": 0.0, "lat": 38.94128116666667, "bike_id": "41218003a4da56c9751fc1c9a05de0b2", "type": "electric_scooter", "is_reserved": 0, "lon": -77.0263835}, {"fusion_lat": 0.0, "name": "0ae3cdfb6c16fb0bbbe9df76db979de4", "is_disabled": 0, "rental_uris": {"android": "https://dc.lft.to/lastmile_qr_scan", "ios": "https://dc.lft.to/lastmile_qr_scan"}, "fusion_lon": 0.0, "lat": 38.90004116666667, "bike_id": "0ae3cdfb6c16fb0bbbe9df76db979de4", "type": "electric_scooter", "is_reserved": 0, "lon": -77.0113025}, {"fusion_lat": 0.0, "name": "b05b1d7b98365973180cd988876310e9", "is_disabled": 0, "rental_uris": {"android": "https://dc.lft.to/lastmile_qr_scan", "ios": "https://dc.lft.to/lastmile_qr_scan"}, "fusion_lon": 0.0, "lat": 38.916480666666665, "bike_id": "b05b1d7b98365973180cd988876310e9", "type": "electric_scooter", "is_reserved": 0, "lon": -77.031628}, {"fusion_lat": 0.0, "name": "2b57ceec135f57958715185ec0b1e82d", "is_disabled": 0, "rental_uris": {"android": "https://dc.lft.to/lastmile_qr_scan", "ios": "https://dc.lft.to/lastmile_qr_scan"}, "fusion_lon": 0.0, "lat": 38.902525833333335, "bike_id": "2b57ceec135f57958715185ec0b1e82d", "type": "electric_scooter", "is_reserved": 0, "lon": -76.9866565}, {"fusion_lat": 0.0, "name": "3b2314d80052e0572ba98c28eae06f16", "is_disabled": 0, "rental_uris": {"android": "https://dc.lft.to/lastmile_qr_scan", "ios": "https://dc.lft.to/lastmile_qr_scan"}, "fusion_lon": 0.0, "lat": 38.97124566666667, "bike_id": "3b2314d80052e0572ba98c28eae06f16", "type": "electric_bike", "is_reserved": 0, "lon": -77.02090133333333}, {"fusion_lat": 0.0, "name": "52f74133c995d473a83b931eee504cd9", "is_disabled": 0, "rental_uris": {"android": "https://dc.lft.to/lastmile_qr_scan", "ios": "https://dc.lft.to/lastmile_qr_scan"}, "fusion_lon": 0.0, "lat": 38.91972766666667, "bike_id": "52f74133c995d473a83b931eee504cd9", "type": "electric_scooter", "is_reserved": 0, "lon": -77.01804733333333}, {"fusion_lat": 0.0, "name": "bd6500fcef5f5a4eb152920875fc9c6e", "is_disabled": 0, "rental_uris": {"android": "https://dc.lft.to/lastmile_qr_scan", "ios": "https://dc.lft.to/lastmile_qr_scan"}, "fusion_lon": 0.0, "lat": 38.927906, "bike_id": "bd6500fcef5f5a4eb152920875fc9c6e", "type": "electric_scooter", "is_reserved": 0, "lon": -77.03147483333333}, {"fusion_lat": 0.0, "name": "074041063114c8bd650a08412b550291", "is_disabled": 0, "rental_uris": {"android": "https://dc.lft.to/lastmile_qr_scan", "ios": "https://dc.lft.to/lastmile_qr_scan"}, "fusion_lon": 0.0, "lat": 38.9412655, "bike_id": "074041063114c8bd650a08412b550291", "type": "electric_bike", "is_reserved": 0, "lon": -76.99030083333334}, {"fusion_lat": 0.0, "name": "544efa223a40db74efa158c4da9289b3", "is_disabled": 0, "rental_uris": {"android": "https://dc.lft.to/lastmile_qr_scan", "ios": "https://dc.lft.to/lastmile_qr_scan"}, "fusion_lon": 0.0, "lat": 38.91704883333333, "bike_id": "544efa223a40db74efa158c4da9289b3", "type": "electric_scooter", "is_reserved": 0, "lon": -77.04175616666667}, {"fusion_lat": 0.0, "name": "b6215331317333902f7ab05a7773ae7f", "is_disabled": 0, "rental_uris": {"android": "https://dc.lft.to/lastmile_qr_scan", "ios": "https://dc.lft.to/lastmile_qr_scan"}, "fusion_lon": 0.0, "lat": 38.933853, "bike_id": "b6215331317333902f7ab05a7773ae7f", "type": "electric_scooter", "is_reserved": 0, "lon": -77.02417466666667}, {"fusion_lat": 0.0, "name": "491ef907007a38ae5a0edc1595c287ba", "is_disabled": 0, "rental_uris": {"android": "https://dc.lft.to/lastmile_qr_scan", "ios": "https://dc.lft.to/lastmile_qr_scan"}, "fusion_lon": 0.0, "lat": 38.900550333333335, "bike_id": "491ef907007a38ae5a0edc1595c287ba", "type": "electric_scooter", "is_reserved": 0, "lon": -77.01380016666667}, {"fusion_lat": 0.0, "name": "09ebcb092a420ec4cdca1f70cc7e9426", "is_disabled": 0, "rental_uris": {"android": "https://dc.lft.to/lastmile_qr_scan", "ios": "https://dc.lft.to/lastmile_qr_scan"}, "fusion_lon": 0.0, "lat": 38.933745333333334, "bike_id": "09ebcb092a420ec4cdca1f70cc7e9426", "type": "electric_scooter", "is_reserved": 0, "lon": -77.02415983333333}, {"fusion_lat": 0.0, "name": "1231211b28392e490ff9960e81dfb39d", "is_disabled": 0, "rental_uris": {"android": "https://dc.lft.to/lastmile_qr_scan", "ios": "https://dc.lft.to/lastmile_qr_scan"}, "fusion_lon": 0.0, "lat": 38.90400283333334, "bike_id": "1231211b28392e490ff9960e81dfb39d", "type": "electric_scooter", "is_reserved": 0, "lon": -77.01803133333334}, {"fusion_lat": 0.0, "name": "7c14f787809868d5c7e5f520cc9198b3", "is_disabled": 0, "rental_uris": {"android": "https://dc.lft.to/lastmile_qr_scan", "ios": "https://dc.lft.to/lastmile_qr_scan"}, "fusion_lon": 0.0, "lat": 38.91103833333333, "bike_id": "7c14f787809868d5c7e5f520cc9198b3", "type": "electric_scooter", "is_reserved": 0, "lon": -77.04475333333333}, {"fusion_lat": 0.0, "name": "63e8680371785abaacb1dc824027d211", "is_disabled": 0, "rental_uris": {"android": "https://dc.lft.to/lastmile_qr_scan", "ios": "https://dc.lft.to/lastmile_qr_scan"}, "fusion_lon": 0.0, "lat": 38.9178005, "bike_id": "63e8680371785abaacb1dc824027d211", "type": "electric_scooter", "is_reserved": 0, "lon": -77.04095366666667}, {"fusion_lat": 0.0, "name": "4560802f189a3edead44ef7b56daadff", "is_disabled": 0, "rental_uris": {"android": "https://dc.lft.to/lastmile_qr_scan", "ios": "https://dc.lft.to/lastmile_qr_scan"}, "fusion_lon": 0.0, "lat": 38.945242, "bike_id": "4560802f189a3edead44ef7b56daadff", "type": "electric_scooter", "is_reserved": 0, "lon": -77.02272183333334}, {"fusion_lat": 0.0, "name": "b237395a2876f42f22570a1f138d60f7", "is_disabled": 0, "rental_uris": {"android": "https://dc.lft.to/lastmile_qr_scan", "ios": "https://dc.lft.to/lastmile_qr_scan"}, "fusion_lon": 0.0, "lat": 38.91681066666666, "bike_id": "b237395a2876f42f22570a1f138d60f7", "type": "electric_scooter", "is_reserved": 0, "lon": -77.03216966666666}, {"fusion_lat": 0.0, "name": "242f47ee0f0beacdf7e3ca0631c558d1", "is_disabled": 0, "rental_uris": {"android": "https://dc.lft.to/lastmile_qr_scan", "ios": "https://dc.lft.to/lastmile_qr_scan"}, "fusion_lon": 0.0, "lat": 38.915186166666665, "bike_id": "242f47ee0f0beacdf7e3ca0631c558d1", "type": "electric_scooter", "is_reserved": 0, "lon": -77.02694783333334}, {"fusion_lat": 0.0, "name": "e9a3bf31426be51ead0d086b9ec35a47", "is_disabled": 0, "rental_uris": {"android": "https://dc.lft.to/lastmile_qr_scan", "ios": "https://dc.lft.to/lastmile_qr_scan"}, "fusion_lon": 0.0, "lat": 38.8771205, "bike_id": "e9a3bf31426be51ead0d086b9ec35a47", "type": "electric_scooter", "is_reserved": 0, "lon": -76.9938145}, {"fusion_lat": 0.0, "name": "6a06c4c661d0f90cb49d4bf5f928e97d", "is_disabled": 0, "rental_uris": {"android": "https://dc.lft.to/lastmile_qr_scan", "ios": "https://dc.lft.to/lastmile_qr_scan"}, "fusion_lon": 0.0, "lat": 38.92310333333333, "bike_id": "6a06c4c661d0f90cb49d4bf5f928e97d", "type": "electric_scooter", "is_reserved": 0, "lon": -77.03660083333334}, {"fusion_lat": 0.0, "name": "15e01c93612d6c81bfd76cf5ee023ea8", "is_disabled": 0, "rental_uris": {"android": "https://dc.lft.to/lastmile_qr_scan", "ios": "https://dc.lft.to/lastmile_qr_scan"}, "fusion_lon": 0.0, "lat": 38.944962, "bike_id": "15e01c93612d6c81bfd76cf5ee023ea8", "type": "electric_scooter", "is_reserved": 0, "lon": -77.03876216666667}, {"fusion_lat": 0.0, "name": "02669e805b61eeede2e237ad60bbb90e", "is_disabled": 0, "rental_uris": {"android": "https://dc.lft.to/lastmile_qr_scan", "ios": "https://dc.lft.to/lastmile_qr_scan"}, "fusion_lon": 0.0, "lat": 38.9839485, "bike_id": "02669e805b61eeede2e237ad60bbb90e", "type": "electric_scooter", "is_reserved": 0, "lon": -77.02628683333333}, {"fusion_lat": 0.0, "name": "e26cd8f27872cdd240c6c5a44a041046", "is_disabled": 0, "rental_uris": {"android": "https://dc.lft.to/lastmile_qr_scan", "ios": "https://dc.lft.to/lastmile_qr_scan"}, "fusion_lon": 0.0, "lat": 38.8956595, "bike_id": "e26cd8f27872cdd240c6c5a44a041046", "type": "electric_scooter", "is_reserved": 0, "lon": -76.948727}, {"fusion_lat": 0.0, "name": "0a1d4919426eb6de1068796c8dff8fbc", "is_disabled": 0, "rental_uris": {"android": "https://dc.lft.to/lastmile_qr_scan", "ios": "https://dc.lft.to/lastmile_qr_scan"}, "fusion_lon": 0.0, "lat": 38.896989, "bike_id": "0a1d4919426eb6de1068796c8dff8fbc", "type": "electric_scooter", "is_reserved": 0, "lon": -77.02400783333333}, {"fusion_lat": 0.0, "name": "80867e8c38b95150065e062f701b38a9", "is_disabled": 0, "rental_uris": {"android": "https://dc.lft.to/lastmile_qr_scan", "ios": "https://dc.lft.to/lastmile_qr_scan"}, "fusion_lon": 0.0, "lat": 38.921671333333336, "bike_id": "80867e8c38b95150065e062f701b38a9", "type": "electric_scooter", "is_reserved": 0, "lon": -77.02082433333334}, {"fusion_lat": 0.0, "name": "61bfc8a9ad76ac5edabd0b3b1b227bc9", "is_disabled": 0, "rental_uris": {"android": "https://dc.lft.to/lastmile_qr_scan", "ios": "https://dc.lft.to/lastmile_qr_scan"}, "fusion_lon": 0.0, "lat": 38.8956125, "bike_id": "61bfc8a9ad76ac5edabd0b3b1b227bc9", "type": "electric_scooter", "is_reserved": 0, "lon": -76.99430666666666}, {"fusion_lat": 0.0, "name": "21f5a76aaf27664f85c45c759d4742d9", "is_disabled": 0, "rental_uris": {"android": "https://dc.lft.to/lastmile_qr_scan", "ios": "https://dc.lft.to/lastmile_qr_scan"}, "fusion_lon": 0.0, "lat": 39.056738333333335, "bike_id": "21f5a76aaf27664f85c45c759d4742d9", "type": "electric_bike", "is_reserved": 0, "lon": -77.114939}, {"fusion_lat": 0.0, "name": "d321cc5f053490f1ffaa68c2e40dad2c", "is_disabled": 0, "rental_uris": {"android": "https://dc.lft.to/lastmile_qr_scan", "ios": "https://dc.lft.to/lastmile_qr_scan"}, "fusion_lon": 0.0, "lat": 39.01418816666666, "bike_id": "d321cc5f053490f1ffaa68c2e40dad2c", "type": "electric_bike", "is_reserved": 0, "lon": -77.044974}, {"fusion_lat": 0.0, "name": "91b8c94818926fca38ae9a8f73d7bfee", "is_disabled": 0, "rental_uris": {"android": "https://dc.lft.to/lastmile_qr_scan", "ios": "https://dc.lft.to/lastmile_qr_scan"}, "fusion_lon": 0.0, "lat": 38.879042, "bike_id": "91b8c94818926fca38ae9a8f73d7bfee", "type": "electric_scooter", "is_reserved": 0, "lon": -77.0232035}, {"fusion_lat": 0.0, "name": "31e435fa7845c37e9e9efcd9a20e23c4", "is_disabled": 0, "rental_uris": {"android": "https://dc.lft.to/lastmile_qr_scan", "ios": "https://dc.lft.to/lastmile_qr_scan"}, "fusion_lon": 0.0, "lat": 38.914616, "bike_id": "31e435fa7845c37e9e9efcd9a20e23c4", "type": "electric_scooter", "is_reserved": 0, "lon": -77.041715}, {"fusion_lat": 0.0, "name": "3459117703098f7643937524a758f4e8", "is_disabled": 0, "rental_uris": {"android": "https://dc.lft.to/lastmile_qr_scan", "ios": "https://dc.lft.to/lastmile_qr_scan"}, "fusion_lon": 0.0, "lat": 38.91704766666667, "bike_id": "3459117703098f7643937524a758f4e8", "type": "electric_scooter", "is_reserved": 0, "lon": -77.03152116666666}, {"fusion_lat": 0.0, "name": "c90ddcfd35cd87cbf1eb0f286e882d91", "is_disabled": 0, "rental_uris": {"android": "https://dc.lft.to/lastmile_qr_scan", "ios": "https://dc.lft.to/lastmile_qr_scan"}, "fusion_lon": 0.0, "lat": 38.945151833333334, "bike_id": "c90ddcfd35cd87cbf1eb0f286e882d91", "type": "electric_scooter", "is_reserved": 0, "lon": -77.03890983333334}, {"fusion_lat": 0.0, "name": "58e9bdec900427e3a77ec3a3401075fe", "is_disabled": 0, "rental_uris": {"android": "https://dc.lft.to/lastmile_qr_scan", "ios": "https://dc.lft.to/lastmile_qr_scan"}, "fusion_lon": 0.0, "lat": 38.84755533333333, "bike_id": "58e9bdec900427e3a77ec3a3401075fe", "type": "electric_scooter", "is_reserved": 0, "lon": -76.99500083333334}, {"fusion_lat": 0.0, "name": "c80edd546484faaf2c83dee8934966b7", "is_disabled": 0, "rental_uris": {"android": "https://dc.lft.to/lastmile_qr_scan", "ios": "https://dc.lft.to/lastmile_qr_scan"}, "fusion_lon": 0.0, "lat": 38.9234945, "bike_id": "c80edd546484faaf2c83dee8934966b7", "type": "electric_scooter", "is_reserved": 0, "lon": -76.992491}, {"fusion_lat": 0.0, "name": "a81838a47179cf4a2f81d9d18b725ff5", "is_disabled": 0, "rental_uris": {"android": "https://dc.lft.to/lastmile_qr_scan", "ios": "https://dc.lft.to/lastmile_qr_scan"}, "fusion_lon": 0.0, "lat": 38.88757, "bike_id": "a81838a47179cf4a2f81d9d18b725ff5", "type": "electric_scooter", "is_reserved": 0, "lon": -76.99783766666667}, {"fusion_lat": 0.0, "name": "a1634c9a992a00bb03f738d0decb1e66", "is_disabled": 0, "rental_uris": {"android": "https://dc.lft.to/lastmile_qr_scan", "ios": "https://dc.lft.to/lastmile_qr_scan"}, "fusion_lon": 0.0, "lat": 38.8921915, "bike_id": "a1634c9a992a00bb03f738d0decb1e66", "type": "electric_scooter", "is_reserved": 0, "lon": -77.03214216666667}, {"fusion_lat": 0.0, "name": "d410db78fdc3243f3a4ea91b613df0bb", "is_disabled": 0, "rental_uris": {"android": "https://dc.lft.to/lastmile_qr_scan", "ios": "https://dc.lft.to/lastmile_qr_scan"}, "fusion_lon": 0.0, "lat": 38.90003083333333, "bike_id": "d410db78fdc3243f3a4ea91b613df0bb", "type": "electric_scooter", "is_reserved": 0, "lon": -77.03192}, {"fusion_lat": 0.0, "name": "e3cab4b2ab17b01aca00e99a6099fb93", "is_disabled": 0, "rental_uris": {"android": "https://dc.lft.to/lastmile_qr_scan", "ios": "https://dc.lft.to/lastmile_qr_scan"}, "fusion_lon": 0.0, "lat": 38.936297, "bike_id": "e3cab4b2ab17b01aca00e99a6099fb93", "type": "electric_scooter", "is_reserved": 0, "lon": -77.073111}, {"fusion_lat": 0.0, "name": "994fdaebee69714bef3e6b9237bfa777", "is_disabled": 0, "rental_uris": {"android": "https://dc.lft.to/lastmile_qr_scan", "ios": "https://dc.lft.to/lastmile_qr_scan"}, "fusion_lon": 0.0, "lat": 38.91713583333333, "bike_id": "994fdaebee69714bef3e6b9237bfa777", "type": "electric_scooter", "is_reserved": 0, "lon": -77.0273995}, {"fusion_lat": 0.0, "name": "4b1965f98b369806ffef41460c37cda5", "is_disabled": 0, "rental_uris": {"android": "https://dc.lft.to/lastmile_qr_scan", "ios": "https://dc.lft.to/lastmile_qr_scan"}, "fusion_lon": 0.0, "lat": 38.9065165, "bike_id": "4b1965f98b369806ffef41460c37cda5", "type": "electric_scooter", "is_reserved": 0, "lon": -77.02495966666666}, {"fusion_lat": 0.0, "name": "27aeb36bd84b5c50fb876b766d431a7b", "is_disabled": 0, "rental_uris": {"android": "https://dc.lft.to/lastmile_qr_scan", "ios": "https://dc.lft.to/lastmile_qr_scan"}, "fusion_lon": 0.0, "lat": 38.905287333333334, "bike_id": "27aeb36bd84b5c50fb876b766d431a7b", "type": "electric_scooter", "is_reserved": 0, "lon": -77.06132416666667}, {"fusion_lat": 0.0, "name": "7495de4569dbd77b5445ba99f4dc7380", "is_disabled": 0, "rental_uris": {"android": "https://dc.lft.to/lastmile_qr_scan", "ios": "https://dc.lft.to/lastmile_qr_scan"}, "fusion_lon": 0.0, "lat": 38.913183, "bike_id": "7495de4569dbd77b5445ba99f4dc7380", "type": "electric_scooter", "is_reserved": 0, "lon": -77.0470275}, {"fusion_lat": 0.0, "name": "fb36b811897e09cdafaebdf44780b3d2", "is_disabled": 0, "rental_uris": {"android": "https://dc.lft.to/lastmile_qr_scan", "ios": "https://dc.lft.to/lastmile_qr_scan"}, "fusion_lon": 0.0, "lat": 38.92874, "bike_id": "fb36b811897e09cdafaebdf44780b3d2", "type": "electric_scooter", "is_reserved": 0, "lon": -77.0328335}, {"fusion_lat": 0.0, "name": "684b8b7243c672027d6c85c95cbda699", "is_disabled": 0, "rental_uris": {"android": "https://dc.lft.to/lastmile_qr_scan", "ios": "https://dc.lft.to/lastmile_qr_scan"}, "fusion_lon": 0.0, "lat": 38.910326, "bike_id": "684b8b7243c672027d6c85c95cbda699", "type": "electric_scooter", "is_reserved": 0, "lon": -77.00755333333333}, {"fusion_lat": 0.0, "name": "055fa2eb0d14f32a570c0970d0435f45", "is_disabled": 0, "rental_uris": {"android": "https://dc.lft.to/lastmile_qr_scan", "ios": "https://dc.lft.to/lastmile_qr_scan"}, "fusion_lon": 0.0, "lat": 38.909437833333335, "bike_id": "055fa2eb0d14f32a570c0970d0435f45", "type": "electric_scooter", "is_reserved": 0, "lon": -77.03193066666667}, {"fusion_lat": 0.0, "name": "327bd8b7f051ad107b01af44ebd68ba1", "is_disabled": 0, "rental_uris": {"android": "https://dc.lft.to/lastmile_qr_scan", "ios": "https://dc.lft.to/lastmile_qr_scan"}, "fusion_lon": 0.0, "lat": 38.91482516666667, "bike_id": "327bd8b7f051ad107b01af44ebd68ba1", "type": "electric_scooter", "is_reserved": 0, "lon": -77.03215166666666}, {"fusion_lat": 0.0, "name": "99cde16fbae13226d6a1e5bb2055fcc8", "is_disabled": 0, "rental_uris": {"android": "https://dc.lft.to/lastmile_qr_scan", "ios": "https://dc.lft.to/lastmile_qr_scan"}, "fusion_lon": 0.0, "lat": 38.917182333333336, "bike_id": "99cde16fbae13226d6a1e5bb2055fcc8", "type": "electric_scooter", "is_reserved": 0, "lon": -76.96872016666667}, {"fusion_lat": 0.0, "name": "f785aec6f3937e856dfff122f06fff15", "is_disabled": 0, "rental_uris": {"android": "https://dc.lft.to/lastmile_qr_scan", "ios": "https://dc.lft.to/lastmile_qr_scan"}, "fusion_lon": 0.0, "lat": 38.931959666666664, "bike_id": "f785aec6f3937e856dfff122f06fff15", "type": "electric_scooter", "is_reserved": 0, "lon": -77.04299816666666}, {"fusion_lat": 0.0, "name": "e382d47ba57f43329e03ebb9a6b073be", "is_disabled": 0, "rental_uris": {"android": "https://dc.lft.to/lastmile_qr_scan", "ios": "https://dc.lft.to/lastmile_qr_scan"}, "fusion_lon": 0.0, "lat": 38.905674166666664, "bike_id": "e382d47ba57f43329e03ebb9a6b073be", "type": "electric_scooter", "is_reserved": 0, "lon": -77.06258433333333}, {"fusion_lat": 0.0, "name": "768de0072bb5da9a099af68fb4fc59ba", "is_disabled": 0, "rental_uris": {"android": "https://dc.lft.to/lastmile_qr_scan", "ios": "https://dc.lft.to/lastmile_qr_scan"}, "fusion_lon": 0.0, "lat": 38.917243166666665, "bike_id": "768de0072bb5da9a099af68fb4fc59ba", "type": "electric_scooter", "is_reserved": 0, "lon": -77.02883616666666}, {"fusion_lat": 0.0, "name": "367adfb72674cbe74b094ff3f4afa7fb", "is_disabled": 0, "rental_uris": {"android": "https://dc.lft.to/lastmile_qr_scan", "ios": "https://dc.lft.to/lastmile_qr_scan"}, "fusion_lon": 0.0, "lat": 38.841358, "bike_id": "367adfb72674cbe74b094ff3f4afa7fb", "type": "electric_bike", "is_reserved": 0, "lon": -76.94763266666666}, {"fusion_lat": 0.0, "name": "f71846d994ad179bd826709679765c72", "is_disabled": 0, "rental_uris": {"android": "https://dc.lft.to/lastmile_qr_scan", "ios": "https://dc.lft.to/lastmile_qr_scan"}, "fusion_lon": 0.0, "lat": 38.90989833333333, "bike_id": "f71846d994ad179bd826709679765c72", "type": "electric_scooter", "is_reserved": 0, "lon": -77.03380116666666}, {"fusion_lat": 0.0, "name": "d42ae8edd89800fe4348aee556169432", "is_disabled": 0, "rental_uris": {"android": "https://dc.lft.to/lastmile_qr_scan", "ios": "https://dc.lft.to/lastmile_qr_scan"}, "fusion_lon": 0.0, "lat": 38.8647215, "bike_id": "d42ae8edd89800fe4348aee556169432", "type": "electric_bike", "is_reserved": 0, "lon": -76.94532216666667}, {"fusion_lat": 0.0, "name": "4cf4c08fd1e376ccc380f670b46c226f", "is_disabled": 0, "rental_uris": {"android": "https://dc.lft.to/lastmile_qr_scan", "ios": "https://dc.lft.to/lastmile_qr_scan"}, "fusion_lon": 0.0, "lat": 38.88431816666667, "bike_id": "4cf4c08fd1e376ccc380f670b46c226f", "type": "electric_scooter", "is_reserved": 0, "lon": -77.02475483333333}, {"fusion_lat": 0.0, "name": "3db91a04bdf88c435fb81f595dc52ea7", "is_disabled": 0, "rental_uris": {"android": "https://dc.lft.to/lastmile_qr_scan", "ios": "https://dc.lft.to/lastmile_qr_scan"}, "fusion_lon": 0.0, "lat": 38.92553566666667, "bike_id": "3db91a04bdf88c435fb81f595dc52ea7", "type": "electric_scooter", "is_reserved": 0, "lon": -77.05308416666666}, {"fusion_lat": 0.0, "name": "ec2024d35e964ac3fe57a4c874f1b340", "is_disabled": 0, "rental_uris": {"android": "https://dc.lft.to/lastmile_qr_scan", "ios": "https://dc.lft.to/lastmile_qr_scan"}, "fusion_lon": 0.0, "lat": 38.881353833333336, "bike_id": "ec2024d35e964ac3fe57a4c874f1b340", "type": "electric_scooter", "is_reserved": 0, "lon": -77.01661133333333}, {"fusion_lat": 0.0, "name": "097e5ce436a56246f814e996c111cc65", "is_disabled": 0, "rental_uris": {"android": "https://dc.lft.to/lastmile_qr_scan", "ios": "https://dc.lft.to/lastmile_qr_scan"}, "fusion_lon": 0.0, "lat": 38.88721233333333, "bike_id": "097e5ce436a56246f814e996c111cc65", "type": "electric_scooter", "is_reserved": 0, "lon": -76.983604}, {"fusion_lat": 0.0, "name": "2458c88d1c53c4478a6e72c8a8a5eb6a", "is_disabled": 0, "rental_uris": {"android": "https://dc.lft.to/lastmile_qr_scan", "ios": "https://dc.lft.to/lastmile_qr_scan"}, "fusion_lon": 0.0, "lat": 38.90407233333333, "bike_id": "2458c88d1c53c4478a6e72c8a8a5eb6a", "type": "electric_scooter", "is_reserved": 0, "lon": -76.973329}, {"fusion_lat": 0.0, "name": "0fe531c5fd001c3cfe4b419842ccb22a", "is_disabled": 0, "rental_uris": {"android": "https://dc.lft.to/lastmile_qr_scan", "ios": "https://dc.lft.to/lastmile_qr_scan"}, "fusion_lon": 0.0, "lat": 38.899988, "bike_id": "0fe531c5fd001c3cfe4b419842ccb22a", "type": "electric_scooter", "is_reserved": 0, "lon": -77.02755266666667}, {"fusion_lat": 0.0, "name": "a63b51229a602b1a74261488f150bd1f", "is_disabled": 0, "rental_uris": {"android": "https://dc.lft.to/lastmile_qr_scan", "ios": "https://dc.lft.to/lastmile_qr_scan"}, "fusion_lon": 0.0, "lat": 38.91117216666667, "bike_id": "a63b51229a602b1a74261488f150bd1f", "type": "electric_scooter", "is_reserved": 0, "lon": -77.04467583333333}, {"fusion_lat": 0.0, "name": "fee3acdccb90a007dd995cd377e0c4e3", "is_disabled": 0, "rental_uris": {"android": "https://dc.lft.to/lastmile_qr_scan", "ios": "https://dc.lft.to/lastmile_qr_scan"}, "fusion_lon": 0.0, "lat": 38.91575133333333, "bike_id": "fee3acdccb90a007dd995cd377e0c4e3", "type": "electric_scooter", "is_reserved": 0, "lon": -77.03183483333333}, {"fusion_lat": 0.0, "name": "57d76fc3852488d466ece7b3eddad0b9", "is_disabled": 0, "rental_uris": {"android": "https://dc.lft.to/lastmile_qr_scan", "ios": "https://dc.lft.to/lastmile_qr_scan"}, "fusion_lon": 0.0, "lat": 39.0705695, "bike_id": "57d76fc3852488d466ece7b3eddad0b9", "type": "electric_bike", "is_reserved": 0, "lon": -77.11477}, {"fusion_lat": 0.0, "name": "0f60d8f1a0e6f1dede24e7d6a6bcc57f", "is_disabled": 0, "rental_uris": {"android": "https://dc.lft.to/lastmile_qr_scan", "ios": "https://dc.lft.to/lastmile_qr_scan"}, "fusion_lon": 0.0, "lat": 38.914033, "bike_id": "0f60d8f1a0e6f1dede24e7d6a6bcc57f", "type": "electric_scooter", "is_reserved": 0, "lon": -77.03172083333334}, {"fusion_lat": 0.0, "name": "754aa02cc205e08b6266df22d3b23dc3", "is_disabled": 0, "rental_uris": {"android": "https://dc.lft.to/lastmile_qr_scan", "ios": "https://dc.lft.to/lastmile_qr_scan"}, "fusion_lon": 0.0, "lat": 38.900203833333336, "bike_id": "754aa02cc205e08b6266df22d3b23dc3", "type": "electric_scooter", "is_reserved": 0, "lon": -76.986985}, {"fusion_lat": 0.0, "name": "644984ab7c0106c020cc9cc900b154e3", "is_disabled": 0, "rental_uris": {"android": "https://dc.lft.to/lastmile_qr_scan", "ios": "https://dc.lft.to/lastmile_qr_scan"}, "fusion_lon": 0.0, "lat": 38.9355565, "bike_id": "644984ab7c0106c020cc9cc900b154e3", "type": "electric_scooter", "is_reserved": 0, "lon": -77.03465133333333}, {"fusion_lat": 0.0, "name": "17c92d10baa8186c7879719ea467f402", "is_disabled": 0, "rental_uris": {"android": "https://dc.lft.to/lastmile_qr_scan", "ios": "https://dc.lft.to/lastmile_qr_scan"}, "fusion_lon": 0.0, "lat": 38.91313233333333, "bike_id": "17c92d10baa8186c7879719ea467f402", "type": "electric_scooter", "is_reserved": 0, "lon": -77.036574}, {"fusion_lat": 0.0, "name": "85c51627137926ad01f4d03cc7677be3", "is_disabled": 0, "rental_uris": {"android": "https://dc.lft.to/lastmile_qr_scan", "ios": "https://dc.lft.to/lastmile_qr_scan"}, "fusion_lon": 0.0, "lat": 38.900686666666665, "bike_id": "85c51627137926ad01f4d03cc7677be3", "type": "electric_scooter", "is_reserved": 0, "lon": -77.05682933333334}, {"fusion_lat": 0.0, "name": "b1b340792f0db93c5a2ecb39f2501a83", "is_disabled": 0, "rental_uris": {"android": "https://dc.lft.to/lastmile_qr_scan", "ios": "https://dc.lft.to/lastmile_qr_scan"},