{"data": {"bikes": [{"is_disabled": 0, "type": "electric_scooter", "is_reserved": 0, "lat": 38.90102783333333, "rental_uris": {"ios": "https://dc.lft.to/lastmile_qr_scan", "android": "https://dc.lft.to/lastmile_qr_scan"}, "fusion_lon": 0.0, "fusion_lat": 0.0, "bike_id": "c1410ffa4f5b81891a4cb1dcd0a7bdde", "name": "c1410ffa4f5b81891a4cb1dcd0a7bdde", "lon": -77.02793866666667}, {"is_disabled": 0, "type": "electric_scooter", "is_reserved": 0, "lat": 38.936690666666664, "rental_uris": {"ios": "https://dc.lft.to/lastmile_qr_scan", "android": "https://dc.lft.to/lastmile_qr_scan"}, "fusion_lon": 0.0, "fusion_lat": 0.0, "bike_id": "29002fea126e608c6883c10428d0704e", "name": "29002fea126e608c6883c10428d0704e", "lon": -77.02302966666667}, {"is_disabled": 0, "type": "electric_scooter", "is_reserved": 0, "lat": 38.95168816666666, "rental_uris": {"ios": "https://dc.lft.to/lastmile_qr_scan", "android": "https://dc.lft.to/lastmile_qr_scan"}, "fusion_lon": 0.0, "fusion_lat": 0.0, "bike_id": "21299d5239ccfbb6de77011193ee5b72", "name": "21299d5239ccfbb6de77011193ee5b72", "lon": -77.02751033333334}, {"is_disabled": 0, "type": "electric_scooter", "is_reserved": 0, "lat": 38.92442833333333, "rental_uris": {"ios": "https://dc.lft.to/lastmile_qr_scan", "android": "https://dc.lft.to/lastmile_qr_scan"}, "fusion_lon": 0.0, "fusion_lat": 0.0, "bike_id": "f128f92aca9daa42109a9e925fc04a0e", "name": "f128f92aca9daa42109a9e925fc04a0e", "lon": -76.99000083333334}, {"is_disabled": 0, "type": "electric_scooter", "is_reserved": 0, "lat": 38.9085715, "rental_uris": {"ios": "https://dc.lft.to/lastmile_qr_scan", "android": "https://dc.lft.to/lastmile_qr_scan"}, "fusion_lon": 0.0, "fusion_lat": 0.0, "bike_id": "cd87fc2d0d4ef52ea7804be9774d54c1", "name": "cd87fc2d0d4ef52ea7804be9774d54c1", "lon": -77.0346155}, {"is_disabled": 0, "type": "electric_bike", "is_reserved": 0, "lat": 39.0242975, "rental_uris": {"ios": "https://dc.lft.to/lastmile_qr_scan", "android": "https://dc.lft.to/lastmile_qr_scan"}, "fusion_lon": 0.0, "fusion_lat": 0.0, "bike_id": "8024847dbaceee1eb02e9a99902ba0e3", "name": "8024847dbaceee1eb02e9a99902ba0e3", "lon": -77.1310785}, {"is_disabled": 0, "type": "electric_scooter", "is_reserved": 0, "lat": 38.89660516666667, "rental_uris": {"ios": "https://dc.lft.to/lastmile_qr_scan", "android": "https://dc.lft.to/lastmile_qr_scan"}, "fusion_lon": 0.0, "fusion_lat": 0.0, "bike_id": "c62fb99d18c85f140e139d7741fe0bfb", "name": "c62fb99d18c85f140e139d7741fe0bfb", "lon": -76.9474165}, {"is_disabled": 0, "type": "electric_scooter", "is_reserved": 0, "lat": 38.90074966666667, "rental_uris": {"ios": "https://dc.lft.to/lastmile_qr_scan", "android": "https://dc.lft.to/lastmile_qr_scan"}, "fusion_lon": 0.0, "fusion_lat": 0.0, "bike_id": "1ef3406426c14e84dd32798cc76a0dbf", "name": "1ef3406426c14e84dd32798cc76a0dbf", "lon": -77.01859483333334}, {"is_disabled": 0, "type": "electric_bike", "is_reserved": 0, "lat": 38.885809, "rental_uris": {"ios": "https://dc.lft.to/lastmile_qr_scan", "android": "https://dc.lft.to/lastmile_qr_scan"}, "fusion_lon": 0.0, "fusion_lat": 0.0, "bike_id": "c4dc3c40e1c35087a53845a429ba4f94", "name": "c4dc3c40e1c35087a53845a429ba4f94", "lon": -77.06069933333333}, {"is_disabled": 0, "type": "electric_bike", "is_reserved": 0, "lat": 39.030421833333335, "rental_uris": {"ios": "https://dc.lft.to/lastmile_qr_scan", "android": "https://dc.lft.to/lastmile_qr_scan"}, "fusion_lon": 0.0, "fusion_lat": 0.0, "bike_id": "281b8b054b2630f9237ecce6609d27f2", "name": "281b8b054b2630f9237ecce6609d27f2", "lon": -77.0947365}, {"is_disabled": 0, "type": "electric_scooter", "is_reserved": 0, "lat": 38.9321265, "rental_uris": {"ios": "https://dc.lft.to/lastmile_qr_scan", "android": "https://dc.lft.to/lastmile_qr_scan"}, "fusion_lon": 0.0, "fusion_lat": 0.0, "bike_id": "97b3248ab0e76eb3f0fe8776123b86b4", "name": "97b3248ab0e76eb3f0fe8776123b86b4", "lon": -77.03374383333333}, {"is_disabled": 0, "type": "electric_scooter", "is_reserved": 0, "lat": 38.907381, "rental_uris": {"ios": "https://dc.lft.to/lastmile_qr_scan", "android": "https://dc.lft.to/lastmile_qr_scan"}, "fusion_lon": 0.0, "fusion_lat": 0.0, "bike_id": "4ecb5d232746ec3c4e34012c5fb9fdbc", "name": "4ecb5d232746ec3c4e34012c5fb9fdbc", "lon": -77.04326483333334}, {"is_disabled": 0, "type": "electric_scooter", "is_reserved": 0, "lat": 38.88812383333333, "rental_uris": {"ios": "https://dc.lft.to/lastmile_qr_scan", "android": "https://dc.lft.to/lastmile_qr_scan"}, "fusion_lon": 0.0, "fusion_lat": 0.0, "bike_id": "00d0ee0ef3db6c2dd7f36be76e04f6e8", "name": "00d0ee0ef3db6c2dd7f36be76e04f6e8", "lon": -76.93343716666666}, {"is_disabled": 0, "type": "electric_scooter", "is_reserved": 0, "lat": 38.901307833333334, "rental_uris": {"ios": "https://dc.lft.to/lastmile_qr_scan", "android": "https://dc.lft.to/lastmile_qr_scan"}, "fusion_lon": 0.0, "fusion_lat": 0.0, "bike_id": "fc6e61f6f422a8d0238936a24f8738f3", "name": "fc6e61f6f422a8d0238936a24f8738f3", "lon": -77.02788433333333}, {"is_disabled": 0, "type": "electric_scooter", "is_reserved": 0, "lat": 38.9075655, "rental_uris": {"ios": "https://dc.lft.to/lastmile_qr_scan", "android": "https://dc.lft.to/lastmile_qr_scan"}, "fusion_lon": 0.0, "fusion_lat": 0.0, "bike_id": "4d4085b05b8d319e8e7d997f5d4b52f1", "name": "4d4085b05b8d319e8e7d997f5d4b52f1", "lon": -77.03503}, {"is_disabled": 0, "type": "electric_scooter", "is_reserved": 0, "lat": 38.91785183333333, "rental_uris": {"ios": "https://dc.lft.to/lastmile_qr_scan", "android": "https://dc.lft.to/lastmile_qr_scan"}, "fusion_lon": 0.0, "fusion_lat": 0.0, "bike_id": "7ccaa90bc77775ec85548da93bfaa1b4", "name": "7ccaa90bc77775ec85548da93bfaa1b4", "lon": -76.97342416666666}, {"is_disabled": 0, "type": "electric_bike", "is_reserved": 0, "lat": 38.90326866666667, "rental_uris": {"ios": "https://dc.lft.to/lastmile_qr_scan", "android": "https://dc.lft.to/lastmile_qr_scan"}, "fusion_lon": 0.0, "fusion_lat": 0.0, "bike_id": "43c6d94414e0ce53bf6d04b8bfd83635", "name": "43c6d94414e0ce53bf6d04b8bfd83635", "lon": -77.01644233333333}, {"is_disabled": 0, "type": "electric_scooter", "is_reserved": 0, "lat": 38.9201575, "rental_uris": {"ios": "https://dc.lft.to/lastmile_qr_scan", "android": "https://dc.lft.to/lastmile_qr_scan"}, "fusion_lon": 0.0, "fusion_lat": 0.0, "bike_id": "64b24fe0e3b01b8331db0736a162d8f9", "name": "64b24fe0e3b01b8331db0736a162d8f9", "lon": -77.0376775}, {"is_disabled": 0, "type": "electric_scooter", "is_reserved": 0, "lat": 38.918232333333336, "rental_uris": {"ios": "https://dc.lft.to/lastmile_qr_scan", "android": "https://dc.lft.to/lastmile_qr_scan"}, "fusion_lon": 0.0, "fusion_lat": 0.0, "bike_id": "21bfe0333168fd0db6cfd1d25c809530", "name": "21bfe0333168fd0db6cfd1d25c809530", "lon": -77.0588275}, {"is_disabled": 0, "type": "electric_scooter", "is_reserved": 0, "lat": 38.8923155, "rental_uris": {"ios": "https://dc.lft.to/lastmile_qr_scan", "android": "https://dc.lft.to/lastmile_qr_scan"}, "fusion_lon": 0.0, "fusion_lat": 0.0, "bike_id": "6970cb27e8aca8b32009f8245737d9da", "name": "6970cb27e8aca8b32009f8245737d9da", "lon": -77.05001116666666}, {"is_disabled": 0, "type": "electric_scooter", "is_reserved": 0, "lat": 38.8669925, "rental_uris": {"ios": "https://dc.lft.to/lastmile_qr_scan", "android": "https://dc.lft.to/lastmile_qr_scan"}, "fusion_lon": 0.0, "fusion_lat": 0.0, "bike_id": "3e6d174b4b7db1178a1601ce8122f249", "name": "3e6d174b4b7db1178a1601ce8122f249", "lon": -76.98402083333333}, {"is_disabled": 0, "type": "electric_scooter", "is_reserved": 0, "lat": 38.922005666666664, "rental_uris": {"ios": "https://dc.lft.to/lastmile_qr_scan", "android": "https://dc.lft.to/lastmile_qr_scan"}, "fusion_lon": 0.0, "fusion_lat": 0.0, "bike_id": "6dc803ddadb71684830f35760b3f908d", "name": "6dc803ddadb71684830f35760b3f908d", "lon": -77.04013466666666}, {"is_disabled": 0, "type": "electric_scooter", "is_reserved": 0, "lat": 38.90418533333333, "rental_uris": {"ios": "https://dc.lft.to/lastmile_qr_scan", "android": "https://dc.lft.to/lastmile_qr_scan"}, "fusion_lon": 0.0, "fusion_lat": 0.0, "bike_id": "01afc0f2ba59144f223f66a6e738a0b1", "name": "01afc0f2ba59144f223f66a6e738a0b1", "lon": -76.9907465}, {"is_disabled": 0, "type": "electric_scooter", "is_reserved": 0, "lat": 38.905901666666665, "rental_uris": {"ios": "https://dc.lft.to/lastmile_qr_scan", "android": "https://dc.lft.to/lastmile_qr_scan"}, "fusion_lon": 0.0, "fusion_lat": 0.0, "bike_id": "6a51069f4942a55cae894c221be1abbd", "name": "6a51069f4942a55cae894c221be1abbd", "lon": -77.04329233333333}, {"is_disabled": 0, "type": "electric_scooter", "is_reserved": 0, "lat": 38.91819366666667, "rental_uris": {"ios": "https://dc.lft.to/lastmile_qr_scan", "android": "https://dc.lft.to/lastmile_qr_scan"}, "fusion_lon": 0.0, "fusion_lat": 0.0, "bike_id": "fca763b6636fe6f74a80f93d4a83db33", "name": "fca763b6636fe6f74a80f93d4a83db33", "lon": -77.03828266666666}, {"is_disabled": 0, "type": "electric_scooter", "is_reserved": 0, "lat": 38.892232, "rental_uris": {"ios": "https://dc.lft.to/lastmile_qr_scan", "android": "https://dc.lft.to/lastmile_qr_scan"}, "fusion_lon": 0.0, "fusion_lat": 0.0, "bike_id": "f8ecf2d4ad148ec3e1f717f82925a0bf", "name": "f8ecf2d4ad148ec3e1f717f82925a0bf", "lon": -77.046578}, {"is_disabled": 0, "type": "electric_bike", "is_reserved": 0, "lat": 38.903317, "rental_uris": {"ios": "https://dc.lft.to/lastmile_qr_scan", "android": "https://dc.lft.to/lastmile_qr_scan"}, "fusion_lon": 0.0, "fusion_lat": 0.0, "bike_id": "8ae73b1495b7f2f009b4fef6c9b395db", "name": "8ae73b1495b7f2f009b4fef6c9b395db", "lon": -76.9759505}, {"is_disabled": 0, "type": "electric_scooter", "is_reserved": 0, "lat": 38.92015083333333, "rental_uris": {"ios": "https://dc.lft.to/lastmile_qr_scan", "android": "https://dc.lft.to/lastmile_qr_scan"}, "fusion_lon": 0.0, "fusion_lat": 0.0, "bike_id": "701f7b6a9ec12f770b507f00e3b649e9", "name": "701f7b6a9ec12f770b507f00e3b649e9", "lon": -77.04405616666666}, {"is_disabled": 0, "type": "electric_scooter", "is_reserved": 0, "lat": 38.9049665, "rental_uris": {"ios": "https://dc.lft.to/lastmile_qr_scan", "android": "https://dc.lft.to/lastmile_qr_scan"}, "fusion_lon": 0.0, "fusion_lat": 0.0, "bike_id": "80504403599b3e3279da2135844dc2b9", "name": "80504403599b3e3279da2135844dc2b9", "lon": -76.9496195}, {"is_disabled": 0, "type": "electric_scooter", "is_reserved": 0, "lat": 38.87195233333333, "rental_uris": {"ios": "https://dc.lft.to/lastmile_qr_scan", "android": "https://dc.lft.to/lastmile_qr_scan"}, "fusion_lon": 0.0, "fusion_lat": 0.0, "bike_id": "b4b4bf290aa2b1415be00bf8bb5eb9e5", "name": "b4b4bf290aa2b1415be00bf8bb5eb9e5", "lon": -77.00617816666667}, {"is_disabled": 0, "type": "electric_scooter", "is_reserved": 0, "lat": 38.934910333333335, "rental_uris": {"ios": "https://dc.lft.to/lastmile_qr_scan", "android": "https://dc.lft.to/lastmile_qr_scan"}, "fusion_lon": 0.0, "fusion_lat": 0.0, "bike_id": "0698d4a8779ef762dd48cd7ef71b8e68", "name": "0698d4a8779ef762dd48cd7ef71b8e68", "lon": -77.07270966666667}, {"is_disabled": 0, "type": "electric_scooter", "is_reserved": 0, "lat": 38.887829333333336, "rental_uris": {"ios": "https://dc.lft.to/lastmile_qr_scan", "android": "https://dc.lft.to/lastmile_qr_scan"}, "fusion_lon": 0.0, "fusion_lat": 0.0, "bike_id": "c69d239ec1304b7d8329d42875448567", "name": "c69d239ec1304b7d8329d42875448567", "lon": -76.95124383333334}, {"is_disabled": 0, "type": "electric_scooter", "is_reserved": 0, "lat": 38.91491383333333, "rental_uris": {"ios": "https://dc.lft.to/lastmile_qr_scan", "android": "https://dc.lft.to/lastmile_qr_scan"}, "fusion_lon": 0.0, "fusion_lat": 0.0, "bike_id": "48341d51670cf33784fa162890af62f9", "name": "48341d51670cf33784fa162890af62f9", "lon": -77.0312905}, {"is_disabled": 0, "type": "electric_scooter", "is_reserved": 0, "lat": 38.921269833333334, "rental_uris": {"ios": "https://dc.lft.to/lastmile_qr_scan", "android": "https://dc.lft.to/lastmile_qr_scan"}, "fusion_lon": 0.0, "fusion_lat": 0.0, "bike_id": "7a4575dcb039bdc7581f5f582b2515bb", "name": "7a4575dcb039bdc7581f5f582b2515bb", "lon": -77.04430783333333}, {"is_disabled": 0, "type": "electric_scooter", "is_reserved": 0, "lat": 38.92420083333333, "rental_uris": {"ios": "https://dc.lft.to/lastmile_qr_scan", "android": "https://dc.lft.to/lastmile_qr_scan"}, "fusion_lon": 0.0, "fusion_lat": 0.0, "bike_id": "98c06127fa707cf806755ef99f33c188", "name": "98c06127fa707cf806755ef99f33c188", "lon": -77.05056533333334}, {"is_disabled": 0, "type": "electric_scooter", "is_reserved": 0, "lat": 38.920383333333334, "rental_uris": {"ios": "https://dc.lft.to/lastmile_qr_scan", "android": "https://dc.lft.to/lastmile_qr_scan"}, "fusion_lon": 0.0, "fusion_lat": 0.0, "bike_id": "7164f5ef940c8e4293cba0758ad355a6", "name": "7164f5ef940c8e4293cba0758ad355a6", "lon": -76.9992345}, {"is_disabled": 0, "type": "electric_bike", "is_reserved": 0, "lat": 38.83158366666667, "rental_uris": {"ios": "https://dc.lft.to/lastmile_qr_scan", "android": "https://dc.lft.to/lastmile_qr_scan"}, "fusion_lon": 0.0, "fusion_lat": 0.0, "bike_id": "a7cacce37b52b8e6f0005635d8a5d394", "name": "a7cacce37b52b8e6f0005635d8a5d394", "lon": -77.11319216666666}, {"is_disabled": 0, "type": "electric_scooter", "is_reserved": 0, "lat": 38.90798766666666, "rental_uris": {"ios": "https://dc.lft.to/lastmile_qr_scan", "android": "https://dc.lft.to/lastmile_qr_scan"}, "fusion_lon": 0.0, "fusion_lat": 0.0, "bike_id": "2d1db48cf3ec3200d6783be1ede84d25", "name": "2d1db48cf3ec3200d6783be1ede84d25", "lon": -77.04834316666667}, {"is_disabled": 0, "type": "electric_scooter", "is_reserved": 0, "lat": 38.928186, "rental_uris": {"ios": "https://dc.lft.to/lastmile_qr_scan", "android": "https://dc.lft.to/lastmile_qr_scan"}, "fusion_lon": 0.0, "fusion_lat": 0.0, "bike_id": "ac25191d18a23591105679feeb15f818", "name": "ac25191d18a23591105679feeb15f818", "lon": -77.01411816666666}, {"is_disabled": 0, "type": "electric_scooter", "is_reserved": 0, "lat": 38.89222916666667, "rental_uris": {"ios": "https://dc.lft.to/lastmile_qr_scan", "android": "https://dc.lft.to/lastmile_qr_scan"}, "fusion_lon": 0.0, "fusion_lat": 0.0, "bike_id": "c7b362537c25081cfa099dcc9b677a34", "name": "c7b362537c25081cfa099dcc9b677a34", "lon": -77.0486565}, {"is_disabled": 0, "type": "electric_scooter", "is_reserved": 0, "lat": 38.92261583333333, "rental_uris": {"ios": "https://dc.lft.to/lastmile_qr_scan", "android": "https://dc.lft.to/lastmile_qr_scan"}, "fusion_lon": 0.0, "fusion_lat": 0.0, "bike_id": "7e239f1f80f2bb4ccd2ae505d3b4087b", "name": "7e239f1f80f2bb4ccd2ae505d3b4087b", "lon": -77.0189215}, {"is_disabled": 0, "type": "electric_scooter", "is_reserved": 0, "lat": 38.90714333333333, "rental_uris": {"ios": "https://dc.lft.to/lastmile_qr_scan", "android": "https://dc.lft.to/lastmile_qr_scan"}, "fusion_lon": 0.0, "fusion_lat": 0.0, "bike_id": "052595786848fe3653f3b72f37dcf235", "name": "052595786848fe3653f3b72f37dcf235", "lon": -77.02391066666667}, {"is_disabled": 0, "type": "electric_scooter", "is_reserved": 0, "lat": 38.906267666666665, "rental_uris": {"ios": "https://dc.lft.to/lastmile_qr_scan", "android": "https://dc.lft.to/lastmile_qr_scan"}, "fusion_lon": 0.0, "fusion_lat": 0.0, "bike_id": "210abd1aa57bb4c55f4889a25b2faf6d", "name": "210abd1aa57bb4c55f4889a25b2faf6d", "lon": -77.03465833333334}, {"is_disabled": 0, "type": "electric_scooter", "is_reserved": 0, "lat": 38.90311833333333, "rental_uris": {"ios": "https://dc.lft.to/lastmile_qr_scan", "android": "https://dc.lft.to/lastmile_qr_scan"}, "fusion_lon": 0.0, "fusion_lat": 0.0, "bike_id": "a592efc21cb1cc87c311feeda8fdd7a4", "name": "a592efc21cb1cc87c311feeda8fdd7a4", "lon": -77.0590635}, {"is_disabled": 0, "type": "electric_scooter", "is_reserved": 0, "lat": 38.923716666666664, "rental_uris": {"ios": "https://dc.lft.to/lastmile_qr_scan", "android": "https://dc.lft.to/lastmile_qr_scan"}, "fusion_lon": 0.0, "fusion_lat": 0.0, "bike_id": "9c5e5390008ca5d5e36d491040ee5fff", "name": "9c5e5390008ca5d5e36d491040ee5fff", "lon": -77.0313395}, {"is_disabled": 0, "type": "electric_scooter", "is_reserved": 0, "lat": 38.905650333333334, "rental_uris": {"ios": "https://dc.lft.to/lastmile_qr_scan", "android": "https://dc.lft.to/lastmile_qr_scan"}, "fusion_lon": 0.0, "fusion_lat": 0.0, "bike_id": "30d2b39faffe0487ffb9aaa0d762de64", "name": "30d2b39faffe0487ffb9aaa0d762de64", "lon": -77.005916}, {"is_disabled": 0, "type": "electric_bike", "is_reserved": 0, "lat": 38.924629, "rental_uris": {"ios": "https://dc.lft.to/lastmile_qr_scan", "android": "https://dc.lft.to/lastmile_qr_scan"}, "fusion_lon": 0.0, "fusion_lat": 0.0, "bike_id": "db2e26425cee961be4e4bf3a27dc1187", "name": "db2e26425cee961be4e4bf3a27dc1187", "lon": -77.20842433333334}, {"is_disabled": 0, "type": "electric_scooter", "is_reserved": 0, "lat": 38.93575233333333, "rental_uris": {"ios": "https://dc.lft.to/lastmile_qr_scan", "android": "https://dc.lft.to/lastmile_qr_scan"}, "fusion_lon": 0.0, "fusion_lat": 0.0, "bike_id": "28c1e4fc750df3aba52a9544f3e21486", "name": "28c1e4fc750df3aba52a9544f3e21486", "lon": -77.03729466666667}, {"is_disabled": 0, "type": "electric_scooter", "is_reserved": 0, "lat": 38.86416066666666, "rental_uris": {"ios": "https://dc.lft.to/lastmile_qr_scan", "android": "https://dc.lft.to/lastmile_qr_scan"}, "fusion_lon": 0.0, "fusion_lat": 0.0, "bike_id": "e36c1175b326bb3f8bc262be08cc0e7f", "name": "e36c1175b326bb3f8bc262be08cc0e7f", "lon": -76.98996166666667}, {"is_disabled": 0, "type": "electric_scooter", "is_reserved": 0, "lat": 38.91048516666667, "rental_uris": {"ios": "https://dc.lft.to/lastmile_qr_scan", "android": "https://dc.lft.to/lastmile_qr_scan"}, "fusion_lon": 0.0, "fusion_lat": 0.0, "bike_id": "741c2e79a25749c3cfc3dff5364881c3", "name": "741c2e79a25749c3cfc3dff5364881c3", "lon": -77.05843716666666}, {"is_disabled": 0, "type": "electric_scooter", "is_reserved": 0, "lat": 38.9358985, "rental_uris": {"ios": "https://dc.lft.to/lastmile_qr_scan", "android": "https://dc.lft.to/lastmile_qr_scan"}, "fusion_lon": 0.0, "fusion_lat": 0.0, "bike_id": "50d0c4a161ca9c0f2d46732a7b1f4b97", "name": "50d0c4a161ca9c0f2d46732a7b1f4b97", "lon": -77.05851883333334}, {"is_disabled": 0, "type": "electric_scooter", "is_reserved": 0, "lat": 38.91123133333333, "rental_uris": {"ios": "https://dc.lft.to/lastmile_qr_scan", "android": "https://dc.lft.to/lastmile_qr_scan"}, "fusion_lon": 0.0, "fusion_lat": 0.0, "bike_id": "69604a3be9bb7f35b9362ae261280359", "name": "69604a3be9bb7f35b9362ae261280359", "lon": -77.0269295}, {"is_disabled": 0, "type": "electric_scooter", "is_reserved": 0, "lat": 38.914062333333334, "rental_uris": {"ios": "https://dc.lft.to/lastmile_qr_scan", "android": "https://dc.lft.to/lastmile_qr_scan"}, "fusion_lon": 0.0, "fusion_lat": 0.0, "bike_id": "37f2075b81983bf882773281b993def3", "name": "37f2075b81983bf882773281b993def3", "lon": -77.03226683333334}, {"is_disabled": 0, "type": "electric_scooter", "is_reserved": 0, "lat": 38.919278, "rental_uris": {"ios": "https://dc.lft.to/lastmile_qr_scan", "android": "https://dc.lft.to/lastmile_qr_scan"}, "fusion_lon": 0.0, "fusion_lat": 0.0, "bike_id": "e428260a2eec72d4a1bff11ac96145ab", "name": "e428260a2eec72d4a1bff11ac96145ab", "lon": -77.04494783333334}, {"is_disabled": 0, "type": "electric_scooter", "is_reserved": 0, "lat": 38.91697466666667, "rental_uris": {"ios": "https://dc.lft.to/lastmile_qr_scan", "android": "https://dc.lft.to/lastmile_qr_scan"}, "fusion_lon": 0.0, "fusion_lat": 0.0, "bike_id": "752cefb91af8c96f053b500693177a93", "name": "752cefb91af8c96f053b500693177a93", "lon": -77.03497433333334}, {"is_disabled": 0, "type": "electric_scooter", "is_reserved": 0, "lat": 38.87268266666667, "rental_uris": {"ios": "https://dc.lft.to/lastmile_qr_scan", "android": "https://dc.lft.to/lastmile_qr_scan"}, "fusion_lon": 0.0, "fusion_lat": 0.0, "bike_id": "75c61b4b4f85e607ea3b1cff7b344b48", "name": "75c61b4b4f85e607ea3b1cff7b344b48", "lon": -77.017551}, {"is_disabled": 0, "type": "electric_scooter", "is_reserved": 0, "lat": 38.899099, "rental_uris": {"ios": "https://dc.lft.to/lastmile_qr_scan", "android": "https://dc.lft.to/lastmile_qr_scan"}, "fusion_lon": 0.0, "fusion_lat": 0.0, "bike_id": "3b711e79e42d5c2f155563a1122b21e5", "name": "3b711e79e42d5c2f155563a1122b21e5", "lon": -76.933501}, {"is_disabled": 0, "type": "electric_scooter", "is_reserved": 0, "lat": 38.91264866666667, "rental_uris": {"ios": "https://dc.lft.to/lastmile_qr_scan", "android": "https://dc.lft.to/lastmile_qr_scan"}, "fusion_lon": 0.0, "fusion_lat": 0.0, "bike_id": "cd730e2ee3f9683c89ef7c73cd92a8c5", "name": "cd730e2ee3f9683c89ef7c73cd92a8c5", "lon": -77.04396516666667}, {"is_disabled": 0, "type": "electric_scooter", "is_reserved": 0, "lat": 38.880606666666665, "rental_uris": {"ios": "https://dc.lft.to/lastmile_qr_scan", "android": "https://dc.lft.to/lastmile_qr_scan"}, "fusion_lon": 0.0, "fusion_lat": 0.0, "bike_id": "b9cb44122d09b484331793b8ff4fbdd6", "name": "b9cb44122d09b484331793b8ff4fbdd6", "lon": -77.02560666666666}, {"is_disabled": 0, "type": "electric_scooter", "is_reserved": 0, "lat": 38.8749835, "rental_uris": {"ios": "https://dc.lft.to/lastmile_qr_scan", "android": "https://dc.lft.to/lastmile_qr_scan"}, "fusion_lon": 0.0, "fusion_lat": 0.0, "bike_id": "d10d21f1a3d4a0cf09925a0a4d5e52f2", "name": "d10d21f1a3d4a0cf09925a0a4d5e52f2", "lon": -77.0175785}, {"is_disabled": 0, "type": "electric_scooter", "is_reserved": 0, "lat": 38.923353666666664, "rental_uris": {"ios": "https://dc.lft.to/lastmile_qr_scan", "android": "https://dc.lft.to/lastmile_qr_scan"}, "fusion_lon": 0.0, "fusion_lat": 0.0, "bike_id": "a2cbaea2bfc84c8b509d47a9f0ea9b4e", "name": "a2cbaea2bfc84c8b509d47a9f0ea9b4e", "lon": -77.050983}, {"is_disabled": 0, "type": "electric_scooter", "is_reserved": 0, "lat": 38.898197333333336, "rental_uris": {"ios": "https://dc.lft.to/lastmile_qr_scan", "android": "https://dc.lft.to/lastmile_qr_scan"}, "fusion_lon": 0.0, "fusion_lat": 0.0, "bike_id": "3dd617c1558a2a49a49eaf0b3ed71dea", "name": "3dd617c1558a2a49a49eaf0b3ed71dea", "lon": -77.02662416666666}, {"is_disabled": 0, "type": "electric_scooter", "is_reserved": 0, "lat": 38.918184333333336, "rental_uris": {"ios": "https://dc.lft.to/lastmile_qr_scan", "android": "https://dc.lft.to/lastmile_qr_scan"}, "fusion_lon": 0.0, "fusion_lat": 0.0, "bike_id": "2818aefd911e538e16b43e6a9b858bc1", "name": "2818aefd911e538e16b43e6a9b858bc1", "lon": -77.03863283333334}, {"is_disabled": 0, "type": "electric_scooter", "is_reserved": 0, "lat": 38.9105635, "rental_uris": {"ios": "https://dc.lft.to/lastmile_qr_scan", "android": "https://dc.lft.to/lastmile_qr_scan"}, "fusion_lon": 0.0, "fusion_lat": 0.0, "bike_id": "4c98c72d157160b5d6a5b5135325d583", "name": "4c98c72d157160b5d6a5b5135325d583", "lon": -77.02179566666666}, {"is_disabled": 0, "type": "electric_scooter", "is_reserved": 0, "lat": 38.900614166666664, "rental_uris": {"ios": "https://dc.lft.to/lastmile_qr_scan", "android": "https://dc.lft.to/lastmile_qr_scan"}, "fusion_lon": 0.0, "fusion_lat": 0.0, "bike_id": "c9077da3649c6625cf26c6d93cad896b", "name": "c9077da3649c6625cf26c6d93cad896b", "lon": -77.03511066666667}, {"is_disabled": 0, "type": "electric_scooter", "is_reserved": 0, "lat": 38.9198805, "rental_uris": {"ios": "https://dc.lft.to/lastmile_qr_scan", "android": "https://dc.lft.to/lastmile_qr_scan"}, "fusion_lon": 0.0, "fusion_lat": 0.0, "bike_id": "26dbc1c3b8253cfc5e16caf8a500239d", "name": "26dbc1c3b8253cfc5e16caf8a500239d", "lon": -77.02171183333333}, {"is_disabled": 0, "type": "electric_scooter", "is_reserved": 0, "lat": 38.911935666666665, "rental_uris": {"ios": "https://dc.lft.to/lastmile_qr_scan", "android": "https://dc.lft.to/lastmile_qr_scan"}, "fusion_lon": 0.0, "fusion_lat": 0.0, "bike_id": "881464824ff338aaa94e77aa176b208e", "name": "881464824ff338aaa94e77aa176b208e", "lon": -77.00710216666667}, {"is_disabled": 0, "type": "electric_scooter", "is_reserved": 0, "lat": 38.92367183333333, "rental_uris": {"ios": "https://dc.lft.to/lastmile_qr_scan", "android": "https://dc.lft.to/lastmile_qr_scan"}, "fusion_lon": 0.0, "fusion_lat": 0.0, "bike_id": "286bb852ff74016582648d6f3e0052f4", "name": "286bb852ff74016582648d6f3e0052f4", "lon": -77.0181955}, {"is_disabled": 0, "type": "electric_scooter", "is_reserved": 0, "lat": 38.91492133333333, "rental_uris": {"ios": "https://dc.lft.to/lastmile_qr_scan", "android": "https://dc.lft.to/lastmile_qr_scan"}, "fusion_lon": 0.0, "fusion_lat": 0.0, "bike_id": "c803daffc6c133b2a8c16769e17d73ae", "name": "c803daffc6c133b2a8c16769e17d73ae", "lon": -77.0185655}, {"is_disabled": 0, "type": "electric_bike", "is_reserved": 0, "lat": 38.99592583333333, "rental_uris": {"ios": "https://dc.lft.to/lastmile_qr_scan", "android": "https://dc.lft.to/lastmile_qr_scan"}, "fusion_lon": 0.0, "fusion_lat": 0.0, "bike_id": "d71bab74c78ee5260aba086119addab7", "name": "d71bab74c78ee5260aba086119addab7", "lon": -77.00770133333333}, {"is_disabled": 0, "type": "electric_scooter", "is_reserved": 0, "lat": 38.9001405, "rental_uris": {"ios": "https://dc.lft.to/lastmile_qr_scan", "android": "https://dc.lft.to/lastmile_qr_scan"}, "fusion_lon": 0.0, "fusion_lat": 0.0, "bike_id": "9bcbaea875a5bd4fc681594c5de9ae57", "name": "9bcbaea875a5bd4fc681594c5de9ae57", "lon": -77.00683416666666}, {"is_disabled": 0, "type": "electric_scooter", "is_reserved": 0, "lat": 38.887417666666664, "rental_uris": {"ios": "https://dc.lft.to/lastmile_qr_scan", "android": "https://dc.lft.to/lastmile_qr_scan"}, "fusion_lon": 0.0, "fusion_lat": 0.0, "bike_id": "c5583502b57bb45a22f90b87e343e464", "name": "c5583502b57bb45a22f90b87e343e464", "lon": -77.01532016666667}, {"is_disabled": 0, "type": "electric_scooter", "is_reserved": 0, "lat": 38.898194833333335, "rental_uris": {"ios": "https://dc.lft.to/lastmile_qr_scan", "android": "https://dc.lft.to/lastmile_qr_scan"}, "fusion_lon": 0.0, "fusion_lat": 0.0, "bike_id": "c98d266fac8766ddb88f0028c1fe9d18", "name": "c98d266fac8766ddb88f0028c1fe9d18", "lon": -77.02943583333334}, {"is_disabled": 0, "type": "electric_scooter", "is_reserved": 0, "lat": 38.9341285, "rental_uris": {"ios": "https://dc.lft.to/lastmile_qr_scan", "android": "https://dc.lft.to/lastmile_qr_scan"}, "fusion_lon": 0.0, "fusion_lat": 0.0, "bike_id": "f281fb16d0f019d52aa7c0824241c843", "name": "f281fb16d0f019d52aa7c0824241c843", "lon": -77.04555016666667}, {"is_disabled": 0, "type": "electric_scooter", "is_reserved": 0, "lat": 38.91744966666667, "rental_uris": {"ios": "https://dc.lft.to/lastmile_qr_scan", "android": "https://dc.lft.to/lastmile_qr_scan"}, "fusion_lon": 0.0, "fusion_lat": 0.0, "bike_id": "77d47bfe1efcbf9513bbc712b8c7c018", "name": "77d47bfe1efcbf9513bbc712b8c7c018", "lon": -77.02367916666667}, {"is_disabled": 0, "type": "electric_scooter", "is_reserved": 0, "lat": 38.914062666666666, "rental_uris": {"ios": "https://dc.lft.to/lastmile_qr_scan", "android": "https://dc.lft.to/lastmile_qr_scan"}, "fusion_lon": 0.0, "fusion_lat": 0.0, "bike_id": "4b05eff89e32d88591963c8f88990559", "name": "4b05eff89e32d88591963c8f88990559", "lon": -77.0457165}, {"is_disabled": 0, "type": "electric_scooter", "is_reserved": 0, "lat": 38.916864, "rental_uris": {"ios": "https://dc.lft.to/lastmile_qr_scan", "android": "https://dc.lft.to/lastmile_qr_scan"}, "fusion_lon": 0.0, "fusion_lat": 0.0, "bike_id": "1ebdfb81c4e438f37cd9a9cf2e49c11b", "name": "1ebdfb81c4e438f37cd9a9cf2e49c11b", "lon": -77.03772033333334}, {"is_disabled": 0, "type": "electric_scooter", "is_reserved": 0, "lat": 38.905593, "rental_uris": {"ios": "https://dc.lft.to/lastmile_qr_scan", "android": "https://dc.lft.to/lastmile_qr_scan"}, "fusion_lon": 0.0, "fusion_lat": 0.0, "bike_id": "6d8dfc0b17e00f85d30a6a2f3e78241f", "name": "6d8dfc0b17e00f85d30a6a2f3e78241f", "lon": -77.0418865}, {"is_disabled": 0, "type": "electric_scooter", "is_reserved": 0, "lat": 38.936087666666666, "rental_uris": {"ios": "https://dc.lft.to/lastmile_qr_scan", "android": "https://dc.lft.to/lastmile_qr_scan"}, "fusion_lon": 0.0, "fusion_lat": 0.0, "bike_id": "de9e26b8eeaff6512f8bb794648e4161", "name": "de9e26b8eeaff6512f8bb794648e4161", "lon": -77.05864633333333}, {"is_disabled": 0, "type": "electric_bike", "is_reserved": 0, "lat": 38.962076, "rental_uris": {"ios": "https://dc.lft.to/lastmile_qr_scan", "android": "https://dc.lft.to/lastmile_qr_scan"}, "fusion_lon": 0.0, "fusion_lat": 0.0, "bike_id": "63860a03ca59366b7d2930c4b48bac95", "name": "63860a03ca59366b7d2930c4b48bac95", "lon": -77.03512866666667}, {"is_disabled": 0, "type": "electric_scooter", "is_reserved": 0, "lat": 38.91659766666667, "rental_uris": {"ios": "https://dc.lft.to/lastmile_qr_scan", "android": "https://dc.lft.to/lastmile_qr_scan"}, "fusion_lon": 0.0, "fusion_lat": 0.0, "bike_id": "af8a52db10b9ddbdf84c6f9d54ecc6a2", "name": "af8a52db10b9ddbdf84c6f9d54ecc6a2", "lon": -77.04744816666667}, {"is_disabled": 0, "type": "electric_scooter", "is_reserved": 0, "lat": 38.91372166666667, "rental_uris": {"ios": "https://dc.lft.to/lastmile_qr_scan", "android": "https://dc.lft.to/lastmile_qr_scan"}, "fusion_lon": 0.0, "fusion_lat": 0.0, "bike_id": "b13828f2829c08f096bd285ee6d2a7f2", "name": "b13828f2829c08f096bd285ee6d2a7f2", "lon": -77.04491233333333}, {"is_disabled": 0, "type": "electric_scooter", "is_reserved": 0, "lat": 38.904408, "rental_uris": {"ios": "https://dc.lft.to/lastmile_qr_scan", "android": "https://dc.lft.to/lastmile_qr_scan"}, "fusion_lon": 0.0, "fusion_lat": 0.0, "bike_id": "6cff0baccadb921ae3752b29e4aa3a0d", "name": "6cff0baccadb921ae3752b29e4aa3a0d", "lon": -76.979146}, {"is_disabled": 0, "type": "electric_scooter", "is_reserved": 0, "lat": 38.93078383333334, "rental_uris": {"ios": "https://dc.lft.to/lastmile_qr_scan", "android": "https://dc.lft.to/lastmile_qr_scan"}, "fusion_lon": 0.0, "fusion_lat": 0.0, "bike_id": "739fe13f37c2a50147d52c9d2b4e8c7b", "name": "739fe13f37c2a50147d52c9d2b4e8c7b", "lon": -77.02810366666667}, {"is_disabled": 0, "type": "electric_scooter", "is_reserved": 0, "lat": 38.89219583333333, "rental_uris": {"ios": "https://dc.lft.to/lastmile_qr_scan", "android": "https://dc.lft.to/lastmile_qr_scan"}, "fusion_lon": 0.0, "fusion_lat": 0.0, "bike_id": "fb9dd1af2e9194279c0e4bdf262000d4", "name": "fb9dd1af2e9194279c0e4bdf262000d4", "lon": -77.00310716666667}, {"is_disabled": 0, "type": "electric_scooter", "is_reserved": 0, "lat": 38.89326166666667, "rental_uris": {"ios": "https://dc.lft.to/lastmile_qr_scan", "android": "https://dc.lft.to/lastmile_qr_scan"}, "fusion_lon": 0.0, "fusion_lat": 0.0, "bike_id": "9838b3831443e92ed14224b9b43cd1a5", "name": "9838b3831443e92ed14224b9b43cd1a5", "lon": -77.05585716666667}, {"is_disabled": 0, "type": "electric_scooter", "is_reserved": 0, "lat": 38.92611816666667, "rental_uris": {"ios": "https://dc.lft.to/lastmile_qr_scan", "android": "https://dc.lft.to/lastmile_qr_scan"}, "fusion_lon": 0.0, "fusion_lat": 0.0, "bike_id": "f2c1644283f0d200d046279bff80db36", "name": "f2c1644283f0d200d046279bff80db36", "lon": -77.02162633333333}, {"is_disabled": 0, "type": "electric_scooter", "is_reserved": 0, "lat": 38.909618333333334, "rental_uris": {"ios": "https://dc.lft.to/lastmile_qr_scan", "android": "https://dc.lft.to/lastmile_qr_scan"}, "fusion_lon": 0.0, "fusion_lat": 0.0, "bike_id": "1cfe132dec358fc65a6cb3414a987f44", "name": "1cfe132dec358fc65a6cb3414a987f44", "lon": -77.04620566666667}, {"is_disabled": 0, "type": "electric_scooter", "is_reserved": 0, "lat": 38.86659316666667, "rental_uris": {"ios": "https://dc.lft.to/lastmile_qr_scan", "android": "https://dc.lft.to/lastmile_qr_scan"}, "fusion_lon": 0.0, "fusion_lat": 0.0, "bike_id": "40f8936731924c9e71d2c6b1d8de7467", "name": "40f8936731924c9e71d2c6b1d8de7467", "lon": -76.98890566666667}, {"is_disabled": 0, "type": "electric_scooter", "is_reserved": 0, "lat": 38.87998416666667, "rental_uris": {"ios": "https://dc.lft.to/lastmile_qr_scan", "android": "https://dc.lft.to/lastmile_qr_scan"}, "fusion_lon": 0.0, "fusion_lat": 0.0, "bike_id": "737f4379b6230becb81d02a4eb5fc2aa", "name": "737f4379b6230becb81d02a4eb5fc2aa", "lon": -76.98542366666666}, {"is_disabled": 0, "type": "electric_scooter", "is_reserved": 0, "lat": 38.90503983333333, "rental_uris": {"ios": "https://dc.lft.to/lastmile_qr_scan", "android": "https://dc.lft.to/lastmile_qr_scan"}, "fusion_lon": 0.0, "fusion_lat": 0.0, "bike_id": "eb4f17e824c8aa48263cdfd88bcf7d35", "name": "eb4f17e824c8aa48263cdfd88bcf7d35", "lon": -77.051245}, {"is_disabled": 0, "type": "electric_scooter", "is_reserved": 0, "lat": 38.87631616666667, "rental_uris": {"ios": "https://dc.lft.to/lastmile_qr_scan", "android": "https://dc.lft.to/lastmile_qr_scan"}, "fusion_lon": 0.0, "fusion_lat": 0.0, "bike_id": "6e56e696f20e6dfd9355d865233a931e", "name": "6e56e696f20e6dfd9355d865233a931e", "lon": -77.00462116666667}, {"is_disabled": 0, "type": "electric_scooter", "is_reserved": 0, "lat": 38.915971, "rental_uris": {"ios": "https://dc.lft.to/lastmile_qr_scan", "android": "https://dc.lft.to/lastmile_qr_scan"}, "fusion_lon": 0.0, "fusion_lat": 0.0, "bike_id": "9c457295d9312b23d11e6c2d25f0ae3a", "name": "9c457295d9312b23d11e6c2d25f0ae3a", "lon": -77.0416025}, {"is_disabled": 0, "type": "electric_scooter", "is_reserved": 0, "lat": 38.9234555, "rental_uris": {"ios": "https://dc.lft.to/lastmile_qr_scan", "android": "https://dc.lft.to/lastmile_qr_scan"}, "fusion_lon": 0.0, "fusion_lat": 0.0, "bike_id": "33979be0f9b13fd507e8123ea1fa3e00", "name": "33979be0f9b13fd507e8123ea1fa3e00", "lon": -77.0512175}, {"is_disabled": 0, "type": "electric_bike", "is_reserved": 0, "lat": 38.87168166666667, "rental_uris": {"ios": "https://dc.lft.to/lastmile_qr_scan", "android": "https://dc.lft.to/lastmile_qr_scan"}, "fusion_lon": 0.0, "fusion_lat": 0.0, "bike_id": "27a3d3a7528241ce8f7b3dbfd1751221", "name": "27a3d3a7528241ce8f7b3dbfd1751221", "lon": -77.01283116666667}, {"is_disabled": 0, "type": "electric_scooter", "is_reserved": 0, "lat": 38.933815, "rental_uris": {"ios": "https://dc.lft.to/lastmile_qr_scan", "android": "https://dc.lft.to/lastmile_qr_scan"}, "fusion_lon": 0.0, "fusion_lat": 0.0, "bike_id": "838024fd5b74293adc4401e4063dd94e", "name": "838024fd5b74293adc4401e4063dd94e", "lon": -77.057643}, {"is_disabled": 0, "type": "electric_scooter", "is_reserved": 0, "lat": 38.911894, "rental_uris": {"ios": "https://dc.lft.to/lastmile_qr_scan", "android": "https://dc.lft.to/lastmile_qr_scan"}, "fusion_lon": 0.0, "fusion_lat": 0.0, "bike_id": "f78b497a1ed46590e0e395678a4b0d08", "name": "f78b497a1ed46590e0e395678a4b0d08", "lon": -77.0324915}, {"is_disabled": 0, "type": "electric_scooter", "is_reserved": 0, "lat": 38.90337683333333, "rental_uris": {"ios": "https://dc.lft.to/lastmile_qr_scan", "android": "https://dc.lft.to/lastmile_qr_scan"}, "fusion_lon": 0.0, "fusion_lat": 0.0, "bike_id": "f6fb8577dee7f37abbe1b4951cf450b8", "name": "f6fb8577dee7f37abbe1b4951cf450b8", "lon": -77.04442}, {"is_disabled": 0, "type": "electric_scooter", "is_reserved": 0, "lat": 38.886633333333336, "rental_uris": {"ios": "https://dc.lft.to/lastmile_qr_scan", "android": "https://dc.lft.to/lastmile_qr_scan"}, "fusion_lon": 0.0, "fusion_lat": 0.0, "bike_id": "09c28a47eb0203c042d459a855afbef9", "name": "09c28a47eb0203c042d459a855afbef9", "lon": -77.0338425}, {"is_disabled": 0, "type": "electric_scooter", "is_reserved": 0, "lat": 38.93891833333333, "rental_uris": {"ios": "https://dc.lft.to/lastmile_qr_scan", "android": "https://dc.lft.to/lastmile_qr_scan"}, "fusion_lon": 0.0, "fusion_lat": 0.0, "bike_id": "4638e16aa6447580d38dc1dfdc3305e3", "name": "4638e16aa6447580d38dc1dfdc3305e3", "lon": -77.02461433333333}, {"is_disabled": 0, "type": "electric_scooter", "is_reserved": 0, "lat": 38.90966383333333, "rental_uris": {"ios": "https://dc.lft.to/lastmile_qr_scan", "android": "https://dc.lft.to/lastmile_qr_scan"}, "fusion_lon": 0.0, "fusion_lat": 0.0, "bike_id": "2f89fccc48e18c348cbc3891fc35726d", "name": "2f89fccc48e18c348cbc3891fc35726d", "lon": -77.04820483333333}, {"is_disabled": 0, "type": "electric_scooter", "is_reserved": 0, "lat": 38.911842166666666, "rental_uris": {"ios": "https://dc.lft.to/lastmile_qr_scan", "android": "https://dc.lft.to/lastmile_qr_scan"}, "fusion_lon": 0.0, "fusion_lat": 0.0, "bike_id": "d52f1386a07f6c1398209fcba7ce0229", "name": "d52f1386a07f6c1398209fcba7ce0229", "lon": -77.0055555}, {"is_disabled": 0, "type": "electric_bike", "is_reserved": 0, "lat": 38.893540333333334, "rental_uris": {"ios": "https://dc.lft.to/lastmile_qr_scan", "android": "https://dc.lft.to/lastmile_qr_scan"}, "fusion_lon": 0.0, "fusion_lat": 0.0, "bike_id": "ab1e90fddb0e7fd2726c3d809396cb2f", "name": "ab1e90fddb0e7fd2726c3d809396cb2f", "lon": -77.18741933333334}, {"is_disabled": 0, "type": "electric_scooter", "is_reserved": 0, "lat": 38.91118, "rental_uris": {"ios": "https://dc.lft.to/lastmile_qr_scan", "android": "https://dc.lft.to/lastmile_qr_scan"}, "fusion_lon": 0.0, "fusion_lat": 0.0, "bike_id": "744078e78c71bd57d741178eaac61481", "name": "744078e78c71bd57d741178eaac61481", "lon": -77.0422925}, {"is_disabled": 0, "type": "electric_bike", "is_reserved": 0, "lat": 38.949251333333336, "rental_uris": {"ios": "https://dc.lft.to/lastmile_qr_scan", "android": "https://dc.lft.to/lastmile_qr_scan"}, "fusion_lon": 0.0, "fusion_lat": 0.0, "bike_id": "c441c18fc0f30aaa0f6bf272e08e8da4", "name": "c441c18fc0f30aaa0f6bf272e08e8da4", "lon": -77.0079575}, {"is_disabled": 0, "type": "electric_scooter", "is_reserved": 0, "lat": 38.90836783333334, "rental_uris": {"ios": "https://dc.lft.to/lastmile_qr_scan", "android": "https://dc.lft.to/lastmile_qr_scan"}, "fusion_lon": 0.0, "fusion_lat": 0.0, "bike_id": "aff9d2e1171f522e43e239e41d13d30e", "name": "aff9d2e1171f522e43e239e41d13d30e", "lon": -77.021914}, {"is_disabled": 0, "type": "electric_scooter", "is_reserved": 0, "lat": 38.8921955, "rental_uris": {"ios": "https://dc.lft.to/lastmile_qr_scan", "android": "https://dc.lft.to/lastmile_qr_scan"}, "fusion_lon": 0.0, "fusion_lat": 0.0, "bike_id": "6b121baf2307c9aa639e48b155b46a98", "name": "6b121baf2307c9aa639e48b155b46a98", "lon": -77.04368266666667}, {"is_disabled": 0, "type": "electric_bike", "is_reserved": 0, "lat": 39.01567416666666, "rental_uris": {"ios": "https://dc.lft.to/lastmile_qr_scan", "android": "https://dc.lft.to/lastmile_qr_scan"}, "fusion_lon": 0.0, "fusion_lat": 0.0, "bike_id": "345f8888f627ace21b84dbf8bc4818de", "name": "345f8888f627ace21b84dbf8bc4818de", "lon": -77.04414633333333}, {"is_disabled": 0, "type": "electric_scooter", "is_reserved": 0, "lat": 38.877217, "rental_uris": {"ios": "https://dc.lft.to/lastmile_qr_scan", "android": "https://dc.lft.to/lastmile_qr_scan"}, "fusion_lon": 0.0, "fusion_lat": 0.0, "bike_id": "bbf8810bb19244775ab2ab57120615d8", "name": "bbf8810bb19244775ab2ab57120615d8", "lon": -77.01760583333333}, {"is_disabled": 0, "type": "electric_scooter", "is_reserved": 0, "lat": 38.922481166666664, "rental_uris": {"ios": "https://dc.lft.to/lastmile_qr_scan", "android": "https://dc.lft.to/lastmile_qr_scan"}, "fusion_lon": 0.0, "fusion_lat": 0.0, "bike_id": "21fa6b8a5e5eb094687af297965abc3c", "name": "21fa6b8a5e5eb094687af297965abc3c", "lon": -77.03069966666666}, {"is_disabled": 0, "type": "electric_scooter", "is_reserved": 0, "lat": 38.9155595, "rental_uris": {"ios": "https://dc.lft.to/lastmile_qr_scan", "android": "https://dc.lft.to/lastmile_qr_scan"}, "fusion_lon": 0.0, "fusion_lat": 0.0, "bike_id": "4bbd43fe4f62e70401ed0937706b173e", "name": "4bbd43fe4f62e70401ed0937706b173e", "lon": -77.03122166666667}, {"is_disabled": 0, "type": "electric_scooter", "is_reserved": 0, "lat": 38.90038066666666, "rental_uris": {"ios": "https://dc.lft.to/lastmile_qr_scan", "android": "https://dc.lft.to/lastmile_qr_scan"}, "fusion_lon": 0.0, "fusion_lat": 0.0, "bike_id": "0928b5565754c1bcbc21abc23db88168", "name": "0928b5565754c1bcbc21abc23db88168", "lon": -76.993728}, {"is_disabled": 0, "type": "electric_scooter", "is_reserved": 0, "lat": 38.913327333333335, "rental_uris": {"ios": "https://dc.lft.to/lastmile_qr_scan", "android": "https://dc.lft.to/lastmile_qr_scan"}, "fusion_lon": 0.0, "fusion_lat": 0.0, "bike_id": "c2b9465375d51ee71db1a54ea33c1bb8", "name": "c2b9465375d51ee71db1a54ea33c1bb8", "lon": -77.04277666666667}, {"is_disabled": 0, "type": "electric_bike", "is_reserved": 0, "lat": 38.918818333333334, "rental_uris": {"ios": "https://dc.lft.to/lastmile_qr_scan", "android": "https://dc.lft.to/lastmile_qr_scan"}, "fusion_lon": 0.0, "fusion_lat": 0.0, "bike_id": "71dc04a288e3390f3cd7156f2bd44a8c", "name": "71dc04a288e3390f3cd7156f2bd44a8c", "lon": -77.024913}, {"is_disabled": 0, "type": "electric_scooter", "is_reserved": 0, "lat": 38.9232505, "rental_uris": {"ios": "https://dc.lft.to/lastmile_qr_scan", "android": "https://dc.lft.to/lastmile_qr_scan"}, "fusion_lon": 0.0, "fusion_lat": 0.0, "bike_id": "55638f6f68bee00e6ccb521f4c310dfe", "name": "55638f6f68bee00e6ccb521f4c310dfe", "lon": -77.02969633333333}, {"is_disabled": 0, "type": "electric_scooter", "is_reserved": 0, "lat": 38.900682, "rental_uris": {"ios": "https://dc.lft.to/lastmile_qr_scan", "android": "https://dc.lft.to/lastmile_qr_scan"}, "fusion_lon": 0.0, "fusion_lat": 0.0, "bike_id": "121093c6138d6bf42555542e749753a6", "name": "121093c6138d6bf42555542e749753a6", "lon": -77.0482285}, {"is_disabled": 0, "type": "electric_scooter", "is_reserved": 0, "lat": 38.91807466666667, "rental_uris": {"ios": "https://dc.lft.to/lastmile_qr_scan", "android": "https://dc.lft.to/lastmile_qr_scan"}, "fusion_lon": 0.0, "fusion_lat": 0.0, "bike_id": "f229bb62c00ebb5c83e43f9cf11af28f", "name": "f229bb62c00ebb5c83e43f9cf11af28f", "lon": -77.02710433333333}, {"is_disabled": 0, "type": "electric_scooter", "is_reserved": 0, "lat": 38.926438166666664, "rental_uris": {"ios": "https://dc.lft.to/lastmile_qr_scan", "android": "https://dc.lft.to/lastmile_qr_scan"}, "fusion_lon": 0.0, "fusion_lat": 0.0, "bike_id": "8d2df334c4e5bdaad0a426dfa1dc0e3e", "name": "8d2df334c4e5bdaad0a426dfa1dc0e3e", "lon": -77.03704116666667}, {"is_disabled": 0, "type": "electric_scooter", "is_reserved": 0, "lat": 38.936051166666665, "rental_uris": {"ios": "https://dc.lft.to/lastmile_qr_scan", "android": "https://dc.lft.to/lastmile_qr_scan"}, "fusion_lon": 0.0, "fusion_lat": 0.0, "bike_id": "80f46ae45d1a1872ccb051ed9d2cf638", "name": "80f46ae45d1a1872ccb051ed9d2cf638", "lon": -77.05858333333333}, {"is_disabled": 0, "type": "electric_scooter", "is_reserved": 0, "lat": 38.92366483333333, "rental_uris": {"ios": "https://dc.lft.to/lastmile_qr_scan", "android": "https://dc.lft.to/lastmile_qr_scan"}, "fusion_lon": 0.0, "fusion_lat": 0.0, "bike_id": "bb50e84d1ac4e4c8751e089304106d98", "name": "bb50e84d1ac4e4c8751e089304106d98", "lon": -77.02961983333333}, {"is_disabled": 0, "type": "electric_bike", "is_reserved": 0, "lat": 39.029348666666664, "rental_uris": {"ios": "https://dc.lft.to/lastmile_qr_scan", "android": "https://dc.lft.to/lastmile_qr_scan"}, "fusion_lon": 0.0, "fusion_lat": 0.0, "bike_id": "c9a8623ca2f4fbe196197b0834447fd5", "name": "c9a8623ca2f4fbe196197b0834447fd5", "lon": -77.04929766666666}, {"is_disabled": 0, "type": "electric_scooter", "is_reserved": 0, "lat": 38.92124233333333, "rental_uris": {"ios": "https://dc.lft.to/lastmile_qr_scan", "android": "https://dc.lft.to/lastmile_qr_scan"}, "fusion_lon": 0.0, "fusion_lat": 0.0, "bike_id": "e58fa26e06b1b0bce4fe8f1ac8f695e1", "name": "e58fa26e06b1b0bce4fe8f1ac8f695e1", "lon": -77.044247}, {"is_disabled": 0, "type": "electric_scooter", "is_reserved": 0, "lat": 38.905279, "rental_uris": {"ios": "https://dc.lft.to/lastmile_qr_scan", "android": "https://dc.lft.to/lastmile_qr_scan"}, "fusion_lon": 0.0, "fusion_lat": 0.0, "bike_id": "c76f16f946e0f51b5fe4ca45ae7f4311", "name": "c76f16f946e0f51b5fe4ca45ae7f4311", "lon": -77.04357433333334}, {"is_disabled": 0, "type": "electric_scooter", "is_reserved": 0, "lat": 38.931238, "rental_uris": {"ios": "https://dc.lft.to/lastmile_qr_scan", "android": "https://dc.lft.to/lastmile_qr_scan"}, "fusion_lon": 0.0, "fusion_lat": 0.0, "bike_id": "fb6921593e49b245eacbd622200b1ace", "name": "fb6921593e49b245eacbd622200b1ace", "lon": -77.02985833333334}, {"is_disabled": 0, "type": "electric_scooter", "is_reserved": 0, "lat": 38.90082366666667, "rental_uris": {"ios": "https://dc.lft.to/lastmile_qr_scan", "android": "https://dc.lft.to/lastmile_qr_scan"}, "fusion_lon": 0.0, "fusion_lat": 0.0, "bike_id": "47b3d885c302f0bb76502ebb80f31c47", "name": "47b3d885c302f0bb76502ebb80f31c47", "lon": -77.05041}, {"is_disabled": 0, "type": "electric_scooter", "is_reserved": 0, "lat": 38.908308166666664, "rental_uris": {"ios": "https://dc.lft.to/lastmile_qr_scan", "android": "https://dc.lft.to/lastmile_qr_scan"}, "fusion_lon": 0.0, "fusion_lat": 0.0, "bike_id": "00036b929162180eefcdc2221ff5b9b7", "name": "00036b929162180eefcdc2221ff5b9b7", "lon": -76.994585}, {"is_disabled": 0, "type": "electric_scooter", "is_reserved": 0, "lat": 38.91561866666667, "rental_uris": {"ios": "https://dc.lft.to/lastmile_qr_scan", "android": "https://dc.lft.to/lastmile_qr_scan"}, "fusion_lon": 0.0, "fusion_lat": 0.0, "bike_id": "b57d802e7d2a5e3e53a601acbdcc8e10", "name": "b57d802e7d2a5e3e53a601acbdcc8e10", "lon": -77.027252}, {"is_disabled": 0, "type": "electric_scooter", "is_reserved": 0, "lat": 38.895216833333336, "rental_uris": {"ios": "https://dc.lft.to/lastmile_qr_scan", "android": "https://dc.lft.to/lastmile_qr_scan"}, "fusion_lon": 0.0, "fusion_lat": 0.0, "bike_id": "240c4332aca4855e59b4c24fdd0df16f", "name": "240c4332aca4855e59b4c24fdd0df16f", "lon": -77.0434035}, {"is_disabled": 0, "type": "electric_bike", "is_reserved": 0, "lat": 38.9226645, "rental_uris": {"ios": "https://dc.lft.to/lastmile_qr_scan", "android": "https://dc.lft.to/lastmile_qr_scan"}, "fusion_lon": 0.0, "fusion_lat": 0.0, "bike_id": "f536312e2e33eda957f3cadc81077972", "name": "f536312e2e33eda957f3cadc81077972", "lon": -76.98152316666666}, {"is_disabled": 0, "type": "electric_scooter", "is_reserved": 0, "lat": 38.92182533333333, "rental_uris": {"ios": "https://dc.lft.to/lastmile_qr_scan", "android": "https://dc.lft.to/lastmile_qr_scan"}, "fusion_lon": 0.0, "fusion_lat": 0.0, "bike_id": "2256127dd286b3953f0e45b683f1779f", "name": "2256127dd286b3953f0e45b683f1779f", "lon": -77.04229983333333}, {"is_disabled": 0, "type": "electric_scooter", "is_reserved": 0, "lat": 38.892206333333334, "rental_uris": {"ios": "https://dc.lft.to/lastmile_qr_scan", "android": "https://dc.lft.to/lastmile_qr_scan"}, "fusion_lon": 0.0, "fusion_lat": 0.0, "bike_id": "0e3201b440ba23eea7b6d975ebfd81b4", "name": "0e3201b440ba23eea7b6d975ebfd81b4", "lon": -77.02219216666667}, {"is_disabled": 0, "type": "electric_scooter", "is_reserved": 0, "lat": 38.915625166666665, "rental_uris": {"ios": "https://dc.lft.to/lastmile_qr_scan", "android": "https://dc.lft.to/lastmile_qr_scan"}, "fusion_lon": 0.0, "fusion_lat": 0.0, "bike_id": "4a67d5aa08c9b3654db8dec326019160", "name": "4a67d5aa08c9b3654db8dec326019160", "lon": -77.03118566666667}, {"is_disabled": 0, "type": "electric_scooter", "is_reserved": 0, "lat": 38.911029166666665, "rental_uris": {"ios": "https://dc.lft.to/lastmile_qr_scan", "android": "https://dc.lft.to/lastmile_qr_scan"}, "fusion_lon": 0.0, "fusion_lat": 0.0, "bike_id": "6f2395ea53f9bb5954b7607a226f83fd", "name": "6f2395ea53f9bb5954b7607a226f83fd", "lon": -77.03197233333333}, {"is_disabled": 0, "type": "electric_scooter", "is_reserved": 0, "lat": 38.91519133333333, "rental_uris": {"ios": "https://dc.lft.to/lastmile_qr_scan", "android": "https://dc.lft.to/lastmile_qr_scan"}, "fusion_lon": 0.0, "fusion_lat": 0.0, "bike_id": "ead36cc39d020aa10c2f7e53dbb2e4c5", "name": "ead36cc39d020aa10c2f7e53dbb2e4c5", "lon": -77.048655}, {"is_disabled": 0, "type": "electric_scooter", "is_reserved": 0, "lat": 38.897824666666665, "rental_uris": {"ios": "https://dc.lft.to/lastmile_qr_scan", "android": "https://dc.lft.to/lastmile_qr_scan"}, "fusion_lon": 0.0, "fusion_lat": 0.0, "bike_id": "b3344fbb0571ef8a0dabc8c86cb5105a", "name": "b3344fbb0571ef8a0dabc8c86cb5105a", "lon": -77.0122155}, {"is_disabled": 0, "type": "electric_scooter", "is_reserved": 0, "lat": 38.88434566666667, "rental_uris": {"ios": "https://dc.lft.to/lastmile_qr_scan", "android": "https://dc.lft.to/lastmile_qr_scan"}, "fusion_lon": 0.0, "fusion_lat": 0.0, "bike_id": "a898e1c8213c6e2eb17495136c7e2c59", "name": "a898e1c8213c6e2eb17495136c7e2c59", "lon": -76.9575175}, {"is_disabled": 0, "type": "electric_scooter", "is_reserved": 0, "lat": 38.8936, "rental_uris": {"ios": "https://dc.lft.to/lastmile_qr_scan", "android": "https://dc.lft.to/lastmile_qr_scan"}, "fusion_lon": 0.0, "fusion_lat": 0.0, "bike_id": "905061b8353a7f99336aabd54af2f112", "name": "905061b8353a7f99336aabd54af2f112", "lon": -76.9496685}, {"is_disabled": 0, "type": "electric_scooter", "is_reserved": 0, "lat": 38.901682, "rental_uris": {"ios": "https://dc.lft.to/lastmile_qr_scan", "android": "https://dc.lft.to/lastmile_qr_scan"}, "fusion_lon": 0.0, "fusion_lat": 0.0, "bike_id": "11e53433769a51ece4cd411d1177509e", "name": "11e53433769a51ece4cd411d1177509e", "lon": -76.98078666666666}, {"is_disabled": 0, "type": "electric_bike", "is_reserved": 0, "lat": 38.928964, "rental_uris": {"ios": "https://dc.lft.to/lastmile_qr_scan", "android": "https://dc.lft.to/lastmile_qr_scan"}, "fusion_lon": 0.0, "fusion_lat": 0.0, "bike_id": "60003b64faf10d333823955c5f485a65", "name": "60003b64faf10d333823955c5f485a65", "lon": -77.1060315}, {"is_disabled": 0, "type": "electric_scooter", "is_reserved": 0, "lat": 38.90558566666667, "rental_uris": {"ios": "https://dc.lft.to/lastmile_qr_scan", "android": "https://dc.lft.to/lastmile_qr_scan"}, "fusion_lon": 0.0, "fusion_lat": 0.0, "bike_id": "ff9a47cc7ae4b5147419635a20e11bb0", "name": "ff9a47cc7ae4b5147419635a20e11bb0", "lon": -77.0346895}, {"is_disabled": 0, "type": "electric_scooter", "is_reserved": 0, "lat": 38.90307033333333, "rental_uris": {"ios": "https://dc.lft.to/lastmile_qr_scan", "android": "https://dc.lft.to/lastmile_qr_scan"}, "fusion_lon": 0.0, "fusion_lat": 0.0, "bike_id": "795a38553bc761a51bb8abcb87b9956a", "name": "795a38553bc761a51bb8abcb87b9956a", "lon": -77.01186516666667}, {"is_disabled": 0, "type": "electric_scooter", "is_reserved": 0, "lat": 38.915033, "rental_uris": {"ios": "https://dc.lft.to/lastmile_qr_scan", "android": "https://dc.lft.to/lastmile_qr_scan"}, "fusion_lon": 0.0, "fusion_lat": 0.0, "bike_id": "38634b574dd549e75e6e83d3362ca406", "name": "38634b574dd549e75e6e83d3362ca406", "lon": -77.04623816666667}, {"is_disabled": 0, "type": "electric_scooter", "is_reserved": 0, "lat": 38.908491833333336, "rental_uris": {"ios": "https://dc.lft.to/lastmile_qr_scan", "android": "https://dc.lft.to/lastmile_qr_scan"}, "fusion_lon": 0.0, "fusion_lat": 0.0, "bike_id": "6a5f2061c78e102e62e5d818dab20572", "name": "6a5f2061c78e102e62e5d818dab20572", "lon": -77.04496266666666}, {"is_disabled": 0, "type": "electric_scooter", "is_reserved": 0, "lat": 38.8442385, "rental_uris": {"ios": "https://dc.lft.to/lastmile_qr_scan", "android": "https://dc.lft.to/lastmile_qr_scan"}, "fusion_lon": 0.0, "fusion_lat": 0.0, "bike_id": "c3b487c3f8f5a51a0c16e457867adc3e", "name": "c3b487c3f8f5a51a0c16e457867adc3e", "lon": -76.99776516666667}, {"is_disabled": 0, "type": "electric_scooter", "is_reserved": 0, "lat": 38.9162485, "rental_uris": {"ios": "https://dc.lft.to/lastmile_qr_scan", "android": "https://dc.lft.to/lastmile_qr_scan"}, "fusion_lon": 0.0, "fusion_lat": 0.0, "bike_id": "cc80a28729f5098f41ae63e923bfdeb6", "name": "cc80a28729f5098f41ae63e923bfdeb6", "lon": -77.022926}, {"is_disabled": 0, "type": "electric_scooter", "is_reserved": 0, "lat": 38.90636, "rental_uris": {"ios": "https://dc.lft.to/lastmile_qr_scan", "android": "https://dc.lft.to/lastmile_qr_scan"}, "fusion_lon": 0.0, "fusion_lat": 0.0, "bike_id": "9eee4bf1a16ffa7f9d5604f8a3d5f385", "name": "9eee4bf1a16ffa7f9d5604f8a3d5f385", "lon": -77.07040983333333}, {"is_disabled": 0, "type": "electric_scooter", "is_reserved": 0, "lat": 38.9168955, "rental_uris": {"ios": "https://dc.lft.to/lastmile_qr_scan", "android": "https://dc.lft.to/lastmile_qr_scan"}, "fusion_lon": 0.0, "fusion_lat": 0.0, "bike_id": "84e4bd2efc3c1de5d0bd69cd642869c2", "name": "84e4bd2efc3c1de5d0bd69cd642869c2", "lon": -76.97943333333333}, {"is_disabled": 0, "type": "electric_scooter", "is_reserved": 0, "lat": 38.898806, "rental_uris": {"ios": "https://dc.lft.to/lastmile_qr_scan", "android": "https://dc.lft.to/lastmile_qr_scan"}, "fusion_lon": 0.0, "fusion_lat": 0.0, "bike_id": "1056da6deee25af5113a4261aee85bf5", "name": "1056da6deee25af5113a4261aee85bf5", "lon": -76.93197983333333}, {"is_disabled": 0, "type": "electric_bike", "is_reserved": 0, "lat": 38.87067533333333, "rental_uris": {"ios": "https://dc.lft.to/lastmile_qr_scan", "android": "https://dc.lft.to/lastmile_qr_scan"}, "fusion_lon": 0.0, "fusion_lat": 0.0, "bike_id": "a894319643413b1f4b632d4b8c5685bc", "name": "a894319643413b1f4b632d4b8c5685bc", "lon": -77.11077416666667}, {"is_disabled": 0, "type": "electric_scooter", "is_reserved": 0, "lat": 38.948182, "rental_uris": {"ios": "https://dc.lft.to/lastmile_qr_scan", "android": "https://dc.lft.to/lastmile_qr_scan"}, "fusion_lon": 0.0, "fusion_lat": 0.0, "bike_id": "efaadcfbcef9203e920234de2f11ed5e", "name": "efaadcfbcef9203e920234de2f11ed5e", "lon": -76.998984}, {"is_disabled": 0, "type": "electric_scooter", "is_reserved": 0, "lat": 38.9219195, "rental_uris": {"ios": "https://dc.lft.to/lastmile_qr_scan", "android": "https://dc.lft.to/lastmile_qr_scan"}, "fusion_lon": 0.0, "fusion_lat": 0.0, "bike_id": "74b903a80fb5598324285344a68fce47", "name": "74b903a80fb5598324285344a68fce47", "lon": -77.04249733333333}, {"is_disabled": 0, "type": "electric_scooter", "is_reserved": 0, "lat": 38.906930333333335, "rental_uris": {"ios": "https://dc.lft.to/lastmile_qr_scan", "android": "https://dc.lft.to/lastmile_qr_scan"}, "fusion_lon": 0.0, "fusion_lat": 0.0, "bike_id": "34741ca42ac1c0e65d306dbf9a58938b", "name": "34741ca42ac1c0e65d306dbf9a58938b", "lon": -77.06347983333333}, {"is_disabled": 0, "type": "electric_scooter", "is_reserved": 0, "lat": 38.899571, "rental_uris": {"ios": "https://dc.lft.to/lastmile_qr_scan", "android": "https://dc.lft.to/lastmile_qr_scan"}, "fusion_lon": 0.0, "fusion_lat": 0.0, "bike_id": "c1a98c1875e5288638ea68b2769cc071", "name": "c1a98c1875e5288638ea68b2769cc071", "lon": -77.02957816666667}, {"is_disabled": 0, "type": "electric_scooter", "is_reserved": 0, "lat": 38.918696833333335, "rental_uris": {"ios": "https://dc.lft.to/lastmile_qr_scan", "android": "https://dc.lft.to/lastmile_qr_scan"}, "fusion_lon": 0.0, "fusion_lat": 0.0, "bike_id": "d5e97cd7a5035b822523550497fb7429", "name": "d5e97cd7a5035b822523550497fb7429", "lon": -77.04181383333334}, {"is_disabled": 0, "type": "electric_bike", "is_reserved": 0, "lat": 38.89680583333333, "rental_uris": {"ios": "https://dc.lft.to/lastmile_qr_scan", "android": "https://dc.lft.to/lastmile_qr_scan"}, "fusion_lon": 0.0, "fusion_lat": 0.0, "bike_id": "447010022cec218f3bbf2ba35eb3b388", "name": "447010022cec218f3bbf2ba35eb3b388", "lon": -77.13881666666667}, {"is_disabled": 0, "type": "electric_scooter", "is_reserved": 0, "lat": 38.903976, "rental_uris": {"ios": "https://dc.lft.to/lastmile_qr_scan", "android": "https://dc.lft.to/lastmile_qr_scan"}, "fusion_lon": 0.0, "fusion_lat": 0.0, "bike_id": "33955b57e1a5932634ebd69db179cdec", "name": "33955b57e1a5932634ebd69db179cdec", "lon": -77.02472866666666}, {"is_disabled": 0, "type": "electric_scooter", "is_reserved": 0, "lat": 38.923584166666664, "rental_uris": {"ios": "https://dc.lft.to/lastmile_qr_scan", "android": "https://dc.lft.to/lastmile_qr_scan"}, "fusion_lon": 0.0, "fusion_lat": 0.0, "bike_id": "dedb8198ba6c5b82f6b1754884dc8662", "name": "dedb8198ba6c5b82f6b1754884dc8662", "lon": -77.05042766666666}, {"is_disabled": 0, "type": "electric_scooter", "is_reserved": 0, "lat": 38.900322333333335, "rental_uris": {"ios": "https://dc.lft.to/lastmile_qr_scan", "android": "https://dc.lft.to/lastmile_qr_scan"}, "fusion_lon": 0.0, "fusion_lat": 0.0, "bike_id": "2943a64afd1436efb976f55dd8f8819d", "name": "2943a64afd1436efb976f55dd8f8819d", "lon": -76.998627}, {"is_disabled": 0, "type": "electric_scooter", "is_reserved": 0, "lat": 38.9141025, "rental_uris": {"ios": "https://dc.lft.to/lastmile_qr_scan", "android": "https://dc.lft.to/lastmile_qr_scan"}, "fusion_lon": 0.0, "fusion_lat": 0.0, "bike_id": "b11727a277d2a4b6325acd66cbf54d09", "name": "b11727a277d2a4b6325acd66cbf54d09", "lon": -77.01307233333333}, {"is_disabled": 0, "type": "electric_scooter", "is_reserved": 0, "lat": 38.889987166666664, "rental_uris": {"ios": "https://dc.lft.to/lastmile_qr_scan", "android": "https://dc.lft.to/lastmile_qr_scan"}, "fusion_lon": 0.0, "fusion_lat": 0.0, "bike_id": "b7b21d7fe489253d856e285f253cb9df", "name": "b7b21d7fe489253d856e285f253cb9df", "lon": -77.00345783333333}, {"is_disabled": 0, "type": "electric_scooter", "is_reserved": 0, "lat": 38.90531, "rental_uris": {"ios": "https://dc.lft.to/lastmile_qr_scan", "android": "https://dc.lft.to/lastmile_qr_scan"}, "fusion_lon": 0.0, "fusion_lat": 0.0, "bike_id": "37d80d0a563ce247cc91ab8a9d7c74dc", "name": "37d80d0a563ce247cc91ab8a9d7c74dc", "lon": -77.057651}, {"is_disabled": 0, "type": "electric_bike", "is_reserved": 0, "lat": 38.9109235, "rental_uris": {"ios": "https://dc.lft.to/lastmile_qr_scan", "android": "https://dc.lft.to/lastmile_qr_scan"}, "fusion_lon": 0.0, "fusion_lat": 0.0, "bike_id": "190de437c2e31d689a15e0dc24dff9d5", "name": "190de437c2e31d689a15e0dc24dff9d5", "lon": -77.00888233333333}, {"is_disabled": 0, "type": "electric_bike", "is_reserved": 0, "lat": 38.951348, "rental_uris": {"ios": "https://dc.lft.to/lastmile_qr_scan", "android": "https://dc.lft.to/lastmile_qr_scan"}, "fusion_lon": 0.0, "fusion_lat": 0.0, "bike_id": "1b66131023e3080d2cafe203b189e223", "name": "1b66131023e3080d2cafe203b189e223", "lon": -77.03330783333334}, {"is_disabled": 0, "type": "electric_scooter", "is_reserved": 0, "lat": 38.914041833333336, "rental_uris": {"ios": "https://dc.lft.to/lastmile_qr_scan", "android": "https://dc.lft.to/lastmile_qr_scan"}, "fusion_lon": 0.0, "fusion_lat": 0.0, "bike_id": "4117cf34fd1baa96974baa71e4dd6501", "name": "4117cf34fd1baa96974baa71e4dd6501", "lon": -77.03258166666667}, {"is_disabled": 0, "type": "electric_bike", "is_reserved": 0, "lat": 38.9224385, "rental_uris": {"ios": "https://dc.lft.to/lastmile_qr_scan", "android": "https://dc.lft.to/lastmile_qr_scan"}, "fusion_lon": 0.0, "fusion_lat": 0.0, "bike_id": "5ff340f18761c223516eac4632d2d4b5", "name": "5ff340f18761c223516eac4632d2d4b5", "lon": -77.072682}, {"is_disabled": 0, "type": "electric_scooter", "is_reserved": 0, "lat": 38.92462166666667, "rental_uris": {"ios": "https://dc.lft.to/lastmile_qr_scan", "android": "https://dc.lft.to/lastmile_qr_scan"}, "fusion_lon": 0.0, "fusion_lat": 0.0, "bike_id": "52d9167ad0f20f3706974c315c8207ae", "name": "52d9167ad0f20f3706974c315c8207ae", "lon": -77.052383}, {"is_disabled": 0, "type": "electric_scooter", "is_reserved": 0, "lat": 38.908720833333334, "rental_uris": {"ios": "https://dc.lft.to/lastmile_qr_scan", "android": "https://dc.lft.to/lastmile_qr_scan"}, "fusion_lon": 0.0, "fusion_lat": 0.0, "bike_id": "f09b04f8437b54c4a7f96ff886762319", "name": "f09b04f8437b54c4a7f96ff886762319", "lon": -77.02698666666667}, {"is_disabled": 0, "type": "electric_scooter", "is_reserved": 0, "lat": 38.912742333333334, "rental_uris": {"ios": "https://dc.lft.to/lastmile_qr_scan", "android": "https://dc.lft.to/lastmile_qr_scan"}, "fusion_lon": 0.0, "fusion_lat": 0.0, "bike_id": "096339d867b30a4f99895470373c44a3", "name": "096339d867b30a4f99895470373c44a3", "lon": -77.07828233333333}, {"is_disabled": 0, "type": "electric_scooter", "is_reserved": 0, "lat": 38.899869833333334, "rental_uris": {"ios": "https://dc.lft.to/lastmile_qr_scan", "android": "https://dc.lft.to/lastmile_qr_scan"}, "fusion_lon": 0.0, "fusion_lat": 0.0, "bike_id": "82e5e647e417dc15eb2fd6cd047a8360", "name": "82e5e647e417dc15eb2fd6cd047a8360", "lon": -76.98285266666667}, {"is_disabled": 0, "type": "electric_scooter", "is_reserved": 0, "lat": 38.93194366666667, "rental_uris": {"ios": "https://dc.lft.to/lastmile_qr_scan", "android": "https://dc.lft.to/lastmile_qr_scan"}, "fusion_lon": 0.0, "fusion_lat": 0.0, "bike_id": "e80dab17165b266655dcbcff4ae4bb8c", "name": "e80dab17165b266655dcbcff4ae4bb8c", "lon": -77.0296565}, {"is_disabled": 0, "type": "electric_scooter", "is_reserved": 0, "lat": 38.923581166666665, "rental_uris": {"ios": "https://dc.lft.to/lastmile_qr_scan", "android": "https://dc.lft.to/lastmile_qr_scan"}, "fusion_lon": 0.0, "fusion_lat": 0.0, "bike_id": "ed246c58bef8ff24aa7cb1101f8519f0", "name": "ed246c58bef8ff24aa7cb1101f8519f0", "lon": -77.0504065}, {"is_disabled": 0, "type": "electric_scooter", "is_reserved": 0, "lat": 38.867006, "rental_uris": {"ios": "https://dc.lft.to/lastmile_qr_scan", "android": "https://dc.lft.to/lastmile_qr_scan"}, "fusion_lon": 0.0, "fusion_lat": 0.0, "bike_id": "02b83b11b304e5ac72156d5fff19f8ae", "name": "02b83b11b304e5ac72156d5fff19f8ae", "lon": -76.987087}, {"is_disabled": 0, "type": "electric_scooter", "is_reserved": 0, "lat": 38.921502333333336, "rental_uris": {"ios": "https://dc.lft.to/lastmile_qr_scan", "android": "https://dc.lft.to/lastmile_qr_scan"}, "fusion_lon": 0.0, "fusion_lat": 0.0, "bike_id": "ccd266a624480faef3d70e8879f9a61c", "name": "ccd266a624480faef3d70e8879f9a61c", "lon": -77.02431866666667}, {"is_disabled": 0, "type": "electric_scooter", "is_reserved": 0, "lat": 38.91770183333333, "rental_uris": {"ios": "https://dc.lft.to/lastmile_qr_scan", "android": "https://dc.lft.to/lastmile_qr_scan"}, "fusion_lon": 0.0, "fusion_lat": 0.0, "bike_id": "081018382d3a1847c5b691f6ea0c19f2", "name": "081018382d3a1847c5b691f6ea0c19f2", "lon": -77.02314583333333}, {"is_disabled": 0, "type": "electric_scooter", "is_reserved": 0, "lat": 38.91326133333333, "rental_uris": {"ios": "https://dc.lft.to/lastmile_qr_scan", "android": "https://dc.lft.to/lastmile_qr_scan"}, "fusion_lon": 0.0, "fusion_lat": 0.0, "bike_id": "496830866ed090e60bfc20994d7be7ff", "name": "496830866ed090e60bfc20994d7be7ff", "lon": -77.03325116666667}, {"is_disabled": 0, "type": "electric_scooter", "is_reserved": 0, "lat": 38.946157666666664, "rental_uris": {"ios": "https://dc.lft.to/lastmile_qr_scan", "android": "https://dc.lft.to/lastmile_qr_scan"}, "fusion_lon": 0.0, "fusion_lat": 0.0, "bike_id": "4d07dc18d79d84e97c6d0e9a528980f2", "name": "4d07dc18d79d84e97c6d0e9a528980f2", "lon": -77.02348783333333}, {"is_disabled": 0, "type": "electric_scooter", "is_reserved": 0, "lat": 38.946891, "rental_uris": {"ios": "https://dc.lft.to/lastmile_qr_scan", "android": "https://dc.lft.to/lastmile_qr_scan"}, "fusion_lon": 0.0, "fusion_lat": 0.0, "bike_id": "1233751d21b64f5d6f857c88ce6efccf", "name": "1233751d21b64f5d6f857c88ce6efccf", "lon": -76.999072}, {"is_disabled": 0, "type": "electric_scooter", "is_reserved": 0, "lat": 38.926874833333336, "rental_uris": {"ios": "https://dc.lft.to/lastmile_qr_scan", "android": "https://dc.lft.to/lastmile_qr_scan"}, "fusion_lon": 0.0, "fusion_lat": 0.0, "bike_id": "a3cdc5dd9277fcb2b827cf2a3b910605", "name": "a3cdc5dd9277fcb2b827cf2a3b910605", "lon": -77.01571666666666}, {"is_disabled": 0, "type": "electric_scooter", "is_reserved": 0, "lat": 38.89632366666667, "rental_uris": {"ios": "https://dc.lft.to/lastmile_qr_scan", "android": "https://dc.lft.to/lastmile_qr_scan"}, "fusion_lon": 0.0, "fusion_lat": 0.0, "bike_id": "53d72fc998354a7d861757e985b02e90", "name": "53d72fc998354a7d861757e985b02e90", "lon": -77.022193}, {"is_disabled": 0, "type": "electric_scooter", "is_reserved": 0, "lat": 38.9057625, "rental_uris": {"ios": "https://dc.lft.to/lastmile_qr_scan", "android": "https://dc.lft.to/lastmile_qr_scan"}, "fusion_lon": 0.0, "fusion_lat": 0.0, "bike_id": "fb936e7c81b2f56e31957a266263e000", "name": "fb936e7c81b2f56e31957a266263e000", "lon": -77.02179516666666}, {"is_disabled": 0, "type": "electric_scooter", "is_reserved": 0, "lat": 38.90031116666667, "rental_uris": {"ios": "https://dc.lft.to/lastmile_qr_scan", "android": "https://dc.lft.to/lastmile_qr_scan"}, "fusion_lon": 0.0, "fusion_lat": 0.0, "bike_id": "d64bbc31a73a54c75f7db1aa3191abbb", "name": "d64bbc31a73a54c75f7db1aa3191abbb", "lon": -76.98826033333333}, {"is_disabled": 0, "type": "electric_scooter", "is_reserved": 0, "lat": 38.903844, "rental_uris": {"ios": "https://dc.lft.to/lastmile_qr_scan", "android": "https://dc.lft.to/lastmile_qr_scan"}, "fusion_lon": 0.0, "fusion_lat": 0.0, "bike_id": "46ee755b4a737b59a971c9fc097fb26d", "name": "46ee755b4a737b59a971c9fc097fb26d", "lon": -77.038771}, {"is_disabled": 0, "type": "electric_scooter", "is_reserved": 0, "lat": 38.902099666666665, "rental_uris": {"ios": "https://dc.lft.to/lastmile_qr_scan", "android": "https://dc.lft.to/lastmile_qr_scan"}, "fusion_lon": 0.0, "fusion_lat": 0.0, "bike_id": "c2db031bc7f22bb31e40733d52b4c35f", "name": "c2db031bc7f22bb31e40733d52b4c35f", "lon": -77.04671483333334}, {"is_disabled": 0, "type": "electric_scooter", "is_reserved": 0, "lat": 38.904487, "rental_uris": {"ios": "https://dc.lft.to/lastmile_qr_scan", "android": "https://dc.lft.to/lastmile_qr_scan"}, "fusion_lon": 0.0, "fusion_lat": 0.0, "bike_id": "9b136b49405d7668d73cd15ee2fd0cc6", "name": "9b136b49405d7668d73cd15ee2fd0cc6", "lon": -76.97430233333333}, {"is_disabled": 0, "type": "electric_scooter", "is_reserved": 0, "lat": 38.924781333333335, "rental_uris": {"ios": "https://dc.lft.to/lastmile_qr_scan", "android": "https://dc.lft.to/lastmile_qr_scan"}, "fusion_lon": 0.0, "fusion_lat": 0.0, "bike_id": "d36c4ee4004c8ef505e21cd0ad5b6041", "name": "d36c4ee4004c8ef505e21cd0ad5b6041", "lon": -77.023347}, {"is_disabled": 0, "type": "electric_bike", "is_reserved": 0, "lat": 39.030479, "rental_uris": {"ios": "https://dc.lft.to/lastmile_qr_scan", "android": "https://dc.lft.to/lastmile_qr_scan"}, "fusion_lon": 0.0, "fusion_lat": 0.0, "bike_id": "eba2b787ab11dd9d9979316f50aa241a", "name": "eba2b787ab11dd9d9979316f50aa241a", "lon": -77.09483}, {"is_disabled": 0, "type": "electric_scooter", "is_reserved": 0, "lat": 38.9099705, "rental_uris": {"ios": "https://dc.lft.to/lastmile_qr_scan", "android": "https://dc.lft.to/lastmile_qr_scan"}, "fusion_lon": 0.0, "fusion_lat": 0.0, "bike_id": "650183e7328b6986c2da687b39895abe", "name": "650183e7328b6986c2da687b39895abe", "lon": -77.03667133333333}, {"is_disabled": 0, "type": "electric_scooter", "is_reserved": 0, "lat": 38.9147385, "rental_uris": {"ios": "https://dc.lft.to/lastmile_qr_scan", "android": "https://dc.lft.to/lastmile_qr_scan"}, "fusion_lon": 0.0, "fusion_lat": 0.0, "bike_id": "14ac0a80506bb09bcf728cb1f934e40b", "name": "14ac0a80506bb09bcf728cb1f934e40b", "lon": -77.0321385}, {"is_disabled": 0, "type": "electric_scooter", "is_reserved": 0, "lat": 38.88483466666667, "rental_uris": {"ios": "https://dc.lft.to/lastmile_qr_scan", "android": "https://dc.lft.to/lastmile_qr_scan"}, "fusion_lon": 0.0, "fusion_lat": 0.0, "bike_id": "3ab804e1ee6de931b38aef02503c3615", "name": "3ab804e1ee6de931b38aef02503c3615", "lon": -77.01980633333334}, {"is_disabled": 0, "type": "electric_scooter", "is_reserved": 0, "lat": 38.905026, "rental_uris": {"ios": "https://dc.lft.to/lastmile_qr_scan", "android": "https://dc.lft.to/lastmile_qr_scan"}, "fusion_lon": 0.0, "fusion_lat": 0.0, "bike_id": "df960aaac3e256136d88bd9f75f35f92", "name": "df960aaac3e256136d88bd9f75f35f92", "lon": -77.02946283333333}, {"is_disabled": 0, "type": "electric_scooter", "is_reserved": 0, "lat": 38.9087375, "rental_uris": {"ios": "https://dc.lft.to/lastmile_qr_scan", "android": "https://dc.lft.to/lastmile_qr_scan"}, "fusion_lon": 0.0, "fusion_lat": 0.0, "bike_id": "cb714918479fa825754932c62261cf9b", "name": "cb714918479fa825754932c62261cf9b", "lon": -77.026937}, {"is_disabled": 0, "type": "electric_scooter", "is_reserved": 0, "lat": 38.903709166666665, "rental_uris": {"ios": "https://dc.lft.to/lastmile_qr_scan", "android": "https://dc.lft.to/lastmile_qr_scan"}, "fusion_lon": 0.0, "fusion_lat": 0.0, "bike_id": "0684bdeae61cabe894ab5d5c0cc23a53", "name": "0684bdeae61cabe894ab5d5c0cc23a53", "lon": -77.04009733333334}, {"is_disabled": 0, "type": "electric_scooter", "is_reserved": 0, "lat": 38.87580483333333, "rental_uris": {"ios": "https://dc.lft.to/lastmile_qr_scan", "android": "https://dc.lft.to/lastmile_qr_scan"}, "fusion_lon": 0.0, "fusion_lat": 0.0, "bike_id": "ec9c4612c509232690a1cb1b5abaf49e", "name": "ec9c4612c509232690a1cb1b5abaf49e", "lon": -77.02081733333333}, {"is_disabled": 0, "type": "electric_scooter", "is_reserved": 0, "lat": 38.87562166666667, "rental_uris": {"ios": "https://dc.lft.to/lastmile_qr_scan", "android": "https://dc.lft.to/lastmile_qr_scan"}, "fusion_lon": 0.0, "fusion_lat": 0.0, "bike_id": "f5cf2b9067a31d5816f97d8c4c45f96e", "name": "f5cf2b9067a31d5816f97d8c4c45f96e", "lon": -77.00589633333334}, {"is_disabled": 0, "type": "electric_scooter", "is_reserved": 0, "lat": 38.920386666666666, "rental_uris": {"ios": "https://dc.lft.to/lastmile_qr_scan", "android": "https://dc.lft.to/lastmile_qr_scan"}, "fusion_lon": 0.0, "fusion_lat": 0.0, "bike_id": "b64e8b7df4ec2ece655db100b0b60f64", "name": "b64e8b7df4ec2ece655db100b0b60f64", "lon": -76.99556333333334}, {"is_disabled": 0, "type": "electric_scooter", "is_reserved": 0, "lat": 38.88659916666667, "rental_uris": {"ios": "https://dc.lft.to/lastmile_qr_scan", "android": "https://dc.lft.to/lastmile_qr_scan"}, "fusion_lon": 0.0, "fusion_lat": 0.0, "bike_id": "998c0a1040b045651df06c373a0a338d", "name": "998c0a1040b045651df06c373a0a338d", "lon": -77.01524333333333}, {"is_disabled": 0, "type": "electric_scooter", "is_reserved": 0, "lat": 38.9171115, "rental_uris": {"ios": "https://dc.lft.to/lastmile_qr_scan", "android": "https://dc.lft.to/lastmile_qr_scan"}, "fusion_lon": 0.0, "fusion_lat": 0.0, "bike_id": "8a355b3b335bfc506ffe797c9097bafc", "name": "8a355b3b335bfc506ffe797c9097bafc", "lon": -77.04075916666666}, {"is_disabled": 0, "type": "electric_scooter", "is_reserved": 0, "lat": 38.90025216666667, "rental_uris": {"ios": "https://dc.lft.to/lastmile_qr_scan", "android": "https://dc.lft.to/lastmile_qr_scan"}, "fusion_lon": 0.0, "fusion_lat": 0.0, "bike_id": "7d98d8dfb078a114396ad4bdbc2a31a5", "name": "7d98d8dfb078a114396ad4bdbc2a31a5", "lon": -77.04078566666666}, {"is_disabled": 0, "type": "electric_scooter", "is_reserved": 0, "lat": 38.8863345, "rental_uris": {"ios": "https://dc.lft.to/lastmile_qr_scan", "android": "https://dc.lft.to/lastmile_qr_scan"}, "fusion_lon": 0.0, "fusion_lat": 0.0, "bike_id": "b9c29525f86d418abd09b913772c1110", "name": "b9c29525f86d418abd09b913772c1110", "lon": -77.0216555}, {"is_disabled": 0, "type": "electric_scooter", "is_reserved": 0, "lat": 38.918136, "rental_uris": {"ios": "https://dc.lft.to/lastmile_qr_scan", "android": "https://dc.lft.to/lastmile_qr_scan"}, "fusion_lon": 0.0, "fusion_lat": 0.0, "bike_id": "a887e27ba65c831bcda171de41250774", "name": "a887e27ba65c831bcda171de41250774", "lon": -77.02475733333333}, {"is_disabled": 0, "type": "electric_scooter", "is_reserved": 0, "lat": 38.8517595, "rental_uris": {"ios": "https://dc.lft.to/lastmile_qr_scan", "android": "https://dc.lft.to/lastmile_qr_scan"}, "fusion_lon": 0.0, "fusion_lat": 0.0, "bike_id": "77aac297cfbda824a3fde9f8f7a9054e", "name": "77aac297cfbda824a3fde9f8f7a9054e", "lon": -76.99582116666667}, {"is_disabled": 0, "type": "electric_scooter", "is_reserved": 0, "lat": 38.940008666666664, "rental_uris": {"ios": "https://dc.lft.to/lastmile_qr_scan", "android": "https://dc.lft.to/lastmile_qr_scan"}, "fusion_lon": 0.0, "fusion_lat": 0.0, "bike_id": "b2fae29f1e68fee79c4f9009258e18ab", "name": "b2fae29f1e68fee79c4f9009258e18ab", "lon": -77.06101733333334}, {"is_disabled": 0, "type": "electric_scooter", "is_reserved": 0, "lat": 38.88144116666667, "rental_uris": {"ios": "https://dc.lft.to/lastmile_qr_scan", "android": "https://dc.lft.to/lastmile_qr_scan"}, "fusion_lon": 0.0, "fusion_lat": 0.0, "bike_id": "066a2eb00476bafe7164dfe7412aa244", "name": "066a2eb00476bafe7164dfe7412aa244", "lon": -77.01764716666666}, {"is_disabled": 0, "type": "electric_scooter", "is_reserved": 0, "lat": 38.90270433333333, "rental_uris": {"ios": "https://dc.lft.to/lastmile_qr_scan", "android": "https://dc.lft.to/lastmile_qr_scan"}, "fusion_lon": 0.0, "fusion_lat": 0.0, "bike_id": "eb587144dc72c6f48dcad8864e76a837", "name": "eb587144dc72c6f48dcad8864e76a837", "lon": -77.05314566666667}, {"is_disabled": 0, "type": "electric_scooter", "is_reserved": 0, "lat": 38.912956333333334, "rental_uris": {"ios": "https://dc.lft.to/lastmile_qr_scan", "android": "https://dc.lft.to/lastmile_qr_scan"}, "fusion_lon": 0.0, "fusion_lat": 0.0, "bike_id": "da1d4486c7a599d16788a6464954536e", "name": "da1d4486c7a599d16788a6464954536e", "lon": -77.021916}, {"is_disabled": 0, "type": "electric_scooter", "is_reserved": 0, "lat": 38.901577, "rental_uris": {"ios": "https://dc.lft.to/lastmile_qr_scan", "android": "https://dc.lft.to/lastmile_qr_scan"}, "fusion_lon": 0.0, "fusion_lat": 0.0, "bike_id": "805f32c2196ee95ba53fa063c1fc1d46", "name": "805f32c2196ee95ba53fa063c1fc1d46", "lon": -77.022869}, {"is_disabled": 0, "type": "electric_scooter", "is_reserved": 0, "lat": 38.890092, "rental_uris": {"ios": "https://dc.lft.to/lastmile_qr_scan", "android": "https://dc.lft.to/lastmile_qr_scan"}, "fusion_lon": 0.0, "fusion_lat": 0.0, "bike_id": "555efd01b1d225fdffa962721195abaf", "name": "555efd01b1d225fdffa962721195abaf", "lon": -77.0489695}, {"is_disabled": 0, "type": "electric_scooter", "is_reserved": 0, "lat": 38.898783, "rental_uris": {"ios": "https://dc.lft.to/lastmile_qr_scan", "android": "https://dc.lft.to/lastmile_qr_scan"}, "fusion_lon": 0.0, "fusion_lat": 0.0, "bike_id": "8f3d03a1ab966f735bbb508bd2b344d7", "name": "8f3d03a1ab966f735bbb508bd2b344d7", "lon": -76.9319965}, {"is_disabled": 0, "type": "electric_scooter", "is_reserved": 0, "lat": 38.89989683333334, "rental_uris": {"ios": "https://dc.lft.to/lastmile_qr_scan", "android": "https://dc.lft.to/lastmile_qr_scan"}, "fusion_lon": 0.0, "fusion_lat": 0.0, "bike_id": "10ada2928107f7ca8254bf0af3b6ff3a", "name": "10ada2928107f7ca8254bf0af3b6ff3a", "lon": -77.04175383333333}, {"is_disabled": 0, "type": "electric_scooter", "is_reserved": 0, "lat": 38.92237133333333, "rental_uris": {"ios": "https://dc.lft.to/lastmile_qr_scan", "android": "https://dc.lft.to/lastmile_qr_scan"}, "fusion_lon": 0.0, "fusion_lat": 0.0, "bike_id": "d726dfab2d4f7d8e0a130686eecbcc1a", "name": "d726dfab2d4f7d8e0a130686eecbcc1a", "lon": -77.04479316666666}, {"is_disabled": 0, "type": "electric_scooter", "is_reserved": 0, "lat": 38.902986, "rental_uris": {"ios": "https://dc.lft.to/lastmile_qr_scan", "android": "https://dc.lft.to/lastmile_qr_scan"}, "fusion_lon": 0.0, "fusion_lat": 0.0, "bike_id": "91c944ac609b8e357679517f9c487b72", "name": "91c944ac609b8e357679517f9c487b72", "lon": -76.99475983333333}, {"is_disabled": 0, "type": "electric_scooter", "is_reserved": 0, "lat": 38.866640333333336, "rental_uris": {"ios": "https://dc.lft.to/lastmile_qr_scan", "android": "https://dc.lft.to/lastmile_qr_scan"}, "fusion_lon": 0.0, "fusion_lat": 0.0, "bike_id": "276cdec02a0ab18db54646703b5562d4", "name": "276cdec02a0ab18db54646703b5562d4", "lon": -76.98509416666667}, {"is_disabled": 0, "type": "electric_bike", "is_reserved": 0, "lat": 38.955564, "rental_uris": {"ios": "https://dc.lft.to/lastmile_qr_scan", "android": "https://dc.lft.to/lastmile_qr_scan"}, "fusion_lon": 0.0, "fusion_lat": 0.0, "bike_id": "0efe85172b345251bb69902daebaf258", "name": "0efe85172b345251bb69902daebaf258", "lon": -76.9354435}, {"is_disabled": 0, "type": "electric_scooter", "is_reserved": 0, "lat": 38.90019, "rental_uris": {"ios": "https://dc.lft.to/lastmile_qr_scan", "android": "https://dc.lft.to/lastmile_qr_scan"}, "fusion_lon": 0.0, "fusion_lat": 0.0, "bike_id": "29a15b763f80adc98ca1811014c4d5b8", "name": "29a15b763f80adc98ca1811014c4d5b8", "lon": -77.04480633333333}, {"is_disabled": 0, "type": "electric_scooter", "is_reserved": 0, "lat": 38.902142166666664, "rental_uris": {"ios": "https://dc.lft.to/lastmile_qr_scan", "android": "https://dc.lft.to/lastmile_qr_scan"}, "fusion_lon": 0.0, "fusion_lat": 0.0, "bike_id": "b7887270281c7dfa2014756a4645d522", "name": "b7887270281c7dfa2014756a4645d522", "lon": -77.02236816666667}, {"is_disabled": 0, "type": "electric_scooter", "is_reserved": 0, "lat": 38.90538133333333, "rental_uris": {"ios": "https://dc.lft.to/lastmile_qr_scan", "android": "https://dc.lft.to/lastmile_qr_scan"}, "fusion_lon": 0.0, "fusion_lat": 0.0, "bike_id": "1f02bb699b27a6f69da35149acd96b01", "name": "1f02bb699b27a6f69da35149acd96b01", "lon": -77.05142516666666}, {"is_disabled": 0, "type": "electric_scooter", "is_reserved": 0, "lat": 38.90226416666667, "rental_uris": {"ios": "https://dc.lft.to/lastmile_qr_scan", "android": "https://dc.lft.to/lastmile_qr_scan"}, "fusion_lon": 0.0, "fusion_lat": 0.0, "bike_id": "d50d58e980722f7972907184df177765", "name": "d50d58e980722f7972907184df177765", "lon": -77.01911766666667}, {"is_disabled": 0, "type": "electric_scooter", "is_reserved": 0, "lat": 38.91683916666667, "rental_uris": {"ios": "https://dc.lft.to/lastmile_qr_scan", "android": "https://dc.lft.to/lastmile_qr_scan"}, "fusion_lon": 0.0, "fusion_lat": 0.0, "bike_id": "a18339d07375c7030c170aced09884e6", "name": "a18339d07375c7030c170aced09884e6", "lon": -77.03763416666666}, {"is_disabled": 0, "type": "electric_scooter", "is_reserved": 0, "lat": 38.956422833333335, "rental_uris": {"ios": "https://dc.lft.to/lastmile_qr_scan", "android": "https://dc.lft.to/lastmile_qr_scan"}, "fusion_lon": 0.0, "fusion_lat": 0.0, "bike_id": "3de126e0d8c8d7b8da9d0a2a2d45be60", "name": "3de126e0d8c8d7b8da9d0a2a2d45be60", "lon": -77.032954}, {"is_disabled": 0, "type": "electric_scooter", "is_reserved": 0, "lat": 38.90223866666667, "rental_uris": {"ios": "https://dc.lft.to/lastmile_qr_scan", "android": "https://dc.lft.to/lastmile_qr_scan"}, "fusion_lon": 0.0, "fusion_lat": 0.0, "bike_id": "83d6faddd5f9965d260b782101d1e72b", "name": "83d6faddd5f9965d260b782101d1e72b", "lon": -77.04564866666666}, {"is_disabled": 0, "type": "electric_scooter", "is_reserved": 0, "lat": 38.906736333333335, "rental_uris": {"ios": "https://dc.lft.to/lastmile_qr_scan", "android": "https://dc.lft.to/lastmile_qr_scan"}, "fusion_lon": 0.0, "fusion_lat": 0.0, "bike_id": "876261a1ac1d7bab44598882e713aeeb", "name": "876261a1ac1d7bab44598882e713aeeb", "lon": -77.0464665}, {"is_disabled": 0, "type": "electric_scooter", "is_reserved": 0, "lat": 38.90188, "rental_uris": {"ios": "https://dc.lft.to/lastmile_qr_scan", "android": "https://dc.lft.to/lastmile_qr_scan"}, "fusion_lon": 0.0, "fusion_lat": 0.0, "bike_id": "3fd6da5d44905956fa574a14ca331f72", "name": "3fd6da5d44905956fa574a14ca331f72", "lon": -76.9300265}, {"is_disabled": 0, "type": "electric_scooter", "is_reserved": 0, "lat": 38.9088005, "rental_uris": {"ios": "https://dc.lft.to/lastmile_qr_scan", "android": "https://dc.lft.to/lastmile_qr_scan"}, "fusion_lon": 0.0, "fusion_lat": 0.0, "bike_id": "75ab262bf3b1c2d8c7ac5745531ff2a1", "name": "75ab262bf3b1c2d8c7ac5745531ff2a1", "lon": -77.04326683333333}, {"is_disabled": 0, "type": "electric_scooter", "is_reserved": 0, "lat": 38.90535, "rental_uris": {"ios": "https://dc.lft.to/lastmile_qr_scan", "android": "https://dc.lft.to/lastmile_qr_scan"}, "fusion_lon": 0.0, "fusion_lat": 0.0, "bike_id": "b5c8319b8cf68f67543073f4c3b5264b", "name": "b5c8319b8cf68f67543073f4c3b5264b", "lon": -77.03986416666666}, {"is_disabled": 0, "type": "electric_scooter", "is_reserved": 0, "lat": 38.914145166666664, "rental_uris": {"ios": "https://dc.lft.to/lastmile_qr_scan", "android": "https://dc.lft.to/lastmile_qr_scan"}, "fusion_lon": 0.0, "fusion_lat": 0.0, "bike_id": "ed83386c6455cba6541f600c373b43c9", "name": "ed83386c6455cba6541f600c373b43c9", "lon": -77.04280716666666}, {"is_disabled": 0, "type": "electric_scooter", "is_reserved": 0, "lat": 38.91418066666667, "rental_uris": {"ios": "https://dc.lft.to/lastmile_qr_scan", "android": "https://dc.lft.to/lastmile_qr_scan"}, "fusion_lon": 0.0, "fusion_lat": 0.0, "bike_id": "0b104d2f037e0e1f161b3b080bbfbabb", "name": "0b104d2f037e0e1f161b3b080bbfbabb", "lon": -77.03186633333334}, {"is_disabled": 0, "type": "electric_scooter", "is_reserved": 0, "lat": 38.89813, "rental_uris": {"ios": "https://dc.lft.to/lastmile_qr_scan", "android": "https://dc.lft.to/lastmile_qr_scan"}, "fusion_lon": 0.0, "fusion_lat": 0.0, "bike_id": "ec2b4c7b177b8a78e840c0f13f6710b9", "name": "ec2b4c7b177b8a78e840c0f13f6710b9", "lon": -77.029662}, {"is_disabled": 0, "type": "electric_scooter", "is_reserved": 0, "lat": 38.8637685, "rental_uris": {"ios": "https://dc.lft.to/lastmile_qr_scan", "android": "https://dc.lft.to/lastmile_qr_scan"}, "fusion_lon": 0.0, "fusion_lat": 0.0, "bike_id": "08ea14eea7d7299e8f54ca24fbd6a1c5", "name": "08ea14eea7d7299e8f54ca24fbd6a1c5", "lon": -76.9903185}, {"is_disabled": 0, "type": "electric_bike", "is_reserved": 0, "lat": 38.88717583333333, "rental_uris": {"ios": "https://dc.lft.to/lastmile_qr_scan", "android": "https://dc.lft.to/lastmile_qr_scan"}, "fusion_lon": 0.0, "fusion_lat": 0.0, "bike_id": "8e021eb494be1b51b70eeaa7760e6fb0", "name": "8e021eb494be1b51b70eeaa7760e6fb0", "lon": -77.1330155}, {"is_disabled": 0, "type": "electric_bike", "is_reserved": 0, "lat": 39.05196516666667, "rental_uris": {"ios": "https://dc.lft.to/lastmile_qr_scan", "android": "https://dc.lft.to/lastmile_qr_scan"}, "fusion_lon": 0.0, "fusion_lat": 0.0, "bike_id": "fabc876c1ca5e36e3aad90bff6fb4e04", "name": "fabc876c1ca5e36e3aad90bff6fb4e04", "lon": -77.1092515}, {"is_disabled": 0, "type": "electric_scooter", "is_reserved": 0, "lat": 38.908643, "rental_uris": {"ios": "https://dc.lft.to/lastmile_qr_scan", "android": "https://dc.lft.to/lastmile_qr_scan"}, "fusion_lon": 0.0, "fusion_lat": 0.0, "bike_id": "a037a4ee672fe590860a606dc80e5d9a", "name": "a037a4ee672fe590860a606dc80e5d9a", "lon": -77.0325435}, {"is_disabled": 0, "type": "electric_scooter", "is_reserved": 0, "lat": 38.8876835, "rental_uris": {"ios": "https://dc.lft.to/lastmile_qr_scan", "android": "https://dc.lft.to/lastmile_qr_scan"}, "fusion_lon": 0.0, "fusion_lat": 0.0, "bike_id": "9134c42ffa6af571ed5f3d7e01581977", "name": "9134c42ffa6af571ed5f3d7e01581977", "lon": -76.9985055}, {"is_disabled": 0, "type": "electric_scooter", "is_reserved": 0, "lat": 38.951935166666665, "rental_uris": {"ios": "https://dc.lft.to/lastmile_qr_scan", "android": "https://dc.lft.to/lastmile_qr_scan"}, "fusion_lon": 0.0, "fusion_lat": 0.0, "bike_id": "8e9e479f75e6785d91f4c678e4089de5", "name": "8e9e479f75e6785d91f4c678e4089de5", "lon": -77.06660633333334}, {"is_disabled": 0, "type": "electric_scooter", "is_reserved": 0, "lat": 38.90348433333333, "rental_uris": {"ios": "https://dc.lft.to/lastmile_qr_scan", "android": "https://dc.lft.to/lastmile_qr_scan"}, "fusion_lon": 0.0, "fusion_lat": 0.0, "bike_id": "1e5348bbba4bd9c2e13aca28112f79bd", "name": "1e5348bbba4bd9c2e13aca28112f79bd", "lon": -77.03144183333333}, {"is_disabled": 0, "type": "electric_bike", "is_reserved": 0, "lat": 38.85796216666667, "rental_uris": {"ios": "https://dc.lft.to/lastmile_qr_scan", "android": "https://dc.lft.to/lastmile_qr_scan"}, "fusion_lon": 0.0, "fusion_lat": 0.0, "bike_id": "219f133e925360074dd982b648699250", "name": "219f133e925360074dd982b648699250", "lon": -77.09950233333333}, {"is_disabled": 0, "type": "electric_scooter", "is_reserved": 0, "lat": 38.927861166666666, "rental_uris": {"ios": "https://dc.lft.to/lastmile_qr_scan", "android": "https://dc.lft.to/lastmile_qr_scan"}, "fusion_lon": 0.0, "fusion_lat": 0.0, "bike_id": "e6f251a07be0288e0213359a2fda7410", "name": "e6f251a07be0288e0213359a2fda7410", "lon": -77.052999}, {"is_disabled": 0, "type": "electric_scooter", "is_reserved": 0, "lat": 38.922628, "rental_uris": {"ios": "https://dc.lft.to/lastmile_qr_scan", "android": "https://dc.lft.to/lastmile_qr_scan"}, "fusion_lon": 0.0, "fusion_lat": 0.0, "bike_id": "c0b5db797e58ae31104c2b37eb19fcc4", "name": "c0b5db797e58ae31104c2b37eb19fcc4", "lon": -77.03461066666667}, {"is_disabled": 0, "type": "electric_scooter", "is_reserved": 0, "lat": 38.914146833333334, "rental_uris": {"ios": "https://dc.lft.to/lastmile_qr_scan", "android": "https://dc.lft.to/lastmile_qr_scan"}, "fusion_lon": 0.0, "fusion_lat": 0.0, "bike_id": "36c402f9b27a1013f6421cc3c88eaadf", "name": "36c402f9b27a1013f6421cc3c88eaadf", "lon": -77.00964083333334}, {"is_disabled": 0, "type": "electric_scooter", "is_reserved": 0, "lat": 38.89044466666667, "rental_uris": {"ios": "https://dc.lft.to/lastmile_qr_scan", "android": "https://dc.lft.to/lastmile_qr_scan"}, "fusion_lon": 0.0, "fusion_lat": 0.0, "bike_id": "f6dd028cd7a27aa2d8688bf6488f98e9", "name": "f6dd028cd7a27aa2d8688bf6488f98e9", "lon": -76.93751566666667}, {"is_disabled": 0, "type": "electric_scooter", "is_reserved": 0, "lat": 38.9093775, "rental_uris": {"ios": "https://dc.lft.to/lastmile_qr_scan", "android": "https://dc.lft.to/lastmile_qr_scan"}, "fusion_lon": 0.0, "fusion_lat": 0.0, "bike_id": "812a342eb4ac0e4bb578ebee138e41a0", "name": "812a342eb4ac0e4bb578ebee138e41a0", "lon": -77.05521666666667}, {"is_disabled": 0, "type": "electric_bike", "is_reserved": 0, "lat": 38.84013233333334, "rental_uris": {"ios": "https://dc.lft.to/lastmile_qr_scan", "android": "https://dc.lft.to/lastmile_qr_scan"}, "fusion_lon": 0.0, "fusion_lat": 0.0, "bike_id": "b193b2c74413d6504ee1c820412885ea", "name": "b193b2c74413d6504ee1c820412885ea", "lon": -76.97534516666667}, {"is_disabled": 0, "type": "electric_scooter", "is_reserved": 0, "lat": 38.905992499999996, "rental_uris": {"ios": "https://dc.lft.to/lastmile_qr_scan", "android": "https://dc.lft.to/lastmile_qr_scan"}, "fusion_lon": 0.0, "fusion_lat": 0.0, "bike_id": "59e26c709722c151cc864848fcfc5fb6", "name": "59e26c709722c151cc864848fcfc5fb6", "lon": -77.03977116666667}, {"is_disabled": 0, "type": "electric_scooter", "is_reserved": 0, "lat": 38.930805166666666, "rental_uris": {"ios": "https://dc.lft.to/lastmile_qr_scan", "android": "https://dc.lft.to/lastmile_qr_scan"}, "fusion_lon": 0.0, "fusion_lat": 0.0, "bike_id": "9ee829a3183ed6068c9b7f62e4ad9c5d", "name": "9ee829a3183ed6068c9b7f62e4ad9c5d", "lon": -77.0279135}, {"is_disabled": 0, "type": "electric_scooter", "is_reserved": 0, "lat": 38.90344233333333, "rental_uris": {"ios": "https://dc.lft.to/lastmile_qr_scan", "android": "https://dc.lft.to/lastmile_qr_scan"}, "fusion_lon": 0.0, "fusion_lat": 0.0, "bike_id": "f9fa024e5298f8efb27de0fa15096aeb", "name": "f9fa024e5298f8efb27de0fa15096aeb", "lon": -77.040206}, {"is_disabled": 0, "type": "electric_scooter", "is_reserved": 0, "lat": 38.91270766666667, "rental_uris": {"ios": "https://dc.lft.to/lastmile_qr_scan", "android": "https://dc.lft.to/lastmile_qr_scan"}, "fusion_lon": 0.0, "fusion_lat": 0.0, "bike_id": "4bccff2cc225e4b4c2a7b33fca62ca5a", "name": "4bccff2cc225e4b4c2a7b33fca62ca5a", "lon": -77.02878}, {"is_disabled": 0, "type": "electric_bike", "is_reserved": 0, "lat": 38.906302, "rental_uris": {"ios": "https://dc.lft.to/lastmile_qr_scan", "android": "https://dc.lft.to/lastmile_qr_scan"}, "fusion_lon": 0.0, "fusion_lat": 0.0, "bike_id": "0ba2df524e553f63ae43b3f4e9b63269", "name": "0ba2df524e553f63ae43b3f4e9b63269", "lon": -77.07024866666667}, {"is_disabled": 0, "type": "electric_scooter", "is_reserved": 0, "lat": 38.884126, "rental_uris": {"ios": "https://dc.lft.to/lastmile_qr_scan", "android": "https://dc.lft.to/lastmile_qr_scan"}, "fusion_lon": 0.0, "fusion_lat": 0.0, "bike_id": "0e5248cf46445789db967a066ceecd8d", "name": "0e5248cf46445789db967a066ceecd8d", "lon": -76.97596966666667}, {"is_disabled": 0, "type": "electric_bike", "is_reserved": 0, "lat": 38.8539305, "rental_uris": {"ios": "https://dc.lft.to/lastmile_qr_scan", "android": "https://dc.lft.to/lastmile_qr_scan"}, "fusion_lon": 0.0, "fusion_lat": 0.0, "bike_id": "72e6d0bdf76a1315783e117c5f651d1c", "name": "72e6d0bdf76a1315783e117c5f651d1c", "lon": -77.12485116666667}, {"is_disabled": 0, "type": "electric_scooter", "is_reserved": 0, "lat": 38.862472333333336, "rental_uris": {"ios": "https://dc.lft.to/lastmile_qr_scan", "android": "https://dc.lft.to/lastmile_qr_scan"}, "fusion_lon": 0.0, "fusion_lat": 0.0, "bike_id": "28ef3f31fd40346ee51236c0eae689dd", "name": "28ef3f31fd40346ee51236c0eae689dd", "lon": -76.99480933333334}, {"is_disabled": 0, "type": "electric_scooter", "is_reserved": 0, "lat": 38.898345, "rental_uris": {"ios": "https://dc.lft.to/lastmile_qr_scan", "android": "https://dc.lft.to/lastmile_qr_scan"}, "fusion_lon": 0.0, "fusion_lat": 0.0, "bike_id": "25cdcbe1a8e26ae096e384e49bc7106b", "name": "25cdcbe1a8e26ae096e384e49bc7106b", "lon": -77.0437415}, {"is_disabled": 0, "type": "electric_scooter", "is_reserved": 0, "lat": 38.885048, "rental_uris": {"ios": "https://dc.lft.to/lastmile_qr_scan", "android": "https://dc.lft.to/lastmile_qr_scan"}, "fusion_lon": 0.0, "fusion_lat": 0.0, "bike_id": "2c1d5e28c5463584fa885195ef1a7b90", "name": "2c1d5e28c5463584fa885195ef1a7b90", "lon": -77.00568683333333}, {"is_disabled": 0, "type": "electric_scooter", "is_reserved": 0, "lat": 38.91404466666667, "rental_uris": {"ios": "https://dc.lft.to/lastmile_qr_scan", "android": "https://dc.lft.to/lastmile_qr_scan"}, "fusion_lon": 0.0, "fusion_lat": 0.0, "bike_id": "bff35bae476585f29baba7c26dbc09a3", "name": "bff35bae476585f29baba7c26dbc09a3", "lon": -77.04567083333333}, {"is_disabled": 0, "type": "electric_scooter", "is_reserved": 0, "lat": 38.94468783333333, "rental_uris": {"ios": "https://dc.lft.to/lastmile_qr_scan", "android": "https://dc.lft.to/lastmile_qr_scan"}, "fusion_lon": 0.0, "fusion_lat": 0.0, "bike_id": "7e6dc0b9f334a654bf505b09ae94a917", "name": "7e6dc0b9f334a654bf505b09ae94a917", "lon": -77.02342416666667}, {"is_disabled": 0, "type": "electric_scooter", "is_reserved": 0, "lat": 38.9264305, "rental_uris": {"ios": "https://dc.lft.to/lastmile_qr_scan", "android": "https://dc.lft.to/lastmile_qr_scan"}, "fusion_lon": 0.0, "fusion_lat": 0.0, "bike_id": "50cd5920dfe24fd1ef4d207b64e57390", "name": "50cd5920dfe24fd1ef4d207b64e57390", "lon": -77.01344333333333}, {"is_disabled": 0, "type": "electric_scooter", "is_reserved": 0, "lat": 38.92041533333333, "rental_uris": {"ios": "https://dc.lft.to/lastmile_qr_scan", "android": "https://dc.lft.to/lastmile_qr_scan"}, "fusion_lon": 0.0, "fusion_lat": 0.0, "bike_id": "bcbfed6bc17bd5694b4ed6a4875fd67d", "name": "bcbfed6bc17bd5694b4ed6a4875fd67d", "lon": -77.0420365}, {"is_disabled": 0, "type": "electric_scooter", "is_reserved": 0, "lat": 38.853245333333334, "rental_uris": {"ios": "https://dc.lft.to/lastmile_qr_scan", "android": "https://dc.lft.to/lastmile_qr_scan"}, "fusion_lon": 0.0, "fusion_lat": 0.0, "bike_id": "602fff5a808dc2f704be27d0b1115c60", "name": "602fff5a808dc2f704be27d0b1115c60", "lon": -76.97998666666666}, {"is_disabled": 0, "type": "electric_scooter", "is_reserved": 0, "lat": 38.8958885, "rental_uris": {"ios": "https://dc.lft.to/lastmile_qr_scan", "android": "https://dc.lft.to/lastmile_qr_scan"}, "fusion_lon": 0.0, "fusion_lat": 0.0, "bike_id": "2ab647e747910f74a6da330f59018434", "name": "2ab647e747910f74a6da330f59018434", "lon": -76.94838783333333}, {"is_disabled": 0, "type": "electric_scooter", "is_reserved": 0, "lat": 38.915626, "rental_uris": {"ios": "https://dc.lft.to/lastmile_qr_scan", "android": "https://dc.lft.to/lastmile_qr_scan"}, "fusion_lon": 0.0, "fusion_lat": 0.0, "bike_id": "4c5a9d2a3149a3cdfeec27763007db08", "name": "4c5a9d2a3149a3cdfeec27763007db08", "lon": -77.031173}, {"is_disabled": 0, "type": "electric_scooter", "is_reserved": 0, "lat": 38.91673483333334, "rental_uris": {"ios": "https://dc.lft.to/lastmile_qr_scan", "android": "https://dc.lft.to/lastmile_qr_scan"}, "fusion_lon": 0.0, "fusion_lat": 0.0, "bike_id": "5d701670dcaf1cee0a0480bbfcd7f0b6", "name": "5d701670dcaf1cee0a0480bbfcd7f0b6", "lon": -77.02390166666666}, {"is_disabled": 0, "type": "electric_scooter", "is_reserved": 0, "lat": 38.91696266666667, "rental_uris": {"ios": "https://dc.lft.to/lastmile_qr_scan", "android": "https://dc.lft.to/lastmile_qr_scan"}, "fusion_lon": 0.0, "fusion_lat": 0.0, "bike_id": "3dc17ac30580e002ae129156d70aa5db", "name": "3dc17ac30580e002ae129156d70aa5db", "lon": -77.0277675}, {"is_disabled": 0, "type": "electric_scooter", "is_reserved": 0, "lat": 38.92482716666667, "rental_uris": {"ios": "https://dc.lft.to/lastmile_qr_scan", "android": "https://dc.lft.to/lastmile_qr_scan"}, "fusion_lon": 0.0, "fusion_lat": 0.0, "bike_id": "48acd09c333c26f1e55405904aee6794", "name": "48acd09c333c26f1e55405904aee6794", "lon": -77.03494233333333}, {"is_disabled": 0, "type": "electric_bike", "is_reserved": 0, "lat": 38.831793833333336, "rental_uris": {"ios": "https://dc.lft.to/lastmile_qr_scan", "android": "https://dc.lft.to/lastmile_qr_scan"}, "fusion_lon": 0.0, "fusion_lat": 0.0, "bike_id": "38f2028e7b50a2942b5106659f156357", "name": "38f2028e7b50a2942b5106659f156357", "lon": -77.066963}, {"is_disabled": 0, "type": "electric_scooter", "is_reserved": 0, "lat": 38.910734166666664, "rental_uris": {"ios": "https://dc.lft.to/lastmile_qr_scan", "android": "https://dc.lft.to/lastmile_qr_scan"}, "fusion_lon": 0.0, "fusion_lat": 0.0, "bike_id": "9453c4918f38b51886c09b608facbed5", "name": "9453c4918f38b51886c09b608facbed5", "lon": -77.04485666666666}, {"is_disabled": 0, "type": "electric_scooter", "is_reserved": 0, "lat": 38.90100016666667, "rental_uris": {"ios": "https://dc.lft.to/lastmile_qr_scan", "android": "https://dc.lft.to/lastmile_qr_scan"}, "fusion_lon": 0.0, "fusion_lat": 0.0, "bike_id": "695a711c631d6890d77616151bace5d6", "name": "695a711c631d6890d77616151bace5d6", "lon": -77.04638383333334}, {"is_disabled": 0, "type": "electric_scooter", "is_reserved": 0, "lat": 38.898793166666664, "rental_uris": {"ios": "https://dc.lft.to/lastmile_qr_scan", "android": "https://dc.lft.to/lastmile_qr_scan"}, "fusion_lon": 0.0, "fusion_lat": 0.0, "bike_id": "418dd3bea1cb22dd71eb471adc3a2c43", "name": "418dd3bea1cb22dd71eb471adc3a2c43", "lon": -77.02958066666666}, {"is_disabled": 0, "type": "electric_scooter", "is_reserved": 0, "lat": 38.903681666666664, "rental_uris": {"ios": "https://dc.lft.to/lastmile_qr_scan", "android": "https://dc.lft.to/lastmile_qr_scan"}, "fusion_lon": 0.0, "fusion_lat": 0.0, "bike_id": "e14d9b00ca22a77e825547e3d8971bf6", "name": "e14d9b00ca22a77e825547e3d8971bf6", "lon": -77.031929}, {"is_disabled": 0, "type": "electric_scooter", "is_reserved": 0, "lat": 38.88693933333333, "rental_uris": {"ios": "https://dc.lft.to/lastmile_qr_scan", "android": "https://dc.lft.to/lastmile_qr_scan"}, "fusion_lon": 0.0, "fusion_lat": 0.0, "bike_id": "4559a117bd67a45353ef8823927010b0", "name": "4559a117bd67a45353ef8823927010b0", "lon": -77.02417383333334}, {"is_disabled": 0, "type": "electric_scooter", "is_reserved": 0, "lat": 38.913001, "rental_uris": {"ios": "https://dc.lft.to/lastmile_qr_scan", "android": "https://dc.lft.to/lastmile_qr_scan"}, "fusion_lon": 0.0, "fusion_lat": 0.0, "bike_id": "962b71281cf65fea1f3796859cb1d005", "name": "962b71281cf65fea1f3796859cb1d005", "lon": -77.06420933333334}, {"is_disabled": 0, "type": "electric_scooter", "is_reserved": 0, "lat": 38.90331583333333, "rental_uris": {"ios": "https://dc.lft.to/lastmile_qr_scan", "android": "https://dc.lft.to/lastmile_qr_scan"}, "fusion_lon": 0.0, "fusion_lat": 0.0, "bike_id": "ceeac584e458681ae74b42ced74dde99", "name": "ceeac584e458681ae74b42ced74dde99", "lon": -77.0385145}, {"is_disabled": 0, "type": "electric_scooter", "is_reserved": 0, "lat": 38.924905333333335, "rental_uris": {"ios": "https://dc.lft.to/lastmile_qr_scan", "android": "https://dc.lft.to/lastmile_qr_scan"}, "fusion_lon": 0.0, "fusion_lat": 0.0, "bike_id": "f86a889421709cefc91dbc3e9f679bf3", "name": "f86a889421709cefc91dbc3e9f679bf3", "lon": -77.02135233333334}, {"is_disabled": 0, "type": "electric_bike", "is_reserved": 0, "lat": 38.937454333333335, "rental_uris": {"ios": "https://dc.lft.to/lastmile_qr_scan", "android": "https://dc.lft.to/lastmile_qr_scan"}, "fusion_lon": 0.0, "fusion_lat": 0.0, "bike_id": "346d87ca16c5909bdd830a94f5238e19", "name": "346d87ca16c5909bdd830a94f5238e19", "lon": -76.94580983333333}, {"is_disabled": 0, "type": "electric_scooter", "is_reserved": 0, "lat": 38.90039866666667, "rental_uris": {"ios": "https://dc.lft.to/lastmile_qr_scan", "android": "https://dc.lft.to/lastmile_qr_scan"}, "fusion_lon": 0.0, "fusion_lat": 0.0, "bike_id": "b07298abc0e3d95d5fb8398199ac0bdb", "name": "b07298abc0e3d95d5fb8398199ac0bdb", "lon": -76.9926665}, {"is_disabled": 0, "type": "electric_scooter", "is_reserved": 0, "lat": 38.867046, "rental_uris": {"ios": "https://dc.lft.to/lastmile_qr_scan", "android": "https://dc.lft.to/lastmile_qr_scan"}, "fusion_lon": 0.0, "fusion_lat": 0.0, "bike_id": "a8b89f264a7f45d94a64fc14f2a2d33e", "name": "a8b89f264a7f45d94a64fc14f2a2d33e", "lon": -76.98707966666667}, {"is_disabled": 0, "type": "electric_scooter", "is_reserved": 0, "lat": 38.914054666666665, "rental_uris": {"ios": "https://dc.lft.to/lastmile_qr_scan", "android": "https://dc.lft.to/lastmile_qr_scan"}, "fusion_lon": 0.0, "fusion_lat": 0.0, "bike_id": "7f8b6058a31e02faa6ff1931446bfe1e", "name": "7f8b6058a31e02faa6ff1931446bfe1e", "lon": -77.02826583333334}, {"is_disabled": 0, "type": "electric_scooter", "is_reserved": 0, "lat": 38.91421916666667, "rental_uris": {"ios": "https://dc.lft.to/lastmile_qr_scan", "android": "https://dc.lft.to/lastmile_qr_scan"}, "fusion_lon": 0.0, "fusion_lat": 0.0, "bike_id": "76d114156df382b35956e9165c57330d", "name": "76d114156df382b35956e9165c57330d", "lon": -77.02212266666666}, {"is_disabled": 0, "type": "electric_scooter", "is_reserved": 0, "lat": 38.903452333333334, "rental_uris": {"ios": "https://dc.lft.to/lastmile_qr_scan", "android": "https://dc.lft.to/lastmile_qr_scan"}, "fusion_lon": 0.0, "fusion_lat": 0.0, "bike_id": "16a3516eedaba8d4faafac31abc2e710", "name": "16a3516eedaba8d4faafac31abc2e710", "lon": -77.0384665}, {"is_disabled": 0, "type": "electric_bike", "is_reserved": 0, "lat": 38.95700633333333, "rental_uris": {"ios": "https://dc.lft.to/lastmile_qr_scan", "android": "https://dc.lft.to/lastmile_qr_scan"}, "fusion_lon": 0.0, "fusion_lat": 0.0, "bike_id": "4279c85bd177fd7ee2401d9f5cc49cea", "name": "4279c85bd177fd7ee2401d9f5cc49cea", "lon": -76.98062166666666}, {"is_disabled": 0, "type": "electric_scooter", "is_reserved": 0, "lat": 38.8665725, "rental_uris": {"ios": "https://dc.lft.to/lastmile_qr_scan", "android": "https://dc.lft.to/lastmile_qr_scan"}, "fusion_lon": 0.0, "fusion_lat": 0.0, "bike_id": "5552fce98576656d8797244b323e8d90", "name": "5552fce98576656d8797244b323e8d90", "lon": -76.98883066666667}, {"is_disabled": 0, "type": "electric_scooter", "is_reserved": 0, "lat": 38.917750166666664, "rental_uris": {"ios": "https://dc.lft.to/lastmile_qr_scan", "android": "https://dc.lft.to/lastmile_qr_scan"}, "fusion_lon": 0.0, "fusion_lat": 0.0, "bike_id": "67aa89e0571fe5eccc49001cb214d09e", "name": "67aa89e0571fe5eccc49001cb214d09e", "lon": -77.02305833333334}, {"is_disabled": 0, "type": "electric_scooter", "is_reserved": 0, "lat": 38.924540666666665, "rental_uris": {"ios": "https://dc.lft.to/lastmile_qr_scan", "android": "https://dc.lft.to/lastmile_qr_scan"}, "fusion_lon": 0.0, "fusion_lat": 0.0, "bike_id": "58d399b78deca161e32e8c1ddf711ee6", "name": "58d399b78deca161e32e8c1ddf711ee6", "lon": -77.0410465}, {"is_disabled": 0, "type": "electric_bike", "is_reserved": 0, "lat": 38.88682633333333, "rental_uris": {"ios": "https://dc.lft.to/lastmile_qr_scan", "android": "https://dc.lft.to/lastmile_qr_scan"}, "fusion_lon": 0.0, "fusion_lat": 0.0, "bike_id": "5b07335781aa6f2eedbf3210d13eede5", "name": "5b07335781aa6f2eedbf3210d13eede5", "lon": -77.16091033333333}, {"is_disabled": 0, "type": "electric_scooter", "is_reserved": 0, "lat": 38.89937616666667, "rental_uris": {"ios": "https://dc.lft.to/lastmile_qr_scan", "android": "https://dc.lft.to/lastmile_qr_scan"}, "fusion_lon": 0.0, "fusion_lat": 0.0, "bike_id": "581cc35473d3a6ca83749e0d60edc1bb", "name": "581cc35473d3a6ca83749e0d60edc1bb", "lon": -77.0142495}, {"is_disabled": 0, "type": "electric_scooter", "is_reserved": 0, "lat": 38.92244216666667, "rental_uris": {"ios": "https://dc.lft.to/lastmile_qr_scan", "android": "https://dc.lft.to/lastmile_qr_scan"},