{"data": {"bikes": [{"fusion_lat": 0.0, "fusion_lon": 0.0, "rental_uris": {"android": "https://dc.lft.to/lastmile_qr_scan", "ios": "https://dc.lft.to/lastmile_qr_scan"}, "lon": -77.03878466666667, "name": "4fbe739b058ce60ca01abccd2b450e0d", "is_disabled": 0, "is_reserved": 0, "bike_id": "4fbe739b058ce60ca01abccd2b450e0d", "lat": 38.90625283333333, "type": "electric_scooter"}, {"fusion_lat": 0.0, "fusion_lon": 0.0, "rental_uris": {"android": "https://dc.lft.to/lastmile_qr_scan", "ios": "https://dc.lft.to/lastmile_qr_scan"}, "lon": -77.04568016666667, "name": "73c740c91cf16ba827a85996032167a9", "is_disabled": 0, "is_reserved": 0, "bike_id": "73c740c91cf16ba827a85996032167a9", "lat": 38.917661, "type": "electric_scooter"}, {"fusion_lat": 0.0, "fusion_lon": 0.0, "rental_uris": {"android": "https://dc.lft.to/lastmile_qr_scan", "ios": "https://dc.lft.to/lastmile_qr_scan"}, "lon": -77.03842383333334, "name": "eae7d9007afc489e6a5a680499318e34", "is_disabled": 0, "is_reserved": 0, "bike_id": "eae7d9007afc489e6a5a680499318e34", "lat": 38.90273116666667, "type": "electric_scooter"}, {"fusion_lat": 0.0, "fusion_lon": 0.0, "rental_uris": {"android": "https://dc.lft.to/lastmile_qr_scan", "ios": "https://dc.lft.to/lastmile_qr_scan"}, "lon": -77.04125183333333, "name": "96cc93b6d3ea3bf858906175fb9f2f85", "is_disabled": 0, "is_reserved": 0, "bike_id": "96cc93b6d3ea3bf858906175fb9f2f85", "lat": 38.93354866666667, "type": "electric_scooter"}, {"fusion_lat": 0.0, "fusion_lon": 0.0, "rental_uris": {"android": "https://dc.lft.to/lastmile_qr_scan", "ios": "https://dc.lft.to/lastmile_qr_scan"}, "lon": -77.02089916666667, "name": "7b69fa13f66b3ee8f3398855c248b856", "is_disabled": 0, "is_reserved": 0, "bike_id": "7b69fa13f66b3ee8f3398855c248b856", "lat": 38.9219175, "type": "electric_scooter"}, {"fusion_lat": 0.0, "fusion_lon": 0.0, "rental_uris": {"android": "https://dc.lft.to/lastmile_qr_scan", "ios": "https://dc.lft.to/lastmile_qr_scan"}, "lon": -76.9833865, "name": "874d0e8630715040202f6d7fb9c77e71", "is_disabled": 0, "is_reserved": 0, "bike_id": "874d0e8630715040202f6d7fb9c77e71", "lat": 38.86562966666666, "type": "electric_scooter"}, {"fusion_lat": 0.0, "fusion_lon": 0.0, "rental_uris": {"android": "https://dc.lft.to/lastmile_qr_scan", "ios": "https://dc.lft.to/lastmile_qr_scan"}, "lon": -77.0474525, "name": "45541c300a5014e40d264dba32b3c52a", "is_disabled": 0, "is_reserved": 0, "bike_id": "45541c300a5014e40d264dba32b3c52a", "lat": 38.90362666666667, "type": "electric_scooter"}, {"fusion_lat": 0.0, "fusion_lon": 0.0, "rental_uris": {"android": "https://dc.lft.to/lastmile_qr_scan", "ios": "https://dc.lft.to/lastmile_qr_scan"}, "lon": -77.02171883333334, "name": "4decb7453bf87ab71a00302543441a69", "is_disabled": 0, "is_reserved": 0, "bike_id": "4decb7453bf87ab71a00302543441a69", "lat": 38.942923666666665, "type": "electric_scooter"}, {"fusion_lat": 0.0, "fusion_lon": 0.0, "rental_uris": {"android": "https://dc.lft.to/lastmile_qr_scan", "ios": "https://dc.lft.to/lastmile_qr_scan"}, "lon": -77.02241416666666, "name": "81ae6eb2945ee7e8b399a74f54e40062", "is_disabled": 0, "is_reserved": 0, "bike_id": "81ae6eb2945ee7e8b399a74f54e40062", "lat": 38.9246715, "type": "electric_scooter"}, {"fusion_lat": 0.0, "fusion_lon": 0.0, "rental_uris": {"android": "https://dc.lft.to/lastmile_qr_scan", "ios": "https://dc.lft.to/lastmile_qr_scan"}, "lon": -77.129741, "name": "9d6e540647e916cbb01ae2b17450f531", "is_disabled": 0, "is_reserved": 0, "bike_id": "9d6e540647e916cbb01ae2b17450f531", "lat": 38.7998395, "type": "electric_bike"}, {"fusion_lat": 0.0, "fusion_lon": 0.0, "rental_uris": {"android": "https://dc.lft.to/lastmile_qr_scan", "ios": "https://dc.lft.to/lastmile_qr_scan"}, "lon": -77.05521266666666, "name": "948fa6e6869baf6eb095f60638607526", "is_disabled": 0, "is_reserved": 0, "bike_id": "948fa6e6869baf6eb095f60638607526", "lat": 38.94417833333333, "type": "electric_scooter"}, {"fusion_lat": 0.0, "fusion_lon": 0.0, "rental_uris": {"android": "https://dc.lft.to/lastmile_qr_scan", "ios": "https://dc.lft.to/lastmile_qr_scan"}, "lon": -77.044497, "name": "985bdbbbdd8c20cc9fc2580c0bfc6af0", "is_disabled": 0, "is_reserved": 0, "bike_id": "985bdbbbdd8c20cc9fc2580c0bfc6af0", "lat": 38.896169, "type": "electric_scooter"}, {"fusion_lat": 0.0, "fusion_lon": 0.0, "rental_uris": {"android": "https://dc.lft.to/lastmile_qr_scan", "ios": "https://dc.lft.to/lastmile_qr_scan"}, "lon": -77.03803133333334, "name": "f6ff50e38f8e17fc0cc51cea2ed9e44b", "is_disabled": 0, "is_reserved": 0, "bike_id": "f6ff50e38f8e17fc0cc51cea2ed9e44b", "lat": 38.996892833333334, "type": "electric_bike"}, {"fusion_lat": 0.0, "fusion_lon": 0.0, "rental_uris": {"android": "https://dc.lft.to/lastmile_qr_scan", "ios": "https://dc.lft.to/lastmile_qr_scan"}, "lon": -77.02826916666666, "name": "5b2ecc8b28411eb046b93cc3df2f201e", "is_disabled": 0, "is_reserved": 0, "bike_id": "5b2ecc8b28411eb046b93cc3df2f201e", "lat": 38.92241716666667, "type": "electric_scooter"}, {"fusion_lat": 0.0, "fusion_lon": 0.0, "rental_uris": {"android": "https://dc.lft.to/lastmile_qr_scan", "ios": "https://dc.lft.to/lastmile_qr_scan"}, "lon": -77.0415125, "name": "c5d042f17135f49b4344f74970d2fc80", "is_disabled": 0, "is_reserved": 0, "bike_id": "c5d042f17135f49b4344f74970d2fc80", "lat": 38.901145666666665, "type": "electric_scooter"}, {"fusion_lat": 0.0, "fusion_lon": 0.0, "rental_uris": {"android": "https://dc.lft.to/lastmile_qr_scan", "ios": "https://dc.lft.to/lastmile_qr_scan"}, "lon": -77.05028283333333, "name": "bdf596aea76b866f82469631cda70209", "is_disabled": 0, "is_reserved": 0, "bike_id": "bdf596aea76b866f82469631cda70209", "lat": 38.89656333333333, "type": "electric_scooter"}, {"fusion_lat": 0.0, "fusion_lon": 0.0, "rental_uris": {"android": "https://dc.lft.to/lastmile_qr_scan", "ios": "https://dc.lft.to/lastmile_qr_scan"}, "lon": -77.027085, "name": "abbd471ecf3b275c1e6cf63b2959e2db", "is_disabled": 0, "is_reserved": 0, "bike_id": "abbd471ecf3b275c1e6cf63b2959e2db", "lat": 38.906698, "type": "electric_scooter"}, {"fusion_lat": 0.0, "fusion_lon": 0.0, "rental_uris": {"android": "https://dc.lft.to/lastmile_qr_scan", "ios": "https://dc.lft.to/lastmile_qr_scan"}, "lon": -77.03171583333334, "name": "023a4cf025d0fa18f23104b9334fc758", "is_disabled": 0, "is_reserved": 0, "bike_id": "023a4cf025d0fa18f23104b9334fc758", "lat": 38.902202833333334, "type": "electric_scooter"}, {"fusion_lat": 0.0, "fusion_lon": 0.0, "rental_uris": {"android": "https://dc.lft.to/lastmile_qr_scan", "ios": "https://dc.lft.to/lastmile_qr_scan"}, "lon": -77.02699683333333, "name": "1b34ecb160cedf109b294db8a913a6a3", "is_disabled": 0, "is_reserved": 0, "bike_id": "1b34ecb160cedf109b294db8a913a6a3", "lat": 38.92582916666667, "type": "electric_scooter"}, {"fusion_lat": 0.0, "fusion_lon": 0.0, "rental_uris": {"android": "https://dc.lft.to/lastmile_qr_scan", "ios": "https://dc.lft.to/lastmile_qr_scan"}, "lon": -77.02353966666666, "name": "b706691f936dd15a8c3254bc80a1e492", "is_disabled": 0, "is_reserved": 0, "bike_id": "b706691f936dd15a8c3254bc80a1e492", "lat": 38.93054733333334, "type": "electric_scooter"}, {"fusion_lat": 0.0, "fusion_lon": 0.0, "rental_uris": {"android": "https://dc.lft.to/lastmile_qr_scan", "ios": "https://dc.lft.to/lastmile_qr_scan"}, "lon": -77.04490766666666, "name": "f80cee8c5f210bd6fff0475332a546a6", "is_disabled": 0, "is_reserved": 0, "bike_id": "f80cee8c5f210bd6fff0475332a546a6", "lat": 38.9087395, "type": "electric_scooter"}, {"fusion_lat": 0.0, "fusion_lon": 0.0, "rental_uris": {"android": "https://dc.lft.to/lastmile_qr_scan", "ios": "https://dc.lft.to/lastmile_qr_scan"}, "lon": -76.95415816666667, "name": "7b1c5237880ef4c59cfb3768246a07f5", "is_disabled": 0, "is_reserved": 0, "bike_id": "7b1c5237880ef4c59cfb3768246a07f5", "lat": 38.8898745, "type": "electric_scooter"}, {"fusion_lat": 0.0, "fusion_lon": 0.0, "rental_uris": {"android": "https://dc.lft.to/lastmile_qr_scan", "ios": "https://dc.lft.to/lastmile_qr_scan"}, "lon": -77.04837283333333, "name": "aa02eefe93d7fd6b2d37161aa4ded3a3", "is_disabled": 0, "is_reserved": 0, "bike_id": "aa02eefe93d7fd6b2d37161aa4ded3a3", "lat": 38.91847, "type": "electric_scooter"}, {"fusion_lat": 0.0, "fusion_lon": 0.0, "rental_uris": {"android": "https://dc.lft.to/lastmile_qr_scan", "ios": "https://dc.lft.to/lastmile_qr_scan"}, "lon": -77.02277833333333, "name": "afb84b27c536f41c80fc2e4ce112482e", "is_disabled": 0, "is_reserved": 0, "bike_id": "afb84b27c536f41c80fc2e4ce112482e", "lat": 38.9251875, "type": "electric_scooter"}, {"fusion_lat": 0.0, "fusion_lon": 0.0, "rental_uris": {"android": "https://dc.lft.to/lastmile_qr_scan", "ios": "https://dc.lft.to/lastmile_qr_scan"}, "lon": -77.013901, "name": "aeaa879ccb25ec1209bf98af5b32b303", "is_disabled": 0, "is_reserved": 0, "bike_id": "aeaa879ccb25ec1209bf98af5b32b303", "lat": 38.942298666666666, "type": "electric_scooter"}, {"fusion_lat": 0.0, "fusion_lon": 0.0, "rental_uris": {"android": "https://dc.lft.to/lastmile_qr_scan", "ios": "https://dc.lft.to/lastmile_qr_scan"}, "lon": -77.04220733333334, "name": "3708cba3fdb1e4f785eb6d15c932321e", "is_disabled": 0, "is_reserved": 0, "bike_id": "3708cba3fdb1e4f785eb6d15c932321e", "lat": 38.9231435, "type": "electric_scooter"}, {"fusion_lat": 0.0, "fusion_lon": 0.0, "rental_uris": {"android": "https://dc.lft.to/lastmile_qr_scan", "ios": "https://dc.lft.to/lastmile_qr_scan"}, "lon": -76.96372983333333, "name": "dab1a8787a123d23190bf762ba90f7ae", "is_disabled": 0, "is_reserved": 0, "bike_id": "dab1a8787a123d23190bf762ba90f7ae", "lat": 38.948930833333335, "type": "electric_bike"}, {"fusion_lat": 0.0, "fusion_lon": 0.0, "rental_uris": {"android": "https://dc.lft.to/lastmile_qr_scan", "ios": "https://dc.lft.to/lastmile_qr_scan"}, "lon": -77.04675016666667, "name": "adf96cf4e1fd46606cd37e7fdb9de71c", "is_disabled": 0, "is_reserved": 0, "bike_id": "adf96cf4e1fd46606cd37e7fdb9de71c", "lat": 38.8956055, "type": "electric_scooter"}, {"fusion_lat": 0.0, "fusion_lon": 0.0, "rental_uris": {"android": "https://dc.lft.to/lastmile_qr_scan", "ios": "https://dc.lft.to/lastmile_qr_scan"}, "lon": -77.0318335, "name": "56661594307d6166c4b32a19874a2869", "is_disabled": 0, "is_reserved": 0, "bike_id": "56661594307d6166c4b32a19874a2869", "lat": 38.91325483333333, "type": "electric_scooter"}, {"fusion_lat": 0.0, "fusion_lon": 0.0, "rental_uris": {"android": "https://dc.lft.to/lastmile_qr_scan", "ios": "https://dc.lft.to/lastmile_qr_scan"}, "lon": -77.03490766666667, "name": "c34a2a63167cfa44f0e2777fefdf9977", "is_disabled": 0, "is_reserved": 0, "bike_id": "c34a2a63167cfa44f0e2777fefdf9977", "lat": 38.909716833333334, "type": "electric_scooter"}, {"fusion_lat": 0.0, "fusion_lon": 0.0, "rental_uris": {"android": "https://dc.lft.to/lastmile_qr_scan", "ios": "https://dc.lft.to/lastmile_qr_scan"}, "lon": -77.03306266666667, "name": "0074e68b711895c54b0a75ec4258bfbd", "is_disabled": 0, "is_reserved": 0, "bike_id": "0074e68b711895c54b0a75ec4258bfbd", "lat": 38.924564, "type": "electric_scooter"}, {"fusion_lat": 0.0, "fusion_lon": 0.0, "rental_uris": {"android": "https://dc.lft.to/lastmile_qr_scan", "ios": "https://dc.lft.to/lastmile_qr_scan"}, "lon": -77.04489583333333, "name": "448b2d294d3d2748336d1d3179a8986d", "is_disabled": 0, "is_reserved": 0, "bike_id": "448b2d294d3d2748336d1d3179a8986d", "lat": 38.8975495, "type": "electric_scooter"}, {"fusion_lat": 0.0, "fusion_lon": 0.0, "rental_uris": {"android": "https://dc.lft.to/lastmile_qr_scan", "ios": "https://dc.lft.to/lastmile_qr_scan"}, "lon": -77.0239935, "name": "e19dddad22ba0044e775e726b1f6c513", "is_disabled": 0, "is_reserved": 0, "bike_id": "e19dddad22ba0044e775e726b1f6c513", "lat": 38.905654166666665, "type": "electric_scooter"}, {"fusion_lat": 0.0, "fusion_lon": 0.0, "rental_uris": {"android": "https://dc.lft.to/lastmile_qr_scan", "ios": "https://dc.lft.to/lastmile_qr_scan"}, "lon": -76.97032633333333, "name": "073669f410388dac96215f87986ed57f", "is_disabled": 0, "is_reserved": 0, "bike_id": "073669f410388dac96215f87986ed57f", "lat": 38.873595333333334, "type": "electric_scooter"}, {"fusion_lat": 0.0, "fusion_lon": 0.0, "rental_uris": {"android": "https://dc.lft.to/lastmile_qr_scan", "ios": "https://dc.lft.to/lastmile_qr_scan"}, "lon": -77.01759416666667, "name": "76a53e597a26e9268ca169f4420dadf7", "is_disabled": 0, "is_reserved": 0, "bike_id": "76a53e597a26e9268ca169f4420dadf7", "lat": 38.900986333333336, "type": "electric_scooter"}, {"fusion_lat": 0.0, "fusion_lon": 0.0, "rental_uris": {"android": "https://dc.lft.to/lastmile_qr_scan", "ios": "https://dc.lft.to/lastmile_qr_scan"}, "lon": -77.0216615, "name": "860342089ba5aa494e5a9b10cd7a806a", "is_disabled": 0, "is_reserved": 0, "bike_id": "860342089ba5aa494e5a9b10cd7a806a", "lat": 38.897284666666664, "type": "electric_scooter"}, {"fusion_lat": 0.0, "fusion_lon": 0.0, "rental_uris": {"android": "https://dc.lft.to/lastmile_qr_scan", "ios": "https://dc.lft.to/lastmile_qr_scan"}, "lon": -77.080664, "name": "53898c11355d75feabd1b11dd286fcec", "is_disabled": 0, "is_reserved": 0, "bike_id": "53898c11355d75feabd1b11dd286fcec", "lat": 39.052522333333336, "type": "electric_bike"}, {"fusion_lat": 0.0, "fusion_lon": 0.0, "rental_uris": {"android": "https://dc.lft.to/lastmile_qr_scan", "ios": "https://dc.lft.to/lastmile_qr_scan"}, "lon": -77.029533, "name": "03b203df273d500444c6aa4dbf95b4fd", "is_disabled": 0, "is_reserved": 0, "bike_id": "03b203df273d500444c6aa4dbf95b4fd", "lat": 38.90278883333333, "type": "electric_scooter"}, {"fusion_lat": 0.0, "fusion_lon": 0.0, "rental_uris": {"android": "https://dc.lft.to/lastmile_qr_scan", "ios": "https://dc.lft.to/lastmile_qr_scan"}, "lon": -77.00493866666666, "name": "0974fa33a16b5727ff67c9bf9c4b2e84", "is_disabled": 0, "is_reserved": 0, "bike_id": "0974fa33a16b5727ff67c9bf9c4b2e84", "lat": 38.87461966666667, "type": "electric_scooter"}, {"fusion_lat": 0.0, "fusion_lon": 0.0, "rental_uris": {"android": "https://dc.lft.to/lastmile_qr_scan", "ios": "https://dc.lft.to/lastmile_qr_scan"}, "lon": -77.04614166666667, "name": "e0bd458434512aca2a036b811c6351cc", "is_disabled": 0, "is_reserved": 0, "bike_id": "e0bd458434512aca2a036b811c6351cc", "lat": 38.916835, "type": "electric_scooter"}, {"fusion_lat": 0.0, "fusion_lon": 0.0, "rental_uris": {"android": "https://dc.lft.to/lastmile_qr_scan", "ios": "https://dc.lft.to/lastmile_qr_scan"}, "lon": -77.0515035, "name": "bce3ef27d6dacc7e34c1f95f15ec01e1", "is_disabled": 0, "is_reserved": 0, "bike_id": "bce3ef27d6dacc7e34c1f95f15ec01e1", "lat": 38.9018815, "type": "electric_scooter"}, {"fusion_lat": 0.0, "fusion_lon": 0.0, "rental_uris": {"android": "https://dc.lft.to/lastmile_qr_scan", "ios": "https://dc.lft.to/lastmile_qr_scan"}, "lon": -77.0385915, "name": "8f8997a4892a54d013649de7c66cf1be", "is_disabled": 0, "is_reserved": 0, "bike_id": "8f8997a4892a54d013649de7c66cf1be", "lat": 38.902753833333335, "type": "electric_scooter"}, {"fusion_lat": 0.0, "fusion_lon": 0.0, "rental_uris": {"android": "https://dc.lft.to/lastmile_qr_scan", "ios": "https://dc.lft.to/lastmile_qr_scan"}, "lon": -77.02304616666666, "name": "e29f31834e736e3bf2ddb3c0e47b19b5", "is_disabled": 0, "is_reserved": 0, "bike_id": "e29f31834e736e3bf2ddb3c0e47b19b5", "lat": 38.894960833333336, "type": "electric_scooter"}, {"fusion_lat": 0.0, "fusion_lon": 0.0, "rental_uris": {"android": "https://dc.lft.to/lastmile_qr_scan", "ios": "https://dc.lft.to/lastmile_qr_scan"}, "lon": -77.044981, "name": "1d8162472c2acc25d074ed2ccfeb5832", "is_disabled": 0, "is_reserved": 0, "bike_id": "1d8162472c2acc25d074ed2ccfeb5832", "lat": 38.90374, "type": "electric_scooter"}, {"fusion_lat": 0.0, "fusion_lon": 0.0, "rental_uris": {"android": "https://dc.lft.to/lastmile_qr_scan", "ios": "https://dc.lft.to/lastmile_qr_scan"}, "lon": -77.0136765, "name": "02eac34f0499ff9420df5679d2703c1f", "is_disabled": 0, "is_reserved": 0, "bike_id": "02eac34f0499ff9420df5679d2703c1f", "lat": 38.9286525, "type": "electric_scooter"}, {"fusion_lat": 0.0, "fusion_lon": 0.0, "rental_uris": {"android": "https://dc.lft.to/lastmile_qr_scan", "ios": "https://dc.lft.to/lastmile_qr_scan"}, "lon": -77.03382933333333, "name": "7ba556e3af5cfab6916a9598046ab275", "is_disabled": 0, "is_reserved": 0, "bike_id": "7ba556e3af5cfab6916a9598046ab275", "lat": 38.925377, "type": "electric_scooter"}, {"fusion_lat": 0.0, "fusion_lon": 0.0, "rental_uris": {"android": "https://dc.lft.to/lastmile_qr_scan", "ios": "https://dc.lft.to/lastmile_qr_scan"}, "lon": -77.04224066666667, "name": "1bbb27495f9271ad9e8ccdcd1e8df368", "is_disabled": 0, "is_reserved": 0, "bike_id": "1bbb27495f9271ad9e8ccdcd1e8df368", "lat": 38.91413716666667, "type": "electric_scooter"}, {"fusion_lat": 0.0, "fusion_lon": 0.0, "rental_uris": {"android": "https://dc.lft.to/lastmile_qr_scan", "ios": "https://dc.lft.to/lastmile_qr_scan"}, "lon": -77.02089116666667, "name": "c2a636527ff59a439e93004894fbbd5e", "is_disabled": 0, "is_reserved": 0, "bike_id": "c2a636527ff59a439e93004894fbbd5e", "lat": 38.966465666666664, "type": "electric_scooter"}, {"fusion_lat": 0.0, "fusion_lon": 0.0, "rental_uris": {"android": "https://dc.lft.to/lastmile_qr_scan", "ios": "https://dc.lft.to/lastmile_qr_scan"}, "lon": -77.09961433333334, "name": "7173d6422c0b3cfc433b98a1bce59fc0", "is_disabled": 0, "is_reserved": 0, "bike_id": "7173d6422c0b3cfc433b98a1bce59fc0", "lat": 38.85790766666667, "type": "electric_bike"}, {"fusion_lat": 0.0, "fusion_lon": 0.0, "rental_uris": {"android": "https://dc.lft.to/lastmile_qr_scan", "ios": "https://dc.lft.to/lastmile_qr_scan"}, "lon": -77.0318645, "name": "ffb9d41050a9e6a66d50b09533704b8f", "is_disabled": 0, "is_reserved": 0, "bike_id": "ffb9d41050a9e6a66d50b09533704b8f", "lat": 38.91337633333333, "type": "electric_scooter"}, {"fusion_lat": 0.0, "fusion_lon": 0.0, "rental_uris": {"android": "https://dc.lft.to/lastmile_qr_scan", "ios": "https://dc.lft.to/lastmile_qr_scan"}, "lon": -77.04532, "name": "6211638d774d20d52778d27be5e748df", "is_disabled": 0, "is_reserved": 0, "bike_id": "6211638d774d20d52778d27be5e748df", "lat": 39.03308883333333, "type": "electric_bike"}, {"fusion_lat": 0.0, "fusion_lon": 0.0, "rental_uris": {"android": "https://dc.lft.to/lastmile_qr_scan", "ios": "https://dc.lft.to/lastmile_qr_scan"}, "lon": -76.958382, "name": "41298cfe6ee769325699600acdb09e2f", "is_disabled": 0, "is_reserved": 0, "bike_id": "41298cfe6ee769325699600acdb09e2f", "lat": 38.930472333333334, "type": "electric_bike"}, {"fusion_lat": 0.0, "fusion_lon": 0.0, "rental_uris": {"android": "https://dc.lft.to/lastmile_qr_scan", "ios": "https://dc.lft.to/lastmile_qr_scan"}, "lon": -77.05151416666666, "name": "16fb102fb51fa9c8836d6797807cb610", "is_disabled": 0, "is_reserved": 0, "bike_id": "16fb102fb51fa9c8836d6797807cb610", "lat": 38.92377166666667, "type": "electric_scooter"}, {"fusion_lat": 0.0, "fusion_lon": 0.0, "rental_uris": {"android": "https://dc.lft.to/lastmile_qr_scan", "ios": "https://dc.lft.to/lastmile_qr_scan"}, "lon": -77.02867266666667, "name": "f2427443e1205548ad66a7ee022f3aa4", "is_disabled": 0, "is_reserved": 0, "bike_id": "f2427443e1205548ad66a7ee022f3aa4", "lat": 38.893572166666665, "type": "electric_scooter"}, {"fusion_lat": 0.0, "fusion_lon": 0.0, "rental_uris": {"android": "https://dc.lft.to/lastmile_qr_scan", "ios": "https://dc.lft.to/lastmile_qr_scan"}, "lon": -77.00610066666667, "name": "fd92a2a3d4603dc40b503780dda9da10", "is_disabled": 0, "is_reserved": 0, "bike_id": "fd92a2a3d4603dc40b503780dda9da10", "lat": 38.871792166666665, "type": "electric_scooter"}, {"fusion_lat": 0.0, "fusion_lon": 0.0, "rental_uris": {"android": "https://dc.lft.to/lastmile_qr_scan", "ios": "https://dc.lft.to/lastmile_qr_scan"}, "lon": -77.0330625, "name": "03d8c09b868bfaaa60b3142985717d49", "is_disabled": 0, "is_reserved": 0, "bike_id": "03d8c09b868bfaaa60b3142985717d49", "lat": 38.903457833333334, "type": "electric_scooter"}, {"fusion_lat": 0.0, "fusion_lon": 0.0, "rental_uris": {"android": "https://dc.lft.to/lastmile_qr_scan", "ios": "https://dc.lft.to/lastmile_qr_scan"}, "lon": -76.97237200000001, "name": "5fcc0613c325fe91bbee43f4fe19cf88", "is_disabled": 0, "is_reserved": 0, "bike_id": "5fcc0613c325fe91bbee43f4fe19cf88", "lat": 38.90424466666666, "type": "electric_bike"}, {"fusion_lat": 0.0, "fusion_lon": 0.0, "rental_uris": {"android": "https://dc.lft.to/lastmile_qr_scan", "ios": "https://dc.lft.to/lastmile_qr_scan"}, "lon": -77.03820466666667, "name": "677ea178ae098f8a32ad0de20f9ecce0", "is_disabled": 0, "is_reserved": 0, "bike_id": "677ea178ae098f8a32ad0de20f9ecce0", "lat": 38.912684666666664, "type": "electric_scooter"}, {"fusion_lat": 0.0, "fusion_lon": 0.0, "rental_uris": {"android": "https://dc.lft.to/lastmile_qr_scan", "ios": "https://dc.lft.to/lastmile_qr_scan"}, "lon": -76.99773316666666, "name": "8c81f445b6ab63bf779e672128b8c343", "is_disabled": 0, "is_reserved": 0, "bike_id": "8c81f445b6ab63bf779e672128b8c343", "lat": 38.84437366666667, "type": "electric_scooter"}, {"fusion_lat": 0.0, "fusion_lon": 0.0, "rental_uris": {"android": "https://dc.lft.to/lastmile_qr_scan", "ios": "https://dc.lft.to/lastmile_qr_scan"}, "lon": -77.02552883333334, "name": "5bc45e3c7e6b5da5487a0bcbdeec6b6d", "is_disabled": 0, "is_reserved": 0, "bike_id": "5bc45e3c7e6b5da5487a0bcbdeec6b6d", "lat": 38.93087033333333, "type": "electric_scooter"}, {"fusion_lat": 0.0, "fusion_lon": 0.0, "rental_uris": {"android": "https://dc.lft.to/lastmile_qr_scan", "ios": "https://dc.lft.to/lastmile_qr_scan"}, "lon": -77.029397, "name": "b83f9ad29ccd15f1091d1e64eda3bece", "is_disabled": 0, "is_reserved": 0, "bike_id": "b83f9ad29ccd15f1091d1e64eda3bece", "lat": 38.902332333333334, "type": "electric_scooter"}, {"fusion_lat": 0.0, "fusion_lon": 0.0, "rental_uris": {"android": "https://dc.lft.to/lastmile_qr_scan", "ios": "https://dc.lft.to/lastmile_qr_scan"}, "lon": -76.96529483333333, "name": "fcb3f10c96021873d9e6ea4e491a9f7d", "is_disabled": 0, "is_reserved": 0, "bike_id": "fcb3f10c96021873d9e6ea4e491a9f7d", "lat": 38.874755, "type": "electric_bike"}, {"fusion_lat": 0.0, "fusion_lon": 0.0, "rental_uris": {"android": "https://dc.lft.to/lastmile_qr_scan", "ios": "https://dc.lft.to/lastmile_qr_scan"}, "lon": -76.988945, "name": "55d50ba61af2c91bc97790cfb4494649", "is_disabled": 0, "is_reserved": 0, "bike_id": "55d50ba61af2c91bc97790cfb4494649", "lat": 38.866610666666666, "type": "electric_scooter"}, {"fusion_lat": 0.0, "fusion_lon": 0.0, "rental_uris": {"android": "https://dc.lft.to/lastmile_qr_scan", "ios": "https://dc.lft.to/lastmile_qr_scan"}, "lon": -77.078265, "name": "3007c3395abebb8b3346796f1869fb67", "is_disabled": 0, "is_reserved": 0, "bike_id": "3007c3395abebb8b3346796f1869fb67", "lat": 38.93157183333334, "type": "electric_scooter"}, {"fusion_lat": 0.0, "fusion_lon": 0.0, "rental_uris": {"android": "https://dc.lft.to/lastmile_qr_scan", "ios": "https://dc.lft.to/lastmile_qr_scan"}, "lon": -77.00878033333333, "name": "1ba12fa5ff3a075d87f86773bc5a4964", "is_disabled": 0, "is_reserved": 0, "bike_id": "1ba12fa5ff3a075d87f86773bc5a4964", "lat": 38.91449, "type": "electric_scooter"}, {"fusion_lat": 0.0, "fusion_lon": 0.0, "rental_uris": {"android": "https://dc.lft.to/lastmile_qr_scan", "ios": "https://dc.lft.to/lastmile_qr_scan"}, "lon": -77.02833533333333, "name": "f15d5eae2ab828c86b53b4c0543839e9", "is_disabled": 0, "is_reserved": 0, "bike_id": "f15d5eae2ab828c86b53b4c0543839e9", "lat": 38.887313166666665, "type": "electric_scooter"}, {"fusion_lat": 0.0, "fusion_lon": 0.0, "rental_uris": {"android": "https://dc.lft.to/lastmile_qr_scan", "ios": "https://dc.lft.to/lastmile_qr_scan"}, "lon": -76.99580866666666, "name": "f09b23f70526786ef9e002b7ddaae821", "is_disabled": 0, "is_reserved": 0, "bike_id": "f09b23f70526786ef9e002b7ddaae821", "lat": 38.85176333333333, "type": "electric_scooter"}, {"fusion_lat": 0.0, "fusion_lon": 0.0, "rental_uris": {"android": "https://dc.lft.to/lastmile_qr_scan", "ios": "https://dc.lft.to/lastmile_qr_scan"}, "lon": -77.04997116666667, "name": "dfb78864d00f044ab6d55fbd50ffbb52", "is_disabled": 0, "is_reserved": 0, "bike_id": "dfb78864d00f044ab6d55fbd50ffbb52", "lat": 38.90121533333333, "type": "electric_scooter"}, {"fusion_lat": 0.0, "fusion_lon": 0.0, "rental_uris": {"android": "https://dc.lft.to/lastmile_qr_scan", "ios": "https://dc.lft.to/lastmile_qr_scan"}, "lon": -77.063107, "name": "f5518a92fa3ea69edc7cbbc3011ba038", "is_disabled": 0, "is_reserved": 0, "bike_id": "f5518a92fa3ea69edc7cbbc3011ba038", "lat": 38.798540833333334, "type": "electric_bike"}, {"fusion_lat": 0.0, "fusion_lon": 0.0, "rental_uris": {"android": "https://dc.lft.to/lastmile_qr_scan", "ios": "https://dc.lft.to/lastmile_qr_scan"}, "lon": -77.0176945, "name": "5393d87f60096bb26b9ea4e7bfd965c5", "is_disabled": 0, "is_reserved": 0, "bike_id": "5393d87f60096bb26b9ea4e7bfd965c5", "lat": 38.877616833333335, "type": "electric_scooter"}, {"fusion_lat": 0.0, "fusion_lon": 0.0, "rental_uris": {"android": "https://dc.lft.to/lastmile_qr_scan", "ios": "https://dc.lft.to/lastmile_qr_scan"}, "lon": -77.02206633333333, "name": "ad00ac6327ea35247227e75b5f0a63b3", "is_disabled": 0, "is_reserved": 0, "bike_id": "ad00ac6327ea35247227e75b5f0a63b3", "lat": 38.901803666666666, "type": "electric_scooter"}, {"fusion_lat": 0.0, "fusion_lon": 0.0, "rental_uris": {"android": "https://dc.lft.to/lastmile_qr_scan", "ios": "https://dc.lft.to/lastmile_qr_scan"}, "lon": -77.022885, "name": "df63520ecd8c0172e26f7fec4989a01e", "is_disabled": 0, "is_reserved": 0, "bike_id": "df63520ecd8c0172e26f7fec4989a01e", "lat": 38.895187166666666, "type": "electric_scooter"}, {"fusion_lat": 0.0, "fusion_lon": 0.0, "rental_uris": {"android": "https://dc.lft.to/lastmile_qr_scan", "ios": "https://dc.lft.to/lastmile_qr_scan"}, "lon": -77.045774, "name": "23b09c1bca8b5ab1581430412a7a62eb", "is_disabled": 0, "is_reserved": 0, "bike_id": "23b09c1bca8b5ab1581430412a7a62eb", "lat": 38.921231166666665, "type": "electric_scooter"}, {"fusion_lat": 0.0, "fusion_lon": 0.0, "rental_uris": {"android": "https://dc.lft.to/lastmile_qr_scan", "ios": "https://dc.lft.to/lastmile_qr_scan"}, "lon": -77.0248235, "name": "d1b4a9672be816181a88008e55243d80", "is_disabled": 0, "is_reserved": 0, "bike_id": "d1b4a9672be816181a88008e55243d80", "lat": 38.9169575, "type": "electric_scooter"}, {"fusion_lat": 0.0, "fusion_lon": 0.0, "rental_uris": {"android": "https://dc.lft.to/lastmile_qr_scan", "ios": "https://dc.lft.to/lastmile_qr_scan"}, "lon": -77.04917633333334, "name": "7291ff87284c5d0197dfe615ba9f6806", "is_disabled": 0, "is_reserved": 0, "bike_id": "7291ff87284c5d0197dfe615ba9f6806", "lat": 38.8545485, "type": "electric_bike"}, {"fusion_lat": 0.0, "fusion_lon": 0.0, "rental_uris": {"android": "https://dc.lft.to/lastmile_qr_scan", "ios": "https://dc.lft.to/lastmile_qr_scan"}, "lon": -77.02377333333334, "name": "cf0e7c30250e68d56679af857fb2748b", "is_disabled": 0, "is_reserved": 0, "bike_id": "cf0e7c30250e68d56679af857fb2748b", "lat": 38.907264166666664, "type": "electric_scooter"}, {"fusion_lat": 0.0, "fusion_lon": 0.0, "rental_uris": {"android": "https://dc.lft.to/lastmile_qr_scan", "ios": "https://dc.lft.to/lastmile_qr_scan"}, "lon": -77.024951, "name": "ade15097dbf838e07fcd2a37ff24d6f4", "is_disabled": 0, "is_reserved": 0, "bike_id": "ade15097dbf838e07fcd2a37ff24d6f4", "lat": 38.940918833333335, "type": "electric_scooter"}, {"fusion_lat": 0.0, "fusion_lon": 0.0, "rental_uris": {"android": "https://dc.lft.to/lastmile_qr_scan", "ios": "https://dc.lft.to/lastmile_qr_scan"}, "lon": -77.03220116666667, "name": "307027c68508a9747f25fba62cca7c79", "is_disabled": 0, "is_reserved": 0, "bike_id": "307027c68508a9747f25fba62cca7c79", "lat": 38.927851, "type": "electric_scooter"}, {"fusion_lat": 0.0, "fusion_lon": 0.0, "rental_uris": {"android": "https://dc.lft.to/lastmile_qr_scan", "ios": "https://dc.lft.to/lastmile_qr_scan"}, "lon": -77.02364466666667, "name": "04a36fbc94b014b1a1415e7ced413e6c", "is_disabled": 0, "is_reserved": 0, "bike_id": "04a36fbc94b014b1a1415e7ced413e6c", "lat": 38.93740566666666, "type": "electric_scooter"}, {"fusion_lat": 0.0, "fusion_lon": 0.0, "rental_uris": {"android": "https://dc.lft.to/lastmile_qr_scan", "ios": "https://dc.lft.to/lastmile_qr_scan"}, "lon": -77.0390345, "name": "aeac976bc82065ee9ae5510e4c2e0612", "is_disabled": 0, "is_reserved": 0, "bike_id": "aeac976bc82065ee9ae5510e4c2e0612", "lat": 38.904654, "type": "electric_scooter"}, {"fusion_lat": 0.0, "fusion_lon": 0.0, "rental_uris": {"android": "https://dc.lft.to/lastmile_qr_scan", "ios": "https://dc.lft.to/lastmile_qr_scan"}, "lon": -77.04010633333333, "name": "ce85b4c5bd05cddd1c0504548cf500c8", "is_disabled": 0, "is_reserved": 0, "bike_id": "ce85b4c5bd05cddd1c0504548cf500c8", "lat": 38.896365333333335, "type": "electric_scooter"}, {"fusion_lat": 0.0, "fusion_lon": 0.0, "rental_uris": {"android": "https://dc.lft.to/lastmile_qr_scan", "ios": "https://dc.lft.to/lastmile_qr_scan"}, "lon": -77.043505, "name": "5f3af76c651cd4adeadcbcf48a16b9e4", "is_disabled": 0, "is_reserved": 0, "bike_id": "5f3af76c651cd4adeadcbcf48a16b9e4", "lat": 38.908343, "type": "electric_scooter"}, {"fusion_lat": 0.0, "fusion_lon": 0.0, "rental_uris": {"android": "https://dc.lft.to/lastmile_qr_scan", "ios": "https://dc.lft.to/lastmile_qr_scan"}, "lon": -77.042551, "name": "88e708435b709baa609f35b8bc98a941", "is_disabled": 0, "is_reserved": 0, "bike_id": "88e708435b709baa609f35b8bc98a941", "lat": 38.922444666666664, "type": "electric_scooter"}, {"fusion_lat": 0.0, "fusion_lon": 0.0, "rental_uris": {"android": "https://dc.lft.to/lastmile_qr_scan", "ios": "https://dc.lft.to/lastmile_qr_scan"}, "lon": -77.00742483333333, "name": "5d3cb1daf1ed0b7c859ef68bd09aaf46", "is_disabled": 0, "is_reserved": 0, "bike_id": "5d3cb1daf1ed0b7c859ef68bd09aaf46", "lat": 38.89836716666667, "type": "electric_scooter"}, {"fusion_lat": 0.0, "fusion_lon": 0.0, "rental_uris": {"android": "https://dc.lft.to/lastmile_qr_scan", "ios": "https://dc.lft.to/lastmile_qr_scan"}, "lon": -77.0522525, "name": "1e769c0f8daa7cda103ae4c57663679e", "is_disabled": 0, "is_reserved": 0, "bike_id": "1e769c0f8daa7cda103ae4c57663679e", "lat": 38.924453, "type": "electric_scooter"}, {"fusion_lat": 0.0, "fusion_lon": 0.0, "rental_uris": {"android": "https://dc.lft.to/lastmile_qr_scan", "ios": "https://dc.lft.to/lastmile_qr_scan"}, "lon": -76.9998365, "name": "bacdbe4af084b4f876f77e545cd51ce3", "is_disabled": 0, "is_reserved": 0, "bike_id": "bacdbe4af084b4f876f77e545cd51ce3", "lat": 38.8750505, "type": "electric_scooter"}, {"fusion_lat": 0.0, "fusion_lon": 0.0, "rental_uris": {"android": "https://dc.lft.to/lastmile_qr_scan", "ios": "https://dc.lft.to/lastmile_qr_scan"}, "lon": -77.03713233333333, "name": "45328bfb0529fab0a0d3720915268b12", "is_disabled": 0, "is_reserved": 0, "bike_id": "45328bfb0529fab0a0d3720915268b12", "lat": 38.90229, "type": "electric_scooter"}, {"fusion_lat": 0.0, "fusion_lon": 0.0, "rental_uris": {"android": "https://dc.lft.to/lastmile_qr_scan", "ios": "https://dc.lft.to/lastmile_qr_scan"}, "lon": -76.98338766666667, "name": "55de99cda05003ce9019bf5397149823", "is_disabled": 0, "is_reserved": 0, "bike_id": "55de99cda05003ce9019bf5397149823", "lat": 38.8656155, "type": "electric_scooter"}, {"fusion_lat": 0.0, "fusion_lon": 0.0, "rental_uris": {"android": "https://dc.lft.to/lastmile_qr_scan", "ios": "https://dc.lft.to/lastmile_qr_scan"}, "lon": -77.0466265, "name": "879a712d4b5cd89ee1d78db37fc14cc0", "is_disabled": 0, "is_reserved": 0, "bike_id": "879a712d4b5cd89ee1d78db37fc14cc0", "lat": 38.904149333333336, "type": "electric_bike"}, {"fusion_lat": 0.0, "fusion_lon": 0.0, "rental_uris": {"android": "https://dc.lft.to/lastmile_qr_scan", "ios": "https://dc.lft.to/lastmile_qr_scan"}, "lon": -77.05861316666666, "name": "2cd8be1f7c80a7abdc941c113e8e68d9", "is_disabled": 0, "is_reserved": 0, "bike_id": "2cd8be1f7c80a7abdc941c113e8e68d9", "lat": 38.936138166666666, "type": "electric_scooter"}, {"fusion_lat": 0.0, "fusion_lon": 0.0, "rental_uris": {"android": "https://dc.lft.to/lastmile_qr_scan", "ios": "https://dc.lft.to/lastmile_qr_scan"}, "lon": -77.01980516666667, "name": "2ec002dd19b70179d56082bf4ee67d7b", "is_disabled": 0, "is_reserved": 0, "bike_id": "2ec002dd19b70179d56082bf4ee67d7b", "lat": 38.89351683333334, "type": "electric_scooter"}, {"fusion_lat": 0.0, "fusion_lon": 0.0, "rental_uris": {"android": "https://dc.lft.to/lastmile_qr_scan", "ios": "https://dc.lft.to/lastmile_qr_scan"}, "lon": -77.025831, "name": "250087a3cc680411d592d1906bdc2386", "is_disabled": 0, "is_reserved": 0, "bike_id": "250087a3cc680411d592d1906bdc2386", "lat": 38.902366, "type": "electric_scooter"}, {"fusion_lat": 0.0, "fusion_lon": 0.0, "rental_uris": {"android": "https://dc.lft.to/lastmile_qr_scan", "ios": "https://dc.lft.to/lastmile_qr_scan"}, "lon": -77.00291633333333, "name": "dcf8c7195be59c29287f4cf29b2e645e", "is_disabled": 0, "is_reserved": 0, "bike_id": "dcf8c7195be59c29287f4cf29b2e645e", "lat": 38.877266, "type": "electric_scooter"}, {"fusion_lat": 0.0, "fusion_lon": 0.0, "rental_uris": {"android": "https://dc.lft.to/lastmile_qr_scan", "ios": "https://dc.lft.to/lastmile_qr_scan"}, "lon": -77.02169883333333, "name": "f2b68417b1c2735a91a2fefe48265e93", "is_disabled": 0, "is_reserved": 0, "bike_id": "f2b68417b1c2735a91a2fefe48265e93", "lat": 38.89730266666667, "type": "electric_scooter"}, {"fusion_lat": 0.0, "fusion_lon": 0.0, "rental_uris": {"android": "https://dc.lft.to/lastmile_qr_scan", "ios": "https://dc.lft.to/lastmile_qr_scan"}, "lon": -77.01755216666666, "name": "feb4b70424d5f91653406d0297fe80ff", "is_disabled": 0, "is_reserved": 0, "bike_id": "feb4b70424d5f91653406d0297fe80ff", "lat": 38.90266466666667, "type": "electric_scooter"}, {"fusion_lat": 0.0, "fusion_lon": 0.0, "rental_uris": {"android": "https://dc.lft.to/lastmile_qr_scan", "ios": "https://dc.lft.to/lastmile_qr_scan"}, "lon": -77.00330066666666, "name": "945926e4fe0966a8b93244158d01d9eb", "is_disabled": 0, "is_reserved": 0, "bike_id": "945926e4fe0966a8b93244158d01d9eb", "lat": 38.88500916666667, "type": "electric_scooter"}, {"fusion_lat": 0.0, "fusion_lon": 0.0, "rental_uris": {"android": "https://dc.lft.to/lastmile_qr_scan", "ios": "https://dc.lft.to/lastmile_qr_scan"}, "lon": -77.0122075, "name": "358098f40e751473ee37dc37ac31cbc5", "is_disabled": 0, "is_reserved": 0, "bike_id": "358098f40e751473ee37dc37ac31cbc5", "lat": 38.926014, "type": "electric_scooter"}, {"fusion_lat": 0.0, "fusion_lon": 0.0, "rental_uris": {"android": "https://dc.lft.to/lastmile_qr_scan", "ios": "https://dc.lft.to/lastmile_qr_scan"}, "lon": -77.04979983333334, "name": "5b5477ab868089d4b35210aba10de3b9", "is_disabled": 0, "is_reserved": 0, "bike_id": "5b5477ab868089d4b35210aba10de3b9", "lat": 38.91789133333333, "type": "electric_scooter"}, {"fusion_lat": 0.0, "fusion_lon": 0.0, "rental_uris": {"android": "https://dc.lft.to/lastmile_qr_scan", "ios": "https://dc.lft.to/lastmile_qr_scan"}, "lon": -77.03986733333333, "name": "1c25d644ae9f44c2e9d087d7ef1e28ed", "is_disabled": 0, "is_reserved": 0, "bike_id": "1c25d644ae9f44c2e9d087d7ef1e28ed", "lat": 38.901521333333335, "type": "electric_scooter"}, {"fusion_lat": 0.0, "fusion_lon": 0.0, "rental_uris": {"android": "https://dc.lft.to/lastmile_qr_scan", "ios": "https://dc.lft.to/lastmile_qr_scan"}, "lon": -77.02965083333333, "name": "700b3290abdfaaa5a7335a39cd78ff03", "is_disabled": 0, "is_reserved": 0, "bike_id": "700b3290abdfaaa5a7335a39cd78ff03", "lat": 38.92269966666667, "type": "electric_scooter"}, {"fusion_lat": 0.0, "fusion_lon": 0.0, "rental_uris": {"android": "https://dc.lft.to/lastmile_qr_scan", "ios": "https://dc.lft.to/lastmile_qr_scan"}, "lon": -77.03306633333334, "name": "e74509cae979f6c94bee2d88c8b43f3b", "is_disabled": 0, "is_reserved": 0, "bike_id": "e74509cae979f6c94bee2d88c8b43f3b", "lat": 38.95639233333333, "type": "electric_scooter"}, {"fusion_lat": 0.0, "fusion_lon": 0.0, "rental_uris": {"android": "https://dc.lft.to/lastmile_qr_scan", "ios": "https://dc.lft.to/lastmile_qr_scan"}, "lon": -77.03317416666667, "name": "b460875ac347f0421b807f2136cdbec4", "is_disabled": 0, "is_reserved": 0, "bike_id": "b460875ac347f0421b807f2136cdbec4", "lat": 38.9156095, "type": "electric_scooter"}, {"fusion_lat": 0.0, "fusion_lon": 0.0, "rental_uris": {"android": "https://dc.lft.to/lastmile_qr_scan", "ios": "https://dc.lft.to/lastmile_qr_scan"}, "lon": -76.9828285, "name": "b57d649c1cfe174850678c23589275f4", "is_disabled": 0, "is_reserved": 0, "bike_id": "b57d649c1cfe174850678c23589275f4", "lat": 38.867542666666665, "type": "electric_scooter"}, {"fusion_lat": 0.0, "fusion_lon": 0.0, "rental_uris": {"android": "https://dc.lft.to/lastmile_qr_scan", "ios": "https://dc.lft.to/lastmile_qr_scan"}, "lon": -77.020031, "name": "da94b8046fa35a87e7f0451f6b231622", "is_disabled": 0, "is_reserved": 0, "bike_id": "da94b8046fa35a87e7f0451f6b231622", "lat": 38.89784616666667, "type": "electric_scooter"}, {"fusion_lat": 0.0, "fusion_lon": 0.0, "rental_uris": {"android": "https://dc.lft.to/lastmile_qr_scan", "ios": "https://dc.lft.to/lastmile_qr_scan"}, "lon": -77.0467315, "name": "25929168d30b0dcddc7132ebe7659d7f", "is_disabled": 0, "is_reserved": 0, "bike_id": "25929168d30b0dcddc7132ebe7659d7f", "lat": 38.9024585, "type": "electric_scooter"}, {"fusion_lat": 0.0, "fusion_lon": 0.0, "rental_uris": {"android": "https://dc.lft.to/lastmile_qr_scan", "ios": "https://dc.lft.to/lastmile_qr_scan"}, "lon": -77.06331383333334, "name": "f6e84d5af5ad3d37502a88b084d677a2", "is_disabled": 0, "is_reserved": 0, "bike_id": "f6e84d5af5ad3d37502a88b084d677a2", "lat": 38.921078333333334, "type": "electric_scooter"}, {"fusion_lat": 0.0, "fusion_lon": 0.0, "rental_uris": {"android": "https://dc.lft.to/lastmile_qr_scan", "ios": "https://dc.lft.to/lastmile_qr_scan"}, "lon": -77.00917766666667, "name": "4cda56f44a43bfcd7873b592b6c15c19", "is_disabled": 0, "is_reserved": 0, "bike_id": "4cda56f44a43bfcd7873b592b6c15c19", "lat": 38.92274316666666, "type": "electric_scooter"}, {"fusion_lat": 0.0, "fusion_lon": 0.0, "rental_uris": {"android": "https://dc.lft.to/lastmile_qr_scan", "ios": "https://dc.lft.to/lastmile_qr_scan"}, "lon": -77.03354716666666, "name": "15429e5357b32768a66af07eb9fe6492", "is_disabled": 0, "is_reserved": 0, "bike_id": "15429e5357b32768a66af07eb9fe6492", "lat": 38.938526, "type": "electric_scooter"}, {"fusion_lat": 0.0, "fusion_lon": 0.0, "rental_uris": {"android": "https://dc.lft.to/lastmile_qr_scan", "ios": "https://dc.lft.to/lastmile_qr_scan"}, "lon": -77.02398816666667, "name": "ebf6aca8cd1307275b90deb7f8f7efe2", "is_disabled": 0, "is_reserved": 0, "bike_id": "ebf6aca8cd1307275b90deb7f8f7efe2", "lat": 38.90558016666667, "type": "electric_scooter"}, {"fusion_lat": 0.0, "fusion_lon": 0.0, "rental_uris": {"android": "https://dc.lft.to/lastmile_qr_scan", "ios": "https://dc.lft.to/lastmile_qr_scan"}, "lon": -77.04700783333334, "name": "bf69a37166b213c74e1aad8078ff3740", "is_disabled": 0, "is_reserved": 0, "bike_id": "bf69a37166b213c74e1aad8078ff3740", "lat": 38.92179016666667, "type": "electric_scooter"}, {"fusion_lat": 0.0, "fusion_lon": 0.0, "rental_uris": {"android": "https://dc.lft.to/lastmile_qr_scan", "ios": "https://dc.lft.to/lastmile_qr_scan"}, "lon": -77.02367333333333, "name": "d2536b2609b328e6af89810fb914d5da", "is_disabled": 0, "is_reserved": 0, "bike_id": "d2536b2609b328e6af89810fb914d5da", "lat": 38.902132333333334, "type": "electric_scooter"}, {"fusion_lat": 0.0, "fusion_lon": 0.0, "rental_uris": {"android": "https://dc.lft.to/lastmile_qr_scan", "ios": "https://dc.lft.to/lastmile_qr_scan"}, "lon": -77.0219825, "name": "3e057af0f92fe721b46b0e976767c8d5", "is_disabled": 0, "is_reserved": 0, "bike_id": "3e057af0f92fe721b46b0e976767c8d5", "lat": 38.895304333333335, "type": "electric_scooter"}, {"fusion_lat": 0.0, "fusion_lon": 0.0, "rental_uris": {"android": "https://dc.lft.to/lastmile_qr_scan", "ios": "https://dc.lft.to/lastmile_qr_scan"}, "lon": -77.033203, "name": "5fa1cf37d0e0994d027262542c9b3e00", "is_disabled": 0, "is_reserved": 0, "bike_id": "5fa1cf37d0e0994d027262542c9b3e00", "lat": 38.911107, "type": "electric_scooter"}, {"fusion_lat": 0.0, "fusion_lon": 0.0, "rental_uris": {"android": "https://dc.lft.to/lastmile_qr_scan", "ios": "https://dc.lft.to/lastmile_qr_scan"}, "lon": -77.04232, "name": "8a02169d6924eac81fb5a63d239dd997", "is_disabled": 0, "is_reserved": 0, "bike_id": "8a02169d6924eac81fb5a63d239dd997", "lat": 38.923099, "type": "electric_scooter"}, {"fusion_lat": 0.0, "fusion_lon": 0.0, "rental_uris": {"android": "https://dc.lft.to/lastmile_qr_scan", "ios": "https://dc.lft.to/lastmile_qr_scan"}, "lon": -76.96530083333333, "name": "843e82c02e6a6565ac36d8ed52ab07b6", "is_disabled": 0, "is_reserved": 0, "bike_id": "843e82c02e6a6565ac36d8ed52ab07b6", "lat": 38.876287, "type": "electric_scooter"}, {"fusion_lat": 0.0, "fusion_lon": 0.0, "rental_uris": {"android": "https://dc.lft.to/lastmile_qr_scan", "ios": "https://dc.lft.to/lastmile_qr_scan"}, "lon": -77.0312555, "name": "cddabb43dfdbb36edc6dd8ccdb0330c1", "is_disabled": 0, "is_reserved": 0, "bike_id": "cddabb43dfdbb36edc6dd8ccdb0330c1", "lat": 38.920194333333335, "type": "electric_scooter"}, {"fusion_lat": 0.0, "fusion_lon": 0.0, "rental_uris": {"android": "https://dc.lft.to/lastmile_qr_scan", "ios": "https://dc.lft.to/lastmile_qr_scan"}, "lon": -76.97641383333334, "name": "7fd144e52e1037599d16b6ece5aacc75", "is_disabled": 0, "is_reserved": 0, "bike_id": "7fd144e52e1037599d16b6ece5aacc75", "lat": 38.88686633333333, "type": "electric_scooter"}, {"fusion_lat": 0.0, "fusion_lon": 0.0, "rental_uris": {"android": "https://dc.lft.to/lastmile_qr_scan", "ios": "https://dc.lft.to/lastmile_qr_scan"}, "lon": -77.05015066666667, "name": "9899bcec098afb4062149f30757f2baa", "is_disabled": 0, "is_reserved": 0, "bike_id": "9899bcec098afb4062149f30757f2baa", "lat": 38.89747083333334, "type": "electric_scooter"}, {"fusion_lat": 0.0, "fusion_lon": 0.0, "rental_uris": {"android": "https://dc.lft.to/lastmile_qr_scan", "ios": "https://dc.lft.to/lastmile_qr_scan"}, "lon": -77.078842, "name": "f8777cdddd8ae3e6dbf5a02e2f20818d", "is_disabled": 0, "is_reserved": 0, "bike_id": "f8777cdddd8ae3e6dbf5a02e2f20818d", "lat": 38.842549, "type": "electric_bike"}, {"fusion_lat": 0.0, "fusion_lon": 0.0, "rental_uris": {"android": "https://dc.lft.to/lastmile_qr_scan", "ios": "https://dc.lft.to/lastmile_qr_scan"}, "lon": -77.0427435, "name": "b927cd8bcc0ccbe32d749cfbb1d69ed6", "is_disabled": 0, "is_reserved": 0, "bike_id": "b927cd8bcc0ccbe32d749cfbb1d69ed6", "lat": 38.90738916666667, "type": "electric_scooter"}, {"fusion_lat": 0.0, "fusion_lon": 0.0, "rental_uris": {"android": "https://dc.lft.to/lastmile_qr_scan", "ios": "https://dc.lft.to/lastmile_qr_scan"}, "lon": -77.03562216666667, "name": "bca4490e1326d2093833379bd6a48f13", "is_disabled": 0, "is_reserved": 0, "bike_id": "bca4490e1326d2093833379bd6a48f13", "lat": 38.926931833333335, "type": "electric_scooter"}, {"fusion_lat": 0.0, "fusion_lon": 0.0, "rental_uris": {"android": "https://dc.lft.to/lastmile_qr_scan", "ios": "https://dc.lft.to/lastmile_qr_scan"}, "lon": -77.03182366666667, "name": "36ca7cc25019f60f8ae148243f1d8011", "is_disabled": 0, "is_reserved": 0, "bike_id": "36ca7cc25019f60f8ae148243f1d8011", "lat": 38.91325966666667, "type": "electric_scooter"}, {"fusion_lat": 0.0, "fusion_lon": 0.0, "rental_uris": {"android": "https://dc.lft.to/lastmile_qr_scan", "ios": "https://dc.lft.to/lastmile_qr_scan"}, "lon": -77.04896733333334, "name": "58897940e044ecd5ada40fb22a845678", "is_disabled": 0, "is_reserved": 0, "bike_id": "58897940e044ecd5ada40fb22a845678", "lat": 38.8999485, "type": "electric_bike"}, {"fusion_lat": 0.0, "fusion_lon": 0.0, "rental_uris": {"android": "https://dc.lft.to/lastmile_qr_scan", "ios": "https://dc.lft.to/lastmile_qr_scan"}, "lon": -76.986553, "name": "7fe87f803d6507e42c292e27b105c457", "is_disabled": 0, "is_reserved": 0, "bike_id": "7fe87f803d6507e42c292e27b105c457", "lat": 38.85805383333334, "type": "electric_scooter"}, {"fusion_lat": 0.0, "fusion_lon": 0.0, "rental_uris": {"android": "https://dc.lft.to/lastmile_qr_scan", "ios": "https://dc.lft.to/lastmile_qr_scan"}, "lon": -76.96260166666667, "name": "3919ae00335c9834fe8fa696f2725e3d", "is_disabled": 0, "is_reserved": 0, "bike_id": "3919ae00335c9834fe8fa696f2725e3d", "lat": 38.882484166666664, "type": "electric_bike"}, {"fusion_lat": 0.0, "fusion_lon": 0.0, "rental_uris": {"android": "https://dc.lft.to/lastmile_qr_scan", "ios": "https://dc.lft.to/lastmile_qr_scan"}, "lon": -76.9837935, "name": "177cb7e08c73ee3e31845fcecc816205", "is_disabled": 0, "is_reserved": 0, "bike_id": "177cb7e08c73ee3e31845fcecc816205", "lat": 38.906549, "type": "electric_scooter"}, {"fusion_lat": 0.0, "fusion_lon": 0.0, "rental_uris": {"android": "https://dc.lft.to/lastmile_qr_scan", "ios": "https://dc.lft.to/lastmile_qr_scan"}, "lon": -77.03186616666666, "name": "8c18a94eff1283404a100dc4c829c257", "is_disabled": 0, "is_reserved": 0, "bike_id": "8c18a94eff1283404a100dc4c829c257", "lat": 38.917593333333336, "type": "electric_scooter"}, {"fusion_lat": 0.0, "fusion_lon": 0.0, "rental_uris": {"android": "https://dc.lft.to/lastmile_qr_scan", "ios": "https://dc.lft.to/lastmile_qr_scan"}, "lon": -77.02978066666667, "name": "6e12e302b13255d0b912cf10bf3febbb", "is_disabled": 0, "is_reserved": 0, "bike_id": "6e12e302b13255d0b912cf10bf3febbb", "lat": 38.89731333333334, "type": "electric_scooter"}, {"fusion_lat": 0.0, "fusion_lon": 0.0, "rental_uris": {"android": "https://dc.lft.to/lastmile_qr_scan", "ios": "https://dc.lft.to/lastmile_qr_scan"}, "lon": -77.0296505, "name": "047b30ee7e2fce95e9b112063161ded9", "is_disabled": 0, "is_reserved": 0, "bike_id": "047b30ee7e2fce95e9b112063161ded9", "lat": 38.8964305, "type": "electric_bike"}, {"fusion_lat": 0.0, "fusion_lon": 0.0, "rental_uris": {"android": "https://dc.lft.to/lastmile_qr_scan", "ios": "https://dc.lft.to/lastmile_qr_scan"}, "lon": -77.029338, "name": "51b17105d77312b4394787f7886ccf34", "is_disabled": 0, "is_reserved": 0, "bike_id": "51b17105d77312b4394787f7886ccf34", "lat": 38.895326, "type": "electric_scooter"}, {"fusion_lat": 0.0, "fusion_lon": 0.0, "rental_uris": {"android": "https://dc.lft.to/lastmile_qr_scan", "ios": "https://dc.lft.to/lastmile_qr_scan"}, "lon": -77.0240465, "name": "b4af8c497580dcdeb3869e7107af0031", "is_disabled": 0, "is_reserved": 0, "bike_id": "b4af8c497580dcdeb3869e7107af0031", "lat": 38.90330516666667, "type": "electric_scooter"}, {"fusion_lat": 0.0, "fusion_lon": 0.0, "rental_uris": {"android": "https://dc.lft.to/lastmile_qr_scan", "ios": "https://dc.lft.to/lastmile_qr_scan"}, "lon": -77.00660033333334, "name": "894ce2772cebdee1b91fa705076e9f51", "is_disabled": 0, "is_reserved": 0, "bike_id": "894ce2772cebdee1b91fa705076e9f51", "lat": 38.897894, "type": "electric_scooter"}, {"fusion_lat": 0.0, "fusion_lon": 0.0, "rental_uris": {"android": "https://dc.lft.to/lastmile_qr_scan", "ios": "https://dc.lft.to/lastmile_qr_scan"}, "lon": -77.012109, "name": "bfced9ba95296d267930cec52953a627", "is_disabled": 0, "is_reserved": 0, "bike_id": "bfced9ba95296d267930cec52953a627", "lat": 38.91824733333333, "type": "electric_scooter"}, {"fusion_lat": 0.0, "fusion_lon": 0.0, "rental_uris": {"android": "https://dc.lft.to/lastmile_qr_scan", "ios": "https://dc.lft.to/lastmile_qr_scan"}, "lon": -77.02828666666667, "name": "1c60342e6595e4122c70851851ab2373", "is_disabled": 0, "is_reserved": 0, "bike_id": "1c60342e6595e4122c70851851ab2373", "lat": 38.887326333333334, "type": "electric_scooter"}, {"fusion_lat": 0.0, "fusion_lon": 0.0, "rental_uris": {"android": "https://dc.lft.to/lastmile_qr_scan", "ios": "https://dc.lft.to/lastmile_qr_scan"}, "lon": -76.98521366666667, "name": "d4c8d06a2600295ee2f4d02cbede1efe", "is_disabled": 0, "is_reserved": 0, "bike_id": "d4c8d06a2600295ee2f4d02cbede1efe", "lat": 38.86005683333333, "type": "electric_scooter"}, {"fusion_lat": 0.0, "fusion_lon": 0.0, "rental_uris": {"android": "https://dc.lft.to/lastmile_qr_scan", "ios": "https://dc.lft.to/lastmile_qr_scan"}, "lon": -77.03198383333333, "name": "f6cbe2eb22958e52246a2ad5576210c2", "is_disabled": 0, "is_reserved": 0, "bike_id": "f6cbe2eb22958e52246a2ad5576210c2", "lat": 38.917788, "type": "electric_scooter"}, {"fusion_lat": 0.0, "fusion_lon": 0.0, "rental_uris": {"android": "https://dc.lft.to/lastmile_qr_scan", "ios": "https://dc.lft.to/lastmile_qr_scan"}, "lon": -77.02967266666667, "name": "c8bf4ccdf522b323641bd6dc4f10efa6", "is_disabled": 0, "is_reserved": 0, "bike_id": "c8bf4ccdf522b323641bd6dc4f10efa6", "lat": 38.91678533333334, "type": "electric_scooter"}, {"fusion_lat": 0.0, "fusion_lon": 0.0, "rental_uris": {"android": "https://dc.lft.to/lastmile_qr_scan", "ios": "https://dc.lft.to/lastmile_qr_scan"}, "lon": -76.93872133333333, "name": "2f71ea3bdd7d6900dcfb2d3e4d5a8ff0", "is_disabled": 0, "is_reserved": 0, "bike_id": "2f71ea3bdd7d6900dcfb2d3e4d5a8ff0", "lat": 38.956344333333334, "type": "electric_bike"}, {"fusion_lat": 0.0, "fusion_lon": 0.0, "rental_uris": {"android": "https://dc.lft.to/lastmile_qr_scan", "ios": "https://dc.lft.to/lastmile_qr_scan"}, "lon": -76.9900355, "name": "1a81791c599b6e5c35a05a03c57caf0b", "is_disabled": 0, "is_reserved": 0, "bike_id": "1a81791c599b6e5c35a05a03c57caf0b", "lat": 38.865073833333334, "type": "electric_scooter"}, {"fusion_lat": 0.0, "fusion_lon": 0.0, "rental_uris": {"android": "https://dc.lft.to/lastmile_qr_scan", "ios": "https://dc.lft.to/lastmile_qr_scan"}, "lon": -77.01908766666666, "name": "cf24018d3ea098edc55dcff84509bb8b", "is_disabled": 0, "is_reserved": 0, "bike_id": "cf24018d3ea098edc55dcff84509bb8b", "lat": 38.92341966666667, "type": "electric_scooter"}, {"fusion_lat": 0.0, "fusion_lon": 0.0, "rental_uris": {"android": "https://dc.lft.to/lastmile_qr_scan", "ios": "https://dc.lft.to/lastmile_qr_scan"}, "lon": -77.02605016666666, "name": "890c3334f998b4810a9429927db4c85f", "is_disabled": 0, "is_reserved": 0, "bike_id": "890c3334f998b4810a9429927db4c85f", "lat": 38.917167666666664, "type": "electric_scooter"}, {"fusion_lat": 0.0, "fusion_lon": 0.0, "rental_uris": {"android": "https://dc.lft.to/lastmile_qr_scan", "ios": "https://dc.lft.to/lastmile_qr_scan"}, "lon": -77.02372166666666, "name": "ad23b2f965107bc607c801ba6a7b8ab8", "is_disabled": 0, "is_reserved": 0, "bike_id": "ad23b2f965107bc607c801ba6a7b8ab8", "lat": 38.90724766666666, "type": "electric_scooter"}, {"fusion_lat": 0.0, "fusion_lon": 0.0, "rental_uris": {"android": "https://dc.lft.to/lastmile_qr_scan", "ios": "https://dc.lft.to/lastmile_qr_scan"}, "lon": -76.9833625, "name": "fe3ab77f49f112e1bbfd7bf1c3066e5a", "is_disabled": 0, "is_reserved": 0, "bike_id": "fe3ab77f49f112e1bbfd7bf1c3066e5a", "lat": 38.90094116666667, "type": "electric_scooter"}, {"fusion_lat": 0.0, "fusion_lon": 0.0, "rental_uris": {"android": "https://dc.lft.to/lastmile_qr_scan", "ios": "https://dc.lft.to/lastmile_qr_scan"}, "lon": -77.05509333333333, "name": "bf05f6060c9dcdac098962b9a6335291", "is_disabled": 0, "is_reserved": 0, "bike_id": "bf05f6060c9dcdac098962b9a6335291", "lat": 38.9152755, "type": "electric_scooter"}, {"fusion_lat": 0.0, "fusion_lon": 0.0, "rental_uris": {"android": "https://dc.lft.to/lastmile_qr_scan", "ios": "https://dc.lft.to/lastmile_qr_scan"}, "lon": -77.0272225, "name": "76171070e428126925287fc85c299427", "is_disabled": 0, "is_reserved": 0, "bike_id": "76171070e428126925287fc85c299427", "lat": 38.897915, "type": "electric_scooter"}, {"fusion_lat": 0.0, "fusion_lon": 0.0, "rental_uris": {"android": "https://dc.lft.to/lastmile_qr_scan", "ios": "https://dc.lft.to/lastmile_qr_scan"}, "lon": -77.02365383333333, "name": "86fdaf67a06e465afef96454bf1247fc", "is_disabled": 0, "is_reserved": 0, "bike_id": "86fdaf67a06e465afef96454bf1247fc", "lat": 38.90204516666667, "type": "electric_scooter"}, {"fusion_lat": 0.0, "fusion_lon": 0.0, "rental_uris": {"android": "https://dc.lft.to/lastmile_qr_scan", "ios": "https://dc.lft.to/lastmile_qr_scan"}, "lon": -77.04200533333334, "name": "0c2d8a173f2fb8cbe6cd845e47742bf2", "is_disabled": 0, "is_reserved": 0, "bike_id": "0c2d8a173f2fb8cbe6cd845e47742bf2", "lat": 38.920578166666665, "type": "electric_scooter"}, {"fusion_lat": 0.0, "fusion_lon": 0.0, "rental_uris": {"android": "https://dc.lft.to/lastmile_qr_scan", "ios": "https://dc.lft.to/lastmile_qr_scan"}, "lon": -77.02782233333333, "name": "40563ed272fde0958946611983be4c9c", "is_disabled": 0, "is_reserved": 0, "bike_id": "40563ed272fde0958946611983be4c9c", "lat": 38.896236333333334, "type": "electric_scooter"}, {"fusion_lat": 0.0, "fusion_lon": 0.0, "rental_uris": {"android": "https://dc.lft.to/lastmile_qr_scan", "ios": "https://dc.lft.to/lastmile_qr_scan"}, "lon": -77.0140715, "name": "b18d6e7ce83f1f0bf6a7d2a46a0032ba", "is_disabled": 0, "is_reserved": 0, "bike_id": "b18d6e7ce83f1f0bf6a7d2a46a0032ba", "lat": 38.88121783333333, "type": "electric_scooter"}, {"fusion_lat": 0.0, "fusion_lon": 0.0, "rental_uris": {"android": "https://dc.lft.to/lastmile_qr_scan", "ios": "https://dc.lft.to/lastmile_qr_scan"}, "lon": -77.09677916666666, "name": "fbb0ae5c6f5f804858f427ac14bace8f", "is_disabled": 0, "is_reserved": 0, "bike_id": "fbb0ae5c6f5f804858f427ac14bace8f", "lat": 38.94617183333333, "type": "electric_bike"}, {"fusion_lat": 0.0, "fusion_lon": 0.0, "rental_uris": {"android": "https://dc.lft.to/lastmile_qr_scan", "ios": "https://dc.lft.to/lastmile_qr_scan"}, "lon": -77.02592133333333, "name": "8abd280f90431d1d9f6f46d1e2204c89", "is_disabled": 0, "is_reserved": 0, "bike_id": "8abd280f90431d1d9f6f46d1e2204c89", "lat": 38.96393283333333, "type": "electric_scooter"}, {"fusion_lat": 0.0, "fusion_lon": 0.0, "rental_uris": {"android": "https://dc.lft.to/lastmile_qr_scan", "ios": "https://dc.lft.to/lastmile_qr_scan"}, "lon": -77.02384, "name": "a3035399800e823652ab82e549e82d8d", "is_disabled": 0, "is_reserved": 0, "bike_id": "a3035399800e823652ab82e549e82d8d", "lat": 38.8922955, "type": "electric_scooter"}, {"fusion_lat": 0.0, "fusion_lon": 0.0, "rental_uris": {"android": "https://dc.lft.to/lastmile_qr_scan", "ios": "https://dc.lft.to/lastmile_qr_scan"}, "lon": -77.0227745, "name": "22d05e52f8d479036e1299732f254b70", "is_disabled": 0, "is_reserved": 0, "bike_id": "22d05e52f8d479036e1299732f254b70", "lat": 38.8972605, "type": "electric_scooter"}, {"fusion_lat": 0.0, "fusion_lon": 0.0, "rental_uris": {"android": "https://dc.lft.to/lastmile_qr_scan", "ios": "https://dc.lft.to/lastmile_qr_scan"}, "lon": -77.01275116666666, "name": "f2944b2b1da849fc8535273f6ddc22ea", "is_disabled": 0, "is_reserved": 0, "bike_id": "f2944b2b1da849fc8535273f6ddc22ea", "lat": 38.87302016666667, "type": "electric_scooter"}, {"fusion_lat": 0.0, "fusion_lon": 0.0, "rental_uris": {"android": "https://dc.lft.to/lastmile_qr_scan", "ios": "https://dc.lft.to/lastmile_qr_scan"}, "lon": -77.0392215, "name": "d9247e92e9fb59b5cabdbf53c7d20a66", "is_disabled": 0, "is_reserved": 0, "bike_id": "d9247e92e9fb59b5cabdbf53c7d20a66", "lat": 38.911154, "type": "electric_scooter"}, {"fusion_lat": 0.0, "fusion_lon": 0.0, "rental_uris": {"android": "https://dc.lft.to/lastmile_qr_scan", "ios": "https://dc.lft.to/lastmile_qr_scan"}, "lon": -76.99766633333333, "name": "6317c86d2a52b7ab51a5cfc13c853a34", "is_disabled": 0, "is_reserved": 0, "bike_id": "6317c86d2a52b7ab51a5cfc13c853a34", "lat": 38.911159166666664, "type": "electric_scooter"}, {"fusion_lat": 0.0, "fusion_lon": 0.0, "rental_uris": {"android": "https://dc.lft.to/lastmile_qr_scan", "ios": "https://dc.lft.to/lastmile_qr_scan"}, "lon": -77.03945916666666, "name": "aa8156380f8ebd0ab1d8bbd501b15939", "is_disabled": 0, "is_reserved": 0, "bike_id": "aa8156380f8ebd0ab1d8bbd501b15939", "lat": 38.90095983333333, "type": "electric_scooter"}, {"fusion_lat": 0.0, "fusion_lon": 0.0, "rental_uris": {"android": "https://dc.lft.to/lastmile_qr_scan", "ios": "https://dc.lft.to/lastmile_qr_scan"}, "lon": -77.01776316666667, "name": "d342ae922e8f318c27f1488979fa1eb9", "is_disabled": 0, "is_reserved": 0, "bike_id": "d342ae922e8f318c27f1488979fa1eb9", "lat": 38.88709516666667, "type": "electric_scooter"}, {"fusion_lat": 0.0, "fusion_lon": 0.0, "rental_uris": {"android": "https://dc.lft.to/lastmile_qr_scan", "ios": "https://dc.lft.to/lastmile_qr_scan"}, "lon": -77.057233, "name": "98e84feed88e3e2c1ff537059c6347a3", "is_disabled": 0, "is_reserved": 0, "bike_id": "98e84feed88e3e2c1ff537059c6347a3", "lat": 38.933674, "type": "electric_scooter"}, {"fusion_lat": 0.0, "fusion_lon": 0.0, "rental_uris": {"android": "https://dc.lft.to/lastmile_qr_scan", "ios": "https://dc.lft.to/lastmile_qr_scan"}, "lon": -77.05231916666666, "name": "c59fd11487fef14213196694a09b6d84", "is_disabled": 0, "is_reserved": 0, "bike_id": "c59fd11487fef14213196694a09b6d84", "lat": 38.92465766666667, "type": "electric_scooter"}, {"fusion_lat": 0.0, "fusion_lon": 0.0, "rental_uris": {"android": "https://dc.lft.to/lastmile_qr_scan", "ios": "https://dc.lft.to/lastmile_qr_scan"}, "lon": -77.00064283333333, "name": "e46b519d8c41d8052be6362c31bbcdc2", "is_disabled": 0, "is_reserved": 0, "bike_id": "e46b519d8c41d8052be6362c31bbcdc2", "lat": 38.8867565, "type": "electric_scooter"}, {"fusion_lat": 0.0, "fusion_lon": 0.0, "rental_uris": {"android": "https://dc.lft.to/lastmile_qr_scan", "ios": "https://dc.lft.to/lastmile_qr_scan"}, "lon": -76.92680916666667, "name": "1d697cd0378f9a94ab9fb193e27513e8", "is_disabled": 0, "is_reserved": 0, "bike_id": "1d697cd0378f9a94ab9fb193e27513e8", "lat": 38.88848, "type": "electric_scooter"}, {"fusion_lat": 0.0, "fusion_lon": 0.0, "rental_uris": {"android": "https://dc.lft.to/lastmile_qr_scan", "ios": "https://dc.lft.to/lastmile_qr_scan"}, "lon": -76.99146866666666, "name": "01fd4f515a770b68b7b6dcbe2948b455", "is_disabled": 0, "is_reserved": 0, "bike_id": "01fd4f515a770b68b7b6dcbe2948b455", "lat": 38.88534533333333, "type": "electric_scooter"}, {"fusion_lat": 0.0, "fusion_lon": 0.0, "rental_uris": {"android": "https://dc.lft.to/lastmile_qr_scan", "ios": "https://dc.lft.to/lastmile_qr_scan"}, "lon": -77.0089595, "name": "b5af5756f5b1e9bad81d9dff3ec9ed7d", "is_disabled": 0, "is_reserved": 0, "bike_id": "b5af5756f5b1e9bad81d9dff3ec9ed7d", "lat": 38.876658166666665, "type": "electric_scooter"}, {"fusion_lat": 0.0, "fusion_lon": 0.0, "rental_uris": {"android": "https://dc.lft.to/lastmile_qr_scan", "ios": "https://dc.lft.to/lastmile_qr_scan"}, "lon": -77.02784033333333, "name": "b76d204b15c0f53a1909b8e12c3d687f", "is_disabled": 0, "is_reserved": 0, "bike_id": "b76d204b15c0f53a1909b8e12c3d687f", "lat": 38.927655, "type": "electric_scooter"}, {"fusion_lat": 0.0, "fusion_lon": 0.0, "rental_uris": {"android": "https://dc.lft.to/lastmile_qr_scan", "ios": "https://dc.lft.to/lastmile_qr_scan"}, "lon": -77.00331466666667, "name": "ae71076114a743706b66d466089b9a8b", "is_disabled": 0, "is_reserved": 0, "bike_id": "ae71076114a743706b66d466089b9a8b", "lat": 38.919543, "type": "electric_scooter"}, {"fusion_lat": 0.0, "fusion_lon": 0.0, "rental_uris": {"android": "https://dc.lft.to/lastmile_qr_scan", "ios": "https://dc.lft.to/lastmile_qr_scan"}, "lon": -77.0318075, "name": "5c687164ded26103196f0a7f450add64", "is_disabled": 0, "is_reserved": 0, "bike_id": "5c687164ded26103196f0a7f450add64", "lat": 38.900306666666665, "type": "electric_scooter"}, {"fusion_lat": 0.0, "fusion_lon": 0.0, "rental_uris": {"android": "https://dc.lft.to/lastmile_qr_scan", "ios": "https://dc.lft.to/lastmile_qr_scan"}, "lon": -76.96983383333334, "name": "5b7aa316f0427255260dffac4961a8f1", "is_disabled": 0, "is_reserved": 0, "bike_id": "5b7aa316f0427255260dffac4961a8f1", "lat": 38.878667666666665, "type": "electric_scooter"}, {"fusion_lat": 0.0, "fusion_lon": 0.0, "rental_uris": {"android": "https://dc.lft.to/lastmile_qr_scan", "ios": "https://dc.lft.to/lastmile_qr_scan"}, "lon": -76.9425535, "name": "15ec10357d7ac5957b6abad90a3138c7", "is_disabled": 0, "is_reserved": 0, "bike_id": "15ec10357d7ac5957b6abad90a3138c7", "lat": 38.89843666666667, "type": "electric_scooter"}, {"fusion_lat": 0.0, "fusion_lon": 0.0, "rental_uris": {"android": "https://dc.lft.to/lastmile_qr_scan", "ios": "https://dc.lft.to/lastmile_qr_scan"}, "lon": -77.04630283333333, "name": "5113371830f93eab8ca18b86244e73a6", "is_disabled": 0, "is_reserved": 0, "bike_id": "5113371830f93eab8ca18b86244e73a6", "lat": 38.918059666666664, "type": "electric_scooter"}, {"fusion_lat": 0.0, "fusion_lon": 0.0, "rental_uris": {"android": "https://dc.lft.to/lastmile_qr_scan", "ios": "https://dc.lft.to/lastmile_qr_scan"}, "lon": -77.020524, "name": "7419a1768dac90dc377940b43759427f", "is_disabled": 0, "is_reserved": 0, "bike_id": "7419a1768dac90dc377940b43759427f", "lat": 38.92327916666667, "type": "electric_scooter"}, {"fusion_lat": 0.0, "fusion_lon": 0.0, "rental_uris": {"android": "https://dc.lft.to/lastmile_qr_scan", "ios": "https://dc.lft.to/lastmile_qr_scan"}, "lon": -76.99965966666667, "name": "bc9e61b22ac78211a0d1481d64b4ca7d", "is_disabled": 0, "is_reserved": 0, "bike_id": "bc9e61b22ac78211a0d1481d64b4ca7d", "lat": 38.90869516666667, "type": "electric_scooter"}, {"fusion_lat": 0.0, "fusion_lon": 0.0, "rental_uris": {"android": "https://dc.lft.to/lastmile_qr_scan", "ios": "https://dc.lft.to/lastmile_qr_scan"}, "lon": -77.03100433333333, "name": "83f66a5ede6476944afd94e3f32c91d6", "is_disabled": 0, "is_reserved": 0, "bike_id": "83f66a5ede6476944afd94e3f32c91d6", "lat": 38.92388616666667, "type": "electric_scooter"}, {"fusion_lat": 0.0, "fusion_lon": 0.0, "rental_uris": {"android": "https://dc.lft.to/lastmile_qr_scan", "ios": "https://dc.lft.to/lastmile_qr_scan"}, "lon": -77.03219316666667, "name": "5249713e7a4c98d7d6acbdca8dcd5e98", "is_disabled": 0, "is_reserved": 0, "bike_id": "5249713e7a4c98d7d6acbdca8dcd5e98", "lat": 38.914047833333335, "type": "electric_scooter"}, {"fusion_lat": 0.0, "fusion_lon": 0.0, "rental_uris": {"android": "https://dc.lft.to/lastmile_qr_scan", "ios": "https://dc.lft.to/lastmile_qr_scan"}, "lon": -77.02714366666666, "name": "bbdd27bb37efc108a325b8835f10f5c6", "is_disabled": 0, "is_reserved": 0, "bike_id": "bbdd27bb37efc108a325b8835f10f5c6", "lat": 38.9246135, "type": "electric_scooter"}, {"fusion_lat": 0.0, "fusion_lon": 0.0, "rental_uris": {"android": "https://dc.lft.to/lastmile_qr_scan", "ios": "https://dc.lft.to/lastmile_qr_scan"}, "lon": -77.0296665, "name": "f6e437a41b99b559a8cd326d977087a3", "is_disabled": 0, "is_reserved": 0, "bike_id": "f6e437a41b99b559a8cd326d977087a3", "lat": 38.92339916666667, "type": "electric_scooter"}, {"fusion_lat": 0.0, "fusion_lon": 0.0, "rental_uris": {"android": "https://dc.lft.to/lastmile_qr_scan", "ios": "https://dc.lft.to/lastmile_qr_scan"}, "lon": -76.97827816666667, "name": "cc1ea6b2256abdd653054acec1a1908f", "is_disabled": 0, "is_reserved": 0, "bike_id": "cc1ea6b2256abdd653054acec1a1908f", "lat": 38.898514, "type": "electric_scooter"}, {"fusion_lat": 0.0, "fusion_lon": 0.0, "rental_uris": {"android": "https://dc.lft.to/lastmile_qr_scan", "ios": "https://dc.lft.to/lastmile_qr_scan"}, "lon": -76.96561616666666, "name": "413cbfcb115acc1ef8dbc3f558cb4c09", "is_disabled": 0, "is_reserved": 0, "bike_id": "413cbfcb115acc1ef8dbc3f558cb4c09", "lat": 38.91859566666667, "type": "electric_scooter"}, {"fusion_lat": 0.0, "fusion_lon": 0.0, "rental_uris": {"android": "https://dc.lft.to/lastmile_qr_scan", "ios": "https://dc.lft.to/lastmile_qr_scan"}, "lon": -76.98880516666667, "name": "c70d2db2909ad80de310c5201c0b647f", "is_disabled": 0, "is_reserved": 0, "bike_id": "c70d2db2909ad80de310c5201c0b647f", "lat": 38.86658766666667, "type": "electric_scooter"}, {"fusion_lat": 0.0, "fusion_lon": 0.0, "rental_uris": {"android": "https://dc.lft.to/lastmile_qr_scan", "ios": "https://dc.lft.to/lastmile_qr_scan"}, "lon": -77.04514383333333, "name": "abe664af64c7f7328c4d2c4bf32adc70", "is_disabled": 0, "is_reserved": 0, "bike_id": "abe664af64c7f7328c4d2c4bf32adc70", "lat": 38.9035125, "type": "electric_bike"}, {"fusion_lat": 0.0, "fusion_lon": 0.0, "rental_uris": {"android": "https://dc.lft.to/lastmile_qr_scan", "ios": "https://dc.lft.to/lastmile_qr_scan"}, "lon": -77.02333833333333, "name": "acf6c171f1bdf44c6cc54aa247784680", "is_disabled": 0, "is_reserved": 0, "bike_id": "acf6c171f1bdf44c6cc54aa247784680", "lat": 38.90836, "type": "electric_scooter"}, {"fusion_lat": 0.0, "fusion_lon": 0.0, "rental_uris": {"android": "https://dc.lft.to/lastmile_qr_scan", "ios": "https://dc.lft.to/lastmile_qr_scan"}, "lon": -77.22892416666667, "name": "47d4f3d4ada4026793d3e7ce363edea1", "is_disabled": 0, "is_reserved": 0, "bike_id": "47d4f3d4ada4026793d3e7ce363edea1", "lat": 38.90960466666667, "type": "electric_bike"}, {"fusion_lat": 0.0, "fusion_lon": 0.0, "rental_uris": {"android": "https://dc.lft.to/lastmile_qr_scan", "ios": "https://dc.lft.to/lastmile_qr_scan"}, "lon": -77.03387516666666, "name": "c940076f7625c0515691070d3ca02542", "is_disabled": 0, "is_reserved": 0, "bike_id": "c940076f7625c0515691070d3ca02542", "lat": 38.92357233333333, "type": "electric_scooter"}, {"fusion_lat": 0.0, "fusion_lon": 0.0, "rental_uris": {"android": "https://dc.lft.to/lastmile_qr_scan", "ios": "https://dc.lft.to/lastmile_qr_scan"}, "lon": -77.07331366666666, "name": "72cd50ab2b200a3be4e17f4f7e3931ab", "is_disabled": 0, "is_reserved": 0, "bike_id": "72cd50ab2b200a3be4e17f4f7e3931ab", "lat": 38.9249045, "type": "electric_scooter"}, {"fusion_lat": 0.0, "fusion_lon": 0.0, "rental_uris": {"android": "https://dc.lft.to/lastmile_qr_scan", "ios": "https://dc.lft.to/lastmile_qr_scan"}, "lon": -77.00252616666667, "name": "c3df9cec00b45e2aeb07bc3b8c536a1b", "is_disabled": 0, "is_reserved": 0, "bike_id": "c3df9cec00b45e2aeb07bc3b8c536a1b", "lat": 38.88024266666667, "type": "electric_scooter"}, {"fusion_lat": 0.0, "fusion_lon": 0.0, "rental_uris": {"android": "https://dc.lft.to/lastmile_qr_scan", "ios": "https://dc.lft.to/lastmile_qr_scan"}, "lon": -77.0333995, "name": "0586d5bf78f3be4e35b24de1b66e3dad", "is_disabled": 0, "is_reserved": 0, "bike_id": "0586d5bf78f3be4e35b24de1b66e3dad", "lat": 38.898321333333335, "type": "electric_scooter"}, {"fusion_lat": 0.0, "fusion_lon": 0.0, "rental_uris": {"android": "https://dc.lft.to/lastmile_qr_scan", "ios": "https://dc.lft.to/lastmile_qr_scan"}, "lon": -77.0332545, "name": "5033edc4504f890959ffc0560340884f", "is_disabled": 0, "is_reserved": 0, "bike_id": "5033edc4504f890959ffc0560340884f", "lat": 38.938922833333336, "type": "electric_scooter"}, {"fusion_lat": 0.0, "fusion_lon": 0.0, "rental_uris": {"android": "https://dc.lft.to/lastmile_qr_scan", "ios": "https://dc.lft.to/lastmile_qr_scan"}, "lon": -77.04408366666667, "name": "91b0b68dddd9bcaea22a5cc5e1c4f9ba", "is_disabled": 0, "is_reserved": 0, "bike_id": "91b0b68dddd9bcaea22a5cc5e1c4f9ba", "lat": 38.93423266666667, "type": "electric_scooter"}, {"fusion_lat": 0.0, "fusion_lon": 0.0, "rental_uris": {"android": "https://dc.lft.to/lastmile_qr_scan", "ios": "https://dc.lft.to/lastmile_qr_scan"}, "lon": -77.019948, "name": "7ae0f793bb4669a85be3c5d42deee5b2", "is_disabled": 0, "is_reserved": 0, "bike_id": "7ae0f793bb4669a85be3c5d42deee5b2", "lat": 38.90505433333333, "type": "electric_scooter"}, {"fusion_lat": 0.0, "fusion_lon": 0.0, "rental_uris": {"android": "https://dc.lft.to/lastmile_qr_scan", "ios": "https://dc.lft.to/lastmile_qr_scan"}, "lon": -77.02560516666667, "name": "6685d5d690ee9fd94403ca91af1411dd", "is_disabled": 0, "is_reserved": 0, "bike_id": "6685d5d690ee9fd94403ca91af1411dd", "lat": 38.9096285, "type": "electric_scooter"}, {"fusion_lat": 0.0, "fusion_lon": 0.0, "rental_uris": {"android": "https://dc.lft.to/lastmile_qr_scan", "ios": "https://dc.lft.to/lastmile_qr_scan"}, "lon": -77.03864766666666, "name": "a950d76acd0a394b568f6046e2a05259", "is_disabled": 0, "is_reserved": 0, "bike_id": "a950d76acd0a394b568f6046e2a05259", "lat": 38.903795333333335, "type": "electric_scooter"}, {"fusion_lat": 0.0, "fusion_lon": 0.0, "rental_uris": {"android": "https://dc.lft.to/lastmile_qr_scan", "ios": "https://dc.lft.to/lastmile_qr_scan"}, "lon": -77.005722, "name": "e830aeeb870770cd80edc6da80ffe565", "is_disabled": 0, "is_reserved": 0, "bike_id": "e830aeeb870770cd80edc6da80ffe565", "lat": 38.87655083333333, "type": "electric_scooter"}, {"fusion_lat": 0.0, "fusion_lon": 0.0, "rental_uris": {"android": "https://dc.lft.to/lastmile_qr_scan", "ios": "https://dc.lft.to/lastmile_qr_scan"}, "lon": -77.00345866666666, "name": "4aa0920831c72101f25899a91c5d6243", "is_disabled": 0, "is_reserved": 0, "bike_id": "4aa0920831c72101f25899a91c5d6243", "lat": 38.894625833333336, "type": "electric_scooter"}, {"fusion_lat": 0.0, "fusion_lon": 0.0, "rental_uris": {"android": "https://dc.lft.to/lastmile_qr_scan", "ios": "https://dc.lft.to/lastmile_qr_scan"}, "lon": -76.97858116666667, "name": "0d3ee24af3b2d6aa48daf30b3813064f", "is_disabled": 0, "is_reserved": 0, "bike_id": "0d3ee24af3b2d6aa48daf30b3813064f", "lat": 38.8446855, "type": "electric_bike"}, {"fusion_lat": 0.0, "fusion_lon": 0.0, "rental_uris": {"android": "https://dc.lft.to/lastmile_qr_scan", "ios": "https://dc.lft.to/lastmile_qr_scan"}, "lon": -76.99524383333333, "name": "5b31c5779c06417914f1621d3fdc0869", "is_disabled": 0, "is_reserved": 0, "bike_id": "5b31c5779c06417914f1621d3fdc0869", "lat": 38.8792365, "type": "electric_scooter"}, {"fusion_lat": 0.0, "fusion_lon": 0.0, "rental_uris": {"android": "https://dc.lft.to/lastmile_qr_scan", "ios": "https://dc.lft.to/lastmile_qr_scan"}, "lon": -76.99809633333334, "name": "b6d677a1888948ff970bc28a2e62ffd8", "is_disabled": 0, "is_reserved": 0, "bike_id": "b6d677a1888948ff970bc28a2e62ffd8", "lat": 38.8377695, "type": "electric_bike"}, {"fusion_lat": 0.0, "fusion_lon": 0.0, "rental_uris": {"android": "https://dc.lft.to/lastmile_qr_scan", "ios": "https://dc.lft.to/lastmile_qr_scan"}, "lon": -77.03199416666666, "name": "0186da1d0f3042ecd1aece4e65755499", "is_disabled": 0, "is_reserved": 0, "bike_id": "0186da1d0f3042ecd1aece4e65755499", "lat": 38.91927883333334, "type": "electric_scooter"}, {"fusion_lat": 0.0, "fusion_lon": 0.0, "rental_uris": {"android": "https://dc.lft.to/lastmile_qr_scan", "ios": "https://dc.lft.to/lastmile_qr_scan"}, "lon": -77.05725016666666, "name": "11ba44346e9da6c726faaedae7701e6c", "is_disabled": 0, "is_reserved": 0, "bike_id": "11ba44346e9da6c726faaedae7701e6c", "lat": 38.9337145, "type": "electric_scooter"}, {"fusion_lat": 0.0, "fusion_lon": 0.0, "rental_uris": {"android": "https://dc.lft.to/lastmile_qr_scan", "ios": "https://dc.lft.to/lastmile_qr_scan"}, "lon": -77.0120265, "name": "755746a4c9e9802c97462481ef51bcc7", "is_disabled": 0, "is_reserved": 0, "bike_id": "755746a4c9e9802c97462481ef51bcc7", "lat": 38.896887, "type": "electric_scooter"}, {"fusion_lat": 0.0, "fusion_lon": 0.0, "rental_uris": {"android": "https://dc.lft.to/lastmile_qr_scan", "ios": "https://dc.lft.to/lastmile_qr_scan"}, "lon": -77.02288333333334, "name": "6a6f9aefa830056977a0484c5d8346b1", "is_disabled": 0, "is_reserved": 0, "bike_id": "6a6f9aefa830056977a0484c5d8346b1", "lat": 38.8970375, "type": "electric_scooter"}, {"fusion_lat": 0.0, "fusion_lon": 0.0, "rental_uris": {"android": "https://dc.lft.to/lastmile_qr_scan", "ios": "https://dc.lft.to/lastmile_qr_scan"}, "lon": -77.0488355, "name": "a4571d716c5106dc801d7d747c40c6f9", "is_disabled": 0, "is_reserved": 0, "bike_id": "a4571d716c5106dc801d7d747c40c6f9", "lat": 38.89864333333333, "type": "electric_scooter"}, {"fusion_lat": 0.0, "fusion_lon": 0.0, "rental_uris": {"android": "https://dc.lft.to/lastmile_qr_scan", "ios": "https://dc.lft.to/lastmile_qr_scan"}, "lon": -76.99898883333333, "name": "4711e7b1c86e6588bb370b5c4690d85d", "is_disabled": 0, "is_reserved": 0, "bike_id": "4711e7b1c86e6588bb370b5c4690d85d", "lat": 38.900314333333334, "type": "electric_scooter"}, {"fusion_lat": 0.0, "fusion_lon": 0.0, "rental_uris": {"android": "https://dc.lft.to/lastmile_qr_scan", "ios": "https://dc.lft.to/lastmile_qr_scan"}, "lon": -77.05394733333333, "name": "92e160dadd1ece48ea9749c538e34031", "is_disabled": 0, "is_reserved": 0, "bike_id": "92e160dadd1ece48ea9749c538e34031", "lat": 38.804525, "type": "electric_bike"}, {"fusion_lat": 0.0, "fusion_lon": 0.0, "rental_uris": {"android": "https://dc.lft.to/lastmile_qr_scan", "ios": "https://dc.lft.to/lastmile_qr_scan"}, "lon": -77.04082916666667, "name": "679927aa2a8e25d7fa2e2af0322a8b94", "is_disabled": 0, "is_reserved": 0, "bike_id": "679927aa2a8e25d7fa2e2af0322a8b94", "lat": 38.911097166666664, "type": "electric_scooter"}, {"fusion_lat": 0.0, "fusion_lon": 0.0, "rental_uris": {"android": "https://dc.lft.to/lastmile_qr_scan", "ios": "https://dc.lft.to/lastmile_qr_scan"}, "lon": -77.017657, "name": "a62588ff95dec854dd49d8ab447151cc", "is_disabled": 0, "is_reserved": 0, "bike_id": "a62588ff95dec854dd49d8ab447151cc", "lat": 38.878038833333335, "type": "electric_scooter"}, {"fusion_lat": 0.0, "fusion_lon": 0.0, "rental_uris": {"android": "https://dc.lft.to/lastmile_qr_scan", "ios": "https://dc.lft.to/lastmile_qr_scan"}, "lon": -77.02409233333333, "name": "d0dd0633caeb3cab048b70b3bc73b361", "is_disabled": 0, "is_reserved": 0, "bike_id": "d0dd0633caeb3cab048b70b3bc73b361", "lat": 38.91418683333333, "type": "electric_scooter"}, {"fusion_lat": 0.0, "fusion_lon": 0.0, "rental_uris": {"android": "https://dc.lft.to/lastmile_qr_scan", "ios": "https://dc.lft.to/lastmile_qr_scan"}, "lon": -77.04779983333333, "name": "b69bb2377de2c6c7e2eed5f211e56c8f", "is_disabled": 0, "is_reserved": 0, "bike_id": "b69bb2377de2c6c7e2eed5f211e56c8f", "lat": 38.89730383333333, "type": "electric_scooter"}, {"fusion_lat": 0.0, "fusion_lon": 0.0, "rental_uris": {"android": "https://dc.lft.to/lastmile_qr_scan", "ios": "https://dc.lft.to/lastmile_qr_scan"}, "lon": -77.0434325, "name": "9ad202d6f418bffe29c9ee04d078bfdf", "is_disabled": 0, "is_reserved": 0, "bike_id": "9ad202d6f418bffe29c9ee04d078bfdf", "lat": 38.90826883333333, "type": "electric_scooter"}, {"fusion_lat": 0.0, "fusion_lon": 0.0, "rental_uris": {"android": "https://dc.lft.to/lastmile_qr_scan", "ios": "https://dc.lft.to/lastmile_qr_scan"}, "lon": -77.01481116666666, "name": "8ac5f08c74fd0ddbeb603d849f6a2b90", "is_disabled": 0, "is_reserved": 0, "bike_id": "8ac5f08c74fd0ddbeb603d849f6a2b90", "lat": 38.92687216666667, "type": "electric_scooter"}, {"fusion_lat": 0.0, "fusion_lon": 0.0, "rental_uris": {"android": "https://dc.lft.to/lastmile_qr_scan", "ios": "https://dc.lft.to/lastmile_qr_scan"}, "lon": -77.03194133333334, "name": "b510b2603ddae5b0e5b0248d0a12962d", "is_disabled": 0, "is_reserved": 0, "bike_id": "b510b2603ddae5b0e5b0248d0a12962d", "lat": 38.9185305, "type": "electric_scooter"}, {"fusion_lat": 0.0, "fusion_lon": 0.0, "rental_uris": {"android": "https://dc.lft.to/lastmile_qr_scan", "ios": "https://dc.lft.to/lastmile_qr_scan"}, "lon": -76.980582, "name": "1353e4b6822593eb5b308d0e0267f4dd", "is_disabled": 0, "is_reserved": 0, "bike_id": "1353e4b6822593eb5b308d0e0267f4dd", "lat": 38.89938583333333, "type": "electric_scooter"}, {"fusion_lat": 0.0, "fusion_lon": 0.0, "rental_uris": {"android": "https://dc.lft.to/lastmile_qr_scan", "ios": "https://dc.lft.to/lastmile_qr_scan"}, "lon": -77.04165, "name": "2a840412327889b1303b7f4703d4dabc", "is_disabled": 0, "is_reserved": 0, "bike_id": "2a840412327889b1303b7f4703d4dabc", "lat": 38.89846, "type": "electric_scooter"}, {"fusion_lat": 0.0, "fusion_lon": 0.0, "rental_uris": {"android": "https://dc.lft.to/lastmile_qr_scan", "ios": "https://dc.lft.to/lastmile_qr_scan"}, "lon": -77.04862533333333, "name": "98b3728bdb808b80cd590ffa1b479896", "is_disabled": 0, "is_reserved": 0, "bike_id": "98b3728bdb808b80cd590ffa1b479896", "lat": 38.9047315, "type": "electric_scooter"}, {"fusion_lat": 0.0, "fusion_lon": 0.0, "rental_uris": {"android": "https://dc.lft.to/lastmile_qr_scan", "ios": "https://dc.lft.to/lastmile_qr_scan"}, "lon": -77.04360933333334, "name": "8c6bcad0fde951c8ef36a4794a259da0", "is_disabled": 0, "is_reserved": 0, "bike_id": "8c6bcad0fde951c8ef36a4794a259da0", "lat": 38.921191666666665, "type": "electric_scooter"}, {"fusion_lat": 0.0, "fusion_lon": 0.0, "rental_uris": {"android": "https://dc.lft.to/lastmile_qr_scan", "ios": "https://dc.lft.to/lastmile_qr_scan"}, "lon": -76.95175983333333, "name": "401969dbf9d42b269d137683c62c4b86", "is_disabled": 0, "is_reserved": 0, "bike_id": "401969dbf9d42b269d137683c62c4b86", "lat": 39.08444866666667, "type": "electric_bike"}, {"fusion_lat": 0.0, "fusion_lon": 0.0, "rental_uris": {"android": "https://dc.lft.to/lastmile_qr_scan", "ios": "https://dc.lft.to/lastmile_qr_scan"}, "lon": -77.05151916666667, "name": "64da9840e450d94fbcd3c9a460e32ada", "is_disabled": 0, "is_reserved": 0, "bike_id": "64da9840e450d94fbcd3c9a460e32ada", "lat": 38.92375216666667, "type": "electric_scooter"}, {"fusion_lat": 0.0, "fusion_lon": 0.0, "rental_uris": {"android": "https://dc.lft.to/lastmile_qr_scan", "ios": "https://dc.lft.to/lastmile_qr_scan"}, "lon": -77.04999916666667, "name": "e7c438299922da2d8448f8bfffebdc7f", "is_disabled": 0, "is_reserved": 0, "bike_id": "e7c438299922da2d8448f8bfffebdc7f", "lat": 38.89230466666667, "type": "electric_scooter"}, {"fusion_lat": 0.0, "fusion_lon": 0.0, "rental_uris": {"android": "https://dc.lft.to/lastmile_qr_scan", "ios": "https://dc.lft.to/lastmile_qr_scan"}, "lon": -77.0639285, "name": "6bce30c34031cf84d2ba96a742522caf", "is_disabled": 0, "is_reserved": 0, "bike_id": "6bce30c34031cf84d2ba96a742522caf", "lat": 38.94508416666667, "type": "electric_scooter"}, {"fusion_lat": 0.0, "fusion_lon": 0.0, "rental_uris": {"android": "https://dc.lft.to/lastmile_qr_scan", "ios": "https://dc.lft.to/lastmile_qr_scan"}, "lon": -76.99779883333333, "name": "d1c6e477724245c3290e1208f4bb6ef8", "is_disabled": 0, "is_reserved": 0, "bike_id": "d1c6e477724245c3290e1208f4bb6ef8", "lat": 38.8443485, "type": "electric_scooter"}, {"fusion_lat": 0.0, "fusion_lon": 0.0, "rental_uris": {"android": "https://dc.lft.to/lastmile_qr_scan", "ios": "https://dc.lft.to/lastmile_qr_scan"}, "lon": -77.04334533333333, "name": "9a641652c6521578d47d89bb6dd6e4d3", "is_disabled": 0, "is_reserved": 0, "bike_id": "9a641652c6521578d47d89bb6dd6e4d3", "lat": 38.9281815, "type": "electric_scooter"}, {"fusion_lat": 0.0, "fusion_lon": 0.0, "rental_uris": {"android": "https://dc.lft.to/lastmile_qr_scan", "ios": "https://dc.lft.to/lastmile_qr_scan"}, "lon": -77.043833, "name": "3343621bd1bf1fad4b545b7775f22f10", "is_disabled": 0, "is_reserved": 0, "bike_id": "3343621bd1bf1fad4b545b7775f22f10", "lat": 38.90024583333334, "type": "electric_scooter"}, {"fusion_lat": 0.0, "fusion_lon": 0.0, "rental_uris": {"android": "https://dc.lft.to/lastmile_qr_scan", "ios": "https://dc.lft.to/lastmile_qr_scan"}, "lon": -77.02811866666667, "name": "41edfdc8b20bf036644c2e97d9428f90", "is_disabled": 0, "is_reserved": 0, "bike_id": "41edfdc8b20bf036644c2e97d9428f90", "lat": 38.9308165, "type": "electric_scooter"}, {"fusion_lat": 0.0, "fusion_lon": 0.0, "rental_uris": {"android": "https://dc.lft.to/lastmile_qr_scan", "ios": "https://dc.lft.to/lastmile_qr_scan"}, "lon": -77.02376816666667, "name": "a4857e2baecba2587f05b47ce11b056d", "is_disabled": 0, "is_reserved": 0, "bike_id": "a4857e2baecba2587f05b47ce11b056d", "lat": 38.91671816666667, "type": "electric_scooter"}, {"fusion_lat": 0.0, "fusion_lon": 0.0, "rental_uris": {"android": "https://dc.lft.to/lastmile_qr_scan", "ios": "https://dc.lft.to/lastmile_qr_scan"}, "lon": -77.02903933333333, "name": "12c65acecf38e5d1cb7422217b11550a", "is_disabled": 0, "is_reserved": 0, "bike_id": "12c65acecf38e5d1cb7422217b11550a", "lat": 38.927676, "type": "electric_scooter"}, {"fusion_lat": 0.0, "fusion_lon": 0.0, "rental_uris": {"android": "https://dc.lft.to/lastmile_qr_scan", "ios": "https://dc.lft.to/lastmile_qr_scan"}, "lon": -77.04140433333333, "name": "4e54b7a1fa463c79a5aecdcac3b2e8dc", "is_disabled": 0, "is_reserved": 0, "bike_id": "4e54b7a1fa463c79a5aecdcac3b2e8dc", "lat": 38.925050666666664, "type": "electric_scooter"}, {"fusion_lat": 0.0, "fusion_lon": 0.0, "rental_uris": {"android": "https://dc.lft.to/lastmile_qr_scan", "ios": "https://dc.lft.to/lastmile_qr_scan"}, "lon": -76.9930085, "name": "26ee1cbf4b98a922ee322d6932a84edb", "is_disabled": 0, "is_reserved": 0, "bike_id": "26ee1cbf4b98a922ee322d6932a84edb", "lat": 38.85767666666667, "type": "electric_scooter"}, {"fusion_lat": 0.0, "fusion_lon": 0.0, "rental_uris": {"android": "https://dc.lft.to/lastmile_qr_scan", "ios": "https://dc.lft.to/lastmile_qr_scan"}, "lon": -77.054718, "name": "948ac6a104efd31a15e52af817acae38", "is_disabled": 0, "is_reserved": 0, "bike_id": "948ac6a104efd31a15e52af817acae38", "lat": 38.909515, "type": "electric_scooter"}, {"fusion_lat": 0.0, "fusion_lon": 0.0, "rental_uris": {"android": "https://dc.lft.to/lastmile_qr_scan", "ios": "https://dc.lft.to/lastmile_qr_scan"}, "lon": -77.038594, "name": "65d365bc47ee646c582035fb20bb5a71", "is_disabled": 0, "is_reserved": 0, "bike_id": "65d365bc47ee646c582035fb20bb5a71", "lat": 38.902688833333336, "type": "electric_scooter"}, {"fusion_lat": 0.0, "fusion_lon": 0.0, "rental_uris": {"android": "https://dc.lft.to/lastmile_qr_scan", "ios": "https://dc.lft.to/lastmile_qr_scan"}, "lon": -77.0320855, "name": "86b9487da52486185bfd0d17144629a8", "is_disabled": 0, "is_reserved": 0, "bike_id": "86b9487da52486185bfd0d17144629a8", "lat": 38.90015316666667, "type": "electric_scooter"}, {"fusion_lat": 0.0, "fusion_lon": 0.0, "rental_uris": {"android": "https://dc.lft.to/lastmile_qr_scan", "ios": "https://dc.lft.to/lastmile_qr_scan"}, "lon": -77.03585733333334, "name": "a27ee26e61f3f7acf02add0e81e73917", "is_disabled": 0, "is_reserved": 0, "bike_id": "a27ee26e61f3f7acf02add0e81e73917", "lat": 38.99226016666667, "type": "electric_scooter"}, {"fusion_lat": 0.0, "fusion_lon": 0.0, "rental_uris": {"android": "https://dc.lft.to/lastmile_qr_scan", "ios": "https://dc.lft.to/lastmile_qr_scan"}, "lon": -76.99041183333334, "name": "d26a962ef4f14799fbede8a9bef8eed2", "is_disabled": 0, "is_reserved": 0, "bike_id": "d26a962ef4f14799fbede8a9bef8eed2", "lat": 38.863888333333335, "type": "electric_scooter"}, {"fusion_lat": 0.0, "fusion_lon": 0.0, "rental_uris": {"android": "https://dc.lft.to/lastmile_qr_scan", "ios": "https://dc.lft.to/lastmile_qr_scan"}, "lon": -76.94702083333334, "name": "71a8f4154272581fe43aa4edde06c2ca", "is_disabled": 0, "is_reserved": 0, "bike_id": "71a8f4154272581fe43aa4edde06c2ca", "lat": 38.897293166666664, "type": "electric_scooter"}, {"fusion_lat": 0.0, "fusion_lon": 0.0, "rental_uris": {"android": "https://dc.lft.to/lastmile_qr_scan", "ios": "https://dc.lft.to/lastmile_qr_scan"}, "lon": -76.99039916666666, "name": "4effb7dca1eb04ec4a148377a49b12b0", "is_disabled": 0, "is_reserved": 0, "bike_id": "4effb7dca1eb04ec4a148377a49b12b0", "lat": 38.863893833333336, "type": "electric_scooter"}, {"fusion_lat": 0.0, "fusion_lon": 0.0, "rental_uris": {"android": "https://dc.lft.to/lastmile_qr_scan", "ios": "https://dc.lft.to/lastmile_qr_scan"}, "lon": -76.96053533333334, "name": "50e5218deaf1a1cf9235ecc36a18476b", "is_disabled": 0, "is_reserved": 0, "bike_id": "50e5218deaf1a1cf9235ecc36a18476b", "lat": 38.883957833333334, "type": "electric_bike"}, {"fusion_lat": 0.0, "fusion_lon": 0.0, "rental_uris": {"android": "https://dc.lft.to/lastmile_qr_scan", "ios": "https://dc.lft.to/lastmile_qr_scan"}, "lon": -77.04402083333333, "name": "80634672f7879782a1bf44a6ce57d418", "is_disabled": 0, "is_reserved": 0, "bike_id": "80634672f7879782a1bf44a6ce57d418", "lat": 38.929514, "type": "electric_scooter"}, {"fusion_lat": 0.0, "fusion_lon": 0.0, "rental_uris": {"android": "https://dc.lft.to/lastmile_qr_scan", "ios": "https://dc.lft.to/lastmile_qr_scan"}, "lon": -77.117513, "name": "74c8d3fc97e67ca6562303c903a3efd9", "is_disabled": 0, "is_reserved": 0, "bike_id": "74c8d3fc97e67ca6562303c903a3efd9", "lat": 39.05100066666667, "type": "electric_bike"}, {"fusion_lat": 0.0, "fusion_lon": 0.0, "rental_uris": {"android": "https://dc.lft.to/lastmile_qr_scan", "ios": "https://dc.lft.to/lastmile_qr_scan"}, "lon": -76.99234283333334, "name": "4a71372446a7d77c8cc73598f1e3c966", "is_disabled": 0, "is_reserved": 0, "bike_id": "4a71372446a7d77c8cc73598f1e3c966", "lat": 38.907939666666664, "type": "electric_scooter"}, {"fusion_lat": 0.0, "fusion_lon": 0.0, "rental_uris": {"android": "https://dc.lft.to/lastmile_qr_scan", "ios": "https://dc.lft.to/lastmile_qr_scan"}, "lon": -77.0313455, "name": "38bbb87fdb185468cb72f6bc3c6a9d72", "is_disabled": 0, "is_reserved": 0, "bike_id": "38bbb87fdb185468cb72f6bc3c6a9d72", "lat": 38.904526, "type": "electric_scooter"}, {"fusion_lat": 0.0, "fusion_lon": 0.0, "rental_uris": {"android": "https://dc.lft.to/lastmile_qr_scan", "ios": "https://dc.lft.to/lastmile_qr_scan"}, "lon": -77.00947083333334, "name": "ea599ec4c8d59f38350145d3a0356057", "is_disabled": 0, "is_reserved": 0, "bike_id": "ea599ec4c8d59f38350145d3a0356057", "lat": 38.89731066666667, "type": "electric_scooter"}, {"fusion_lat": 0.0, "fusion_lon": 0.0, "rental_uris": {"android": "https://dc.lft.to/lastmile_qr_scan", "ios": "https://dc.lft.to/lastmile_qr_scan"}, "lon": -77.00489416666667, "name": "e3ac955e481164d907b70d1cf91f844e", "is_disabled": 0, "is_reserved": 0, "bike_id": "e3ac955e481164d907b70d1cf91f844e", "lat": 38.87468033333333, "type": "electric_scooter"}, {"fusion_lat": 0.0, "fusion_lon": 0.0, "rental_uris": {"android": "https://dc.lft.to/lastmile_qr_scan", "ios": "https://dc.lft.to/lastmile_qr_scan"}, "lon": -77.08487083333333, "name": "043edacf5579923f22dcce279aceaac0", "is_disabled": 0, "is_reserved": 0, "bike_id": "043edacf5579923f22dcce279aceaac0", "lat": 38.939020666666664, "type": "electric_scooter"}, {"fusion_lat": 0.0, "fusion_lon": 0.0, "rental_uris": {"android": "https://dc.lft.to/lastmile_qr_scan", "ios": "https://dc.lft.to/lastmile_qr_scan"}, "lon": -77.02044566666666, "name": "a555978ad3fcabb5441c2207018ad6a0", "is_disabled": 0, "is_reserved": 0, "bike_id": "a555978ad3fcabb5441c2207018ad6a0", "lat": 38.92086533333333, "type": "electric_scooter"}, {"fusion_lat": 0.0, "fusion_lon": 0.0, "rental_uris": {"android": "https://dc.lft.to/lastmile_qr_scan", "ios": "https://dc.lft.to/lastmile_qr_scan"}, "lon": -77.02690433333333, "name": "88a205c2c4fafce1dc54da35a5c0516c", "is_disabled": 0, "is_reserved": 0, "bike_id": "88a205c2c4fafce1dc54da35a5c0516c", "lat": 38.926700333333336, "type": "electric_scooter"}, {"fusion_lat": 0.0, "fusion_lon": 0.0, "rental_uris": {"android": "https://dc.lft.to/lastmile_qr_scan", "ios": "https://dc.lft.to/lastmile_qr_scan"}, "lon": -77.0180665, "name": "6668a74852d5ecb6c9e6cb05de8c0e02", "is_disabled": 0, "is_reserved": 0, "bike_id": "6668a74852d5ecb6c9e6cb05de8c0e02", "lat": 38.92134433333333, "type": "electric_scooter"}, {"fusion_lat": 0.0, "fusion_lon": 0.0, "rental_uris": {"android": "https://dc.lft.to/lastmile_qr_scan", "ios": "https://dc.lft.to/lastmile_qr_scan"}, "lon": -77.06197566666667, "name": "a4793d3ba5b1a8bc14f9655e04cc251b", "is_disabled": 0, "is_reserved": 0, "bike_id": "a4793d3ba5b1a8bc14f9655e04cc251b", "lat": 38.91847533333333, "type": "electric_scooter"}, {"fusion_lat": 0.0, "fusion_lon": 0.0, "rental_uris": {"android": "https://dc.lft.to/lastmile_qr_scan", "ios": "https://dc.lft.to/lastmile_qr_scan"}, "lon": -77.04012416666667, "name": "e4a21d1038c13a6170da2be583183e23", "is_disabled": 0, "is_reserved": 0, "bike_id": "e4a21d1038c13a6170da2be583183e23", "lat": 38.921502833333335, "type": "electric_bike"}, {"fusion_lat": 0.0, "fusion_lon": 0.0, "rental_uris": {"android": "https://dc.lft.to/lastmile_qr_scan", "ios": "https://dc.lft.to/lastmile_qr_scan"}, "lon": -76.98543783333334, "name": "a15601ddbcddca1bd8b25881aa51e818", "is_disabled": 0, "is_reserved": 0, "bike_id": "a15601ddbcddca1bd8b25881aa51e818", "lat": 38.86687716666667, "type": "electric_scooter"}, {"fusion_lat": 0.0, "fusion_lon": 0.0, "rental_uris": {"android": "https://dc.lft.to/lastmile_qr_scan", "ios": "https://dc.lft.to/lastmile_qr_scan"}, "lon": -77.0215775, "name": "e96096d333efa19bc197700355c227f0", "is_disabled": 0, "is_reserved": 0, "bike_id": "e96096d333efa19bc197700355c227f0", "lat": 38.926047, "type": "electric_scooter"}, {"fusion_lat": 0.0, "fusion_lon": 0.0, "rental_uris": {"android": "https://dc.lft.to/lastmile_qr_scan", "ios": "https://dc.lft.to/lastmile_qr_scan"}, "lon": -77.0419565, "name": "c1c4d524b72bc3c529c32cfafe555b7e", "is_disabled": 0, "is_reserved": 0, "bike_id": "c1c4d524b72bc3c529c32cfafe555b7e", "lat": 38.92051033333333, "type": "electric_scooter"}, {"fusion_lat": 0.0, "fusion_lon": 0.0, "rental_uris": {"android": "https://dc.lft.to/lastmile_qr_scan", "ios": "https://dc.lft.to/lastmile_qr_scan"}, "lon": -77.04353483333334, "name": "b4d877027b24a2ac37c6aa5fcd784a9c", "is_disabled": 0, "is_reserved": 0, "bike_id": "b4d877027b24a2ac37c6aa5fcd784a9c", "lat": 38.90422233333334, "type": "electric_scooter"}, {"fusion_lat": 0.0, "fusion_lon": 0.0, "rental_uris": {"android": "https://dc.lft.to/lastmile_qr_scan", "ios": "https://dc.lft.to/lastmile_qr_scan"}, "lon": -77.00231883333333, "name": "e41cd2edc2fddb45ef598574723c7a23", "is_disabled": 0, "is_reserved": 0, "bike_id": "e41cd2edc2fddb45ef598574723c7a23", "lat": 38.885110166666664, "type": "electric_scooter"}, {"fusion_lat": 0.0, "fusion_lon": 0.0, "rental_uris": {"android": "https://dc.lft.to/lastmile_qr_scan", "ios": "https://dc.lft.to/lastmile_qr_scan"}, "lon": -77.02484716666666, "name": "9eb486ff4921f122802b7b46d31d5137", "is_disabled": 0, "is_reserved": 0, "bike_id": "9eb486ff4921f122802b7b46d31d5137", "lat": 38.93969116666667, "type": "electric_scooter"}, {"fusion_lat": 0.0, "fusion_lon": 0.0, "rental_uris": {"android": "https://dc.lft.to/lastmile_qr_scan", "ios": "https://dc.lft.to/lastmile_qr_scan"}, "lon": -76.99496566666667, "name": "a03f6641567041f78da4377ecf9a9015", "is_disabled": 0, "is_reserved": 0, "bike_id": "a03f6641567041f78da4377ecf9a9015", "lat": 38.90981333333333, "type": "electric_scooter"}, {"fusion_lat": 0.0, "fusion_lon": 0.0, "rental_uris": {"android": "https://dc.lft.to/lastmile_qr_scan", "ios": "https://dc.lft.to/lastmile_qr_scan"}, "lon": -77.02695083333333, "name": "056ddd27159d02a1670418d17ee3088c", "is_disabled": 0, "is_reserved": 0, "bike_id": "056ddd27159d02a1670418d17ee3088c", "lat": 38.949819166666664, "type": "electric_scooter"}, {"fusion_lat": 0.0, "fusion_lon": 0.0, "rental_uris": {"android": "https://dc.lft.to/lastmile_qr_scan", "ios": "https://dc.lft.to/lastmile_qr_scan"}, "lon": -77.0390695, "name": "505e1cd8635851f8b371b33bda7476d9", "is_disabled": 0, "is_reserved": 0, "bike_id": "505e1cd8635851f8b371b33bda7476d9", "lat": 38.903738, "type": "electric_scooter"}, {"fusion_lat": 0.0, "fusion_lon": 0.0, "rental_uris": {"android": "https://dc.lft.to/lastmile_qr_scan", "ios": "https://dc.lft.to/lastmile_qr_scan"}, "lon": -77.064979, "name": "f57568a318e35c750ad5c256b17c05c4", "is_disabled": 0, "is_reserved": 0, "bike_id": "f57568a318e35c750ad5c256b17c05c4", "lat": 38.90504766666667, "type": "electric_scooter"}, {"fusion_lat": 0.0, "fusion_lon": 0.0, "rental_uris": {"android": "https://dc.lft.to/lastmile_qr_scan", "ios": "https://dc.lft.to/lastmile_qr_scan"}, "lon": -77.02692316666666, "name": "f3631487ede157996dabc6f73b43945c", "is_disabled": 0, "is_reserved": 0, "bike_id": "f3631487ede157996dabc6f73b43945c", "lat": 38.906837, "type": "electric_scooter"}, {"fusion_lat": 0.0, "fusion_lon": 0.0, "rental_uris": {"android": "https://dc.lft.to/lastmile_qr_scan", "ios": "https://dc.lft.to/lastmile_qr_scan"}, "lon": -76.93074966666667, "name": "c2634e8f3d6174070e47f97115429166", "is_disabled": 0, "is_reserved": 0, "bike_id": "c2634e8f3d6174070e47f97115429166", "lat": 38.9016395, "type": "electric_scooter"}, {"fusion_lat": 0.0, "fusion_lon": 0.0, "rental_uris": {"android": "https://dc.lft.to/lastmile_qr_scan", "ios": "https://dc.lft.to/lastmile_qr_scan"}, "lon": -77.0283755, "name": "7580c7bc8093003a80872e97a2e0302b", "is_disabled": 0, "is_reserved": 0, "bike_id": "7580c7bc8093003a80872e97a2e0302b", "lat": 38.91689516666667, "type": "electric_scooter"}, {"fusion_lat": 0.0, "fusion_lon": 0.0, "rental_uris": {"android": "https://dc.lft.to/lastmile_qr_scan", "ios": "https://dc.lft.to/lastmile_qr_scan"}, "lon": -77.07959866666667, "name": "9a0a73cbe6b4b16483ee91e12abe80eb", "is_disabled": 0, "is_reserved": 0, "bike_id": "9a0a73cbe6b4b16483ee91e12abe80eb", "lat": 38.94565466666667, "type": "electric_scooter"}, {"fusion_lat": 0.0, "fusion_lon": 0.0, "rental_uris": {"android": "https://dc.lft.to/lastmile_qr_scan", "ios": "https://dc.lft.to/lastmile_qr_scan"}, "lon": -77.05151183333334, "name": "d852b552cbdb3664c9d57a44c3e9c556", "is_disabled": 0, "is_reserved": 0, "bike_id": "d852b552cbdb3664c9d57a44c3e9c556", "lat": 38.9068115, "type": "electric_scooter"}, {"fusion_lat": 0.0, "fusion_lon": 0.0, "rental_uris": {"android": "https://dc.lft.to/lastmile_qr_scan", "ios": "https://dc.lft.to/lastmile_qr_scan"}, "lon": -77.03216333333333, "name": "244345c6a3441736cef22b18776617e5", "is_disabled": 0, "is_reserved": 0, "bike_id": "244345c6a3441736cef22b18776617e5", "lat": 38.909505, "type": "electric_scooter"}, {"fusion_lat": 0.0, "fusion_lon": 0.0, "rental_uris": {"android": "https://dc.lft.to/lastmile_qr_scan", "ios": "https://dc.lft.to/lastmile_qr_scan"}, "lon": -77.04999733333334, "name": "e06adfeb33bf9d164af4ac3055d7deca", "is_disabled": 0, "is_reserved": 0, "bike_id": "e06adfeb33bf9d164af4ac3055d7deca", "lat": 38.83762633333333, "type": "electric_bike"}, {"fusion_lat": 0.0, "fusion_lon": 0.0, "rental_uris": {"android": "https://dc.lft.to/lastmile_qr_scan", "ios": "https://dc.lft.to/lastmile_qr_scan"}, "lon": -77.038706, "name": "bf53516c791bfe9b6f674d07e0358749", "is_disabled": 0, "is_reserved": 0, "bike_id": "bf53516c791bfe9b6f674d07e0358749", "lat": 38.90148466666667, "type": "electric_scooter"}, {"fusion_lat": 0.0, "fusion_lon": 0.0, "rental_uris": {"android": "https://dc.lft.to/lastmile_qr_scan", "ios": "https://dc.lft.to/lastmile_qr_scan"}, "lon": -77.00115933333333, "name": "e4e4bdc2b0ab5cf59aab90104c170538", "is_disabled": 0, "is_reserved": 0, "bike_id": "e4e4bdc2b0ab5cf59aab90104c170538", "lat": 38.87376533333333, "type": "electric_scooter"}, {"fusion_lat": 0.0, "fusion_lon": 0.0, "rental_uris": {"android": "https://dc.lft.to/lastmile_qr_scan", "ios": "https://dc.lft.to/lastmile_qr_scan"}, "lon": -77.0165065, "name": "03192909a0c7618fcd10809128b85d0b", "is_disabled": 0, "is_reserved": 0, "bike_id": "03192909a0c7618fcd10809128b85d0b", "lat": 38.88129166666667, "type": "electric_scooter"}, {"fusion_lat": 0.0, "fusion_lon": 0.0, "rental_uris": {"android": "https://dc.lft.to/lastmile_qr_scan", "ios": "https://dc.lft.to/lastmile_qr_scan"}, "lon": -77.03457483333334, "name": "b7f1ceea88210b85d73f9fa376f7e89c", "is_disabled": 0, "is_reserved": 0, "bike_id": "b7f1ceea88210b85d73f9fa376f7e89c", "lat": 38.9030145, "type": "electric_scooter"}, {"fusion_lat": 0.0, "fusion_lon": 0.0, "rental_uris": {"android": "https://dc.lft.to/lastmile_qr_scan", "ios": "https://dc.lft.to/lastmile_qr_scan"}, "lon": -76.98000166666667, "name": "40b29703e3da996bd586f21f985509ec", "is_disabled": 0, "is_reserved": 0, "bike_id": "40b29703e3da996bd586f21f985509ec", "lat": 38.90678716666667, "type": "electric_scooter"}, {"fusion_lat": 0.0, "fusion_lon": 0.0, "rental_uris": {"android": "https://dc.lft.to/lastmile_qr_scan", "ios": "https://dc.lft.to/lastmile_qr_scan"}, "lon": -77.04421016666667, "name": "0935706d8729fbe4ece5fa2a1862f52f", "is_disabled": 0, "is_reserved": 0, "bike_id": "0935706d8729fbe4ece5fa2a1862f52f", "lat": 38.89405983333333, "type": "electric_scooter"}, {"fusion_lat": 0.0, "fusion_lon": 0.0, "rental_uris": {"android": "https://dc.lft.to/lastmile_qr_scan", "ios": "https://dc.lft.to/lastmile_qr_scan"}, "lon": -77.0021495, "name": "7173359992e6aa158cc5f1bcf9bdad78", "is_disabled": 0, "is_reserved": 0, "bike_id": "7173359992e6aa158cc5f1bcf9bdad78", "lat": 38.914581166666665, "type": "electric_scooter"}, {"fusion_lat": 0.0, "fusion_lon": 0.0, "rental_uris": {"android": "https://dc.lft.to/lastmile_qr_scan", "ios": "https://dc.lft.to/lastmile_qr_scan"}, "lon": -77.027147, "name": "7a240961357e5d1ffd09e64357c88668", "is_disabled": 0, "is_reserved": 0, "bike_id": "7a240961357e5d1ffd09e64357c88668", "lat": 38.90795383333333, "type": "electric_scooter"}, {"fusion_lat": 0.0, "fusion_lon": 0.0, "rental_uris": {"android": "https://dc.lft.to/lastmile_qr_scan", "ios": "https://dc.lft.to/lastmile_qr_scan"}, "lon": -76.994917, "name": "756f72a513368018552ac61ea8b922b3", "is_disabled": 0, "is_reserved": 0, "bike_id": "756f72a513368018552ac61ea8b922b3", "lat": 38.89842766666666, "type": "electric_scooter"}, {"fusion_lat": 0.0, "fusion_lon": 0.0, "rental_uris": {"android": "https://dc.lft.to/lastmile_qr_scan", "ios": "https://dc.lft.to/lastmile_qr_scan"}, "lon": -77.02157183333334, "name": "4e9ef20014fb21bd325bc1933433f569", "is_disabled": 0, "is_reserved": 0, "bike_id": "4e9ef20014fb21bd325bc1933433f569", "lat": 38.926010166666664, "type": "electric_scooter"}, {"fusion_lat": 0.0, "fusion_lon": 0.0, "rental_uris": {"android": "https://dc.lft.to/lastmile_qr_scan", "ios": "https://dc.lft.to/lastmile_qr_scan"}, "lon": -76.95666216666666, "name": "b7f176535ad6102b6a978cfccd7f7403", "is_disabled": 0, "is_reserved": 0, "bike_id": "b7f176535ad6102b6a978cfccd7f7403", "lat": 38.884904166666665, "type": "electric_bike"}, {"fusion_lat": 0.0, "fusion_lon": 0.0, "rental_uris": {"android": "https://dc.lft.to/lastmile_qr_scan", "ios": "https://dc.lft.to/lastmile_qr_scan"}, "lon": -77.022321, "name": "05ab2fc41a0ff33c17c09495a6489b2a", "is_disabled": 0, "is_reserved": 0, "bike_id": "05ab2fc41a0ff33c17c09495a6489b2a", "lat": 38.887694833333335, "type": "electric_scooter"}, {"fusion_lat": 0.0, "fusion_lon": 0.0, "rental_uris": {"android": "https://dc.lft.to/lastmile_qr_scan", "ios": "https://dc.lft.to/lastmile_qr_scan"}, "lon": -76.98565916666666, "name": "15a497b94fd8ae924cf7f53cc5212f78", "is_disabled": 0, "is_reserved": 0, "bike_id": "15a497b94fd8ae924cf7f53cc5212f78", "lat": 38.899953333333336, "type": "electric_scooter"}, {"fusion_lat": 0.0, "fusion_lon": 0.0, "rental_uris": {"android": "https://dc.lft.to/lastmile_qr_scan", "ios": "https://dc.lft.to/lastmile_qr_scan"}, "lon": -77.02180366666667, "name": "5c8f946fdbb1bf82a672fe622a7dae58", "is_disabled": 0, "is_reserved": 0, "bike_id": "5c8f946fdbb1bf82a672fe622a7dae58", "lat": 38.893808166666666, "type": "electric_scooter"}, {"fusion_lat": 0.0, "fusion_lon": 0.0, "rental_uris": {"android": "https://dc.lft.to/lastmile_qr_scan", "ios": "https://dc.lft.to/lastmile_qr_scan"}, "lon": -77.00922533333333, "name": "8908ba132efd79aa3ff42d4d30f43e49", "is_disabled": 0, "is_reserved": 0, "bike_id": "8908ba132efd79aa3ff42d4d30f43e49", "lat": 38.89605383333333, "type": "electric_scooter"}, {"fusion_lat": 0.0, "fusion_lon": 0.0, "rental_uris": {"android": "https://dc.lft.to/lastmile_qr_scan", "ios": "https://dc.lft.to/lastmile_qr_scan"}, "lon": -76.94939866666667, "name": "dad2f243c4114f3871a177e63df5e823", "is_disabled": 0, "is_reserved": 0, "bike_id": "dad2f243c4114f3871a177e63df5e823", "lat": 38.89360383333333, "type": "electric_scooter"}, {"fusion_lat": 0.0, "fusion_lon": 0.0, "rental_uris": {"android": "https://dc.lft.to/lastmile_qr_scan", "ios": "https://dc.lft.to/lastmile_qr_scan"}, "lon": -77.01411216666666, "name": "4239e765e5a5bbb6db307c6211a653e3", "is_disabled": 0, "is_reserved": 0, "bike_id": "4239e765e5a5bbb6db307c6211a653e3", "lat": 38.9278425, "type": "electric_scooter"}, {"fusion_lat": 0.0, "fusion_lon": 0.0, "rental_uris": {"android": "https://dc.lft.to/lastmile_qr_scan", "ios": "https://dc.lft.to/lastmile_qr_scan"}, "lon": -77.08763133333333, "name": "ad8fcc9a5d7a301fe59413aba2c65362", "is_disabled": 0, "is_reserved": 0, "bike_id": "ad8fcc9a5d7a301fe59413aba2c65362", "lat": 38.806539, "type": "electric_bike"}, {"fusion_lat": 0.0, "fusion_lon": 0.0, "rental_uris": {"android": "https://dc.lft.to/lastmile_qr_scan", "ios": "https://dc.lft.to/lastmile_qr_scan"}, "lon": -77.018908, "name": "ffea8cef2a379ca3ac01daf7927d1539", "is_disabled": 0, "is_reserved": 0, "bike_id": "ffea8cef2a379ca3ac01daf7927d1539", "lat": 38.905153, "type": "electric_scooter"}, {"fusion_lat": 0.0, "fusion_lon": 0.0, "rental_uris": {"android": "https://dc.lft.to/lastmile_qr_scan", "ios": "https://dc.lft.to/lastmile_qr_scan"},