{"data": {"bikes": [{"lat": 38.924240166666664, "is_disabled": 0, "type": "electric_scooter", "lon": -77.04451416666667, "bike_id": "939bd5d87047a177441778fb74897339", "fusion_lat": 0.0, "name": "939bd5d87047a177441778fb74897339", "is_reserved": 0, "rental_uris": {"android": "https://dc.lft.to/lastmile_qr_scan", "ios": "https://dc.lft.to/lastmile_qr_scan"}, "fusion_lon": 0.0}, {"lat": 38.935254666666665, "is_disabled": 0, "type": "electric_scooter", "lon": -77.07300583333334, "bike_id": "a5b5131b38392a74a8ac2b796c8a0dc1", "fusion_lat": 0.0, "name": "a5b5131b38392a74a8ac2b796c8a0dc1", "is_reserved": 0, "rental_uris": {"android": "https://dc.lft.to/lastmile_qr_scan", "ios": "https://dc.lft.to/lastmile_qr_scan"}, "fusion_lon": 0.0}, {"lat": 38.895487333333335, "is_disabled": 0, "type": "electric_scooter", "lon": -77.00922366666667, "bike_id": "44cfaed2a8714f0fbb3250daa1bfdde9", "fusion_lat": 0.0, "name": "44cfaed2a8714f0fbb3250daa1bfdde9", "is_reserved": 0, "rental_uris": {"android": "https://dc.lft.to/lastmile_qr_scan", "ios": "https://dc.lft.to/lastmile_qr_scan"}, "fusion_lon": 0.0}, {"lat": 38.903745666666666, "is_disabled": 0, "type": "electric_scooter", "lon": -76.99225566666667, "bike_id": "1c0853a8018ac9883688a9da40d3bba7", "fusion_lat": 0.0, "name": "1c0853a8018ac9883688a9da40d3bba7", "is_reserved": 0, "rental_uris": {"android": "https://dc.lft.to/lastmile_qr_scan", "ios": "https://dc.lft.to/lastmile_qr_scan"}, "fusion_lon": 0.0}, {"lat": 38.908537333333335, "is_disabled": 0, "type": "electric_scooter", "lon": -77.01970183333333, "bike_id": "664194bfc15a601137d0d38ebcc5eecd", "fusion_lat": 0.0, "name": "664194bfc15a601137d0d38ebcc5eecd", "is_reserved": 0, "rental_uris": {"android": "https://dc.lft.to/lastmile_qr_scan", "ios": "https://dc.lft.to/lastmile_qr_scan"}, "fusion_lon": 0.0}, {"lat": 38.89724916666667, "is_disabled": 0, "type": "electric_scooter", "lon": -77.02386816666667, "bike_id": "61cfeaffec3ab11e070283939723c914", "fusion_lat": 0.0, "name": "61cfeaffec3ab11e070283939723c914", "is_reserved": 0, "rental_uris": {"android": "https://dc.lft.to/lastmile_qr_scan", "ios": "https://dc.lft.to/lastmile_qr_scan"}, "fusion_lon": 0.0}, {"lat": 38.93472416666667, "is_disabled": 0, "type": "electric_scooter", "lon": -77.04119633333333, "bike_id": "57cd60064d95b6999d01e1cbb382c14a", "fusion_lat": 0.0, "name": "57cd60064d95b6999d01e1cbb382c14a", "is_reserved": 0, "rental_uris": {"android": "https://dc.lft.to/lastmile_qr_scan", "ios": "https://dc.lft.to/lastmile_qr_scan"}, "fusion_lon": 0.0}, {"lat": 38.91039833333333, "is_disabled": 0, "type": "electric_scooter", "lon": -77.03869433333334, "bike_id": "10391774566776f285e554898def9a2a", "fusion_lat": 0.0, "name": "10391774566776f285e554898def9a2a", "is_reserved": 0, "rental_uris": {"android": "https://dc.lft.to/lastmile_qr_scan", "ios": "https://dc.lft.to/lastmile_qr_scan"}, "fusion_lon": 0.0}, {"lat": 38.887427833333334, "is_disabled": 0, "type": "electric_scooter", "lon": -77.02207683333333, "bike_id": "183a084e9312610edf3c14d0202f2acf", "fusion_lat": 0.0, "name": "183a084e9312610edf3c14d0202f2acf", "is_reserved": 0, "rental_uris": {"android": "https://dc.lft.to/lastmile_qr_scan", "ios": "https://dc.lft.to/lastmile_qr_scan"}, "fusion_lon": 0.0}, {"lat": 38.89608, "is_disabled": 0, "type": "electric_scooter", "lon": -77.0547065, "bike_id": "542193b00a0d48fed2e5f21df2dd58d5", "fusion_lat": 0.0, "name": "542193b00a0d48fed2e5f21df2dd58d5", "is_reserved": 0, "rental_uris": {"android": "https://dc.lft.to/lastmile_qr_scan", "ios": "https://dc.lft.to/lastmile_qr_scan"}, "fusion_lon": 0.0}, {"lat": 38.91783183333333, "is_disabled": 0, "type": "electric_scooter", "lon": -77.0344445, "bike_id": "342661023b662a5874735002a8fb5e24", "fusion_lat": 0.0, "name": "342661023b662a5874735002a8fb5e24", "is_reserved": 0, "rental_uris": {"android": "https://dc.lft.to/lastmile_qr_scan", "ios": "https://dc.lft.to/lastmile_qr_scan"}, "fusion_lon": 0.0}, {"lat": 38.90146516666667, "is_disabled": 0, "type": "electric_scooter", "lon": -77.0007005, "bike_id": "3ad9e0ee2b395cdfd6f8e458075495dc", "fusion_lat": 0.0, "name": "3ad9e0ee2b395cdfd6f8e458075495dc", "is_reserved": 0, "rental_uris": {"android": "https://dc.lft.to/lastmile_qr_scan", "ios": "https://dc.lft.to/lastmile_qr_scan"}, "fusion_lon": 0.0}, {"lat": 38.8790275, "is_disabled": 0, "type": "electric_scooter", "lon": -77.0221115, "bike_id": "068ac8d246dc84d99e85ac64bd5d3a50", "fusion_lat": 0.0, "name": "068ac8d246dc84d99e85ac64bd5d3a50", "is_reserved": 0, "rental_uris": {"android": "https://dc.lft.to/lastmile_qr_scan", "ios": "https://dc.lft.to/lastmile_qr_scan"}, "fusion_lon": 0.0}, {"lat": 38.899430833333334, "is_disabled": 0, "type": "electric_scooter", "lon": -77.025808, "bike_id": "8c97a65fb1754274b39f7cd5052c25fa", "fusion_lat": 0.0, "name": "8c97a65fb1754274b39f7cd5052c25fa", "is_reserved": 0, "rental_uris": {"android": "https://dc.lft.to/lastmile_qr_scan", "ios": "https://dc.lft.to/lastmile_qr_scan"}, "fusion_lon": 0.0}, {"lat": 38.91433383333333, "is_disabled": 0, "type": "electric_scooter", "lon": -77.02345833333334, "bike_id": "650b34a31d5690dc84c961c0470ed981", "fusion_lat": 0.0, "name": "650b34a31d5690dc84c961c0470ed981", "is_reserved": 0, "rental_uris": {"android": "https://dc.lft.to/lastmile_qr_scan", "ios": "https://dc.lft.to/lastmile_qr_scan"}, "fusion_lon": 0.0}, {"lat": 38.902618, "is_disabled": 0, "type": "electric_scooter", "lon": -77.062423, "bike_id": "e64a1683791354869d541c2b4d336e37", "fusion_lat": 0.0, "name": "e64a1683791354869d541c2b4d336e37", "is_reserved": 0, "rental_uris": {"android": "https://dc.lft.to/lastmile_qr_scan", "ios": "https://dc.lft.to/lastmile_qr_scan"}, "fusion_lon": 0.0}, {"lat": 38.9170665, "is_disabled": 0, "type": "electric_scooter", "lon": -77.04045616666667, "bike_id": "2123e8c66f0a336cfa2827680c80c0ae", "fusion_lat": 0.0, "name": "2123e8c66f0a336cfa2827680c80c0ae", "is_reserved": 0, "rental_uris": {"android": "https://dc.lft.to/lastmile_qr_scan", "ios": "https://dc.lft.to/lastmile_qr_scan"}, "fusion_lon": 0.0}, {"lat": 38.90572216666666, "is_disabled": 0, "type": "electric_scooter", "lon": -77.02183, "bike_id": "42a744636c2abe7a09edc8c932d7abd7", "fusion_lat": 0.0, "name": "42a744636c2abe7a09edc8c932d7abd7", "is_reserved": 0, "rental_uris": {"android": "https://dc.lft.to/lastmile_qr_scan", "ios": "https://dc.lft.to/lastmile_qr_scan"}, "fusion_lon": 0.0}, {"lat": 38.9110905, "is_disabled": 0, "type": "electric_scooter", "lon": -77.04839683333333, "bike_id": "1565aba0c62da6a383bce0e047e9f2e6", "fusion_lat": 0.0, "name": "1565aba0c62da6a383bce0e047e9f2e6", "is_reserved": 0, "rental_uris": {"android": "https://dc.lft.to/lastmile_qr_scan", "ios": "https://dc.lft.to/lastmile_qr_scan"}, "fusion_lon": 0.0}, {"lat": 38.907419, "is_disabled": 0, "type": "electric_scooter", "lon": -77.03447583333333, "bike_id": "b7abca4cbecb4522096c3b338064f961", "fusion_lat": 0.0, "name": "b7abca4cbecb4522096c3b338064f961", "is_reserved": 0, "rental_uris": {"android": "https://dc.lft.to/lastmile_qr_scan", "ios": "https://dc.lft.to/lastmile_qr_scan"}, "fusion_lon": 0.0}, {"lat": 38.9353335, "is_disabled": 0, "type": "electric_scooter", "lon": -77.03409866666667, "bike_id": "a6d01efe5899e064508bd60403580c45", "fusion_lat": 0.0, "name": "a6d01efe5899e064508bd60403580c45", "is_reserved": 0, "rental_uris": {"android": "https://dc.lft.to/lastmile_qr_scan", "ios": "https://dc.lft.to/lastmile_qr_scan"}, "fusion_lon": 0.0}, {"lat": 38.916912333333336, "is_disabled": 0, "type": "electric_scooter", "lon": -77.03977533333334, "bike_id": "186bf4146e799a84df499e177f56602a", "fusion_lat": 0.0, "name": "186bf4146e799a84df499e177f56602a", "is_reserved": 0, "rental_uris": {"android": "https://dc.lft.to/lastmile_qr_scan", "ios": "https://dc.lft.to/lastmile_qr_scan"}, "fusion_lon": 0.0}, {"lat": 38.91466966666667, "is_disabled": 0, "type": "electric_scooter", "lon": -77.03212266666667, "bike_id": "ea8fa08486aee112cf24c481a916583f", "fusion_lat": 0.0, "name": "ea8fa08486aee112cf24c481a916583f", "is_reserved": 0, "rental_uris": {"android": "https://dc.lft.to/lastmile_qr_scan", "ios": "https://dc.lft.to/lastmile_qr_scan"}, "fusion_lon": 0.0}, {"lat": 38.876787666666665, "is_disabled": 0, "type": "electric_scooter", "lon": -77.017888, "bike_id": "bf9eba19b57ebca35d31605330c4ca44", "fusion_lat": 0.0, "name": "bf9eba19b57ebca35d31605330c4ca44", "is_reserved": 0, "rental_uris": {"android": "https://dc.lft.to/lastmile_qr_scan", "ios": "https://dc.lft.to/lastmile_qr_scan"}, "fusion_lon": 0.0}, {"lat": 38.89567866666667, "is_disabled": 0, "type": "electric_scooter", "lon": -76.933776, "bike_id": "4b22d9a66962e60326cafa330d563ac4", "fusion_lat": 0.0, "name": "4b22d9a66962e60326cafa330d563ac4", "is_reserved": 0, "rental_uris": {"android": "https://dc.lft.to/lastmile_qr_scan", "ios": "https://dc.lft.to/lastmile_qr_scan"}, "fusion_lon": 0.0}, {"lat": 38.938789166666666, "is_disabled": 0, "type": "electric_scooter", "lon": -77.03261183333333, "bike_id": "c5b0343d91414b712ab44b6138fc6017", "fusion_lat": 0.0, "name": "c5b0343d91414b712ab44b6138fc6017", "is_reserved": 0, "rental_uris": {"android": "https://dc.lft.to/lastmile_qr_scan", "ios": "https://dc.lft.to/lastmile_qr_scan"}, "fusion_lon": 0.0}, {"lat": 38.9155045, "is_disabled": 0, "type": "electric_scooter", "lon": -77.03499766666667, "bike_id": "b285e2f8c76a10955ab4fa87d7576e47", "fusion_lat": 0.0, "name": "b285e2f8c76a10955ab4fa87d7576e47", "is_reserved": 0, "rental_uris": {"android": "https://dc.lft.to/lastmile_qr_scan", "ios": "https://dc.lft.to/lastmile_qr_scan"}, "fusion_lon": 0.0}, {"lat": 38.926627833333335, "is_disabled": 0, "type": "electric_scooter", "lon": -77.0559245, "bike_id": "1d38ae5edf049649a81012e9ab64326d", "fusion_lat": 0.0, "name": "1d38ae5edf049649a81012e9ab64326d", "is_reserved": 0, "rental_uris": {"android": "https://dc.lft.to/lastmile_qr_scan", "ios": "https://dc.lft.to/lastmile_qr_scan"}, "fusion_lon": 0.0}, {"lat": 38.923346333333335, "is_disabled": 0, "type": "electric_scooter", "lon": -77.02961783333333, "bike_id": "9eb62b25a2ccf10c606cfe0d2c53d27d", "fusion_lat": 0.0, "name": "9eb62b25a2ccf10c606cfe0d2c53d27d", "is_reserved": 0, "rental_uris": {"android": "https://dc.lft.to/lastmile_qr_scan", "ios": "https://dc.lft.to/lastmile_qr_scan"}, "fusion_lon": 0.0}, {"lat": 38.917083, "is_disabled": 0, "type": "electric_scooter", "lon": -77.04681716666667, "bike_id": "d4572e48856478c5ae8bbfddf426b4cb", "fusion_lat": 0.0, "name": "d4572e48856478c5ae8bbfddf426b4cb", "is_reserved": 0, "rental_uris": {"android": "https://dc.lft.to/lastmile_qr_scan", "ios": "https://dc.lft.to/lastmile_qr_scan"}, "fusion_lon": 0.0}, {"lat": 38.91816083333333, "is_disabled": 0, "type": "electric_scooter", "lon": -77.04182816666666, "bike_id": "1cb63e8c97777391771b7da45b1de11e", "fusion_lat": 0.0, "name": "1cb63e8c97777391771b7da45b1de11e", "is_reserved": 0, "rental_uris": {"android": "https://dc.lft.to/lastmile_qr_scan", "ios": "https://dc.lft.to/lastmile_qr_scan"}, "fusion_lon": 0.0}, {"lat": 38.90234483333333, "is_disabled": 0, "type": "electric_scooter", "lon": -77.0437425, "bike_id": "3d6d171277bf86c6f1275c0f44381526", "fusion_lat": 0.0, "name": "3d6d171277bf86c6f1275c0f44381526", "is_reserved": 0, "rental_uris": {"android": "https://dc.lft.to/lastmile_qr_scan", "ios": "https://dc.lft.to/lastmile_qr_scan"}, "fusion_lon": 0.0}, {"lat": 38.926112333333336, "is_disabled": 0, "type": "electric_bike", "lon": -77.02434833333334, "bike_id": "9ca55f4c597e3d65e3c9389b9d4629ad", "fusion_lat": 0.0, "name": "9ca55f4c597e3d65e3c9389b9d4629ad", "is_reserved": 0, "rental_uris": {"android": "https://dc.lft.to/lastmile_qr_scan", "ios": "https://dc.lft.to/lastmile_qr_scan"}, "fusion_lon": 0.0}, {"lat": 38.92109033333333, "is_disabled": 0, "type": "electric_scooter", "lon": -77.03158916666666, "bike_id": "b73bcfb789c04621bc051aba018359c5", "fusion_lat": 0.0, "name": "b73bcfb789c04621bc051aba018359c5", "is_reserved": 0, "rental_uris": {"android": "https://dc.lft.to/lastmile_qr_scan", "ios": "https://dc.lft.to/lastmile_qr_scan"}, "fusion_lon": 0.0}, {"lat": 38.94983033333333, "is_disabled": 0, "type": "electric_scooter", "lon": -77.06697183333333, "bike_id": "eb6b5538f1468c90d62c1309dd74b343", "fusion_lat": 0.0, "name": "eb6b5538f1468c90d62c1309dd74b343", "is_reserved": 0, "rental_uris": {"android": "https://dc.lft.to/lastmile_qr_scan", "ios": "https://dc.lft.to/lastmile_qr_scan"}, "fusion_lon": 0.0}, {"lat": 38.931960833333335, "is_disabled": 0, "type": "electric_scooter", "lon": -77.02354816666667, "bike_id": "55eb182c4def3fe23ab53a65ab29c5b2", "fusion_lat": 0.0, "name": "55eb182c4def3fe23ab53a65ab29c5b2", "is_reserved": 0, "rental_uris": {"android": "https://dc.lft.to/lastmile_qr_scan", "ios": "https://dc.lft.to/lastmile_qr_scan"}, "fusion_lon": 0.0}, {"lat": 38.90971116666667, "is_disabled": 0, "type": "electric_scooter", "lon": -77.02284833333333, "bike_id": "f52b40a17ba622db419981b4b1c13acf", "fusion_lat": 0.0, "name": "f52b40a17ba622db419981b4b1c13acf", "is_reserved": 0, "rental_uris": {"android": "https://dc.lft.to/lastmile_qr_scan", "ios": "https://dc.lft.to/lastmile_qr_scan"}, "fusion_lon": 0.0}, {"lat": 38.90966733333333, "is_disabled": 0, "type": "electric_scooter", "lon": -77.03838833333333, "bike_id": "19d5b13ddd8931651470944d5addd227", "fusion_lat": 0.0, "name": "19d5b13ddd8931651470944d5addd227", "is_reserved": 0, "rental_uris": {"android": "https://dc.lft.to/lastmile_qr_scan", "ios": "https://dc.lft.to/lastmile_qr_scan"}, "fusion_lon": 0.0}, {"lat": 38.905187, "is_disabled": 0, "type": "electric_scooter", "lon": -77.05150483333334, "bike_id": "acac9bd107c498dcbd3dae98c57c0e9f", "fusion_lat": 0.0, "name": "acac9bd107c498dcbd3dae98c57c0e9f", "is_reserved": 0, "rental_uris": {"android": "https://dc.lft.to/lastmile_qr_scan", "ios": "https://dc.lft.to/lastmile_qr_scan"}, "fusion_lon": 0.0}, {"lat": 38.885765166666665, "is_disabled": 0, "type": "electric_scooter", "lon": -76.91907866666666, "bike_id": "3bac83da7e70a7079601c8c38598fcf2", "fusion_lat": 0.0, "name": "3bac83da7e70a7079601c8c38598fcf2", "is_reserved": 0, "rental_uris": {"android": "https://dc.lft.to/lastmile_qr_scan", "ios": "https://dc.lft.to/lastmile_qr_scan"}, "fusion_lon": 0.0}, {"lat": 38.925466666666665, "is_disabled": 0, "type": "electric_scooter", "lon": -77.032256, "bike_id": "a012888381f66f053e1f3c3eeaba626a", "fusion_lat": 0.0, "name": "a012888381f66f053e1f3c3eeaba626a", "is_reserved": 0, "rental_uris": {"android": "https://dc.lft.to/lastmile_qr_scan", "ios": "https://dc.lft.to/lastmile_qr_scan"}, "fusion_lon": 0.0}, {"lat": 38.927489333333334, "is_disabled": 0, "type": "electric_scooter", "lon": -77.0241745, "bike_id": "6c3b7861150cb8d0a08afa2a75cb4768", "fusion_lat": 0.0, "name": "6c3b7861150cb8d0a08afa2a75cb4768", "is_reserved": 0, "rental_uris": {"android": "https://dc.lft.to/lastmile_qr_scan", "ios": "https://dc.lft.to/lastmile_qr_scan"}, "fusion_lon": 0.0}, {"lat": 38.92760833333333, "is_disabled": 0, "type": "electric_scooter", "lon": -77.0277475, "bike_id": "ed99f597332732cfe1168f2723aab66f", "fusion_lat": 0.0, "name": "ed99f597332732cfe1168f2723aab66f", "is_reserved": 0, "rental_uris": {"android": "https://dc.lft.to/lastmile_qr_scan", "ios": "https://dc.lft.to/lastmile_qr_scan"}, "fusion_lon": 0.0}, {"lat": 38.947937, "is_disabled": 0, "type": "electric_scooter", "lon": -77.0217165, "bike_id": "2a714f844510f5d8f3a55b902d75a540", "fusion_lat": 0.0, "name": "2a714f844510f5d8f3a55b902d75a540", "is_reserved": 0, "rental_uris": {"android": "https://dc.lft.to/lastmile_qr_scan", "ios": "https://dc.lft.to/lastmile_qr_scan"}, "fusion_lon": 0.0}, {"lat": 38.9216735, "is_disabled": 0, "type": "electric_scooter", "lon": -77.0320935, "bike_id": "d63e4cbe2b604cf5b50211724fbe6dac", "fusion_lat": 0.0, "name": "d63e4cbe2b604cf5b50211724fbe6dac", "is_reserved": 0, "rental_uris": {"android": "https://dc.lft.to/lastmile_qr_scan", "ios": "https://dc.lft.to/lastmile_qr_scan"}, "fusion_lon": 0.0}, {"lat": 38.9011315, "is_disabled": 0, "type": "electric_scooter", "lon": -76.9962275, "bike_id": "5b2f2e4608c888434b52d8eb4d867b11", "fusion_lat": 0.0, "name": "5b2f2e4608c888434b52d8eb4d867b11", "is_reserved": 0, "rental_uris": {"android": "https://dc.lft.to/lastmile_qr_scan", "ios": "https://dc.lft.to/lastmile_qr_scan"}, "fusion_lon": 0.0}, {"lat": 38.9218365, "is_disabled": 0, "type": "electric_scooter", "lon": -77.04704333333333, "bike_id": "e576dfde9adb9128291c19b3d72892a8", "fusion_lat": 0.0, "name": "e576dfde9adb9128291c19b3d72892a8", "is_reserved": 0, "rental_uris": {"android": "https://dc.lft.to/lastmile_qr_scan", "ios": "https://dc.lft.to/lastmile_qr_scan"}, "fusion_lon": 0.0}, {"lat": 38.90267016666667, "is_disabled": 0, "type": "electric_scooter", "lon": -77.0399495, "bike_id": "b541fbf660f897db85ed32759b67f73e", "fusion_lat": 0.0, "name": "b541fbf660f897db85ed32759b67f73e", "is_reserved": 0, "rental_uris": {"android": "https://dc.lft.to/lastmile_qr_scan", "ios": "https://dc.lft.to/lastmile_qr_scan"}, "fusion_lon": 0.0}, {"lat": 38.8921815, "is_disabled": 0, "type": "electric_scooter", "lon": -77.03162716666667, "bike_id": "f9515288afa7dd6d5796cea721e04fbc", "fusion_lat": 0.0, "name": "f9515288afa7dd6d5796cea721e04fbc", "is_reserved": 0, "rental_uris": {"android": "https://dc.lft.to/lastmile_qr_scan", "ios": "https://dc.lft.to/lastmile_qr_scan"}, "fusion_lon": 0.0}, {"lat": 38.93741283333333, "is_disabled": 0, "type": "electric_scooter", "lon": -77.03472133333334, "bike_id": "8524a8de70c174b3fe1f1fb74d27f2a4", "fusion_lat": 0.0, "name": "8524a8de70c174b3fe1f1fb74d27f2a4", "is_reserved": 0, "rental_uris": {"android": "https://dc.lft.to/lastmile_qr_scan", "ios": "https://dc.lft.to/lastmile_qr_scan"}, "fusion_lon": 0.0}, {"lat": 38.89215983333333, "is_disabled": 0, "type": "electric_scooter", "lon": -77.03216266666666, "bike_id": "6b6daea1fc84f774ac2bc65b484d79bb", "fusion_lat": 0.0, "name": "6b6daea1fc84f774ac2bc65b484d79bb", "is_reserved": 0, "rental_uris": {"android": "https://dc.lft.to/lastmile_qr_scan", "ios": "https://dc.lft.to/lastmile_qr_scan"}, "fusion_lon": 0.0}, {"lat": 38.95649183333333, "is_disabled": 0, "type": "electric_scooter", "lon": -77.02400966666667, "bike_id": "decb5c2d5e805ada6e47853548e982b1", "fusion_lat": 0.0, "name": "decb5c2d5e805ada6e47853548e982b1", "is_reserved": 0, "rental_uris": {"android": "https://dc.lft.to/lastmile_qr_scan", "ios": "https://dc.lft.to/lastmile_qr_scan"}, "fusion_lon": 0.0}, {"lat": 38.924680333333335, "is_disabled": 0, "type": "electric_scooter", "lon": -77.05236233333333, "bike_id": "fe56389501d8bbdfcc2c804560ec109e", "fusion_lat": 0.0, "name": "fe56389501d8bbdfcc2c804560ec109e", "is_reserved": 0, "rental_uris": {"android": "https://dc.lft.to/lastmile_qr_scan", "ios": "https://dc.lft.to/lastmile_qr_scan"}, "fusion_lon": 0.0}, {"lat": 38.876726833333336, "is_disabled": 0, "type": "electric_bike", "lon": -77.0143525, "bike_id": "b22ae031c80c2cb6230ea72d1d89d574", "fusion_lat": 0.0, "name": "b22ae031c80c2cb6230ea72d1d89d574", "is_reserved": 0, "rental_uris": {"android": "https://dc.lft.to/lastmile_qr_scan", "ios": "https://dc.lft.to/lastmile_qr_scan"}, "fusion_lon": 0.0}, {"lat": 38.923671666666664, "is_disabled": 0, "type": "electric_scooter", "lon": -77.0513205, "bike_id": "b809215a7144438f24330df2540d4d4e", "fusion_lat": 0.0, "name": "b809215a7144438f24330df2540d4d4e", "is_reserved": 0, "rental_uris": {"android": "https://dc.lft.to/lastmile_qr_scan", "ios": "https://dc.lft.to/lastmile_qr_scan"}, "fusion_lon": 0.0}, {"lat": 38.957804, "is_disabled": 0, "type": "electric_scooter", "lon": -77.02753466666667, "bike_id": "107acbeb7849bad9b34a719426914ca1", "fusion_lat": 0.0, "name": "107acbeb7849bad9b34a719426914ca1", "is_reserved": 0, "rental_uris": {"android": "https://dc.lft.to/lastmile_qr_scan", "ios": "https://dc.lft.to/lastmile_qr_scan"}, "fusion_lon": 0.0}, {"lat": 38.907265833333334, "is_disabled": 0, "type": "electric_scooter", "lon": -77.03468183333334, "bike_id": "942653cfbce5024620d24b5cdaa11b6d", "fusion_lat": 0.0, "name": "942653cfbce5024620d24b5cdaa11b6d", "is_reserved": 0, "rental_uris": {"android": "https://dc.lft.to/lastmile_qr_scan", "ios": "https://dc.lft.to/lastmile_qr_scan"}, "fusion_lon": 0.0}, {"lat": 38.919766333333335, "is_disabled": 0, "type": "electric_scooter", "lon": -77.02397266666667, "bike_id": "189c4a16504166374c233a66752cbeb8", "fusion_lat": 0.0, "name": "189c4a16504166374c233a66752cbeb8", "is_reserved": 0, "rental_uris": {"android": "https://dc.lft.to/lastmile_qr_scan", "ios": "https://dc.lft.to/lastmile_qr_scan"}, "fusion_lon": 0.0}, {"lat": 38.90080833333333, "is_disabled": 0, "type": "electric_scooter", "lon": -77.04920316666667, "bike_id": "48e95635bb72af583faadb115db0748c", "fusion_lat": 0.0, "name": "48e95635bb72af583faadb115db0748c", "is_reserved": 0, "rental_uris": {"android": "https://dc.lft.to/lastmile_qr_scan", "ios": "https://dc.lft.to/lastmile_qr_scan"}, "fusion_lon": 0.0}, {"lat": 38.91779733333333, "is_disabled": 0, "type": "electric_scooter", "lon": -77.04339616666667, "bike_id": "ecf800e105949a9c6e33f16b95430de4", "fusion_lat": 0.0, "name": "ecf800e105949a9c6e33f16b95430de4", "is_reserved": 0, "rental_uris": {"android": "https://dc.lft.to/lastmile_qr_scan", "ios": "https://dc.lft.to/lastmile_qr_scan"}, "fusion_lon": 0.0}, {"lat": 38.997815333333335, "is_disabled": 0, "type": "electric_bike", "lon": -77.00763366666666, "bike_id": "b6a36d91b73be313c6647a39a6610d84", "fusion_lat": 0.0, "name": "b6a36d91b73be313c6647a39a6610d84", "is_reserved": 0, "rental_uris": {"android": "https://dc.lft.to/lastmile_qr_scan", "ios": "https://dc.lft.to/lastmile_qr_scan"}, "fusion_lon": 0.0}, {"lat": 38.80269066666666, "is_disabled": 0, "type": "electric_bike", "lon": -77.08113983333334, "bike_id": "915f47c4c28d199a5f59c732ed22df00", "fusion_lat": 0.0, "name": "915f47c4c28d199a5f59c732ed22df00", "is_reserved": 0, "rental_uris": {"android": "https://dc.lft.to/lastmile_qr_scan", "ios": "https://dc.lft.to/lastmile_qr_scan"}, "fusion_lon": 0.0}, {"lat": 38.933532, "is_disabled": 0, "type": "electric_scooter", "lon": -77.02493433333333, "bike_id": "063733c42cf9491d1066cfab54a0842f", "fusion_lat": 0.0, "name": "063733c42cf9491d1066cfab54a0842f", "is_reserved": 0, "rental_uris": {"android": "https://dc.lft.to/lastmile_qr_scan", "ios": "https://dc.lft.to/lastmile_qr_scan"}, "fusion_lon": 0.0}, {"lat": 39.00386916666667, "is_disabled": 0, "type": "electric_bike", "lon": -77.01281133333333, "bike_id": "79532f499149212bd72a3d29a8fe5feb", "fusion_lat": 0.0, "name": "79532f499149212bd72a3d29a8fe5feb", "is_reserved": 0, "rental_uris": {"android": "https://dc.lft.to/lastmile_qr_scan", "ios": "https://dc.lft.to/lastmile_qr_scan"}, "fusion_lon": 0.0}, {"lat": 38.90244233333333, "is_disabled": 0, "type": "electric_scooter", "lon": -77.01974383333334, "bike_id": "3bd1fa14b23e11fdc5d3aaa095a3b6b2", "fusion_lat": 0.0, "name": "3bd1fa14b23e11fdc5d3aaa095a3b6b2", "is_reserved": 0, "rental_uris": {"android": "https://dc.lft.to/lastmile_qr_scan", "ios": "https://dc.lft.to/lastmile_qr_scan"}, "fusion_lon": 0.0}, {"lat": 38.901647, "is_disabled": 0, "type": "electric_scooter", "lon": -76.99853933333333, "bike_id": "223390267c4a73923d6b9e0ec036fdab", "fusion_lat": 0.0, "name": "223390267c4a73923d6b9e0ec036fdab", "is_reserved": 0, "rental_uris": {"android": "https://dc.lft.to/lastmile_qr_scan", "ios": "https://dc.lft.to/lastmile_qr_scan"}, "fusion_lon": 0.0}, {"lat": 38.923487, "is_disabled": 0, "type": "electric_scooter", "lon": -77.02441483333334, "bike_id": "d01b29e13511503062926d696f26f8b1", "fusion_lat": 0.0, "name": "d01b29e13511503062926d696f26f8b1", "is_reserved": 0, "rental_uris": {"android": "https://dc.lft.to/lastmile_qr_scan", "ios": "https://dc.lft.to/lastmile_qr_scan"}, "fusion_lon": 0.0}, {"lat": 38.8595905, "is_disabled": 0, "type": "electric_scooter", "lon": -76.99135683333333, "bike_id": "8f96eed90be70a2d134584448e5ca75c", "fusion_lat": 0.0, "name": "8f96eed90be70a2d134584448e5ca75c", "is_reserved": 0, "rental_uris": {"android": "https://dc.lft.to/lastmile_qr_scan", "ios": "https://dc.lft.to/lastmile_qr_scan"}, "fusion_lon": 0.0}, {"lat": 38.882008666666664, "is_disabled": 0, "type": "electric_scooter", "lon": -76.98928916666667, "bike_id": "d2bb2936dc37e45790857427fa8ad631", "fusion_lat": 0.0, "name": "d2bb2936dc37e45790857427fa8ad631", "is_reserved": 0, "rental_uris": {"android": "https://dc.lft.to/lastmile_qr_scan", "ios": "https://dc.lft.to/lastmile_qr_scan"}, "fusion_lon": 0.0}, {"lat": 38.87859783333333, "is_disabled": 0, "type": "electric_scooter", "lon": -77.01765066666667, "bike_id": "c1d7bed496ba59a0f9a4950e8e7dd6d4", "fusion_lat": 0.0, "name": "c1d7bed496ba59a0f9a4950e8e7dd6d4", "is_reserved": 0, "rental_uris": {"android": "https://dc.lft.to/lastmile_qr_scan", "ios": "https://dc.lft.to/lastmile_qr_scan"}, "fusion_lon": 0.0}, {"lat": 38.892227166666665, "is_disabled": 0, "type": "electric_scooter", "lon": -77.02211833333334, "bike_id": "215790f0a1669779525c455e418a0daa", "fusion_lat": 0.0, "name": "215790f0a1669779525c455e418a0daa", "is_reserved": 0, "rental_uris": {"android": "https://dc.lft.to/lastmile_qr_scan", "ios": "https://dc.lft.to/lastmile_qr_scan"}, "fusion_lon": 0.0}, {"lat": 38.931159666666666, "is_disabled": 0, "type": "electric_bike", "lon": -77.0272035, "bike_id": "45928f0060bd1f4753fcf22706cbdb7a", "fusion_lat": 0.0, "name": "45928f0060bd1f4753fcf22706cbdb7a", "is_reserved": 0, "rental_uris": {"android": "https://dc.lft.to/lastmile_qr_scan", "ios": "https://dc.lft.to/lastmile_qr_scan"}, "fusion_lon": 0.0}, {"lat": 38.87075566666667, "is_disabled": 0, "type": "electric_bike", "lon": -76.978372, "bike_id": "6725b8555a4ec5649642c47a2f6c516f", "fusion_lat": 0.0, "name": "6725b8555a4ec5649642c47a2f6c516f", "is_reserved": 0, "rental_uris": {"android": "https://dc.lft.to/lastmile_qr_scan", "ios": "https://dc.lft.to/lastmile_qr_scan"}, "fusion_lon": 0.0}, {"lat": 38.89039566666667, "is_disabled": 0, "type": "electric_scooter", "lon": -76.937479, "bike_id": "575847bdec5571590d55d7dae7636dd2", "fusion_lat": 0.0, "name": "575847bdec5571590d55d7dae7636dd2", "is_reserved": 0, "rental_uris": {"android": "https://dc.lft.to/lastmile_qr_scan", "ios": "https://dc.lft.to/lastmile_qr_scan"}, "fusion_lon": 0.0}, {"lat": 38.92857733333334, "is_disabled": 0, "type": "electric_scooter", "lon": -77.03708716666667, "bike_id": "e3eb59f2b17b5d8728ffcc73edcd58a0", "fusion_lat": 0.0, "name": "e3eb59f2b17b5d8728ffcc73edcd58a0", "is_reserved": 0, "rental_uris": {"android": "https://dc.lft.to/lastmile_qr_scan", "ios": "https://dc.lft.to/lastmile_qr_scan"}, "fusion_lon": 0.0}, {"lat": 38.93298766666667, "is_disabled": 0, "type": "electric_scooter", "lon": -77.045378, "bike_id": "71fd69d7c54cc58a47f6e5dab48caea4", "fusion_lat": 0.0, "name": "71fd69d7c54cc58a47f6e5dab48caea4", "is_reserved": 0, "rental_uris": {"android": "https://dc.lft.to/lastmile_qr_scan", "ios": "https://dc.lft.to/lastmile_qr_scan"}, "fusion_lon": 0.0}, {"lat": 38.91460683333333, "is_disabled": 0, "type": "electric_scooter", "lon": -77.01435466666666, "bike_id": "3477a45c93894644fa08d71e17a075da", "fusion_lat": 0.0, "name": "3477a45c93894644fa08d71e17a075da", "is_reserved": 0, "rental_uris": {"android": "https://dc.lft.to/lastmile_qr_scan", "ios": "https://dc.lft.to/lastmile_qr_scan"}, "fusion_lon": 0.0}, {"lat": 38.91452866666667, "is_disabled": 0, "type": "electric_bike", "lon": -76.972734, "bike_id": "514e76bdf2ddd60742f49fbc29929bcf", "fusion_lat": 0.0, "name": "514e76bdf2ddd60742f49fbc29929bcf", "is_reserved": 0, "rental_uris": {"android": "https://dc.lft.to/lastmile_qr_scan", "ios": "https://dc.lft.to/lastmile_qr_scan"}, "fusion_lon": 0.0}, {"lat": 38.902475, "is_disabled": 0, "type": "electric_scooter", "lon": -77.01758216666667, "bike_id": "14ea0ea00356649abb064630b5d18b2a", "fusion_lat": 0.0, "name": "14ea0ea00356649abb064630b5d18b2a", "is_reserved": 0, "rental_uris": {"android": "https://dc.lft.to/lastmile_qr_scan", "ios": "https://dc.lft.to/lastmile_qr_scan"}, "fusion_lon": 0.0}, {"lat": 38.9239365, "is_disabled": 0, "type": "electric_scooter", "lon": -77.0354525, "bike_id": "48109ffdcd32ac9cbeb22dacc5382bb2", "fusion_lat": 0.0, "name": "48109ffdcd32ac9cbeb22dacc5382bb2", "is_reserved": 0, "rental_uris": {"android": "https://dc.lft.to/lastmile_qr_scan", "ios": "https://dc.lft.to/lastmile_qr_scan"}, "fusion_lon": 0.0}, {"lat": 38.91427266666667, "is_disabled": 0, "type": "electric_scooter", "lon": -77.03181016666667, "bike_id": "7935b2000d00746b8c031552b696b283", "fusion_lat": 0.0, "name": "7935b2000d00746b8c031552b696b283", "is_reserved": 0, "rental_uris": {"android": "https://dc.lft.to/lastmile_qr_scan", "ios": "https://dc.lft.to/lastmile_qr_scan"}, "fusion_lon": 0.0}, {"lat": 38.905352, "is_disabled": 0, "type": "electric_scooter", "lon": -77.05139216666667, "bike_id": "2c90880512d03585074568bed6bdd9ce", "fusion_lat": 0.0, "name": "2c90880512d03585074568bed6bdd9ce", "is_reserved": 0, "rental_uris": {"android": "https://dc.lft.to/lastmile_qr_scan", "ios": "https://dc.lft.to/lastmile_qr_scan"}, "fusion_lon": 0.0}, {"lat": 38.858054333333335, "is_disabled": 0, "type": "electric_scooter", "lon": -76.987161, "bike_id": "daba5e8e03450f73ebcc4f4626fee6a3", "fusion_lat": 0.0, "name": "daba5e8e03450f73ebcc4f4626fee6a3", "is_reserved": 0, "rental_uris": {"android": "https://dc.lft.to/lastmile_qr_scan", "ios": "https://dc.lft.to/lastmile_qr_scan"}, "fusion_lon": 0.0}, {"lat": 38.880395666666665, "is_disabled": 0, "type": "electric_scooter", "lon": -77.003784, "bike_id": "c40b6e1298dd7b12957a5418c94be327", "fusion_lat": 0.0, "name": "c40b6e1298dd7b12957a5418c94be327", "is_reserved": 0, "rental_uris": {"android": "https://dc.lft.to/lastmile_qr_scan", "ios": "https://dc.lft.to/lastmile_qr_scan"}, "fusion_lon": 0.0}, {"lat": 38.91816083333333, "is_disabled": 0, "type": "electric_scooter", "lon": -77.02490333333333, "bike_id": "ad66175b105265d2da7320140243b1c2", "fusion_lat": 0.0, "name": "ad66175b105265d2da7320140243b1c2", "is_reserved": 0, "rental_uris": {"android": "https://dc.lft.to/lastmile_qr_scan", "ios": "https://dc.lft.to/lastmile_qr_scan"}, "fusion_lon": 0.0}, {"lat": 38.909406833333335, "is_disabled": 0, "type": "electric_bike", "lon": -77.04878366666667, "bike_id": "50dbdcb503a9a0552a3945825c9d2668", "fusion_lat": 0.0, "name": "50dbdcb503a9a0552a3945825c9d2668", "is_reserved": 0, "rental_uris": {"android": "https://dc.lft.to/lastmile_qr_scan", "ios": "https://dc.lft.to/lastmile_qr_scan"}, "fusion_lon": 0.0}, {"lat": 38.921533333333336, "is_disabled": 0, "type": "electric_scooter", "lon": -77.03516016666667, "bike_id": "62c7880ccb45574efd69814c961d22e2", "fusion_lat": 0.0, "name": "62c7880ccb45574efd69814c961d22e2", "is_reserved": 0, "rental_uris": {"android": "https://dc.lft.to/lastmile_qr_scan", "ios": "https://dc.lft.to/lastmile_qr_scan"}, "fusion_lon": 0.0}, {"lat": 38.91320183333333, "is_disabled": 0, "type": "electric_scooter", "lon": -77.039974, "bike_id": "36221e1d1d659fb47ac91b599ab27b6f", "fusion_lat": 0.0, "name": "36221e1d1d659fb47ac91b599ab27b6f", "is_reserved": 0, "rental_uris": {"android": "https://dc.lft.to/lastmile_qr_scan", "ios": "https://dc.lft.to/lastmile_qr_scan"}, "fusion_lon": 0.0}, {"lat": 38.929120833333336, "is_disabled": 0, "type": "electric_scooter", "lon": -77.037518, "bike_id": "12b291b9fe7165f1e26204414580d895", "fusion_lat": 0.0, "name": "12b291b9fe7165f1e26204414580d895", "is_reserved": 0, "rental_uris": {"android": "https://dc.lft.to/lastmile_qr_scan", "ios": "https://dc.lft.to/lastmile_qr_scan"}, "fusion_lon": 0.0}, {"lat": 38.922790666666664, "is_disabled": 0, "type": "electric_scooter", "lon": -77.04472316666667, "bike_id": "22de9c2bf9241732ed779070114d8d7f", "fusion_lat": 0.0, "name": "22de9c2bf9241732ed779070114d8d7f", "is_reserved": 0, "rental_uris": {"android": "https://dc.lft.to/lastmile_qr_scan", "ios": "https://dc.lft.to/lastmile_qr_scan"}, "fusion_lon": 0.0}, {"lat": 38.90681683333333, "is_disabled": 0, "type": "electric_scooter", "lon": -77.07430983333333, "bike_id": "3f7891544ed75546704db3c3c6e64dcd", "fusion_lat": 0.0, "name": "3f7891544ed75546704db3c3c6e64dcd", "is_reserved": 0, "rental_uris": {"android": "https://dc.lft.to/lastmile_qr_scan", "ios": "https://dc.lft.to/lastmile_qr_scan"}, "fusion_lon": 0.0}, {"lat": 38.8983945, "is_disabled": 0, "type": "electric_scooter", "lon": -76.99508833333333, "bike_id": "4b4a386a0f8795b157eaf85f2d17595a", "fusion_lat": 0.0, "name": "4b4a386a0f8795b157eaf85f2d17595a", "is_reserved": 0, "rental_uris": {"android": "https://dc.lft.to/lastmile_qr_scan", "ios": "https://dc.lft.to/lastmile_qr_scan"}, "fusion_lon": 0.0}, {"lat": 38.9622545, "is_disabled": 0, "type": "electric_bike", "lon": -77.02631766666667, "bike_id": "7b26711c68766167fbd1cdad12769cb9", "fusion_lat": 0.0, "name": "7b26711c68766167fbd1cdad12769cb9", "is_reserved": 0, "rental_uris": {"android": "https://dc.lft.to/lastmile_qr_scan", "ios": "https://dc.lft.to/lastmile_qr_scan"}, "fusion_lon": 0.0}, {"lat": 38.90898216666667, "is_disabled": 0, "type": "electric_scooter", "lon": -77.0230145, "bike_id": "ce9c6408bb73d2026915a490916ac789", "fusion_lat": 0.0, "name": "ce9c6408bb73d2026915a490916ac789", "is_reserved": 0, "rental_uris": {"android": "https://dc.lft.to/lastmile_qr_scan", "ios": "https://dc.lft.to/lastmile_qr_scan"}, "fusion_lon": 0.0}, {"lat": 38.9237525, "is_disabled": 0, "type": "electric_scooter", "lon": -77.05757433333333, "bike_id": "c0ecb165dee970aa7927f811d19c8d3f", "fusion_lat": 0.0, "name": "c0ecb165dee970aa7927f811d19c8d3f", "is_reserved": 0, "rental_uris": {"android": "https://dc.lft.to/lastmile_qr_scan", "ios": "https://dc.lft.to/lastmile_qr_scan"}, "fusion_lon": 0.0}, {"lat": 38.89225916666667, "is_disabled": 0, "type": "electric_bike", "lon": -77.10777966666667, "bike_id": "057f4eb327e6e5b38b31a3165bbdc689", "fusion_lat": 0.0, "name": "057f4eb327e6e5b38b31a3165bbdc689", "is_reserved": 0, "rental_uris": {"android": "https://dc.lft.to/lastmile_qr_scan", "ios": "https://dc.lft.to/lastmile_qr_scan"}, "fusion_lon": 0.0}, {"lat": 38.902401833333336, "is_disabled": 0, "type": "electric_scooter", "lon": -77.019417, "bike_id": "8ad281a1f47cb3dcdaab4970aa04db70", "fusion_lat": 0.0, "name": "8ad281a1f47cb3dcdaab4970aa04db70", "is_reserved": 0, "rental_uris": {"android": "https://dc.lft.to/lastmile_qr_scan", "ios": "https://dc.lft.to/lastmile_qr_scan"}, "fusion_lon": 0.0}, {"lat": 38.9024445, "is_disabled": 0, "type": "electric_scooter", "lon": -77.0436475, "bike_id": "f7bbfb0e61eb982decaab72326c3b63c", "fusion_lat": 0.0, "name": "f7bbfb0e61eb982decaab72326c3b63c", "is_reserved": 0, "rental_uris": {"android": "https://dc.lft.to/lastmile_qr_scan", "ios": "https://dc.lft.to/lastmile_qr_scan"}, "fusion_lon": 0.0}, {"lat": 38.903698, "is_disabled": 0, "type": "electric_scooter", "lon": -77.00754483333333, "bike_id": "6df6557f3cac2c0fad53d0cf030b6a56", "fusion_lat": 0.0, "name": "6df6557f3cac2c0fad53d0cf030b6a56", "is_reserved": 0, "rental_uris": {"android": "https://dc.lft.to/lastmile_qr_scan", "ios": "https://dc.lft.to/lastmile_qr_scan"}, "fusion_lon": 0.0}, {"lat": 38.89497016666667, "is_disabled": 0, "type": "electric_bike", "lon": -77.07350566666666, "bike_id": "759a206d3e65cc58fa981513016f1a86", "fusion_lat": 0.0, "name": "759a206d3e65cc58fa981513016f1a86", "is_reserved": 0, "rental_uris": {"android": "https://dc.lft.to/lastmile_qr_scan", "ios": "https://dc.lft.to/lastmile_qr_scan"}, "fusion_lon": 0.0}, {"lat": 38.90871283333333, "is_disabled": 0, "type": "electric_scooter", "lon": -77.00354016666667, "bike_id": "8caa2734675eca11b6875ba502fad524", "fusion_lat": 0.0, "name": "8caa2734675eca11b6875ba502fad524", "is_reserved": 0, "rental_uris": {"android": "https://dc.lft.to/lastmile_qr_scan", "ios": "https://dc.lft.to/lastmile_qr_scan"}, "fusion_lon": 0.0}, {"lat": 38.969427, "is_disabled": 0, "type": "electric_bike", "lon": -77.033471, "bike_id": "e4a70bb77adb1a79f69ebd66b2d1bb5e", "fusion_lat": 0.0, "name": "e4a70bb77adb1a79f69ebd66b2d1bb5e", "is_reserved": 0, "rental_uris": {"android": "https://dc.lft.to/lastmile_qr_scan", "ios": "https://dc.lft.to/lastmile_qr_scan"}, "fusion_lon": 0.0}, {"lat": 38.92074, "is_disabled": 0, "type": "electric_scooter", "lon": -77.02396516666667, "bike_id": "a2d87d09b409c5f0d155b02cbe7359de", "fusion_lat": 0.0, "name": "a2d87d09b409c5f0d155b02cbe7359de", "is_reserved": 0, "rental_uris": {"android": "https://dc.lft.to/lastmile_qr_scan", "ios": "https://dc.lft.to/lastmile_qr_scan"}, "fusion_lon": 0.0}, {"lat": 38.88657633333333, "is_disabled": 0, "type": "electric_scooter", "lon": -77.01369083333333, "bike_id": "4dbade5e3201596c2c63e95c831640ea", "fusion_lat": 0.0, "name": "4dbade5e3201596c2c63e95c831640ea", "is_reserved": 0, "rental_uris": {"android": "https://dc.lft.to/lastmile_qr_scan", "ios": "https://dc.lft.to/lastmile_qr_scan"}, "fusion_lon": 0.0}, {"lat": 38.93860383333333, "is_disabled": 0, "type": "electric_scooter", "lon": -77.02649566666666, "bike_id": "0badc1a4f55e80e21d03798b2c6657f2", "fusion_lat": 0.0, "name": "0badc1a4f55e80e21d03798b2c6657f2", "is_reserved": 0, "rental_uris": {"android": "https://dc.lft.to/lastmile_qr_scan", "ios": "https://dc.lft.to/lastmile_qr_scan"}, "fusion_lon": 0.0}, {"lat": 38.90853366666666, "is_disabled": 0, "type": "electric_scooter", "lon": -77.00624283333333, "bike_id": "d548a52f9cf87d2ef6e9eeb612659e66", "fusion_lat": 0.0, "name": "d548a52f9cf87d2ef6e9eeb612659e66", "is_reserved": 0, "rental_uris": {"android": "https://dc.lft.to/lastmile_qr_scan", "ios": "https://dc.lft.to/lastmile_qr_scan"}, "fusion_lon": 0.0}, {"lat": 38.920252833333336, "is_disabled": 0, "type": "electric_scooter", "lon": -77.01428216666666, "bike_id": "d81b0cd6e1ba7f3e0eeaa89e5e57ad38", "fusion_lat": 0.0, "name": "d81b0cd6e1ba7f3e0eeaa89e5e57ad38", "is_reserved": 0, "rental_uris": {"android": "https://dc.lft.to/lastmile_qr_scan", "ios": "https://dc.lft.to/lastmile_qr_scan"}, "fusion_lon": 0.0}, {"lat": 38.91267, "is_disabled": 0, "type": "electric_scooter", "lon": -77.022527, "bike_id": "afbee50f9631570f2841a19e7a542687", "fusion_lat": 0.0, "name": "afbee50f9631570f2841a19e7a542687", "is_reserved": 0, "rental_uris": {"android": "https://dc.lft.to/lastmile_qr_scan", "ios": "https://dc.lft.to/lastmile_qr_scan"}, "fusion_lon": 0.0}, {"lat": 38.958806333333335, "is_disabled": 0, "type": "electric_bike", "lon": -77.01032516666666, "bike_id": "70774244d60df0ebbae850bec05548b0", "fusion_lat": 0.0, "name": "70774244d60df0ebbae850bec05548b0", "is_reserved": 0, "rental_uris": {"android": "https://dc.lft.to/lastmile_qr_scan", "ios": "https://dc.lft.to/lastmile_qr_scan"}, "fusion_lon": 0.0}, {"lat": 38.91802783333333, "is_disabled": 0, "type": "electric_bike", "lon": -77.22345416666667, "bike_id": "30abf86103228b133f9e69ea044d1198", "fusion_lat": 0.0, "name": "30abf86103228b133f9e69ea044d1198", "is_reserved": 0, "rental_uris": {"android": "https://dc.lft.to/lastmile_qr_scan", "ios": "https://dc.lft.to/lastmile_qr_scan"}, "fusion_lon": 0.0}, {"lat": 38.917929666666666, "is_disabled": 0, "type": "electric_scooter", "lon": -77.040387, "bike_id": "cdce92aa5cc206b5472c81100c9a3f43", "fusion_lat": 0.0, "name": "cdce92aa5cc206b5472c81100c9a3f43", "is_reserved": 0, "rental_uris": {"android": "https://dc.lft.to/lastmile_qr_scan", "ios": "https://dc.lft.to/lastmile_qr_scan"}, "fusion_lon": 0.0}, {"lat": 38.93762183333333, "is_disabled": 0, "type": "electric_scooter", "lon": -77.02134433333333, "bike_id": "9c2bfe35e17bad531cb24f0c7e5ef4d6", "fusion_lat": 0.0, "name": "9c2bfe35e17bad531cb24f0c7e5ef4d6", "is_reserved": 0, "rental_uris": {"android": "https://dc.lft.to/lastmile_qr_scan", "ios": "https://dc.lft.to/lastmile_qr_scan"}, "fusion_lon": 0.0}, {"lat": 38.8967945, "is_disabled": 0, "type": "electric_scooter", "lon": -77.05133316666667, "bike_id": "608901475c9901eef148d253379ed3ae", "fusion_lat": 0.0, "name": "608901475c9901eef148d253379ed3ae", "is_reserved": 0, "rental_uris": {"android": "https://dc.lft.to/lastmile_qr_scan", "ios": "https://dc.lft.to/lastmile_qr_scan"}, "fusion_lon": 0.0}, {"lat": 38.87645083333334, "is_disabled": 0, "type": "electric_scooter", "lon": -77.0042365, "bike_id": "fd7162d9c441541a49e7ebe6f8f0b1e2", "fusion_lat": 0.0, "name": "fd7162d9c441541a49e7ebe6f8f0b1e2", "is_reserved": 0, "rental_uris": {"android": "https://dc.lft.to/lastmile_qr_scan", "ios": "https://dc.lft.to/lastmile_qr_scan"}, "fusion_lon": 0.0}, {"lat": 38.909742, "is_disabled": 0, "type": "electric_scooter", "lon": -77.038684, "bike_id": "f3c3c80f3da8bddd555a31be993f8850", "fusion_lat": 0.0, "name": "f3c3c80f3da8bddd555a31be993f8850", "is_reserved": 0, "rental_uris": {"android": "https://dc.lft.to/lastmile_qr_scan", "ios": "https://dc.lft.to/lastmile_qr_scan"}, "fusion_lon": 0.0}, {"lat": 38.91702633333333, "is_disabled": 0, "type": "electric_scooter", "lon": -77.04193216666667, "bike_id": "1a882b279ce000d806389b8d611ffd20", "fusion_lat": 0.0, "name": "1a882b279ce000d806389b8d611ffd20", "is_reserved": 0, "rental_uris": {"android": "https://dc.lft.to/lastmile_qr_scan", "ios": "https://dc.lft.to/lastmile_qr_scan"}, "fusion_lon": 0.0}, {"lat": 38.9080825, "is_disabled": 0, "type": "electric_scooter", "lon": -77.04332733333334, "bike_id": "c4eb166ea6ef83a9cb9602fb3711dab5", "fusion_lat": 0.0, "name": "c4eb166ea6ef83a9cb9602fb3711dab5", "is_reserved": 0, "rental_uris": {"android": "https://dc.lft.to/lastmile_qr_scan", "ios": "https://dc.lft.to/lastmile_qr_scan"}, "fusion_lon": 0.0}, {"lat": 38.90956366666666, "is_disabled": 0, "type": "electric_scooter", "lon": -77.02278583333333, "bike_id": "5f57c67169caa64fecb97c1aa1a96fff", "fusion_lat": 0.0, "name": "5f57c67169caa64fecb97c1aa1a96fff", "is_reserved": 0, "rental_uris": {"android": "https://dc.lft.to/lastmile_qr_scan", "ios": "https://dc.lft.to/lastmile_qr_scan"}, "fusion_lon": 0.0}, {"lat": 38.86522433333333, "is_disabled": 0, "type": "electric_scooter", "lon": -76.990301, "bike_id": "ecca4695480979301b6775fab8128644", "fusion_lat": 0.0, "name": "ecca4695480979301b6775fab8128644", "is_reserved": 0, "rental_uris": {"android": "https://dc.lft.to/lastmile_qr_scan", "ios": "https://dc.lft.to/lastmile_qr_scan"}, "fusion_lon": 0.0}, {"lat": 38.8959215, "is_disabled": 0, "type": "electric_bike", "lon": -77.126711, "bike_id": "b6c83f0a2e378ae4e940d91a54a8170f", "fusion_lat": 0.0, "name": "b6c83f0a2e378ae4e940d91a54a8170f", "is_reserved": 0, "rental_uris": {"android": "https://dc.lft.to/lastmile_qr_scan", "ios": "https://dc.lft.to/lastmile_qr_scan"}, "fusion_lon": 0.0}, {"lat": 38.92123383333333, "is_disabled": 0, "type": "electric_scooter", "lon": -77.0366355, "bike_id": "fa2916a6bde5cffb4af5dbbb51d53b23", "fusion_lat": 0.0, "name": "fa2916a6bde5cffb4af5dbbb51d53b23", "is_reserved": 0, "rental_uris": {"android": "https://dc.lft.to/lastmile_qr_scan", "ios": "https://dc.lft.to/lastmile_qr_scan"}, "fusion_lon": 0.0}, {"lat": 38.901594833333334, "is_disabled": 0, "type": "electric_scooter", "lon": -77.03911883333333, "bike_id": "2d030ccc310fc1bfab7ee2131e47b3bf", "fusion_lat": 0.0, "name": "2d030ccc310fc1bfab7ee2131e47b3bf", "is_reserved": 0, "rental_uris": {"android": "https://dc.lft.to/lastmile_qr_scan", "ios": "https://dc.lft.to/lastmile_qr_scan"}, "fusion_lon": 0.0}, {"lat": 38.9336245, "is_disabled": 0, "type": "electric_bike", "lon": -77.09963733333333, "bike_id": "650d1bdbe0716f4de196b2b0e2b51977", "fusion_lat": 0.0, "name": "650d1bdbe0716f4de196b2b0e2b51977", "is_reserved": 0, "rental_uris": {"android": "https://dc.lft.to/lastmile_qr_scan", "ios": "https://dc.lft.to/lastmile_qr_scan"}, "fusion_lon": 0.0}, {"lat": 38.92854666666667, "is_disabled": 0, "type": "electric_scooter", "lon": -77.0332925, "bike_id": "a9f3ed38c155ba601e7c9317991c6ed1", "fusion_lat": 0.0, "name": "a9f3ed38c155ba601e7c9317991c6ed1", "is_reserved": 0, "rental_uris": {"android": "https://dc.lft.to/lastmile_qr_scan", "ios": "https://dc.lft.to/lastmile_qr_scan"}, "fusion_lon": 0.0}, {"lat": 38.90269516666667, "is_disabled": 0, "type": "electric_scooter", "lon": -77.03646533333334, "bike_id": "825c301a67a91a2f8eaa3837a32059ca", "fusion_lat": 0.0, "name": "825c301a67a91a2f8eaa3837a32059ca", "is_reserved": 0, "rental_uris": {"android": "https://dc.lft.to/lastmile_qr_scan", "ios": "https://dc.lft.to/lastmile_qr_scan"}, "fusion_lon": 0.0}, {"lat": 38.914235833333336, "is_disabled": 0, "type": "electric_scooter", "lon": -77.03185716666667, "bike_id": "e0f5ee9b562badd310b8574a268acfc8", "fusion_lat": 0.0, "name": "e0f5ee9b562badd310b8574a268acfc8", "is_reserved": 0, "rental_uris": {"android": "https://dc.lft.to/lastmile_qr_scan", "ios": "https://dc.lft.to/lastmile_qr_scan"}, "fusion_lon": 0.0}, {"lat": 38.92324883333333, "is_disabled": 0, "type": "electric_scooter", "lon": -77.03547216666666, "bike_id": "40afe7a6885e911087e58c52d0685fc0", "fusion_lat": 0.0, "name": "40afe7a6885e911087e58c52d0685fc0", "is_reserved": 0, "rental_uris": {"android": "https://dc.lft.to/lastmile_qr_scan", "ios": "https://dc.lft.to/lastmile_qr_scan"}, "fusion_lon": 0.0}, {"lat": 38.90529016666667, "is_disabled": 0, "type": "electric_scooter", "lon": -77.04342483333333, "bike_id": "426730de3cd1b3fa6d8ef1f4d98f6684", "fusion_lat": 0.0, "name": "426730de3cd1b3fa6d8ef1f4d98f6684", "is_reserved": 0, "rental_uris": {"android": "https://dc.lft.to/lastmile_qr_scan", "ios": "https://dc.lft.to/lastmile_qr_scan"}, "fusion_lon": 0.0}, {"lat": 38.911942833333335, "is_disabled": 0, "type": "electric_scooter", "lon": -77.00441283333333, "bike_id": "1fecc893fb2e4dd2164d2b65805fdd2a", "fusion_lat": 0.0, "name": "1fecc893fb2e4dd2164d2b65805fdd2a", "is_reserved": 0, "rental_uris": {"android": "https://dc.lft.to/lastmile_qr_scan", "ios": "https://dc.lft.to/lastmile_qr_scan"}, "fusion_lon": 0.0}, {"lat": 38.90536633333333, "is_disabled": 0, "type": "electric_scooter", "lon": -77.04173816666666, "bike_id": "f0164618bb5f6731bf4c175027680a47", "fusion_lat": 0.0, "name": "f0164618bb5f6731bf4c175027680a47", "is_reserved": 0, "rental_uris": {"android": "https://dc.lft.to/lastmile_qr_scan", "ios": "https://dc.lft.to/lastmile_qr_scan"}, "fusion_lon": 0.0}, {"lat": 38.9053095, "is_disabled": 0, "type": "electric_scooter", "lon": -77.04175133333334, "bike_id": "5a4b7f98b4e525ec93da4de4cfd1ac9a", "fusion_lat": 0.0, "name": "5a4b7f98b4e525ec93da4de4cfd1ac9a", "is_reserved": 0, "rental_uris": {"android": "https://dc.lft.to/lastmile_qr_scan", "ios": "https://dc.lft.to/lastmile_qr_scan"}, "fusion_lon": 0.0}, {"lat": 38.94928933333333, "is_disabled": 0, "type": "electric_scooter", "lon": -77.01934066666666, "bike_id": "70ccb5ac04048fbcc24deeaa12f705e3", "fusion_lat": 0.0, "name": "70ccb5ac04048fbcc24deeaa12f705e3", "is_reserved": 0, "rental_uris": {"android": "https://dc.lft.to/lastmile_qr_scan", "ios": "https://dc.lft.to/lastmile_qr_scan"}, "fusion_lon": 0.0}, {"lat": 38.905307666666666, "is_disabled": 0, "type": "electric_scooter", "lon": -77.0295485, "bike_id": "6cc4557ef7ce1fbc134715923d4ccaaa", "fusion_lat": 0.0, "name": "6cc4557ef7ce1fbc134715923d4ccaaa", "is_reserved": 0, "rental_uris": {"android": "https://dc.lft.to/lastmile_qr_scan", "ios": "https://dc.lft.to/lastmile_qr_scan"}, "fusion_lon": 0.0}, {"lat": 38.91552566666667, "is_disabled": 0, "type": "electric_scooter", "lon": -77.03868816666666, "bike_id": "79a2e8e99b645f21207996fd15636411", "fusion_lat": 0.0, "name": "79a2e8e99b645f21207996fd15636411", "is_reserved": 0, "rental_uris": {"android": "https://dc.lft.to/lastmile_qr_scan", "ios": "https://dc.lft.to/lastmile_qr_scan"}, "fusion_lon": 0.0}, {"lat": 38.92611333333333, "is_disabled": 0, "type": "electric_scooter", "lon": -76.99606116666666, "bike_id": "6d5c65a8a227494fc333b5bf9e5ad2b9", "fusion_lat": 0.0, "name": "6d5c65a8a227494fc333b5bf9e5ad2b9", "is_reserved": 0, "rental_uris": {"android": "https://dc.lft.to/lastmile_qr_scan", "ios": "https://dc.lft.to/lastmile_qr_scan"}, "fusion_lon": 0.0}, {"lat": 38.892211, "is_disabled": 0, "type": "electric_scooter", "lon": -77.02781816666666, "bike_id": "1ca7343942926905874474b4b0f378dd", "fusion_lat": 0.0, "name": "1ca7343942926905874474b4b0f378dd", "is_reserved": 0, "rental_uris": {"android": "https://dc.lft.to/lastmile_qr_scan", "ios": "https://dc.lft.to/lastmile_qr_scan"}, "fusion_lon": 0.0}, {"lat": 38.889973833333336, "is_disabled": 0, "type": "electric_scooter", "lon": -76.95411766666666, "bike_id": "a719b92f8532104eaacacd50f804a0a5", "fusion_lat": 0.0, "name": "a719b92f8532104eaacacd50f804a0a5", "is_reserved": 0, "rental_uris": {"android": "https://dc.lft.to/lastmile_qr_scan", "ios": "https://dc.lft.to/lastmile_qr_scan"}, "fusion_lon": 0.0}, {"lat": 38.87592033333333, "is_disabled": 0, "type": "electric_bike", "lon": -77.10559616666667, "bike_id": "e080396b21bf73472136aa812e6d2b6b", "fusion_lat": 0.0, "name": "e080396b21bf73472136aa812e6d2b6b", "is_reserved": 0, "rental_uris": {"android": "https://dc.lft.to/lastmile_qr_scan", "ios": "https://dc.lft.to/lastmile_qr_scan"}, "fusion_lon": 0.0}, {"lat": 38.912666, "is_disabled": 0, "type": "electric_scooter", "lon": -77.02253266666666, "bike_id": "964eb8585b6b391585b179e7c45c8369", "fusion_lat": 0.0, "name": "964eb8585b6b391585b179e7c45c8369", "is_reserved": 0, "rental_uris": {"android": "https://dc.lft.to/lastmile_qr_scan", "ios": "https://dc.lft.to/lastmile_qr_scan"}, "fusion_lon": 0.0}, {"lat": 38.8952405, "is_disabled": 0, "type": "electric_scooter", "lon": -77.002153, "bike_id": "521df36eb1696390e969dac16fcfa71f", "fusion_lat": 0.0, "name": "521df36eb1696390e969dac16fcfa71f", "is_reserved": 0, "rental_uris": {"android": "https://dc.lft.to/lastmile_qr_scan", "ios": "https://dc.lft.to/lastmile_qr_scan"}, "fusion_lon": 0.0}, {"lat": 38.84273116666667, "is_disabled": 0, "type": "electric_bike", "lon": -76.98843633333334, "bike_id": "74db92bbbf067911ce412d22bc77d0e9", "fusion_lat": 0.0, "name": "74db92bbbf067911ce412d22bc77d0e9", "is_reserved": 0, "rental_uris": {"android": "https://dc.lft.to/lastmile_qr_scan", "ios": "https://dc.lft.to/lastmile_qr_scan"}, "fusion_lon": 0.0}, {"lat": 38.913637333333334, "is_disabled": 0, "type": "electric_scooter", "lon": -77.03953133333333, "bike_id": "ecf9511e62ad6e46df8748b99a69e512", "fusion_lat": 0.0, "name": "ecf9511e62ad6e46df8748b99a69e512", "is_reserved": 0, "rental_uris": {"android": "https://dc.lft.to/lastmile_qr_scan", "ios": "https://dc.lft.to/lastmile_qr_scan"}, "fusion_lon": 0.0}, {"lat": 38.866242166666666, "is_disabled": 0, "type": "electric_scooter", "lon": -76.98704016666667, "bike_id": "1180074e705ba481dc6bdc9aae583fe7", "fusion_lat": 0.0, "name": "1180074e705ba481dc6bdc9aae583fe7", "is_reserved": 0, "rental_uris": {"android": "https://dc.lft.to/lastmile_qr_scan", "ios": "https://dc.lft.to/lastmile_qr_scan"}, "fusion_lon": 0.0}, {"lat": 38.88490183333333, "is_disabled": 0, "type": "electric_scooter", "lon": -77.00708266666666, "bike_id": "6d50e27ca8bce2e618c0d6c326d37156", "fusion_lat": 0.0, "name": "6d50e27ca8bce2e618c0d6c326d37156", "is_reserved": 0, "rental_uris": {"android": "https://dc.lft.to/lastmile_qr_scan", "ios": "https://dc.lft.to/lastmile_qr_scan"}, "fusion_lon": 0.0}, {"lat": 38.912562, "is_disabled": 0, "type": "electric_scooter", "lon": -77.0253645, "bike_id": "720b054b7c42231b0dde6691aec9adc0", "fusion_lat": 0.0, "name": "720b054b7c42231b0dde6691aec9adc0", "is_reserved": 0, "rental_uris": {"android": "https://dc.lft.to/lastmile_qr_scan", "ios": "https://dc.lft.to/lastmile_qr_scan"}, "fusion_lon": 0.0}, {"lat": 38.94923466666667, "is_disabled": 0, "type": "electric_bike", "lon": -77.00797483333334, "bike_id": "ad33067e6eaf56b37c4a8ad4a1e9c9b0", "fusion_lat": 0.0, "name": "ad33067e6eaf56b37c4a8ad4a1e9c9b0", "is_reserved": 0, "rental_uris": {"android": "https://dc.lft.to/lastmile_qr_scan", "ios": "https://dc.lft.to/lastmile_qr_scan"}, "fusion_lon": 0.0}, {"lat": 38.903778, "is_disabled": 0, "type": "electric_scooter", "lon": -77.04257016666666, "bike_id": "d5129873deb00d3e5b9e85cab3bd5059", "fusion_lat": 0.0, "name": "d5129873deb00d3e5b9e85cab3bd5059", "is_reserved": 0, "rental_uris": {"android": "https://dc.lft.to/lastmile_qr_scan", "ios": "https://dc.lft.to/lastmile_qr_scan"}, "fusion_lon": 0.0}, {"lat": 38.924073166666666, "is_disabled": 0, "type": "electric_scooter", "lon": -77.0274495, "bike_id": "a82180ff99e974ac55b44ab7bd97154c", "fusion_lat": 0.0, "name": "a82180ff99e974ac55b44ab7bd97154c", "is_reserved": 0, "rental_uris": {"android": "https://dc.lft.to/lastmile_qr_scan", "ios": "https://dc.lft.to/lastmile_qr_scan"}, "fusion_lon": 0.0}, {"lat": 38.89401066666667, "is_disabled": 0, "type": "electric_scooter", "lon": -76.986672, "bike_id": "22263e0b3b39e65f6680c8e70056b283", "fusion_lat": 0.0, "name": "22263e0b3b39e65f6680c8e70056b283", "is_reserved": 0, "rental_uris": {"android": "https://dc.lft.to/lastmile_qr_scan", "ios": "https://dc.lft.to/lastmile_qr_scan"}, "fusion_lon": 0.0}, {"lat": 38.93444433333333, "is_disabled": 0, "type": "electric_scooter", "lon": -77.03094066666667, "bike_id": "9e85783f072a7ea227db728429cdba48", "fusion_lat": 0.0, "name": "9e85783f072a7ea227db728429cdba48", "is_reserved": 0, "rental_uris": {"android": "https://dc.lft.to/lastmile_qr_scan", "ios": "https://dc.lft.to/lastmile_qr_scan"}, "fusion_lon": 0.0}, {"lat": 38.8652415, "is_disabled": 0, "type": "electric_scooter", "lon": -76.99024883333334, "bike_id": "6ccc86a560a45c2b0547e2115a300180", "fusion_lat": 0.0, "name": "6ccc86a560a45c2b0547e2115a300180", "is_reserved": 0, "rental_uris": {"android": "https://dc.lft.to/lastmile_qr_scan", "ios": "https://dc.lft.to/lastmile_qr_scan"}, "fusion_lon": 0.0}, {"lat": 38.906096, "is_disabled": 0, "type": "electric_scooter", "lon": -76.989862, "bike_id": "ca5b4b1731ee9f265bd2391007c0fe0e", "fusion_lat": 0.0, "name": "ca5b4b1731ee9f265bd2391007c0fe0e", "is_reserved": 0, "rental_uris": {"android": "https://dc.lft.to/lastmile_qr_scan", "ios": "https://dc.lft.to/lastmile_qr_scan"}, "fusion_lon": 0.0}, {"lat": 38.90918, "is_disabled": 0, "type": "electric_scooter", "lon": -77.04416933333333, "bike_id": "0f645d9f97d36c6dfbcbde019a7fda62", "fusion_lat": 0.0, "name": "0f645d9f97d36c6dfbcbde019a7fda62", "is_reserved": 0, "rental_uris": {"android": "https://dc.lft.to/lastmile_qr_scan", "ios": "https://dc.lft.to/lastmile_qr_scan"}, "fusion_lon": 0.0}, {"lat": 38.87714616666667, "is_disabled": 0, "type": "electric_scooter", "lon": -77.01765983333334, "bike_id": "79075732193e2ded7a3b2474c573d7f8", "fusion_lat": 0.0, "name": "79075732193e2ded7a3b2474c573d7f8", "is_reserved": 0, "rental_uris": {"android": "https://dc.lft.to/lastmile_qr_scan", "ios": "https://dc.lft.to/lastmile_qr_scan"}, "fusion_lon": 0.0}, {"lat": 38.91755766666667, "is_disabled": 0, "type": "electric_scooter", "lon": -77.02298833333333, "bike_id": "ae330c262e29f116a8ef4b5bfed563f9", "fusion_lat": 0.0, "name": "ae330c262e29f116a8ef4b5bfed563f9", "is_reserved": 0, "rental_uris": {"android": "https://dc.lft.to/lastmile_qr_scan", "ios": "https://dc.lft.to/lastmile_qr_scan"}, "fusion_lon": 0.0}, {"lat": 38.86997383333333, "is_disabled": 0, "type": "electric_bike", "lon": -77.06568683333333, "bike_id": "6962ce0dfebe0ccd82bbbce5d5f23b78", "fusion_lat": 0.0, "name": "6962ce0dfebe0ccd82bbbce5d5f23b78", "is_reserved": 0, "rental_uris": {"android": "https://dc.lft.to/lastmile_qr_scan", "ios": "https://dc.lft.to/lastmile_qr_scan"}, "fusion_lon": 0.0}, {"lat": 38.9053045, "is_disabled": 0, "type": "electric_scooter", "lon": -77.062381, "bike_id": "cca89ea4ba0242c58e578c9a3d5259b9", "fusion_lat": 0.0, "name": "cca89ea4ba0242c58e578c9a3d5259b9", "is_reserved": 0, "rental_uris": {"android": "https://dc.lft.to/lastmile_qr_scan", "ios": "https://dc.lft.to/lastmile_qr_scan"}, "fusion_lon": 0.0}, {"lat": 38.903352166666664, "is_disabled": 0, "type": "electric_scooter", "lon": -76.97595933333334, "bike_id": "c2bae7f55d4a3a1618f34c32566fbc95", "fusion_lat": 0.0, "name": "c2bae7f55d4a3a1618f34c32566fbc95", "is_reserved": 0, "rental_uris": {"android": "https://dc.lft.to/lastmile_qr_scan", "ios": "https://dc.lft.to/lastmile_qr_scan"}, "fusion_lon": 0.0}, {"lat": 38.90759216666667, "is_disabled": 0, "type": "electric_scooter", "lon": -77.07027833333333, "bike_id": "e57db3dad51ac049c10ed3d38a860e9d", "fusion_lat": 0.0, "name": "e57db3dad51ac049c10ed3d38a860e9d", "is_reserved": 0, "rental_uris": {"android": "https://dc.lft.to/lastmile_qr_scan", "ios": "https://dc.lft.to/lastmile_qr_scan"}, "fusion_lon": 0.0}, {"lat": 38.907329, "is_disabled": 0, "type": "electric_scooter", "lon": -76.93549983333334, "bike_id": "cf75d2dced2c6639458c7f02c6284549", "fusion_lat": 0.0, "name": "cf75d2dced2c6639458c7f02c6284549", "is_reserved": 0, "rental_uris": {"android": "https://dc.lft.to/lastmile_qr_scan", "ios": "https://dc.lft.to/lastmile_qr_scan"}, "fusion_lon": 0.0}, {"lat": 38.8665455, "is_disabled": 0, "type": "electric_scooter", "lon": -76.98885583333333, "bike_id": "9d428ed98ec3259c258fde0109c01c4a", "fusion_lat": 0.0, "name": "9d428ed98ec3259c258fde0109c01c4a", "is_reserved": 0, "rental_uris": {"android": "https://dc.lft.to/lastmile_qr_scan", "ios": "https://dc.lft.to/lastmile_qr_scan"}, "fusion_lon": 0.0}, {"lat": 38.917854, "is_disabled": 0, "type": "electric_scooter", "lon": -77.043373, "bike_id": "17e4de92b16771b8a1aa09bd078bea75", "fusion_lat": 0.0, "name": "17e4de92b16771b8a1aa09bd078bea75", "is_reserved": 0, "rental_uris": {"android": "https://dc.lft.to/lastmile_qr_scan", "ios": "https://dc.lft.to/lastmile_qr_scan"}, "fusion_lon": 0.0}, {"lat": 38.806814, "is_disabled": 0, "type": "electric_bike", "lon": -77.08122116666667, "bike_id": "2f11c6ca5a4f7911d7c573c734c1f52e", "fusion_lat": 0.0, "name": "2f11c6ca5a4f7911d7c573c734c1f52e", "is_reserved": 0, "rental_uris": {"android": "https://dc.lft.to/lastmile_qr_scan", "ios": "https://dc.lft.to/lastmile_qr_scan"}, "fusion_lon": 0.0}, {"lat": 38.92343866666667, "is_disabled": 0, "type": "electric_scooter", "lon": -77.03516683333334, "bike_id": "588566394d1604d10437243a0e9c2e14", "fusion_lat": 0.0, "name": "588566394d1604d10437243a0e9c2e14", "is_reserved": 0, "rental_uris": {"android": "https://dc.lft.to/lastmile_qr_scan", "ios": "https://dc.lft.to/lastmile_qr_scan"}, "fusion_lon": 0.0}, {"lat": 38.925813833333336, "is_disabled": 0, "type": "electric_scooter", "lon": -77.057653, "bike_id": "f19667ce56398f3a4f96fa21f56417b0", "fusion_lat": 0.0, "name": "f19667ce56398f3a4f96fa21f56417b0", "is_reserved": 0, "rental_uris": {"android": "https://dc.lft.to/lastmile_qr_scan", "ios": "https://dc.lft.to/lastmile_qr_scan"}, "fusion_lon": 0.0}, {"lat": 38.909643833333334, "is_disabled": 0, "type": "electric_scooter", "lon": -77.02379283333333, "bike_id": "bd0aa1f4abc997d05bf7bf37ba68f06e", "fusion_lat": 0.0, "name": "bd0aa1f4abc997d05bf7bf37ba68f06e", "is_reserved": 0, "rental_uris": {"android": "https://dc.lft.to/lastmile_qr_scan", "ios": "https://dc.lft.to/lastmile_qr_scan"}, "fusion_lon": 0.0}, {"lat": 38.91842033333333, "is_disabled": 0, "type": "electric_scooter", "lon": -77.02292316666667, "bike_id": "7f1cead058a1dcabda59c1af6c3f3dfb", "fusion_lat": 0.0, "name": "7f1cead058a1dcabda59c1af6c3f3dfb", "is_reserved": 0, "rental_uris": {"android": "https://dc.lft.to/lastmile_qr_scan", "ios": "https://dc.lft.to/lastmile_qr_scan"}, "fusion_lon": 0.0}, {"lat": 38.9221535, "is_disabled": 0, "type": "electric_scooter", "lon": -77.03294716666667, "bike_id": "3daed8aceba657d6b0f1ae7ea3c33e55", "fusion_lat": 0.0, "name": "3daed8aceba657d6b0f1ae7ea3c33e55", "is_reserved": 0, "rental_uris": {"android": "https://dc.lft.to/lastmile_qr_scan", "ios": "https://dc.lft.to/lastmile_qr_scan"}, "fusion_lon": 0.0}, {"lat": 38.905, "is_disabled": 0, "type": "electric_scooter", "lon": -77.02951366666667, "bike_id": "31675688930bb77bd390595976fe3f9d", "fusion_lat": 0.0, "name": "31675688930bb77bd390595976fe3f9d", "is_reserved": 0, "rental_uris": {"android": "https://dc.lft.to/lastmile_qr_scan", "ios": "https://dc.lft.to/lastmile_qr_scan"}, "fusion_lon": 0.0}, {"lat": 38.9022585, "is_disabled": 0, "type": "electric_scooter", "lon": -77.04864516666666, "bike_id": "e226a58f86bb3b2e7fde25ef9c4792fe", "fusion_lat": 0.0, "name": "e226a58f86bb3b2e7fde25ef9c4792fe", "is_reserved": 0, "rental_uris": {"android": "https://dc.lft.to/lastmile_qr_scan", "ios": "https://dc.lft.to/lastmile_qr_scan"}, "fusion_lon": 0.0}, {"lat": 38.90138483333333, "is_disabled": 0, "type": "electric_scooter", "lon": -77.00074983333333, "bike_id": "57e045188d43036349ea3dcc163bd997", "fusion_lat": 0.0, "name": "57e045188d43036349ea3dcc163bd997", "is_reserved": 0, "rental_uris": {"android": "https://dc.lft.to/lastmile_qr_scan", "ios": "https://dc.lft.to/lastmile_qr_scan"}, "fusion_lon": 0.0}, {"lat": 38.921078666666666, "is_disabled": 0, "type": "electric_bike", "lon": -77.039245, "bike_id": "6fa740d26c4cfc77747d860962addfd3", "fusion_lat": 0.0, "name": "6fa740d26c4cfc77747d860962addfd3", "is_reserved": 0, "rental_uris": {"android": "https://dc.lft.to/lastmile_qr_scan", "ios": "https://dc.lft.to/lastmile_qr_scan"}, "fusion_lon": 0.0}, {"lat": 38.93404666666667, "is_disabled": 0, "type": "electric_scooter", "lon": -77.041286, "bike_id": "23d9caecdb85af4c8607d25e25ffdae6", "fusion_lat": 0.0, "name": "23d9caecdb85af4c8607d25e25ffdae6", "is_reserved": 0, "rental_uris": {"android": "https://dc.lft.to/lastmile_qr_scan", "ios": "https://dc.lft.to/lastmile_qr_scan"}, "fusion_lon": 0.0}, {"lat": 38.9610405, "is_disabled": 0, "type": "electric_scooter", "lon": -77.082848, "bike_id": "828a3aabeed564ea9b4b257220ba1957", "fusion_lat": 0.0, "name": "828a3aabeed564ea9b4b257220ba1957", "is_reserved": 0, "rental_uris": {"android": "https://dc.lft.to/lastmile_qr_scan", "ios": "https://dc.lft.to/lastmile_qr_scan"}, "fusion_lon": 0.0}, {"lat": 38.85512716666667, "is_disabled": 0, "type": "electric_bike", "lon": -76.98399133333334, "bike_id": "5f975c19d2bf9f0c9c39d5c7b5f98ea5", "fusion_lat": 0.0, "name": "5f975c19d2bf9f0c9c39d5c7b5f98ea5", "is_reserved": 0, "rental_uris": {"android": "https://dc.lft.to/lastmile_qr_scan", "ios": "https://dc.lft.to/lastmile_qr_scan"}, "fusion_lon": 0.0}, {"lat": 38.903306666666666, "is_disabled": 0, "type": "electric_scooter", "lon": -77.0630715, "bike_id": "56cb89e85f1269c0f4cc0f8cbdf9bbe8", "fusion_lat": 0.0, "name": "56cb89e85f1269c0f4cc0f8cbdf9bbe8", "is_reserved": 0, "rental_uris": {"android": "https://dc.lft.to/lastmile_qr_scan", "ios": "https://dc.lft.to/lastmile_qr_scan"}, "fusion_lon": 0.0}, {"lat": 38.92798, "is_disabled": 0, "type": "electric_scooter", "lon": -77.03203383333333, "bike_id": "313db04e56fe3d254caffd636a7474cd", "fusion_lat": 0.0, "name": "313db04e56fe3d254caffd636a7474cd", "is_reserved": 0, "rental_uris": {"android": "https://dc.lft.to/lastmile_qr_scan", "ios": "https://dc.lft.to/lastmile_qr_scan"}, "fusion_lon": 0.0}, {"lat": 38.911297166666664, "is_disabled": 0, "type": "electric_scooter", "lon": -77.03839333333333, "bike_id": "0e01c5b23a597949097526f18d1614e7", "fusion_lat": 0.0, "name": "0e01c5b23a597949097526f18d1614e7", "is_reserved": 0, "rental_uris": {"android": "https://dc.lft.to/lastmile_qr_scan", "ios": "https://dc.lft.to/lastmile_qr_scan"}, "fusion_lon": 0.0}, {"lat": 38.9109435, "is_disabled": 0, "type": "electric_scooter", "lon": -77.048118, "bike_id": "1f814c384a37e2d7e99750ccd524919c", "fusion_lat": 0.0, "name": "1f814c384a37e2d7e99750ccd524919c", "is_reserved": 0, "rental_uris": {"android": "https://dc.lft.to/lastmile_qr_scan", "ios": "https://dc.lft.to/lastmile_qr_scan"}, "fusion_lon": 0.0}, {"lat": 38.813498833333334, "is_disabled": 0, "type": "electric_bike", "lon": -77.04917816666666, "bike_id": "61ca288ed583b4440ddb2c8e0a9eaab0", "fusion_lat": 0.0, "name": "61ca288ed583b4440ddb2c8e0a9eaab0", "is_reserved": 0, "rental_uris": {"android": "https://dc.lft.to/lastmile_qr_scan", "ios": "https://dc.lft.to/lastmile_qr_scan"}, "fusion_lon": 0.0}, {"lat": 38.91807283333333, "is_disabled": 0, "type": "electric_scooter", "lon": -77.03673716666667, "bike_id": "77ece363b5726f1cb8efb5ef82a6cdbe", "fusion_lat": 0.0, "name": "77ece363b5726f1cb8efb5ef82a6cdbe", "is_reserved": 0, "rental_uris": {"android": "https://dc.lft.to/lastmile_qr_scan", "ios": "https://dc.lft.to/lastmile_qr_scan"}, "fusion_lon": 0.0}, {"lat": 38.93422133333333, "is_disabled": 0, "type": "electric_scooter", "lon": -77.05552433333334, "bike_id": "4e3d6e3f3b3f02aa8a4fcc1d46bb91a1", "fusion_lat": 0.0, "name": "4e3d6e3f3b3f02aa8a4fcc1d46bb91a1", "is_reserved": 0, "rental_uris": {"android": "https://dc.lft.to/lastmile_qr_scan", "ios": "https://dc.lft.to/lastmile_qr_scan"}, "fusion_lon": 0.0}, {"lat": 38.911099166666666, "is_disabled": 0, "type": "electric_scooter", "lon": -77.0201765, "bike_id": "afd2907d125d8955d8c7e5486cad60b2", "fusion_lat": 0.0, "name": "afd2907d125d8955d8c7e5486cad60b2", "is_reserved": 0, "rental_uris": {"android": "https://dc.lft.to/lastmile_qr_scan", "ios": "https://dc.lft.to/lastmile_qr_scan"}, "fusion_lon": 0.0}, {"lat": 38.9148695, "is_disabled": 0, "type": "electric_scooter", "lon": -77.01375916666667, "bike_id": "90fde8ffe932ae99155a91d1cff6ccf7", "fusion_lat": 0.0, "name": "90fde8ffe932ae99155a91d1cff6ccf7", "is_reserved": 0, "rental_uris": {"android": "https://dc.lft.to/lastmile_qr_scan", "ios": "https://dc.lft.to/lastmile_qr_scan"}, "fusion_lon": 0.0}, {"lat": 38.908607, "is_disabled": 0, "type": "electric_scooter", "lon": -77.04263466666667, "bike_id": "505269f444324c84635767b0a50dd8b9", "fusion_lat": 0.0, "name": "505269f444324c84635767b0a50dd8b9", "is_reserved": 0, "rental_uris": {"android": "https://dc.lft.to/lastmile_qr_scan", "ios": "https://dc.lft.to/lastmile_qr_scan"}, "fusion_lon": 0.0}, {"lat": 38.92479816666667, "is_disabled": 0, "type": "electric_scooter", "lon": -77.03501383333334, "bike_id": "319660b62e4585c5b0b786c83d46ac8b", "fusion_lat": 0.0, "name": "319660b62e4585c5b0b786c83d46ac8b", "is_reserved": 0, "rental_uris": {"android": "https://dc.lft.to/lastmile_qr_scan", "ios": "https://dc.lft.to/lastmile_qr_scan"}, "fusion_lon": 0.0}, {"lat": 38.898560333333336, "is_disabled": 0, "type": "electric_scooter", "lon": -76.97664833333333, "bike_id": "4ef97f3bc8533e549567b661125ebd6e", "fusion_lat": 0.0, "name": "4ef97f3bc8533e549567b661125ebd6e", "is_reserved": 0, "rental_uris": {"android": "https://dc.lft.to/lastmile_qr_scan", "ios": "https://dc.lft.to/lastmile_qr_scan"}, "fusion_lon": 0.0}, {"lat": 38.900263833333334, "is_disabled": 0, "type": "electric_scooter", "lon": -77.0020975, "bike_id": "f115d419f75aa6ab6f035ed06ef6c4fe", "fusion_lat": 0.0, "name": "f115d419f75aa6ab6f035ed06ef6c4fe", "is_reserved": 0, "rental_uris": {"android": "https://dc.lft.to/lastmile_qr_scan", "ios": "https://dc.lft.to/lastmile_qr_scan"}, "fusion_lon": 0.0}, {"lat": 38.91322566666667, "is_disabled": 0, "type": "electric_scooter", "lon": -76.98642933333333, "bike_id": "8cad20d1d0690d1974b0dcad7004baef", "fusion_lat": 0.0, "name": "8cad20d1d0690d1974b0dcad7004baef", "is_reserved": 0, "rental_uris": {"android": "https://dc.lft.to/lastmile_qr_scan", "ios": "https://dc.lft.to/lastmile_qr_scan"}, "fusion_lon": 0.0}, {"lat": 39.030493666666665, "is_disabled": 0, "type": "electric_bike", "lon": -77.09487783333333, "bike_id": "f27d1956c8b509f20ad1e69cf7089193", "fusion_lat": 0.0, "name": "f27d1956c8b509f20ad1e69cf7089193", "is_reserved": 0, "rental_uris": {"android": "https://dc.lft.to/lastmile_qr_scan", "ios": "https://dc.lft.to/lastmile_qr_scan"}, "fusion_lon": 0.0}, {"lat": 38.92247116666667, "is_disabled": 0, "type": "electric_scooter", "lon": -77.03073183333333, "bike_id": "aa3ab794541771ddc6e9ca65b2c71ed2", "fusion_lat": 0.0, "name": "aa3ab794541771ddc6e9ca65b2c71ed2", "is_reserved": 0, "rental_uris": {"android": "https://dc.lft.to/lastmile_qr_scan", "ios": "https://dc.lft.to/lastmile_qr_scan"}, "fusion_lon": 0.0}, {"lat": 38.94970683333333, "is_disabled": 0, "type": "electric_scooter", "lon": -77.0656005, "bike_id": "ea6fbc3a3a7a9b5367bfb01fd4839f4a", "fusion_lat": 0.0, "name": "ea6fbc3a3a7a9b5367bfb01fd4839f4a", "is_reserved": 0, "rental_uris": {"android": "https://dc.lft.to/lastmile_qr_scan", "ios": "https://dc.lft.to/lastmile_qr_scan"}, "fusion_lon": 0.0}, {"lat": 38.89207616666667, "is_disabled": 0, "type": "electric_scooter", "lon": -76.98564716666667, "bike_id": "82035f3b3f3e339ea810405f1d4abd2c", "fusion_lat": 0.0, "name": "82035f3b3f3e339ea810405f1d4abd2c", "is_reserved": 0, "rental_uris": {"android": "https://dc.lft.to/lastmile_qr_scan", "ios": "https://dc.lft.to/lastmile_qr_scan"}, "fusion_lon": 0.0}, {"lat": 38.91713166666667, "is_disabled": 0, "type": "electric_scooter", "lon": -77.027297, "bike_id": "b83b5fbd9dea7f024896a529c28e70fe", "fusion_lat": 0.0, "name": "b83b5fbd9dea7f024896a529c28e70fe", "is_reserved": 0, "rental_uris": {"android": "https://dc.lft.to/lastmile_qr_scan", "ios": "https://dc.lft.to/lastmile_qr_scan"}, "fusion_lon": 0.0}, {"lat": 38.998177, "is_disabled": 0, "type": "electric_bike", "lon": -76.883805, "bike_id": "2c433190c0f905bef0d7107e4b65dbea", "fusion_lat": 0.0, "name": "2c433190c0f905bef0d7107e4b65dbea", "is_reserved": 0, "rental_uris": {"android": "https://dc.lft.to/lastmile_qr_scan", "ios": "https://dc.lft.to/lastmile_qr_scan"}, "fusion_lon": 0.0}, {"lat": 38.93861, "is_disabled": 0, "type": "electric_scooter", "lon": -77.03096716666667, "bike_id": "a5c3dd7fa55a1d3fe14f77971082534e", "fusion_lat": 0.0, "name": "a5c3dd7fa55a1d3fe14f77971082534e", "is_reserved": 0, "rental_uris": {"android": "https://dc.lft.to/lastmile_qr_scan", "ios": "https://dc.lft.to/lastmile_qr_scan"}, "fusion_lon": 0.0}, {"lat": 38.89986583333334, "is_disabled": 0, "type": "electric_scooter", "lon": -77.02077916666667, "bike_id": "564e82f97a57800fde4cf9e6b488dd3b", "fusion_lat": 0.0, "name": "564e82f97a57800fde4cf9e6b488dd3b", "is_reserved": 0, "rental_uris": {"android": "https://dc.lft.to/lastmile_qr_scan", "ios": "https://dc.lft.to/lastmile_qr_scan"}, "fusion_lon": 0.0}, {"lat": 38.876493833333335, "is_disabled": 0, "type": "electric_scooter", "lon": -77.00421333333334, "bike_id": "e66145ab416cecf77857a51fa2d77649", "fusion_lat": 0.0, "name": "e66145ab416cecf77857a51fa2d77649", "is_reserved": 0, "rental_uris": {"android": "https://dc.lft.to/lastmile_qr_scan", "ios": "https://dc.lft.to/lastmile_qr_scan"}, "fusion_lon": 0.0}, {"lat": 38.917465166666666, "is_disabled": 0, "type": "electric_scooter", "lon": -77.03187966666667, "bike_id": "cda261042adc700dc82198e4768269e4", "fusion_lat": 0.0, "name": "cda261042adc700dc82198e4768269e4", "is_reserved": 0, "rental_uris": {"android": "https://dc.lft.to/lastmile_qr_scan", "ios": "https://dc.lft.to/lastmile_qr_scan"}, "fusion_lon": 0.0}, {"lat": 39.0242975, "is_disabled": 0, "type": "electric_bike", "lon": -77.13101716666667, "bike_id": "b042dc8be12ac9ee866e9ee1e618af52", "fusion_lat": 0.0, "name": "b042dc8be12ac9ee866e9ee1e618af52", "is_reserved": 0, "rental_uris": {"android": "https://dc.lft.to/lastmile_qr_scan", "ios": "https://dc.lft.to/lastmile_qr_scan"}, "fusion_lon": 0.0}, {"lat": 38.915545333333334, "is_disabled": 0, "type": "electric_scooter", "lon": -77.04178033333334, "bike_id": "16697b18d3c732547628f4b5cf0a9bc8", "fusion_lat": 0.0, "name": "16697b18d3c732547628f4b5cf0a9bc8", "is_reserved": 0, "rental_uris": {"android": "https://dc.lft.to/lastmile_qr_scan", "ios": "https://dc.lft.to/lastmile_qr_scan"}, "fusion_lon": 0.0}, {"lat": 38.9072285, "is_disabled": 0, "type": "electric_scooter", "lon": -77.00314266666666, "bike_id": "6b955e94246f2174adb9f20893191c83", "fusion_lat": 0.0, "name": "6b955e94246f2174adb9f20893191c83", "is_reserved": 0, "rental_uris": {"android": "https://dc.lft.to/lastmile_qr_scan", "ios": "https://dc.lft.to/lastmile_qr_scan"}, "fusion_lon": 0.0}, {"lat": 38.9171505, "is_disabled": 0, "type": "electric_scooter", "lon": -77.0239065, "bike_id": "eb5db569c2e7d1e7fa3a5acf82cd071d", "fusion_lat": 0.0, "name": "eb5db569c2e7d1e7fa3a5acf82cd071d", "is_reserved": 0, "rental_uris": {"android": "https://dc.lft.to/lastmile_qr_scan", "ios": "https://dc.lft.to/lastmile_qr_scan"}, "fusion_lon": 0.0}, {"lat": 38.933291833333335, "is_disabled": 0, "type": "electric_bike", "lon": -77.03988116666666, "bike_id": "e07dca5150e62f5a9ec384401e0fda56", "fusion_lat": 0.0, "name": "e07dca5150e62f5a9ec384401e0fda56", "is_reserved": 0, "rental_uris": {"android": "https://dc.lft.to/lastmile_qr_scan", "ios": "https://dc.lft.to/lastmile_qr_scan"}, "fusion_lon": 0.0}, {"lat": 38.86615166666667, "is_disabled": 0, "type": "electric_scooter", "lon": -76.98665933333334, "bike_id": "a6985ef5604d48726d69b53f9b1cac7c", "fusion_lat": 0.0, "name": "a6985ef5604d48726d69b53f9b1cac7c", "is_reserved": 0, "rental_uris": {"android": "https://dc.lft.to/lastmile_qr_scan", "ios": "https://dc.lft.to/lastmile_qr_scan"}, "fusion_lon": 0.0}, {"lat": 38.9360745, "is_disabled": 0, "type": "electric_scooter", "lon": -77.05858266666667, "bike_id": "dbb01d111a4e1786e68ca1e979987dae", "fusion_lat": 0.0, "name": "dbb01d111a4e1786e68ca1e979987dae", "is_reserved": 0, "rental_uris": {"android": "https://dc.lft.to/lastmile_qr_scan", "ios": "https://dc.lft.to/lastmile_qr_scan"}, "fusion_lon": 0.0}, {"lat": 38.923557, "is_disabled": 0, "type": "electric_scooter", "lon": -77.05019516666667, "bike_id": "279ff159837030744f25a2176a76328e", "fusion_lat": 0.0, "name": "279ff159837030744f25a2176a76328e", "is_reserved": 0, "rental_uris": {"android": "https://dc.lft.to/lastmile_qr_scan", "ios": "https://dc.lft.to/lastmile_qr_scan"}, "fusion_lon": 0.0}, {"lat": 38.95078983333333, "is_disabled": 0, "type": "electric_bike", "lon": -77.0119815, "bike_id": "ad0b9ad3616085df6f0a67a0bd4e8f15", "fusion_lat": 0.0, "name": "ad0b9ad3616085df6f0a67a0bd4e8f15", "is_reserved": 0, "rental_uris": {"android": "https://dc.lft.to/lastmile_qr_scan", "ios": "https://dc.lft.to/lastmile_qr_scan"}, "fusion_lon": 0.0}, {"lat": 38.88272516666667, "is_disabled": 0, "type": "electric_bike", "lon": -76.93241566666667, "bike_id": "356014748dd426328a8abc18924bb55e", "fusion_lat": 0.0, "name": "356014748dd426328a8abc18924bb55e", "is_reserved": 0, "rental_uris": {"android": "https://dc.lft.to/lastmile_qr_scan", "ios": "https://dc.lft.to/lastmile_qr_scan"}, "fusion_lon": 0.0}, {"lat": 38.920721, "is_disabled": 0, "type": "electric_scooter", "lon": -77.02396216666666, "bike_id": "7a9c6d2993fa39cab0859132fd223c7e", "fusion_lat": 0.0, "name": "7a9c6d2993fa39cab0859132fd223c7e", "is_reserved": 0, "rental_uris": {"android": "https://dc.lft.to/lastmile_qr_scan", "ios": "https://dc.lft.to/lastmile_qr_scan"}, "fusion_lon": 0.0}, {"lat": 38.91814816666667, "is_disabled": 0, "type": "electric_scooter", "lon": -77.0366225, "bike_id": "b380d879f82062da7d73d9bd3af06405", "fusion_lat": 0.0, "name": "b380d879f82062da7d73d9bd3af06405", "is_reserved": 0, "rental_uris": {"android": "https://dc.lft.to/lastmile_qr_scan", "ios": "https://dc.lft.to/lastmile_qr_scan"}, "fusion_lon": 0.0}, {"lat": 38.9027705, "is_disabled": 0, "type": "electric_scooter", "lon": -77.04041683333334, "bike_id": "635fb9b38b94b0663861599af28a228f", "fusion_lat": 0.0, "name": "635fb9b38b94b0663861599af28a228f", "is_reserved": 0, "rental_uris": {"android": "https://dc.lft.to/lastmile_qr_scan", "ios": "https://dc.lft.to/lastmile_qr_scan"}, "fusion_lon": 0.0}, {"lat": 38.90239, "is_disabled": 0, "type": "electric_scooter", "lon": -77.0626105, "bike_id": "527bf1b5001188bd5a10f94e4dc6e1f3", "fusion_lat": 0.0, "name": "527bf1b5001188bd5a10f94e4dc6e1f3", "is_reserved": 0, "rental_uris": {"android": "https://dc.lft.to/lastmile_qr_scan", "ios": "https://dc.lft.to/lastmile_qr_scan"}, "fusion_lon": 0.0}, {"lat": 38.935766666666666, "is_disabled": 0, "type": "electric_scooter", "lon": -77.03757966666667, "bike_id": "23749e1b90711506d4ef1f54d4a80710", "fusion_lat": 0.0, "name": "23749e1b90711506d4ef1f54d4a80710", "is_reserved": 0, "rental_uris": {"android": "https://dc.lft.to/lastmile_qr_scan", "ios": "https://dc.lft.to/lastmile_qr_scan"}, "fusion_lon": 0.0}, {"lat": 38.9111525, "is_disabled": 0, "type": "electric_scooter", "lon": -77.03869333333333, "bike_id": "7238a6d0aaf7c93b224852364f126e56", "fusion_lat": 0.0, "name": "7238a6d0aaf7c93b224852364f126e56", "is_reserved": 0, "rental_uris": {"android": "https://dc.lft.to/lastmile_qr_scan", "ios": "https://dc.lft.to/lastmile_qr_scan"}, "fusion_lon": 0.0}, {"lat": 38.894211166666665, "is_disabled": 0, "type": "electric_scooter", "lon": -77.020893, "bike_id": "9484cee437233cb7afd611b5d00e7abc", "fusion_lat": 0.0, "name": "9484cee437233cb7afd611b5d00e7abc", "is_reserved": 0, "rental_uris": {"android": "https://dc.lft.to/lastmile_qr_scan", "ios": "https://dc.lft.to/lastmile_qr_scan"}, "fusion_lon": 0.0}, {"lat": 38.90625516666667, "is_disabled": 0, "type": "electric_scooter", "lon": -77.0218425, "bike_id": "a47e46faba8e2898cd147717aaa689f7", "fusion_lat": 0.0, "name": "a47e46faba8e2898cd147717aaa689f7", "is_reserved": 0, "rental_uris": {"android": "https://dc.lft.to/lastmile_qr_scan", "ios": "https://dc.lft.to/lastmile_qr_scan"}, "fusion_lon": 0.0}, {"lat": 38.863655666666666, "is_disabled": 0, "type": "electric_scooter", "lon": -76.990382, "bike_id": "c7058e5c0ccf5fd00ccffc4ccc8e07f7", "fusion_lat": 0.0, "name": "c7058e5c0ccf5fd00ccffc4ccc8e07f7", "is_reserved": 0, "rental_uris": {"android": "https://dc.lft.to/lastmile_qr_scan", "ios": "https://dc.lft.to/lastmile_qr_scan"}, "fusion_lon": 0.0}, {"lat": 38.91318016666666, "is_disabled": 0, "type": "electric_scooter", "lon": -77.041577, "bike_id": "df31e10e7cacf5825b20940029422907", "fusion_lat": 0.0, "name": "df31e10e7cacf5825b20940029422907", "is_reserved": 0, "rental_uris": {"android": "https://dc.lft.to/lastmile_qr_scan", "ios": "https://dc.lft.to/lastmile_qr_scan"}, "fusion_lon": 0.0}, {"lat": 38.927485833333336, "is_disabled": 0, "type": "electric_scooter", "lon": -76.997239, "bike_id": "db3c92cc9db0122df66a36a409666b53", "fusion_lat": 0.0, "name": "db3c92cc9db0122df66a36a409666b53", "is_reserved": 0, "rental_uris": {"android": "https://dc.lft.to/lastmile_qr_scan", "ios": "https://dc.lft.to/lastmile_qr_scan"}, "fusion_lon": 0.0}, {"lat": 38.905006666666665, "is_disabled": 0, "type": "electric_scooter", "lon": -77.06286416666667, "bike_id": "c566ba93e6c5ec480f78520bc6c3b32d", "fusion_lat": 0.0, "name": "c566ba93e6c5ec480f78520bc6c3b32d", "is_reserved": 0, "rental_uris": {"android": "https://dc.lft.to/lastmile_qr_scan", "ios": "https://dc.lft.to/lastmile_qr_scan"}, "fusion_lon": 0.0}, {"lat": 38.943676833333335, "is_disabled": 0, "type": "electric_bike", "lon": -76.967834, "bike_id": "e98a3aa725d8a10bf3f3b8c40c256be5", "fusion_lat": 0.0, "name": "e98a3aa725d8a10bf3f3b8c40c256be5", "is_reserved": 0, "rental_uris": {"android": "https://dc.lft.to/lastmile_qr_scan", "ios": "https://dc.lft.to/lastmile_qr_scan"}, "fusion_lon": 0.0}, {"lat": 38.909654333333336, "is_disabled": 0, "type": "electric_scooter", "lon": -77.03936533333334, "bike_id": "09a4cdd5829cee7fdcecb892508c482e", "fusion_lat": 0.0, "name": "09a4cdd5829cee7fdcecb892508c482e", "is_reserved": 0, "rental_uris": {"android": "https://dc.lft.to/lastmile_qr_scan", "ios": "https://dc.lft.to/lastmile_qr_scan"}, "fusion_lon": 0.0}, {"lat": 38.90364666666667, "is_disabled": 0, "type": "electric_scooter", "lon": -77.0291185, "bike_id": "aeaccb1c8c6c404614e34a7939d9a604", "fusion_lat": 0.0, "name": "aeaccb1c8c6c404614e34a7939d9a604", "is_reserved": 0, "rental_uris": {"android": "https://dc.lft.to/lastmile_qr_scan", "ios": "https://dc.lft.to/lastmile_qr_scan"}, "fusion_lon": 0.0}, {"lat": 38.875700333333334, "is_disabled": 0, "type": "electric_scooter", "lon": -77.02082466666667, "bike_id": "65a5a22766f42b0535894ef8c64cbfa1", "fusion_lat": 0.0, "name": "65a5a22766f42b0535894ef8c64cbfa1", "is_reserved": 0, "rental_uris": {"android": "https://dc.lft.to/lastmile_qr_scan", "ios": "https://dc.lft.to/lastmile_qr_scan"}, "fusion_lon": 0.0}, {"lat": 38.919183833333335, "is_disabled": 0, "type": "electric_scooter", "lon": -77.031883, "bike_id": "59ef292e86cdf7453e541a03e6e5f9c2", "fusion_lat": 0.0, "name": "59ef292e86cdf7453e541a03e6e5f9c2", "is_reserved": 0, "rental_uris": {"android": "https://dc.lft.to/lastmile_qr_scan", "ios": "https://dc.lft.to/lastmile_qr_scan"}, "fusion_lon": 0.0}, {"lat": 38.908538166666666, "is_disabled": 0, "type": "electric_scooter", "lon": -76.99962566666666, "bike_id": "19725e2dec54448f701bb3af7c4d4ab6", "fusion_lat": 0.0, "name": "19725e2dec54448f701bb3af7c4d4ab6", "is_reserved": 0, "rental_uris": {"android": "https://dc.lft.to/lastmile_qr_scan", "ios": "https://dc.lft.to/lastmile_qr_scan"}, "fusion_lon": 0.0}, {"lat": 38.90379866666667, "is_disabled": 0, "type": "electric_scooter", "lon": -77.04082683333333, "bike_id": "23cf0acd29052fc0fa8dfcab06346696", "fusion_lat": 0.0, "name": "23cf0acd29052fc0fa8dfcab06346696", "is_reserved": 0, "rental_uris": {"android": "https://dc.lft.to/lastmile_qr_scan", "ios": "https://dc.lft.to/lastmile_qr_scan"}, "fusion_lon": 0.0}, {"lat": 38.885133, "is_disabled": 0, "type": "electric_scooter", "lon": -77.00679716666667, "bike_id": "fbe501dbf43aae06730726530e024c33", "fusion_lat": 0.0, "name": "fbe501dbf43aae06730726530e024c33", "is_reserved": 0, "rental_uris": {"android": "https://dc.lft.to/lastmile_qr_scan", "ios": "https://dc.lft.to/lastmile_qr_scan"}, "fusion_lon": 0.0}, {"lat": 38.913388833333336, "is_disabled": 0, "type": "electric_scooter", "lon": -77.048842, "bike_id": "d1adcf927981e52a92dac625e4809571", "fusion_lat": 0.0, "name": "d1adcf927981e52a92dac625e4809571", "is_reserved": 0, "rental_uris": {"android": "https://dc.lft.to/lastmile_qr_scan", "ios": "https://dc.lft.to/lastmile_qr_scan"}, "fusion_lon": 0.0}, {"lat": 39.030498333333334, "is_disabled": 0, "type": "electric_bike", "lon": -77.09485166666667, "bike_id": "f71dd4acf54d9f5d27ec54d87c69773e", "fusion_lat": 0.0, "name": "f71dd4acf54d9f5d27ec54d87c69773e", "is_reserved": 0, "rental_uris": {"android": "https://dc.lft.to/lastmile_qr_scan", "ios": "https://dc.lft.to/lastmile_qr_scan"}, "fusion_lon": 0.0}, {"lat": 38.907936, "is_disabled": 0, "type": "electric_scooter", "lon": -77.03798566666667, "bike_id": "4e8027f20a11fda516fc59236ff51c85", "fusion_lat": 0.0, "name": "4e8027f20a11fda516fc59236ff51c85", "is_reserved": 0, "rental_uris": {"android": "https://dc.lft.to/lastmile_qr_scan", "ios": "https://dc.lft.to/lastmile_qr_scan"}, "fusion_lon": 0.0}, {"lat": 38.93530966666667, "is_disabled": 0, "type": "electric_scooter", "lon": -77.07294733333333, "bike_id": "7b4c6d9ba222f318217c17ddccca7145", "fusion_lat": 0.0, "name": "7b4c6d9ba222f318217c17ddccca7145", "is_reserved": 0, "rental_uris": {"android": "https://dc.lft.to/lastmile_qr_scan", "ios": "https://dc.lft.to/lastmile_qr_scan"}, "fusion_lon": 0.0}, {"lat": 38.906043, "is_disabled": 0, "type": "electric_scooter", "lon": -77.01624316666667, "bike_id": "26b72b73299f17a933cca426f8a6e4f4", "fusion_lat": 0.0, "name": "26b72b73299f17a933cca426f8a6e4f4", "is_reserved": 0, "rental_uris": {"android": "https://dc.lft.to/lastmile_qr_scan", "ios": "https://dc.lft.to/lastmile_qr_scan"}, "fusion_lon": 0.0}, {"lat": 38.922934833333336, "is_disabled": 0, "type": "electric_scooter", "lon": -77.0297065, "bike_id": "70da63926ce0ae6dbfcb3941577918c8", "fusion_lat": 0.0, "name": "70da63926ce0ae6dbfcb3941577918c8", "is_reserved": 0, "rental_uris": {"android": "https://dc.lft.to/lastmile_qr_scan", "ios": "https://dc.lft.to/lastmile_qr_scan"}, "fusion_lon": 0.0}, {"lat": 38.91801983333333, "is_disabled": 0, "type": "electric_scooter", "lon": -77.03202916666666, "bike_id": "13d67efa6bda4cadf5032dfc510281b6", "fusion_lat": 0.0, "name": "13d67efa6bda4cadf5032dfc510281b6", "is_reserved": 0, "rental_uris": {"android": "https://dc.lft.to/lastmile_qr_scan", "ios": "https://dc.lft.to/lastmile_qr_scan"}, "fusion_lon": 0.0}, {"lat": 38.89342366666666, "is_disabled": 0, "type": "electric_scooter", "lon": -76.99160216666667, "bike_id": "7d79c0c3da0854d53b7939ecf276c580", "fusion_lat": 0.0, "name": "7d79c0c3da0854d53b7939ecf276c580", "is_reserved": 0, "rental_uris": {"android": "https://dc.lft.to/lastmile_qr_scan", "ios": "https://dc.lft.to/lastmile_qr_scan"}, "fusion_lon": 0.0}, {"lat": 38.9019955, "is_disabled": 0, "type": "electric_scooter", "lon": -76.98202, "bike_id": "29b5630a8d672cf99ba808482b4eaf49", "fusion_lat": 0.0, "name": "29b5630a8d672cf99ba808482b4eaf49", "is_reserved": 0, "rental_uris": {"android": "https://dc.lft.to/lastmile_qr_scan", "ios": "https://dc.lft.to/lastmile_qr_scan"}, "fusion_lon": 0.0}, {"lat": 38.88596116666667, "is_disabled": 0, "type": "electric_scooter", "lon": -77.02200316666666, "bike_id": "d424ef5360a9141df861668066fdc5a7", "fusion_lat": 0.0, "name": "d424ef5360a9141df861668066fdc5a7", "is_reserved": 0, "rental_uris": {"android": "https://dc.lft.to/lastmile_qr_scan", "ios": "https://dc.lft.to/lastmile_qr_scan"}, "fusion_lon": 0.0}, {"lat": 38.90739683333334, "is_disabled": 0, "type": "electric_scooter", "lon": -77.0271785, "bike_id": "a9fc7182f1b2cb5ea196999f787212d8", "fusion_lat": 0.0, "name": "a9fc7182f1b2cb5ea196999f787212d8", "is_reserved": 0, "rental_uris": {"android": "https://dc.lft.to/lastmile_qr_scan", "ios": "https://dc.lft.to/lastmile_qr_scan"}, "fusion_lon": 0.0}, {"lat": 38.92777183333333, "is_disabled": 0, "type": "electric_scooter", "lon": -77.02707883333333, "bike_id": "63b6cc935f2bb5723bdf9c1e16ec56cd", "fusion_lat": 0.0, "name": "63b6cc935f2bb5723bdf9c1e16ec56cd", "is_reserved": 0, "rental_uris": {"android": "https://dc.lft.to/lastmile_qr_scan", "ios": "https://dc.lft.to/lastmile_qr_scan"}, "fusion_lon": 0.0}, {"lat": 38.9273645, "is_disabled": 0, "type": "electric_scooter", "lon": -77.022456, "bike_id": "c11778462198c661b193de747b7119de", "fusion_lat": 0.0, "name": "c11778462198c661b193de747b7119de", "is_reserved": 0, "rental_uris": {"android": "https://dc.lft.to/lastmile_qr_scan", "ios": "https://dc.lft.to/lastmile_qr_scan"}, "fusion_lon": 0.0}, {"lat": 38.90009033333333, "is_disabled": 0, "type": "electric_scooter", "lon": -77.03336433333334, "bike_id": "a17be4934458ad0a5ed274f91033ca5f", "fusion_lat": 0.0, "name": "a17be4934458ad0a5ed274f91033ca5f", "is_reserved": 0, "rental_uris": {"android": "https://dc.lft.to/lastmile_qr_scan", "ios": "https://dc.lft.to/lastmile_qr_scan"}, "fusion_lon": 0.0}, {"lat": 38.8922205, "is_disabled": 0, "type": "electric_scooter", "lon": -77.04508266666667, "bike_id": "95e45258fe0c306fdf81e12ee7038ddb", "fusion_lat": 0.0, "name": "95e45258fe0c306fdf81e12ee7038ddb", "is_reserved": 0, "rental_uris": {"android": "https://dc.lft.to/lastmile_qr_scan", "ios": "https://dc.lft.to/lastmile_qr_scan"}, "fusion_lon": 0.0}, {"lat": 38.90708016666667, "is_disabled": 0, "type": "electric_scooter", "lon": -77.04514766666667, "bike_id": "cc9f059aea64ee3adaf2a814ba020644", "fusion_lat": 0.0, "name": "cc9f059aea64ee3adaf2a814ba020644", "is_reserved": 0, "rental_uris": {"android": "https://dc.lft.to/lastmile_qr_scan", "ios": "https://dc.lft.to/lastmile_qr_scan"}, "fusion_lon": 0.0}, {"lat": 38.91754066666667, "is_disabled": 0, "type": "electric_scooter", "lon": -77.0318665, "bike_id": "5cd3bee6974f250718aa51c4693a516f", "fusion_lat": 0.0, "name": "5cd3bee6974f250718aa51c4693a516f", "is_reserved": 0, "rental_uris": {"android": "https://dc.lft.to/lastmile_qr_scan", "ios": "https://dc.lft.to/lastmile_qr_scan"}, "fusion_lon": 0.0}, {"lat": 38.90723716666667, "is_disabled": 0, "type": "electric_scooter", "lon": -77.029809, "bike_id": "a47fdeb791cd1c90f0305eb747989ade", "fusion_lat": 0.0, "name": "a47fdeb791cd1c90f0305eb747989ade", "is_reserved": 0, "rental_uris": {"android": "https://dc.lft.to/lastmile_qr_scan", "ios": "https://dc.lft.to/lastmile_qr_scan"}, "fusion_lon": 0.0}, {"lat": 38.9072435, "is_disabled": 0, "type": "electric_scooter", "lon": -77.03456883333334, "bike_id": "e864ebf9308832d1c55a2ccc48c53ee4", "fusion_lat": 0.0, "name": "e864ebf9308832d1c55a2ccc48c53ee4", "is_reserved": 0, "rental_uris": {"android": "https://dc.lft.to/lastmile_qr_scan", "ios": "https://dc.lft.to/lastmile_qr_scan"}, "fusion_lon": 0.0}, {"lat": 38.9171505, "is_disabled": 0, "type": "electric_scooter", "lon": -77.0383725, "bike_id": "dbf90e4bc54b6bfb40fff3508d044f12", "fusion_lat": 0.0, "name": "dbf90e4bc54b6bfb40fff3508d044f12", "is_reserved": 0, "rental_uris": {"android": "https://dc.lft.to/lastmile_qr_scan", "ios": "https://dc.lft.to/lastmile_qr_scan"}, "fusion_lon": 0.0}, {"lat": 38.9026965, "is_disabled": 0, "type": "electric_scooter", "lon": -77.0438645, "bike_id": "b9d107efa0c9eb38b4907631d146614a", "fusion_lat": 0.0, "name": "b9d107efa0c9eb38b4907631d146614a", "is_reserved": 0, "rental_uris": {"android": "https://dc.lft.to/lastmile_qr_scan", "ios": "https://dc.lft.to/lastmile_qr_scan"}, "fusion_lon": 0.0}, {"lat": 38.9312265, "is_disabled": 0, "type": "electric_scooter", "lon": -77.02087416666667, "bike_id": "f4b96a72f69683783f8d2c8da32f7155", "fusion_lat": 0.0, "name": "f4b96a72f69683783f8d2c8da32f7155", "is_reserved": 0, "rental_uris": {"android": "https://dc.lft.to/lastmile_qr_scan", "ios": "https://dc.lft.to/lastmile_qr_scan"}, "fusion_lon": 0.0}, {"lat": 38.933917666666666, "is_disabled": 0, "type": "electric_scooter", "lon": -77.03249633333333, "bike_id": "d9d3b3d329263f9aec51a07a586550f8", "fusion_lat": 0.0, "name": "d9d3b3d329263f9aec51a07a586550f8", "is_reserved": 0, "rental_uris": {"android": "https://dc.lft.to/lastmile_qr_scan", "ios": "https://dc.lft.to/lastmile_qr_scan"}, "fusion_lon": 0.0}, {"lat": 38.8922575, "is_disabled": 0, "type": "electric_scooter", "lon": -77.04866916666667, "bike_id": "18bb6100bfb974828dfb307208f7a5c3", "fusion_lat": 0.0, "name": "18bb6100bfb974828dfb307208f7a5c3", "is_reserved": 0, "rental_uris": {"android": "https://dc.lft.to/lastmile_qr_scan", "ios": "https://dc.lft.to/lastmile_qr_scan"}, "fusion_lon": 0.0}, {"lat": 38.95734083333333, "is_disabled": 0, "type": "electric_bike", "lon": -77.02176066666667, "bike_id": "dc55b574e55ad3ef4e3b09a10bfeeaf2", "fusion_lat": 0.0, "name": "dc55b574e55ad3ef4e3b09a10bfeeaf2", "is_reserved": 0, "rental_uris": {"android": "https://dc.lft.to/lastmile_qr_scan", "ios": "https://dc.lft.to/lastmile_qr_scan"}, "fusion_lon": 0.0}, {"lat": 38.91598166666667, "is_disabled": 0, "type": "electric_scooter", "lon": -77.0159075, "bike_id": "a16d164adafc9cb8b0a8bd11b210f086", "fusion_lat": 0.0, "name": "a16d164adafc9cb8b0a8bd11b210f086", "is_reserved": 0, "rental_uris": {"android": "https://dc.lft.to/lastmile_qr_scan", "ios": "https://dc.lft.to/lastmile_qr_scan"}, "fusion_lon": 0.0}, {"lat": 38.865979833333334, "is_disabled": 0, "type": "electric_bike", "lon": -76.93229466666666, "bike_id": "5dcee4e9d5e7a44b8fa7009c4e9de963", "fusion_lat": 0.0, "name": "5dcee4e9d5e7a44b8fa7009c4e9de963", "is_reserved": 0, "rental_uris": {"android": "https://dc.lft.to/lastmile_qr_scan", "ios": "https://dc.lft.to/lastmile_qr_scan"}, "fusion_lon": 0.0}, {"lat": 38.892208833333335, "is_disabled": 0, "type": "electric_scooter", "lon": -77.02622916666667, "bike_id": "bf8eb5962822d791f08964f5ec6e28fb", "fusion_lat": 0.0, "name": "bf8eb5962822d791f08964f5ec6e28fb", "is_reserved": 0, "rental_uris": {"android": "https://dc.lft.to/lastmile_qr_scan", "ios": "https://dc.lft.to/lastmile_qr_scan"}, "fusion_lon": 0.0}, {"lat": 38.917587166666664, "is_disabled": 0, "type": "electric_scooter", "lon": -77.00443883333334, "bike_id": "f097cea6370447ab80a6ab8274fb5885", "fusion_lat": 0.0, "name": "f097cea6370447ab80a6ab8274fb5885", "is_reserved": 0, "rental_uris": {"android": "https://dc.lft.to/lastmile_qr_scan", "ios": "https://dc.lft.to/lastmile_qr_scan"}, "fusion_lon": 0.0}, {"lat": 38.89215883333333, "is_disabled": 0, "type": "electric_scooter", "lon": -77.02627383333333, "bike_id": "048b1fd9b6156539216967780a5c8039", "fusion_lat": 0.0, "name": "048b1fd9b6156539216967780a5c8039", "is_reserved": 0, "rental_uris": {"android": "https://dc.lft.to/lastmile_qr_scan", "ios": "https://dc.lft.to/lastmile_qr_scan"}, "fusion_lon": 0.0}, {"lat": 38.9323025, "is_disabled": 0, "type": "electric_scooter", "lon": -77.04410166666666, "bike_id": "b336c7b304d8b3124027228ab8e6a54b", "fusion_lat": 0.0, "name": "b336c7b304d8b3124027228ab8e6a54b", "is_reserved": 0, "rental_uris": {"android": "https://dc.lft.to/lastmile_qr_scan", "ios": "https://dc.lft.to/lastmile_qr_scan"}, "fusion_lon": 0.0}, {"lat": 38.85223633333333, "is_disabled": 0, "type": "electric_bike", "lon": -77.1296075, "bike_id": "573607694ca7175120873a6fc1cd8e8b", "fusion_lat": 0.0, "name": "573607694ca7175120873a6fc1cd8e8b", "is_reserved": 0, "rental_uris": {"android": "https://dc.lft.to/lastmile_qr_scan", "ios": "https://dc.lft.to/lastmile_qr_scan"}, "fusion_lon": 0.0}, {"lat": 38.82009433333333, "is_disabled": 0, "type": "electric_bike", "lon": -77.0576585, "bike_id": "cc7d8dfd09621ae41e53c99e11e75efb", "fusion_lat": 0.0, "name": "cc7d8dfd09621ae41e53c99e11e75efb", "is_reserved": 0, "rental_uris": {"android": "https://dc.lft.to/lastmile_qr_scan", "ios": "https://dc.lft.to/lastmile_qr_scan"}, "fusion_lon": 0.0}, {"lat": 38.88528633333333, "is_disabled": 0, "type": "electric_scooter", "lon": -77.01519433333333, "bike_id": "2eb65a7072f2652b9af4f687f596120a", "fusion_lat": 0.0, "name": "2eb65a7072f2652b9af4f687f596120a", "is_reserved": 0, "rental_uris": {"android": "https://dc.lft.to/lastmile_qr_scan", "ios": "https://dc.lft.to/lastmile_qr_scan"}, "fusion_lon": 0.0}, {"lat": 38.91915783333334, "is_disabled": 0, "type": "electric_scooter", "lon": -77.03174016666667, "bike_id": "564a63651fa931d375b8329a0600b01b", "fusion_lat": 0.0, "name": "564a63651fa931d375b8329a0600b01b", "is_reserved": 0, "rental_uris": {"android": "https://dc.lft.to/lastmile_qr_scan", "ios": "https://dc.lft.to/lastmile_qr_scan"}, "fusion_lon": 0.0}, {"lat": 38.90569033333333, "is_disabled": 0, "type": "electric_scooter", "lon": -77.02180283333334, "bike_id": "6e03f7fcc984757bd0fe7388ed8aa3ad", "fusion_lat": 0.0, "name": "6e03f7fcc984757bd0fe7388ed8aa3ad", "is_reserved": 0, "rental_uris": {"android": "https://dc.lft.to/lastmile_qr_scan", "ios": "https://dc.lft.to/lastmile_qr_scan"}, "fusion_lon": 0.0}, {"lat": 38.865263166666665, "is_disabled": 0, "type": "electric_scooter", "lon": -76.990264, "bike_id": "06173b0501253924af2af9d91939dde4", "fusion_lat": 0.0, "name": "06173b0501253924af2af9d91939dde4", "is_reserved": 0, "rental_uris": {"android": "https://dc.lft.to/lastmile_qr_scan", "ios": "https://dc.lft.to/lastmile_qr_scan"}, "fusion_lon": 0.0}, {"lat": 38.924756, "is_disabled": 0, "type": "electric_scooter", "lon": -77.03535716666667, "bike_id": "6dab2ae475bb8dbd379469d6dc1bea94", "fusion_lat": 0.0, "name": "6dab2ae475bb8dbd379469d6dc1bea94", "is_reserved": 0, "rental_uris": {"android": "https://dc.lft.to/lastmile_qr_scan", "ios": "https://dc.lft.to/lastmile_qr_scan"}, "fusion_lon": 0.0}, {"lat": 38.909967333333334, "is_disabled": 0, "type": "electric_scooter", "lon": -77.04006983333333, "bike_id": "fea4e038a303aa0e20c13e9d457e2b3b", "fusion_lat": 0.0, "name": "fea4e038a303aa0e20c13e9d457e2b3b", "is_reserved": 0, "rental_uris": {"android": "https://dc.lft.to/lastmile_qr_scan", "ios": "https://dc.lft.to/lastmile_qr_scan"}, "fusion_lon": 0.0}, {"lat": 38.9140415, "is_disabled": 0, "type": "electric_scooter", "lon": -77.03181033333334, "bike_id": "4b6d87c6b3aae32b2d9b65c2f378d4a4", "fusion_lat": 0.0, "name": "4b6d87c6b3aae32b2d9b65c2f378d4a4", "is_reserved": 0, "rental_uris": {"android": "https://dc.lft.to/lastmile_qr_scan", "ios": "https://dc.lft.to/lastmile_qr_scan"}, "fusion_lon": 0.0}, {"lat": 38.9217115, "is_disabled": 0, "type": "electric_scooter", "lon": -77.040301, "bike_id": "65ecd6a37d41ca46cc6477157ed0aa2a", "fusion_lat": 0.0, "name": "65ecd6a37d41ca46cc6477157ed0aa2a", "is_reserved": 0, "rental_uris": {"android": "https://dc.lft.to/lastmile_qr_scan", "ios": "https://dc.lft.to/lastmile_qr_scan"}, "fusion_lon": 0.0}, {"lat": 38.925279833333335, "is_disabled": 0, "type": "electric_scooter", "lon": -77.0441855, "bike_id": "0c3d9c671d33bf658a86a770d42e08e5", "fusion_lat": 0.0, "name": "0c3d9c671d33bf658a86a770d42e08e5", "is_reserved": 0, "rental_uris": {"android": "https://dc.lft.to/lastmile_qr_scan", "ios": "https://dc.lft.to/lastmile_qr_scan"}, "fusion_lon": 0.0}, {"lat": 38.900302333333336, "is_disabled": 0, "type": "electric_scooter", "lon": -76.993758, "bike_id": "b7d8faa3cdd61fe4c552224be4f2895c", "fusion_lat": 0.0, "name": "b7d8faa3cdd61fe4c552224be4f2895c", "is_reserved": 0, "rental_uris": {"android": "https://dc.lft.to/lastmile_qr_scan", "ios": "https://dc.lft.to/lastmile_qr_scan"}, "fusion_lon": 0.0}, {"lat": 38.90901616666667, "is_disabled": 0, "type": "electric_scooter", "lon": -77.03141433333333, "bike_id": "256f439197f0d04a56e01051a8ef50be", "fusion_lat": 0.0, "name": "256f439197f0d04a56e01051a8ef50be", "is_reserved": 0, "rental_uris": {"android": "https://dc.lft.to/lastmile_qr_scan", "ios": "https://dc.lft.to/lastmile_qr_scan"}, "fusion_lon": 0.0}, {"lat": 38.92256483333333, "is_disabled": 0, "type": "electric_scooter", "lon": -77.04299533333334, "bike_id": "7af86b00665420d055635d7ca4f8cf10", "fusion_lat": 0.0, "name": "7af86b00665420d055635d7ca4f8cf10", "is_reserved": 0, "rental_uris": {"android": "https://dc.lft.to/lastmile_qr_scan", "ios": "https://dc.lft.to/lastmile_qr_scan"}, "fusion_lon": 0.0}, {"lat": 38.90079166666666, "is_disabled": 0, "type": "electric_scooter", "lon": -77.0184275, "bike_id": "49531b38f471dd68efd82e02209c0239", "fusion_lat": 0.0, "name": "49531b38f471dd68efd82e02209c0239", "is_reserved": 0, "rental_uris": {"android": "https://dc.lft.to/lastmile_qr_scan", "ios": "https://dc.lft.to/lastmile_qr_scan"}, "fusion_lon": 0.0}, {"lat": 38.936438, "is_disabled": 0, "type": "electric_scooter", "lon": -77.02504883333333, "bike_id": "5cda80a3beff5d74b0e0f3fc0933d435", "fusion_lat": 0.0, "name": "5cda80a3beff5d74b0e0f3fc0933d435", "is_reserved": 0, "rental_uris": {"android": "https://dc.lft.to/lastmile_qr_scan", "ios": "https://dc.lft.to/lastmile_qr_scan"}, "fusion_lon": 0.0}, {"lat": 38.91792516666667, "is_disabled": 0, "type": "electric_scooter", "lon": -77.040415, "bike_id": "c75c2a196c0d21114628a8a33bbef9e3", "fusion_lat": 0.0, "name": "c75c2a196c0d21114628a8a33bbef9e3", "is_reserved": 0, "rental_uris": {"android": "https://dc.lft.to/lastmile_qr_scan", "ios": "https://dc.lft.to/lastmile_qr_scan"}, "fusion_lon": 0.0}, {"lat": 38.91118816666667, "is_disabled": 0, "type": "electric_scooter", "lon": -77.03843183333333, "bike_id": "788493b561ac22e3d93686d3e31c3546", "fusion_lat": 0.0, "name": "788493b561ac22e3d93686d3e31c3546", "is_reserved": 0, "rental_uris": {"android": "https://dc.lft.to/lastmile_qr_scan", "ios": "https://dc.lft.to/lastmile_qr_scan"}, "fusion_lon": 0.0}, {"lat": 38.91640433333333, "is_disabled": 0, "type": "electric_scooter", "lon": -77.04778133333333, "bike_id": "cecb7c19dd9fcd34ed84569c4f97a7a6", "fusion_lat": 0.0, "name": "cecb7c19dd9fcd34ed84569c4f97a7a6", "is_reserved": 0, "rental_uris": {"android": "https://dc.lft.to/lastmile_qr_scan", "ios": "https://dc.lft.to/lastmile_qr_scan"}, "fusion_lon": 0.0}, {"lat": 38.9308605, "is_disabled": 0, "type": "electric_scooter", "lon": -77.0373965, "bike_id": "22f0ba48b91348d0861181a47cf63b8a", "fusion_lat": 0.0, "name": "22f0ba48b91348d0861181a47cf63b8a", "is_reserved": 0, "rental_uris": {"android": "https://dc.lft.to/lastmile_qr_scan", "ios": "https://dc.lft.to/lastmile_qr_scan"}, "fusion_lon": 0.0}, {"lat": 38.893507666666665, "is_disabled": 0, "type": "electric_scooter", "lon": -77.04138883333333, "bike_id": "f0fb56c2aff21bc4e90ba3eed4b67c46", "fusion_lat": 0.0, "name": "f0fb56c2aff21bc4e90ba3eed4b67c46", "is_reserved": 0, "rental_uris": {"android": "https://dc.lft.to/lastmile_qr_scan", "ios": "https://dc.lft.to/lastmile_qr_scan"}, "fusion_lon": 0.0}, {"lat": 38.880834666666665, "is_disabled": 0, "type": "electric_bike", "lon": -76.98532883333333, "bike_id": "3b8972e423f159b6e5c89b808d9987a4", "fusion_lat": 0.0, "name": "3b8972e423f159b6e5c89b808d9987a4", "is_reserved": 0, "rental_uris": {"android": "https://dc.lft.to/lastmile_qr_scan", "ios": "https://dc.lft.to/lastmile_qr_scan"}, "fusion_lon": 0.0},