{"data": {"bikes": [{"is_disabled": 0, "fusion_lon": 0.0, "fusion_lat": 0.0, "lat": 38.90949033333333, "type": "electric_scooter", "lon": -77.06439066666667, "bike_id": "37924cc1c4ff2cf31b45f8128a8c84b3", "rental_uris": {"android": "https://dc.lft.to/lastmile_qr_scan", "ios": "https://dc.lft.to/lastmile_qr_scan"}, "name": "37924cc1c4ff2cf31b45f8128a8c84b3", "is_reserved": 0}, {"is_disabled": 0, "fusion_lon": 0.0, "fusion_lat": 0.0, "lat": 38.87652533333333, "type": "electric_scooter", "lon": -77.0082175, "bike_id": "fe8a97cc2cbc2fa1172602ed416282eb", "rental_uris": {"android": "https://dc.lft.to/lastmile_qr_scan", "ios": "https://dc.lft.to/lastmile_qr_scan"}, "name": "fe8a97cc2cbc2fa1172602ed416282eb", "is_reserved": 0}, {"is_disabled": 0, "fusion_lon": 0.0, "fusion_lat": 0.0, "lat": 38.87736133333333, "type": "electric_scooter", "lon": -76.99621, "bike_id": "3205eb003faae7c2ea47076cb133c007", "rental_uris": {"android": "https://dc.lft.to/lastmile_qr_scan", "ios": "https://dc.lft.to/lastmile_qr_scan"}, "name": "3205eb003faae7c2ea47076cb133c007", "is_reserved": 0}, {"is_disabled": 0, "fusion_lon": 0.0, "fusion_lat": 0.0, "lat": 38.926282666666665, "type": "electric_scooter", "lon": -77.04197583333334, "bike_id": "9510ec78371149b813fb6fa3f93ff500", "rental_uris": {"android": "https://dc.lft.to/lastmile_qr_scan", "ios": "https://dc.lft.to/lastmile_qr_scan"}, "name": "9510ec78371149b813fb6fa3f93ff500", "is_reserved": 0}, {"is_disabled": 0, "fusion_lon": 0.0, "fusion_lat": 0.0, "lat": 38.89847433333333, "type": "electric_scooter", "lon": -77.043497, "bike_id": "42a3253522345ad5f801de2f48d48a6c", "rental_uris": {"android": "https://dc.lft.to/lastmile_qr_scan", "ios": "https://dc.lft.to/lastmile_qr_scan"}, "name": "42a3253522345ad5f801de2f48d48a6c", "is_reserved": 0}, {"is_disabled": 0, "fusion_lon": 0.0, "fusion_lat": 0.0, "lat": 38.944526333333336, "type": "electric_scooter", "lon": -77.06036, "bike_id": "8264e9ba9ceb80bf6958afe0946510e2", "rental_uris": {"android": "https://dc.lft.to/lastmile_qr_scan", "ios": "https://dc.lft.to/lastmile_qr_scan"}, "name": "8264e9ba9ceb80bf6958afe0946510e2", "is_reserved": 0}, {"is_disabled": 0, "fusion_lon": 0.0, "fusion_lat": 0.0, "lat": 38.99672233333333, "type": "electric_bike", "lon": -76.99142266666667, "bike_id": "78d33b4505e7186be9a968069bf37525", "rental_uris": {"android": "https://dc.lft.to/lastmile_qr_scan", "ios": "https://dc.lft.to/lastmile_qr_scan"}, "name": "78d33b4505e7186be9a968069bf37525", "is_reserved": 0}, {"is_disabled": 0, "fusion_lon": 0.0, "fusion_lat": 0.0, "lat": 38.89797166666666, "type": "electric_scooter", "lon": -77.02926033333334, "bike_id": "06cf17ab7b7bfee5e0a44be7ffdac79c", "rental_uris": {"android": "https://dc.lft.to/lastmile_qr_scan", "ios": "https://dc.lft.to/lastmile_qr_scan"}, "name": "06cf17ab7b7bfee5e0a44be7ffdac79c", "is_reserved": 0}, {"is_disabled": 0, "fusion_lon": 0.0, "fusion_lat": 0.0, "lat": 38.828768833333335, "type": "electric_bike", "lon": -77.112195, "bike_id": "d97d0c4954a2809345850baa8f47ca88", "rental_uris": {"android": "https://dc.lft.to/lastmile_qr_scan", "ios": "https://dc.lft.to/lastmile_qr_scan"}, "name": "d97d0c4954a2809345850baa8f47ca88", "is_reserved": 0}, {"is_disabled": 0, "fusion_lon": 0.0, "fusion_lat": 0.0, "lat": 38.909726166666665, "type": "electric_scooter", "lon": -77.0110235, "bike_id": "a5e8099239a0edc52e1c13b46b1aff0e", "rental_uris": {"android": "https://dc.lft.to/lastmile_qr_scan", "ios": "https://dc.lft.to/lastmile_qr_scan"}, "name": "a5e8099239a0edc52e1c13b46b1aff0e", "is_reserved": 0}, {"is_disabled": 0, "fusion_lon": 0.0, "fusion_lat": 0.0, "lat": 38.912604333333334, "type": "electric_scooter", "lon": -77.02235216666666, "bike_id": "18e1dfda9aa54715836d9f6dafdb616a", "rental_uris": {"android": "https://dc.lft.to/lastmile_qr_scan", "ios": "https://dc.lft.to/lastmile_qr_scan"}, "name": "18e1dfda9aa54715836d9f6dafdb616a", "is_reserved": 0}, {"is_disabled": 0, "fusion_lon": 0.0, "fusion_lat": 0.0, "lat": 38.910396166666665, "type": "electric_scooter", "lon": -77.042644, "bike_id": "8bd0ace416f647c94ab6c3474c762bbc", "rental_uris": {"android": "https://dc.lft.to/lastmile_qr_scan", "ios": "https://dc.lft.to/lastmile_qr_scan"}, "name": "8bd0ace416f647c94ab6c3474c762bbc", "is_reserved": 0}, {"is_disabled": 0, "fusion_lon": 0.0, "fusion_lat": 0.0, "lat": 39.00020516666667, "type": "electric_bike", "lon": -76.872857, "bike_id": "144e9dceaede76b01bf4b71fbb6eed4c", "rental_uris": {"android": "https://dc.lft.to/lastmile_qr_scan", "ios": "https://dc.lft.to/lastmile_qr_scan"}, "name": "144e9dceaede76b01bf4b71fbb6eed4c", "is_reserved": 0}, {"is_disabled": 0, "fusion_lon": 0.0, "fusion_lat": 0.0, "lat": 38.8873615, "type": "electric_scooter", "lon": -77.03224416666667, "bike_id": "36c5cf737011b5df059ced240cec73d4", "rental_uris": {"android": "https://dc.lft.to/lastmile_qr_scan", "ios": "https://dc.lft.to/lastmile_qr_scan"}, "name": "36c5cf737011b5df059ced240cec73d4", "is_reserved": 0}, {"is_disabled": 0, "fusion_lon": 0.0, "fusion_lat": 0.0, "lat": 38.900038333333335, "type": "electric_scooter", "lon": -76.99628283333334, "bike_id": "498d02364e7980de96f32dd758f9a862", "rental_uris": {"android": "https://dc.lft.to/lastmile_qr_scan", "ios": "https://dc.lft.to/lastmile_qr_scan"}, "name": "498d02364e7980de96f32dd758f9a862", "is_reserved": 0}, {"is_disabled": 0, "fusion_lon": 0.0, "fusion_lat": 0.0, "lat": 38.906496, "type": "electric_scooter", "lon": -77.04879866666667, "bike_id": "b7f23ed499c5fd34f2b3c54b684c968e", "rental_uris": {"android": "https://dc.lft.to/lastmile_qr_scan", "ios": "https://dc.lft.to/lastmile_qr_scan"}, "name": "b7f23ed499c5fd34f2b3c54b684c968e", "is_reserved": 0}, {"is_disabled": 0, "fusion_lon": 0.0, "fusion_lat": 0.0, "lat": 38.914952666666665, "type": "electric_scooter", "lon": -77.03466466666667, "bike_id": "4aeb94b0d1f1149db55a7571af84e5d9", "rental_uris": {"android": "https://dc.lft.to/lastmile_qr_scan", "ios": "https://dc.lft.to/lastmile_qr_scan"}, "name": "4aeb94b0d1f1149db55a7571af84e5d9", "is_reserved": 0}, {"is_disabled": 0, "fusion_lon": 0.0, "fusion_lat": 0.0, "lat": 38.88209033333333, "type": "electric_scooter", "lon": -76.92702933333334, "bike_id": "874a936555c0e11b914294e8fea8e99f", "rental_uris": {"android": "https://dc.lft.to/lastmile_qr_scan", "ios": "https://dc.lft.to/lastmile_qr_scan"}, "name": "874a936555c0e11b914294e8fea8e99f", "is_reserved": 0}, {"is_disabled": 0, "fusion_lon": 0.0, "fusion_lat": 0.0, "lat": 38.924206833333336, "type": "electric_scooter", "lon": -77.03546633333333, "bike_id": "b81d338a3bf3106b0f450b747efeb0a8", "rental_uris": {"android": "https://dc.lft.to/lastmile_qr_scan", "ios": "https://dc.lft.to/lastmile_qr_scan"}, "name": "b81d338a3bf3106b0f450b747efeb0a8", "is_reserved": 0}, {"is_disabled": 0, "fusion_lon": 0.0, "fusion_lat": 0.0, "lat": 38.903444, "type": "electric_scooter", "lon": -76.97575666666667, "bike_id": "27a9269a4ea21a10cbeb9cec54a5afc1", "rental_uris": {"android": "https://dc.lft.to/lastmile_qr_scan", "ios": "https://dc.lft.to/lastmile_qr_scan"}, "name": "27a9269a4ea21a10cbeb9cec54a5afc1", "is_reserved": 0}, {"is_disabled": 0, "fusion_lon": 0.0, "fusion_lat": 0.0, "lat": 38.911218833333336, "type": "electric_scooter", "lon": -77.01881733333333, "bike_id": "eca598495ff7d42e2ec69b31919455b9", "rental_uris": {"android": "https://dc.lft.to/lastmile_qr_scan", "ios": "https://dc.lft.to/lastmile_qr_scan"}, "name": "eca598495ff7d42e2ec69b31919455b9", "is_reserved": 0}, {"is_disabled": 0, "fusion_lon": 0.0, "fusion_lat": 0.0, "lat": 38.9309425, "type": "electric_scooter", "lon": -77.072666, "bike_id": "56af25409beed5573bd103edfa1bddc0", "rental_uris": {"android": "https://dc.lft.to/lastmile_qr_scan", "ios": "https://dc.lft.to/lastmile_qr_scan"}, "name": "56af25409beed5573bd103edfa1bddc0", "is_reserved": 0}, {"is_disabled": 0, "fusion_lon": 0.0, "fusion_lat": 0.0, "lat": 39.088434166666666, "type": "electric_bike", "lon": -77.17802116666667, "bike_id": "56f67025bd3d124de593a164df7997c9", "rental_uris": {"android": "https://dc.lft.to/lastmile_qr_scan", "ios": "https://dc.lft.to/lastmile_qr_scan"}, "name": "56f67025bd3d124de593a164df7997c9", "is_reserved": 0}, {"is_disabled": 0, "fusion_lon": 0.0, "fusion_lat": 0.0, "lat": 38.884183666666665, "type": "electric_scooter", "lon": -76.954195, "bike_id": "eac332cee69892e05915b3e536cd182a", "rental_uris": {"android": "https://dc.lft.to/lastmile_qr_scan", "ios": "https://dc.lft.to/lastmile_qr_scan"}, "name": "eac332cee69892e05915b3e536cd182a", "is_reserved": 0}, {"is_disabled": 0, "fusion_lon": 0.0, "fusion_lat": 0.0, "lat": 38.876593, "type": "electric_scooter", "lon": -77.00907233333334, "bike_id": "572755cc999d88f75813d3da46479c3c", "rental_uris": {"android": "https://dc.lft.to/lastmile_qr_scan", "ios": "https://dc.lft.to/lastmile_qr_scan"}, "name": "572755cc999d88f75813d3da46479c3c", "is_reserved": 0}, {"is_disabled": 0, "fusion_lon": 0.0, "fusion_lat": 0.0, "lat": 38.933577, "type": "electric_scooter", "lon": -77.07211833333334, "bike_id": "e19d62a9633ecaa1ae8399f8dc99d9ba", "rental_uris": {"android": "https://dc.lft.to/lastmile_qr_scan", "ios": "https://dc.lft.to/lastmile_qr_scan"}, "name": "e19d62a9633ecaa1ae8399f8dc99d9ba", "is_reserved": 0}, {"is_disabled": 0, "fusion_lon": 0.0, "fusion_lat": 0.0, "lat": 38.96624816666667, "type": "electric_bike", "lon": -77.0344155, "bike_id": "5f257b402677d1e4957f5be26d058420", "rental_uris": {"android": "https://dc.lft.to/lastmile_qr_scan", "ios": "https://dc.lft.to/lastmile_qr_scan"}, "name": "5f257b402677d1e4957f5be26d058420", "is_reserved": 0}, {"is_disabled": 0, "fusion_lon": 0.0, "fusion_lat": 0.0, "lat": 38.89463416666667, "type": "electric_scooter", "lon": -76.99487516666667, "bike_id": "dc8a9ba1e5e43f09295972904f3dbd16", "rental_uris": {"android": "https://dc.lft.to/lastmile_qr_scan", "ios": "https://dc.lft.to/lastmile_qr_scan"}, "name": "dc8a9ba1e5e43f09295972904f3dbd16", "is_reserved": 0}, {"is_disabled": 0, "fusion_lon": 0.0, "fusion_lat": 0.0, "lat": 38.93497816666667, "type": "electric_bike", "lon": -76.94954183333333, "bike_id": "5701e32f281a9d9c13c59d936b8db575", "rental_uris": {"android": "https://dc.lft.to/lastmile_qr_scan", "ios": "https://dc.lft.to/lastmile_qr_scan"}, "name": "5701e32f281a9d9c13c59d936b8db575", "is_reserved": 0}, {"is_disabled": 0, "fusion_lon": 0.0, "fusion_lat": 0.0, "lat": 38.838140333333335, "type": "electric_scooter", "lon": -77.00431883333333, "bike_id": "46930ce9e72cbe9f7f24ac32a93df16c", "rental_uris": {"android": "https://dc.lft.to/lastmile_qr_scan", "ios": "https://dc.lft.to/lastmile_qr_scan"}, "name": "46930ce9e72cbe9f7f24ac32a93df16c", "is_reserved": 0}, {"is_disabled": 0, "fusion_lon": 0.0, "fusion_lat": 0.0, "lat": 38.928083666666666, "type": "electric_scooter", "lon": -77.05424416666666, "bike_id": "63fa2b19b8876c9bf74a8f0d03eb7ff0", "rental_uris": {"android": "https://dc.lft.to/lastmile_qr_scan", "ios": "https://dc.lft.to/lastmile_qr_scan"}, "name": "63fa2b19b8876c9bf74a8f0d03eb7ff0", "is_reserved": 0}, {"is_disabled": 0, "fusion_lon": 0.0, "fusion_lat": 0.0, "lat": 38.8863155, "type": "electric_scooter", "lon": -76.99852283333334, "bike_id": "8fe7b693df0a0c1521bada6fdfade651", "rental_uris": {"android": "https://dc.lft.to/lastmile_qr_scan", "ios": "https://dc.lft.to/lastmile_qr_scan"}, "name": "8fe7b693df0a0c1521bada6fdfade651", "is_reserved": 0}, {"is_disabled": 0, "fusion_lon": 0.0, "fusion_lat": 0.0, "lat": 39.0994705, "type": "electric_bike", "lon": -77.18788416666666, "bike_id": "70fe9c26d1962c7b88e8be0856eb0556", "rental_uris": {"android": "https://dc.lft.to/lastmile_qr_scan", "ios": "https://dc.lft.to/lastmile_qr_scan"}, "name": "70fe9c26d1962c7b88e8be0856eb0556", "is_reserved": 0}, {"is_disabled": 0, "fusion_lon": 0.0, "fusion_lat": 0.0, "lat": 38.84296283333333, "type": "electric_scooter", "lon": -76.99948266666667, "bike_id": "76bfdd2a578e1acd5274e78ac8a55896", "rental_uris": {"android": "https://dc.lft.to/lastmile_qr_scan", "ios": "https://dc.lft.to/lastmile_qr_scan"}, "name": "76bfdd2a578e1acd5274e78ac8a55896", "is_reserved": 0}, {"is_disabled": 0, "fusion_lon": 0.0, "fusion_lat": 0.0, "lat": 38.907982833333335, "type": "electric_scooter", "lon": -77.04986616666666, "bike_id": "040ed2b92b6bb83b5fa0a09e9f132b37", "rental_uris": {"android": "https://dc.lft.to/lastmile_qr_scan", "ios": "https://dc.lft.to/lastmile_qr_scan"}, "name": "040ed2b92b6bb83b5fa0a09e9f132b37", "is_reserved": 0}, {"is_disabled": 0, "fusion_lon": 0.0, "fusion_lat": 0.0, "lat": 38.892335333333335, "type": "electric_scooter", "lon": -77.04359216666667, "bike_id": "bd57011298c274e906cc9297d3819960", "rental_uris": {"android": "https://dc.lft.to/lastmile_qr_scan", "ios": "https://dc.lft.to/lastmile_qr_scan"}, "name": "bd57011298c274e906cc9297d3819960", "is_reserved": 0}, {"is_disabled": 0, "fusion_lon": 0.0, "fusion_lat": 0.0, "lat": 38.9086815, "type": "electric_scooter", "lon": -77.00220683333333, "bike_id": "70358036b40241a64b3f16135d499de9", "rental_uris": {"android": "https://dc.lft.to/lastmile_qr_scan", "ios": "https://dc.lft.to/lastmile_qr_scan"}, "name": "70358036b40241a64b3f16135d499de9", "is_reserved": 0}, {"is_disabled": 0, "fusion_lon": 0.0, "fusion_lat": 0.0, "lat": 38.89227316666667, "type": "electric_scooter", "lon": -77.046433, "bike_id": "6ec6f1210b13f8c271bcfb1ab3ca7b05", "rental_uris": {"android": "https://dc.lft.to/lastmile_qr_scan", "ios": "https://dc.lft.to/lastmile_qr_scan"}, "name": "6ec6f1210b13f8c271bcfb1ab3ca7b05", "is_reserved": 0}, {"is_disabled": 0, "fusion_lon": 0.0, "fusion_lat": 0.0, "lat": 38.908592, "type": "electric_scooter", "lon": -77.03255066666667, "bike_id": "b5bb8731f3794a90bcddd96d38951939", "rental_uris": {"android": "https://dc.lft.to/lastmile_qr_scan", "ios": "https://dc.lft.to/lastmile_qr_scan"}, "name": "b5bb8731f3794a90bcddd96d38951939", "is_reserved": 0}, {"is_disabled": 0, "fusion_lon": 0.0, "fusion_lat": 0.0, "lat": 38.917079333333334, "type": "electric_scooter", "lon": -77.0011475, "bike_id": "3cbdb2a7b2a9f45379bada3984c9b28e", "rental_uris": {"android": "https://dc.lft.to/lastmile_qr_scan", "ios": "https://dc.lft.to/lastmile_qr_scan"}, "name": "3cbdb2a7b2a9f45379bada3984c9b28e", "is_reserved": 0}, {"is_disabled": 0, "fusion_lon": 0.0, "fusion_lat": 0.0, "lat": 38.921699333333336, "type": "electric_scooter", "lon": -77.03834233333333, "bike_id": "b8df26a6784ba0d8f4b4248e7f9a68e4", "rental_uris": {"android": "https://dc.lft.to/lastmile_qr_scan", "ios": "https://dc.lft.to/lastmile_qr_scan"}, "name": "b8df26a6784ba0d8f4b4248e7f9a68e4", "is_reserved": 0}, {"is_disabled": 0, "fusion_lon": 0.0, "fusion_lat": 0.0, "lat": 38.879735, "type": "electric_scooter", "lon": -76.99368583333333, "bike_id": "29020ecf62b955cca79b4466addf38fe", "rental_uris": {"android": "https://dc.lft.to/lastmile_qr_scan", "ios": "https://dc.lft.to/lastmile_qr_scan"}, "name": "29020ecf62b955cca79b4466addf38fe", "is_reserved": 0}, {"is_disabled": 0, "fusion_lon": 0.0, "fusion_lat": 0.0, "lat": 38.98501783333333, "type": "electric_bike", "lon": -76.982074, "bike_id": "c72a803596d0c7e19c84661adaee387b", "rental_uris": {"android": "https://dc.lft.to/lastmile_qr_scan", "ios": "https://dc.lft.to/lastmile_qr_scan"}, "name": "c72a803596d0c7e19c84661adaee387b", "is_reserved": 0}, {"is_disabled": 0, "fusion_lon": 0.0, "fusion_lat": 0.0, "lat": 38.9146075, "type": "electric_scooter", "lon": -77.03188466666667, "bike_id": "811f9a48e0ba93e78ab27197d7123d6a", "rental_uris": {"android": "https://dc.lft.to/lastmile_qr_scan", "ios": "https://dc.lft.to/lastmile_qr_scan"}, "name": "811f9a48e0ba93e78ab27197d7123d6a", "is_reserved": 0}, {"is_disabled": 0, "fusion_lon": 0.0, "fusion_lat": 0.0, "lat": 38.925679, "type": "electric_scooter", "lon": -77.03792633333333, "bike_id": "4a41b4db28c2057c1e72033285bff38b", "rental_uris": {"android": "https://dc.lft.to/lastmile_qr_scan", "ios": "https://dc.lft.to/lastmile_qr_scan"}, "name": "4a41b4db28c2057c1e72033285bff38b", "is_reserved": 0}, {"is_disabled": 0, "fusion_lon": 0.0, "fusion_lat": 0.0, "lat": 38.90060066666667, "type": "electric_scooter", "lon": -76.934719, "bike_id": "234ad1ea857ee1b88b7cfdfc1c87322c", "rental_uris": {"android": "https://dc.lft.to/lastmile_qr_scan", "ios": "https://dc.lft.to/lastmile_qr_scan"}, "name": "234ad1ea857ee1b88b7cfdfc1c87322c", "is_reserved": 0}, {"is_disabled": 0, "fusion_lon": 0.0, "fusion_lat": 0.0, "lat": 38.9169565, "type": "electric_scooter", "lon": -77.02484616666666, "bike_id": "7e3357c50219f3c891a9a81a877fba9b", "rental_uris": {"android": "https://dc.lft.to/lastmile_qr_scan", "ios": "https://dc.lft.to/lastmile_qr_scan"}, "name": "7e3357c50219f3c891a9a81a877fba9b", "is_reserved": 0}, {"is_disabled": 0, "fusion_lon": 0.0, "fusion_lat": 0.0, "lat": 38.92266516666667, "type": "electric_scooter", "lon": -77.04125233333333, "bike_id": "8ba008a2887ba5f1357c569bbfdc5852", "rental_uris": {"android": "https://dc.lft.to/lastmile_qr_scan", "ios": "https://dc.lft.to/lastmile_qr_scan"}, "name": "8ba008a2887ba5f1357c569bbfdc5852", "is_reserved": 0}, {"is_disabled": 0, "fusion_lon": 0.0, "fusion_lat": 0.0, "lat": 38.91009, "type": "electric_scooter", "lon": -77.043619, "bike_id": "d4303cf1df13e1acee62df841be6ce19", "rental_uris": {"android": "https://dc.lft.to/lastmile_qr_scan", "ios": "https://dc.lft.to/lastmile_qr_scan"}, "name": "d4303cf1df13e1acee62df841be6ce19", "is_reserved": 0}, {"is_disabled": 0, "fusion_lon": 0.0, "fusion_lat": 0.0, "lat": 38.910384, "type": "electric_scooter", "lon": -77.0309855, "bike_id": "33f25f8ccd86264c406e47e39ea27b20", "rental_uris": {"android": "https://dc.lft.to/lastmile_qr_scan", "ios": "https://dc.lft.to/lastmile_qr_scan"}, "name": "33f25f8ccd86264c406e47e39ea27b20", "is_reserved": 0}, {"is_disabled": 0, "fusion_lon": 0.0, "fusion_lat": 0.0, "lat": 38.906846, "type": "electric_bike", "lon": -76.951929, "bike_id": "13f0f34ce78ab2acfe254a0daee36019", "rental_uris": {"android": "https://dc.lft.to/lastmile_qr_scan", "ios": "https://dc.lft.to/lastmile_qr_scan"}, "name": "13f0f34ce78ab2acfe254a0daee36019", "is_reserved": 0}, {"is_disabled": 0, "fusion_lon": 0.0, "fusion_lat": 0.0, "lat": 38.905544166666665, "type": "electric_scooter", "lon": -77.04664433333333, "bike_id": "b866450acd4184892178d4d680a007b9", "rental_uris": {"android": "https://dc.lft.to/lastmile_qr_scan", "ios": "https://dc.lft.to/lastmile_qr_scan"}, "name": "b866450acd4184892178d4d680a007b9", "is_reserved": 0}, {"is_disabled": 0, "fusion_lon": 0.0, "fusion_lat": 0.0, "lat": 38.863339833333335, "type": "electric_bike", "lon": -76.98710866666667, "bike_id": "f1ad12ca7858b689152d021a81f25b16", "rental_uris": {"android": "https://dc.lft.to/lastmile_qr_scan", "ios": "https://dc.lft.to/lastmile_qr_scan"}, "name": "f1ad12ca7858b689152d021a81f25b16", "is_reserved": 0}, {"is_disabled": 0, "fusion_lon": 0.0, "fusion_lat": 0.0, "lat": 38.90762, "type": "electric_scooter", "lon": -76.9965125, "bike_id": "75334f9934fc20d5b9ac27073cf4625f", "rental_uris": {"android": "https://dc.lft.to/lastmile_qr_scan", "ios": "https://dc.lft.to/lastmile_qr_scan"}, "name": "75334f9934fc20d5b9ac27073cf4625f", "is_reserved": 0}, {"is_disabled": 0, "fusion_lon": 0.0, "fusion_lat": 0.0, "lat": 38.9166595, "type": "electric_scooter", "lon": -77.0385235, "bike_id": "2923384205168e5b81152a53056f5960", "rental_uris": {"android": "https://dc.lft.to/lastmile_qr_scan", "ios": "https://dc.lft.to/lastmile_qr_scan"}, "name": "2923384205168e5b81152a53056f5960", "is_reserved": 0}, {"is_disabled": 0, "fusion_lon": 0.0, "fusion_lat": 0.0, "lat": 38.9364575, "type": "electric_scooter", "lon": -77.02084283333333, "bike_id": "2a6c446e7bf8552fe84b4f03a5ef66db", "rental_uris": {"android": "https://dc.lft.to/lastmile_qr_scan", "ios": "https://dc.lft.to/lastmile_qr_scan"}, "name": "2a6c446e7bf8552fe84b4f03a5ef66db", "is_reserved": 0}, {"is_disabled": 0, "fusion_lon": 0.0, "fusion_lat": 0.0, "lat": 38.92966166666667, "type": "electric_scooter", "lon": -77.05492066666666, "bike_id": "315c9e724497b3ff93968e3a6c495995", "rental_uris": {"android": "https://dc.lft.to/lastmile_qr_scan", "ios": "https://dc.lft.to/lastmile_qr_scan"}, "name": "315c9e724497b3ff93968e3a6c495995", "is_reserved": 0}, {"is_disabled": 0, "fusion_lon": 0.0, "fusion_lat": 0.0, "lat": 38.90587216666667, "type": "electric_scooter", "lon": -77.0582265, "bike_id": "34734a06be6bdcc6c3ecd8b788e8a405", "rental_uris": {"android": "https://dc.lft.to/lastmile_qr_scan", "ios": "https://dc.lft.to/lastmile_qr_scan"}, "name": "34734a06be6bdcc6c3ecd8b788e8a405", "is_reserved": 0}, {"is_disabled": 0, "fusion_lon": 0.0, "fusion_lat": 0.0, "lat": 38.90937133333333, "type": "electric_scooter", "lon": -77.02812183333333, "bike_id": "29cb33f9966b4e5df530b2f375d79d8d", "rental_uris": {"android": "https://dc.lft.to/lastmile_qr_scan", "ios": "https://dc.lft.to/lastmile_qr_scan"}, "name": "29cb33f9966b4e5df530b2f375d79d8d", "is_reserved": 0}, {"is_disabled": 0, "fusion_lon": 0.0, "fusion_lat": 0.0, "lat": 38.8891965, "type": "electric_scooter", "lon": -76.98006933333333, "bike_id": "6598253da7b946d11fa460c9bd7a762c", "rental_uris": {"android": "https://dc.lft.to/lastmile_qr_scan", "ios": "https://dc.lft.to/lastmile_qr_scan"}, "name": "6598253da7b946d11fa460c9bd7a762c", "is_reserved": 0}, {"is_disabled": 0, "fusion_lon": 0.0, "fusion_lat": 0.0, "lat": 38.917078333333336, "type": "electric_scooter", "lon": -77.02483233333334, "bike_id": "a4136001aa084f70aff5782018c156c5", "rental_uris": {"android": "https://dc.lft.to/lastmile_qr_scan", "ios": "https://dc.lft.to/lastmile_qr_scan"}, "name": "a4136001aa084f70aff5782018c156c5", "is_reserved": 0}, {"is_disabled": 0, "fusion_lon": 0.0, "fusion_lat": 0.0, "lat": 38.9042655, "type": "electric_scooter", "lon": -77.06884166666667, "bike_id": "2a3f3dffe6dca6cdab53812d88ab87ef", "rental_uris": {"android": "https://dc.lft.to/lastmile_qr_scan", "ios": "https://dc.lft.to/lastmile_qr_scan"}, "name": "2a3f3dffe6dca6cdab53812d88ab87ef", "is_reserved": 0}, {"is_disabled": 0, "fusion_lon": 0.0, "fusion_lat": 0.0, "lat": 38.905952, "type": "electric_scooter", "lon": -77.06913216666666, "bike_id": "4e7c876da7f6e6b9ee0e702b91824683", "rental_uris": {"android": "https://dc.lft.to/lastmile_qr_scan", "ios": "https://dc.lft.to/lastmile_qr_scan"}, "name": "4e7c876da7f6e6b9ee0e702b91824683", "is_reserved": 0}, {"is_disabled": 0, "fusion_lon": 0.0, "fusion_lat": 0.0, "lat": 38.915685, "type": "electric_scooter", "lon": -77.00211383333334, "bike_id": "714b8962ed724573bf8364b931c8e41c", "rental_uris": {"android": "https://dc.lft.to/lastmile_qr_scan", "ios": "https://dc.lft.to/lastmile_qr_scan"}, "name": "714b8962ed724573bf8364b931c8e41c", "is_reserved": 0}, {"is_disabled": 0, "fusion_lon": 0.0, "fusion_lat": 0.0, "lat": 38.90799633333334, "type": "electric_scooter", "lon": -77.00147116666666, "bike_id": "f5abbbc8179cc52896bfa99ba762b3d6", "rental_uris": {"android": "https://dc.lft.to/lastmile_qr_scan", "ios": "https://dc.lft.to/lastmile_qr_scan"}, "name": "f5abbbc8179cc52896bfa99ba762b3d6", "is_reserved": 0}, {"is_disabled": 0, "fusion_lon": 0.0, "fusion_lat": 0.0, "lat": 38.90533083333333, "type": "electric_scooter", "lon": -77.04884433333334, "bike_id": "7bdc65c7bacd0d1796ad7fdc929521b9", "rental_uris": {"android": "https://dc.lft.to/lastmile_qr_scan", "ios": "https://dc.lft.to/lastmile_qr_scan"}, "name": "7bdc65c7bacd0d1796ad7fdc929521b9", "is_reserved": 0}, {"is_disabled": 0, "fusion_lon": 0.0, "fusion_lat": 0.0, "lat": 38.871966666666665, "type": "electric_scooter", "lon": -76.97824366666667, "bike_id": "ef142dbc87f3a53992a38038acee9551", "rental_uris": {"android": "https://dc.lft.to/lastmile_qr_scan", "ios": "https://dc.lft.to/lastmile_qr_scan"}, "name": "ef142dbc87f3a53992a38038acee9551", "is_reserved": 0}, {"is_disabled": 0, "fusion_lon": 0.0, "fusion_lat": 0.0, "lat": 38.9157325, "type": "electric_scooter", "lon": -77.031868, "bike_id": "0f1bff069bf95a8207b692672064d063", "rental_uris": {"android": "https://dc.lft.to/lastmile_qr_scan", "ios": "https://dc.lft.to/lastmile_qr_scan"}, "name": "0f1bff069bf95a8207b692672064d063", "is_reserved": 0}, {"is_disabled": 0, "fusion_lon": 0.0, "fusion_lat": 0.0, "lat": 38.918359333333335, "type": "electric_scooter", "lon": -77.04515666666667, "bike_id": "a75f9015db731e1fbd41c084d216482f", "rental_uris": {"android": "https://dc.lft.to/lastmile_qr_scan", "ios": "https://dc.lft.to/lastmile_qr_scan"}, "name": "a75f9015db731e1fbd41c084d216482f", "is_reserved": 0}, {"is_disabled": 0, "fusion_lon": 0.0, "fusion_lat": 0.0, "lat": 38.903611166666664, "type": "electric_scooter", "lon": -77.040095, "bike_id": "63e77b855a26601cf684f985dc2bcd9e", "rental_uris": {"android": "https://dc.lft.to/lastmile_qr_scan", "ios": "https://dc.lft.to/lastmile_qr_scan"}, "name": "63e77b855a26601cf684f985dc2bcd9e", "is_reserved": 0}, {"is_disabled": 0, "fusion_lon": 0.0, "fusion_lat": 0.0, "lat": 38.924403, "type": "electric_bike", "lon": -76.90758283333334, "bike_id": "68ec2f5422eccc8a728cda9b67974467", "rental_uris": {"android": "https://dc.lft.to/lastmile_qr_scan", "ios": "https://dc.lft.to/lastmile_qr_scan"}, "name": "68ec2f5422eccc8a728cda9b67974467", "is_reserved": 0}, {"is_disabled": 0, "fusion_lon": 0.0, "fusion_lat": 0.0, "lat": 38.96192, "type": "electric_scooter", "lon": -77.0277865, "bike_id": "2c5d9d451e37cef2aad762dfd2dc9d9d", "rental_uris": {"android": "https://dc.lft.to/lastmile_qr_scan", "ios": "https://dc.lft.to/lastmile_qr_scan"}, "name": "2c5d9d451e37cef2aad762dfd2dc9d9d", "is_reserved": 0}, {"is_disabled": 0, "fusion_lon": 0.0, "fusion_lat": 0.0, "lat": 38.885044666666666, "type": "electric_scooter", "lon": -77.00328383333333, "bike_id": "2defa958f52431b9bf494cb081d6f0c8", "rental_uris": {"android": "https://dc.lft.to/lastmile_qr_scan", "ios": "https://dc.lft.to/lastmile_qr_scan"}, "name": "2defa958f52431b9bf494cb081d6f0c8", "is_reserved": 0}, {"is_disabled": 0, "fusion_lon": 0.0, "fusion_lat": 0.0, "lat": 38.9594805, "type": "electric_scooter", "lon": -77.07229166666667, "bike_id": "2a1b9f5f63c37028b36ef5bbbc2db5c2", "rental_uris": {"android": "https://dc.lft.to/lastmile_qr_scan", "ios": "https://dc.lft.to/lastmile_qr_scan"}, "name": "2a1b9f5f63c37028b36ef5bbbc2db5c2", "is_reserved": 0}, {"is_disabled": 0, "fusion_lon": 0.0, "fusion_lat": 0.0, "lat": 38.889654, "type": "electric_scooter", "lon": -76.92735916666666, "bike_id": "86f9c7bd519a37119cc9c7dc49ed1b71", "rental_uris": {"android": "https://dc.lft.to/lastmile_qr_scan", "ios": "https://dc.lft.to/lastmile_qr_scan"}, "name": "86f9c7bd519a37119cc9c7dc49ed1b71", "is_reserved": 0}, {"is_disabled": 0, "fusion_lon": 0.0, "fusion_lat": 0.0, "lat": 38.88084816666667, "type": "electric_scooter", "lon": -77.02594733333333, "bike_id": "d57fdda5e57e6ad61c13bd050d53eebd", "rental_uris": {"android": "https://dc.lft.to/lastmile_qr_scan", "ios": "https://dc.lft.to/lastmile_qr_scan"}, "name": "d57fdda5e57e6ad61c13bd050d53eebd", "is_reserved": 0}, {"is_disabled": 0, "fusion_lon": 0.0, "fusion_lat": 0.0, "lat": 38.9198615, "type": "electric_scooter", "lon": -77.02497866666667, "bike_id": "899377cae93b1176a9b0c3abb4342f4a", "rental_uris": {"android": "https://dc.lft.to/lastmile_qr_scan", "ios": "https://dc.lft.to/lastmile_qr_scan"}, "name": "899377cae93b1176a9b0c3abb4342f4a", "is_reserved": 0}, {"is_disabled": 0, "fusion_lon": 0.0, "fusion_lat": 0.0, "lat": 38.845160166666666, "type": "electric_scooter", "lon": -76.98788866666666, "bike_id": "543d7ac3d57dfd8ce84ae925484e8f29", "rental_uris": {"android": "https://dc.lft.to/lastmile_qr_scan", "ios": "https://dc.lft.to/lastmile_qr_scan"}, "name": "543d7ac3d57dfd8ce84ae925484e8f29", "is_reserved": 0}, {"is_disabled": 0, "fusion_lon": 0.0, "fusion_lat": 0.0, "lat": 38.887224333333336, "type": "electric_scooter", "lon": -77.02203133333333, "bike_id": "f18404d91d30c260f0c141d056a43d0f", "rental_uris": {"android": "https://dc.lft.to/lastmile_qr_scan", "ios": "https://dc.lft.to/lastmile_qr_scan"}, "name": "f18404d91d30c260f0c141d056a43d0f", "is_reserved": 0}, {"is_disabled": 0, "fusion_lon": 0.0, "fusion_lat": 0.0, "lat": 38.90049116666667, "type": "electric_scooter", "lon": -77.01287066666667, "bike_id": "2569039eaebe4dbf3c21ccb5989a22f0", "rental_uris": {"android": "https://dc.lft.to/lastmile_qr_scan", "ios": "https://dc.lft.to/lastmile_qr_scan"}, "name": "2569039eaebe4dbf3c21ccb5989a22f0", "is_reserved": 0}, {"is_disabled": 0, "fusion_lon": 0.0, "fusion_lat": 0.0, "lat": 38.897474833333334, "type": "electric_scooter", "lon": -77.02383683333333, "bike_id": "b2dffdfdfa0169ab9e4a0cfbee9ef9f5", "rental_uris": {"android": "https://dc.lft.to/lastmile_qr_scan", "ios": "https://dc.lft.to/lastmile_qr_scan"}, "name": "b2dffdfdfa0169ab9e4a0cfbee9ef9f5", "is_reserved": 0}, {"is_disabled": 0, "fusion_lon": 0.0, "fusion_lat": 0.0, "lat": 38.91898416666667, "type": "electric_scooter", "lon": -77.07109216666667, "bike_id": "288b95c39d70e522c60f453dece5a3dc", "rental_uris": {"android": "https://dc.lft.to/lastmile_qr_scan", "ios": "https://dc.lft.to/lastmile_qr_scan"}, "name": "288b95c39d70e522c60f453dece5a3dc", "is_reserved": 0}, {"is_disabled": 0, "fusion_lon": 0.0, "fusion_lat": 0.0, "lat": 38.92353716666667, "type": "electric_scooter", "lon": -77.04149966666667, "bike_id": "af3ac812141848e207453f9c251fd72a", "rental_uris": {"android": "https://dc.lft.to/lastmile_qr_scan", "ios": "https://dc.lft.to/lastmile_qr_scan"}, "name": "af3ac812141848e207453f9c251fd72a", "is_reserved": 0}, {"is_disabled": 0, "fusion_lon": 0.0, "fusion_lat": 0.0, "lat": 38.869551666666666, "type": "electric_scooter", "lon": -76.96031033333334, "bike_id": "450692531e439cd304987ccce9cdb661", "rental_uris": {"android": "https://dc.lft.to/lastmile_qr_scan", "ios": "https://dc.lft.to/lastmile_qr_scan"}, "name": "450692531e439cd304987ccce9cdb661", "is_reserved": 0}, {"is_disabled": 0, "fusion_lon": 0.0, "fusion_lat": 0.0, "lat": 38.934365, "type": "electric_scooter", "lon": -77.0724935, "bike_id": "eb65c663f672fda672438b1d9754eaac", "rental_uris": {"android": "https://dc.lft.to/lastmile_qr_scan", "ios": "https://dc.lft.to/lastmile_qr_scan"}, "name": "eb65c663f672fda672438b1d9754eaac", "is_reserved": 0}, {"is_disabled": 0, "fusion_lon": 0.0, "fusion_lat": 0.0, "lat": 38.9127235, "type": "electric_scooter", "lon": -77.04284733333333, "bike_id": "0c07aa5c94235e6d28e783246aa1af91", "rental_uris": {"android": "https://dc.lft.to/lastmile_qr_scan", "ios": "https://dc.lft.to/lastmile_qr_scan"}, "name": "0c07aa5c94235e6d28e783246aa1af91", "is_reserved": 0}, {"is_disabled": 0, "fusion_lon": 0.0, "fusion_lat": 0.0, "lat": 38.896712666666666, "type": "electric_scooter", "lon": -76.982486, "bike_id": "af470d9c3cd495860af9aa85e81163ff", "rental_uris": {"android": "https://dc.lft.to/lastmile_qr_scan", "ios": "https://dc.lft.to/lastmile_qr_scan"}, "name": "af470d9c3cd495860af9aa85e81163ff", "is_reserved": 0}, {"is_disabled": 0, "fusion_lon": 0.0, "fusion_lat": 0.0, "lat": 38.928299833333334, "type": "electric_scooter", "lon": -77.0543975, "bike_id": "ddcd80bfb834b62d0093fa5a7b9256f7", "rental_uris": {"android": "https://dc.lft.to/lastmile_qr_scan", "ios": "https://dc.lft.to/lastmile_qr_scan"}, "name": "ddcd80bfb834b62d0093fa5a7b9256f7", "is_reserved": 0}, {"is_disabled": 0, "fusion_lon": 0.0, "fusion_lat": 0.0, "lat": 38.915638666666666, "type": "electric_scooter", "lon": -77.032482, "bike_id": "402f73f7035f3e0b10a9c782df19514b", "rental_uris": {"android": "https://dc.lft.to/lastmile_qr_scan", "ios": "https://dc.lft.to/lastmile_qr_scan"}, "name": "402f73f7035f3e0b10a9c782df19514b", "is_reserved": 0}, {"is_disabled": 0, "fusion_lon": 0.0, "fusion_lat": 0.0, "lat": 38.94305466666667, "type": "electric_scooter", "lon": -77.02763233333333, "bike_id": "d7a6229d943df25a4658aaea7f5368e4", "rental_uris": {"android": "https://dc.lft.to/lastmile_qr_scan", "ios": "https://dc.lft.to/lastmile_qr_scan"}, "name": "d7a6229d943df25a4658aaea7f5368e4", "is_reserved": 0}, {"is_disabled": 0, "fusion_lon": 0.0, "fusion_lat": 0.0, "lat": 38.919409333333334, "type": "electric_bike", "lon": -76.975003, "bike_id": "1f91b5a66042e088a2e914bbfd794079", "rental_uris": {"android": "https://dc.lft.to/lastmile_qr_scan", "ios": "https://dc.lft.to/lastmile_qr_scan"}, "name": "1f91b5a66042e088a2e914bbfd794079", "is_reserved": 0}, {"is_disabled": 0, "fusion_lon": 0.0, "fusion_lat": 0.0, "lat": 38.92083183333333, "type": "electric_scooter", "lon": -77.04107816666667, "bike_id": "7d3d35b737d17f27cf4515604dc56f3a", "rental_uris": {"android": "https://dc.lft.to/lastmile_qr_scan", "ios": "https://dc.lft.to/lastmile_qr_scan"}, "name": "7d3d35b737d17f27cf4515604dc56f3a", "is_reserved": 0}, {"is_disabled": 0, "fusion_lon": 0.0, "fusion_lat": 0.0, "lat": 38.922601666666665, "type": "electric_bike", "lon": -77.00046233333333, "bike_id": "9761f96b508c5fbf47046c1cab715487", "rental_uris": {"android": "https://dc.lft.to/lastmile_qr_scan", "ios": "https://dc.lft.to/lastmile_qr_scan"}, "name": "9761f96b508c5fbf47046c1cab715487", "is_reserved": 0}, {"is_disabled": 0, "fusion_lon": 0.0, "fusion_lat": 0.0, "lat": 38.8461805, "type": "electric_scooter", "lon": -76.9963, "bike_id": "e9c5f0aa22ff81dc33a0c4862b20dd5a", "rental_uris": {"android": "https://dc.lft.to/lastmile_qr_scan", "ios": "https://dc.lft.to/lastmile_qr_scan"}, "name": "e9c5f0aa22ff81dc33a0c4862b20dd5a", "is_reserved": 0}, {"is_disabled": 0, "fusion_lon": 0.0, "fusion_lat": 0.0, "lat": 38.86526083333333, "type": "electric_scooter", "lon": -76.9896755, "bike_id": "9d2ab76820a338bee358a50d2378eb64", "rental_uris": {"android": "https://dc.lft.to/lastmile_qr_scan", "ios": "https://dc.lft.to/lastmile_qr_scan"}, "name": "9d2ab76820a338bee358a50d2378eb64", "is_reserved": 0}, {"is_disabled": 0, "fusion_lon": 0.0, "fusion_lat": 0.0, "lat": 38.96015533333333, "type": "electric_scooter", "lon": -77.033118, "bike_id": "0ae73b3be9bc30970175fac7777e9385", "rental_uris": {"android": "https://dc.lft.to/lastmile_qr_scan", "ios": "https://dc.lft.to/lastmile_qr_scan"}, "name": "0ae73b3be9bc30970175fac7777e9385", "is_reserved": 0}, {"is_disabled": 0, "fusion_lon": 0.0, "fusion_lat": 0.0, "lat": 38.90335483333333, "type": "electric_scooter", "lon": -76.98014133333334, "bike_id": "40f503d9953c0c21667bd500957aa93f", "rental_uris": {"android": "https://dc.lft.to/lastmile_qr_scan", "ios": "https://dc.lft.to/lastmile_qr_scan"}, "name": "40f503d9953c0c21667bd500957aa93f", "is_reserved": 0}, {"is_disabled": 0, "fusion_lon": 0.0, "fusion_lat": 0.0, "lat": 38.8924565, "type": "electric_scooter", "lon": -77.03955516666667, "bike_id": "a567d83db30f80903a36f11c945aeef4", "rental_uris": {"android": "https://dc.lft.to/lastmile_qr_scan", "ios": "https://dc.lft.to/lastmile_qr_scan"}, "name": "a567d83db30f80903a36f11c945aeef4", "is_reserved": 0}, {"is_disabled": 0, "fusion_lon": 0.0, "fusion_lat": 0.0, "lat": 38.9223425, "type": "electric_scooter", "lon": -77.02331733333334, "bike_id": "188b56b3b0e5ce9596691f907cb557b3", "rental_uris": {"android": "https://dc.lft.to/lastmile_qr_scan", "ios": "https://dc.lft.to/lastmile_qr_scan"}, "name": "188b56b3b0e5ce9596691f907cb557b3", "is_reserved": 0}, {"is_disabled": 0, "fusion_lon": 0.0, "fusion_lat": 0.0, "lat": 38.92263066666667, "type": "electric_scooter", "lon": -77.0712905, "bike_id": "863fb4b3e94b6d44221d926572dc3372", "rental_uris": {"android": "https://dc.lft.to/lastmile_qr_scan", "ios": "https://dc.lft.to/lastmile_qr_scan"}, "name": "863fb4b3e94b6d44221d926572dc3372", "is_reserved": 0}, {"is_disabled": 0, "fusion_lon": 0.0, "fusion_lat": 0.0, "lat": 38.898269166666665, "type": "electric_scooter", "lon": -77.029208, "bike_id": "a78c21be772682284b80656f9ac7cada", "rental_uris": {"android": "https://dc.lft.to/lastmile_qr_scan", "ios": "https://dc.lft.to/lastmile_qr_scan"}, "name": "a78c21be772682284b80656f9ac7cada", "is_reserved": 0}, {"is_disabled": 0, "fusion_lon": 0.0, "fusion_lat": 0.0, "lat": 38.9077925, "type": "electric_scooter", "lon": -76.94126483333334, "bike_id": "1801384b33ee711d1eb283f246b2ba59", "rental_uris": {"android": "https://dc.lft.to/lastmile_qr_scan", "ios": "https://dc.lft.to/lastmile_qr_scan"}, "name": "1801384b33ee711d1eb283f246b2ba59", "is_reserved": 0}, {"is_disabled": 0, "fusion_lon": 0.0, "fusion_lat": 0.0, "lat": 38.9148645, "type": "electric_scooter", "lon": -77.04284316666667, "bike_id": "0c0de1bcb0d3cff36a7c09c688639548", "rental_uris": {"android": "https://dc.lft.to/lastmile_qr_scan", "ios": "https://dc.lft.to/lastmile_qr_scan"}, "name": "0c0de1bcb0d3cff36a7c09c688639548", "is_reserved": 0}, {"is_disabled": 0, "fusion_lon": 0.0, "fusion_lat": 0.0, "lat": 38.91463266666667, "type": "electric_scooter", "lon": -77.01430783333333, "bike_id": "c370f7bb487b0402142c3ea34f023759", "rental_uris": {"android": "https://dc.lft.to/lastmile_qr_scan", "ios": "https://dc.lft.to/lastmile_qr_scan"}, "name": "c370f7bb487b0402142c3ea34f023759", "is_reserved": 0}, {"is_disabled": 0, "fusion_lon": 0.0, "fusion_lat": 0.0, "lat": 38.902086833333335, "type": "electric_scooter", "lon": -76.98245766666666, "bike_id": "62f24bfe05b1add5b3bb1af2632d7cd2", "rental_uris": {"android": "https://dc.lft.to/lastmile_qr_scan", "ios": "https://dc.lft.to/lastmile_qr_scan"}, "name": "62f24bfe05b1add5b3bb1af2632d7cd2", "is_reserved": 0}, {"is_disabled": 0, "fusion_lon": 0.0, "fusion_lat": 0.0, "lat": 38.91429333333333, "type": "electric_scooter", "lon": -77.02815133333333, "bike_id": "0740bfed269b1483d2cd64acb7ccae37", "rental_uris": {"android": "https://dc.lft.to/lastmile_qr_scan", "ios": "https://dc.lft.to/lastmile_qr_scan"}, "name": "0740bfed269b1483d2cd64acb7ccae37", "is_reserved": 0}, {"is_disabled": 0, "fusion_lon": 0.0, "fusion_lat": 0.0, "lat": 38.94542783333333, "type": "electric_scooter", "lon": -77.02534366666667, "bike_id": "9c6aed0dee944109e6d8eeb71b923b03", "rental_uris": {"android": "https://dc.lft.to/lastmile_qr_scan", "ios": "https://dc.lft.to/lastmile_qr_scan"}, "name": "9c6aed0dee944109e6d8eeb71b923b03", "is_reserved": 0}, {"is_disabled": 0, "fusion_lon": 0.0, "fusion_lat": 0.0, "lat": 38.92532083333333, "type": "electric_scooter", "lon": -77.07323883333333, "bike_id": "d037a62273972d137aa3c7fb9f805109", "rental_uris": {"android": "https://dc.lft.to/lastmile_qr_scan", "ios": "https://dc.lft.to/lastmile_qr_scan"}, "name": "d037a62273972d137aa3c7fb9f805109", "is_reserved": 0}, {"is_disabled": 0, "fusion_lon": 0.0, "fusion_lat": 0.0, "lat": 38.934614833333335, "type": "electric_scooter", "lon": -77.03054583333333, "bike_id": "2fd1087cf66cfffcdfc9ecc039f7d2b5", "rental_uris": {"android": "https://dc.lft.to/lastmile_qr_scan", "ios": "https://dc.lft.to/lastmile_qr_scan"}, "name": "2fd1087cf66cfffcdfc9ecc039f7d2b5", "is_reserved": 0}, {"is_disabled": 0, "fusion_lon": 0.0, "fusion_lat": 0.0, "lat": 38.92912166666667, "type": "electric_scooter", "lon": -77.0318185, "bike_id": "58d3355925e09e852a67e35669b40c17", "rental_uris": {"android": "https://dc.lft.to/lastmile_qr_scan", "ios": "https://dc.lft.to/lastmile_qr_scan"}, "name": "58d3355925e09e852a67e35669b40c17", "is_reserved": 0}, {"is_disabled": 0, "fusion_lon": 0.0, "fusion_lat": 0.0, "lat": 38.912582, "type": "electric_scooter", "lon": -77.038947, "bike_id": "b78ebaf426afebe9d82ccfa5744ea5c4", "rental_uris": {"android": "https://dc.lft.to/lastmile_qr_scan", "ios": "https://dc.lft.to/lastmile_qr_scan"}, "name": "b78ebaf426afebe9d82ccfa5744ea5c4", "is_reserved": 0}, {"is_disabled": 0, "fusion_lon": 0.0, "fusion_lat": 0.0, "lat": 38.867003, "type": "electric_scooter", "lon": -76.987104, "bike_id": "db531b893578a19122fac40705b4edd7", "rental_uris": {"android": "https://dc.lft.to/lastmile_qr_scan", "ios": "https://dc.lft.to/lastmile_qr_scan"}, "name": "db531b893578a19122fac40705b4edd7", "is_reserved": 0}, {"is_disabled": 0, "fusion_lon": 0.0, "fusion_lat": 0.0, "lat": 38.952862833333334, "type": "electric_scooter", "lon": -77.06852283333333, "bike_id": "5ccc579c48767e87edffe31b00f1880c", "rental_uris": {"android": "https://dc.lft.to/lastmile_qr_scan", "ios": "https://dc.lft.to/lastmile_qr_scan"}, "name": "5ccc579c48767e87edffe31b00f1880c", "is_reserved": 0}, {"is_disabled": 0, "fusion_lon": 0.0, "fusion_lat": 0.0, "lat": 38.894857, "type": "electric_scooter", "lon": -77.02197733333334, "bike_id": "519ab4e47b74700fab780f6ff647c132", "rental_uris": {"android": "https://dc.lft.to/lastmile_qr_scan", "ios": "https://dc.lft.to/lastmile_qr_scan"}, "name": "519ab4e47b74700fab780f6ff647c132", "is_reserved": 0}, {"is_disabled": 0, "fusion_lon": 0.0, "fusion_lat": 0.0, "lat": 38.90555966666667, "type": "electric_scooter", "lon": -77.04339933333333, "bike_id": "a76937ac45e2ea7b92b7f97b7258f0c6", "rental_uris": {"android": "https://dc.lft.to/lastmile_qr_scan", "ios": "https://dc.lft.to/lastmile_qr_scan"}, "name": "a76937ac45e2ea7b92b7f97b7258f0c6", "is_reserved": 0}, {"is_disabled": 0, "fusion_lon": 0.0, "fusion_lat": 0.0, "lat": 38.897820833333334, "type": "electric_scooter", "lon": -77.024803, "bike_id": "cec8306b26d74b359e8dcf61c4365999", "rental_uris": {"android": "https://dc.lft.to/lastmile_qr_scan", "ios": "https://dc.lft.to/lastmile_qr_scan"}, "name": "cec8306b26d74b359e8dcf61c4365999", "is_reserved": 0}, {"is_disabled": 0, "fusion_lon": 0.0, "fusion_lat": 0.0, "lat": 38.89624233333333, "type": "electric_scooter", "lon": -77.02589066666667, "bike_id": "8e3f061e5358a66e0231b20c6b7712d8", "rental_uris": {"android": "https://dc.lft.to/lastmile_qr_scan", "ios": "https://dc.lft.to/lastmile_qr_scan"}, "name": "8e3f061e5358a66e0231b20c6b7712d8", "is_reserved": 0}, {"is_disabled": 0, "fusion_lon": 0.0, "fusion_lat": 0.0, "lat": 38.91708416666667, "type": "electric_scooter", "lon": -77.03763833333333, "bike_id": "0960f85dffe169935bcb9291b90ff23a", "rental_uris": {"android": "https://dc.lft.to/lastmile_qr_scan", "ios": "https://dc.lft.to/lastmile_qr_scan"}, "name": "0960f85dffe169935bcb9291b90ff23a", "is_reserved": 0}, {"is_disabled": 0, "fusion_lon": 0.0, "fusion_lat": 0.0, "lat": 38.9408845, "type": "electric_scooter", "lon": -77.03815416666667, "bike_id": "be4af1ab4d0790fbeb4da839d4a536f3", "rental_uris": {"android": "https://dc.lft.to/lastmile_qr_scan", "ios": "https://dc.lft.to/lastmile_qr_scan"}, "name": "be4af1ab4d0790fbeb4da839d4a536f3", "is_reserved": 0}, {"is_disabled": 0, "fusion_lon": 0.0, "fusion_lat": 0.0, "lat": 38.88030933333334, "type": "electric_scooter", "lon": -76.99503616666667, "bike_id": "e509c739b42104a89f39d37fb7bc3c1e", "rental_uris": {"android": "https://dc.lft.to/lastmile_qr_scan", "ios": "https://dc.lft.to/lastmile_qr_scan"}, "name": "e509c739b42104a89f39d37fb7bc3c1e", "is_reserved": 0}, {"is_disabled": 0, "fusion_lon": 0.0, "fusion_lat": 0.0, "lat": 38.97170116666667, "type": "electric_bike", "lon": -76.980233, "bike_id": "16cfbbefe4945b1ebc4502d7543b9840", "rental_uris": {"android": "https://dc.lft.to/lastmile_qr_scan", "ios": "https://dc.lft.to/lastmile_qr_scan"}, "name": "16cfbbefe4945b1ebc4502d7543b9840", "is_reserved": 0}, {"is_disabled": 0, "fusion_lon": 0.0, "fusion_lat": 0.0, "lat": 38.93878, "type": "electric_scooter", "lon": -77.02848233333333, "bike_id": "727ea5c437f9399049dd93e445411edf", "rental_uris": {"android": "https://dc.lft.to/lastmile_qr_scan", "ios": "https://dc.lft.to/lastmile_qr_scan"}, "name": "727ea5c437f9399049dd93e445411edf", "is_reserved": 0}, {"is_disabled": 0, "fusion_lon": 0.0, "fusion_lat": 0.0, "lat": 38.96806683333333, "type": "electric_scooter", "lon": -77.021239, "bike_id": "7f026fdc5d4cc740ac231dee893311b9", "rental_uris": {"android": "https://dc.lft.to/lastmile_qr_scan", "ios": "https://dc.lft.to/lastmile_qr_scan"}, "name": "7f026fdc5d4cc740ac231dee893311b9", "is_reserved": 0}, {"is_disabled": 0, "fusion_lon": 0.0, "fusion_lat": 0.0, "lat": 38.916386333333335, "type": "electric_scooter", "lon": -77.02695116666666, "bike_id": "d88b03ea411859f5fb333e710009ed05", "rental_uris": {"android": "https://dc.lft.to/lastmile_qr_scan", "ios": "https://dc.lft.to/lastmile_qr_scan"}, "name": "d88b03ea411859f5fb333e710009ed05", "is_reserved": 0}, {"is_disabled": 0, "fusion_lon": 0.0, "fusion_lat": 0.0, "lat": 38.95418883333333, "type": "electric_scooter", "lon": -77.021744, "bike_id": "b1c39180ebf60a2c88337d6453a3f052", "rental_uris": {"android": "https://dc.lft.to/lastmile_qr_scan", "ios": "https://dc.lft.to/lastmile_qr_scan"}, "name": "b1c39180ebf60a2c88337d6453a3f052", "is_reserved": 0}, {"is_disabled": 0, "fusion_lon": 0.0, "fusion_lat": 0.0, "lat": 38.88020233333334, "type": "electric_scooter", "lon": -76.982389, "bike_id": "a9ffa8218dc61dd3cb7a0fda34e00ed3", "rental_uris": {"android": "https://dc.lft.to/lastmile_qr_scan", "ios": "https://dc.lft.to/lastmile_qr_scan"}, "name": "a9ffa8218dc61dd3cb7a0fda34e00ed3", "is_reserved": 0}, {"is_disabled": 0, "fusion_lon": 0.0, "fusion_lat": 0.0, "lat": 38.912788, "type": "electric_scooter", "lon": -77.04732716666666, "bike_id": "de5d0d208784e48999c54731d299f01a", "rental_uris": {"android": "https://dc.lft.to/lastmile_qr_scan", "ios": "https://dc.lft.to/lastmile_qr_scan"}, "name": "de5d0d208784e48999c54731d299f01a", "is_reserved": 0}, {"is_disabled": 0, "fusion_lon": 0.0, "fusion_lat": 0.0, "lat": 38.907199166666665, "type": "electric_scooter", "lon": -77.02541833333333, "bike_id": "d5a72ea60091bc475cf86b985aade6ad", "rental_uris": {"android": "https://dc.lft.to/lastmile_qr_scan", "ios": "https://dc.lft.to/lastmile_qr_scan"}, "name": "d5a72ea60091bc475cf86b985aade6ad", "is_reserved": 0}, {"is_disabled": 0, "fusion_lon": 0.0, "fusion_lat": 0.0, "lat": 38.874719, "type": "electric_scooter", "lon": -77.00522333333333, "bike_id": "c1fec1ce4a998fcdf80e39e3f368cea4", "rental_uris": {"android": "https://dc.lft.to/lastmile_qr_scan", "ios": "https://dc.lft.to/lastmile_qr_scan"}, "name": "c1fec1ce4a998fcdf80e39e3f368cea4", "is_reserved": 0}, {"is_disabled": 0, "fusion_lon": 0.0, "fusion_lat": 0.0, "lat": 38.90023216666667, "type": "electric_scooter", "lon": -77.023681, "bike_id": "bdcd6b2fa03a370453c4128157d58fbe", "rental_uris": {"android": "https://dc.lft.to/lastmile_qr_scan", "ios": "https://dc.lft.to/lastmile_qr_scan"}, "name": "bdcd6b2fa03a370453c4128157d58fbe", "is_reserved": 0}, {"is_disabled": 0, "fusion_lon": 0.0, "fusion_lat": 0.0, "lat": 38.933963166666665, "type": "electric_scooter", "lon": -77.04545866666666, "bike_id": "5dc21620fd6fea69d2ab2fd2aebd5c6d", "rental_uris": {"android": "https://dc.lft.to/lastmile_qr_scan", "ios": "https://dc.lft.to/lastmile_qr_scan"}, "name": "5dc21620fd6fea69d2ab2fd2aebd5c6d", "is_reserved": 0}, {"is_disabled": 0, "fusion_lon": 0.0, "fusion_lat": 0.0, "lat": 38.94541383333333, "type": "electric_bike", "lon": -77.34458216666667, "bike_id": "c4eb4676aa496ef6071d8433f6e7cc9d", "rental_uris": {"android": "https://dc.lft.to/lastmile_qr_scan", "ios": "https://dc.lft.to/lastmile_qr_scan"}, "name": "c4eb4676aa496ef6071d8433f6e7cc9d", "is_reserved": 0}, {"is_disabled": 0, "fusion_lon": 0.0, "fusion_lat": 0.0, "lat": 38.898601666666664, "type": "electric_scooter", "lon": -77.01992816666667, "bike_id": "75d5c31b9fe134c3245439ed64443868", "rental_uris": {"android": "https://dc.lft.to/lastmile_qr_scan", "ios": "https://dc.lft.to/lastmile_qr_scan"}, "name": "75d5c31b9fe134c3245439ed64443868", "is_reserved": 0}, {"is_disabled": 0, "fusion_lon": 0.0, "fusion_lat": 0.0, "lat": 38.90519416666667, "type": "electric_scooter", "lon": -77.05117683333333, "bike_id": "8641c328cf775f426742a6b4ea664f2c", "rental_uris": {"android": "https://dc.lft.to/lastmile_qr_scan", "ios": "https://dc.lft.to/lastmile_qr_scan"}, "name": "8641c328cf775f426742a6b4ea664f2c", "is_reserved": 0}, {"is_disabled": 0, "fusion_lon": 0.0, "fusion_lat": 0.0, "lat": 38.865852, "type": "electric_scooter", "lon": -76.9872365, "bike_id": "9706eb24abd055758c6256c854cff834", "rental_uris": {"android": "https://dc.lft.to/lastmile_qr_scan", "ios": "https://dc.lft.to/lastmile_qr_scan"}, "name": "9706eb24abd055758c6256c854cff834", "is_reserved": 0}, {"is_disabled": 0, "fusion_lon": 0.0, "fusion_lat": 0.0, "lat": 38.913394333333336, "type": "electric_scooter", "lon": -77.04536433333334, "bike_id": "d3ddc4dfcd242019dc927c48a1398952", "rental_uris": {"android": "https://dc.lft.to/lastmile_qr_scan", "ios": "https://dc.lft.to/lastmile_qr_scan"}, "name": "d3ddc4dfcd242019dc927c48a1398952", "is_reserved": 0}, {"is_disabled": 0, "fusion_lon": 0.0, "fusion_lat": 0.0, "lat": 38.87669783333333, "type": "electric_scooter", "lon": -76.9319435, "bike_id": "0ed290128b1b7f55109bef10baf4bc6e", "rental_uris": {"android": "https://dc.lft.to/lastmile_qr_scan", "ios": "https://dc.lft.to/lastmile_qr_scan"}, "name": "0ed290128b1b7f55109bef10baf4bc6e", "is_reserved": 0}, {"is_disabled": 0, "fusion_lon": 0.0, "fusion_lat": 0.0, "lat": 38.916935333333335, "type": "electric_scooter", "lon": -77.02826516666667, "bike_id": "14e15923ce91ae8f2b66aead1de4e939", "rental_uris": {"android": "https://dc.lft.to/lastmile_qr_scan", "ios": "https://dc.lft.to/lastmile_qr_scan"}, "name": "14e15923ce91ae8f2b66aead1de4e939", "is_reserved": 0}, {"is_disabled": 0, "fusion_lon": 0.0, "fusion_lat": 0.0, "lat": 38.949742666666666, "type": "electric_scooter", "lon": -77.0943965, "bike_id": "8afd649457879bf16a1d82676a53e74f", "rental_uris": {"android": "https://dc.lft.to/lastmile_qr_scan", "ios": "https://dc.lft.to/lastmile_qr_scan"}, "name": "8afd649457879bf16a1d82676a53e74f", "is_reserved": 0}, {"is_disabled": 0, "fusion_lon": 0.0, "fusion_lat": 0.0, "lat": 38.912693, "type": "electric_scooter", "lon": -77.03141566666666, "bike_id": "98d2f8d87ea6c5d3fcd01e942b7954c5", "rental_uris": {"android": "https://dc.lft.to/lastmile_qr_scan", "ios": "https://dc.lft.to/lastmile_qr_scan"}, "name": "98d2f8d87ea6c5d3fcd01e942b7954c5", "is_reserved": 0}, {"is_disabled": 0, "fusion_lon": 0.0, "fusion_lat": 0.0, "lat": 38.9260435, "type": "electric_scooter", "lon": -77.0215575, "bike_id": "35e69ff780fc35b03d3a747c412a26cb", "rental_uris": {"android": "https://dc.lft.to/lastmile_qr_scan", "ios": "https://dc.lft.to/lastmile_qr_scan"}, "name": "35e69ff780fc35b03d3a747c412a26cb", "is_reserved": 0}, {"is_disabled": 0, "fusion_lon": 0.0, "fusion_lat": 0.0, "lat": 38.859170666666664, "type": "electric_scooter", "lon": -76.9878155, "bike_id": "36d8c70d20bf98a33219140ce0c534b3", "rental_uris": {"android": "https://dc.lft.to/lastmile_qr_scan", "ios": "https://dc.lft.to/lastmile_qr_scan"}, "name": "36d8c70d20bf98a33219140ce0c534b3", "is_reserved": 0}, {"is_disabled": 0, "fusion_lon": 0.0, "fusion_lat": 0.0, "lat": 38.8723525, "type": "electric_scooter", "lon": -77.005755, "bike_id": "6603e01d34a55de522efe80cb173396d", "rental_uris": {"android": "https://dc.lft.to/lastmile_qr_scan", "ios": "https://dc.lft.to/lastmile_qr_scan"}, "name": "6603e01d34a55de522efe80cb173396d", "is_reserved": 0}, {"is_disabled": 0, "fusion_lon": 0.0, "fusion_lat": 0.0, "lat": 38.9155085, "type": "electric_scooter", "lon": -77.041586, "bike_id": "d7de41d71d4e1d869ed610cae7fa4a0e", "rental_uris": {"android": "https://dc.lft.to/lastmile_qr_scan", "ios": "https://dc.lft.to/lastmile_qr_scan"}, "name": "d7de41d71d4e1d869ed610cae7fa4a0e", "is_reserved": 0}, {"is_disabled": 0, "fusion_lon": 0.0, "fusion_lat": 0.0, "lat": 38.92146433333333, "type": "electric_scooter", "lon": -77.04347316666667, "bike_id": "cf732d7f1f8416fc98c4030ca5a2446a", "rental_uris": {"android": "https://dc.lft.to/lastmile_qr_scan", "ios": "https://dc.lft.to/lastmile_qr_scan"}, "name": "cf732d7f1f8416fc98c4030ca5a2446a", "is_reserved": 0}, {"is_disabled": 0, "fusion_lon": 0.0, "fusion_lat": 0.0, "lat": 38.92979416666667, "type": "electric_scooter", "lon": -77.0347055, "bike_id": "d114f776b48bcd179d2a004f72f6957f", "rental_uris": {"android": "https://dc.lft.to/lastmile_qr_scan", "ios": "https://dc.lft.to/lastmile_qr_scan"}, "name": "d114f776b48bcd179d2a004f72f6957f", "is_reserved": 0}, {"is_disabled": 0, "fusion_lon": 0.0, "fusion_lat": 0.0, "lat": 38.9283115, "type": "electric_scooter", "lon": -77.01413883333333, "bike_id": "6b787d82fa7a62c7dd45824beb6c1259", "rental_uris": {"android": "https://dc.lft.to/lastmile_qr_scan", "ios": "https://dc.lft.to/lastmile_qr_scan"}, "name": "6b787d82fa7a62c7dd45824beb6c1259", "is_reserved": 0}, {"is_disabled": 0, "fusion_lon": 0.0, "fusion_lat": 0.0, "lat": 38.9112045, "type": "electric_scooter", "lon": -77.04722483333333, "bike_id": "cec91fab03b465bd76d01b4403bdc704", "rental_uris": {"android": "https://dc.lft.to/lastmile_qr_scan", "ios": "https://dc.lft.to/lastmile_qr_scan"}, "name": "cec91fab03b465bd76d01b4403bdc704", "is_reserved": 0}, {"is_disabled": 0, "fusion_lon": 0.0, "fusion_lat": 0.0, "lat": 38.908698333333334, "type": "electric_scooter", "lon": -77.0322505, "bike_id": "31100caf84b8ca83b74a9d695e8da923", "rental_uris": {"android": "https://dc.lft.to/lastmile_qr_scan", "ios": "https://dc.lft.to/lastmile_qr_scan"}, "name": "31100caf84b8ca83b74a9d695e8da923", "is_reserved": 0}, {"is_disabled": 0, "fusion_lon": 0.0, "fusion_lat": 0.0, "lat": 38.913453, "type": "electric_scooter", "lon": -77.041612, "bike_id": "8b813311f71fa19c3bf3266e674dfd17", "rental_uris": {"android": "https://dc.lft.to/lastmile_qr_scan", "ios": "https://dc.lft.to/lastmile_qr_scan"}, "name": "8b813311f71fa19c3bf3266e674dfd17", "is_reserved": 0}, {"is_disabled": 0, "fusion_lon": 0.0, "fusion_lat": 0.0, "lat": 38.9160035, "type": "electric_scooter", "lon": -77.04025216666666, "bike_id": "09033dac1937c4a13de4d1881751faef", "rental_uris": {"android": "https://dc.lft.to/lastmile_qr_scan", "ios": "https://dc.lft.to/lastmile_qr_scan"}, "name": "09033dac1937c4a13de4d1881751faef", "is_reserved": 0}, {"is_disabled": 0, "fusion_lon": 0.0, "fusion_lat": 0.0, "lat": 38.907825833333334, "type": "electric_scooter", "lon": -77.046693, "bike_id": "fce956622898b0574a889c4b9dc8b2b8", "rental_uris": {"android": "https://dc.lft.to/lastmile_qr_scan", "ios": "https://dc.lft.to/lastmile_qr_scan"}, "name": "fce956622898b0574a889c4b9dc8b2b8", "is_reserved": 0}, {"is_disabled": 0, "fusion_lon": 0.0, "fusion_lat": 0.0, "lat": 38.898465, "type": "electric_bike", "lon": -77.02966083333334, "bike_id": "da1ae4e3007e236a02e9adc8bd5f5192", "rental_uris": {"android": "https://dc.lft.to/lastmile_qr_scan", "ios": "https://dc.lft.to/lastmile_qr_scan"}, "name": "da1ae4e3007e236a02e9adc8bd5f5192", "is_reserved": 0}, {"is_disabled": 0, "fusion_lon": 0.0, "fusion_lat": 0.0, "lat": 38.852828, "type": "electric_bike", "lon": -76.98152533333334, "bike_id": "5f8144c7e9bbc10202c7bf17ac7a9b1c", "rental_uris": {"android": "https://dc.lft.to/lastmile_qr_scan", "ios": "https://dc.lft.to/lastmile_qr_scan"}, "name": "5f8144c7e9bbc10202c7bf17ac7a9b1c", "is_reserved": 0}, {"is_disabled": 0, "fusion_lon": 0.0, "fusion_lat": 0.0, "lat": 38.9027095, "type": "electric_scooter", "lon": -77.03432633333334, "bike_id": "c06666f81f73816cdab9a99923c30f4a", "rental_uris": {"android": "https://dc.lft.to/lastmile_qr_scan", "ios": "https://dc.lft.to/lastmile_qr_scan"}, "name": "c06666f81f73816cdab9a99923c30f4a", "is_reserved": 0}, {"is_disabled": 0, "fusion_lon": 0.0, "fusion_lat": 0.0, "lat": 38.93416366666666, "type": "electric_scooter", "lon": -77.0388685, "bike_id": "abb29cad790569195d8e0bdc60a94541", "rental_uris": {"android": "https://dc.lft.to/lastmile_qr_scan", "ios": "https://dc.lft.to/lastmile_qr_scan"}, "name": "abb29cad790569195d8e0bdc60a94541", "is_reserved": 0}, {"is_disabled": 0, "fusion_lon": 0.0, "fusion_lat": 0.0, "lat": 38.9043975, "type": "electric_scooter", "lon": -77.0242085, "bike_id": "00d2c3fafa47efa7835cefd13211c8fa", "rental_uris": {"android": "https://dc.lft.to/lastmile_qr_scan", "ios": "https://dc.lft.to/lastmile_qr_scan"}, "name": "00d2c3fafa47efa7835cefd13211c8fa", "is_reserved": 0}, {"is_disabled": 0, "fusion_lon": 0.0, "fusion_lat": 0.0, "lat": 38.904732333333335, "type": "electric_scooter", "lon": -77.06532516666667, "bike_id": "36ffbf5414db3c3ae8a601cbaab17e93", "rental_uris": {"android": "https://dc.lft.to/lastmile_qr_scan", "ios": "https://dc.lft.to/lastmile_qr_scan"}, "name": "36ffbf5414db3c3ae8a601cbaab17e93", "is_reserved": 0}, {"is_disabled": 0, "fusion_lon": 0.0, "fusion_lat": 0.0, "lat": 38.90472666666667, "type": "electric_bike", "lon": -76.9294865, "bike_id": "c736d53fed0b84f746428373f5120ac5", "rental_uris": {"android": "https://dc.lft.to/lastmile_qr_scan", "ios": "https://dc.lft.to/lastmile_qr_scan"}, "name": "c736d53fed0b84f746428373f5120ac5", "is_reserved": 0}, {"is_disabled": 0, "fusion_lon": 0.0, "fusion_lat": 0.0, "lat": 38.8789415, "type": "electric_scooter", "lon": -77.02325516666667, "bike_id": "1eec768f8148baf6bfc45de8cf820f6e", "rental_uris": {"android": "https://dc.lft.to/lastmile_qr_scan", "ios": "https://dc.lft.to/lastmile_qr_scan"}, "name": "1eec768f8148baf6bfc45de8cf820f6e", "is_reserved": 0}, {"is_disabled": 0, "fusion_lon": 0.0, "fusion_lat": 0.0, "lat": 38.92862483333333, "type": "electric_scooter", "lon": -76.997699, "bike_id": "6eaffacace22913bc845c96e7374f5fe", "rental_uris": {"android": "https://dc.lft.to/lastmile_qr_scan", "ios": "https://dc.lft.to/lastmile_qr_scan"}, "name": "6eaffacace22913bc845c96e7374f5fe", "is_reserved": 0}, {"is_disabled": 0, "fusion_lon": 0.0, "fusion_lat": 0.0, "lat": 38.924715, "type": "electric_scooter", "lon": -77.04460866666666, "bike_id": "3a53bf180f40063aa0efe4bef69ebebc", "rental_uris": {"android": "https://dc.lft.to/lastmile_qr_scan", "ios": "https://dc.lft.to/lastmile_qr_scan"}, "name": "3a53bf180f40063aa0efe4bef69ebebc", "is_reserved": 0}, {"is_disabled": 0, "fusion_lon": 0.0, "fusion_lat": 0.0, "lat": 39.006550833333336, "type": "electric_bike", "lon": -76.900296, "bike_id": "a985931020b738dfd1ea1115f289c402", "rental_uris": {"android": "https://dc.lft.to/lastmile_qr_scan", "ios": "https://dc.lft.to/lastmile_qr_scan"}, "name": "a985931020b738dfd1ea1115f289c402", "is_reserved": 0}, {"is_disabled": 0, "fusion_lon": 0.0, "fusion_lat": 0.0, "lat": 38.9056665, "type": "electric_scooter", "lon": -77.007713, "bike_id": "43b06fb05dc2c3489bc29f5d4889548e", "rental_uris": {"android": "https://dc.lft.to/lastmile_qr_scan", "ios": "https://dc.lft.to/lastmile_qr_scan"}, "name": "43b06fb05dc2c3489bc29f5d4889548e", "is_reserved": 0}, {"is_disabled": 0, "fusion_lon": 0.0, "fusion_lat": 0.0, "lat": 38.950771833333334, "type": "electric_scooter", "lon": -77.02874966666667, "bike_id": "049fc9a3e31117aaa3b2abc66ca5fe71", "rental_uris": {"android": "https://dc.lft.to/lastmile_qr_scan", "ios": "https://dc.lft.to/lastmile_qr_scan"}, "name": "049fc9a3e31117aaa3b2abc66ca5fe71", "is_reserved": 0}, {"is_disabled": 0, "fusion_lon": 0.0, "fusion_lat": 0.0, "lat": 38.89621916666667, "type": "electric_scooter", "lon": -76.95636316666666, "bike_id": "4bfe73ded32c54aebc4b51a7f2950fbf", "rental_uris": {"android": "https://dc.lft.to/lastmile_qr_scan", "ios": "https://dc.lft.to/lastmile_qr_scan"}, "name": "4bfe73ded32c54aebc4b51a7f2950fbf", "is_reserved": 0}, {"is_disabled": 0, "fusion_lon": 0.0, "fusion_lat": 0.0, "lat": 38.902518666666666, "type": "electric_scooter", "lon": -77.0220195, "bike_id": "3b6729ad940d6cb9ef4b9e83404c94ef", "rental_uris": {"android": "https://dc.lft.to/lastmile_qr_scan", "ios": "https://dc.lft.to/lastmile_qr_scan"}, "name": "3b6729ad940d6cb9ef4b9e83404c94ef", "is_reserved": 0}, {"is_disabled": 0, "fusion_lon": 0.0, "fusion_lat": 0.0, "lat": 38.91880583333333, "type": "electric_scooter", "lon": -77.01593316666667, "bike_id": "b5cbed2246cd945dfe4b6e96caaa187d", "rental_uris": {"android": "https://dc.lft.to/lastmile_qr_scan", "ios": "https://dc.lft.to/lastmile_qr_scan"}, "name": "b5cbed2246cd945dfe4b6e96caaa187d", "is_reserved": 0}, {"is_disabled": 0, "fusion_lon": 0.0, "fusion_lat": 0.0, "lat": 38.9123685, "type": "electric_scooter", "lon": -77.04483566666667, "bike_id": "0366417b2be566137120056f1387a18a", "rental_uris": {"android": "https://dc.lft.to/lastmile_qr_scan", "ios": "https://dc.lft.to/lastmile_qr_scan"}, "name": "0366417b2be566137120056f1387a18a", "is_reserved": 0}, {"is_disabled": 0, "fusion_lon": 0.0, "fusion_lat": 0.0, "lat": 38.921583166666665, "type": "electric_scooter", "lon": -77.04283533333333, "bike_id": "f6076fcc0189319c97864d2aa80d6cf4", "rental_uris": {"android": "https://dc.lft.to/lastmile_qr_scan", "ios": "https://dc.lft.to/lastmile_qr_scan"}, "name": "f6076fcc0189319c97864d2aa80d6cf4", "is_reserved": 0}, {"is_disabled": 0, "fusion_lon": 0.0, "fusion_lat": 0.0, "lat": 38.93193183333333, "type": "electric_bike", "lon": -77.22936016666667, "bike_id": "53dd4843273daf10aa5647fc0eb905d2", "rental_uris": {"android": "https://dc.lft.to/lastmile_qr_scan", "ios": "https://dc.lft.to/lastmile_qr_scan"}, "name": "53dd4843273daf10aa5647fc0eb905d2", "is_reserved": 0}, {"is_disabled": 0, "fusion_lon": 0.0, "fusion_lat": 0.0, "lat": 38.95992, "type": "electric_bike", "lon": -76.9987285, "bike_id": "7982b6544ccb876eaeb8ce74e25138da", "rental_uris": {"android": "https://dc.lft.to/lastmile_qr_scan", "ios": "https://dc.lft.to/lastmile_qr_scan"}, "name": "7982b6544ccb876eaeb8ce74e25138da", "is_reserved": 0}, {"is_disabled": 0, "fusion_lon": 0.0, "fusion_lat": 0.0, "lat": 38.99252516666667, "type": "electric_bike", "lon": -77.04994166666667, "bike_id": "f5a414de0dcc3083c948075977e6cfe0", "rental_uris": {"android": "https://dc.lft.to/lastmile_qr_scan", "ios": "https://dc.lft.to/lastmile_qr_scan"}, "name": "f5a414de0dcc3083c948075977e6cfe0", "is_reserved": 0}, {"is_disabled": 0, "fusion_lon": 0.0, "fusion_lat": 0.0, "lat": 38.912710833333335, "type": "electric_scooter", "lon": -77.0221185, "bike_id": "22e8dcff1efe88e8ad0ea036c38231b0", "rental_uris": {"android": "https://dc.lft.to/lastmile_qr_scan", "ios": "https://dc.lft.to/lastmile_qr_scan"}, "name": "22e8dcff1efe88e8ad0ea036c38231b0", "is_reserved": 0}, {"is_disabled": 0, "fusion_lon": 0.0, "fusion_lat": 0.0, "lat": 38.912705833333334, "type": "electric_scooter", "lon": -77.04096216666667, "bike_id": "19569121a2fc347df988b60008e5442d", "rental_uris": {"android": "https://dc.lft.to/lastmile_qr_scan", "ios": "https://dc.lft.to/lastmile_qr_scan"}, "name": "19569121a2fc347df988b60008e5442d", "is_reserved": 0}, {"is_disabled": 0, "fusion_lon": 0.0, "fusion_lat": 0.0, "lat": 38.89668966666667, "type": "electric_scooter", "lon": -77.0267875, "bike_id": "298d8092691f933b274f5430f3e2e768", "rental_uris": {"android": "https://dc.lft.to/lastmile_qr_scan", "ios": "https://dc.lft.to/lastmile_qr_scan"}, "name": "298d8092691f933b274f5430f3e2e768", "is_reserved": 0}, {"is_disabled": 0, "fusion_lon": 0.0, "fusion_lat": 0.0, "lat": 38.883739166666665, "type": "electric_scooter", "lon": -76.92645233333333, "bike_id": "aeac8bf843a04db15f9f9e8849dc30f2", "rental_uris": {"android": "https://dc.lft.to/lastmile_qr_scan", "ios": "https://dc.lft.to/lastmile_qr_scan"}, "name": "aeac8bf843a04db15f9f9e8849dc30f2", "is_reserved": 0}, {"is_disabled": 0, "fusion_lon": 0.0, "fusion_lat": 0.0, "lat": 38.89798483333333, "type": "electric_scooter", "lon": -76.930541, "bike_id": "0d1715abd4cd14545e087f0f627cc1b1", "rental_uris": {"android": "https://dc.lft.to/lastmile_qr_scan", "ios": "https://dc.lft.to/lastmile_qr_scan"}, "name": "0d1715abd4cd14545e087f0f627cc1b1", "is_reserved": 0}, {"is_disabled": 0, "fusion_lon": 0.0, "fusion_lat": 0.0, "lat": 38.93546333333333, "type": "electric_scooter", "lon": -77.0576985, "bike_id": "ce99b037bf84ec56167f83580f90b6ac", "rental_uris": {"android": "https://dc.lft.to/lastmile_qr_scan", "ios": "https://dc.lft.to/lastmile_qr_scan"}, "name": "ce99b037bf84ec56167f83580f90b6ac", "is_reserved": 0}, {"is_disabled": 0, "fusion_lon": 0.0, "fusion_lat": 0.0, "lat": 38.86742066666667, "type": "electric_scooter", "lon": -76.98849633333333, "bike_id": "cfeb7bd8fc2f05fdcd20c8c13000b79a", "rental_uris": {"android": "https://dc.lft.to/lastmile_qr_scan", "ios": "https://dc.lft.to/lastmile_qr_scan"}, "name": "cfeb7bd8fc2f05fdcd20c8c13000b79a", "is_reserved": 0}, {"is_disabled": 0, "fusion_lon": 0.0, "fusion_lat": 0.0, "lat": 38.831523, "type": "electric_bike", "lon": -76.99686716666666, "bike_id": "a0290155a9747f57bc8024d844b3417f", "rental_uris": {"android": "https://dc.lft.to/lastmile_qr_scan", "ios": "https://dc.lft.to/lastmile_qr_scan"}, "name": "a0290155a9747f57bc8024d844b3417f", "is_reserved": 0}, {"is_disabled": 0, "fusion_lon": 0.0, "fusion_lat": 0.0, "lat": 38.87004733333333, "type": "electric_scooter", "lon": -77.01376533333334, "bike_id": "81b77fc82a1a253ff4c4c43a86a0acc2", "rental_uris": {"android": "https://dc.lft.to/lastmile_qr_scan", "ios": "https://dc.lft.to/lastmile_qr_scan"}, "name": "81b77fc82a1a253ff4c4c43a86a0acc2", "is_reserved": 0}, {"is_disabled": 0, "fusion_lon": 0.0, "fusion_lat": 0.0, "lat": 38.94985066666667, "type": "electric_scooter", "lon": -77.02702266666667, "bike_id": "52f233ba331b7c7cb6f763ef4909bb9f", "rental_uris": {"android": "https://dc.lft.to/lastmile_qr_scan", "ios": "https://dc.lft.to/lastmile_qr_scan"}, "name": "52f233ba331b7c7cb6f763ef4909bb9f", "is_reserved": 0}, {"is_disabled": 0, "fusion_lon": 0.0, "fusion_lat": 0.0, "lat": 38.909570333333335, "type": "electric_scooter", "lon": -77.02885783333333, "bike_id": "44f1775ce0b5373dc58b7f111e2e04b7", "rental_uris": {"android": "https://dc.lft.to/lastmile_qr_scan", "ios": "https://dc.lft.to/lastmile_qr_scan"}, "name": "44f1775ce0b5373dc58b7f111e2e04b7", "is_reserved": 0}, {"is_disabled": 0, "fusion_lon": 0.0, "fusion_lat": 0.0, "lat": 38.91194983333333, "type": "electric_scooter", "lon": -77.02977166666666, "bike_id": "c45c7074e4793e99902c84928301db43", "rental_uris": {"android": "https://dc.lft.to/lastmile_qr_scan", "ios": "https://dc.lft.to/lastmile_qr_scan"}, "name": "c45c7074e4793e99902c84928301db43", "is_reserved": 0}, {"is_disabled": 0, "fusion_lon": 0.0, "fusion_lat": 0.0, "lat": 38.9424925, "type": "electric_scooter", "lon": -77.021669, "bike_id": "41c3babf63199afd1a423513b7f00d7e", "rental_uris": {"android": "https://dc.lft.to/lastmile_qr_scan", "ios": "https://dc.lft.to/lastmile_qr_scan"}, "name": "41c3babf63199afd1a423513b7f00d7e", "is_reserved": 0}, {"is_disabled": 0, "fusion_lon": 0.0, "fusion_lat": 0.0, "lat": 38.89843533333333, "type": "electric_scooter", "lon": -77.021819, "bike_id": "0970eaec290cca855fbe5822e179e0e8", "rental_uris": {"android": "https://dc.lft.to/lastmile_qr_scan", "ios": "https://dc.lft.to/lastmile_qr_scan"}, "name": "0970eaec290cca855fbe5822e179e0e8", "is_reserved": 0}, {"is_disabled": 0, "fusion_lon": 0.0, "fusion_lat": 0.0, "lat": 38.9168225, "type": "electric_scooter", "lon": -77.03186283333334, "bike_id": "bb99475b45dc839a679b399807429dd5", "rental_uris": {"android": "https://dc.lft.to/lastmile_qr_scan", "ios": "https://dc.lft.to/lastmile_qr_scan"}, "name": "bb99475b45dc839a679b399807429dd5", "is_reserved": 0}, {"is_disabled": 0, "fusion_lon": 0.0, "fusion_lat": 0.0, "lat": 38.87665233333333, "type": "electric_scooter", "lon": -77.00359166666667, "bike_id": "1d927b4f6036b2ec7892c5f5692c2c30", "rental_uris": {"android": "https://dc.lft.to/lastmile_qr_scan", "ios": "https://dc.lft.to/lastmile_qr_scan"}, "name": "1d927b4f6036b2ec7892c5f5692c2c30", "is_reserved": 0}, {"is_disabled": 0, "fusion_lon": 0.0, "fusion_lat": 0.0, "lat": 38.89730266666667, "type": "electric_scooter", "lon": -77.009841, "bike_id": "bf4282ae658a50450dcf0e70b15d6beb", "rental_uris": {"android": "https://dc.lft.to/lastmile_qr_scan", "ios": "https://dc.lft.to/lastmile_qr_scan"}, "name": "bf4282ae658a50450dcf0e70b15d6beb", "is_reserved": 0}, {"is_disabled": 0, "fusion_lon": 0.0, "fusion_lat": 0.0, "lat": 38.9222725, "type": "electric_scooter", "lon": -77.03433833333334, "bike_id": "5ab311c9dc901f01e64def29cfd94071", "rental_uris": {"android": "https://dc.lft.to/lastmile_qr_scan", "ios": "https://dc.lft.to/lastmile_qr_scan"}, "name": "5ab311c9dc901f01e64def29cfd94071", "is_reserved": 0}, {"is_disabled": 0, "fusion_lon": 0.0, "fusion_lat": 0.0, "lat": 38.903782, "type": "electric_scooter", "lon": -77.0163615, "bike_id": "2f891270c42c40d456d221b85d5692b4", "rental_uris": {"android": "https://dc.lft.to/lastmile_qr_scan", "ios": "https://dc.lft.to/lastmile_qr_scan"}, "name": "2f891270c42c40d456d221b85d5692b4", "is_reserved": 0}, {"is_disabled": 0, "fusion_lon": 0.0, "fusion_lat": 0.0, "lat": 38.9396615, "type": "electric_scooter", "lon": -77.03283633333334, "bike_id": "ce19cb91f949f045fff32dbcf455b944", "rental_uris": {"android": "https://dc.lft.to/lastmile_qr_scan", "ios": "https://dc.lft.to/lastmile_qr_scan"}, "name": "ce19cb91f949f045fff32dbcf455b944", "is_reserved": 0}, {"is_disabled": 0, "fusion_lon": 0.0, "fusion_lat": 0.0, "lat": 38.927602666666665, "type": "electric_scooter", "lon": -77.00590566666666, "bike_id": "a72cdf09e343ac90eb524a34cdcc6f5d", "rental_uris": {"android": "https://dc.lft.to/lastmile_qr_scan", "ios": "https://dc.lft.to/lastmile_qr_scan"}, "name": "a72cdf09e343ac90eb524a34cdcc6f5d", "is_reserved": 0}, {"is_disabled": 0, "fusion_lon": 0.0, "fusion_lat": 0.0, "lat": 38.903999166666665, "type": "electric_scooter", "lon": -76.99009016666666, "bike_id": "87a0ae673a08b876671cd0ec92fa4068", "rental_uris": {"android": "https://dc.lft.to/lastmile_qr_scan", "ios": "https://dc.lft.to/lastmile_qr_scan"}, "name": "87a0ae673a08b876671cd0ec92fa4068", "is_reserved": 0}, {"is_disabled": 0, "fusion_lon": 0.0, "fusion_lat": 0.0, "lat": 38.92478916666666, "type": "electric_scooter", "lon": -77.03485866666666, "bike_id": "f4c2f01d0c8fe18ad9022fe6e6855479", "rental_uris": {"android": "https://dc.lft.to/lastmile_qr_scan", "ios": "https://dc.lft.to/lastmile_qr_scan"}, "name": "f4c2f01d0c8fe18ad9022fe6e6855479", "is_reserved": 0}, {"is_disabled": 0, "fusion_lon": 0.0, "fusion_lat": 0.0, "lat": 38.94217666666667, "type": "electric_scooter", "lon": -77.0249945, "bike_id": "48263fd8367da60729803de3c12f6035", "rental_uris": {"android": "https://dc.lft.to/lastmile_qr_scan", "ios": "https://dc.lft.to/lastmile_qr_scan"}, "name": "48263fd8367da60729803de3c12f6035", "is_reserved": 0}, {"is_disabled": 0, "fusion_lon": 0.0, "fusion_lat": 0.0, "lat": 38.925990166666665, "type": "electric_scooter", "lon": -77.0215345, "bike_id": "18a0220b7a62042f413573bc6bd36077", "rental_uris": {"android": "https://dc.lft.to/lastmile_qr_scan", "ios": "https://dc.lft.to/lastmile_qr_scan"}, "name": "18a0220b7a62042f413573bc6bd36077", "is_reserved": 0}, {"is_disabled": 0, "fusion_lon": 0.0, "fusion_lat": 0.0, "lat": 38.919733, "type": "electric_scooter", "lon": -76.98053716666666, "bike_id": "db4a7f3fbe294a1a2164a38fd806bc43", "rental_uris": {"android": "https://dc.lft.to/lastmile_qr_scan", "ios": "https://dc.lft.to/lastmile_qr_scan"}, "name": "db4a7f3fbe294a1a2164a38fd806bc43", "is_reserved": 0}, {"is_disabled": 0, "fusion_lon": 0.0, "fusion_lat": 0.0, "lat": 38.8973765, "type": "electric_scooter", "lon": -77.02681866666667, "bike_id": "3b30ae079238d51ce3fc53ea5f8f4f85", "rental_uris": {"android": "https://dc.lft.to/lastmile_qr_scan", "ios": "https://dc.lft.to/lastmile_qr_scan"}, "name": "3b30ae079238d51ce3fc53ea5f8f4f85", "is_reserved": 0}, {"is_disabled": 0, "fusion_lon": 0.0, "fusion_lat": 0.0, "lat": 38.844289333333336, "type": "electric_scooter", "lon": -76.99780316666667, "bike_id": "2a207208333e65b829a3a3565e369fb9", "rental_uris": {"android": "https://dc.lft.to/lastmile_qr_scan", "ios": "https://dc.lft.to/lastmile_qr_scan"}, "name": "2a207208333e65b829a3a3565e369fb9", "is_reserved": 0}, {"is_disabled": 0, "fusion_lon": 0.0, "fusion_lat": 0.0, "lat": 38.895049, "type": "electric_scooter", "lon": -76.9487955, "bike_id": "2262aacb33d4dde1886cc753b327a5ae", "rental_uris": {"android": "https://dc.lft.to/lastmile_qr_scan", "ios": "https://dc.lft.to/lastmile_qr_scan"}, "name": "2262aacb33d4dde1886cc753b327a5ae", "is_reserved": 0}, {"is_disabled": 0, "fusion_lon": 0.0, "fusion_lat": 0.0, "lat": 38.87644566666667, "type": "electric_scooter", "lon": -77.007321, "bike_id": "ff6f8f93f49c3a5ff1b33abb9aa13684", "rental_uris": {"android": "https://dc.lft.to/lastmile_qr_scan", "ios": "https://dc.lft.to/lastmile_qr_scan"}, "name": "ff6f8f93f49c3a5ff1b33abb9aa13684", "is_reserved": 0}, {"is_disabled": 0, "fusion_lon": 0.0, "fusion_lat": 0.0, "lat": 38.874286166666664, "type": "electric_scooter", "lon": -77.000353, "bike_id": "5278ee59f90f53457faac5c45cf54854", "rental_uris": {"android": "https://dc.lft.to/lastmile_qr_scan", "ios": "https://dc.lft.to/lastmile_qr_scan"}, "name": "5278ee59f90f53457faac5c45cf54854", "is_reserved": 0}, {"is_disabled": 0, "fusion_lon": 0.0, "fusion_lat": 0.0, "lat": 38.94200266666667, "type": "electric_scooter", "lon": -77.02577133333334, "bike_id": "f0f6b49c90fa59d3a21136f4e6ee8d7e", "rental_uris": {"android": "https://dc.lft.to/lastmile_qr_scan", "ios": "https://dc.lft.to/lastmile_qr_scan"}, "name": "f0f6b49c90fa59d3a21136f4e6ee8d7e", "is_reserved": 0}, {"is_disabled": 0, "fusion_lon": 0.0, "fusion_lat": 0.0, "lat": 38.813317166666664, "type": "electric_bike", "lon": -77.0509255, "bike_id": "c436be68dc11f0f5c313ba3656dad471", "rental_uris": {"android": "https://dc.lft.to/lastmile_qr_scan", "ios": "https://dc.lft.to/lastmile_qr_scan"}, "name": "c436be68dc11f0f5c313ba3656dad471", "is_reserved": 0}, {"is_disabled": 0, "fusion_lon": 0.0, "fusion_lat": 0.0, "lat": 38.89639566666666, "type": "electric_scooter", "lon": -77.00910166666667, "bike_id": "6b43022ddf7caae522d4b4e5af279442", "rental_uris": {"android": "https://dc.lft.to/lastmile_qr_scan", "ios": "https://dc.lft.to/lastmile_qr_scan"}, "name": "6b43022ddf7caae522d4b4e5af279442", "is_reserved": 0}, {"is_disabled": 0, "fusion_lon": 0.0, "fusion_lat": 0.0, "lat": 38.899664, "type": "electric_scooter", "lon": -77.016142, "bike_id": "c316f53d69de1123aa8f8be27c486965", "rental_uris": {"android": "https://dc.lft.to/lastmile_qr_scan", "ios": "https://dc.lft.to/lastmile_qr_scan"}, "name": "c316f53d69de1123aa8f8be27c486965", "is_reserved": 0}, {"is_disabled": 0, "fusion_lon": 0.0, "fusion_lat": 0.0, "lat": 38.972615833333336, "type": "electric_bike", "lon": -76.991687, "bike_id": "28fa3cf3b44a558c3a3c00f70d39ff16", "rental_uris": {"android": "https://dc.lft.to/lastmile_qr_scan", "ios": "https://dc.lft.to/lastmile_qr_scan"}, "name": "28fa3cf3b44a558c3a3c00f70d39ff16", "is_reserved": 0}, {"is_disabled": 0, "fusion_lon": 0.0, "fusion_lat": 0.0, "lat": 38.8962465, "type": "electric_scooter", "lon": -77.00911383333333, "bike_id": "825d91728f4e4793a5abbba66a344c69", "rental_uris": {"android": "https://dc.lft.to/lastmile_qr_scan", "ios": "https://dc.lft.to/lastmile_qr_scan"}, "name": "825d91728f4e4793a5abbba66a344c69", "is_reserved": 0}, {"is_disabled": 0, "fusion_lon": 0.0, "fusion_lat": 0.0, "lat": 38.91918916666667, "type": "electric_scooter", "lon": -77.03593133333334, "bike_id": "896ad70e2749f36f6ed4a1492e2940bc", "rental_uris": {"android": "https://dc.lft.to/lastmile_qr_scan", "ios": "https://dc.lft.to/lastmile_qr_scan"}, "name": "896ad70e2749f36f6ed4a1492e2940bc", "is_reserved": 0}, {"is_disabled": 0, "fusion_lon": 0.0, "fusion_lat": 0.0, "lat": 38.920277666666664, "type": "electric_scooter", "lon": -77.0128805, "bike_id": "a7093b26c701a7ecdba8eb192ae8a488", "rental_uris": {"android": "https://dc.lft.to/lastmile_qr_scan", "ios": "https://dc.lft.to/lastmile_qr_scan"}, "name": "a7093b26c701a7ecdba8eb192ae8a488", "is_reserved": 0}, {"is_disabled": 0, "fusion_lon": 0.0, "fusion_lat": 0.0, "lat": 38.894331666666666, "type": "electric_scooter", "lon": -77.0109095, "bike_id": "4d54ed64e14a49c4add6cade82d88f5d", "rental_uris": {"android": "https://dc.lft.to/lastmile_qr_scan", "ios": "https://dc.lft.to/lastmile_qr_scan"}, "name": "4d54ed64e14a49c4add6cade82d88f5d", "is_reserved": 0}, {"is_disabled": 0, "fusion_lon": 0.0, "fusion_lat": 0.0, "lat": 38.8393435, "type": "electric_bike", "lon": -77.07900833333333, "bike_id": "d8fec8a55f35d952367bd3b5c23589df", "rental_uris": {"android": "https://dc.lft.to/lastmile_qr_scan", "ios": "https://dc.lft.to/lastmile_qr_scan"}, "name": "d8fec8a55f35d952367bd3b5c23589df", "is_reserved": 0}, {"is_disabled": 0, "fusion_lon": 0.0, "fusion_lat": 0.0, "lat": 38.900174666666665, "type": "electric_scooter", "lon": -76.99968466666667, "bike_id": "7dd9e81b4681e9bf66ffb484e5529820", "rental_uris": {"android": "https://dc.lft.to/lastmile_qr_scan", "ios": "https://dc.lft.to/lastmile_qr_scan"}, "name": "7dd9e81b4681e9bf66ffb484e5529820", "is_reserved": 0}, {"is_disabled": 0, "fusion_lon": 0.0, "fusion_lat": 0.0, "lat": 38.913472166666665, "type": "electric_scooter", "lon": -77.04158783333334, "bike_id": "ffc64e6c92910a47d592b332ea69f2aa", "rental_uris": {"android": "https://dc.lft.to/lastmile_qr_scan", "ios": "https://dc.lft.to/lastmile_qr_scan"}, "name": "ffc64e6c92910a47d592b332ea69f2aa", "is_reserved": 0}, {"is_disabled": 0, "fusion_lon": 0.0, "fusion_lat": 0.0, "lat": 38.9405315, "type": "electric_scooter", "lon": -77.02492583333333, "bike_id": "62035d346553789184c44d23a30b97ed", "rental_uris": {"android": "https://dc.lft.to/lastmile_qr_scan", "ios": "https://dc.lft.to/lastmile_qr_scan"}, "name": "62035d346553789184c44d23a30b97ed", "is_reserved": 0}, {"is_disabled": 0, "fusion_lon": 0.0, "fusion_lat": 0.0, "lat": 38.94273916666667, "type": "electric_scooter", "lon": -77.0325935, "bike_id": "c640d7c359df7430a1083d4a4eab5355", "rental_uris": {"android": "https://dc.lft.to/lastmile_qr_scan", "ios": "https://dc.lft.to/lastmile_qr_scan"}, "name": "c640d7c359df7430a1083d4a4eab5355", "is_reserved": 0}, {"is_disabled": 0, "fusion_lon": 0.0, "fusion_lat": 0.0, "lat": 38.899120333333336, "type": "electric_scooter", "lon": -76.93388333333333, "bike_id": "a8adb91f34dd5215bd700da0b833e981", "rental_uris": {"android": "https://dc.lft.to/lastmile_qr_scan", "ios": "https://dc.lft.to/lastmile_qr_scan"}, "name": "a8adb91f34dd5215bd700da0b833e981", "is_reserved": 0}, {"is_disabled": 0, "fusion_lon": 0.0, "fusion_lat": 0.0, "lat": 38.900171666666665, "type": "electric_scooter", "lon": -77.004749, "bike_id": "2fe9f4c487d5c950d9630dff97a8640e", "rental_uris": {"android": "https://dc.lft.to/lastmile_qr_scan", "ios": "https://dc.lft.to/lastmile_qr_scan"}, "name": "2fe9f4c487d5c950d9630dff97a8640e", "is_reserved": 0}, {"is_disabled": 0, "fusion_lon": 0.0, "fusion_lat": 0.0, "lat": 38.95204416666667, "type": "electric_scooter", "lon": -77.027322, "bike_id": "76ca3d55be1e733c5c05594c106aadf2", "rental_uris": {"android": "https://dc.lft.to/lastmile_qr_scan", "ios": "https://dc.lft.to/lastmile_qr_scan"}, "name": "76ca3d55be1e733c5c05594c106aadf2", "is_reserved": 0}, {"is_disabled": 0, "fusion_lon": 0.0, "fusion_lat": 0.0, "lat": 39.03001866666666, "type": "electric_bike", "lon": -77.1065175, "bike_id": "fcb4c29eb8378baaa32d35e7f8693684", "rental_uris": {"android": "https://dc.lft.to/lastmile_qr_scan", "ios": "https://dc.lft.to/lastmile_qr_scan"}, "name": "fcb4c29eb8378baaa32d35e7f8693684", "is_reserved": 0}, {"is_disabled": 0, "fusion_lon": 0.0, "fusion_lat": 0.0, "lat": 38.96451283333333, "type": "electric_bike", "lon": -76.97721466666667, "bike_id": "4d53f75e2df4d6a3511bc8c4faa6709d", "rental_uris": {"android": "https://dc.lft.to/lastmile_qr_scan", "ios": "https://dc.lft.to/lastmile_qr_scan"}, "name": "4d53f75e2df4d6a3511bc8c4faa6709d", "is_reserved": 0}, {"is_disabled": 0, "fusion_lon": 0.0, "fusion_lat": 0.0, "lat": 38.842941333333336, "type": "electric_scooter", "lon": -76.999482, "bike_id": "c2493ae810eae115836e89b366785bb6", "rental_uris": {"android": "https://dc.lft.to/lastmile_qr_scan", "ios": "https://dc.lft.to/lastmile_qr_scan"}, "name": "c2493ae810eae115836e89b366785bb6", "is_reserved": 0}, {"is_disabled": 0, "fusion_lon": 0.0, "fusion_lat": 0.0, "lat": 38.92025866666667, "type": "electric_scooter", "lon": -77.03120666666666, "bike_id": "d590c02fd6cb1d6037f644c6ec3cc72a", "rental_uris": {"android": "https://dc.lft.to/lastmile_qr_scan", "ios": "https://dc.lft.to/lastmile_qr_scan"}, "name": "d590c02fd6cb1d6037f644c6ec3cc72a", "is_reserved": 0}, {"is_disabled": 0, "fusion_lon": 0.0, "fusion_lat": 0.0, "lat": 38.88745733333333, "type": "electric_scooter", "lon": -77.016053, "bike_id": "a76b37071e98a527d6e80868636fd76c", "rental_uris": {"android": "https://dc.lft.to/lastmile_qr_scan", "ios": "https://dc.lft.to/lastmile_qr_scan"}, "name": "a76b37071e98a527d6e80868636fd76c", "is_reserved": 0}, {"is_disabled": 0, "fusion_lon": 0.0, "fusion_lat": 0.0, "lat": 38.906778, "type": "electric_scooter", "lon": -77.03820383333333, "bike_id": "97ccda83657952a1bfab344969ebfc30", "rental_uris": {"android": "https://dc.lft.to/lastmile_qr_scan", "ios": "https://dc.lft.to/lastmile_qr_scan"}, "name": "97ccda83657952a1bfab344969ebfc30", "is_reserved": 0}, {"is_disabled": 0, "fusion_lon": 0.0, "fusion_lat": 0.0, "lat": 38.85092, "type": "electric_bike", "lon": -76.95696433333333, "bike_id": "3f254a19354bb9ddf69e6b8008d11a2f", "rental_uris": {"android": "https://dc.lft.to/lastmile_qr_scan", "ios": "https://dc.lft.to/lastmile_qr_scan"}, "name": "3f254a19354bb9ddf69e6b8008d11a2f", "is_reserved": 0}, {"is_disabled": 0, "fusion_lon": 0.0, "fusion_lat": 0.0, "lat": 38.898934833333335, "type": "electric_scooter", "lon": -77.03324383333333, "bike_id": "2da837306cdc9b6ffbe6da6e14aee675", "rental_uris": {"android": "https://dc.lft.to/lastmile_qr_scan", "ios": "https://dc.lft.to/lastmile_qr_scan"}, "name": "2da837306cdc9b6ffbe6da6e14aee675", "is_reserved": 0}, {"is_disabled": 0, "fusion_lon": 0.0, "fusion_lat": 0.0, "lat": 38.9186345, "type": "electric_bike", "lon": -76.9609175, "bike_id": "008ca6ffbbb03801e2808e69b9d2cb1f", "rental_uris": {"android": "https://dc.lft.to/lastmile_qr_scan", "ios": "https://dc.lft.to/lastmile_qr_scan"}, "name": "008ca6ffbbb03801e2808e69b9d2cb1f", "is_reserved": 0}, {"is_disabled": 0, "fusion_lon": 0.0, "fusion_lat": 0.0, "lat": 38.9454905, "type": "electric_scooter", "lon": -77.04243266666667, "bike_id": "ebebd69f230629220a12879deb46bb49", "rental_uris": {"android": "https://dc.lft.to/lastmile_qr_scan", "ios": "https://dc.lft.to/lastmile_qr_scan"}, "name": "ebebd69f230629220a12879deb46bb49", "is_reserved": 0}, {"is_disabled": 0, "fusion_lon": 0.0, "fusion_lat": 0.0, "lat": 38.92666883333333, "type": "electric_scooter", "lon": -77.04305233333334, "bike_id": "3c6cdc91ae772df20a7ea5d6d56a2c93", "rental_uris": {"android": "https://dc.lft.to/lastmile_qr_scan", "ios": "https://dc.lft.to/lastmile_qr_scan"}, "name": "3c6cdc91ae772df20a7ea5d6d56a2c93", "is_reserved": 0}, {"is_disabled": 0, "fusion_lon": 0.0, "fusion_lat": 0.0, "lat": 38.84313016666667, "type": "electric_bike", "lon": -77.11432916666666, "bike_id": "55d3d3b6f8fddcbc2f42474e800fd382", "rental_uris": {"android": "https://dc.lft.to/lastmile_qr_scan", "ios": "https://dc.lft.to/lastmile_qr_scan"}, "name": "55d3d3b6f8fddcbc2f42474e800fd382", "is_reserved": 0}, {"is_disabled": 0, "fusion_lon": 0.0, "fusion_lat": 0.0, "lat": 38.934857, "type": "electric_scooter", "lon": -77.07273766666667, "bike_id": "6159171ff4aef8c93449644ef1bec7bb", "rental_uris": {"android": "https://dc.lft.to/lastmile_qr_scan", "ios": "https://dc.lft.to/lastmile_qr_scan"}, "name": "6159171ff4aef8c93449644ef1bec7bb", "is_reserved": 0}, {"is_disabled": 0, "fusion_lon": 0.0, "fusion_lat": 0.0, "lat": 38.919310833333334, "type": "electric_scooter", "lon": -77.0259795, "bike_id": "02fe41e2e88d491f841efbf213ae8aeb", "rental_uris": {"android": "https://dc.lft.to/lastmile_qr_scan", "ios": "https://dc.lft.to/lastmile_qr_scan"}, "name": "02fe41e2e88d491f841efbf213ae8aeb", "is_reserved": 0}, {"is_disabled": 0, "fusion_lon": 0.0, "fusion_lat": 0.0, "lat": 38.86248166666667, "type": "electric_scooter", "lon": -76.9950065, "bike_id": "ef855dbbc9ce572c1ce16ba8d6b82b28", "rental_uris": {"android": "https://dc.lft.to/lastmile_qr_scan", "ios": "https://dc.lft.to/lastmile_qr_scan"}, "name": "ef855dbbc9ce572c1ce16ba8d6b82b28", "is_reserved": 0}, {"is_disabled": 0, "fusion_lon": 0.0, "fusion_lat": 0.0, "lat": 38.91132966666667, "type": "electric_scooter", "lon": -77.04416466666666, "bike_id": "633ea9f594862f3332b5f60ebf552f41", "rental_uris": {"android": "https://dc.lft.to/lastmile_qr_scan", "ios": "https://dc.lft.to/lastmile_qr_scan"}, "name": "633ea9f594862f3332b5f60ebf552f41", "is_reserved": 0}, {"is_disabled": 0, "fusion_lon": 0.0, "fusion_lat": 0.0, "lat": 38.93892866666667, "type": "electric_scooter", "lon": -77.07769333333333, "bike_id": "4ad4561da513fc2c4af150cb5c00870f", "rental_uris": {"android": "https://dc.lft.to/lastmile_qr_scan", "ios": "https://dc.lft.to/lastmile_qr_scan"}, "name": "4ad4561da513fc2c4af150cb5c00870f", "is_reserved": 0}, {"is_disabled": 0, "fusion_lon": 0.0, "fusion_lat": 0.0, "lat": 38.9188215, "type": "electric_scooter", "lon": -77.04312183333333, "bike_id": "061d587adbdb23413ae4d6cdc52f48d4", "rental_uris": {"android": "https://dc.lft.to/lastmile_qr_scan", "ios": "https://dc.lft.to/lastmile_qr_scan"}, "name": "061d587adbdb23413ae4d6cdc52f48d4", "is_reserved": 0}, {"is_disabled": 0, "fusion_lon": 0.0, "fusion_lat": 0.0, "lat": 38.9052875, "type": "electric_scooter", "lon": -77.0582545, "bike_id": "c4657fa586c3ebf644651e4439f8e7d7", "rental_uris": {"android": "https://dc.lft.to/lastmile_qr_scan", "ios": "https://dc.lft.to/lastmile_qr_scan"}, "name": "c4657fa586c3ebf644651e4439f8e7d7", "is_reserved": 0}, {"is_disabled": 0, "fusion_lon": 0.0, "fusion_lat": 0.0, "lat": 38.8944295, "type": "electric_scooter", "lon": -77.02117683333333, "bike_id": "7d6ea8247eabc24cadd8c5bdff4f4446", "rental_uris": {"android": "https://dc.lft.to/lastmile_qr_scan", "ios": "https://dc.lft.to/lastmile_qr_scan"}, "name": "7d6ea8247eabc24cadd8c5bdff4f4446", "is_reserved": 0}, {"is_disabled": 0, "fusion_lon": 0.0, "fusion_lat": 0.0, "lat": 38.926142666666664, "type": "electric_scooter", "lon": -77.02163183333333, "bike_id": "ca15bdea77a1a3de5b34c65f8c993867", "rental_uris": {"android": "https://dc.lft.to/lastmile_qr_scan", "ios": "https://dc.lft.to/lastmile_qr_scan"}, "name": "ca15bdea77a1a3de5b34c65f8c993867", "is_reserved": 0}, {"is_disabled": 0, "fusion_lon": 0.0, "fusion_lat": 0.0, "lat": 38.90139816666667, "type": "electric_scooter", "lon": -77.0007225, "bike_id": "4e66d3a3e1c041371e93350789d0bfa3", "rental_uris": {"android": "https://dc.lft.to/lastmile_qr_scan", "ios": "https://dc.lft.to/lastmile_qr_scan"}, "name": "4e66d3a3e1c041371e93350789d0bfa3", "is_reserved": 0}, {"is_disabled": 0, "fusion_lon": 0.0, "fusion_lat": 0.0, "lat": 38.91994116666667, "type": "electric_scooter", "lon": -76.97317933333333, "bike_id": "9e66fc3e666f25541bcc5816647b3d15", "rental_uris": {"android": "https://dc.lft.to/lastmile_qr_scan", "ios": "https://dc.lft.to/lastmile_qr_scan"}, "name": "9e66fc3e666f25541bcc5816647b3d15", "is_reserved": 0}, {"is_disabled": 0, "fusion_lon": 0.0, "fusion_lat": 0.0, "lat": 38.8937185, "type": "electric_scooter", "lon": -76.97817066666667, "bike_id": "991aa6bdb3d742dc521e0345c272d2d2", "rental_uris": {"android": "https://dc.lft.to/lastmile_qr_scan", "ios": "https://dc.lft.to/lastmile_qr_scan"}, "name": "991aa6bdb3d742dc521e0345c272d2d2", "is_reserved": 0}, {"is_disabled": 0, "fusion_lon": 0.0, "fusion_lat": 0.0, "lat": 38.89817983333333, "type": "electric_scooter", "lon": -77.0279725, "bike_id": "66760e1a2829873eef14823d536a7063", "rental_uris": {"android": "https://dc.lft.to/lastmile_qr_scan", "ios": "https://dc.lft.to/lastmile_qr_scan"}, "name": "66760e1a2829873eef14823d536a7063", "is_reserved": 0}, {"is_disabled": 0, "fusion_lon": 0.0, "fusion_lat": 0.0, "lat": 38.89525316666667, "type": "electric_scooter", "lon": -77.00207266666666, "bike_id": "ce80519d01d45cc495031014f48ddf04", "rental_uris": {"android": "https://dc.lft.to/lastmile_qr_scan", "ios": "https://dc.lft.to/lastmile_qr_scan"}, "name": "ce80519d01d45cc495031014f48ddf04", "is_reserved": 0}, {"is_disabled": 0, "fusion_lon": 0.0, "fusion_lat": 0.0, "lat": 38.960402333333334, "type": "electric_bike", "lon": -76.92698516666667, "bike_id": "58362ebf3792e6ffdb870533f432b688", "rental_uris": {"android": "https://dc.lft.to/lastmile_qr_scan", "ios": "https://dc.lft.to/lastmile_qr_scan"}, "name": "58362ebf3792e6ffdb870533f432b688", "is_reserved": 0}, {"is_disabled": 0, "fusion_lon": 0.0, "fusion_lat": 0.0, "lat": 38.9084925, "type": "electric_scooter", "lon": -77.0634245, "bike_id": "147c4958fba924570904a6b0090be376", "rental_uris": {"android": "https://dc.lft.to/lastmile_qr_scan", "ios": "https://dc.lft.to/lastmile_qr_scan"}, "name": "147c4958fba924570904a6b0090be376", "is_reserved": 0}, {"is_disabled": 0, "fusion_lon": 0.0, "fusion_lat": 0.0, "lat": 38.920228333333334, "type": "electric_scooter", "lon": -77.03118933333333, "bike_id": "6bd371732b9a5cf5e2ce719ceab4daa9", "rental_uris": {"android": "https://dc.lft.to/lastmile_qr_scan", "ios": "https://dc.lft.to/lastmile_qr_scan"}, "name": "6bd371732b9a5cf5e2ce719ceab4daa9", "is_reserved": 0}, {"is_disabled": 0, "fusion_lon": 0.0, "fusion_lat": 0.0, "lat": 38.97250533333333, "type": "electric_bike", "lon": -76.992731, "bike_id": "ee826c88ef9278b8ac8b4c6fa2079afd", "rental_uris": {"android": "https://dc.lft.to/lastmile_qr_scan", "ios": "https://dc.lft.to/lastmile_qr_scan"}, "name": "ee826c88ef9278b8ac8b4c6fa2079afd", "is_reserved": 0}, {"is_disabled": 0, "fusion_lon": 0.0, "fusion_lat": 0.0, "lat": 38.9404475, "type": "electric_scooter", "lon": -77.02896516666667, "bike_id": "c7b2a12e841a1d16c9f9678453560ab9", "rental_uris": {"android": "https://dc.lft.to/lastmile_qr_scan", "ios": "https://dc.lft.to/lastmile_qr_scan"}, "name": "c7b2a12e841a1d16c9f9678453560ab9", "is_reserved": 0}, {"is_disabled": 0, "fusion_lon": 0.0, "fusion_lat": 0.0, "lat": 38.924369166666665, "type": "electric_scooter", "lon": -77.0521575, "bike_id": "ef542291ca73edd99ecf6bd2477fe6f9", "rental_uris": {"android": "https://dc.lft.to/lastmile_qr_scan", "ios": "https://dc.lft.to/lastmile_qr_scan"}, "name": "ef542291ca73edd99ecf6bd2477fe6f9", "is_reserved": 0}, {"is_disabled": 0, "fusion_lon": 0.0, "fusion_lat": 0.0, "lat": 38.858705666666665, "type": "electric_scooter", "lon": -76.99026033333334, "bike_id": "4c5334996ec895afbfb4b55a116992af", "rental_uris": {"android": "https://dc.lft.to/lastmile_qr_scan", "ios": "https://dc.lft.to/lastmile_qr_scan"}, "name": "4c5334996ec895afbfb4b55a116992af", "is_reserved": 0}, {"is_disabled": 0, "fusion_lon": 0.0, "fusion_lat": 0.0, "lat": 38.9133755, "type": "electric_scooter", "lon": -77.01422733333334, "bike_id": "bbde4ad955f67d44f40d3bb2410200eb", "rental_uris": {"android": "https://dc.lft.to/lastmile_qr_scan", "ios": "https://dc.lft.to/lastmile_qr_scan"}, "name": "bbde4ad955f67d44f40d3bb2410200eb", "is_reserved": 0}, {"is_disabled": 0, "fusion_lon": 0.0, "fusion_lat": 0.0, "lat": 38.902724666666664, "type": "electric_scooter", "lon": -77.038753, "bike_id": "8a115792a07a148ff64561ed514b3daf", "rental_uris": {"android": "https://dc.lft.to/lastmile_qr_scan", "ios": "https://dc.lft.to/lastmile_qr_scan"}, "name": "8a115792a07a148ff64561ed514b3daf", "is_reserved": 0}, {"is_disabled": 0, "fusion_lon": 0.0, "fusion_lat": 0.0, "lat": 38.91014333333333, "type": "electric_scooter", "lon": -77.044022, "bike_id": "31bd62c3bc02a7fa2a34916a245445cd", "rental_uris": {"android": "https://dc.lft.to/lastmile_qr_scan", "ios": "https://dc.lft.to/lastmile_qr_scan"}, "name": "31bd62c3bc02a7fa2a34916a245445cd", "is_reserved": 0}, {"is_disabled": 0, "fusion_lon": 0.0, "fusion_lat": 0.0, "lat": 38.9140825, "type": "electric_scooter", "lon": -77.00804833333333, "bike_id": "5da640912baf21cef86057c17e41da70", "rental_uris": {"android": "https://dc.lft.to/lastmile_qr_scan", "ios": "https://dc.lft.to/lastmile_qr_scan"}, "name": "5da640912baf21cef86057c17e41da70", "is_reserved": 0}, {"is_disabled": 0, "fusion_lon": 0.0, "fusion_lat": 0.0, "lat": 38.90409283333334, "type": "electric_scooter", "lon": -77.01787533333334, "bike_id": "af85e7bc3591f9c15cf41d396b542d20", "rental_uris": {"android": "https://dc.lft.to/lastmile_qr_scan", "ios": "https://dc.lft.to/lastmile_qr_scan"}, "name": "af85e7bc3591f9c15cf41d396b542d20", "is_reserved": 0}, {"is_disabled": 0, "fusion_lon": 0.0, "fusion_lat": 0.0, "lat": 38.902375666666664, "type": "electric_scooter", "lon": -77.05334883333333, "bike_id": "ece4525ae84ed3822481ded87138807b", "rental_uris": {"android": "https://dc.lft.to/lastmile_qr_scan", "ios": "https://dc.lft.to/lastmile_qr_scan"}, "name": "ece4525ae84ed3822481ded87138807b", "is_reserved": 0}, {"is_disabled": 0, "fusion_lon": 0.0, "fusion_lat": 0.0, "lat": 38.927138, "type": "electric_scooter", "lon": -77.04054983333333, "bike_id": "ba27b1df1e1f91a6a673ed8313f1c28f", "rental_uris": {"android": "https://dc.lft.to/lastmile_qr_scan", "ios": "https://dc.lft.to/lastmile_qr_scan"}, "name": "ba27b1df1e1f91a6a673ed8313f1c28f", "is_reserved": 0}, {"is_disabled": 0, "fusion_lon": 0.0, "fusion_lat": 0.0, "lat": 38.915496166666664, "type": "electric_scooter", "lon": -77.041582, "bike_id": "97886181778c182d5c249be24516a702", "rental_uris": {"android": "https://dc.lft.to/lastmile_qr_scan", "ios": "https://dc.lft.to/lastmile_qr_scan"}, "name": "97886181778c182d5c249be24516a702", "is_reserved": 0}, {"is_disabled": 0, "fusion_lon": 0.0, "fusion_lat": 0.0, "lat": 38.87480216666667, "type": "electric_scooter", "lon": -77.02097116666667, "bike_id": "fd1dedafcb520370333096e1b91b183b", "rental_uris": {"android": "https://dc.lft.to/lastmile_qr_scan", "ios": "https://dc.lft.to/lastmile_qr_scan"}, "name": "fd1dedafcb520370333096e1b91b183b", "is_reserved": 0}, {"is_disabled": 0, "fusion_lon": 0.0, "fusion_lat": 0.0, "lat": 39.041236, "type": "electric_bike", "lon": -76.98904916666666, "bike_id": "6b81197b2a6c9f54e5586ec210bd25b5", "rental_uris": {"android": "https://dc.lft.to/lastmile_qr_scan", "ios": "https://dc.lft.to/lastmile_qr_scan"}, "name": "6b81197b2a6c9f54e5586ec210bd25b5", "is_reserved": 0}, {"is_disabled": 0, "fusion_lon": 0.0, "fusion_lat": 0.0, "lat": 38.902773333333336, "type": "electric_scooter", "lon": -77.0217755, "bike_id": "e90b6996938aaf0b94d8782ff693987c", "rental_uris": {"android": "https://dc.lft.to/lastmile_qr_scan", "ios": "https://dc.lft.to/lastmile_qr_scan"}, "name": "e90b6996938aaf0b94d8782ff693987c", "is_reserved": 0}, {"is_disabled": 0, "fusion_lon": 0.0, "fusion_lat": 0.0, "lat": 38.911105166666665, "type": "electric_scooter", "lon": -77.0504095, "bike_id": "2e02e05cd182f3a0acd95b28ef0ff560", "rental_uris": {"android": "https://dc.lft.to/lastmile_qr_scan", "ios": "https://dc.lft.to/lastmile_qr_scan"}, "name": "2e02e05cd182f3a0acd95b28ef0ff560", "is_reserved": 0}, {"is_disabled": 0, "fusion_lon": 0.0, "fusion_lat": 0.0, "lat": 38.8970135, "type": "electric_bike", "lon": -77.0451655, "bike_id": "f5dc51909624f259becb613e77527a88", "rental_uris": {"android": "https://dc.lft.to/lastmile_qr_scan", "ios": "https://dc.lft.to/lastmile_qr_scan"}, "name": "f5dc51909624f259becb613e77527a88", "is_reserved": 0}, {"is_disabled": 0, "fusion_lon": 0.0, "fusion_lat": 0.0, "lat": 38.922007, "type": "electric_scooter", "lon": -77.04254516666667, "bike_id": "a1d920264e74f50dd6959228d7afaccd", "rental_uris": {"android": "https://dc.lft.to/lastmile_qr_scan", "ios": "https://dc.lft.to/lastmile_qr_scan"}, "name": "a1d920264e74f50dd6959228d7afaccd", "is_reserved": 0}, {"is_disabled": 0, "fusion_lon": 0.0, "fusion_lat": 0.0, "lat": 38.924847666666665, "type": "electric_bike", "lon": -76.99034, "bike_id": "0a7e2df4d5e026cbb123816a2fccc28a", "rental_uris": {"android": "https://dc.lft.to/lastmile_qr_scan", "ios": "https://dc.lft.to/lastmile_qr_scan"}, "name": "0a7e2df4d5e026cbb123816a2fccc28a", "is_reserved": 0}, {"is_disabled": 0, "fusion_lon": 0.0, "fusion_lat": 0.0, "lat": 38.90735083333333, "type": "electric_scooter", "lon": -77.02247116666666, "bike_id": "785f2ee1c85fb3275ef61c235984974f", "rental_uris": {"android": "https://dc.lft.to/lastmile_qr_scan", "ios": "https://dc.lft.to/lastmile_qr_scan"}, "name": "785f2ee1c85fb3275ef61c235984974f", "is_reserved": 0}, {"is_disabled": 0, "fusion_lon": 0.0, "fusion_lat": 0.0, "lat": 38.95190916666667, "type": "electric_scooter", "lon": -77.0276995, "bike_id": "2fe365f37021ac4a44cdc09f91788338", "rental_uris": {"android": "https://dc.lft.to/lastmile_qr_scan", "ios": "https://dc.lft.to/lastmile_qr_scan"}, "name": "2fe365f37021ac4a44cdc09f91788338", "is_reserved": 0}, {"is_disabled": 0, "fusion_lon": 0.0, "fusion_lat": 0.0, "lat": 38.91707816666667, "type": "electric_scooter", "lon": -77.02787983333333, "bike_id": "128296f2018735b32b3f9f5e2daa50a1", "rental_uris": {"android": "https://dc.lft.to/lastmile_qr_scan", "ios": "https://dc.lft.to/lastmile_qr_scan"}, "name": "128296f2018735b32b3f9f5e2daa50a1", "is_reserved": 0}, {"is_disabled": 0, "fusion_lon": 0.0, "fusion_lat": 0.0, "lat": 38.8918595, "type": "electric_scooter", "lon": -76.98832866666666, "bike_id": "f45fbd585101935005dd19df50980c08", "rental_uris": {"android": "https://dc.lft.to/lastmile_qr_scan", "ios": "https://dc.lft.to/lastmile_qr_scan"}, "name": "f45fbd585101935005dd19df50980c08", "is_reserved": 0}, {"is_disabled": 0, "fusion_lon": 0.0, "fusion_lat": 0.0, "lat": 38.925640333333334, "type": "electric_scooter", "lon": -77.04162266666667, "bike_id": "193acc29ac03efface1bbfa2af30ec9e", "rental_uris": {"android": "https://dc.lft.to/lastmile_qr_scan", "ios": "https://dc.lft.to/lastmile_qr_scan"}, "name": "193acc29ac03efface1bbfa2af30ec9e", "is_reserved": 0}, {"is_disabled": 0, "fusion_lon": 0.0, "fusion_lat": 0.0, "lat": 38.92681866666667, "type": "electric_scooter", "lon": -77.03097933333333, "bike_id": "e801aa50dd6115e66b6e42bff876b615", "rental_uris": {"android": "https://dc.lft.to/lastmile_qr_scan", "ios": "https://dc.lft.to/lastmile_qr_scan"}, "name": "e801aa50dd6115e66b6e42bff876b615", "is_reserved": 0}, {"is_disabled": 0, "fusion_lon": 0.0, "fusion_lat": 0.0, "lat": 38.913382166666665, "type": "electric_scooter", "lon": -77.03234666666667, "bike_id": "6d9d3237fc30f25153024809b5a54174", "rental_uris": {"android": "https://dc.lft.to/lastmile_qr_scan", "ios": "https://dc.lft.to/lastmile_qr_scan"}, "name": "6d9d3237fc30f25153024809b5a54174", "is_reserved": 0}, {"is_disabled": 0, "fusion_lon": 0.0, "fusion_lat": 0.0, "lat": 38.838172, "type": "electric_scooter", "lon": -77.00431283333333, "bike_id": "f92a68c7bf7d9e401758dd9d46bd1393", "rental_uris": {"android": "https://dc.lft.to/lastmile_qr_scan", "ios": "https://dc.lft.to/lastmile_qr_scan"}, "name": "f92a68c7bf7d9e401758dd9d46bd1393", "is_reserved": 0}, {"is_disabled": 0, "fusion_lon": 0.0, "fusion_lat": 0.0, "lat": 38.9908215, "type": "electric_bike", "lon": -77.001759, "bike_id": "9f189a330555e11d61dc79f6eaa9ae70", "rental_uris": {"android": "https://dc.lft.to/lastmile_qr_scan", "ios": "https://dc.lft.to/lastmile_qr_scan"}, "name": "9f189a330555e11d61dc79f6eaa9ae70", "is_reserved": 0}, {"is_disabled": 0, "fusion_lon": 0.0, "fusion_lat": 0.0, "lat": 38.85721266666667, "type": "electric_bike", "lon": -76.98113766666667, "bike_id": "bd23724173d7627c3e179b1960792c54", "rental_uris": {"android": "https://dc.lft.to/lastmile_qr_scan", "ios": "https://dc.lft.to/lastmile_qr_scan"}, "name": "bd23724173d7627c3e179b1960792c54", "is_reserved": 0}, {"is_disabled": 0, "fusion_lon": 0.0, "fusion_lat": 0.0, "lat": 38.9386505, "type": "electric_scooter", "lon": -77.02580733333333, "bike_id": "bba414215bb6d197644bb548e68a8565", "rental_uris": {"android": "https://dc.lft.to/lastmile_qr_scan", "ios": "https://dc.lft.to/lastmile_qr_scan"}, "name": "bba414215bb6d197644bb548e68a8565", "is_reserved": 0}, {"is_disabled": 0, "fusion_lon": 0.0, "fusion_lat": 0.0, "lat": 38.831212666666666, "type": "electric_bike", "lon": -77.04326733333333, "bike_id": "08a68a80bee5fd8bcd28b5b87defebd8", "rental_uris": {"android": "https://dc.lft.to/lastmile_qr_scan", "ios": "https://dc.lft.to/lastmile_qr_scan"}, "name": "08a68a80bee5fd8bcd28b5b87defebd8", "is_reserved": 0}, {"is_disabled": 0, "fusion_lon": 0.0, "fusion_lat": 0.0, "lat": 39.11515216666667, "type": "electric_bike", "lon": -77.19546016666666, "bike_id": "7bea183db8fc22c7ea56459e21bddd28", "rental_uris": {"android": "https://dc.lft.to/lastmile_qr_scan", "ios": "https://dc.lft.to/lastmile_qr_scan"}, "name": "7bea183db8fc22c7ea56459e21bddd28", "is_reserved": 0},