{"data": {"bikes": [{"rental_uris": {"ios": "https://dc.lft.to/lastmile_qr_scan", "android": "https://dc.lft.to/lastmile_qr_scan"}, "lon": -77.01543283333334, "type": "electric_scooter", "fusion_lat": 0.0, "lat": 38.892057, "name": "746705432e9875a80a0fafdbecf605aa", "fusion_lon": 0.0, "bike_id": "746705432e9875a80a0fafdbecf605aa", "is_disabled": 0, "is_reserved": 0}, {"rental_uris": {"ios": "https://dc.lft.to/lastmile_qr_scan", "android": "https://dc.lft.to/lastmile_qr_scan"}, "lon": -77.00591783333333, "type": "electric_scooter", "fusion_lat": 0.0, "lat": 38.915622166666665, "name": "9fe7add9131cfa27a61391671fa38814", "fusion_lon": 0.0, "bike_id": "9fe7add9131cfa27a61391671fa38814", "is_disabled": 0, "is_reserved": 0}, {"rental_uris": {"ios": "https://dc.lft.to/lastmile_qr_scan", "android": "https://dc.lft.to/lastmile_qr_scan"}, "lon": -77.02399733333333, "type": "electric_scooter", "fusion_lat": 0.0, "lat": 38.931096333333336, "name": "7c5e736005d1ec0b9cf690fce16caad7", "fusion_lon": 0.0, "bike_id": "7c5e736005d1ec0b9cf690fce16caad7", "is_disabled": 0, "is_reserved": 0}, {"rental_uris": {"ios": "https://dc.lft.to/lastmile_qr_scan", "android": "https://dc.lft.to/lastmile_qr_scan"}, "lon": -77.0246975, "type": "electric_scooter", "fusion_lat": 0.0, "lat": 38.9385975, "name": "41d6832c00108d67b1ae1f88ab6dc94a", "fusion_lon": 0.0, "bike_id": "41d6832c00108d67b1ae1f88ab6dc94a", "is_disabled": 0, "is_reserved": 0}, {"rental_uris": {"ios": "https://dc.lft.to/lastmile_qr_scan", "android": "https://dc.lft.to/lastmile_qr_scan"}, "lon": -77.0246845, "type": "electric_scooter", "fusion_lat": 0.0, "lat": 38.931064166666665, "name": "da66e695c7a7a7b0b27cc1532f366fed", "fusion_lon": 0.0, "bike_id": "da66e695c7a7a7b0b27cc1532f366fed", "is_disabled": 0, "is_reserved": 0}, {"rental_uris": {"ios": "https://dc.lft.to/lastmile_qr_scan", "android": "https://dc.lft.to/lastmile_qr_scan"}, "lon": -77.04694516666666, "type": "electric_scooter", "fusion_lat": 0.0, "lat": 38.897450166666665, "name": "631b40c4849eddb481b2fc231fa84ae2", "fusion_lon": 0.0, "bike_id": "631b40c4849eddb481b2fc231fa84ae2", "is_disabled": 0, "is_reserved": 0}, {"rental_uris": {"ios": "https://dc.lft.to/lastmile_qr_scan", "android": "https://dc.lft.to/lastmile_qr_scan"}, "lon": -77.0451395, "type": "electric_scooter", "fusion_lat": 0.0, "lat": 38.912883, "name": "0417784b2119def413238d2b18ac043a", "fusion_lon": 0.0, "bike_id": "0417784b2119def413238d2b18ac043a", "is_disabled": 0, "is_reserved": 0}, {"rental_uris": {"ios": "https://dc.lft.to/lastmile_qr_scan", "android": "https://dc.lft.to/lastmile_qr_scan"}, "lon": -77.03193883333333, "type": "electric_scooter", "fusion_lat": 0.0, "lat": 38.9228215, "name": "3de9db4506735d73ff46282ac5b0333e", "fusion_lon": 0.0, "bike_id": "3de9db4506735d73ff46282ac5b0333e", "is_disabled": 0, "is_reserved": 0}, {"rental_uris": {"ios": "https://dc.lft.to/lastmile_qr_scan", "android": "https://dc.lft.to/lastmile_qr_scan"}, "lon": -77.1250305, "type": "electric_bike", "fusion_lat": 0.0, "lat": 39.02421016666667, "name": "d9c63a64a542e78b94eb07466c5783c8", "fusion_lon": 0.0, "bike_id": "d9c63a64a542e78b94eb07466c5783c8", "is_disabled": 0, "is_reserved": 0}, {"rental_uris": {"ios": "https://dc.lft.to/lastmile_qr_scan", "android": "https://dc.lft.to/lastmile_qr_scan"}, "lon": -77.02311283333333, "type": "electric_scooter", "fusion_lat": 0.0, "lat": 38.928937833333336, "name": "c81ebf3b4468e1cc1f8297e8840c8a6e", "fusion_lon": 0.0, "bike_id": "c81ebf3b4468e1cc1f8297e8840c8a6e", "is_disabled": 0, "is_reserved": 0}, {"rental_uris": {"ios": "https://dc.lft.to/lastmile_qr_scan", "android": "https://dc.lft.to/lastmile_qr_scan"}, "lon": -77.02763416666667, "type": "electric_scooter", "fusion_lat": 0.0, "lat": 38.91555066666667, "name": "22b29ae618aa480bada09317317b30b9", "fusion_lon": 0.0, "bike_id": "22b29ae618aa480bada09317317b30b9", "is_disabled": 0, "is_reserved": 0}, {"rental_uris": {"ios": "https://dc.lft.to/lastmile_qr_scan", "android": "https://dc.lft.to/lastmile_qr_scan"}, "lon": -77.08393316666667, "type": "electric_scooter", "fusion_lat": 0.0, "lat": 38.96094133333333, "name": "bca0a2a95df0507d38a8699d39752d17", "fusion_lon": 0.0, "bike_id": "bca0a2a95df0507d38a8699d39752d17", "is_disabled": 0, "is_reserved": 0}, {"rental_uris": {"ios": "https://dc.lft.to/lastmile_qr_scan", "android": "https://dc.lft.to/lastmile_qr_scan"}, "lon": -77.0317225, "type": "electric_scooter", "fusion_lat": 0.0, "lat": 38.8873145, "name": "335c18cbd65f242bb757fa5ebcd645ba", "fusion_lon": 0.0, "bike_id": "335c18cbd65f242bb757fa5ebcd645ba", "is_disabled": 0, "is_reserved": 0}, {"rental_uris": {"ios": "https://dc.lft.to/lastmile_qr_scan", "android": "https://dc.lft.to/lastmile_qr_scan"}, "lon": -77.04886916666666, "type": "electric_scooter", "fusion_lat": 0.0, "lat": 38.90186166666667, "name": "796193c898d31e92610445eb509177d9", "fusion_lon": 0.0, "bike_id": "796193c898d31e92610445eb509177d9", "is_disabled": 0, "is_reserved": 0}, {"rental_uris": {"ios": "https://dc.lft.to/lastmile_qr_scan", "android": "https://dc.lft.to/lastmile_qr_scan"}, "lon": -77.030352, "type": "electric_scooter", "fusion_lat": 0.0, "lat": 38.89612666666667, "name": "7e6f4dc5dffe7b200b263a55e4926b14", "fusion_lon": 0.0, "bike_id": "7e6f4dc5dffe7b200b263a55e4926b14", "is_disabled": 0, "is_reserved": 0}, {"rental_uris": {"ios": "https://dc.lft.to/lastmile_qr_scan", "android": "https://dc.lft.to/lastmile_qr_scan"}, "lon": -77.04499766666666, "type": "electric_scooter", "fusion_lat": 0.0, "lat": 38.911160333333335, "name": "4d2120f2f385fc7f6e11709511c708b0", "fusion_lon": 0.0, "bike_id": "4d2120f2f385fc7f6e11709511c708b0", "is_disabled": 0, "is_reserved": 0}, {"rental_uris": {"ios": "https://dc.lft.to/lastmile_qr_scan", "android": "https://dc.lft.to/lastmile_qr_scan"}, "lon": -77.05523966666667, "type": "electric_scooter", "fusion_lat": 0.0, "lat": 38.89736466666667, "name": "c6c33919ccd6cf62a0e8a7f219e702ff", "fusion_lon": 0.0, "bike_id": "c6c33919ccd6cf62a0e8a7f219e702ff", "is_disabled": 0, "is_reserved": 0}, {"rental_uris": {"ios": "https://dc.lft.to/lastmile_qr_scan", "android": "https://dc.lft.to/lastmile_qr_scan"}, "lon": -77.04668366666667, "type": "electric_scooter", "fusion_lat": 0.0, "lat": 38.933027833333334, "name": "8aa17971c403dda09bbbe6544cf2f4b1", "fusion_lon": 0.0, "bike_id": "8aa17971c403dda09bbbe6544cf2f4b1", "is_disabled": 0, "is_reserved": 0}, {"rental_uris": {"ios": "https://dc.lft.to/lastmile_qr_scan", "android": "https://dc.lft.to/lastmile_qr_scan"}, "lon": -77.04647633333333, "type": "electric_bike", "fusion_lat": 0.0, "lat": 38.85211316666667, "name": "92aa2ca9c3448067a43dd64a4b7e3133", "fusion_lon": 0.0, "bike_id": "92aa2ca9c3448067a43dd64a4b7e3133", "is_disabled": 0, "is_reserved": 0}, {"rental_uris": {"ios": "https://dc.lft.to/lastmile_qr_scan", "android": "https://dc.lft.to/lastmile_qr_scan"}, "lon": -77.031787, "type": "electric_scooter", "fusion_lat": 0.0, "lat": 38.887378, "name": "91cb830c6c4b9e5707f21b07a7d4bd5b", "fusion_lon": 0.0, "bike_id": "91cb830c6c4b9e5707f21b07a7d4bd5b", "is_disabled": 0, "is_reserved": 0}, {"rental_uris": {"ios": "https://dc.lft.to/lastmile_qr_scan", "android": "https://dc.lft.to/lastmile_qr_scan"}, "lon": -77.01603216666666, "type": "electric_scooter", "fusion_lat": 0.0, "lat": 38.901863666666664, "name": "8d53d7500819a0052ce53487405aeef5", "fusion_lon": 0.0, "bike_id": "8d53d7500819a0052ce53487405aeef5", "is_disabled": 0, "is_reserved": 0}, {"rental_uris": {"ios": "https://dc.lft.to/lastmile_qr_scan", "android": "https://dc.lft.to/lastmile_qr_scan"}, "lon": -77.0320575, "type": "electric_scooter", "fusion_lat": 0.0, "lat": 38.915462, "name": "ca7f2c5b3c371b5bb3de61c1f5800dd1", "fusion_lon": 0.0, "bike_id": "ca7f2c5b3c371b5bb3de61c1f5800dd1", "is_disabled": 0, "is_reserved": 0}, {"rental_uris": {"ios": "https://dc.lft.to/lastmile_qr_scan", "android": "https://dc.lft.to/lastmile_qr_scan"}, "lon": -76.93244683333333, "type": "electric_scooter", "fusion_lat": 0.0, "lat": 38.89405566666667, "name": "f4ebb2f264995deef292fe597c2439ec", "fusion_lon": 0.0, "bike_id": "f4ebb2f264995deef292fe597c2439ec", "is_disabled": 0, "is_reserved": 0}, {"rental_uris": {"ios": "https://dc.lft.to/lastmile_qr_scan", "android": "https://dc.lft.to/lastmile_qr_scan"}, "lon": -76.99056883333333, "type": "electric_scooter", "fusion_lat": 0.0, "lat": 38.856669, "name": "96dd808037fa6f7e041c81b43fe59e93", "fusion_lon": 0.0, "bike_id": "96dd808037fa6f7e041c81b43fe59e93", "is_disabled": 0, "is_reserved": 0}, {"rental_uris": {"ios": "https://dc.lft.to/lastmile_qr_scan", "android": "https://dc.lft.to/lastmile_qr_scan"}, "lon": -77.12968266666667, "type": "electric_bike", "fusion_lat": 0.0, "lat": 38.807939833333336, "name": "540326cbc1149042249f51b9999bb01a", "fusion_lon": 0.0, "bike_id": "540326cbc1149042249f51b9999bb01a", "is_disabled": 0, "is_reserved": 0}, {"rental_uris": {"ios": "https://dc.lft.to/lastmile_qr_scan", "android": "https://dc.lft.to/lastmile_qr_scan"}, "lon": -77.01299516666667, "type": "electric_bike", "fusion_lat": 0.0, "lat": 39.003780666666664, "name": "6418c7fb9fa13b7120cc8701d6c35fca", "fusion_lon": 0.0, "bike_id": "6418c7fb9fa13b7120cc8701d6c35fca", "is_disabled": 0, "is_reserved": 0}, {"rental_uris": {"ios": "https://dc.lft.to/lastmile_qr_scan", "android": "https://dc.lft.to/lastmile_qr_scan"}, "lon": -77.02710366666666, "type": "electric_scooter", "fusion_lat": 0.0, "lat": 38.906728, "name": "7351d620d07095a8d0307cfd866f19ea", "fusion_lon": 0.0, "bike_id": "7351d620d07095a8d0307cfd866f19ea", "is_disabled": 0, "is_reserved": 0}, {"rental_uris": {"ios": "https://dc.lft.to/lastmile_qr_scan", "android": "https://dc.lft.to/lastmile_qr_scan"}, "lon": -77.04225533333333, "type": "electric_scooter", "fusion_lat": 0.0, "lat": 38.92131216666667, "name": "dadb8d980533a878b699fd2ad0ffe18a", "fusion_lon": 0.0, "bike_id": "dadb8d980533a878b699fd2ad0ffe18a", "is_disabled": 0, "is_reserved": 0}, {"rental_uris": {"ios": "https://dc.lft.to/lastmile_qr_scan", "android": "https://dc.lft.to/lastmile_qr_scan"}, "lon": -77.04149416666667, "type": "electric_scooter", "fusion_lat": 0.0, "lat": 38.918778, "name": "2ca7c9b42958d4c851256632fc28be7a", "fusion_lon": 0.0, "bike_id": "2ca7c9b42958d4c851256632fc28be7a", "is_disabled": 0, "is_reserved": 0}, {"rental_uris": {"ios": "https://dc.lft.to/lastmile_qr_scan", "android": "https://dc.lft.to/lastmile_qr_scan"}, "lon": -76.975605, "type": "electric_scooter", "fusion_lat": 0.0, "lat": 38.904479333333335, "name": "f950d5c6d611d6e5cfca9133bbc6526e", "fusion_lon": 0.0, "bike_id": "f950d5c6d611d6e5cfca9133bbc6526e", "is_disabled": 0, "is_reserved": 0}, {"rental_uris": {"ios": "https://dc.lft.to/lastmile_qr_scan", "android": "https://dc.lft.to/lastmile_qr_scan"}, "lon": -76.9857755, "type": "electric_scooter", "fusion_lat": 0.0, "lat": 38.86146466666667, "name": "332d9ada2b3cce0c95f2c5d414f19cdc", "fusion_lon": 0.0, "bike_id": "332d9ada2b3cce0c95f2c5d414f19cdc", "is_disabled": 0, "is_reserved": 0}, {"rental_uris": {"ios": "https://dc.lft.to/lastmile_qr_scan", "android": "https://dc.lft.to/lastmile_qr_scan"}, "lon": -77.01113816666667, "type": "electric_scooter", "fusion_lat": 0.0, "lat": 38.89510333333333, "name": "21513739bd9aac2c388a9ed1ddf0f4da", "fusion_lon": 0.0, "bike_id": "21513739bd9aac2c388a9ed1ddf0f4da", "is_disabled": 0, "is_reserved": 0}, {"rental_uris": {"ios": "https://dc.lft.to/lastmile_qr_scan", "android": "https://dc.lft.to/lastmile_qr_scan"}, "lon": -76.99776916666667, "type": "electric_bike", "fusion_lat": 0.0, "lat": 38.909307166666665, "name": "8f09876e6625ec154b1347f07ad17a89", "fusion_lon": 0.0, "bike_id": "8f09876e6625ec154b1347f07ad17a89", "is_disabled": 0, "is_reserved": 0}, {"rental_uris": {"ios": "https://dc.lft.to/lastmile_qr_scan", "android": "https://dc.lft.to/lastmile_qr_scan"}, "lon": -77.00276816666667, "type": "electric_scooter", "fusion_lat": 0.0, "lat": 38.901341333333335, "name": "d79dd65c7c901dd359437e8b5e237fbf", "fusion_lon": 0.0, "bike_id": "d79dd65c7c901dd359437e8b5e237fbf", "is_disabled": 0, "is_reserved": 0}, {"rental_uris": {"ios": "https://dc.lft.to/lastmile_qr_scan", "android": "https://dc.lft.to/lastmile_qr_scan"}, "lon": -76.9888515, "type": "electric_scooter", "fusion_lat": 0.0, "lat": 38.86659866666667, "name": "c205b91b64ab7e4d86d2f39b9a137357", "fusion_lon": 0.0, "bike_id": "c205b91b64ab7e4d86d2f39b9a137357", "is_disabled": 0, "is_reserved": 0}, {"rental_uris": {"ios": "https://dc.lft.to/lastmile_qr_scan", "android": "https://dc.lft.to/lastmile_qr_scan"}, "lon": -76.99609666666667, "type": "electric_scooter", "fusion_lat": 0.0, "lat": 38.88622983333333, "name": "36e113c708fcc2153241804ec78cd927", "fusion_lon": 0.0, "bike_id": "36e113c708fcc2153241804ec78cd927", "is_disabled": 0, "is_reserved": 0}, {"rental_uris": {"ios": "https://dc.lft.to/lastmile_qr_scan", "android": "https://dc.lft.to/lastmile_qr_scan"}, "lon": -77.04544633333333, "type": "electric_scooter", "fusion_lat": 0.0, "lat": 38.9132765, "name": "ede6b7a33a137dfc04a4503094850f37", "fusion_lon": 0.0, "bike_id": "ede6b7a33a137dfc04a4503094850f37", "is_disabled": 0, "is_reserved": 0}, {"rental_uris": {"ios": "https://dc.lft.to/lastmile_qr_scan", "android": "https://dc.lft.to/lastmile_qr_scan"}, "lon": -76.99455366666666, "type": "electric_scooter", "fusion_lat": 0.0, "lat": 38.900252333333334, "name": "10cf578d8b6221f82865ff6cd305a18e", "fusion_lon": 0.0, "bike_id": "10cf578d8b6221f82865ff6cd305a18e", "is_disabled": 0, "is_reserved": 0}, {"rental_uris": {"ios": "https://dc.lft.to/lastmile_qr_scan", "android": "https://dc.lft.to/lastmile_qr_scan"}, "lon": -77.0448675, "type": "electric_scooter", "fusion_lat": 0.0, "lat": 38.89681566666667, "name": "01c96f97d28cee78068f80bdca0a67c0", "fusion_lon": 0.0, "bike_id": "01c96f97d28cee78068f80bdca0a67c0", "is_disabled": 0, "is_reserved": 0}, {"rental_uris": {"ios": "https://dc.lft.to/lastmile_qr_scan", "android": "https://dc.lft.to/lastmile_qr_scan"}, "lon": -76.988639, "type": "electric_scooter", "fusion_lat": 0.0, "lat": 38.900255333333334, "name": "9873b2a87972e668f5cd8c4a3c490ee6", "fusion_lon": 0.0, "bike_id": "9873b2a87972e668f5cd8c4a3c490ee6", "is_disabled": 0, "is_reserved": 0}, {"rental_uris": {"ios": "https://dc.lft.to/lastmile_qr_scan", "android": "https://dc.lft.to/lastmile_qr_scan"}, "lon": -77.04844333333334, "type": "electric_scooter", "fusion_lat": 0.0, "lat": 38.909744, "name": "98f10f327e123a9142a5a3f3b83e153b", "fusion_lon": 0.0, "bike_id": "98f10f327e123a9142a5a3f3b83e153b", "is_disabled": 0, "is_reserved": 0}, {"rental_uris": {"ios": "https://dc.lft.to/lastmile_qr_scan", "android": "https://dc.lft.to/lastmile_qr_scan"}, "lon": -76.9808895, "type": "electric_scooter", "fusion_lat": 0.0, "lat": 38.85722366666667, "name": "115e55421cb3ac780979b7f9a3780fc4", "fusion_lon": 0.0, "bike_id": "115e55421cb3ac780979b7f9a3780fc4", "is_disabled": 0, "is_reserved": 0}, {"rental_uris": {"ios": "https://dc.lft.to/lastmile_qr_scan", "android": "https://dc.lft.to/lastmile_qr_scan"}, "lon": -76.98762516666666, "type": "electric_scooter", "fusion_lat": 0.0, "lat": 38.84503, "name": "89c6287ae7830c9b68a5802233c838de", "fusion_lon": 0.0, "bike_id": "89c6287ae7830c9b68a5802233c838de", "is_disabled": 0, "is_reserved": 0}, {"rental_uris": {"ios": "https://dc.lft.to/lastmile_qr_scan", "android": "https://dc.lft.to/lastmile_qr_scan"}, "lon": -76.979259, "type": "electric_scooter", "fusion_lat": 0.0, "lat": 38.90500683333333, "name": "10cd2ecbad47d01f79f521585e60c0ae", "fusion_lon": 0.0, "bike_id": "10cd2ecbad47d01f79f521585e60c0ae", "is_disabled": 0, "is_reserved": 0}, {"rental_uris": {"ios": "https://dc.lft.to/lastmile_qr_scan", "android": "https://dc.lft.to/lastmile_qr_scan"}, "lon": -77.041545, "type": "electric_scooter", "fusion_lat": 0.0, "lat": 38.91951783333333, "name": "6ce9171c8ce53457ae0cd2a98c4b442f", "fusion_lon": 0.0, "bike_id": "6ce9171c8ce53457ae0cd2a98c4b442f", "is_disabled": 0, "is_reserved": 0}, {"rental_uris": {"ios": "https://dc.lft.to/lastmile_qr_scan", "android": "https://dc.lft.to/lastmile_qr_scan"}, "lon": -77.04477733333333, "type": "electric_scooter", "fusion_lat": 0.0, "lat": 38.91266266666667, "name": "d99386ffdd03e31ec9ec53507afe2449", "fusion_lon": 0.0, "bike_id": "d99386ffdd03e31ec9ec53507afe2449", "is_disabled": 0, "is_reserved": 0}, {"rental_uris": {"ios": "https://dc.lft.to/lastmile_qr_scan", "android": "https://dc.lft.to/lastmile_qr_scan"}, "lon": -77.02238216666667, "type": "electric_scooter", "fusion_lat": 0.0, "lat": 38.962185833333336, "name": "207ab1ae01e5b7bec76f4d94412ca2a7", "fusion_lon": 0.0, "bike_id": "207ab1ae01e5b7bec76f4d94412ca2a7", "is_disabled": 0, "is_reserved": 0}, {"rental_uris": {"ios": "https://dc.lft.to/lastmile_qr_scan", "android": "https://dc.lft.to/lastmile_qr_scan"}, "lon": -76.9855865, "type": "electric_scooter", "fusion_lat": 0.0, "lat": 38.855999, "name": "cee78c9108eb14e244981808153f3712", "fusion_lon": 0.0, "bike_id": "cee78c9108eb14e244981808153f3712", "is_disabled": 0, "is_reserved": 0}, {"rental_uris": {"ios": "https://dc.lft.to/lastmile_qr_scan", "android": "https://dc.lft.to/lastmile_qr_scan"}, "lon": -77.0057085, "type": "electric_scooter", "fusion_lat": 0.0, "lat": 38.905462666666665, "name": "6e68583e890a98bda91e57ce917c71cd", "fusion_lon": 0.0, "bike_id": "6e68583e890a98bda91e57ce917c71cd", "is_disabled": 0, "is_reserved": 0}, {"rental_uris": {"ios": "https://dc.lft.to/lastmile_qr_scan", "android": "https://dc.lft.to/lastmile_qr_scan"}, "lon": -76.98656516666667, "type": "electric_scooter", "fusion_lat": 0.0, "lat": 38.85806933333333, "name": "5b15594a4f44384953fd3fea6c3f33bf", "fusion_lon": 0.0, "bike_id": "5b15594a4f44384953fd3fea6c3f33bf", "is_disabled": 0, "is_reserved": 0}, {"rental_uris": {"ios": "https://dc.lft.to/lastmile_qr_scan", "android": "https://dc.lft.to/lastmile_qr_scan"}, "lon": -77.02227, "type": "electric_scooter", "fusion_lat": 0.0, "lat": 38.893566166666666, "name": "640591fee03c8e22363eec949bd5ae6c", "fusion_lon": 0.0, "bike_id": "640591fee03c8e22363eec949bd5ae6c", "is_disabled": 0, "is_reserved": 0}, {"rental_uris": {"ios": "https://dc.lft.to/lastmile_qr_scan", "android": "https://dc.lft.to/lastmile_qr_scan"}, "lon": -77.04199966666667, "type": "electric_scooter", "fusion_lat": 0.0, "lat": 38.920574333333334, "name": "c19eeca51c4540e999a0eeed5f88745b", "fusion_lon": 0.0, "bike_id": "c19eeca51c4540e999a0eeed5f88745b", "is_disabled": 0, "is_reserved": 0}, {"rental_uris": {"ios": "https://dc.lft.to/lastmile_qr_scan", "android": "https://dc.lft.to/lastmile_qr_scan"}, "lon": -77.10030266666666, "type": "electric_bike", "fusion_lat": 0.0, "lat": 38.990689, "name": "3e9fe6da460ec6e0a992d32e0b0de6f1", "fusion_lon": 0.0, "bike_id": "3e9fe6da460ec6e0a992d32e0b0de6f1", "is_disabled": 0, "is_reserved": 0}, {"rental_uris": {"ios": "https://dc.lft.to/lastmile_qr_scan", "android": "https://dc.lft.to/lastmile_qr_scan"}, "lon": -77.00354266666666, "type": "electric_scooter", "fusion_lat": 0.0, "lat": 38.89768266666667, "name": "e71a80fe62c7fe468df49fb8c36368ae", "fusion_lon": 0.0, "bike_id": "e71a80fe62c7fe468df49fb8c36368ae", "is_disabled": 0, "is_reserved": 0}, {"rental_uris": {"ios": "https://dc.lft.to/lastmile_qr_scan", "android": "https://dc.lft.to/lastmile_qr_scan"}, "lon": -76.94657583333333, "type": "electric_scooter", "fusion_lat": 0.0, "lat": 38.8983155, "name": "4634cf6a627765e69a25f5ab33e52b27", "fusion_lon": 0.0, "bike_id": "4634cf6a627765e69a25f5ab33e52b27", "is_disabled": 0, "is_reserved": 0}, {"rental_uris": {"ios": "https://dc.lft.to/lastmile_qr_scan", "android": "https://dc.lft.to/lastmile_qr_scan"}, "lon": -77.02336833333334, "type": "electric_scooter", "fusion_lat": 0.0, "lat": 38.930557666666665, "name": "d5991a4c2691ba764d67fe79a8739e46", "fusion_lon": 0.0, "bike_id": "d5991a4c2691ba764d67fe79a8739e46", "is_disabled": 0, "is_reserved": 0}, {"rental_uris": {"ios": "https://dc.lft.to/lastmile_qr_scan", "android": "https://dc.lft.to/lastmile_qr_scan"}, "lon": -77.1626815, "type": "electric_bike", "fusion_lat": 0.0, "lat": 38.88664716666667, "name": "144a3d343cea7c60848cff4570b825ee", "fusion_lon": 0.0, "bike_id": "144a3d343cea7c60848cff4570b825ee", "is_disabled": 0, "is_reserved": 0}, {"rental_uris": {"ios": "https://dc.lft.to/lastmile_qr_scan", "android": "https://dc.lft.to/lastmile_qr_scan"}, "lon": -76.98572616666667, "type": "electric_scooter", "fusion_lat": 0.0, "lat": 38.89890466666667, "name": "c4cb6d0f1b9c2a5d3908c4e99207e9cb", "fusion_lon": 0.0, "bike_id": "c4cb6d0f1b9c2a5d3908c4e99207e9cb", "is_disabled": 0, "is_reserved": 0}, {"rental_uris": {"ios": "https://dc.lft.to/lastmile_qr_scan", "android": "https://dc.lft.to/lastmile_qr_scan"}, "lon": -77.0222575, "type": "electric_scooter", "fusion_lat": 0.0, "lat": 38.912733833333334, "name": "7919cc3df70342e435a7ddfdfdebd250", "fusion_lon": 0.0, "bike_id": "7919cc3df70342e435a7ddfdfdebd250", "is_disabled": 0, "is_reserved": 0}, {"rental_uris": {"ios": "https://dc.lft.to/lastmile_qr_scan", "android": "https://dc.lft.to/lastmile_qr_scan"}, "lon": -77.03902466666666, "type": "electric_scooter", "fusion_lat": 0.0, "lat": 38.91844433333333, "name": "bb2dd48382b5467dafefd94013474978", "fusion_lon": 0.0, "bike_id": "bb2dd48382b5467dafefd94013474978", "is_disabled": 0, "is_reserved": 0}, {"rental_uris": {"ios": "https://dc.lft.to/lastmile_qr_scan", "android": "https://dc.lft.to/lastmile_qr_scan"}, "lon": -77.04174083333334, "type": "electric_scooter", "fusion_lat": 0.0, "lat": 38.899505833333336, "name": "ff9697e518279011fb2c1cda307b129e", "fusion_lon": 0.0, "bike_id": "ff9697e518279011fb2c1cda307b129e", "is_disabled": 0, "is_reserved": 0}, {"rental_uris": {"ios": "https://dc.lft.to/lastmile_qr_scan", "android": "https://dc.lft.to/lastmile_qr_scan"}, "lon": -77.0117615, "type": "electric_bike", "fusion_lat": 0.0, "lat": 38.872343, "name": "811bf46d9ff2e707203e786b7f4b346d", "fusion_lon": 0.0, "bike_id": "811bf46d9ff2e707203e786b7f4b346d", "is_disabled": 0, "is_reserved": 0}, {"rental_uris": {"ios": "https://dc.lft.to/lastmile_qr_scan", "android": "https://dc.lft.to/lastmile_qr_scan"}, "lon": -77.02584183333333, "type": "electric_scooter", "fusion_lat": 0.0, "lat": 38.887473166666666, "name": "c088a0643cdb72bed7786bab7fe86d1a", "fusion_lon": 0.0, "bike_id": "c088a0643cdb72bed7786bab7fe86d1a", "is_disabled": 0, "is_reserved": 0}, {"rental_uris": {"ios": "https://dc.lft.to/lastmile_qr_scan", "android": "https://dc.lft.to/lastmile_qr_scan"}, "lon": -76.9809595, "type": "electric_bike", "fusion_lat": 0.0, "lat": 38.88140466666667, "name": "7ce4a0cd5a6ae005e12e06dd3d89afd1", "fusion_lon": 0.0, "bike_id": "7ce4a0cd5a6ae005e12e06dd3d89afd1", "is_disabled": 0, "is_reserved": 0}, {"rental_uris": {"ios": "https://dc.lft.to/lastmile_qr_scan", "android": "https://dc.lft.to/lastmile_qr_scan"}, "lon": -77.02319566666667, "type": "electric_scooter", "fusion_lat": 0.0, "lat": 38.8819635, "name": "e10f2e127f7e43b2a28d7080267df770", "fusion_lon": 0.0, "bike_id": "e10f2e127f7e43b2a28d7080267df770", "is_disabled": 0, "is_reserved": 0}, {"rental_uris": {"ios": "https://dc.lft.to/lastmile_qr_scan", "android": "https://dc.lft.to/lastmile_qr_scan"}, "lon": -77.04339266666666, "type": "electric_bike", "fusion_lat": 0.0, "lat": 38.908376833333335, "name": "bc7841a69788318d507f58aca81ea2ad", "fusion_lon": 0.0, "bike_id": "bc7841a69788318d507f58aca81ea2ad", "is_disabled": 0, "is_reserved": 0}, {"rental_uris": {"ios": "https://dc.lft.to/lastmile_qr_scan", "android": "https://dc.lft.to/lastmile_qr_scan"}, "lon": -76.9937665, "type": "electric_scooter", "fusion_lat": 0.0, "lat": 38.879749833333335, "name": "c4a923141acf41d64b9b357b16cf37d7", "fusion_lon": 0.0, "bike_id": "c4a923141acf41d64b9b357b16cf37d7", "is_disabled": 0, "is_reserved": 0}, {"rental_uris": {"ios": "https://dc.lft.to/lastmile_qr_scan", "android": "https://dc.lft.to/lastmile_qr_scan"}, "lon": -77.00202, "type": "electric_scooter", "fusion_lat": 0.0, "lat": 38.90033533333333, "name": "53b092dcf31118b1aedc2542b9941d50", "fusion_lon": 0.0, "bike_id": "53b092dcf31118b1aedc2542b9941d50", "is_disabled": 0, "is_reserved": 0}, {"rental_uris": {"ios": "https://dc.lft.to/lastmile_qr_scan", "android": "https://dc.lft.to/lastmile_qr_scan"}, "lon": -77.05608533333333, "type": "electric_scooter", "fusion_lat": 0.0, "lat": 38.8934455, "name": "a9a068e56d4b1698f1e0e8e2686df37b", "fusion_lon": 0.0, "bike_id": "a9a068e56d4b1698f1e0e8e2686df37b", "is_disabled": 0, "is_reserved": 0}, {"rental_uris": {"ios": "https://dc.lft.to/lastmile_qr_scan", "android": "https://dc.lft.to/lastmile_qr_scan"}, "lon": -77.04363333333333, "type": "electric_scooter", "fusion_lat": 0.0, "lat": 38.92120833333333, "name": "ecdfeaaf6932e1eeea6c97233840f971", "fusion_lon": 0.0, "bike_id": "ecdfeaaf6932e1eeea6c97233840f971", "is_disabled": 0, "is_reserved": 0}, {"rental_uris": {"ios": "https://dc.lft.to/lastmile_qr_scan", "android": "https://dc.lft.to/lastmile_qr_scan"}, "lon": -77.00581266666667, "type": "electric_scooter", "fusion_lat": 0.0, "lat": 38.905449, "name": "fcbe6e5bc174f2ed4272eb87cb0eccb4", "fusion_lon": 0.0, "bike_id": "fcbe6e5bc174f2ed4272eb87cb0eccb4", "is_disabled": 0, "is_reserved": 0}, {"rental_uris": {"ios": "https://dc.lft.to/lastmile_qr_scan", "android": "https://dc.lft.to/lastmile_qr_scan"}, "lon": -77.02466116666666, "type": "electric_scooter", "fusion_lat": 0.0, "lat": 38.937469, "name": "201dbee0b61bf7013bcbedfad368afb9", "fusion_lon": 0.0, "bike_id": "201dbee0b61bf7013bcbedfad368afb9", "is_disabled": 0, "is_reserved": 0}, {"rental_uris": {"ios": "https://dc.lft.to/lastmile_qr_scan", "android": "https://dc.lft.to/lastmile_qr_scan"}, "lon": -76.98182316666667, "type": "electric_scooter", "fusion_lat": 0.0, "lat": 38.895849166666665, "name": "b3790a3e448d831644189a72a1a25c6c", "fusion_lon": 0.0, "bike_id": "b3790a3e448d831644189a72a1a25c6c", "is_disabled": 0, "is_reserved": 0}, {"rental_uris": {"ios": "https://dc.lft.to/lastmile_qr_scan", "android": "https://dc.lft.to/lastmile_qr_scan"}, "lon": -76.909684, "type": "electric_bike", "fusion_lat": 0.0, "lat": 38.85414883333333, "name": "8e91fafeb3d446ef37c02a50d497deda", "fusion_lon": 0.0, "bike_id": "8e91fafeb3d446ef37c02a50d497deda", "is_disabled": 0, "is_reserved": 0}, {"rental_uris": {"ios": "https://dc.lft.to/lastmile_qr_scan", "android": "https://dc.lft.to/lastmile_qr_scan"}, "lon": -77.02362333333333, "type": "electric_scooter", "fusion_lat": 0.0, "lat": 38.92501216666667, "name": "9e4d32fc043ea4113bf442c853555008", "fusion_lon": 0.0, "bike_id": "9e4d32fc043ea4113bf442c853555008", "is_disabled": 0, "is_reserved": 0}, {"rental_uris": {"ios": "https://dc.lft.to/lastmile_qr_scan", "android": "https://dc.lft.to/lastmile_qr_scan"}, "lon": -77.03677616666667, "type": "electric_scooter", "fusion_lat": 0.0, "lat": 38.939366166666666, "name": "e00e16c8959982cd27375902c1de3969", "fusion_lon": 0.0, "bike_id": "e00e16c8959982cd27375902c1de3969", "is_disabled": 0, "is_reserved": 0}, {"rental_uris": {"ios": "https://dc.lft.to/lastmile_qr_scan", "android": "https://dc.lft.to/lastmile_qr_scan"}, "lon": -77.035526, "type": "electric_scooter", "fusion_lat": 0.0, "lat": 38.9170385, "name": "0d3d33686c8429a720cc28233d750e76", "fusion_lon": 0.0, "bike_id": "0d3d33686c8429a720cc28233d750e76", "is_disabled": 0, "is_reserved": 0}, {"rental_uris": {"ios": "https://dc.lft.to/lastmile_qr_scan", "android": "https://dc.lft.to/lastmile_qr_scan"}, "lon": -77.01302666666666, "type": "electric_scooter", "fusion_lat": 0.0, "lat": 38.921248166666665, "name": "8333c22535d3b75f67b4a76daf4938f7", "fusion_lon": 0.0, "bike_id": "8333c22535d3b75f67b4a76daf4938f7", "is_disabled": 0, "is_reserved": 0}, {"rental_uris": {"ios": "https://dc.lft.to/lastmile_qr_scan", "android": "https://dc.lft.to/lastmile_qr_scan"}, "lon": -76.94891316666667, "type": "electric_scooter", "fusion_lat": 0.0, "lat": 38.89529533333334, "name": "91a13e56d4cf42deccafec9e778167b0", "fusion_lon": 0.0, "bike_id": "91a13e56d4cf42deccafec9e778167b0", "is_disabled": 0, "is_reserved": 0}, {"rental_uris": {"ios": "https://dc.lft.to/lastmile_qr_scan", "android": "https://dc.lft.to/lastmile_qr_scan"}, "lon": -77.0273225, "type": "electric_scooter", "fusion_lat": 0.0, "lat": 38.91701533333333, "name": "58d2e5e25617110bcad088ff0f2c9f39", "fusion_lon": 0.0, "bike_id": "58d2e5e25617110bcad088ff0f2c9f39", "is_disabled": 0, "is_reserved": 0}, {"rental_uris": {"ios": "https://dc.lft.to/lastmile_qr_scan", "android": "https://dc.lft.to/lastmile_qr_scan"}, "lon": -77.0350705, "type": "electric_scooter", "fusion_lat": 0.0, "lat": 38.918823333333336, "name": "2503bfd86b2dfa1057e07306f5f4f29e", "fusion_lon": 0.0, "bike_id": "2503bfd86b2dfa1057e07306f5f4f29e", "is_disabled": 0, "is_reserved": 0}, {"rental_uris": {"ios": "https://dc.lft.to/lastmile_qr_scan", "android": "https://dc.lft.to/lastmile_qr_scan"}, "lon": -77.02404366666667, "type": "electric_scooter", "fusion_lat": 0.0, "lat": 38.934973166666666, "name": "9eddb453eda123f66f525a0eb0a8e2fc", "fusion_lon": 0.0, "bike_id": "9eddb453eda123f66f525a0eb0a8e2fc", "is_disabled": 0, "is_reserved": 0}, {"rental_uris": {"ios": "https://dc.lft.to/lastmile_qr_scan", "android": "https://dc.lft.to/lastmile_qr_scan"}, "lon": -77.032992, "type": "electric_scooter", "fusion_lat": 0.0, "lat": 38.91821066666667, "name": "48493606e1c68430b8ed38541780f409", "fusion_lon": 0.0, "bike_id": "48493606e1c68430b8ed38541780f409", "is_disabled": 0, "is_reserved": 0}, {"rental_uris": {"ios": "https://dc.lft.to/lastmile_qr_scan", "android": "https://dc.lft.to/lastmile_qr_scan"}, "lon": -77.06284933333333, "type": "electric_scooter", "fusion_lat": 0.0, "lat": 38.912527833333336, "name": "7432de96bad362d80d0046fcf771cd27", "fusion_lon": 0.0, "bike_id": "7432de96bad362d80d0046fcf771cd27", "is_disabled": 0, "is_reserved": 0}, {"rental_uris": {"ios": "https://dc.lft.to/lastmile_qr_scan", "android": "https://dc.lft.to/lastmile_qr_scan"}, "lon": -77.0187085, "type": "electric_scooter", "fusion_lat": 0.0, "lat": 38.9157485, "name": "3a60fa963b7b35afbd58ec70a87b2c7b", "fusion_lon": 0.0, "bike_id": "3a60fa963b7b35afbd58ec70a87b2c7b", "is_disabled": 0, "is_reserved": 0}, {"rental_uris": {"ios": "https://dc.lft.to/lastmile_qr_scan", "android": "https://dc.lft.to/lastmile_qr_scan"}, "lon": -77.03431533333334, "type": "electric_scooter", "fusion_lat": 0.0, "lat": 38.908120333333336, "name": "29c3629370a52fd3a36fed74746efc78", "fusion_lon": 0.0, "bike_id": "29c3629370a52fd3a36fed74746efc78", "is_disabled": 0, "is_reserved": 0}, {"rental_uris": {"ios": "https://dc.lft.to/lastmile_qr_scan", "android": "https://dc.lft.to/lastmile_qr_scan"}, "lon": -76.949847, "type": "electric_scooter", "fusion_lat": 0.0, "lat": 38.89362466666667, "name": "0ace796a633a5196b2b602e91f337714", "fusion_lon": 0.0, "bike_id": "0ace796a633a5196b2b602e91f337714", "is_disabled": 0, "is_reserved": 0}, {"rental_uris": {"ios": "https://dc.lft.to/lastmile_qr_scan", "android": "https://dc.lft.to/lastmile_qr_scan"}, "lon": -77.03801333333334, "type": "electric_bike", "fusion_lat": 0.0, "lat": 38.9968425, "name": "27130916e3f8ed6aa1d0ea2b35c08516", "fusion_lon": 0.0, "bike_id": "27130916e3f8ed6aa1d0ea2b35c08516", "is_disabled": 0, "is_reserved": 0}, {"rental_uris": {"ios": "https://dc.lft.to/lastmile_qr_scan", "android": "https://dc.lft.to/lastmile_qr_scan"}, "lon": -77.0468775, "type": "electric_scooter", "fusion_lat": 0.0, "lat": 38.89223716666667, "name": "2a9da28f493a672eaa176850d3b1aa97", "fusion_lon": 0.0, "bike_id": "2a9da28f493a672eaa176850d3b1aa97", "is_disabled": 0, "is_reserved": 0}, {"rental_uris": {"ios": "https://dc.lft.to/lastmile_qr_scan", "android": "https://dc.lft.to/lastmile_qr_scan"}, "lon": -77.00216566666667, "type": "electric_scooter", "fusion_lat": 0.0, "lat": 38.90838316666667, "name": "13155c11bc9d3796e3aaa13ff5957586", "fusion_lon": 0.0, "bike_id": "13155c11bc9d3796e3aaa13ff5957586", "is_disabled": 0, "is_reserved": 0}, {"rental_uris": {"ios": "https://dc.lft.to/lastmile_qr_scan", "android": "https://dc.lft.to/lastmile_qr_scan"}, "lon": -77.03632433333334, "type": "electric_bike", "fusion_lat": 0.0, "lat": 38.912674, "name": "8a6a5673a1b0e19091e9b114a587e4ed", "fusion_lon": 0.0, "bike_id": "8a6a5673a1b0e19091e9b114a587e4ed", "is_disabled": 0, "is_reserved": 0}, {"rental_uris": {"ios": "https://dc.lft.to/lastmile_qr_scan", "android": "https://dc.lft.to/lastmile_qr_scan"}, "lon": -77.04866366666667, "type": "electric_scooter", "fusion_lat": 0.0, "lat": 38.9029265, "name": "277f6d5754a11bb5e04761a8ecd84fff", "fusion_lon": 0.0, "bike_id": "277f6d5754a11bb5e04761a8ecd84fff", "is_disabled": 0, "is_reserved": 0}, {"rental_uris": {"ios": "https://dc.lft.to/lastmile_qr_scan", "android": "https://dc.lft.to/lastmile_qr_scan"}, "lon": -77.0298455, "type": "electric_scooter", "fusion_lat": 0.0, "lat": 38.900587, "name": "534092fdb56f1aebc669a4935aa77c93", "fusion_lon": 0.0, "bike_id": "534092fdb56f1aebc669a4935aa77c93", "is_disabled": 0, "is_reserved": 0}, {"rental_uris": {"ios": "https://dc.lft.to/lastmile_qr_scan", "android": "https://dc.lft.to/lastmile_qr_scan"}, "lon": -77.0507775, "type": "electric_scooter", "fusion_lat": 0.0, "lat": 38.900417833333336, "name": "783767ee6ebb4175da9797127b1cb4be", "fusion_lon": 0.0, "bike_id": "783767ee6ebb4175da9797127b1cb4be", "is_disabled": 0, "is_reserved": 0}, {"rental_uris": {"ios": "https://dc.lft.to/lastmile_qr_scan", "android": "https://dc.lft.to/lastmile_qr_scan"}, "lon": -77.03631483333334, "type": "electric_scooter", "fusion_lat": 0.0, "lat": 38.93690466666666, "name": "b254d1187c95ab159c1a18ddec2fcc15", "fusion_lon": 0.0, "bike_id": "b254d1187c95ab159c1a18ddec2fcc15", "is_disabled": 0, "is_reserved": 0}, {"rental_uris": {"ios": "https://dc.lft.to/lastmile_qr_scan", "android": "https://dc.lft.to/lastmile_qr_scan"}, "lon": -76.97445366666666, "type": "electric_bike", "fusion_lat": 0.0, "lat": 38.86402433333333, "name": "2745b91298f5aa0e2193548bb4a7a195", "fusion_lon": 0.0, "bike_id": "2745b91298f5aa0e2193548bb4a7a195", "is_disabled": 0, "is_reserved": 0}, {"rental_uris": {"ios": "https://dc.lft.to/lastmile_qr_scan", "android": "https://dc.lft.to/lastmile_qr_scan"}, "lon": -76.99779033333333, "type": "electric_scooter", "fusion_lat": 0.0, "lat": 38.844250833333334, "name": "d4d8297a3f8cae4b66fe1d9b407fcc0b", "fusion_lon": 0.0, "bike_id": "d4d8297a3f8cae4b66fe1d9b407fcc0b", "is_disabled": 0, "is_reserved": 0}, {"rental_uris": {"ios": "https://dc.lft.to/lastmile_qr_scan", "android": "https://dc.lft.to/lastmile_qr_scan"}, "lon": -77.03585166666667, "type": "electric_scooter", "fusion_lat": 0.0, "lat": 38.932454666666665, "name": "5b602c2d55b8ec25e608e41e514509df", "fusion_lon": 0.0, "bike_id": "5b602c2d55b8ec25e608e41e514509df", "is_disabled": 0, "is_reserved": 0}, {"rental_uris": {"ios": "https://dc.lft.to/lastmile_qr_scan", "android": "https://dc.lft.to/lastmile_qr_scan"}, "lon": -77.015204, "type": "electric_scooter", "fusion_lat": 0.0, "lat": 38.89815483333334, "name": "e37c41d4b8c34a1e1490f41708f99b4c", "fusion_lon": 0.0, "bike_id": "e37c41d4b8c34a1e1490f41708f99b4c", "is_disabled": 0, "is_reserved": 0}, {"rental_uris": {"ios": "https://dc.lft.to/lastmile_qr_scan", "android": "https://dc.lft.to/lastmile_qr_scan"}, "lon": -77.04113133333334, "type": "electric_scooter", "fusion_lat": 0.0, "lat": 38.9059415, "name": "d0a2670d1ebdeda2adecb72345d22536", "fusion_lon": 0.0, "bike_id": "d0a2670d1ebdeda2adecb72345d22536", "is_disabled": 0, "is_reserved": 0}, {"rental_uris": {"ios": "https://dc.lft.to/lastmile_qr_scan", "android": "https://dc.lft.to/lastmile_qr_scan"}, "lon": -77.06985633333333, "type": "electric_scooter", "fusion_lat": 0.0, "lat": 38.9548975, "name": "9b985ff1d3c7593f134482335a453ec3", "fusion_lon": 0.0, "bike_id": "9b985ff1d3c7593f134482335a453ec3", "is_disabled": 0, "is_reserved": 0}, {"rental_uris": {"ios": "https://dc.lft.to/lastmile_qr_scan", "android": "https://dc.lft.to/lastmile_qr_scan"}, "lon": -76.99794133333333, "type": "electric_scooter", "fusion_lat": 0.0, "lat": 38.92187233333333, "name": "a6b46834c6c2f1385826a19571d32a60", "fusion_lon": 0.0, "bike_id": "a6b46834c6c2f1385826a19571d32a60", "is_disabled": 0, "is_reserved": 0}, {"rental_uris": {"ios": "https://dc.lft.to/lastmile_qr_scan", "android": "https://dc.lft.to/lastmile_qr_scan"}, "lon": -76.9949975, "type": "electric_bike", "fusion_lat": 0.0, "lat": 39.00007866666667, "name": "0eddf8d8d9c730f612980d14e0fb74f2", "fusion_lon": 0.0, "bike_id": "0eddf8d8d9c730f612980d14e0fb74f2", "is_disabled": 0, "is_reserved": 0}, {"rental_uris": {"ios": "https://dc.lft.to/lastmile_qr_scan", "android": "https://dc.lft.to/lastmile_qr_scan"}, "lon": -77.00518416666667, "type": "electric_scooter", "fusion_lat": 0.0, "lat": 38.91715966666667, "name": "fbaf20ba2094b0e2698a5dc9db6f91d7", "fusion_lon": 0.0, "bike_id": "fbaf20ba2094b0e2698a5dc9db6f91d7", "is_disabled": 0, "is_reserved": 0}, {"rental_uris": {"ios": "https://dc.lft.to/lastmile_qr_scan", "android": "https://dc.lft.to/lastmile_qr_scan"}, "lon": -77.04395233333334, "type": "electric_scooter", "fusion_lat": 0.0, "lat": 38.900498666666664, "name": "6ac372ce18dc39fb982c656955cecacc", "fusion_lon": 0.0, "bike_id": "6ac372ce18dc39fb982c656955cecacc", "is_disabled": 0, "is_reserved": 0}, {"rental_uris": {"ios": "https://dc.lft.to/lastmile_qr_scan", "android": "https://dc.lft.to/lastmile_qr_scan"}, "lon": -77.05127966666667, "type": "electric_scooter", "fusion_lat": 0.0, "lat": 38.901195666666666, "name": "eea3d76778a20da38c47a1b2e27b7049", "fusion_lon": 0.0, "bike_id": "eea3d76778a20da38c47a1b2e27b7049", "is_disabled": 0, "is_reserved": 0}, {"rental_uris": {"ios": "https://dc.lft.to/lastmile_qr_scan", "android": "https://dc.lft.to/lastmile_qr_scan"}, "lon": -76.99980966666666, "type": "electric_scooter", "fusion_lat": 0.0, "lat": 38.838365833333334, "name": "f929beb6664d749a42ba2fba4ab4fc87", "fusion_lon": 0.0, "bike_id": "f929beb6664d749a42ba2fba4ab4fc87", "is_disabled": 0, "is_reserved": 0}, {"rental_uris": {"ios": "https://dc.lft.to/lastmile_qr_scan", "android": "https://dc.lft.to/lastmile_qr_scan"}, "lon": -77.07125933333333, "type": "electric_scooter", "fusion_lat": 0.0, "lat": 38.9146315, "name": "afad0d7c22c49f82565a23af2a592239", "fusion_lon": 0.0, "bike_id": "afad0d7c22c49f82565a23af2a592239", "is_disabled": 0, "is_reserved": 0}, {"rental_uris": {"ios": "https://dc.lft.to/lastmile_qr_scan", "android": "https://dc.lft.to/lastmile_qr_scan"}, "lon": -77.03630183333334, "type": "electric_scooter", "fusion_lat": 0.0, "lat": 38.9559935, "name": "a7ad1f0351ff5f0b6dc03e58e44fd6f0", "fusion_lon": 0.0, "bike_id": "a7ad1f0351ff5f0b6dc03e58e44fd6f0", "is_disabled": 0, "is_reserved": 0}, {"rental_uris": {"ios": "https://dc.lft.to/lastmile_qr_scan", "android": "https://dc.lft.to/lastmile_qr_scan"}, "lon": -77.04169666666667, "type": "electric_scooter", "fusion_lat": 0.0, "lat": 38.901949, "name": "28c81b0429334bb7771cd373d0d87c14", "fusion_lon": 0.0, "bike_id": "28c81b0429334bb7771cd373d0d87c14", "is_disabled": 0, "is_reserved": 0}, {"rental_uris": {"ios": "https://dc.lft.to/lastmile_qr_scan", "android": "https://dc.lft.to/lastmile_qr_scan"}, "lon": -77.04868483333334, "type": "electric_scooter", "fusion_lat": 0.0, "lat": 38.900769833333335, "name": "82f1aab3e0c9d7ba2a22178eb103c2d1", "fusion_lon": 0.0, "bike_id": "82f1aab3e0c9d7ba2a22178eb103c2d1", "is_disabled": 0, "is_reserved": 0}, {"rental_uris": {"ios": "https://dc.lft.to/lastmile_qr_scan", "android": "https://dc.lft.to/lastmile_qr_scan"}, "lon": -77.02368166666666, "type": "electric_scooter", "fusion_lat": 0.0, "lat": 38.937731, "name": "907a4f8d5070f44dea4360e0e794d187", "fusion_lon": 0.0, "bike_id": "907a4f8d5070f44dea4360e0e794d187", "is_disabled": 0, "is_reserved": 0}, {"rental_uris": {"ios": "https://dc.lft.to/lastmile_qr_scan", "android": "https://dc.lft.to/lastmile_qr_scan"}, "lon": -77.021325, "type": "electric_scooter", "fusion_lat": 0.0, "lat": 38.897513000000004, "name": "e98292a9d2535d49e593ceb0c6a7a310", "fusion_lon": 0.0, "bike_id": "e98292a9d2535d49e593ceb0c6a7a310", "is_disabled": 0, "is_reserved": 0}, {"rental_uris": {"ios": "https://dc.lft.to/lastmile_qr_scan", "android": "https://dc.lft.to/lastmile_qr_scan"}, "lon": -77.02320916666666, "type": "electric_scooter", "fusion_lat": 0.0, "lat": 38.927236666666666, "name": "e052a21898232488503904f801dd1b98", "fusion_lon": 0.0, "bike_id": "e052a21898232488503904f801dd1b98", "is_disabled": 0, "is_reserved": 0}, {"rental_uris": {"ios": "https://dc.lft.to/lastmile_qr_scan", "android": "https://dc.lft.to/lastmile_qr_scan"}, "lon": -76.954123, "type": "electric_scooter", "fusion_lat": 0.0, "lat": 38.8899285, "name": "67de8f2edc859d790551275b8c69e625", "fusion_lon": 0.0, "bike_id": "67de8f2edc859d790551275b8c69e625", "is_disabled": 0, "is_reserved": 0}, {"rental_uris": {"ios": "https://dc.lft.to/lastmile_qr_scan", "android": "https://dc.lft.to/lastmile_qr_scan"}, "lon": -77.0375205, "type": "electric_scooter", "fusion_lat": 0.0, "lat": 38.907626, "name": "61e6042630904a1e7fe103e07b3861e0", "fusion_lon": 0.0, "bike_id": "61e6042630904a1e7fe103e07b3861e0", "is_disabled": 0, "is_reserved": 0}, {"rental_uris": {"ios": "https://dc.lft.to/lastmile_qr_scan", "android": "https://dc.lft.to/lastmile_qr_scan"}, "lon": -77.07594516666667, "type": "electric_scooter", "fusion_lat": 0.0, "lat": 38.91214766666667, "name": "371420576dd59e2cb868c1e506e633cd", "fusion_lon": 0.0, "bike_id": "371420576dd59e2cb868c1e506e633cd", "is_disabled": 0, "is_reserved": 0}, {"rental_uris": {"ios": "https://dc.lft.to/lastmile_qr_scan", "android": "https://dc.lft.to/lastmile_qr_scan"}, "lon": -77.021913, "type": "electric_scooter", "fusion_lat": 0.0, "lat": 38.89768, "name": "6e194e554fd2ec78bb49df5f9e0fcc3f", "fusion_lon": 0.0, "bike_id": "6e194e554fd2ec78bb49df5f9e0fcc3f", "is_disabled": 0, "is_reserved": 0}, {"rental_uris": {"ios": "https://dc.lft.to/lastmile_qr_scan", "android": "https://dc.lft.to/lastmile_qr_scan"}, "lon": -77.03313266666666, "type": "electric_scooter", "fusion_lat": 0.0, "lat": 38.909599, "name": "41ed105a9612482dd3568555ec397a60", "fusion_lon": 0.0, "bike_id": "41ed105a9612482dd3568555ec397a60", "is_disabled": 0, "is_reserved": 0}, {"rental_uris": {"ios": "https://dc.lft.to/lastmile_qr_scan", "android": "https://dc.lft.to/lastmile_qr_scan"}, "lon": -77.107183, "type": "electric_bike", "fusion_lat": 0.0, "lat": 38.85554316666666, "name": "5dd76d7c22a87caca784a45806e95080", "fusion_lon": 0.0, "bike_id": "5dd76d7c22a87caca784a45806e95080", "is_disabled": 0, "is_reserved": 0}, {"rental_uris": {"ios": "https://dc.lft.to/lastmile_qr_scan", "android": "https://dc.lft.to/lastmile_qr_scan"}, "lon": -77.02583033333333, "type": "electric_scooter", "fusion_lat": 0.0, "lat": 38.88232683333333, "name": "7596dd905d56d19417a330a7fd2a92c2", "fusion_lon": 0.0, "bike_id": "7596dd905d56d19417a330a7fd2a92c2", "is_disabled": 0, "is_reserved": 0}, {"rental_uris": {"ios": "https://dc.lft.to/lastmile_qr_scan", "android": "https://dc.lft.to/lastmile_qr_scan"}, "lon": -77.02928116666666, "type": "electric_scooter", "fusion_lat": 0.0, "lat": 38.895581, "name": "e7a56d704e8ecaa55ae3664dbdb4ae7a", "fusion_lon": 0.0, "bike_id": "e7a56d704e8ecaa55ae3664dbdb4ae7a", "is_disabled": 0, "is_reserved": 0}, {"rental_uris": {"ios": "https://dc.lft.to/lastmile_qr_scan", "android": "https://dc.lft.to/lastmile_qr_scan"}, "lon": -76.99520916666667, "type": "electric_scooter", "fusion_lat": 0.0, "lat": 38.8625915, "name": "8ffed39ca1c0548b860997df03dbe0b4", "fusion_lon": 0.0, "bike_id": "8ffed39ca1c0548b860997df03dbe0b4", "is_disabled": 0, "is_reserved": 0}, {"rental_uris": {"ios": "https://dc.lft.to/lastmile_qr_scan", "android": "https://dc.lft.to/lastmile_qr_scan"}, "lon": -77.01782283333333, "type": "electric_bike", "fusion_lat": 0.0, "lat": 38.914939333333336, "name": "b4b1bae1586b583874afa4b1e8735dd5", "fusion_lon": 0.0, "bike_id": "b4b1bae1586b583874afa4b1e8735dd5", "is_disabled": 0, "is_reserved": 0}, {"rental_uris": {"ios": "https://dc.lft.to/lastmile_qr_scan", "android": "https://dc.lft.to/lastmile_qr_scan"}, "lon": -77.03643633333333, "type": "electric_scooter", "fusion_lat": 0.0, "lat": 38.91733, "name": "459ded794c6af009cf4e0ebfa1cafd35", "fusion_lon": 0.0, "bike_id": "459ded794c6af009cf4e0ebfa1cafd35", "is_disabled": 0, "is_reserved": 0}, {"rental_uris": {"ios": "https://dc.lft.to/lastmile_qr_scan", "android": "https://dc.lft.to/lastmile_qr_scan"}, "lon": -77.14121816666666, "type": "electric_bike", "fusion_lat": 0.0, "lat": 38.81604216666667, "name": "0ca78a96f7fdfd91fbdfe51c92edc0f5", "fusion_lon": 0.0, "bike_id": "0ca78a96f7fdfd91fbdfe51c92edc0f5", "is_disabled": 0, "is_reserved": 0}, {"rental_uris": {"ios": "https://dc.lft.to/lastmile_qr_scan", "android": "https://dc.lft.to/lastmile_qr_scan"}, "lon": -77.04272833333333, "type": "electric_scooter", "fusion_lat": 0.0, "lat": 38.9169955, "name": "f2a2c2388651784884f9d4ead84dd3b7", "fusion_lon": 0.0, "bike_id": "f2a2c2388651784884f9d4ead84dd3b7", "is_disabled": 0, "is_reserved": 0}, {"rental_uris": {"ios": "https://dc.lft.to/lastmile_qr_scan", "android": "https://dc.lft.to/lastmile_qr_scan"}, "lon": -77.01093916666666, "type": "electric_scooter", "fusion_lat": 0.0, "lat": 38.9163075, "name": "f6045fd27b4061235b08f773e234e1a6", "fusion_lon": 0.0, "bike_id": "f6045fd27b4061235b08f773e234e1a6", "is_disabled": 0, "is_reserved": 0}, {"rental_uris": {"ios": "https://dc.lft.to/lastmile_qr_scan", "android": "https://dc.lft.to/lastmile_qr_scan"}, "lon": -77.00849266666667, "type": "electric_bike", "fusion_lat": 0.0, "lat": 38.949151, "name": "95bfa55f0803a90a1683a7578dc82456", "fusion_lon": 0.0, "bike_id": "95bfa55f0803a90a1683a7578dc82456", "is_disabled": 0, "is_reserved": 0}, {"rental_uris": {"ios": "https://dc.lft.to/lastmile_qr_scan", "android": "https://dc.lft.to/lastmile_qr_scan"}, "lon": -77.01810916666666, "type": "electric_scooter", "fusion_lat": 0.0, "lat": 38.942082166666665, "name": "f900f155b42bbf9065f725a095c6543e", "fusion_lon": 0.0, "bike_id": "f900f155b42bbf9065f725a095c6543e", "is_disabled": 0, "is_reserved": 0}, {"rental_uris": {"ios": "https://dc.lft.to/lastmile_qr_scan", "android": "https://dc.lft.to/lastmile_qr_scan"}, "lon": -77.02850633333334, "type": "electric_scooter", "fusion_lat": 0.0, "lat": 38.934734166666665, "name": "91482e5ef0d041767af3d8354670db15", "fusion_lon": 0.0, "bike_id": "91482e5ef0d041767af3d8354670db15", "is_disabled": 0, "is_reserved": 0}, {"rental_uris": {"ios": "https://dc.lft.to/lastmile_qr_scan", "android": "https://dc.lft.to/lastmile_qr_scan"}, "lon": -77.02980533333333, "type": "electric_scooter", "fusion_lat": 0.0, "lat": 38.9623085, "name": "30034670fe639c999ad8db07e6c2fc98", "fusion_lon": 0.0, "bike_id": "30034670fe639c999ad8db07e6c2fc98", "is_disabled": 0, "is_reserved": 0}, {"rental_uris": {"ios": "https://dc.lft.to/lastmile_qr_scan", "android": "https://dc.lft.to/lastmile_qr_scan"}, "lon": -77.00406433333333, "type": "electric_scooter", "fusion_lat": 0.0, "lat": 38.879166833333336, "name": "4e09c4692950b0566de0fb5555bd3d02", "fusion_lon": 0.0, "bike_id": "4e09c4692950b0566de0fb5555bd3d02", "is_disabled": 0, "is_reserved": 0}, {"rental_uris": {"ios": "https://dc.lft.to/lastmile_qr_scan", "android": "https://dc.lft.to/lastmile_qr_scan"}, "lon": -77.0281565, "type": "electric_scooter", "fusion_lat": 0.0, "lat": 38.88186, "name": "ba6e4e35407af06ad7f7d9e34ce034b7", "fusion_lon": 0.0, "bike_id": "ba6e4e35407af06ad7f7d9e34ce034b7", "is_disabled": 0, "is_reserved": 0}, {"rental_uris": {"ios": "https://dc.lft.to/lastmile_qr_scan", "android": "https://dc.lft.to/lastmile_qr_scan"}, "lon": -77.03263666666666, "type": "electric_scooter", "fusion_lat": 0.0, "lat": 38.938098, "name": "3d571ad2b3a7b7a58a7bc44120470086", "fusion_lon": 0.0, "bike_id": "3d571ad2b3a7b7a58a7bc44120470086", "is_disabled": 0, "is_reserved": 0}, {"rental_uris": {"ios": "https://dc.lft.to/lastmile_qr_scan", "android": "https://dc.lft.to/lastmile_qr_scan"}, "lon": -77.05150866666666, "type": "electric_scooter", "fusion_lat": 0.0, "lat": 38.902409666666664, "name": "92e98eb95a35cc4d55fdd4c9d986667e", "fusion_lon": 0.0, "bike_id": "92e98eb95a35cc4d55fdd4c9d986667e", "is_disabled": 0, "is_reserved": 0}, {"rental_uris": {"ios": "https://dc.lft.to/lastmile_qr_scan", "android": "https://dc.lft.to/lastmile_qr_scan"}, "lon": -77.03185733333333, "type": "electric_scooter", "fusion_lat": 0.0, "lat": 38.91924516666667, "name": "c892542c171fb533abcbe587e9f249bb", "fusion_lon": 0.0, "bike_id": "c892542c171fb533abcbe587e9f249bb", "is_disabled": 0, "is_reserved": 0}, {"rental_uris": {"ios": "https://dc.lft.to/lastmile_qr_scan", "android": "https://dc.lft.to/lastmile_qr_scan"}, "lon": -77.02145733333333, "type": "electric_scooter", "fusion_lat": 0.0, "lat": 38.915555, "name": "c01cf756f0b193417840e46d5f91ed7c", "fusion_lon": 0.0, "bike_id": "c01cf756f0b193417840e46d5f91ed7c", "is_disabled": 0, "is_reserved": 0}, {"rental_uris": {"ios": "https://dc.lft.to/lastmile_qr_scan", "android": "https://dc.lft.to/lastmile_qr_scan"}, "lon": -77.04268666666667, "type": "electric_scooter", "fusion_lat": 0.0, "lat": 38.923126333333336, "name": "05784f4752223fa835875b796076f9c4", "fusion_lon": 0.0, "bike_id": "05784f4752223fa835875b796076f9c4", "is_disabled": 0, "is_reserved": 0}, {"rental_uris": {"ios": "https://dc.lft.to/lastmile_qr_scan", "android": "https://dc.lft.to/lastmile_qr_scan"}, "lon": -77.08197133333333, "type": "electric_bike", "fusion_lat": 0.0, "lat": 38.922081666666664, "name": "d9dde61eda0338792cd27eebc54b09ea", "fusion_lon": 0.0, "bike_id": "d9dde61eda0338792cd27eebc54b09ea", "is_disabled": 0, "is_reserved": 0}, {"rental_uris": {"ios": "https://dc.lft.to/lastmile_qr_scan", "android": "https://dc.lft.to/lastmile_qr_scan"}, "lon": -77.04290366666666, "type": "electric_scooter", "fusion_lat": 0.0, "lat": 38.895375, "name": "e7688a8d742e4f42163d57bd8a367f2b", "fusion_lon": 0.0, "bike_id": "e7688a8d742e4f42163d57bd8a367f2b", "is_disabled": 0, "is_reserved": 0}, {"rental_uris": {"ios": "https://dc.lft.to/lastmile_qr_scan", "android": "https://dc.lft.to/lastmile_qr_scan"}, "lon": -77.013847, "type": "electric_scooter", "fusion_lat": 0.0, "lat": 38.886585333333336, "name": "72ff13c6adfc35cc115f5d019ffe9068", "fusion_lon": 0.0, "bike_id": "72ff13c6adfc35cc115f5d019ffe9068", "is_disabled": 0, "is_reserved": 0}, {"rental_uris": {"ios": "https://dc.lft.to/lastmile_qr_scan", "android": "https://dc.lft.to/lastmile_qr_scan"}, "lon": -77.02382083333333, "type": "electric_scooter", "fusion_lat": 0.0, "lat": 38.936164, "name": "b2051784a534d578ae16e57b3e2c4c1e", "fusion_lon": 0.0, "bike_id": "b2051784a534d578ae16e57b3e2c4c1e", "is_disabled": 0, "is_reserved": 0}, {"rental_uris": {"ios": "https://dc.lft.to/lastmile_qr_scan", "android": "https://dc.lft.to/lastmile_qr_scan"}, "lon": -76.9518905, "type": "electric_bike", "fusion_lat": 0.0, "lat": 38.9068875, "name": "24e7774a969a08bda9bb9cb0fb1901b1", "fusion_lon": 0.0, "bike_id": "24e7774a969a08bda9bb9cb0fb1901b1", "is_disabled": 0, "is_reserved": 0}, {"rental_uris": {"ios": "https://dc.lft.to/lastmile_qr_scan", "android": "https://dc.lft.to/lastmile_qr_scan"}, "lon": -77.02863633333334, "type": "electric_scooter", "fusion_lat": 0.0, "lat": 38.9086675, "name": "03dd96b04fef1b283106dd23b936e61a", "fusion_lon": 0.0, "bike_id": "03dd96b04fef1b283106dd23b936e61a", "is_disabled": 0, "is_reserved": 0}, {"rental_uris": {"ios": "https://dc.lft.to/lastmile_qr_scan", "android": "https://dc.lft.to/lastmile_qr_scan"}, "lon": -77.04881983333334, "type": "electric_scooter", "fusion_lat": 0.0, "lat": 38.905922833333335, "name": "520238a68456e491c491cc3ced7d3859", "fusion_lon": 0.0, "bike_id": "520238a68456e491c491cc3ced7d3859", "is_disabled": 0, "is_reserved": 0}, {"rental_uris": {"ios": "https://dc.lft.to/lastmile_qr_scan", "android": "https://dc.lft.to/lastmile_qr_scan"}, "lon": -77.0526985, "type": "electric_scooter", "fusion_lat": 0.0, "lat": 38.93436633333334, "name": "23084689749aef6676987bc2bf89d8bc", "fusion_lon": 0.0, "bike_id": "23084689749aef6676987bc2bf89d8bc", "is_disabled": 0, "is_reserved": 0}, {"rental_uris": {"ios": "https://dc.lft.to/lastmile_qr_scan", "android": "https://dc.lft.to/lastmile_qr_scan"}, "lon": -77.0019995, "type": "electric_scooter", "fusion_lat": 0.0, "lat": 38.9003215, "name": "64ff3ef3dab868f2d7ca155cb666b261", "fusion_lon": 0.0, "bike_id": "64ff3ef3dab868f2d7ca155cb666b261", "is_disabled": 0, "is_reserved": 0}, {"rental_uris": {"ios": "https://dc.lft.to/lastmile_qr_scan", "android": "https://dc.lft.to/lastmile_qr_scan"}, "lon": -76.9800625, "type": "electric_bike", "fusion_lat": 0.0, "lat": 38.900121, "name": "36fd3c1e0b65b7140b305730dd59059c", "fusion_lon": 0.0, "bike_id": "36fd3c1e0b65b7140b305730dd59059c", "is_disabled": 0, "is_reserved": 0}, {"rental_uris": {"ios": "https://dc.lft.to/lastmile_qr_scan", "android": "https://dc.lft.to/lastmile_qr_scan"}, "lon": -77.0368645, "type": "electric_scooter", "fusion_lat": 0.0, "lat": 38.918746166666665, "name": "22f73d7ffd6df97a3fb6c69ef73b8978", "fusion_lon": 0.0, "bike_id": "22f73d7ffd6df97a3fb6c69ef73b8978", "is_disabled": 0, "is_reserved": 0}, {"rental_uris": {"ios": "https://dc.lft.to/lastmile_qr_scan", "android": "https://dc.lft.to/lastmile_qr_scan"}, "lon": -77.043387, "type": "electric_scooter", "fusion_lat": 0.0, "lat": 38.91399633333333, "name": "fb43c594b5bcd6315d91e9ee169f9180", "fusion_lon": 0.0, "bike_id": "fb43c594b5bcd6315d91e9ee169f9180", "is_disabled": 0, "is_reserved": 0}, {"rental_uris": {"ios": "https://dc.lft.to/lastmile_qr_scan", "android": "https://dc.lft.to/lastmile_qr_scan"}, "lon": -77.04415616666667, "type": "electric_scooter", "fusion_lat": 0.0, "lat": 38.91315483333333, "name": "d35ac42278924be3550e6b9879977498", "fusion_lon": 0.0, "bike_id": "d35ac42278924be3550e6b9879977498", "is_disabled": 0, "is_reserved": 0}, {"rental_uris": {"ios": "https://dc.lft.to/lastmile_qr_scan", "android": "https://dc.lft.to/lastmile_qr_scan"}, "lon": -77.01121033333334, "type": "electric_scooter", "fusion_lat": 0.0, "lat": 38.90361133333333, "name": "a12135168b32b27880595cf3d3c68e15", "fusion_lon": 0.0, "bike_id": "a12135168b32b27880595cf3d3c68e15", "is_disabled": 0, "is_reserved": 0}, {"rental_uris": {"ios": "https://dc.lft.to/lastmile_qr_scan", "android": "https://dc.lft.to/lastmile_qr_scan"}, "lon": -76.931775, "type": "electric_scooter", "fusion_lat": 0.0, "lat": 38.89884516666667, "name": "ee30f4bb79a8144e0e5d49abc61e2f67", "fusion_lon": 0.0, "bike_id": "ee30f4bb79a8144e0e5d49abc61e2f67", "is_disabled": 0, "is_reserved": 0}, {"rental_uris": {"ios": "https://dc.lft.to/lastmile_qr_scan", "android": "https://dc.lft.to/lastmile_qr_scan"}, "lon": -77.0384375, "type": "electric_scooter", "fusion_lat": 0.0, "lat": 38.90841666666667, "name": "a442bccee486a74ea91d5134d3744bbf", "fusion_lon": 0.0, "bike_id": "a442bccee486a74ea91d5134d3744bbf", "is_disabled": 0, "is_reserved": 0}, {"rental_uris": {"ios": "https://dc.lft.to/lastmile_qr_scan", "android": "https://dc.lft.to/lastmile_qr_scan"}, "lon": -77.08544083333334, "type": "electric_bike", "fusion_lat": 0.0, "lat": 38.856246666666664, "name": "c8fa33bc2d0010c3cf21544a72cd84a3", "fusion_lon": 0.0, "bike_id": "c8fa33bc2d0010c3cf21544a72cd84a3", "is_disabled": 0, "is_reserved": 0}, {"rental_uris": {"ios": "https://dc.lft.to/lastmile_qr_scan", "android": "https://dc.lft.to/lastmile_qr_scan"}, "lon": -77.046909, "type": "electric_scooter", "fusion_lat": 0.0, "lat": 38.897422666666664, "name": "05d1174a179e345b91c6c152e2b25b26", "fusion_lon": 0.0, "bike_id": "05d1174a179e345b91c6c152e2b25b26", "is_disabled": 0, "is_reserved": 0}, {"rental_uris": {"ios": "https://dc.lft.to/lastmile_qr_scan", "android": "https://dc.lft.to/lastmile_qr_scan"}, "lon": -77.02658, "type": "electric_scooter", "fusion_lat": 0.0, "lat": 38.91702983333333, "name": "b00e28481d252c101a446db38f211444", "fusion_lon": 0.0, "bike_id": "b00e28481d252c101a446db38f211444", "is_disabled": 0, "is_reserved": 0}, {"rental_uris": {"ios": "https://dc.lft.to/lastmile_qr_scan", "android": "https://dc.lft.to/lastmile_qr_scan"}, "lon": -76.98885433333334, "type": "electric_scooter", "fusion_lat": 0.0, "lat": 38.86660033333333, "name": "e380ffd46c38a033f89fc106a73628f1", "fusion_lon": 0.0, "bike_id": "e380ffd46c38a033f89fc106a73628f1", "is_disabled": 0, "is_reserved": 0}, {"rental_uris": {"ios": "https://dc.lft.to/lastmile_qr_scan", "android": "https://dc.lft.to/lastmile_qr_scan"}, "lon": -77.01165483333334, "type": "electric_scooter", "fusion_lat": 0.0, "lat": 38.90006983333333, "name": "a77e5c2fc0e8033f0e2765f3e25ef319", "fusion_lon": 0.0, "bike_id": "a77e5c2fc0e8033f0e2765f3e25ef319", "is_disabled": 0, "is_reserved": 0}, {"rental_uris": {"ios": "https://dc.lft.to/lastmile_qr_scan", "android": "https://dc.lft.to/lastmile_qr_scan"}, "lon": -77.0320675, "type": "electric_scooter", "fusion_lat": 0.0, "lat": 38.9099655, "name": "25640d862fff69d10bbf0cc216f5203b", "fusion_lon": 0.0, "bike_id": "25640d862fff69d10bbf0cc216f5203b", "is_disabled": 0, "is_reserved": 0}, {"rental_uris": {"ios": "https://dc.lft.to/lastmile_qr_scan", "android": "https://dc.lft.to/lastmile_qr_scan"}, "lon": -76.9750255, "type": "electric_scooter", "fusion_lat": 0.0, "lat": 38.869169, "name": "1edc6a161797088d117a61a329be73e9", "fusion_lon": 0.0, "bike_id": "1edc6a161797088d117a61a329be73e9", "is_disabled": 0, "is_reserved": 0}, {"rental_uris": {"ios": "https://dc.lft.to/lastmile_qr_scan", "android": "https://dc.lft.to/lastmile_qr_scan"}, "lon": -76.93178033333334, "type": "electric_scooter", "fusion_lat": 0.0, "lat": 38.8988495, "name": "cc1277126e83ea4d54d0e292e99e6b93", "fusion_lon": 0.0, "bike_id": "cc1277126e83ea4d54d0e292e99e6b93", "is_disabled": 0, "is_reserved": 0}, {"rental_uris": {"ios": "https://dc.lft.to/lastmile_qr_scan", "android": "https://dc.lft.to/lastmile_qr_scan"}, "lon": -77.0498805, "type": "electric_scooter", "fusion_lat": 0.0, "lat": 38.901155, "name": "4505d071ccf1192444d46a3fe996e6b9", "fusion_lon": 0.0, "bike_id": "4505d071ccf1192444d46a3fe996e6b9", "is_disabled": 0, "is_reserved": 0}, {"rental_uris": {"ios": "https://dc.lft.to/lastmile_qr_scan", "android": "https://dc.lft.to/lastmile_qr_scan"}, "lon": -77.0351665, "type": "electric_scooter", "fusion_lat": 0.0, "lat": 38.92336183333333, "name": "de5022d1241fdaaa0b25b73da088c373", "fusion_lon": 0.0, "bike_id": "de5022d1241fdaaa0b25b73da088c373", "is_disabled": 0, "is_reserved": 0}, {"rental_uris": {"ios": "https://dc.lft.to/lastmile_qr_scan", "android": "https://dc.lft.to/lastmile_qr_scan"}, "lon": -77.353121, "type": "electric_bike", "fusion_lat": 0.0, "lat": 38.9500255, "name": "7dc53845076191198d1bcd3117bac755", "fusion_lon": 0.0, "bike_id": "7dc53845076191198d1bcd3117bac755", "is_disabled": 0, "is_reserved": 0}, {"rental_uris": {"ios": "https://dc.lft.to/lastmile_qr_scan", "android": "https://dc.lft.to/lastmile_qr_scan"}, "lon": -76.994873, "type": "electric_scooter", "fusion_lat": 0.0, "lat": 38.89961666666667, "name": "e816a8b2e9f7d97b5dbf8d668f950d4e", "fusion_lon": 0.0, "bike_id": "e816a8b2e9f7d97b5dbf8d668f950d4e", "is_disabled": 0, "is_reserved": 0}, {"rental_uris": {"ios": "https://dc.lft.to/lastmile_qr_scan", "android": "https://dc.lft.to/lastmile_qr_scan"}, "lon": -77.02281933333333, "type": "electric_scooter", "fusion_lat": 0.0, "lat": 38.916609, "name": "4cb9cfe924eb6218f1fa758c64b3a374", "fusion_lon": 0.0, "bike_id": "4cb9cfe924eb6218f1fa758c64b3a374", "is_disabled": 0, "is_reserved": 0}, {"rental_uris": {"ios": "https://dc.lft.to/lastmile_qr_scan", "android": "https://dc.lft.to/lastmile_qr_scan"}, "lon": -77.04536466666667, "type": "electric_scooter", "fusion_lat": 0.0, "lat": 38.903931, "name": "e8cf05021a988f75c05c8bdef5a9163c", "fusion_lon": 0.0, "bike_id": "e8cf05021a988f75c05c8bdef5a9163c", "is_disabled": 0, "is_reserved": 0}, {"rental_uris": {"ios": "https://dc.lft.to/lastmile_qr_scan", "android": "https://dc.lft.to/lastmile_qr_scan"}, "lon": -77.02381883333334, "type": "electric_scooter", "fusion_lat": 0.0, "lat": 38.917942333333336, "name": "b3f504de1c59504d35396301eacd7d71", "fusion_lon": 0.0, "bike_id": "b3f504de1c59504d35396301eacd7d71", "is_disabled": 0, "is_reserved": 0}, {"rental_uris": {"ios": "https://dc.lft.to/lastmile_qr_scan", "android": "https://dc.lft.to/lastmile_qr_scan"}, "lon": -76.98409583333333, "type": "electric_scooter", "fusion_lat": 0.0, "lat": 38.9138555, "name": "bb997590fe38bc944324124890017e2d", "fusion_lon": 0.0, "bike_id": "bb997590fe38bc944324124890017e2d", "is_disabled": 0, "is_reserved": 0}, {"rental_uris": {"ios": "https://dc.lft.to/lastmile_qr_scan", "android": "https://dc.lft.to/lastmile_qr_scan"}, "lon": -76.99380333333333, "type": "electric_scooter", "fusion_lat": 0.0, "lat": 38.8871985, "name": "67168e47cd9e003ff8e8b63918479355", "fusion_lon": 0.0, "bike_id": "67168e47cd9e003ff8e8b63918479355", "is_disabled": 0, "is_reserved": 0}, {"rental_uris": {"ios": "https://dc.lft.to/lastmile_qr_scan", "android": "https://dc.lft.to/lastmile_qr_scan"}, "lon": -77.03642316666667, "type": "electric_scooter", "fusion_lat": 0.0, "lat": 38.91816333333333, "name": "bdd6b5865d68fed53861dccb91f6e09f", "fusion_lon": 0.0, "bike_id": "bdd6b5865d68fed53861dccb91f6e09f", "is_disabled": 0, "is_reserved": 0}, {"rental_uris": {"ios": "https://dc.lft.to/lastmile_qr_scan", "android": "https://dc.lft.to/lastmile_qr_scan"}, "lon": -77.00308366666667, "type": "electric_scooter", "fusion_lat": 0.0, "lat": 38.909029833333335, "name": "49c529481637a3bc72ecad2c2201d2a3", "fusion_lon": 0.0, "bike_id": "49c529481637a3bc72ecad2c2201d2a3", "is_disabled": 0, "is_reserved": 0}, {"rental_uris": {"ios": "https://dc.lft.to/lastmile_qr_scan", "android": "https://dc.lft.to/lastmile_qr_scan"}, "lon": -77.00234233333333, "type": "electric_scooter", "fusion_lat": 0.0, "lat": 38.905454, "name": "8c601999a44e4d71508ced20aa83b85f", "fusion_lon": 0.0, "bike_id": "8c601999a44e4d71508ced20aa83b85f", "is_disabled": 0, "is_reserved": 0}, {"rental_uris": {"ios": "https://dc.lft.to/lastmile_qr_scan", "android": "https://dc.lft.to/lastmile_qr_scan"}, "lon": -77.025719, "type": "electric_scooter", "fusion_lat": 0.0, "lat": 38.9257935, "name": "d4b1ae8290072bac7fa5c94743d03eb2", "fusion_lon": 0.0, "bike_id": "d4b1ae8290072bac7fa5c94743d03eb2", "is_disabled": 0, "is_reserved": 0}, {"rental_uris": {"ios": "https://dc.lft.to/lastmile_qr_scan", "android": "https://dc.lft.to/lastmile_qr_scan"}, "lon": -76.96783333333333, "type": "electric_scooter", "fusion_lat": 0.0, "lat": 38.8614985, "name": "17c2720776db43fdfdc582eebb1013ab", "fusion_lon": 0.0, "bike_id": "17c2720776db43fdfdc582eebb1013ab", "is_disabled": 0, "is_reserved": 0}, {"rental_uris": {"ios": "https://dc.lft.to/lastmile_qr_scan", "android": "https://dc.lft.to/lastmile_qr_scan"}, "lon": -77.05023216666666, "type": "electric_scooter", "fusion_lat": 0.0, "lat": 38.89655666666667, "name": "209782836505f61d0ccb5d90f33c7b63", "fusion_lon": 0.0, "bike_id": "209782836505f61d0ccb5d90f33c7b63", "is_disabled": 0, "is_reserved": 0}, {"rental_uris": {"ios": "https://dc.lft.to/lastmile_qr_scan", "android": "https://dc.lft.to/lastmile_qr_scan"}, "lon": -77.02207316666667, "type": "electric_scooter", "fusion_lat": 0.0, "lat": 38.90970733333333, "name": "784ae40d5d78be534035c23dfedd2329", "fusion_lon": 0.0, "bike_id": "784ae40d5d78be534035c23dfedd2329", "is_disabled": 0, "is_reserved": 0}, {"rental_uris": {"ios": "https://dc.lft.to/lastmile_qr_scan", "android": "https://dc.lft.to/lastmile_qr_scan"}, "lon": -77.114296, "type": "electric_bike", "fusion_lat": 0.0, "lat": 38.8524955, "name": "dbc5aa2d9a852d8fb40d6c4c2adb6876", "fusion_lon": 0.0, "bike_id": "dbc5aa2d9a852d8fb40d6c4c2adb6876", "is_disabled": 0, "is_reserved": 0}, {"rental_uris": {"ios": "https://dc.lft.to/lastmile_qr_scan", "android": "https://dc.lft.to/lastmile_qr_scan"}, "lon": -76.94892366666667, "type": "electric_scooter", "fusion_lat": 0.0, "lat": 38.895363833333334, "name": "0444ccb77529deb2420dde6e4e1cdb3c", "fusion_lon": 0.0, "bike_id": "0444ccb77529deb2420dde6e4e1cdb3c", "is_disabled": 0, "is_reserved": 0}, {"rental_uris": {"ios": "https://dc.lft.to/lastmile_qr_scan", "android": "https://dc.lft.to/lastmile_qr_scan"}, "lon": -77.058857, "type": "electric_scooter", "fusion_lat": 0.0, "lat": 38.936343666666666, "name": "95ca014e3ccf4f1f4e8751b15b5521b0", "fusion_lon": 0.0, "bike_id": "95ca014e3ccf4f1f4e8751b15b5521b0", "is_disabled": 0, "is_reserved": 0}, {"rental_uris": {"ios": "https://dc.lft.to/lastmile_qr_scan", "android": "https://dc.lft.to/lastmile_qr_scan"}, "lon": -77.02360816666666, "type": "electric_scooter", "fusion_lat": 0.0, "lat": 38.94524883333333, "name": "4ba61509dda5746278903788146e5dd0", "fusion_lon": 0.0, "bike_id": "4ba61509dda5746278903788146e5dd0", "is_disabled": 0, "is_reserved": 0}, {"rental_uris": {"ios": "https://dc.lft.to/lastmile_qr_scan", "android": "https://dc.lft.to/lastmile_qr_scan"}, "lon": -76.99520783333334, "type": "electric_scooter", "fusion_lat": 0.0, "lat": 38.862626666666664, "name": "11e63be94676a371a3c367a381db3df6", "fusion_lon": 0.0, "bike_id": "11e63be94676a371a3c367a381db3df6", "is_disabled": 0, "is_reserved": 0}, {"rental_uris": {"ios": "https://dc.lft.to/lastmile_qr_scan", "android": "https://dc.lft.to/lastmile_qr_scan"}, "lon": -77.02149516666667, "type": "electric_scooter", "fusion_lat": 0.0, "lat": 38.896406666666664, "name": "210fae9c4b20b5bc6ff0f50cb0e277fa", "fusion_lon": 0.0, "bike_id": "210fae9c4b20b5bc6ff0f50cb0e277fa", "is_disabled": 0, "is_reserved": 0}, {"rental_uris": {"ios": "https://dc.lft.to/lastmile_qr_scan", "android": "https://dc.lft.to/lastmile_qr_scan"}, "lon": -77.04692916666667, "type": "electric_scooter", "fusion_lat": 0.0, "lat": 38.897461, "name": "2e3900f0669a26944e6222a309845b70", "fusion_lon": 0.0, "bike_id": "2e3900f0669a26944e6222a309845b70", "is_disabled": 0, "is_reserved": 0}, {"rental_uris": {"ios": "https://dc.lft.to/lastmile_qr_scan", "android": "https://dc.lft.to/lastmile_qr_scan"}, "lon": -77.03196966666667, "type": "electric_scooter", "fusion_lat": 0.0, "lat": 38.90977633333333, "name": "5fec0c6227f0564c29ad5b69470857f5", "fusion_lon": 0.0, "bike_id": "5fec0c6227f0564c29ad5b69470857f5", "is_disabled": 0, "is_reserved": 0}, {"rental_uris": {"ios": "https://dc.lft.to/lastmile_qr_scan", "android": "https://dc.lft.to/lastmile_qr_scan"}, "lon": -77.03211033333334, "type": "electric_scooter", "fusion_lat": 0.0, "lat": 38.92117783333333, "name": "8d805013ff312b1c0495a017317e10bb", "fusion_lon": 0.0, "bike_id": "8d805013ff312b1c0495a017317e10bb", "is_disabled": 0, "is_reserved": 0}, {"rental_uris": {"ios": "https://dc.lft.to/lastmile_qr_scan", "android": "https://dc.lft.to/lastmile_qr_scan"}, "lon": -77.0075745, "type": "electric_scooter", "fusion_lat": 0.0, "lat": 38.90360866666666, "name": "de3c9b2d031d7f0890e283960f794060", "fusion_lon": 0.0, "bike_id": "de3c9b2d031d7f0890e283960f794060", "is_disabled": 0, "is_reserved": 0}, {"rental_uris": {"ios": "https://dc.lft.to/lastmile_qr_scan", "android": "https://dc.lft.to/lastmile_qr_scan"}, "lon": -77.02977183333333, "type": "electric_scooter", "fusion_lat": 0.0, "lat": 38.93608033333334, "name": "8767c7ce2e4d612a8c427f67e91559f2", "fusion_lon": 0.0, "bike_id": "8767c7ce2e4d612a8c427f67e91559f2", "is_disabled": 0, "is_reserved": 0}, {"rental_uris": {"ios": "https://dc.lft.to/lastmile_qr_scan", "android": "https://dc.lft.to/lastmile_qr_scan"}, "lon": -76.989558, "type": "electric_scooter", "fusion_lat": 0.0, "lat": 38.901402166666664, "name": "4fa1137999b2649a5833676246beeae5", "fusion_lon": 0.0, "bike_id": "4fa1137999b2649a5833676246beeae5", "is_disabled": 0, "is_reserved": 0}, {"rental_uris": {"ios": "https://dc.lft.to/lastmile_qr_scan", "android": "https://dc.lft.to/lastmile_qr_scan"}, "lon": -77.07775566666666, "type": "electric_scooter", "fusion_lat": 0.0, "lat": 38.9455895, "name": "dc9d52709befbf2a4025e5811fe0d0bc", "fusion_lon": 0.0, "bike_id": "dc9d52709befbf2a4025e5811fe0d0bc", "is_disabled": 0, "is_reserved": 0}, {"rental_uris": {"ios": "https://dc.lft.to/lastmile_qr_scan", "android": "https://dc.lft.to/lastmile_qr_scan"}, "lon": -77.0056305, "type": "electric_scooter", "fusion_lat": 0.0, "lat": 38.87906683333333, "name": "eb6888dcff3be76df5f39f757f0aebe0", "fusion_lon": 0.0, "bike_id": "eb6888dcff3be76df5f39f757f0aebe0", "is_disabled": 0, "is_reserved": 0}, {"rental_uris": {"ios": "https://dc.lft.to/lastmile_qr_scan", "android": "https://dc.lft.to/lastmile_qr_scan"}, "lon": -77.03180716666667, "type": "electric_scooter", "fusion_lat": 0.0, "lat": 38.907586333333334, "name": "ddcbe2c2976183055cb0c78119398218", "fusion_lon": 0.0, "bike_id": "ddcbe2c2976183055cb0c78119398218", "is_disabled": 0, "is_reserved": 0}, {"rental_uris": {"ios": "https://dc.lft.to/lastmile_qr_scan", "android": "https://dc.lft.to/lastmile_qr_scan"}, "lon": -77.01876866666667, "type": "electric_scooter", "fusion_lat": 0.0, "lat": 38.917435166666664, "name": "df4c7d7d14ca48a5a72928314801c2d9", "fusion_lon": 0.0, "bike_id": "df4c7d7d14ca48a5a72928314801c2d9", "is_disabled": 0, "is_reserved": 0}, {"rental_uris": {"ios": "https://dc.lft.to/lastmile_qr_scan", "android": "https://dc.lft.to/lastmile_qr_scan"}, "lon": -77.0129015, "type": "electric_scooter", "fusion_lat": 0.0, "lat": 38.906198333333336, "name": "55093cba86eae9e2e954b0080cd947d0", "fusion_lon": 0.0, "bike_id": "55093cba86eae9e2e954b0080cd947d0", "is_disabled": 0, "is_reserved": 0}, {"rental_uris": {"ios": "https://dc.lft.to/lastmile_qr_scan", "android": "https://dc.lft.to/lastmile_qr_scan"}, "lon": -77.03781666666667, "type": "electric_scooter", "fusion_lat": 0.0, "lat": 38.92621183333333, "name": "94479cf12b5e596a24caae7a47f00945", "fusion_lon": 0.0, "bike_id": "94479cf12b5e596a24caae7a47f00945", "is_disabled": 0, "is_reserved": 0}, {"rental_uris": {"ios": "https://dc.lft.to/lastmile_qr_scan", "android": "https://dc.lft.to/lastmile_qr_scan"}, "lon": -77.03386733333333, "type": "electric_scooter", "fusion_lat": 0.0, "lat": 38.905853, "name": "660a34fdaafbbbb11f53a40c6fc8a268", "fusion_lon": 0.0, "bike_id": "660a34fdaafbbbb11f53a40c6fc8a268", "is_disabled": 0, "is_reserved": 0}, {"rental_uris": {"ios": "https://dc.lft.to/lastmile_qr_scan", "android": "https://dc.lft.to/lastmile_qr_scan"}, "lon": -76.98847666666667, "type": "electric_bike", "fusion_lat": 0.0, "lat": 38.84276933333334, "name": "87efdfebb1d36d98870ddecfc2f68336", "fusion_lon": 0.0, "bike_id": "87efdfebb1d36d98870ddecfc2f68336", "is_disabled": 0, "is_reserved": 0}, {"rental_uris": {"ios": "https://dc.lft.to/lastmile_qr_scan", "android": "https://dc.lft.to/lastmile_qr_scan"}, "lon": -77.00262183333334, "type": "electric_scooter", "fusion_lat": 0.0, "lat": 38.8989645, "name": "7ec037a23535c14227396ce95ce9e86d", "fusion_lon": 0.0, "bike_id": "7ec037a23535c14227396ce95ce9e86d", "is_disabled": 0, "is_reserved": 0}, {"rental_uris": {"ios": "https://dc.lft.to/lastmile_qr_scan", "android": "https://dc.lft.to/lastmile_qr_scan"}, "lon": -77.04837033333334, "type": "electric_scooter", "fusion_lat": 0.0, "lat": 38.9097625, "name": "d2f3660f4b3849826925dab928e1fc49", "fusion_lon": 0.0, "bike_id": "d2f3660f4b3849826925dab928e1fc49", "is_disabled": 0, "is_reserved": 0}, {"rental_uris": {"ios": "https://dc.lft.to/lastmile_qr_scan", "android": "https://dc.lft.to/lastmile_qr_scan"}, "lon": -76.99828083333334, "type": "electric_scooter", "fusion_lat": 0.0, "lat": 38.881226166666664, "name": "2a6353b9987cf8f71e35c5d1196baf53", "fusion_lon": 0.0, "bike_id": "2a6353b9987cf8f71e35c5d1196baf53", "is_disabled": 0, "is_reserved": 0}, {"rental_uris": {"ios": "https://dc.lft.to/lastmile_qr_scan", "android": "https://dc.lft.to/lastmile_qr_scan"}, "lon": -77.0328675, "type": "electric_scooter", "fusion_lat": 0.0, "lat": 38.934903166666665, "name": "8585ab061ecbc1343a5708c0ac131512", "fusion_lon": 0.0, "bike_id": "8585ab061ecbc1343a5708c0ac131512", "is_disabled": 0, "is_reserved": 0}, {"rental_uris": {"ios": "https://dc.lft.to/lastmile_qr_scan", "android": "https://dc.lft.to/lastmile_qr_scan"}, "lon": -77.01081583333334, "type": "electric_bike", "fusion_lat": 0.0, "lat": 38.95655283333333, "name": "d4c8b07b57997525bf5a9c9eef87149b", "fusion_lon": 0.0, "bike_id": "d4c8b07b57997525bf5a9c9eef87149b", "is_disabled": 0, "is_reserved": 0}, {"rental_uris": {"ios": "https://dc.lft.to/lastmile_qr_scan", "android": "https://dc.lft.to/lastmile_qr_scan"}, "lon": -77.03266516666666, "type": "electric_scooter", "fusion_lat": 0.0, "lat": 38.932319166666666, "name": "6f613d24cd7b39ddb4386e40c9e99764", "fusion_lon": 0.0, "bike_id": "6f613d24cd7b39ddb4386e40c9e99764", "is_disabled": 0, "is_reserved": 0}, {"rental_uris": {"ios": "https://dc.lft.to/lastmile_qr_scan", "android": "https://dc.lft.to/lastmile_qr_scan"}, "lon": -77.12905266666667, "type": "electric_bike", "fusion_lat": 0.0, "lat": 38.863786833333336, "name": "ba83ae7e46809dfe2a9686cb95d6687e", "fusion_lon": 0.0, "bike_id": "ba83ae7e46809dfe2a9686cb95d6687e", "is_disabled": 0, "is_reserved": 0}, {"rental_uris": {"ios": "https://dc.lft.to/lastmile_qr_scan", "android": "https://dc.lft.to/lastmile_qr_scan"}, "lon": -77.03227316666667, "type": "electric_scooter", "fusion_lat": 0.0, "lat": 38.926711833333336, "name": "6a4cf91a90c2f1e1140175671bd98547", "fusion_lon": 0.0, "bike_id": "6a4cf91a90c2f1e1140175671bd98547", "is_disabled": 0, "is_reserved": 0}, {"rental_uris": {"ios": "https://dc.lft.to/lastmile_qr_scan", "android": "https://dc.lft.to/lastmile_qr_scan"}, "lon": -76.98961183333333, "type": "electric_scooter", "fusion_lat": 0.0, "lat": 38.90025766666667, "name": "a10d0482163017685dce2869a7668199", "fusion_lon": 0.0, "bike_id": "a10d0482163017685dce2869a7668199", "is_disabled": 0, "is_reserved": 0}, {"rental_uris": {"ios": "https://dc.lft.to/lastmile_qr_scan", "android": "https://dc.lft.to/lastmile_qr_scan"}, "lon": -77.048771, "type": "electric_scooter", "fusion_lat": 0.0, "lat": 38.90294166666666, "name": "4e1244a2b37aeade173f218b535df223", "fusion_lon": 0.0, "bike_id": "4e1244a2b37aeade173f218b535df223", "is_disabled": 0, "is_reserved": 0}, {"rental_uris": {"ios": "https://dc.lft.to/lastmile_qr_scan", "android": "https://dc.lft.to/lastmile_qr_scan"}, "lon": -77.0529725, "type": "electric_scooter", "fusion_lat": 0.0, "lat": 38.927871333333336, "name": "5635a1bd3cc41919649a6715bed85a44", "fusion_lon": 0.0, "bike_id": "5635a1bd3cc41919649a6715bed85a44", "is_disabled": 0, "is_reserved": 0}, {"rental_uris": {"ios": "https://dc.lft.to/lastmile_qr_scan", "android": "https://dc.lft.to/lastmile_qr_scan"}, "lon": -77.03183816666666, "type": "electric_scooter", "fusion_lat": 0.0, "lat": 38.89943933333333, "name": "965660dcbb31e5cac4503edb2c1ec4bd", "fusion_lon": 0.0, "bike_id": "965660dcbb31e5cac4503edb2c1ec4bd", "is_disabled": 0, "is_reserved": 0}, {"rental_uris": {"ios": "https://dc.lft.to/lastmile_qr_scan", "android": "https://dc.lft.to/lastmile_qr_scan"}, "lon": -77.01692733333333, "type": "electric_bike", "fusion_lat": 0.0, "lat": 38.97522516666667, "name": "33add6f97c4945f70102812f0fd5e002", "fusion_lon": 0.0, "bike_id": "33add6f97c4945f70102812f0fd5e002", "is_disabled": 0, "is_reserved": 0}, {"rental_uris": {"ios": "https://dc.lft.to/lastmile_qr_scan", "android": "https://dc.lft.to/lastmile_qr_scan"}, "lon": -77.03198033333334, "type": "electric_scooter", "fusion_lat": 0.0, "lat": 38.90852183333333, "name": "00878fd1aa772bc36f202e556ff73b3c", "fusion_lon": 0.0, "bike_id": "00878fd1aa772bc36f202e556ff73b3c", "is_disabled": 0, "is_reserved": 0}, {"rental_uris": {"ios": "https://dc.lft.to/lastmile_qr_scan", "android": "https://dc.lft.to/lastmile_qr_scan"}, "lon": -77.05388, "type": "electric_scooter", "fusion_lat": 0.0, "lat": 38.902419333333334, "name": "c7975e71e1cfbf425b28aa3ded452d18", "fusion_lon": 0.0, "bike_id": "c7975e71e1cfbf425b28aa3ded452d18", "is_disabled": 0, "is_reserved": 0}, {"rental_uris": {"ios": "https://dc.lft.to/lastmile_qr_scan", "android": "https://dc.lft.to/lastmile_qr_scan"}, "lon": -77.03567616666666, "type": "electric_scooter", "fusion_lat": 0.0, "lat": 38.908507, "name": "596194a7df33c3790798f4f26168d5a3", "fusion_lon": 0.0, "bike_id": "596194a7df33c3790798f4f26168d5a3", "is_disabled": 0, "is_reserved": 0}, {"rental_uris": {"ios": "https://dc.lft.to/lastmile_qr_scan", "android": "https://dc.lft.to/lastmile_qr_scan"}, "lon": -77.02676066666666, "type": "electric_scooter", "fusion_lat": 0.0, "lat": 38.916964666666665, "name": "8fbc9acc53ad73eb50cb004e82b11a13", "fusion_lon": 0.0, "bike_id": "8fbc9acc53ad73eb50cb004e82b11a13", "is_disabled": 0, "is_reserved": 0}, {"rental_uris": {"ios": "https://dc.lft.to/lastmile_qr_scan", "android": "https://dc.lft.to/lastmile_qr_scan"}, "lon": -76.992761, "type": "electric_scooter", "fusion_lat": 0.0, "lat": 38.921339833333334, "name": "438db03ba17cab399baeafdc83dd95ed", "fusion_lon": 0.0, "bike_id": "438db03ba17cab399baeafdc83dd95ed", "is_disabled": 0, "is_reserved": 0}, {"rental_uris": {"ios": "https://dc.lft.to/lastmile_qr_scan", "android": "https://dc.lft.to/lastmile_qr_scan"}, "lon": -77.06404983333333, "type": "electric_bike", "fusion_lat": 0.0, "lat": 38.8435155, "name": "ade42a119dacd2a50d2bc76d7af447d6", "fusion_lon": 0.0, "bike_id": "ade42a119dacd2a50d2bc76d7af447d6", "is_disabled": 0, "is_reserved": 0}, {"rental_uris": {"ios": "https://dc.lft.to/lastmile_qr_scan", "android": "https://dc.lft.to/lastmile_qr_scan"}, "lon": -76.98869083333334, "type": "electric_scooter", "fusion_lat": 0.0, "lat": 38.83239533333333, "name": "c3b13f241b0b16424f45bb13fdacb09e", "fusion_lon": 0.0, "bike_id": "c3b13f241b0b16424f45bb13fdacb09e", "is_disabled": 0, "is_reserved": 0}, {"rental_uris": {"ios": "https://dc.lft.to/lastmile_qr_scan", "android": "https://dc.lft.to/lastmile_qr_scan"}, "lon": -77.05534183333333, "type": "electric_scooter", "fusion_lat": 0.0, "lat": 38.92786233333333, "name": "d90b8da074dbca796fbe592346fa3309", "fusion_lon": 0.0, "bike_id": "d90b8da074dbca796fbe592346fa3309", "is_disabled": 0, "is_reserved": 0}, {"rental_uris": {"ios": "https://dc.lft.to/lastmile_qr_scan", "android": "https://dc.lft.to/lastmile_qr_scan"}, "lon": -77.027311, "type": "electric_scooter", "fusion_lat": 0.0, "lat": 38.913836333333336, "name": "ad9e28e0eae67cd2498b40034684d2be", "fusion_lon": 0.0, "bike_id": "ad9e28e0eae67cd2498b40034684d2be", "is_disabled": 0, "is_reserved": 0}, {"rental_uris": {"ios": "https://dc.lft.to/lastmile_qr_scan", "android": "https://dc.lft.to/lastmile_qr_scan"}, "lon": -77.02138266666667, "type": "electric_scooter", "fusion_lat": 0.0, "lat": 38.8950205, "name": "2a6b57c89552705838b719a17df79a1b", "fusion_lon": 0.0, "bike_id": "2a6b57c89552705838b719a17df79a1b", "is_disabled": 0, "is_reserved": 0}, {"rental_uris": {"ios": "https://dc.lft.to/lastmile_qr_scan", "android": "https://dc.lft.to/lastmile_qr_scan"}, "lon": -77.01122633333334, "type": "electric_scooter", "fusion_lat": 0.0, "lat": 38.9036045, "name": "a6c7ef649c4d5cfe038e5a57334c2d77", "fusion_lon": 0.0, "bike_id": "a6c7ef649c4d5cfe038e5a57334c2d77", "is_disabled": 0, "is_reserved": 0}, {"rental_uris": {"ios": "https://dc.lft.to/lastmile_qr_scan", "android": "https://dc.lft.to/lastmile_qr_scan"}, "lon": -77.0346605, "type": "electric_scooter", "fusion_lat": 0.0, "lat": 38.9215495, "name": "8f12f3ddfd8b85b5259919fd77b02b2c", "fusion_lon": 0.0, "bike_id": "8f12f3ddfd8b85b5259919fd77b02b2c", "is_disabled": 0, "is_reserved": 0}, {"rental_uris": {"ios": "https://dc.lft.to/lastmile_qr_scan", "android": "https://dc.lft.to/lastmile_qr_scan"}, "lon": -77.01346233333334, "type": "electric_bike", "fusion_lat": 0.0, "lat": 39.00000566666667, "name": "979af8b22ce25fa2ec9b37e94275689f", "fusion_lon": 0.0, "bike_id": "979af8b22ce25fa2ec9b37e94275689f", "is_disabled": 0, "is_reserved": 0}, {"rental_uris": {"ios": "https://dc.lft.to/lastmile_qr_scan", "android": "https://dc.lft.to/lastmile_qr_scan"}, "lon": -77.00653983333333, "type": "electric_scooter", "fusion_lat": 0.0, "lat": 38.87181566666667, "name": "884695d51e8fb33171ee212b84cf06b7", "fusion_lon": 0.0, "bike_id": "884695d51e8fb33171ee212b84cf06b7", "is_disabled": 0, "is_reserved": 0}, {"rental_uris": {"ios": "https://dc.lft.to/lastmile_qr_scan", "android": "https://dc.lft.to/lastmile_qr_scan"}, "lon": -77.02752483333333, "type": "electric_scooter", "fusion_lat": 0.0, "lat": 38.939679, "name": "f14177ab55dd27101febfe6911ceb79f", "fusion_lon": 0.0, "bike_id": "f14177ab55dd27101febfe6911ceb79f", "is_disabled": 0, "is_reserved": 0}, {"rental_uris": {"ios": "https://dc.lft.to/lastmile_qr_scan", "android": "https://dc.lft.to/lastmile_qr_scan"}, "lon": -77.01905, "type": "electric_scooter", "fusion_lat": 0.0, "lat": 38.876687, "name": "b555fd28b4fe6dd2198689c43adfc008", "fusion_lon": 0.0, "bike_id": "b555fd28b4fe6dd2198689c43adfc008", "is_disabled": 0, "is_reserved": 0}, {"rental_uris": {"ios": "https://dc.lft.to/lastmile_qr_scan", "android": "https://dc.lft.to/lastmile_qr_scan"}, "lon": -77.0327885, "type": "electric_scooter", "fusion_lat": 0.0, "lat": 38.90977983333333, "name": "327e943c1a183e5f67f52f58a03d44fa", "fusion_lon": 0.0, "bike_id": "327e943c1a183e5f67f52f58a03d44fa", "is_disabled": 0, "is_reserved": 0}, {"rental_uris": {"ios": "https://dc.lft.to/lastmile_qr_scan", "android": "https://dc.lft.to/lastmile_qr_scan"}, "lon": -77.11222183333334, "type": "electric_bike", "fusion_lat": 0.0, "lat": 38.828751833333335, "name": "98ebfce2d86e47af1501e473e82e630e", "fusion_lon": 0.0, "bike_id": "98ebfce2d86e47af1501e473e82e630e", "is_disabled": 0, "is_reserved": 0}, {"rental_uris": {"ios": "https://dc.lft.to/lastmile_qr_scan", "android": "https://dc.lft.to/lastmile_qr_scan"}, "lon": -77.00881266666667, "type": "electric_scooter", "fusion_lat": 0.0, "lat": 38.87913983333333, "name": "6afabc84aa0f1691057701f2471f6930", "fusion_lon": 0.0, "bike_id": "6afabc84aa0f1691057701f2471f6930", "is_disabled": 0, "is_reserved": 0}, {"rental_uris": {"ios": "https://dc.lft.to/lastmile_qr_scan", "android": "https://dc.lft.to/lastmile_qr_scan"}, "lon": -77.02464616666667, "type": "electric_scooter", "fusion_lat": 0.0, "lat": 38.93812666666667, "name": "1408355ac1a2a7192a2d335a8f79f7e7", "fusion_lon": 0.0, "bike_id": "1408355ac1a2a7192a2d335a8f79f7e7", "is_disabled": 0, "is_reserved": 0}, {"rental_uris": {"ios": "https://dc.lft.to/lastmile_qr_scan", "android": "https://dc.lft.to/lastmile_qr_scan"}, "lon": -76.99182366666666, "type": "electric_scooter", "fusion_lat": 0.0, "lat": 38.904552, "name": "ad5866c548d40e8e13d6aa1f41f9ce44", "fusion_lon": 0.0, "bike_id": "ad5866c548d40e8e13d6aa1f41f9ce44", "is_disabled": 0, "is_reserved": 0}, {"rental_uris": {"ios": "https://dc.lft.to/lastmile_qr_scan", "android": "https://dc.lft.to/lastmile_qr_scan"}, "lon": -77.02743266666667, "type": "electric_scooter", "fusion_lat": 0.0, "lat": 38.88155166666667, "name": "0b1d8a345edbc821ca57db188af79d01", "fusion_lon": 0.0, "bike_id": "0b1d8a345edbc821ca57db188af79d01", "is_disabled": 0, "is_reserved": 0}, {"rental_uris": {"ios": "https://dc.lft.to/lastmile_qr_scan", "android": "https://dc.lft.to/lastmile_qr_scan"}, "lon": -77.0495795, "type": "electric_scooter", "fusion_lat": 0.0, "lat": 38.915969, "name": "10d90e129005a943d05d6e1f738c0a7a", "fusion_lon": 0.0, "bike_id": "10d90e129005a943d05d6e1f738c0a7a", "is_disabled": 0, "is_reserved": 0}, {"rental_uris": {"ios": "https://dc.lft.to/lastmile_qr_scan", "android": "https://dc.lft.to/lastmile_qr_scan"}, "lon": -76.87496983333334, "type": "electric_bike", "fusion_lat": 0.0, "lat": 38.990918, "name": "8bffe7b8c553a88227aafc8b59ce586a", "fusion_lon": 0.0, "bike_id": "8bffe7b8c553a88227aafc8b59ce586a", "is_disabled": 0, "is_reserved": 0}, {"rental_uris": {"ios": "https://dc.lft.to/lastmile_qr_scan", "android": "https://dc.lft.to/lastmile_qr_scan"}, "lon": -77.02161583333333, "type": "electric_scooter", "fusion_lat": 0.0, "lat": 38.92608966666667, "name": "d732aad084923d7b43fd5ecb46a1d3ae", "fusion_lon": 0.0, "bike_id": "d732aad084923d7b43fd5ecb46a1d3ae", "is_disabled": 0, "is_reserved": 0}, {"rental_uris": {"ios": "https://dc.lft.to/lastmile_qr_scan", "android": "https://dc.lft.to/lastmile_qr_scan"}, "lon": -77.04007466666667, "type": "electric_scooter", "fusion_lat": 0.0, "lat": 38.91567766666667, "name": "a72f77f0e801cf146c1d75f7530f83e9", "fusion_lon": 0.0, "bike_id": "a72f77f0e801cf146c1d75f7530f83e9", "is_disabled": 0, "is_reserved": 0}, {"rental_uris": {"ios": "https://dc.lft.to/lastmile_qr_scan", "android": "https://dc.lft.to/lastmile_qr_scan"}, "lon": -77.03931766666666, "type": "electric_scooter", "fusion_lat": 0.0, "lat": 38.9210865, "name": "e2af97e08997da17b4190fb5762653fc", "fusion_lon": 0.0, "bike_id": "e2af97e08997da17b4190fb5762653fc", "is_disabled": 0, "is_reserved": 0}, {"rental_uris": {"ios": "https://dc.lft.to/lastmile_qr_scan", "android": "https://dc.lft.to/lastmile_qr_scan"}, "lon": -77.02385283333334, "type": "electric_scooter", "fusion_lat": 0.0, "lat": 38.894985, "name": "1fc9f069260a31166a8e400467e0b266", "fusion_lon": 0.0, "bike_id": "1fc9f069260a31166a8e400467e0b266", "is_disabled": 0, "is_reserved": 0}, {"rental_uris": {"ios": "https://dc.lft.to/lastmile_qr_scan", "android": "https://dc.lft.to/lastmile_qr_scan"}, "lon": -77.0268815, "type": "electric_scooter", "fusion_lat": 0.0, "lat": 38.90726166666666, "name": "f4ac2cd9be108400b181d61b9fde5990", "fusion_lon": 0.0, "bike_id": "f4ac2cd9be108400b181d61b9fde5990", "is_disabled": 0, "is_reserved": 0}, {"rental_uris": {"ios": "https://dc.lft.to/lastmile_qr_scan", "android": "https://dc.lft.to/lastmile_qr_scan"}, "lon": -77.0638525, "type": "electric_scooter", "fusion_lat": 0.0, "lat": 38.90822816666667, "name": "eb23332d54c12ff797a50a6352cccce0", "fusion_lon": 0.0, "bike_id": "eb23332d54c12ff797a50a6352cccce0", "is_disabled": 0, "is_reserved": 0}, {"rental_uris": {"ios": "https://dc.lft.to/lastmile_qr_scan", "android": "https://dc.lft.to/lastmile_qr_scan"}, "lon": -77.03290133333333, "type": "electric_scooter", "fusion_lat": 0.0, "lat": 38.92849233333333, "name": "ab1944318ce26d29a749eccb9b7ce32c", "fusion_lon": 0.0, "bike_id": "ab1944318ce26d29a749eccb9b7ce32c", "is_disabled": 0, "is_reserved": 0}, {"rental_uris": {"ios": "https://dc.lft.to/lastmile_qr_scan", "android": "https://dc.lft.to/lastmile_qr_scan"}, "lon": -76.93103916666666, "type": "electric_scooter", "fusion_lat": 0.0, "lat": 38.901468333333334, "name": "69821d7dfe2c5230643df7ac7ea5eab8", "fusion_lon": 0.0, "bike_id": "69821d7dfe2c5230643df7ac7ea5eab8", "is_disabled": 0, "is_reserved": 0}, {"rental_uris": {"ios": "https://dc.lft.to/lastmile_qr_scan", "android": "https://dc.lft.to/lastmile_qr_scan"}, "lon": -76.98007083333333, "type": "electric_bike", "fusion_lat": 0.0, "lat": 38.862883333333336, "name": "5b7bee28b9da86070c0dc800e45baff4", "fusion_lon": 0.0, "bike_id": "5b7bee28b9da86070c0dc800e45baff4", "is_disabled": 0, "is_reserved": 0}, {"rental_uris": {"ios": "https://dc.lft.to/lastmile_qr_scan", "android": "https://dc.lft.to/lastmile_qr_scan"}, "lon": -77.0077515, "type": "electric_scooter", "fusion_lat": 0.0, "lat": 38.91125983333333, "name": "5b233fd2c295e044e90d52cca5242efd", "fusion_lon": 0.0, "bike_id": "5b233fd2c295e044e90d52cca5242efd", "is_disabled": 0, "is_reserved": 0}, {"rental_uris": {"ios": "https://dc.lft.to/lastmile_qr_scan", "android": "https://dc.lft.to/lastmile_qr_scan"}, "lon": -76.98560783333333, "type": "electric_scooter", "fusion_lat": 0.0, "lat": 38.89766433333333, "name": "e8ebd12f4552e9d54b05649a6453abd2", "fusion_lon": 0.0, "bike_id": "e8ebd12f4552e9d54b05649a6453abd2", "is_disabled": 0, "is_reserved": 0}, {"rental_uris": {"ios": "https://dc.lft.to/lastmile_qr_scan", "android": "https://dc.lft.to/lastmile_qr_scan"}, "lon": -77.05350116666666, "type": "electric_scooter", "fusion_lat": 0.0, "lat": 38.90248416666667, "name": "0fbef528895a8d975343a9199f65f18f", "fusion_lon": 0.0, "bike_id": "0fbef528895a8d975343a9199f65f18f", "is_disabled": 0, "is_reserved": 0}, {"rental_uris": {"ios": "https://dc.lft.to/lastmile_qr_scan", "android": "https://dc.lft.to/lastmile_qr_scan"}, "lon": -77.02800016666667, "type": "electric_scooter", "fusion_lat": 0.0, "lat": 38.896445, "name": "af05e397a7637684291ebc82e43080e1", "fusion_lon": 0.0, "bike_id": "af05e397a7637684291ebc82e43080e1", "is_disabled": 0, "is_reserved": 0}, {"rental_uris": {"ios": "https://dc.lft.to/lastmile_qr_scan", "android": "https://dc.lft.to/lastmile_qr_scan"}, "lon": -77.017452, "type": "electric_scooter", "fusion_lat": 0.0, "lat": 38.88319933333333, "name": "481bedbc7ba002add33e69a37e9e0020", "fusion_lon": 0.0, "bike_id": "481bedbc7ba002add33e69a37e9e0020", "is_disabled": 0, "is_reserved": 0}, {"rental_uris": {"ios": "https://dc.lft.to/lastmile_qr_scan", "android": "https://dc.lft.to/lastmile_qr_scan"}, "lon": -77.032076, "type": "electric_scooter", "fusion_lat": 0.0, "lat": 38.91116133333333, "name": "34067c41a6745f325acaa26ae74a96fe", "fusion_lon": 0.0, "bike_id": "34067c41a6745f325acaa26ae74a96fe", "is_disabled": 0, "is_reserved": 0}, {"rental_uris": {"ios": "https://dc.lft.to/lastmile_qr_scan", "android": "https://dc.lft.to/lastmile_qr_scan"}, "lon": -76.998031, "type": "electric_scooter", "fusion_lat": 0.0, "lat": 38.9087305, "name": "4afb387cb79ff8899e5ccbc3a7bf609c", "fusion_lon": 0.0, "bike_id": "4afb387cb79ff8899e5ccbc3a7bf609c", "is_disabled": 0, "is_reserved": 0}, {"rental_uris": {"ios": "https://dc.lft.to/lastmile_qr_scan", "android": "https://dc.lft.to/lastmile_qr_scan"}, "lon": -77.02234416666667, "type": "electric_scooter", "fusion_lat": 0.0, "lat": 38.892010166666665, "name": "4a277240c58e99cc19825e9f67fe8040", "fusion_lon": 0.0, "bike_id": "4a277240c58e99cc19825e9f67fe8040", "is_disabled": 0, "is_reserved": 0}, {"rental_uris": {"ios": "https://dc.lft.to/lastmile_qr_scan", "android": "https://dc.lft.to/lastmile_qr_scan"}, "lon": -77.03686733333333, "type": "electric_scooter", "fusion_lat": 0.0, "lat": 38.929417666666666, "name": "056dad8fb11479835b68ac71b6390376", "fusion_lon": 0.0, "bike_id": "056dad8fb11479835b68ac71b6390376", "is_disabled": 0, "is_reserved": 0}, {"rental_uris": {"ios": "https://dc.lft.to/lastmile_qr_scan", "android": "https://dc.lft.to/lastmile_qr_scan"}, "lon": -77.04509333333333, "type": "electric_scooter", "fusion_lat": 0.0, "lat": 38.91119616666667, "name": "a1a56fe0a2832c4f0c2428714b22f1ce", "fusion_lon": 0.0, "bike_id": "a1a56fe0a2832c4f0c2428714b22f1ce", "is_disabled": 0, "is_reserved": 0}, {"rental_uris": {"ios": "https://dc.lft.to/lastmile_qr_scan", "android": "https://dc.lft.to/lastmile_qr_scan"}, "lon": -76.99151316666666, "type": "electric_scooter", "fusion_lat": 0.0, "lat": 38.90043133333333, "name": "2dd3b2d4cc2e6ef2cdd4929d34eb876c", "fusion_lon": 0.0, "bike_id": "2dd3b2d4cc2e6ef2cdd4929d34eb876c", "is_disabled": 0, "is_reserved": 0}, {"rental_uris": {"ios": "https://dc.lft.to/lastmile_qr_scan", "android": "https://dc.lft.to/lastmile_qr_scan"}, "lon": -77.05480183333333, "type": "electric_scooter", "fusion_lat": 0.0, "lat": 38.9210375, "name": "4768ff70196bca8b18e6e46d0157ddb4", "fusion_lon": 0.0, "bike_id": "4768ff70196bca8b18e6e46d0157ddb4", "is_disabled": 0, "is_reserved": 0}, {"rental_uris": {"ios": "https://dc.lft.to/lastmile_qr_scan", "android": "https://dc.lft.to/lastmile_qr_scan"}, "lon": -77.02715933333333, "type": "electric_scooter", "fusion_lat": 0.0, "lat": 38.9246985, "name": "a8a671c642d0f0f021038f4d2b80766f", "fusion_lon": 0.0, "bike_id": "a8a671c642d0f0f021038f4d2b80766f", "is_disabled": 0, "is_reserved": 0}, {"rental_uris": {"ios": "https://dc.lft.to/lastmile_qr_scan", "android": "https://dc.lft.to/lastmile_qr_scan"}, "lon": -76.955371, "type": "electric_scooter", "fusion_lat": 0.0, "lat": 38.88785683333333, "name": "39e870facaa21a8a7ed0cfc4d1b92951", "fusion_lon": 0.0, "bike_id": "39e870facaa21a8a7ed0cfc4d1b92951", "is_disabled": 0, "is_reserved": 0}, {"rental_uris": {"ios": "https://dc.lft.to/lastmile_qr_scan", "android": "https://dc.lft.to/lastmile_qr_scan"}, "lon": -77.05108633333333, "type": "electric_scooter", "fusion_lat": 0.0, "lat": 38.90517533333333, "name": "1adc84af38b943a1d52ade9171153b76", "fusion_lon": 0.0, "bike_id": "1adc84af38b943a1d52ade9171153b76", "is_disabled": 0, "is_reserved": 0}, {"rental_uris": {"ios": "https://dc.lft.to/lastmile_qr_scan", "android": "https://dc.lft.to/lastmile_qr_scan"}, "lon": -77.06014683333333, "type": "electric_scooter", "fusion_lat": 0.0, "lat": 38.912602, "name": "726699ad2da750b26977702be98b5d88", "fusion_lon": 0.0, "bike_id": "726699ad2da750b26977702be98b5d88", "is_disabled": 0, "is_reserved": 0}, {"rental_uris": {"ios": "https://dc.lft.to/lastmile_qr_scan", "android": "https://dc.lft.to/lastmile_qr_scan"}, "lon": -77.02097633333334, "type": "electric_scooter", "fusion_lat": 0.0, "lat": 38.91417033333333, "name": "b5bb60f6fc89531b8420051cd5747fa8", "fusion_lon": 0.0, "bike_id": "b5bb60f6fc89531b8420051cd5747fa8", "is_disabled": 0, "is_reserved": 0}, {"rental_uris": {"ios": "https://dc.lft.to/lastmile_qr_scan", "android": "https://dc.lft.to/lastmile_qr_scan"}, "lon": -77.03861866666666, "type": "electric_scooter", "fusion_lat": 0.0, "lat": 38.91561316666667, "name": "2bb7dda0dbd2125e20ca443ba7a8f1bc", "fusion_lon": 0.0, "bike_id": "2bb7dda0dbd2125e20ca443ba7a8f1bc", "is_disabled": 0, "is_reserved": 0}, {"rental_uris": {"ios": "https://dc.lft.to/lastmile_qr_scan", "android": "https://dc.lft.to/lastmile_qr_scan"}, "lon": -76.94176166666666, "type": "electric_scooter", "fusion_lat": 0.0, "lat": 38.88216516666667, "name": "40ac97ab67d967df1381958285853f92", "fusion_lon": 0.0, "bike_id": "40ac97ab67d967df1381958285853f92", "is_disabled": 0, "is_reserved": 0}, {"rental_uris": {"ios": "https://dc.lft.to/lastmile_qr_scan", "android": "https://dc.lft.to/lastmile_qr_scan"}, "lon": -76.98714033333333, "type": "electric_scooter", "fusion_lat": 0.0, "lat": 38.862627833333335, "name": "f6b538c28a064cbe287ac5f847c97b31", "fusion_lon": 0.0, "bike_id": "f6b538c28a064cbe287ac5f847c97b31", "is_disabled": 0, "is_reserved": 0}, {"rental_uris": {"ios": "https://dc.lft.to/lastmile_qr_scan", "android": "https://dc.lft.to/lastmile_qr_scan"}, "lon": -77.03613166666666, "type": "electric_scooter", "fusion_lat": 0.0, "lat": 38.9325635, "name": "cdbfbf054684e9cd349dab5d52e876d7", "fusion_lon": 0.0, "bike_id": "cdbfbf054684e9cd349dab5d52e876d7", "is_disabled": 0, "is_reserved": 0}, {"rental_uris": {"ios": "https://dc.lft.to/lastmile_qr_scan", "android": "https://dc.lft.to/lastmile_qr_scan"}, "lon": -77.02492, "type": "electric_scooter", "fusion_lat": 0.0, "lat": 38.9418355, "name": "18d998818c0a3985eb48de497533185f", "fusion_lon": 0.0, "bike_id": "18d998818c0a3985eb48de497533185f", "is_disabled": 0, "is_reserved": 0}, {"rental_uris": {"ios": "https://dc.lft.to/lastmile_qr_scan", "android": "https://dc.lft.to/lastmile_qr_scan"}, "lon": -77.06117683333333, "type": "electric_scooter", "fusion_lat": 0.0, "lat": 38.91296783333333, "name": "04ce1496a1728e4fb28774e083de8169", "fusion_lon": 0.0, "bike_id": "04ce1496a1728e4fb28774e083de8169", "is_disabled": 0, "is_reserved": 0}, {"rental_uris": {"ios": "https://dc.lft.to/lastmile_qr_scan", "android": "https://dc.lft.to/lastmile_qr_scan"}, "lon": -77.00191216666667, "type": "electric_scooter", "fusion_lat": 0.0, "lat": 38.87384466666666, "name": "f6c16b0d207cf41b81e9913d2427f549", "fusion_lon": 0.0, "bike_id": "f6c16b0d207cf41b81e9913d2427f549", "is_disabled": 0, "is_reserved": 0}, {"rental_uris": {"ios": "https://dc.lft.to/lastmile_qr_scan", "android": "https://dc.lft.to/lastmile_qr_scan"}, "lon": -77.03865616666667, "type": "electric_scooter", "fusion_lat": 0.0, "lat": 38.942036, "name": "31070f23ea07e74039f25645b8847f14", "fusion_lon": 0.0, "bike_id": "31070f23ea07e74039f25645b8847f14", "is_disabled": 0, "is_reserved": 0}, {"rental_uris": {"ios": "https://dc.lft.to/lastmile_qr_scan", "android": "https://dc.lft.to/lastmile_qr_scan"}, "lon": -76.990038, "type": "electric_scooter", "fusion_lat": 0.0, "lat": 38.86508116666667, "name": "173770e48a7f6ddc8ea28b58c5228bef", "fusion_lon": 0.0, "bike_id": "173770e48a7f6ddc8ea28b58c5228bef", "is_disabled": 0, "is_reserved": 0}, {"rental_uris": {"ios": "https://dc.lft.to/lastmile_qr_scan", "android": "https://dc.lft.to/lastmile_qr_scan"}, "lon": -77.03246966666667, "type": "electric_scooter", "fusion_lat": 0.0, "lat": 38.912533833333335, "name": "65294056445a64dc4841d09d70f3cc4c", "fusion_lon": 0.0, "bike_id": "65294056445a64dc4841d09d70f3cc4c", "is_disabled": 0, "is_reserved": 0}, {"rental_uris": {"ios": "https://dc.lft.to/lastmile_qr_scan", "android": "https://dc.lft.to/lastmile_qr_scan"}, "lon": -76.98059366666666, "type": "electric_scooter", "fusion_lat": 0.0, "lat": 38.885379, "name": "3f1e8f282f6b732fb6f7d6b98be11dfd", "fusion_lon": 0.0, "bike_id": "3f1e8f282f6b732fb6f7d6b98be11dfd", "is_disabled": 0, "is_reserved": 0}, {"rental_uris": {"ios": "https://dc.lft.to/lastmile_qr_scan", "android": "https://dc.lft.to/lastmile_qr_scan"}, "lon": -77.03866933333333, "type": "electric_scooter", "fusion_lat": 0.0, "lat": 38.91560416666667, "name": "852d16be51d993eec4f0b4f96ddfbdcc", "fusion_lon": 0.0, "bike_id": "852d16be51d993eec4f0b4f96ddfbdcc", "is_disabled": 0, "is_reserved": 0}, {"rental_uris": {"ios": "https://dc.lft.to/lastmile_qr_scan", "android": "https://dc.lft.to/lastmile_qr_scan"}, "lon": -77.149985, "type": "electric_bike", "fusion_lat": 0.0, "lat": 39.094601, "name": "ddccda85f736d877686bd3ac4117b265", "fusion_lon": 0.0, "bike_id": "ddccda85f736d877686bd3ac4117b265", "is_disabled": 0, "is_reserved": 0}, {"rental_uris": {"ios": "https://dc.lft.to/lastmile_qr_scan", "android": "https://dc.lft.to/lastmile_qr_scan"}, "lon": -76.93364633333333, "type": "electric_scooter", "fusion_lat": 0.0, "lat": 38.89919616666667, "name": "0978ea4253b7e475f7da707ae779ce34", "fusion_lon": 0.0, "bike_id": "0978ea4253b7e475f7da707ae779ce34", "is_disabled": 0, "is_reserved": 0}, {"rental_uris": {"ios": "https://dc.lft.to/lastmile_qr_scan", "android": "https://dc.lft.to/lastmile_qr_scan"}, "lon": -77.03453216666666, "type": "electric_scooter", "fusion_lat": 0.0, "lat": 38.904445333333335, "name": "4d3c6d321fee410ab2cea7160a0aeaa2", "fusion_lon": 0.0, "bike_id": "4d3c6d321fee410ab2cea7160a0aeaa2", "is_disabled": 0, "is_reserved": 0}, {"rental_uris": {"ios": "https://dc.lft.to/lastmile_qr_scan", "android": "https://dc.lft.to/lastmile_qr_scan"}, "lon": -77.04717516666666, "type": "electric_scooter", "fusion_lat": 0.0, "lat": 38.91674366666667, "name": "304cf558c334241a0ee7ae3a8629db00", "fusion_lon": 0.0, "bike_id": "304cf558c334241a0ee7ae3a8629db00", "is_disabled": 0, "is_reserved": 0}, {"rental_uris": {"ios": "https://dc.lft.to/lastmile_qr_scan", "android": "https://dc.lft.to/lastmile_qr_scan"}, "lon": -77.04611333333334, "type": "electric_scooter", "fusion_lat": 0.0, "lat": 38.9191325, "name": "e6e245e239f80463ec4e8f26076c7b1a", "fusion_lon": 0.0, "bike_id": "e6e245e239f80463ec4e8f26076c7b1a", "is_disabled": 0, "is_reserved": 0}, {"rental_uris": {"ios": "https://dc.lft.to/lastmile_qr_scan", "android": "https://dc.lft.to/lastmile_qr_scan"}, "lon": -77.19909066666666, "type": "electric_bike", "fusion_lat": 0.0, "lat": 38.87532916666667, "name": "c204021e32f3967a6f61a3e35ec3cc90", "fusion_lon": 0.0, "bike_id": "c204021e32f3967a6f61a3e35ec3cc90", "is_disabled": 0, "is_reserved": 0}, {"rental_uris": {"ios": "https://dc.lft.to/lastmile_qr_scan", "android": "https://dc.lft.to/lastmile_qr_scan"}, "lon": -76.91917716666667, "type": "electric_scooter", "fusion_lat": 0.0, "lat": 38.900425, "name": "c50b1a9ebda325d8ed58d889f01b9cbf", "fusion_lon": 0.0, "bike_id": "c50b1a9ebda325d8ed58d889f01b9cbf", "is_disabled": 0, "is_reserved": 0}, {"rental_uris": {"ios": "https://dc.lft.to/lastmile_qr_scan", "android": "https://dc.lft.to/lastmile_qr_scan"}, "lon": -76.93176933333334, "type": "electric_scooter", "fusion_lat": 0.0, "lat": 38.898877, "name": "e2d6a50dd2c4f6d84a8519b81617305b", "fusion_lon": 0.0, "bike_id": "e2d6a50dd2c4f6d84a8519b81617305b", "is_disabled": 0, "is_reserved": 0}, {"rental_uris": {"ios": "https://dc.lft.to/lastmile_qr_scan", "android": "https://dc.lft.to/lastmile_qr_scan"},