{"data": {"bikes": [{"fusion_lat": 0.0, "lon": -76.93753966666667, "is_reserved": 0, "bike_id": "f85148df01664f6a69788090dcbba386", "fusion_lon": 0.0, "rental_uris": {"android": "https://dc.lft.to/lastmile_qr_scan", "ios": "https://dc.lft.to/lastmile_qr_scan"}, "name": "f85148df01664f6a69788090dcbba386", "type": "electric_scooter", "lat": 38.89049933333333, "is_disabled": 0}, {"fusion_lat": 0.0, "lon": -76.94378616666667, "is_reserved": 0, "bike_id": "3cc24d29232253946482c7b0b1a9af9a", "fusion_lon": 0.0, "rental_uris": {"android": "https://dc.lft.to/lastmile_qr_scan", "ios": "https://dc.lft.to/lastmile_qr_scan"}, "name": "3cc24d29232253946482c7b0b1a9af9a", "type": "electric_scooter", "lat": 38.893284, "is_disabled": 0}, {"fusion_lat": 0.0, "lon": -77.0335715, "is_reserved": 0, "bike_id": "39cf3e1a976b4f662178375198f84ca0", "fusion_lon": 0.0, "rental_uris": {"android": "https://dc.lft.to/lastmile_qr_scan", "ios": "https://dc.lft.to/lastmile_qr_scan"}, "name": "39cf3e1a976b4f662178375198f84ca0", "type": "electric_scooter", "lat": 38.89924466666667, "is_disabled": 0}, {"fusion_lat": 0.0, "lon": -76.9862565, "is_reserved": 0, "bike_id": "8e04c73fca93214e3f8cafaaf7854ba7", "fusion_lon": 0.0, "rental_uris": {"android": "https://dc.lft.to/lastmile_qr_scan", "ios": "https://dc.lft.to/lastmile_qr_scan"}, "name": "8e04c73fca93214e3f8cafaaf7854ba7", "type": "electric_scooter", "lat": 38.90115266666667, "is_disabled": 0}, {"fusion_lat": 0.0, "lon": -76.98706383333334, "is_reserved": 0, "bike_id": "30b253246e9f807773992bd2c92799b3", "fusion_lon": 0.0, "rental_uris": {"android": "https://dc.lft.to/lastmile_qr_scan", "ios": "https://dc.lft.to/lastmile_qr_scan"}, "name": "30b253246e9f807773992bd2c92799b3", "type": "electric_scooter", "lat": 38.899671833333336, "is_disabled": 0}, {"fusion_lat": 0.0, "lon": -77.0906325, "is_reserved": 0, "bike_id": "8a21558c5bfa57db286c23515f39a630", "fusion_lon": 0.0, "rental_uris": {"android": "https://dc.lft.to/lastmile_qr_scan", "ios": "https://dc.lft.to/lastmile_qr_scan"}, "name": "8a21558c5bfa57db286c23515f39a630", "type": "electric_bike", "lat": 38.86263833333334, "is_disabled": 0}, {"fusion_lat": 0.0, "lon": -76.97827566666666, "is_reserved": 0, "bike_id": "dec9375c8f39583dc855ebab427f62b2", "fusion_lon": 0.0, "rental_uris": {"android": "https://dc.lft.to/lastmile_qr_scan", "ios": "https://dc.lft.to/lastmile_qr_scan"}, "name": "dec9375c8f39583dc855ebab427f62b2", "type": "electric_bike", "lat": 38.8436945, "is_disabled": 0}, {"fusion_lat": 0.0, "lon": -77.03234416666666, "is_reserved": 0, "bike_id": "3dee3db7232e4196b1244aab1fa70f27", "fusion_lon": 0.0, "rental_uris": {"android": "https://dc.lft.to/lastmile_qr_scan", "ios": "https://dc.lft.to/lastmile_qr_scan"}, "name": "3dee3db7232e4196b1244aab1fa70f27", "type": "electric_scooter", "lat": 38.91555916666667, "is_disabled": 0}, {"fusion_lat": 0.0, "lon": -76.9977805, "is_reserved": 0, "bike_id": "86b19700110d05ce64babaf3128c23f8", "fusion_lon": 0.0, "rental_uris": {"android": "https://dc.lft.to/lastmile_qr_scan", "ios": "https://dc.lft.to/lastmile_qr_scan"}, "name": "86b19700110d05ce64babaf3128c23f8", "type": "electric_scooter", "lat": 38.8442945, "is_disabled": 0}, {"fusion_lat": 0.0, "lon": -77.0083535, "is_reserved": 0, "bike_id": "9448118ade40f29c0c6e0010f6167985", "fusion_lon": 0.0, "rental_uris": {"android": "https://dc.lft.to/lastmile_qr_scan", "ios": "https://dc.lft.to/lastmile_qr_scan"}, "name": "9448118ade40f29c0c6e0010f6167985", "type": "electric_scooter", "lat": 38.9224125, "is_disabled": 0}, {"fusion_lat": 0.0, "lon": -77.025901, "is_reserved": 0, "bike_id": "3afd3adda3b712a62b2deb896766fb9b", "fusion_lon": 0.0, "rental_uris": {"android": "https://dc.lft.to/lastmile_qr_scan", "ios": "https://dc.lft.to/lastmile_qr_scan"}, "name": "3afd3adda3b712a62b2deb896766fb9b", "type": "electric_scooter", "lat": 38.963949, "is_disabled": 0}, {"fusion_lat": 0.0, "lon": -77.03217233333334, "is_reserved": 0, "bike_id": "0dc66a2db39f445979cfd5ea40bbda0e", "fusion_lon": 0.0, "rental_uris": {"android": "https://dc.lft.to/lastmile_qr_scan", "ios": "https://dc.lft.to/lastmile_qr_scan"}, "name": "0dc66a2db39f445979cfd5ea40bbda0e", "type": "electric_scooter", "lat": 38.89675716666667, "is_disabled": 0}, {"fusion_lat": 0.0, "lon": -76.97423633333334, "is_reserved": 0, "bike_id": "726b410c6f90d63b6f0ba830fc577b42", "fusion_lon": 0.0, "rental_uris": {"android": "https://dc.lft.to/lastmile_qr_scan", "ios": "https://dc.lft.to/lastmile_qr_scan"}, "name": "726b410c6f90d63b6f0ba830fc577b42", "type": "electric_scooter", "lat": 38.9040595, "is_disabled": 0}, {"fusion_lat": 0.0, "lon": -77.01907016666667, "is_reserved": 0, "bike_id": "752afd6eb9548509ae59d790464d7a5e", "fusion_lon": 0.0, "rental_uris": {"android": "https://dc.lft.to/lastmile_qr_scan", "ios": "https://dc.lft.to/lastmile_qr_scan"}, "name": "752afd6eb9548509ae59d790464d7a5e", "type": "electric_scooter", "lat": 38.919350333333334, "is_disabled": 0}, {"fusion_lat": 0.0, "lon": -77.00931766666666, "is_reserved": 0, "bike_id": "eeb53e4849659e590d11379760ec1b53", "fusion_lon": 0.0, "rental_uris": {"android": "https://dc.lft.to/lastmile_qr_scan", "ios": "https://dc.lft.to/lastmile_qr_scan"}, "name": "eeb53e4849659e590d11379760ec1b53", "type": "electric_scooter", "lat": 38.89618266666667, "is_disabled": 0}, {"fusion_lat": 0.0, "lon": -77.05321833333333, "is_reserved": 0, "bike_id": "b51f498314edbc15af7c1a083ee9201f", "fusion_lon": 0.0, "rental_uris": {"android": "https://dc.lft.to/lastmile_qr_scan", "ios": "https://dc.lft.to/lastmile_qr_scan"}, "name": "b51f498314edbc15af7c1a083ee9201f", "type": "electric_scooter", "lat": 38.91556883333333, "is_disabled": 0}, {"fusion_lat": 0.0, "lon": -76.980125, "is_reserved": 0, "bike_id": "92ed696ccada6e5ced966ddd3688e309", "fusion_lon": 0.0, "rental_uris": {"android": "https://dc.lft.to/lastmile_qr_scan", "ios": "https://dc.lft.to/lastmile_qr_scan"}, "name": "92ed696ccada6e5ced966ddd3688e309", "type": "electric_bike", "lat": 38.853183666666666, "is_disabled": 0}, {"fusion_lat": 0.0, "lon": -76.99508633333333, "is_reserved": 0, "bike_id": "0d0e9e8902748271b8a3c2497edd5260", "fusion_lon": 0.0, "rental_uris": {"android": "https://dc.lft.to/lastmile_qr_scan", "ios": "https://dc.lft.to/lastmile_qr_scan"}, "name": "0d0e9e8902748271b8a3c2497edd5260", "type": "electric_scooter", "lat": 38.88264983333333, "is_disabled": 0}, {"fusion_lat": 0.0, "lon": -77.04172083333333, "is_reserved": 0, "bike_id": "9311c1f27ee0539b352528c6bf099664", "fusion_lon": 0.0, "rental_uris": {"android": "https://dc.lft.to/lastmile_qr_scan", "ios": "https://dc.lft.to/lastmile_qr_scan"}, "name": "9311c1f27ee0539b352528c6bf099664", "type": "electric_scooter", "lat": 38.917286833333335, "is_disabled": 0}, {"fusion_lat": 0.0, "lon": -77.07691866666667, "is_reserved": 0, "bike_id": "7be6e6b22da112d3df62719031402e62", "fusion_lon": 0.0, "rental_uris": {"android": "https://dc.lft.to/lastmile_qr_scan", "ios": "https://dc.lft.to/lastmile_qr_scan"}, "name": "7be6e6b22da112d3df62719031402e62", "type": "electric_bike", "lat": 38.840834666666666, "is_disabled": 0}, {"fusion_lat": 0.0, "lon": -77.04325633333333, "is_reserved": 0, "bike_id": "90e2b800c7eabf09b8c0806cb3743450", "fusion_lon": 0.0, "rental_uris": {"android": "https://dc.lft.to/lastmile_qr_scan", "ios": "https://dc.lft.to/lastmile_qr_scan"}, "name": "90e2b800c7eabf09b8c0806cb3743450", "type": "electric_scooter", "lat": 38.89226016666667, "is_disabled": 0}, {"fusion_lat": 0.0, "lon": -77.04334783333333, "is_reserved": 0, "bike_id": "4d341f98e3152b50531403f3e1a5c3e0", "fusion_lon": 0.0, "rental_uris": {"android": "https://dc.lft.to/lastmile_qr_scan", "ios": "https://dc.lft.to/lastmile_qr_scan"}, "name": "4d341f98e3152b50531403f3e1a5c3e0", "type": "electric_scooter", "lat": 38.903246333333335, "is_disabled": 0}, {"fusion_lat": 0.0, "lon": -77.0376165, "is_reserved": 0, "bike_id": "d421df90695daed26f827864ce80fb14", "fusion_lon": 0.0, "rental_uris": {"android": "https://dc.lft.to/lastmile_qr_scan", "ios": "https://dc.lft.to/lastmile_qr_scan"}, "name": "d421df90695daed26f827864ce80fb14", "type": "electric_scooter", "lat": 38.906744833333335, "is_disabled": 0}, {"fusion_lat": 0.0, "lon": -76.99941383333334, "is_reserved": 0, "bike_id": "3f7b1095cb5290fefca7177fcf49308e", "fusion_lon": 0.0, "rental_uris": {"android": "https://dc.lft.to/lastmile_qr_scan", "ios": "https://dc.lft.to/lastmile_qr_scan"}, "name": "3f7b1095cb5290fefca7177fcf49308e", "type": "electric_scooter", "lat": 38.907586, "is_disabled": 0}, {"fusion_lat": 0.0, "lon": -77.03001916666666, "is_reserved": 0, "bike_id": "ac53080be8efc79f0c2c732b6c712f0e", "fusion_lon": 0.0, "rental_uris": {"android": "https://dc.lft.to/lastmile_qr_scan", "ios": "https://dc.lft.to/lastmile_qr_scan"}, "name": "ac53080be8efc79f0c2c732b6c712f0e", "type": "electric_scooter", "lat": 38.92032716666667, "is_disabled": 0}, {"fusion_lat": 0.0, "lon": -77.03174383333334, "is_reserved": 0, "bike_id": "f61a5f9095bc39df2134d296e492337f", "fusion_lon": 0.0, "rental_uris": {"android": "https://dc.lft.to/lastmile_qr_scan", "ios": "https://dc.lft.to/lastmile_qr_scan"}, "name": "f61a5f9095bc39df2134d296e492337f", "type": "electric_scooter", "lat": 38.91807633333333, "is_disabled": 0}, {"fusion_lat": 0.0, "lon": -76.97637966666667, "is_reserved": 0, "bike_id": "7f14c099cb731b011edd994035c8955f", "fusion_lon": 0.0, "rental_uris": {"android": "https://dc.lft.to/lastmile_qr_scan", "ios": "https://dc.lft.to/lastmile_qr_scan"}, "name": "7f14c099cb731b011edd994035c8955f", "type": "electric_scooter", "lat": 38.864577833333335, "is_disabled": 0}, {"fusion_lat": 0.0, "lon": -77.03835666666667, "is_reserved": 0, "bike_id": "732467d68d4ce456bf4977ad22feeb27", "fusion_lon": 0.0, "rental_uris": {"android": "https://dc.lft.to/lastmile_qr_scan", "ios": "https://dc.lft.to/lastmile_qr_scan"}, "name": "732467d68d4ce456bf4977ad22feeb27", "type": "electric_scooter", "lat": 38.9111945, "is_disabled": 0}, {"fusion_lat": 0.0, "lon": -76.95752616666667, "is_reserved": 0, "bike_id": "ecb585bff46be4ab2e386af5311a2496", "fusion_lon": 0.0, "rental_uris": {"android": "https://dc.lft.to/lastmile_qr_scan", "ios": "https://dc.lft.to/lastmile_qr_scan"}, "name": "ecb585bff46be4ab2e386af5311a2496", "type": "electric_scooter", "lat": 38.884386666666664, "is_disabled": 0}, {"fusion_lat": 0.0, "lon": -76.995121, "is_reserved": 0, "bike_id": "78d9de953f70c5b0f276aca5c9a25b79", "fusion_lon": 0.0, "rental_uris": {"android": "https://dc.lft.to/lastmile_qr_scan", "ios": "https://dc.lft.to/lastmile_qr_scan"}, "name": "78d9de953f70c5b0f276aca5c9a25b79", "type": "electric_scooter", "lat": 38.897302, "is_disabled": 0}, {"fusion_lat": 0.0, "lon": -77.03892133333333, "is_reserved": 0, "bike_id": "18f4be8a4cd1ca554d90769b3b82efb8", "fusion_lon": 0.0, "rental_uris": {"android": "https://dc.lft.to/lastmile_qr_scan", "ios": "https://dc.lft.to/lastmile_qr_scan"}, "name": "18f4be8a4cd1ca554d90769b3b82efb8", "type": "electric_scooter", "lat": 38.91000916666667, "is_disabled": 0}, {"fusion_lat": 0.0, "lon": -77.03829683333333, "is_reserved": 0, "bike_id": "8d35d04b43133e2c968c62dfaf667db7", "fusion_lon": 0.0, "rental_uris": {"android": "https://dc.lft.to/lastmile_qr_scan", "ios": "https://dc.lft.to/lastmile_qr_scan"}, "name": "8d35d04b43133e2c968c62dfaf667db7", "type": "electric_scooter", "lat": 38.9119085, "is_disabled": 0}, {"fusion_lat": 0.0, "lon": -77.02415966666666, "is_reserved": 0, "bike_id": "a7aa49dcc43f3b7fafaba48e60ef902d", "fusion_lon": 0.0, "rental_uris": {"android": "https://dc.lft.to/lastmile_qr_scan", "ios": "https://dc.lft.to/lastmile_qr_scan"}, "name": "a7aa49dcc43f3b7fafaba48e60ef902d", "type": "electric_scooter", "lat": 38.933629833333335, "is_disabled": 0}, {"fusion_lat": 0.0, "lon": -77.0265025, "is_reserved": 0, "bike_id": "cca85a5877905e6414d123fe12630d8c", "fusion_lon": 0.0, "rental_uris": {"android": "https://dc.lft.to/lastmile_qr_scan", "ios": "https://dc.lft.to/lastmile_qr_scan"}, "name": "cca85a5877905e6414d123fe12630d8c", "type": "electric_scooter", "lat": 38.97564333333333, "is_disabled": 0}, {"fusion_lat": 0.0, "lon": -76.93636466666666, "is_reserved": 0, "bike_id": "019e8484829a6fd8ac948c0d6a194ce3", "fusion_lon": 0.0, "rental_uris": {"android": "https://dc.lft.to/lastmile_qr_scan", "ios": "https://dc.lft.to/lastmile_qr_scan"}, "name": "019e8484829a6fd8ac948c0d6a194ce3", "type": "electric_scooter", "lat": 38.900641666666665, "is_disabled": 0}, {"fusion_lat": 0.0, "lon": -77.00470816666666, "is_reserved": 0, "bike_id": "c1c1a81e0550c50325fd278b91b0f120", "fusion_lon": 0.0, "rental_uris": {"android": "https://dc.lft.to/lastmile_qr_scan", "ios": "https://dc.lft.to/lastmile_qr_scan"}, "name": "c1c1a81e0550c50325fd278b91b0f120", "type": "electric_scooter", "lat": 38.912056666666665, "is_disabled": 0}, {"fusion_lat": 0.0, "lon": -77.04756533333334, "is_reserved": 0, "bike_id": "9c7c943167bd39f604658bdc5eb7188a", "fusion_lon": 0.0, "rental_uris": {"android": "https://dc.lft.to/lastmile_qr_scan", "ios": "https://dc.lft.to/lastmile_qr_scan"}, "name": "9c7c943167bd39f604658bdc5eb7188a", "type": "electric_scooter", "lat": 38.90055266666667, "is_disabled": 0}, {"fusion_lat": 0.0, "lon": -76.9493485, "is_reserved": 0, "bike_id": "18d3065586ab37bc623ce58483286aa9", "fusion_lon": 0.0, "rental_uris": {"android": "https://dc.lft.to/lastmile_qr_scan", "ios": "https://dc.lft.to/lastmile_qr_scan"}, "name": "18d3065586ab37bc623ce58483286aa9", "type": "electric_scooter", "lat": 38.89345483333334, "is_disabled": 0}, {"fusion_lat": 0.0, "lon": -76.9301265, "is_reserved": 0, "bike_id": "fbdc0e5100420bb1c929f91088dcf560", "fusion_lon": 0.0, "rental_uris": {"android": "https://dc.lft.to/lastmile_qr_scan", "ios": "https://dc.lft.to/lastmile_qr_scan"}, "name": "fbdc0e5100420bb1c929f91088dcf560", "type": "electric_bike", "lat": 38.896609166666664, "is_disabled": 0}, {"fusion_lat": 0.0, "lon": -77.03100866666666, "is_reserved": 0, "bike_id": "e3e3de6a7ec80f08fca3a7579954cfac", "fusion_lon": 0.0, "rental_uris": {"android": "https://dc.lft.to/lastmile_qr_scan", "ios": "https://dc.lft.to/lastmile_qr_scan"}, "name": "e3e3de6a7ec80f08fca3a7579954cfac", "type": "electric_scooter", "lat": 38.950776833333336, "is_disabled": 0}, {"fusion_lat": 0.0, "lon": -77.03203966666666, "is_reserved": 0, "bike_id": "c55fa52baf9c63d003b73a4c01f93cd6", "fusion_lon": 0.0, "rental_uris": {"android": "https://dc.lft.to/lastmile_qr_scan", "ios": "https://dc.lft.to/lastmile_qr_scan"}, "name": "c55fa52baf9c63d003b73a4c01f93cd6", "type": "electric_scooter", "lat": 38.905599, "is_disabled": 0}, {"fusion_lat": 0.0, "lon": -77.030961, "is_reserved": 0, "bike_id": "2803e552f9eb02806e9cb82fecd82f98", "fusion_lon": 0.0, "rental_uris": {"android": "https://dc.lft.to/lastmile_qr_scan", "ios": "https://dc.lft.to/lastmile_qr_scan"}, "name": "2803e552f9eb02806e9cb82fecd82f98", "type": "electric_bike", "lat": 38.932571, "is_disabled": 0}, {"fusion_lat": 0.0, "lon": -77.08393633333333, "is_reserved": 0, "bike_id": "5d78478fa073b0f3bfe31cfc99c775f7", "fusion_lon": 0.0, "rental_uris": {"android": "https://dc.lft.to/lastmile_qr_scan", "ios": "https://dc.lft.to/lastmile_qr_scan"}, "name": "5d78478fa073b0f3bfe31cfc99c775f7", "type": "electric_scooter", "lat": 38.90803616666667, "is_disabled": 0}, {"fusion_lat": 0.0, "lon": -77.038271, "is_reserved": 0, "bike_id": "c79c09a32527089c21f18db9e86456f4", "fusion_lon": 0.0, "rental_uris": {"android": "https://dc.lft.to/lastmile_qr_scan", "ios": "https://dc.lft.to/lastmile_qr_scan"}, "name": "c79c09a32527089c21f18db9e86456f4", "type": "electric_scooter", "lat": 38.904338833333334, "is_disabled": 0}, {"fusion_lat": 0.0, "lon": -76.99506966666667, "is_reserved": 0, "bike_id": "a311239e351a92e46be4494bccdf0ee8", "fusion_lon": 0.0, "rental_uris": {"android": "https://dc.lft.to/lastmile_qr_scan", "ios": "https://dc.lft.to/lastmile_qr_scan"}, "name": "a311239e351a92e46be4494bccdf0ee8", "type": "electric_scooter", "lat": 38.88013483333334, "is_disabled": 0}, {"fusion_lat": 0.0, "lon": -77.034469, "is_reserved": 0, "bike_id": "eabd671a6230435c3a34c05abe05ea87", "fusion_lon": 0.0, "rental_uris": {"android": "https://dc.lft.to/lastmile_qr_scan", "ios": "https://dc.lft.to/lastmile_qr_scan"}, "name": "eabd671a6230435c3a34c05abe05ea87", "type": "electric_scooter", "lat": 38.91825383333333, "is_disabled": 0}, {"fusion_lat": 0.0, "lon": -77.00198133333333, "is_reserved": 0, "bike_id": "b7a953c91ea60c1bdb3d87169e76fcbb", "fusion_lon": 0.0, "rental_uris": {"android": "https://dc.lft.to/lastmile_qr_scan", "ios": "https://dc.lft.to/lastmile_qr_scan"}, "name": "b7a953c91ea60c1bdb3d87169e76fcbb", "type": "electric_scooter", "lat": 38.91681483333333, "is_disabled": 0}, {"fusion_lat": 0.0, "lon": -77.02729283333333, "is_reserved": 0, "bike_id": "a0f73a85e0d320362de1c3e0de9f9d73", "fusion_lon": 0.0, "rental_uris": {"android": "https://dc.lft.to/lastmile_qr_scan", "ios": "https://dc.lft.to/lastmile_qr_scan"}, "name": "a0f73a85e0d320362de1c3e0de9f9d73", "type": "electric_scooter", "lat": 38.940858, "is_disabled": 0}, {"fusion_lat": 0.0, "lon": -77.03435333333333, "is_reserved": 0, "bike_id": "2dc14c3bcc6994d167f9480316a04433", "fusion_lon": 0.0, "rental_uris": {"android": "https://dc.lft.to/lastmile_qr_scan", "ios": "https://dc.lft.to/lastmile_qr_scan"}, "name": "2dc14c3bcc6994d167f9480316a04433", "type": "electric_scooter", "lat": 38.91809666666666, "is_disabled": 0}, {"fusion_lat": 0.0, "lon": -77.006176, "is_reserved": 0, "bike_id": "c3c668fdba73d0b990762ad9c777bef3", "fusion_lon": 0.0, "rental_uris": {"android": "https://dc.lft.to/lastmile_qr_scan", "ios": "https://dc.lft.to/lastmile_qr_scan"}, "name": "c3c668fdba73d0b990762ad9c777bef3", "type": "electric_scooter", "lat": 38.871729333333334, "is_disabled": 0}, {"fusion_lat": 0.0, "lon": -77.03203816666667, "is_reserved": 0, "bike_id": "269da6584f3e3a0d0ff9bb02fe073b15", "fusion_lon": 0.0, "rental_uris": {"android": "https://dc.lft.to/lastmile_qr_scan", "ios": "https://dc.lft.to/lastmile_qr_scan"}, "name": "269da6584f3e3a0d0ff9bb02fe073b15", "type": "electric_scooter", "lat": 38.90727483333333, "is_disabled": 0}, {"fusion_lat": 0.0, "lon": -77.06329266666667, "is_reserved": 0, "bike_id": "f21074568c473dcef1dbc0a2938547de", "fusion_lon": 0.0, "rental_uris": {"android": "https://dc.lft.to/lastmile_qr_scan", "ios": "https://dc.lft.to/lastmile_qr_scan"}, "name": "f21074568c473dcef1dbc0a2938547de", "type": "electric_scooter", "lat": 38.944212, "is_disabled": 0}, {"fusion_lat": 0.0, "lon": -77.02325666666667, "is_reserved": 0, "bike_id": "3eea62a2033573757f867f2139a7437e", "fusion_lon": 0.0, "rental_uris": {"android": "https://dc.lft.to/lastmile_qr_scan", "ios": "https://dc.lft.to/lastmile_qr_scan"}, "name": "3eea62a2033573757f867f2139a7437e", "type": "electric_scooter", "lat": 38.9270185, "is_disabled": 0}, {"fusion_lat": 0.0, "lon": -76.93730583333334, "is_reserved": 0, "bike_id": "75fda45a5a6d7f1c9d5b05d8324197b8", "fusion_lon": 0.0, "rental_uris": {"android": "https://dc.lft.to/lastmile_qr_scan", "ios": "https://dc.lft.to/lastmile_qr_scan"}, "name": "75fda45a5a6d7f1c9d5b05d8324197b8", "type": "electric_scooter", "lat": 38.8901625, "is_disabled": 0}, {"fusion_lat": 0.0, "lon": -77.01515766666667, "is_reserved": 0, "bike_id": "b42c8d475702245eaecef33dfbb31857", "fusion_lon": 0.0, "rental_uris": {"android": "https://dc.lft.to/lastmile_qr_scan", "ios": "https://dc.lft.to/lastmile_qr_scan"}, "name": "b42c8d475702245eaecef33dfbb31857", "type": "electric_scooter", "lat": 38.89246033333333, "is_disabled": 0}, {"fusion_lat": 0.0, "lon": -77.0059725, "is_reserved": 0, "bike_id": "376befcba697b67a1e2d53750081f421", "fusion_lon": 0.0, "rental_uris": {"android": "https://dc.lft.to/lastmile_qr_scan", "ios": "https://dc.lft.to/lastmile_qr_scan"}, "name": "376befcba697b67a1e2d53750081f421", "type": "electric_scooter", "lat": 38.8851895, "is_disabled": 0}, {"fusion_lat": 0.0, "lon": -77.02691066666667, "is_reserved": 0, "bike_id": "0609eb12ad8c3da93fba83a73f34cf42", "fusion_lon": 0.0, "rental_uris": {"android": "https://dc.lft.to/lastmile_qr_scan", "ios": "https://dc.lft.to/lastmile_qr_scan"}, "name": "0609eb12ad8c3da93fba83a73f34cf42", "type": "electric_scooter", "lat": 38.902422666666666, "is_disabled": 0}, {"fusion_lat": 0.0, "lon": -77.02283933333334, "is_reserved": 0, "bike_id": "63a71411c6f7dbffbabe276f7bebd814", "fusion_lon": 0.0, "rental_uris": {"android": "https://dc.lft.to/lastmile_qr_scan", "ios": "https://dc.lft.to/lastmile_qr_scan"}, "name": "63a71411c6f7dbffbabe276f7bebd814", "type": "electric_scooter", "lat": 38.9142615, "is_disabled": 0}, {"fusion_lat": 0.0, "lon": -76.974198, "is_reserved": 0, "bike_id": "71182551a8dbda3c6f9828e365a89572", "fusion_lon": 0.0, "rental_uris": {"android": "https://dc.lft.to/lastmile_qr_scan", "ios": "https://dc.lft.to/lastmile_qr_scan"}, "name": "71182551a8dbda3c6f9828e365a89572", "type": "electric_bike", "lat": 38.86417766666667, "is_disabled": 0}, {"fusion_lat": 0.0, "lon": -77.00731466666667, "is_reserved": 0, "bike_id": "de081f5c8ce5be6d5f08bc5b90acf357", "fusion_lon": 0.0, "rental_uris": {"android": "https://dc.lft.to/lastmile_qr_scan", "ios": "https://dc.lft.to/lastmile_qr_scan"}, "name": "de081f5c8ce5be6d5f08bc5b90acf357", "type": "electric_scooter", "lat": 38.89784783333333, "is_disabled": 0}, {"fusion_lat": 0.0, "lon": -76.99143666666667, "is_reserved": 0, "bike_id": "a6fd24b769577c9523a1da44039fd605", "fusion_lon": 0.0, "rental_uris": {"android": "https://dc.lft.to/lastmile_qr_scan", "ios": "https://dc.lft.to/lastmile_qr_scan"}, "name": "a6fd24b769577c9523a1da44039fd605", "type": "electric_scooter", "lat": 38.8934595, "is_disabled": 0}, {"fusion_lat": 0.0, "lon": -76.89539133333334, "is_reserved": 0, "bike_id": "101f19a94cdc7ddabec06e4485e928bf", "fusion_lon": 0.0, "rental_uris": {"android": "https://dc.lft.to/lastmile_qr_scan", "ios": "https://dc.lft.to/lastmile_qr_scan"}, "name": "101f19a94cdc7ddabec06e4485e928bf", "type": "electric_bike", "lat": 38.945542, "is_disabled": 0}, {"fusion_lat": 0.0, "lon": -77.06863066666666, "is_reserved": 0, "bike_id": "008201737e0effe7ac823f824993ff70", "fusion_lon": 0.0, "rental_uris": {"android": "https://dc.lft.to/lastmile_qr_scan", "ios": "https://dc.lft.to/lastmile_qr_scan"}, "name": "008201737e0effe7ac823f824993ff70", "type": "electric_bike", "lat": 38.80579, "is_disabled": 0}, {"fusion_lat": 0.0, "lon": -76.99848683333333, "is_reserved": 0, "bike_id": "aefc9d3b7ea9d0f9dc7f5814983138fb", "fusion_lon": 0.0, "rental_uris": {"android": "https://dc.lft.to/lastmile_qr_scan", "ios": "https://dc.lft.to/lastmile_qr_scan"}, "name": "aefc9d3b7ea9d0f9dc7f5814983138fb", "type": "electric_scooter", "lat": 38.90024583333334, "is_disabled": 0}, {"fusion_lat": 0.0, "lon": -77.0330185, "is_reserved": 0, "bike_id": "0098b77535090cd988cfa0e5320a53fd", "fusion_lon": 0.0, "rental_uris": {"android": "https://dc.lft.to/lastmile_qr_scan", "ios": "https://dc.lft.to/lastmile_qr_scan"}, "name": "0098b77535090cd988cfa0e5320a53fd", "type": "electric_scooter", "lat": 38.930483833333334, "is_disabled": 0}, {"fusion_lat": 0.0, "lon": -77.05496516666666, "is_reserved": 0, "bike_id": "e571f4498cf39b7be1e9663af0b9e688", "fusion_lon": 0.0, "rental_uris": {"android": "https://dc.lft.to/lastmile_qr_scan", "ios": "https://dc.lft.to/lastmile_qr_scan"}, "name": "e571f4498cf39b7be1e9663af0b9e688", "type": "electric_scooter", "lat": 38.89992516666667, "is_disabled": 0}, {"fusion_lat": 0.0, "lon": -76.98657183333333, "is_reserved": 0, "bike_id": "011471e10dee4bac02369ac487668402", "fusion_lon": 0.0, "rental_uris": {"android": "https://dc.lft.to/lastmile_qr_scan", "ios": "https://dc.lft.to/lastmile_qr_scan"}, "name": "011471e10dee4bac02369ac487668402", "type": "electric_scooter", "lat": 38.898245, "is_disabled": 0}, {"fusion_lat": 0.0, "lon": -77.02822316666666, "is_reserved": 0, "bike_id": "d33196bfc9a4f13af46ec82774ab402c", "fusion_lon": 0.0, "rental_uris": {"android": "https://dc.lft.to/lastmile_qr_scan", "ios": "https://dc.lft.to/lastmile_qr_scan"}, "name": "d33196bfc9a4f13af46ec82774ab402c", "type": "electric_bike", "lat": 38.96507416666667, "is_disabled": 0}, {"fusion_lat": 0.0, "lon": -77.03442883333334, "is_reserved": 0, "bike_id": "de478921a56ab40ead44c52fc1fe17b9", "fusion_lon": 0.0, "rental_uris": {"android": "https://dc.lft.to/lastmile_qr_scan", "ios": "https://dc.lft.to/lastmile_qr_scan"}, "name": "de478921a56ab40ead44c52fc1fe17b9", "type": "electric_scooter", "lat": 38.9081145, "is_disabled": 0}, {"fusion_lat": 0.0, "lon": -76.98726666666667, "is_reserved": 0, "bike_id": "11811e284bc10cb93742fa2a33399532", "fusion_lon": 0.0, "rental_uris": {"android": "https://dc.lft.to/lastmile_qr_scan", "ios": "https://dc.lft.to/lastmile_qr_scan"}, "name": "11811e284bc10cb93742fa2a33399532", "type": "electric_scooter", "lat": 38.86708266666667, "is_disabled": 0}, {"fusion_lat": 0.0, "lon": -77.03958466666667, "is_reserved": 0, "bike_id": "18e8370580d1fb8cbd50353094104d62", "fusion_lon": 0.0, "rental_uris": {"android": "https://dc.lft.to/lastmile_qr_scan", "ios": "https://dc.lft.to/lastmile_qr_scan"}, "name": "18e8370580d1fb8cbd50353094104d62", "type": "electric_scooter", "lat": 38.9163305, "is_disabled": 0}, {"fusion_lat": 0.0, "lon": -76.97905133333333, "is_reserved": 0, "bike_id": "80f7555bca58d1cea8e4755cc9fc9e11", "fusion_lon": 0.0, "rental_uris": {"android": "https://dc.lft.to/lastmile_qr_scan", "ios": "https://dc.lft.to/lastmile_qr_scan"}, "name": "80f7555bca58d1cea8e4755cc9fc9e11", "type": "electric_bike", "lat": 38.87038183333333, "is_disabled": 0}, {"fusion_lat": 0.0, "lon": -76.99456216666667, "is_reserved": 0, "bike_id": "ec751ec3df90905be6e1cb73c0abc832", "fusion_lon": 0.0, "rental_uris": {"android": "https://dc.lft.to/lastmile_qr_scan", "ios": "https://dc.lft.to/lastmile_qr_scan"}, "name": "ec751ec3df90905be6e1cb73c0abc832", "type": "electric_scooter", "lat": 38.86220316666667, "is_disabled": 0}, {"fusion_lat": 0.0, "lon": -76.93751283333333, "is_reserved": 0, "bike_id": "f2315716b9fd75d42f7a734bf184ab8f", "fusion_lon": 0.0, "rental_uris": {"android": "https://dc.lft.to/lastmile_qr_scan", "ios": "https://dc.lft.to/lastmile_qr_scan"}, "name": "f2315716b9fd75d42f7a734bf184ab8f", "type": "electric_scooter", "lat": 38.89045983333333, "is_disabled": 0}, {"fusion_lat": 0.0, "lon": -76.96060183333333, "is_reserved": 0, "bike_id": "9505c4390b9005955dfb9fccc698371e", "fusion_lon": 0.0, "rental_uris": {"android": "https://dc.lft.to/lastmile_qr_scan", "ios": "https://dc.lft.to/lastmile_qr_scan"}, "name": "9505c4390b9005955dfb9fccc698371e", "type": "electric_bike", "lat": 38.8840965, "is_disabled": 0}, {"fusion_lat": 0.0, "lon": -76.99332533333333, "is_reserved": 0, "bike_id": "5349dea06cf03e4e8bb7851c75c20b04", "fusion_lon": 0.0, "rental_uris": {"android": "https://dc.lft.to/lastmile_qr_scan", "ios": "https://dc.lft.to/lastmile_qr_scan"}, "name": "5349dea06cf03e4e8bb7851c75c20b04", "type": "electric_scooter", "lat": 38.871417666666666, "is_disabled": 0}, {"fusion_lat": 0.0, "lon": -76.98854533333333, "is_reserved": 0, "bike_id": "13d9e5446e53dc33563b2c755782d096", "fusion_lon": 0.0, "rental_uris": {"android": "https://dc.lft.to/lastmile_qr_scan", "ios": "https://dc.lft.to/lastmile_qr_scan"}, "name": "13d9e5446e53dc33563b2c755782d096", "type": "electric_bike", "lat": 38.954913833333336, "is_disabled": 0}, {"fusion_lat": 0.0, "lon": -77.01851166666667, "is_reserved": 0, "bike_id": "5aa246589009ae5fab9358be4c7c56f9", "fusion_lon": 0.0, "rental_uris": {"android": "https://dc.lft.to/lastmile_qr_scan", "ios": "https://dc.lft.to/lastmile_qr_scan"}, "name": "5aa246589009ae5fab9358be4c7c56f9", "type": "electric_scooter", "lat": 38.97369, "is_disabled": 0}, {"fusion_lat": 0.0, "lon": -77.035301, "is_reserved": 0, "bike_id": "c2ed3ceabc883a0abde2fd5475bcd3b4", "fusion_lon": 0.0, "rental_uris": {"android": "https://dc.lft.to/lastmile_qr_scan", "ios": "https://dc.lft.to/lastmile_qr_scan"}, "name": "c2ed3ceabc883a0abde2fd5475bcd3b4", "type": "electric_bike", "lat": 38.936040166666665, "is_disabled": 0}, {"fusion_lat": 0.0, "lon": -77.02654816666667, "is_reserved": 0, "bike_id": "35cd8037e3f85b4d326c1401400ce63e", "fusion_lon": 0.0, "rental_uris": {"android": "https://dc.lft.to/lastmile_qr_scan", "ios": "https://dc.lft.to/lastmile_qr_scan"}, "name": "35cd8037e3f85b4d326c1401400ce63e", "type": "electric_scooter", "lat": 38.89221033333333, "is_disabled": 0}, {"fusion_lat": 0.0, "lon": -77.0227715, "is_reserved": 0, "bike_id": "a529fa0327f94f1cd99150278ff14cdb", "fusion_lon": 0.0, "rental_uris": {"android": "https://dc.lft.to/lastmile_qr_scan", "ios": "https://dc.lft.to/lastmile_qr_scan"}, "name": "a529fa0327f94f1cd99150278ff14cdb", "type": "electric_scooter", "lat": 38.898404166666666, "is_disabled": 0}, {"fusion_lat": 0.0, "lon": -77.04021083333333, "is_reserved": 0, "bike_id": "abdf4ed76a1596324e33801347736e79", "fusion_lon": 0.0, "rental_uris": {"android": "https://dc.lft.to/lastmile_qr_scan", "ios": "https://dc.lft.to/lastmile_qr_scan"}, "name": "abdf4ed76a1596324e33801347736e79", "type": "electric_scooter", "lat": 38.92242916666667, "is_disabled": 0}, {"fusion_lat": 0.0, "lon": -77.03878766666666, "is_reserved": 0, "bike_id": "388200088d56f38a02cefffd3031ba5d", "fusion_lon": 0.0, "rental_uris": {"android": "https://dc.lft.to/lastmile_qr_scan", "ios": "https://dc.lft.to/lastmile_qr_scan"}, "name": "388200088d56f38a02cefffd3031ba5d", "type": "electric_scooter", "lat": 38.931242166666664, "is_disabled": 0}, {"fusion_lat": 0.0, "lon": -76.987124, "is_reserved": 0, "bike_id": "d71cdb0bb53030460ae53e88efe600f8", "fusion_lon": 0.0, "rental_uris": {"android": "https://dc.lft.to/lastmile_qr_scan", "ios": "https://dc.lft.to/lastmile_qr_scan"}, "name": "d71cdb0bb53030460ae53e88efe600f8", "type": "electric_scooter", "lat": 38.866309333333334, "is_disabled": 0}, {"fusion_lat": 0.0, "lon": -77.03374966666667, "is_reserved": 0, "bike_id": "64b7618b800f54ee3f4ed71e470c45b8", "fusion_lon": 0.0, "rental_uris": {"android": "https://dc.lft.to/lastmile_qr_scan", "ios": "https://dc.lft.to/lastmile_qr_scan"}, "name": "64b7618b800f54ee3f4ed71e470c45b8", "type": "electric_scooter", "lat": 38.90846416666667, "is_disabled": 0}, {"fusion_lat": 0.0, "lon": -77.02433, "is_reserved": 0, "bike_id": "0aefdfaefc8fada2027e8574c3e7534c", "fusion_lon": 0.0, "rental_uris": {"android": "https://dc.lft.to/lastmile_qr_scan", "ios": "https://dc.lft.to/lastmile_qr_scan"}, "name": "0aefdfaefc8fada2027e8574c3e7534c", "type": "electric_scooter", "lat": 38.92727933333333, "is_disabled": 0}, {"fusion_lat": 0.0, "lon": -77.01084133333333, "is_reserved": 0, "bike_id": "5694c77802b4300078bdc8007ba1f25e", "fusion_lon": 0.0, "rental_uris": {"android": "https://dc.lft.to/lastmile_qr_scan", "ios": "https://dc.lft.to/lastmile_qr_scan"}, "name": "5694c77802b4300078bdc8007ba1f25e", "type": "electric_scooter", "lat": 38.907810833333336, "is_disabled": 0}, {"fusion_lat": 0.0, "lon": -77.02792566666666, "is_reserved": 0, "bike_id": "3b634f271f645f10ac806277242a9802", "fusion_lon": 0.0, "rental_uris": {"android": "https://dc.lft.to/lastmile_qr_scan", "ios": "https://dc.lft.to/lastmile_qr_scan"}, "name": "3b634f271f645f10ac806277242a9802", "type": "electric_scooter", "lat": 38.930770333333335, "is_disabled": 0}, {"fusion_lat": 0.0, "lon": -76.9932525, "is_reserved": 0, "bike_id": "e34421dc27f635ee281f2263138e251c", "fusion_lon": 0.0, "rental_uris": {"android": "https://dc.lft.to/lastmile_qr_scan", "ios": "https://dc.lft.to/lastmile_qr_scan"}, "name": "e34421dc27f635ee281f2263138e251c", "type": "electric_bike", "lat": 38.8936415, "is_disabled": 0}, {"fusion_lat": 0.0, "lon": -77.07433733333333, "is_reserved": 0, "bike_id": "884acfe11d59004d06de3205dab4eaec", "fusion_lon": 0.0, "rental_uris": {"android": "https://dc.lft.to/lastmile_qr_scan", "ios": "https://dc.lft.to/lastmile_qr_scan"}, "name": "884acfe11d59004d06de3205dab4eaec", "type": "electric_bike", "lat": 38.999469500000004, "is_disabled": 0}, {"fusion_lat": 0.0, "lon": -77.000576, "is_reserved": 0, "bike_id": "d36927ca1580a06544f153ee051be4cc", "fusion_lon": 0.0, "rental_uris": {"android": "https://dc.lft.to/lastmile_qr_scan", "ios": "https://dc.lft.to/lastmile_qr_scan"}, "name": "d36927ca1580a06544f153ee051be4cc", "type": "electric_scooter", "lat": 38.898438, "is_disabled": 0}, {"fusion_lat": 0.0, "lon": -77.03346416666666, "is_reserved": 0, "bike_id": "2b8ea97bd16d0fe040973b404248ad07", "fusion_lon": 0.0, "rental_uris": {"android": "https://dc.lft.to/lastmile_qr_scan", "ios": "https://dc.lft.to/lastmile_qr_scan"}, "name": "2b8ea97bd16d0fe040973b404248ad07", "type": "electric_scooter", "lat": 38.899046, "is_disabled": 0}, {"fusion_lat": 0.0, "lon": -77.02692833333333, "is_reserved": 0, "bike_id": "5357afc1bb0da275f7d08569ad8f7d05", "fusion_lon": 0.0, "rental_uris": {"android": "https://dc.lft.to/lastmile_qr_scan", "ios": "https://dc.lft.to/lastmile_qr_scan"}, "name": "5357afc1bb0da275f7d08569ad8f7d05", "type": "electric_scooter", "lat": 38.91252883333333, "is_disabled": 0}, {"fusion_lat": 0.0, "lon": -76.98037333333333, "is_reserved": 0, "bike_id": "e07183450372cc36fd6c0b6c521757f7", "fusion_lon": 0.0, "rental_uris": {"android": "https://dc.lft.to/lastmile_qr_scan", "ios": "https://dc.lft.to/lastmile_qr_scan"}, "name": "e07183450372cc36fd6c0b6c521757f7", "type": "electric_bike", "lat": 38.889693, "is_disabled": 0}, {"fusion_lat": 0.0, "lon": -77.0480655, "is_reserved": 0, "bike_id": "623bb00f6520f6b70517719aaeaf10e8", "fusion_lon": 0.0, "rental_uris": {"android": "https://dc.lft.to/lastmile_qr_scan", "ios": "https://dc.lft.to/lastmile_qr_scan"}, "name": "623bb00f6520f6b70517719aaeaf10e8", "type": "electric_scooter", "lat": 38.9191685, "is_disabled": 0}, {"fusion_lat": 0.0, "lon": -76.93613033333334, "is_reserved": 0, "bike_id": "ef2ad56a5efda48aa508f8ea468896c7", "fusion_lon": 0.0, "rental_uris": {"android": "https://dc.lft.to/lastmile_qr_scan", "ios": "https://dc.lft.to/lastmile_qr_scan"}, "name": "ef2ad56a5efda48aa508f8ea468896c7", "type": "electric_bike", "lat": 38.97073183333333, "is_disabled": 0}, {"fusion_lat": 0.0, "lon": -77.00711483333333, "is_reserved": 0, "bike_id": "aafc90bfc4729ea1076cffa56dd33b51", "fusion_lon": 0.0, "rental_uris": {"android": "https://dc.lft.to/lastmile_qr_scan", "ios": "https://dc.lft.to/lastmile_qr_scan"}, "name": "aafc90bfc4729ea1076cffa56dd33b51", "type": "electric_scooter", "lat": 38.905662666666665, "is_disabled": 0}, {"fusion_lat": 0.0, "lon": -77.0098565, "is_reserved": 0, "bike_id": "ccb29d8937a942bed9eb32096b9a18de", "fusion_lon": 0.0, "rental_uris": {"android": "https://dc.lft.to/lastmile_qr_scan", "ios": "https://dc.lft.to/lastmile_qr_scan"}, "name": "ccb29d8937a942bed9eb32096b9a18de", "type": "electric_scooter", "lat": 38.87291366666667, "is_disabled": 0}, {"fusion_lat": 0.0, "lon": -77.0239185, "is_reserved": 0, "bike_id": "2352427e89db5c8ca19e82d02e780355", "fusion_lon": 0.0, "rental_uris": {"android": "https://dc.lft.to/lastmile_qr_scan", "ios": "https://dc.lft.to/lastmile_qr_scan"}, "name": "2352427e89db5c8ca19e82d02e780355", "type": "electric_scooter", "lat": 38.91605216666667, "is_disabled": 0}, {"fusion_lat": 0.0, "lon": -76.99419, "is_reserved": 0, "bike_id": "42d74f6cab3ed5458f67a4e9f82783dc", "fusion_lon": 0.0, "rental_uris": {"android": "https://dc.lft.to/lastmile_qr_scan", "ios": "https://dc.lft.to/lastmile_qr_scan"}, "name": "42d74f6cab3ed5458f67a4e9f82783dc", "type": "electric_scooter", "lat": 38.95053633333333, "is_disabled": 0}, {"fusion_lat": 0.0, "lon": -76.99769083333334, "is_reserved": 0, "bike_id": "f830a2c9e43c4ae4f45d2d0a0a294ebb", "fusion_lon": 0.0, "rental_uris": {"android": "https://dc.lft.to/lastmile_qr_scan", "ios": "https://dc.lft.to/lastmile_qr_scan"}, "name": "f830a2c9e43c4ae4f45d2d0a0a294ebb", "type": "electric_scooter", "lat": 38.91121, "is_disabled": 0}, {"fusion_lat": 0.0, "lon": -77.04508433333334, "is_reserved": 0, "bike_id": "65e3342d5eaf773e73d3cabc2dc30b36", "fusion_lon": 0.0, "rental_uris": {"android": "https://dc.lft.to/lastmile_qr_scan", "ios": "https://dc.lft.to/lastmile_qr_scan"}, "name": "65e3342d5eaf773e73d3cabc2dc30b36", "type": "electric_scooter", "lat": 38.90780733333333, "is_disabled": 0}, {"fusion_lat": 0.0, "lon": -77.00375266666667, "is_reserved": 0, "bike_id": "523ee847f1d9c711e3acd0e3ced863aa", "fusion_lon": 0.0, "rental_uris": {"android": "https://dc.lft.to/lastmile_qr_scan", "ios": "https://dc.lft.to/lastmile_qr_scan"}, "name": "523ee847f1d9c711e3acd0e3ced863aa", "type": "electric_scooter", "lat": 38.897391166666665, "is_disabled": 0}, {"fusion_lat": 0.0, "lon": -77.0215215, "is_reserved": 0, "bike_id": "24455536e4baeb163238a937c63b45c1", "fusion_lon": 0.0, "rental_uris": {"android": "https://dc.lft.to/lastmile_qr_scan", "ios": "https://dc.lft.to/lastmile_qr_scan"}, "name": "24455536e4baeb163238a937c63b45c1", "type": "electric_scooter", "lat": 38.8792045, "is_disabled": 0}, {"fusion_lat": 0.0, "lon": -77.02690333333334, "is_reserved": 0, "bike_id": "228b97cc411a8315ac52af7da5298be4", "fusion_lon": 0.0, "rental_uris": {"android": "https://dc.lft.to/lastmile_qr_scan", "ios": "https://dc.lft.to/lastmile_qr_scan"}, "name": "228b97cc411a8315ac52af7da5298be4", "type": "electric_scooter", "lat": 38.923372, "is_disabled": 0}, {"fusion_lat": 0.0, "lon": -77.0398545, "is_reserved": 0, "bike_id": "1a7e15dc272676dc341dc1df55b6fa90", "fusion_lon": 0.0, "rental_uris": {"android": "https://dc.lft.to/lastmile_qr_scan", "ios": "https://dc.lft.to/lastmile_qr_scan"}, "name": "1a7e15dc272676dc341dc1df55b6fa90", "type": "electric_scooter", "lat": 38.91763616666667, "is_disabled": 0}, {"fusion_lat": 0.0, "lon": -77.01138083333333, "is_reserved": 0, "bike_id": "68de69af72f55bde909c34491ad58092", "fusion_lon": 0.0, "rental_uris": {"android": "https://dc.lft.to/lastmile_qr_scan", "ios": "https://dc.lft.to/lastmile_qr_scan"}, "name": "68de69af72f55bde909c34491ad58092", "type": "electric_scooter", "lat": 38.88042316666667, "is_disabled": 0}, {"fusion_lat": 0.0, "lon": -77.01816416666666, "is_reserved": 0, "bike_id": "0fef0c885c3fc69e6f6d3ae8014477ff", "fusion_lon": 0.0, "rental_uris": {"android": "https://dc.lft.to/lastmile_qr_scan", "ios": "https://dc.lft.to/lastmile_qr_scan"}, "name": "0fef0c885c3fc69e6f6d3ae8014477ff", "type": "electric_scooter", "lat": 38.909738833333336, "is_disabled": 0}, {"fusion_lat": 0.0, "lon": -77.04511733333334, "is_reserved": 0, "bike_id": "9fd519d130db8dea565ddb1bfd9f9656", "fusion_lon": 0.0, "rental_uris": {"android": "https://dc.lft.to/lastmile_qr_scan", "ios": "https://dc.lft.to/lastmile_qr_scan"}, "name": "9fd519d130db8dea565ddb1bfd9f9656", "type": "electric_scooter", "lat": 38.912892666666664, "is_disabled": 0}, {"fusion_lat": 0.0, "lon": -77.00436433333333, "is_reserved": 0, "bike_id": "a8dfe68bd681d3d108bbe54b36bdbd4b", "fusion_lon": 0.0, "rental_uris": {"android": "https://dc.lft.to/lastmile_qr_scan", "ios": "https://dc.lft.to/lastmile_qr_scan"}, "name": "a8dfe68bd681d3d108bbe54b36bdbd4b", "type": "electric_scooter", "lat": 38.91334783333333, "is_disabled": 0}, {"fusion_lat": 0.0, "lon": -77.01161016666667, "is_reserved": 0, "bike_id": "8dc83f41f50297ac349f7719cc151bf7", "fusion_lon": 0.0, "rental_uris": {"android": "https://dc.lft.to/lastmile_qr_scan", "ios": "https://dc.lft.to/lastmile_qr_scan"}, "name": "8dc83f41f50297ac349f7719cc151bf7", "type": "electric_scooter", "lat": 38.969897, "is_disabled": 0}, {"fusion_lat": 0.0, "lon": -77.04522633333333, "is_reserved": 0, "bike_id": "606fb3193687af3881fcbdf0036deb44", "fusion_lon": 0.0, "rental_uris": {"android": "https://dc.lft.to/lastmile_qr_scan", "ios": "https://dc.lft.to/lastmile_qr_scan"}, "name": "606fb3193687af3881fcbdf0036deb44", "type": "electric_scooter", "lat": 38.912844666666665, "is_disabled": 0}, {"fusion_lat": 0.0, "lon": -77.02581733333334, "is_reserved": 0, "bike_id": "ce6440b67c8c140bd1336dc87c1a986c", "fusion_lon": 0.0, "rental_uris": {"android": "https://dc.lft.to/lastmile_qr_scan", "ios": "https://dc.lft.to/lastmile_qr_scan"}, "name": "ce6440b67c8c140bd1336dc87c1a986c", "type": "electric_scooter", "lat": 38.920542833333336, "is_disabled": 0}, {"fusion_lat": 0.0, "lon": -77.0284445, "is_reserved": 0, "bike_id": "16907a4f0d95fb38d4449cdd585dec96", "fusion_lon": 0.0, "rental_uris": {"android": "https://dc.lft.to/lastmile_qr_scan", "ios": "https://dc.lft.to/lastmile_qr_scan"}, "name": "16907a4f0d95fb38d4449cdd585dec96", "type": "electric_scooter", "lat": 38.90437266666667, "is_disabled": 0}, {"fusion_lat": 0.0, "lon": -77.02718416666667, "is_reserved": 0, "bike_id": "64e1854c6415a305957df843a01dfdbc", "fusion_lon": 0.0, "rental_uris": {"android": "https://dc.lft.to/lastmile_qr_scan", "ios": "https://dc.lft.to/lastmile_qr_scan"}, "name": "64e1854c6415a305957df843a01dfdbc", "type": "electric_scooter", "lat": 38.9496085, "is_disabled": 0}, {"fusion_lat": 0.0, "lon": -77.00597066666667, "is_reserved": 0, "bike_id": "62f5c9e4122e3ed9a1423c554a34876a", "fusion_lon": 0.0, "rental_uris": {"android": "https://dc.lft.to/lastmile_qr_scan", "ios": "https://dc.lft.to/lastmile_qr_scan"}, "name": "62f5c9e4122e3ed9a1423c554a34876a", "type": "electric_scooter", "lat": 38.88518416666667, "is_disabled": 0}, {"fusion_lat": 0.0, "lon": -77.02563483333333, "is_reserved": 0, "bike_id": "cfb49782089572320c4e6a96c70295ff", "fusion_lon": 0.0, "rental_uris": {"android": "https://dc.lft.to/lastmile_qr_scan", "ios": "https://dc.lft.to/lastmile_qr_scan"}, "name": "cfb49782089572320c4e6a96c70295ff", "type": "electric_scooter", "lat": 38.938614, "is_disabled": 0}, {"fusion_lat": 0.0, "lon": -76.982615, "is_reserved": 0, "bike_id": "dcb21ce48db55c5db23a8748fb812e51", "fusion_lon": 0.0, "rental_uris": {"android": "https://dc.lft.to/lastmile_qr_scan", "ios": "https://dc.lft.to/lastmile_qr_scan"}, "name": "dcb21ce48db55c5db23a8748fb812e51", "type": "electric_scooter", "lat": 38.86309466666667, "is_disabled": 0}, {"fusion_lat": 0.0, "lon": -77.02692033333334, "is_reserved": 0, "bike_id": "b3953b2896a9745380bfaced882fdf82", "fusion_lon": 0.0, "rental_uris": {"android": "https://dc.lft.to/lastmile_qr_scan", "ios": "https://dc.lft.to/lastmile_qr_scan"}, "name": "b3953b2896a9745380bfaced882fdf82", "type": "electric_scooter", "lat": 38.91256033333333, "is_disabled": 0}, {"fusion_lat": 0.0, "lon": -77.05221883333333, "is_reserved": 0, "bike_id": "671f0ff69fefceac10a6427673ae81bb", "fusion_lon": 0.0, "rental_uris": {"android": "https://dc.lft.to/lastmile_qr_scan", "ios": "https://dc.lft.to/lastmile_qr_scan"}, "name": "671f0ff69fefceac10a6427673ae81bb", "type": "electric_scooter", "lat": 38.9156595, "is_disabled": 0}, {"fusion_lat": 0.0, "lon": -76.93614216666667, "is_reserved": 0, "bike_id": "5a6ed9ee0eb778b05394d399dd554edb", "fusion_lon": 0.0, "rental_uris": {"android": "https://dc.lft.to/lastmile_qr_scan", "ios": "https://dc.lft.to/lastmile_qr_scan"}, "name": "5a6ed9ee0eb778b05394d399dd554edb", "type": "electric_scooter", "lat": 38.886755666666666, "is_disabled": 0}, {"fusion_lat": 0.0, "lon": -77.04492466666666, "is_reserved": 0, "bike_id": "af11b8a422773491c02b6e269e26a66b", "fusion_lon": 0.0, "rental_uris": {"android": "https://dc.lft.to/lastmile_qr_scan", "ios": "https://dc.lft.to/lastmile_qr_scan"}, "name": "af11b8a422773491c02b6e269e26a66b", "type": "electric_scooter", "lat": 38.9051455, "is_disabled": 0}, {"fusion_lat": 0.0, "lon": -77.11572916666667, "is_reserved": 0, "bike_id": "1b05d50b94d2794cd5a4f2d9b267a924", "fusion_lon": 0.0, "rental_uris": {"android": "https://dc.lft.to/lastmile_qr_scan", "ios": "https://dc.lft.to/lastmile_qr_scan"}, "name": "1b05d50b94d2794cd5a4f2d9b267a924", "type": "electric_bike", "lat": 38.993455833333336, "is_disabled": 0}, {"fusion_lat": 0.0, "lon": -77.03862766666667, "is_reserved": 0, "bike_id": "0e2fc399a45a509f760c40e1cb75bf2e", "fusion_lon": 0.0, "rental_uris": {"android": "https://dc.lft.to/lastmile_qr_scan", "ios": "https://dc.lft.to/lastmile_qr_scan"}, "name": "0e2fc399a45a509f760c40e1cb75bf2e", "type": "electric_scooter", "lat": 38.913478833333336, "is_disabled": 0}, {"fusion_lat": 0.0, "lon": -77.04186566666667, "is_reserved": 0, "bike_id": "0034392f36aa4666fd845ac6ec82a4b1", "fusion_lon": 0.0, "rental_uris": {"android": "https://dc.lft.to/lastmile_qr_scan", "ios": "https://dc.lft.to/lastmile_qr_scan"}, "name": "0034392f36aa4666fd845ac6ec82a4b1", "type": "electric_scooter", "lat": 38.9127145, "is_disabled": 0}, {"fusion_lat": 0.0, "lon": -77.04410333333334, "is_reserved": 0, "bike_id": "65352fdeef73b9ac8d185a0156d752ee", "fusion_lon": 0.0, "rental_uris": {"android": "https://dc.lft.to/lastmile_qr_scan", "ios": "https://dc.lft.to/lastmile_qr_scan"}, "name": "65352fdeef73b9ac8d185a0156d752ee", "type": "electric_scooter", "lat": 38.921108833333335, "is_disabled": 0}, {"fusion_lat": 0.0, "lon": -77.020877, "is_reserved": 0, "bike_id": "02c55762e3bbfec47b25e3ea15e505c7", "fusion_lon": 0.0, "rental_uris": {"android": "https://dc.lft.to/lastmile_qr_scan", "ios": "https://dc.lft.to/lastmile_qr_scan"}, "name": "02c55762e3bbfec47b25e3ea15e505c7", "type": "electric_scooter", "lat": 38.9301675, "is_disabled": 0}, {"fusion_lat": 0.0, "lon": -76.98020266666667, "is_reserved": 0, "bike_id": "c8f097a8aa227f34ce2f0eed4a80a7a7", "fusion_lon": 0.0, "rental_uris": {"android": "https://dc.lft.to/lastmile_qr_scan", "ios": "https://dc.lft.to/lastmile_qr_scan"}, "name": "c8f097a8aa227f34ce2f0eed4a80a7a7", "type": "electric_scooter", "lat": 38.888684, "is_disabled": 0}, {"fusion_lat": 0.0, "lon": -77.01370733333333, "is_reserved": 0, "bike_id": "645ba8b10f6106188fcb2b2186c02e30", "fusion_lon": 0.0, "rental_uris": {"android": "https://dc.lft.to/lastmile_qr_scan", "ios": "https://dc.lft.to/lastmile_qr_scan"}, "name": "645ba8b10f6106188fcb2b2186c02e30", "type": "electric_scooter", "lat": 38.89219816666667, "is_disabled": 0}, {"fusion_lat": 0.0, "lon": -77.13886966666666, "is_reserved": 0, "bike_id": "6ec2e2bd03b85120de2e3f02a21b7a3e", "fusion_lon": 0.0, "rental_uris": {"android": "https://dc.lft.to/lastmile_qr_scan", "ios": "https://dc.lft.to/lastmile_qr_scan"}, "name": "6ec2e2bd03b85120de2e3f02a21b7a3e", "type": "electric_bike", "lat": 38.896738, "is_disabled": 0}, {"fusion_lat": 0.0, "lon": -77.00894333333333, "is_reserved": 0, "bike_id": "339d6798048c4ea14d46bb4745c2d008", "fusion_lon": 0.0, "rental_uris": {"android": "https://dc.lft.to/lastmile_qr_scan", "ios": "https://dc.lft.to/lastmile_qr_scan"}, "name": "339d6798048c4ea14d46bb4745c2d008", "type": "electric_scooter", "lat": 38.968169333333336, "is_disabled": 0}, {"fusion_lat": 0.0, "lon": -77.0130055, "is_reserved": 0, "bike_id": "6d9e39a95bcc4ed381db5497678a068c", "fusion_lon": 0.0, "rental_uris": {"android": "https://dc.lft.to/lastmile_qr_scan", "ios": "https://dc.lft.to/lastmile_qr_scan"}, "name": "6d9e39a95bcc4ed381db5497678a068c", "type": "electric_scooter", "lat": 38.894728666666666, "is_disabled": 0}, {"fusion_lat": 0.0, "lon": -76.98878766666667, "is_reserved": 0, "bike_id": "01820b067ecbf869f27c653cc005d3f0", "fusion_lon": 0.0, "rental_uris": {"android": "https://dc.lft.to/lastmile_qr_scan", "ios": "https://dc.lft.to/lastmile_qr_scan"}, "name": "01820b067ecbf869f27c653cc005d3f0", "type": "electric_scooter", "lat": 38.866533, "is_disabled": 0}, {"fusion_lat": 0.0, "lon": -77.019644, "is_reserved": 0, "bike_id": "e84a11726091999d14f1fd11e93315b8", "fusion_lon": 0.0, "rental_uris": {"android": "https://dc.lft.to/lastmile_qr_scan", "ios": "https://dc.lft.to/lastmile_qr_scan"}, "name": "e84a11726091999d14f1fd11e93315b8", "type": "electric_scooter", "lat": 38.95651183333333, "is_disabled": 0}, {"fusion_lat": 0.0, "lon": -77.04516566666666, "is_reserved": 0, "bike_id": "1836f6948e2f0d95c78095f33eb9202f", "fusion_lon": 0.0, "rental_uris": {"android": "https://dc.lft.to/lastmile_qr_scan", "ios": "https://dc.lft.to/lastmile_qr_scan"}, "name": "1836f6948e2f0d95c78095f33eb9202f", "type": "electric_scooter", "lat": 38.92316483333333, "is_disabled": 0}, {"fusion_lat": 0.0, "lon": -77.0268955, "is_reserved": 0, "bike_id": "b2e0f5d3dccd0df093b0fec6a01433f6", "fusion_lon": 0.0, "rental_uris": {"android": "https://dc.lft.to/lastmile_qr_scan", "ios": "https://dc.lft.to/lastmile_qr_scan"}, "name": "b2e0f5d3dccd0df093b0fec6a01433f6", "type": "electric_scooter", "lat": 38.91254133333333, "is_disabled": 0}, {"fusion_lat": 0.0, "lon": -77.03058616666667, "is_reserved": 0, "bike_id": "c0049bf8e54f3e487383e6b3ba4c8c66", "fusion_lon": 0.0, "rental_uris": {"android": "https://dc.lft.to/lastmile_qr_scan", "ios": "https://dc.lft.to/lastmile_qr_scan"}, "name": "c0049bf8e54f3e487383e6b3ba4c8c66", "type": "electric_scooter", "lat": 38.92374616666667, "is_disabled": 0}, {"fusion_lat": 0.0, "lon": -77.00749733333333, "is_reserved": 0, "bike_id": "b93efde2894c821be39ee6812a81c17d", "fusion_lon": 0.0, "rental_uris": {"android": "https://dc.lft.to/lastmile_qr_scan", "ios": "https://dc.lft.to/lastmile_qr_scan"}, "name": "b93efde2894c821be39ee6812a81c17d", "type": "electric_scooter", "lat": 38.90364683333333, "is_disabled": 0}, {"fusion_lat": 0.0, "lon": -77.01905266666667, "is_reserved": 0, "bike_id": "2c9e896c8e74e8112d0621c325c0d80d", "fusion_lon": 0.0, "rental_uris": {"android": "https://dc.lft.to/lastmile_qr_scan", "ios": "https://dc.lft.to/lastmile_qr_scan"}, "name": "2c9e896c8e74e8112d0621c325c0d80d", "type": "electric_scooter", "lat": 38.941256833333334, "is_disabled": 0}, {"fusion_lat": 0.0, "lon": -77.028559, "is_reserved": 0, "bike_id": "d22a7118c0bf9179e50a2508390adb7a", "fusion_lon": 0.0, "rental_uris": {"android": "https://dc.lft.to/lastmile_qr_scan", "ios": "https://dc.lft.to/lastmile_qr_scan"}, "name": "d22a7118c0bf9179e50a2508390adb7a", "type": "electric_scooter", "lat": 38.91168483333333, "is_disabled": 0}, {"fusion_lat": 0.0, "lon": -77.00201716666666, "is_reserved": 0, "bike_id": "4ddd6736d335c9292fd63808dd9db102", "fusion_lon": 0.0, "rental_uris": {"android": "https://dc.lft.to/lastmile_qr_scan", "ios": "https://dc.lft.to/lastmile_qr_scan"}, "name": "4ddd6736d335c9292fd63808dd9db102", "type": "electric_scooter", "lat": 38.902396833333334, "is_disabled": 0}, {"fusion_lat": 0.0, "lon": -77.01010366666667, "is_reserved": 0, "bike_id": "6a491ef8d945b5ab406a64c5bbe5b8d9", "fusion_lon": 0.0, "rental_uris": {"android": "https://dc.lft.to/lastmile_qr_scan", "ios": "https://dc.lft.to/lastmile_qr_scan"}, "name": "6a491ef8d945b5ab406a64c5bbe5b8d9", "type": "electric_bike", "lat": 38.87966016666667, "is_disabled": 0}, {"fusion_lat": 0.0, "lon": -77.054362, "is_reserved": 0, "bike_id": "4a6e0254a83f9b6557199d262abb1e31", "fusion_lon": 0.0, "rental_uris": {"android": "https://dc.lft.to/lastmile_qr_scan", "ios": "https://dc.lft.to/lastmile_qr_scan"}, "name": "4a6e0254a83f9b6557199d262abb1e31", "type": "electric_scooter", "lat": 38.92346033333333, "is_disabled": 0}, {"fusion_lat": 0.0, "lon": -77.04254133333333, "is_reserved": 0, "bike_id": "c940c313ab21c8c6745209c3db1a89b3", "fusion_lon": 0.0, "rental_uris": {"android": "https://dc.lft.to/lastmile_qr_scan", "ios": "https://dc.lft.to/lastmile_qr_scan"}, "name": "c940c313ab21c8c6745209c3db1a89b3", "type": "electric_scooter", "lat": 38.90644833333333, "is_disabled": 0}, {"fusion_lat": 0.0, "lon": -77.020976, "is_reserved": 0, "bike_id": "3463a8da26569139f1575a208058afd4", "fusion_lon": 0.0, "rental_uris": {"android": "https://dc.lft.to/lastmile_qr_scan", "ios": "https://dc.lft.to/lastmile_qr_scan"}, "name": "3463a8da26569139f1575a208058afd4", "type": "electric_scooter", "lat": 38.91426283333333, "is_disabled": 0}, {"fusion_lat": 0.0, "lon": -77.02880083333334, "is_reserved": 0, "bike_id": "80259bd42fa5417515eb4739f78472f6", "fusion_lon": 0.0, "rental_uris": {"android": "https://dc.lft.to/lastmile_qr_scan", "ios": "https://dc.lft.to/lastmile_qr_scan"}, "name": "80259bd42fa5417515eb4739f78472f6", "type": "electric_scooter", "lat": 38.903168666666666, "is_disabled": 0}, {"fusion_lat": 0.0, "lon": -77.04661, "is_reserved": 0, "bike_id": "a68e898b3b69d15c939368f8210e8922", "fusion_lon": 0.0, "rental_uris": {"android": "https://dc.lft.to/lastmile_qr_scan", "ios": "https://dc.lft.to/lastmile_qr_scan"}, "name": "a68e898b3b69d15c939368f8210e8922", "type": "electric_scooter", "lat": 38.913431833333334, "is_disabled": 0}, {"fusion_lat": 0.0, "lon": -77.0198135, "is_reserved": 0, "bike_id": "855c7ceca7bb46fb905d73e0b51a96ac", "fusion_lon": 0.0, "rental_uris": {"android": "https://dc.lft.to/lastmile_qr_scan", "ios": "https://dc.lft.to/lastmile_qr_scan"}, "name": "855c7ceca7bb46fb905d73e0b51a96ac", "type": "electric_scooter", "lat": 38.914346333333334, "is_disabled": 0}, {"fusion_lat": 0.0, "lon": -77.040708, "is_reserved": 0, "bike_id": "a4e0c7f9bc30d7bc6760df78b2e4d539", "fusion_lon": 0.0, "rental_uris": {"android": "https://dc.lft.to/lastmile_qr_scan", "ios": "https://dc.lft.to/lastmile_qr_scan"}, "name": "a4e0c7f9bc30d7bc6760df78b2e4d539", "type": "electric_scooter", "lat": 38.917082, "is_disabled": 0}, {"fusion_lat": 0.0, "lon": -77.02747066666667, "is_reserved": 0, "bike_id": "1f0915653498534dec51254d808c9c23", "fusion_lon": 0.0, "rental_uris": {"android": "https://dc.lft.to/lastmile_qr_scan", "ios": "https://dc.lft.to/lastmile_qr_scan"}, "name": "1f0915653498534dec51254d808c9c23", "type": "electric_scooter", "lat": 38.92414616666667, "is_disabled": 0}, {"fusion_lat": 0.0, "lon": -77.02491466666666, "is_reserved": 0, "bike_id": "c223476a2ed25d20322d270f6738c136", "fusion_lon": 0.0, "rental_uris": {"android": "https://dc.lft.to/lastmile_qr_scan", "ios": "https://dc.lft.to/lastmile_qr_scan"}, "name": "c223476a2ed25d20322d270f6738c136", "type": "electric_scooter", "lat": 38.938591333333335, "is_disabled": 0}, {"fusion_lat": 0.0, "lon": -77.03480916666666, "is_reserved": 0, "bike_id": "34f6258703228b750132dc9b563b10a2", "fusion_lon": 0.0, "rental_uris": {"android": "https://dc.lft.to/lastmile_qr_scan", "ios": "https://dc.lft.to/lastmile_qr_scan"}, "name": "34f6258703228b750132dc9b563b10a2", "type": "electric_scooter", "lat": 38.93272, "is_disabled": 0}, {"fusion_lat": 0.0, "lon": -76.983866, "is_reserved": 0, "bike_id": "76fae54b98096a4ed5a03e64aa07be14", "fusion_lon": 0.0, "rental_uris": {"android": "https://dc.lft.to/lastmile_qr_scan", "ios": "https://dc.lft.to/lastmile_qr_scan"}, "name": "76fae54b98096a4ed5a03e64aa07be14", "type": "electric_scooter", "lat": 38.867019166666665, "is_disabled": 0}, {"fusion_lat": 0.0, "lon": -77.05880833333333, "is_reserved": 0, "bike_id": "4f8fe73493e44cefcd6261806c6b70a3", "fusion_lon": 0.0, "rental_uris": {"android": "https://dc.lft.to/lastmile_qr_scan", "ios": "https://dc.lft.to/lastmile_qr_scan"}, "name": "4f8fe73493e44cefcd6261806c6b70a3", "type": "electric_scooter", "lat": 38.91824616666667, "is_disabled": 0}, {"fusion_lat": 0.0, "lon": -77.0096415, "is_reserved": 0, "bike_id": "4d9f8520520f179e9dac78da49d44b18", "fusion_lon": 0.0, "rental_uris": {"android": "https://dc.lft.to/lastmile_qr_scan", "ios": "https://dc.lft.to/lastmile_qr_scan"}, "name": "4d9f8520520f179e9dac78da49d44b18", "type": "electric_scooter", "lat": 38.917056, "is_disabled": 0}, {"fusion_lat": 0.0, "lon": -77.02294316666666, "is_reserved": 0, "bike_id": "16e32e8ab976a37f7025e71d9599e0fa", "fusion_lon": 0.0, "rental_uris": {"android": "https://dc.lft.to/lastmile_qr_scan", "ios": "https://dc.lft.to/lastmile_qr_scan"}, "name": "16e32e8ab976a37f7025e71d9599e0fa", "type": "electric_scooter", "lat": 38.90926816666666, "is_disabled": 0}, {"fusion_lat": 0.0, "lon": -76.981111, "is_reserved": 0, "bike_id": "dcd43f91e1d152f2e8f495107f49b01a", "fusion_lon": 0.0, "rental_uris": {"android": "https://dc.lft.to/lastmile_qr_scan", "ios": "https://dc.lft.to/lastmile_qr_scan"}, "name": "dcd43f91e1d152f2e8f495107f49b01a", "type": "electric_scooter", "lat": 38.904079, "is_disabled": 0}, {"fusion_lat": 0.0, "lon": -77.07097966666667, "is_reserved": 0, "bike_id": "ae25db09ff15b5e47a2ab348943bd59b", "fusion_lon": 0.0, "rental_uris": {"android": "https://dc.lft.to/lastmile_qr_scan", "ios": "https://dc.lft.to/lastmile_qr_scan"}, "name": "ae25db09ff15b5e47a2ab348943bd59b", "type": "electric_scooter", "lat": 38.907772666666666, "is_disabled": 0}, {"fusion_lat": 0.0, "lon": -77.01221033333333, "is_reserved": 0, "bike_id": "d0619e10788f9d0888209ccf86ea9392", "fusion_lon": 0.0, "rental_uris": {"android": "https://dc.lft.to/lastmile_qr_scan", "ios": "https://dc.lft.to/lastmile_qr_scan"}, "name": "d0619e10788f9d0888209ccf86ea9392", "type": "electric_scooter", "lat": 38.914351833333335, "is_disabled": 0}, {"fusion_lat": 0.0, "lon": -77.04689166666667, "is_reserved": 0, "bike_id": "f4931835f9271bfc2144d0772b311436", "fusion_lon": 0.0, "rental_uris": {"android": "https://dc.lft.to/lastmile_qr_scan", "ios": "https://dc.lft.to/lastmile_qr_scan"}, "name": "f4931835f9271bfc2144d0772b311436", "type": "electric_scooter", "lat": 38.921332, "is_disabled": 0}, {"fusion_lat": 0.0, "lon": -77.01764716666666, "is_reserved": 0, "bike_id": "189ee7fde12224353149d0c783adea3f", "fusion_lon": 0.0, "rental_uris": {"android": "https://dc.lft.to/lastmile_qr_scan", "ios": "https://dc.lft.to/lastmile_qr_scan"}, "name": "189ee7fde12224353149d0c783adea3f", "type": "electric_scooter", "lat": 38.8769025, "is_disabled": 0}, {"fusion_lat": 0.0, "lon": -77.017229, "is_reserved": 0, "bike_id": "9dcd50712c3d42af15f6ddd43d8c2a7d", "fusion_lon": 0.0, "rental_uris": {"android": "https://dc.lft.to/lastmile_qr_scan", "ios": "https://dc.lft.to/lastmile_qr_scan"}, "name": "9dcd50712c3d42af15f6ddd43d8c2a7d", "type": "electric_scooter", "lat": 38.97493166666667, "is_disabled": 0}, {"fusion_lat": 0.0, "lon": -76.97558083333334, "is_reserved": 0, "bike_id": "10e82dfc0725366af8b6bfbdda403833", "fusion_lon": 0.0, "rental_uris": {"android": "https://dc.lft.to/lastmile_qr_scan", "ios": "https://dc.lft.to/lastmile_qr_scan"}, "name": "10e82dfc0725366af8b6bfbdda403833", "type": "electric_bike", "lat": 38.92456, "is_disabled": 0}, {"fusion_lat": 0.0, "lon": -77.04372533333333, "is_reserved": 0, "bike_id": "14b0c3eaea7c89e1463c8ef5be224329", "fusion_lon": 0.0, "rental_uris": {"android": "https://dc.lft.to/lastmile_qr_scan", "ios": "https://dc.lft.to/lastmile_qr_scan"}, "name": "14b0c3eaea7c89e1463c8ef5be224329", "type": "electric_scooter", "lat": 38.89224216666667, "is_disabled": 0}, {"fusion_lat": 0.0, "lon": -77.00337833333333, "is_reserved": 0, "bike_id": "5f78af919c0e80700d1d7de42cd47537", "fusion_lon": 0.0, "rental_uris": {"android": "https://dc.lft.to/lastmile_qr_scan", "ios": "https://dc.lft.to/lastmile_qr_scan"}, "name": "5f78af919c0e80700d1d7de42cd47537", "type": "electric_scooter", "lat": 38.895273833333334, "is_disabled": 0}, {"fusion_lat": 0.0, "lon": -77.035018, "is_reserved": 0, "bike_id": "6796ec24072f7c423b16a522b413edf3", "fusion_lon": 0.0, "rental_uris": {"android": "https://dc.lft.to/lastmile_qr_scan", "ios": "https://dc.lft.to/lastmile_qr_scan"}, "name": "6796ec24072f7c423b16a522b413edf3", "type": "electric_scooter", "lat": 38.923455833333335, "is_disabled": 0}, {"fusion_lat": 0.0, "lon": -77.04142733333333, "is_reserved": 0, "bike_id": "ef2d84c8c18a311230f817e0302005b5", "fusion_lon": 0.0, "rental_uris": {"android": "https://dc.lft.to/lastmile_qr_scan", "ios": "https://dc.lft.to/lastmile_qr_scan"}, "name": "ef2d84c8c18a311230f817e0302005b5", "type": "electric_scooter", "lat": 38.9170955, "is_disabled": 0}, {"fusion_lat": 0.0, "lon": -77.02408066666666, "is_reserved": 0, "bike_id": "f4f7116cf11e8d4aa12a3aa790f964a8", "fusion_lon": 0.0, "rental_uris": {"android": "https://dc.lft.to/lastmile_qr_scan", "ios": "https://dc.lft.to/lastmile_qr_scan"}, "name": "f4f7116cf11e8d4aa12a3aa790f964a8", "type": "electric_scooter", "lat": 38.91168033333334, "is_disabled": 0}, {"fusion_lat": 0.0, "lon": -77.0511585, "is_reserved": 0, "bike_id": "346be2d2a7901c8f5796cedcf90f29c4", "fusion_lon": 0.0, "rental_uris": {"android": "https://dc.lft.to/lastmile_qr_scan", "ios": "https://dc.lft.to/lastmile_qr_scan"}, "name": "346be2d2a7901c8f5796cedcf90f29c4", "type": "electric_scooter", "lat": 38.90525383333333, "is_disabled": 0}, {"fusion_lat": 0.0, "lon": -77.03865033333334, "is_reserved": 0, "bike_id": "689e12c1446db1f72fef1ef764ab5044", "fusion_lon": 0.0, "rental_uris": {"android": "https://dc.lft.to/lastmile_qr_scan", "ios": "https://dc.lft.to/lastmile_qr_scan"}, "name": "689e12c1446db1f72fef1ef764ab5044", "type": "electric_scooter", "lat": 38.891913, "is_disabled": 0}, {"fusion_lat": 0.0, "lon": -77.048405, "is_reserved": 0, "bike_id": "2b0db2ed9ed9ccfceb3cddf197ac9f3a", "fusion_lon": 0.0, "rental_uris": {"android": "https://dc.lft.to/lastmile_qr_scan", "ios": "https://dc.lft.to/lastmile_qr_scan"}, "name": "2b0db2ed9ed9ccfceb3cddf197ac9f3a", "type": "electric_scooter", "lat": 38.91046383333333, "is_disabled": 0}, {"fusion_lat": 0.0, "lon": -77.02227483333333, "is_reserved": 0, "bike_id": "e9ac132f634ca48291bca7d127a2db4f", "fusion_lon": 0.0, "rental_uris": {"android": "https://dc.lft.to/lastmile_qr_scan", "ios": "https://dc.lft.to/lastmile_qr_scan"}, "name": "e9ac132f634ca48291bca7d127a2db4f", "type": "electric_scooter", "lat": 38.89220433333333, "is_disabled": 0}, {"fusion_lat": 0.0, "lon": -76.997674, "is_reserved": 0, "bike_id": "94d783d19e8bec07d3e2061218005fd0", "fusion_lon": 0.0, "rental_uris": {"android": "https://dc.lft.to/lastmile_qr_scan", "ios": "https://dc.lft.to/lastmile_qr_scan"}, "name": "94d783d19e8bec07d3e2061218005fd0", "type": "electric_scooter", "lat": 38.924450666666665, "is_disabled": 0}, {"fusion_lat": 0.0, "lon": -76.97751683333334, "is_reserved": 0, "bike_id": "f5f014177d92b6d8f10d4291a401e8b9", "fusion_lon": 0.0, "rental_uris": {"android": "https://dc.lft.to/lastmile_qr_scan", "ios": "https://dc.lft.to/lastmile_qr_scan"}, "name": "f5f014177d92b6d8f10d4291a401e8b9", "type": "electric_bike", "lat": 38.864609333333334, "is_disabled": 0}, {"fusion_lat": 0.0, "lon": -77.02987416666667, "is_reserved": 0, "bike_id": "7ac325ec7ac87ee28c77066e64f00f10", "fusion_lon": 0.0, "rental_uris": {"android": "https://dc.lft.to/lastmile_qr_scan", "ios": "https://dc.lft.to/lastmile_qr_scan"}, "name": "7ac325ec7ac87ee28c77066e64f00f10", "type": "electric_bike", "lat": 38.97440233333333, "is_disabled": 0}, {"fusion_lat": 0.0, "lon": -77.06326333333334, "is_reserved": 0, "bike_id": "21fd2de6a3a722be1ee223aa4686c743", "fusion_lon": 0.0, "rental_uris": {"android": "https://dc.lft.to/lastmile_qr_scan", "ios": "https://dc.lft.to/lastmile_qr_scan"}, "name": "21fd2de6a3a722be1ee223aa4686c743", "type": "electric_scooter", "lat": 38.94421216666667, "is_disabled": 0}, {"fusion_lat": 0.0, "lon": -76.98456933333334, "is_reserved": 0, "bike_id": "350a96ea4a188fc590664df1b1020e34", "fusion_lon": 0.0, "rental_uris": {"android": "https://dc.lft.to/lastmile_qr_scan", "ios": "https://dc.lft.to/lastmile_qr_scan"}, "name": "350a96ea4a188fc590664df1b1020e34", "type": "electric_scooter", "lat": 38.903878, "is_disabled": 0}, {"fusion_lat": 0.0, "lon": -77.01273566666667, "is_reserved": 0, "bike_id": "59c42972a5e707d3700bd012639db484", "fusion_lon": 0.0, "rental_uris": {"android": "https://dc.lft.to/lastmile_qr_scan", "ios": "https://dc.lft.to/lastmile_qr_scan"}, "name": "59c42972a5e707d3700bd012639db484", "type": "electric_scooter", "lat": 38.90043566666667, "is_disabled": 0}, {"fusion_lat": 0.0, "lon": -77.03267466666667, "is_reserved": 0, "bike_id": "87132c64e74f69bc3d1dc1d734257bd9", "fusion_lon": 0.0, "rental_uris": {"android": "https://dc.lft.to/lastmile_qr_scan", "ios": "https://dc.lft.to/lastmile_qr_scan"}, "name": "87132c64e74f69bc3d1dc1d734257bd9", "type": "electric_scooter", "lat": 38.92851016666667, "is_disabled": 0}, {"fusion_lat": 0.0, "lon": -77.0617435, "is_reserved": 0, "bike_id": "f1471ce7300a119af5ff0c4568c3198a", "fusion_lon": 0.0, "rental_uris": {"android": "https://dc.lft.to/lastmile_qr_scan", "ios": "https://dc.lft.to/lastmile_qr_scan"}, "name": "f1471ce7300a119af5ff0c4568c3198a", "type": "electric_scooter", "lat": 38.90254983333333, "is_disabled": 0}, {"fusion_lat": 0.0, "lon": -77.00728, "is_reserved": 0, "bike_id": "fc8efa98fb1034b6b598f015fc49539c", "fusion_lon": 0.0, "rental_uris": {"android": "https://dc.lft.to/lastmile_qr_scan", "ios": "https://dc.lft.to/lastmile_qr_scan"}, "name": "fc8efa98fb1034b6b598f015fc49539c", "type": "electric_scooter", "lat": 38.884927833333336, "is_disabled": 0}, {"fusion_lat": 0.0, "lon": -77.01766883333333, "is_reserved": 0, "bike_id": "81957b57f1ad4114bbe4ea9655617987", "fusion_lon": 0.0, "rental_uris": {"android": "https://dc.lft.to/lastmile_qr_scan", "ios": "https://dc.lft.to/lastmile_qr_scan"}, "name": "81957b57f1ad4114bbe4ea9655617987", "type": "electric_scooter", "lat": 38.876908666666665, "is_disabled": 0}, {"fusion_lat": 0.0, "lon": -76.9882765, "is_reserved": 0, "bike_id": "dc44d38dc9d8ee69aadb23594f92cffd", "fusion_lon": 0.0, "rental_uris": {"android": "https://dc.lft.to/lastmile_qr_scan", "ios": "https://dc.lft.to/lastmile_qr_scan"}, "name": "dc44d38dc9d8ee69aadb23594f92cffd", "type": "electric_scooter", "lat": 38.90038633333333, "is_disabled": 0}, {"fusion_lat": 0.0, "lon": -77.11708133333333, "is_reserved": 0, "bike_id": "50966a4c96d5fa9e423e403b885d92e1", "fusion_lon": 0.0, "rental_uris": {"android": "https://dc.lft.to/lastmile_qr_scan", "ios": "https://dc.lft.to/lastmile_qr_scan"}, "name": "50966a4c96d5fa9e423e403b885d92e1", "type": "electric_bike", "lat": 38.86744083333333, "is_disabled": 0}, {"fusion_lat": 0.0, "lon": -77.03834016666667, "is_reserved": 0, "bike_id": "c3d0f9073180f64f278354523a446a0b", "fusion_lon": 0.0, "rental_uris": {"android": "https://dc.lft.to/lastmile_qr_scan", "ios": "https://dc.lft.to/lastmile_qr_scan"}, "name": "c3d0f9073180f64f278354523a446a0b", "type": "electric_scooter", "lat": 38.903496, "is_disabled": 0}, {"fusion_lat": 0.0, "lon": -77.11610083333333, "is_reserved": 0, "bike_id": "a02dc3826cfc76c0dd33f56122c66b80", "fusion_lon": 0.0, "rental_uris": {"android": "https://dc.lft.to/lastmile_qr_scan", "ios": "https://dc.lft.to/lastmile_qr_scan"}, "name": "a02dc3826cfc76c0dd33f56122c66b80", "type": "electric_bike", "lat": 38.854868, "is_disabled": 0}, {"fusion_lat": 0.0, "lon": -77.00371033333333, "is_reserved": 0, "bike_id": "31b5e2542293b3cc24a25fb911262ce2", "fusion_lon": 0.0, "rental_uris": {"android": "https://dc.lft.to/lastmile_qr_scan", "ios": "https://dc.lft.to/lastmile_qr_scan"}, "name": "31b5e2542293b3cc24a25fb911262ce2", "type": "electric_scooter", "lat": 38.88272333333333, "is_disabled": 0}, {"fusion_lat": 0.0, "lon": -77.03259633333333, "is_reserved": 0, "bike_id": "b0d6e89cc22b46b849ed6d124ec9899c", "fusion_lon": 0.0, "rental_uris": {"android": "https://dc.lft.to/lastmile_qr_scan", "ios": "https://dc.lft.to/lastmile_qr_scan"}, "name": "b0d6e89cc22b46b849ed6d124ec9899c", "type": "electric_scooter", "lat": 38.928486666666664, "is_disabled": 0}, {"fusion_lat": 0.0, "lon": -77.01159383333334, "is_reserved": 0, "bike_id": "7cf7b97ee145b06523974f399955e3e4", "fusion_lon": 0.0, "rental_uris": {"android": "https://dc.lft.to/lastmile_qr_scan", "ios": "https://dc.lft.to/lastmile_qr_scan"}, "name": "7cf7b97ee145b06523974f399955e3e4", "type": "electric_scooter", "lat": 38.900327, "is_disabled": 0}, {"fusion_lat": 0.0, "lon": -76.97847733333333, "is_reserved": 0, "bike_id": "63a8a663d1db344d3c5302302141284b", "fusion_lon": 0.0, "rental_uris": {"android": "https://dc.lft.to/lastmile_qr_scan", "ios": "https://dc.lft.to/lastmile_qr_scan"}, "name": "63a8a663d1db344d3c5302302141284b", "type": "electric_bike", "lat": 38.8887645, "is_disabled": 0}, {"fusion_lat": 0.0, "lon": -77.01129416666667, "is_reserved": 0, "bike_id": "db8a8bff1bdb48f51f0e3234975fbf25", "fusion_lon": 0.0, "rental_uris": {"android": "https://dc.lft.to/lastmile_qr_scan", "ios": "https://dc.lft.to/lastmile_qr_scan"}, "name": "db8a8bff1bdb48f51f0e3234975fbf25", "type": "electric_scooter", "lat": 38.898801, "is_disabled": 0}, {"fusion_lat": 0.0, "lon": -77.011341, "is_reserved": 0, "bike_id": "54ff67f3dc4c6bbcb47bfeea54b91cef", "fusion_lon": 0.0, "rental_uris": {"android": "https://dc.lft.to/lastmile_qr_scan", "ios": "https://dc.lft.to/lastmile_qr_scan"}, "name": "54ff67f3dc4c6bbcb47bfeea54b91cef", "type": "electric_scooter", "lat": 38.9158685, "is_disabled": 0}, {"fusion_lat": 0.0, "lon": -77.0180005, "is_reserved": 0, "bike_id": "5d40fd0305f0ee154cc980238aa68f9f", "fusion_lon": 0.0, "rental_uris": {"android": "https://dc.lft.to/lastmile_qr_scan", "ios": "https://dc.lft.to/lastmile_qr_scan"}, "name": "5d40fd0305f0ee154cc980238aa68f9f", "type": "electric_scooter", "lat": 38.904231833333334, "is_disabled": 0}, {"fusion_lat": 0.0, "lon": -77.0395335, "is_reserved": 0, "bike_id": "4eb1ad1ee324fa11cffb693a89d5ee40", "fusion_lon": 0.0, "rental_uris": {"android": "https://dc.lft.to/lastmile_qr_scan", "ios": "https://dc.lft.to/lastmile_qr_scan"}, "name": "4eb1ad1ee324fa11cffb693a89d5ee40", "type": "electric_scooter", "lat": 38.89241066666666, "is_disabled": 0}, {"fusion_lat": 0.0, "lon": -77.017745, "is_reserved": 0, "bike_id": "f9cb2fb93a66978184da2be39d88a71f", "fusion_lon": 0.0, "rental_uris": {"android": "https://dc.lft.to/lastmile_qr_scan", "ios": "https://dc.lft.to/lastmile_qr_scan"}, "name": "f9cb2fb93a66978184da2be39d88a71f", "type": "electric_scooter", "lat": 38.91743666666667, "is_disabled": 0}, {"fusion_lat": 0.0, "lon": -77.02208966666667, "is_reserved": 0, "bike_id": "0857ae8489f85b7f8a0a888dde5c7d4b", "fusion_lon": 0.0, "rental_uris": {"android": "https://dc.lft.to/lastmile_qr_scan", "ios": "https://dc.lft.to/lastmile_qr_scan"}, "name": "0857ae8489f85b7f8a0a888dde5c7d4b", "type": "electric_scooter", "lat": 38.9019245, "is_disabled": 0}, {"fusion_lat": 0.0, "lon": -77.03439733333333, "is_reserved": 0, "bike_id": "9c1c61b03d8e49e22938af7492a4de9c", "fusion_lon": 0.0, "rental_uris": {"android": "https://dc.lft.to/lastmile_qr_scan", "ios": "https://dc.lft.to/lastmile_qr_scan"}, "name": "9c1c61b03d8e49e22938af7492a4de9c", "type": "electric_scooter", "lat": 38.930938833333336, "is_disabled": 0}, {"fusion_lat": 0.0, "lon": -77.01249133333333, "is_reserved": 0, "bike_id": "9615fec70386d8ba0dda5e444c0c0a8a", "fusion_lon": 0.0, "rental_uris": {"android": "https://dc.lft.to/lastmile_qr_scan", "ios": "https://dc.lft.to/lastmile_qr_scan"}, "name": "9615fec70386d8ba0dda5e444c0c0a8a", "type": "electric_scooter", "lat": 38.83049466666667, "is_disabled": 0}, {"fusion_lat": 0.0, "lon": -77.04482266666666, "is_reserved": 0, "bike_id": "4b327261ce9f23c245fbd90baffe0ed0", "fusion_lon": 0.0, "rental_uris": {"android": "https://dc.lft.to/lastmile_qr_scan", "ios": "https://dc.lft.to/lastmile_qr_scan"}, "name": "4b327261ce9f23c245fbd90baffe0ed0", "type": "electric_scooter", "lat": 38.924062666666664, "is_disabled": 0}, {"fusion_lat": 0.0, "lon": -77.017224, "is_reserved": 0, "bike_id": "f90a3e5fc4ea0c3368b1644d8bac71f3", "fusion_lon": 0.0, "rental_uris": {"android": "https://dc.lft.to/lastmile_qr_scan", "ios": "https://dc.lft.to/lastmile_qr_scan"}, "name": "f90a3e5fc4ea0c3368b1644d8bac71f3", "type": "electric_bike", "lat": 38.94610183333333, "is_disabled": 0}, {"fusion_lat": 0.0, "lon": -77.0346875, "is_reserved": 0, "bike_id": "eceaa044ccd6bab6a71e47e97fc9c77d", "fusion_lon": 0.0, "rental_uris": {"android": "https://dc.lft.to/lastmile_qr_scan", "ios": "https://dc.lft.to/lastmile_qr_scan"}, "name": "eceaa044ccd6bab6a71e47e97fc9c77d", "type": "electric_scooter", "lat": 38.9356205, "is_disabled": 0}, {"fusion_lat": 0.0, "lon": -76.9926875, "is_reserved": 0, "bike_id": "1e29cadedc7cdf6dfbdf96f691032eb9", "fusion_lon": 0.0, "rental_uris": {"android": "https://dc.lft.to/lastmile_qr_scan", "ios": "https://dc.lft.to/lastmile_qr_scan"}, "name": "1e29cadedc7cdf6dfbdf96f691032eb9", "type": "electric_scooter", "lat": 38.88625016666667, "is_disabled": 0}, {"fusion_lat": 0.0, "lon": -77.05587033333333, "is_reserved": 0, "bike_id": "1ed162474f2746d200def162d49677ff", "fusion_lon": 0.0, "rental_uris": {"android": "https://dc.lft.to/lastmile_qr_scan", "ios": "https://dc.lft.to/lastmile_qr_scan"}, "name": "1ed162474f2746d200def162d49677ff", "type": "electric_scooter", "lat": 38.936115666666666, "is_disabled": 0}, {"fusion_lat": 0.0, "lon": -77.03761116666666, "is_reserved": 0, "bike_id": "9b98e2fd59f5b37a4686852b3c4f2632", "fusion_lon": 0.0, "rental_uris": {"android": "https://dc.lft.to/lastmile_qr_scan", "ios": "https://dc.lft.to/lastmile_qr_scan"}, "name": "9b98e2fd59f5b37a4686852b3c4f2632", "type": "electric_scooter", "lat": 38.906661666666665, "is_disabled": 0}, {"fusion_lat": 0.0, "lon": -77.03557783333333, "is_reserved": 0, "bike_id": "9e33b7c512d7657522266a7bfa540ec7", "fusion_lon": 0.0, "rental_uris": {"android": "https://dc.lft.to/lastmile_qr_scan", "ios": "https://dc.lft.to/lastmile_qr_scan"}, "name": "9e33b7c512d7657522266a7bfa540ec7", "type": "electric_scooter", "lat": 38.917086833333336, "is_disabled": 0}, {"fusion_lat": 0.0, "lon": -76.97099283333333, "is_reserved": 0, "bike_id": "df78c117bf1fd0b96e24ec68c7228c4f", "fusion_lon": 0.0, "rental_uris": {"android": "https://dc.lft.to/lastmile_qr_scan", "ios": "https://dc.lft.to/lastmile_qr_scan"}, "name": "df78c117bf1fd0b96e24ec68c7228c4f", "type": "electric_bike", "lat": 38.918109666666666, "is_disabled": 0}, {"fusion_lat": 0.0, "lon": -77.0334465, "is_reserved": 0, "bike_id": "42f2c69b964fe13ab5f3b4296131cb75", "fusion_lon": 0.0, "rental_uris": {"android": "https://dc.lft.to/lastmile_qr_scan", "ios": "https://dc.lft.to/lastmile_qr_scan"}, "name": "42f2c69b964fe13ab5f3b4296131cb75", "type": "electric_scooter", "lat": 38.932186333333334, "is_disabled": 0}, {"fusion_lat": 0.0, "lon": -77.0214995, "is_reserved": 0, "bike_id": "e8535bea2ec33a2dbe69642953bb36e7", "fusion_lon": 0.0, "rental_uris": {"android": "https://dc.lft.to/lastmile_qr_scan", "ios": "https://dc.lft.to/lastmile_qr_scan"}, "name": "e8535bea2ec33a2dbe69642953bb36e7", "type": "electric_scooter", "lat": 38.9260395, "is_disabled": 0}, {"fusion_lat": 0.0, "lon": -77.0137475, "is_reserved": 0, "bike_id": "03c722cabbccae86d9cede70e5aafe76", "fusion_lon": 0.0, "rental_uris": {"android": "https://dc.lft.to/lastmile_qr_scan", "ios": "https://dc.lft.to/lastmile_qr_scan"}, "name": "03c722cabbccae86d9cede70e5aafe76", "type": "electric_bike", "lat": 38.94238566666667, "is_disabled": 0}, {"fusion_lat": 0.0, "lon": -77.04301783333334, "is_reserved": 0, "bike_id": "be0d7c89c3523197eabf0857663750d5", "fusion_lon": 0.0, "rental_uris": {"android": "https://dc.lft.to/lastmile_qr_scan", "ios": "https://dc.lft.to/lastmile_qr_scan"}, "name": "be0d7c89c3523197eabf0857663750d5", "type": "electric_scooter", "lat": 38.893682, "is_disabled": 0}, {"fusion_lat": 0.0, "lon": -77.0321945, "is_reserved": 0, "bike_id": "68b091132610e9b3ea6f6eb1d9c49a39", "fusion_lon": 0.0, "rental_uris": {"android": "https://dc.lft.to/lastmile_qr_scan", "ios": "https://dc.lft.to/lastmile_qr_scan"}, "name": "68b091132610e9b3ea6f6eb1d9c49a39", "type": "electric_scooter", "lat": 38.914077666666664, "is_disabled": 0}, {"fusion_lat": 0.0, "lon": -77.0369115, "is_reserved": 0, "bike_id": "c026e6d96dc03189b5a190693ff8c328", "fusion_lon": 0.0, "rental_uris": {"android": "https://dc.lft.to/lastmile_qr_scan", "ios": "https://dc.lft.to/lastmile_qr_scan"}, "name": "c026e6d96dc03189b5a190693ff8c328", "type": "electric_scooter", "lat": 38.91676566666667, "is_disabled": 0}, {"fusion_lat": 0.0, "lon": -76.94630833333333, "is_reserved": 0, "bike_id": "3bc187069125077361dbf8f969c23fd5", "fusion_lon": 0.0, "rental_uris": {"android": "https://dc.lft.to/lastmile_qr_scan", "ios": "https://dc.lft.to/lastmile_qr_scan"}, "name": "3bc187069125077361dbf8f969c23fd5", "type": "electric_scooter", "lat": 38.8984215, "is_disabled": 0}, {"fusion_lat": 0.0, "lon": -77.05531333333333, "is_reserved": 0, "bike_id": "28962d1b8277f7104d6ae4fd797cdc8e", "fusion_lon": 0.0, "rental_uris": {"android": "https://dc.lft.to/lastmile_qr_scan", "ios": "https://dc.lft.to/lastmile_qr_scan"}, "name": "28962d1b8277f7104d6ae4fd797cdc8e", "type": "electric_scooter", "lat": 38.9279405, "is_disabled": 0}, {"fusion_lat": 0.0, "lon": -77.07477616666667, "is_reserved": 0, "bike_id": "3ab56fc662684365c565301faece692b", "fusion_lon": 0.0, "rental_uris": {"android": "https://dc.lft.to/lastmile_qr_scan", "ios": "https://dc.lft.to/lastmile_qr_scan"}, "name": "3ab56fc662684365c565301faece692b", "type": "electric_scooter", "lat": 38.9637545, "is_disabled": 0}, {"fusion_lat": 0.0, "lon": -76.94876866666667, "is_reserved": 0, "bike_id": "4755dd03fca09b9012c372622acd5104", "fusion_lon": 0.0, "rental_uris": {"android": "https://dc.lft.to/lastmile_qr_scan", "ios": "https://dc.lft.to/lastmile_qr_scan"}, "name": "4755dd03fca09b9012c372622acd5104", "type": "electric_scooter", "lat": 38.8955155, "is_disabled": 0}, {"fusion_lat": 0.0, "lon": -77.00725766666666, "is_reserved": 0, "bike_id": "dc057b806be604b1a53527fc9deb924f", "fusion_lon": 0.0, "rental_uris": {"android": "https://dc.lft.to/lastmile_qr_scan", "ios": "https://dc.lft.to/lastmile_qr_scan"}, "name": "dc057b806be604b1a53527fc9deb924f", "type": "electric_scooter", "lat": 38.884936333333336, "is_disabled": 0}, {"fusion_lat": 0.0, "lon": -77.02401966666666, "is_reserved": 0, "bike_id": "3772c66f44a9ea39716d5f74b10da4b7", "fusion_lon": 0.0, "rental_uris": {"android": "https://dc.lft.to/lastmile_qr_scan", "ios": "https://dc.lft.to/lastmile_qr_scan"}, "name": "3772c66f44a9ea39716d5f74b10da4b7", "type": "electric_scooter", "lat": 38.957330166666665, "is_disabled": 0}, {"fusion_lat": 0.0, "lon": -76.98106683333333, "is_reserved": 0, "bike_id": "5fbcacb5d3858adea3c955449a3b0d14", "fusion_lon": 0.0, "rental_uris": {"android": "https://dc.lft.to/lastmile_qr_scan", "ios": "https://dc.lft.to/lastmile_qr_scan"}, "name": "5fbcacb5d3858adea3c955449a3b0d14", "type": "electric_scooter", "lat": 38.90393233333333, "is_disabled": 0}, {"fusion_lat": 0.0, "lon": -77.025085, "is_reserved": 0, "bike_id": "3b38b76edb5ccbd1a76211684f5c609e", "fusion_lon": 0.0, "rental_uris": {"android": "https://dc.lft.to/lastmile_qr_scan", "ios": "https://dc.lft.to/lastmile_qr_scan"}, "name": "3b38b76edb5ccbd1a76211684f5c609e", "type": "electric_scooter", "lat": 38.92078716666666, "is_disabled": 0}, {"fusion_lat": 0.0, "lon": -77.03661, "is_reserved": 0, "bike_id": "2ec5d1ec00575a2e5c56a8a112987e67", "fusion_lon": 0.0, "rental_uris": {"android": "https://dc.lft.to/lastmile_qr_scan", "ios": "https://dc.lft.to/lastmile_qr_scan"}, "name": "2ec5d1ec00575a2e5c56a8a112987e67", "type": "electric_scooter", "lat": 38.90287166666667, "is_disabled": 0}, {"fusion_lat": 0.0, "lon": -76.98720316666666, "is_reserved": 0, "bike_id": "3b1014928499a130bb7cd751c25badd0", "fusion_lon": 0.0, "rental_uris": {"android": "https://dc.lft.to/lastmile_qr_scan", "ios": "https://dc.lft.to/lastmile_qr_scan"}, "name": "3b1014928499a130bb7cd751c25badd0", "type": "electric_scooter", "lat": 38.8668315, "is_disabled": 0}, {"fusion_lat": 0.0, "lon": -76.99713466666667, "is_reserved": 0, "bike_id": "e4eaf27dd6f66c5171a88b542128dc83", "fusion_lon": 0.0, "rental_uris": {"android": "https://dc.lft.to/lastmile_qr_scan", "ios": "https://dc.lft.to/lastmile_qr_scan"}, "name": "e4eaf27dd6f66c5171a88b542128dc83", "type": "electric_scooter", "lat": 38.90780566666667, "is_disabled": 0}, {"fusion_lat": 0.0, "lon": -77.04658966666666, "is_reserved": 0, "bike_id": "23f2c62d84654b6221bb28c2e1474840", "fusion_lon": 0.0, "rental_uris": {"android": "https://dc.lft.to/lastmile_qr_scan", "ios": "https://dc.lft.to/lastmile_qr_scan"}, "name": "23f2c62d84654b6221bb28c2e1474840", "type": "electric_scooter", "lat": 38.896659666666665, "is_disabled": 0}, {"fusion_lat": 0.0, "lon": -76.95016833333334, "is_reserved": 0, "bike_id": "636d93cc0805786d09bc39e1959d51cf", "fusion_lon": 0.0, "rental_uris": {"android": "https://dc.lft.to/lastmile_qr_scan", "ios": "https://dc.lft.to/lastmile_qr_scan"}, "name": "636d93cc0805786d09bc39e1959d51cf", "type": "electric_scooter", "lat": 38.893905833333335, "is_disabled": 0}, {"fusion_lat": 0.0, "lon": -76.948805, "is_reserved": 0, "bike_id": "299e0adf32ee510f4bacf5a97a975153", "fusion_lon": 0.0, "rental_uris": {"android": "https://dc.lft.to/lastmile_qr_scan", "ios": "https://dc.lft.to/lastmile_qr_scan"}, "name": "299e0adf32ee510f4bacf5a97a975153", "type": "electric_scooter", "lat": 38.8955485, "is_disabled": 0}, {"fusion_lat": 0.0, "lon": -77.00208633333334, "is_reserved": 0, "bike_id": "822a48827ca91baacbffe54430420b41", "fusion_lon": 0.0, "rental_uris": {"android": "https://dc.lft.to/lastmile_qr_scan", "ios": "https://dc.lft.to/lastmile_qr_scan"}, "name": "822a48827ca91baacbffe54430420b41", "type": "electric_scooter", "lat": 38.90035683333333, "is_disabled": 0}, {"fusion_lat": 0.0, "lon": -76.990584, "is_reserved": 0, "bike_id": "7a8642484596e4529c281c6fdf283571", "fusion_lon": 0.0, "rental_uris": {"android": "https://dc.lft.to/lastmile_qr_scan", "ios": "https://dc.lft.to/lastmile_qr_scan"}, "name": "7a8642484596e4529c281c6fdf283571", "type": "electric_scooter", "lat": 38.863608666666664, "is_disabled": 0}, {"fusion_lat": 0.0, "lon": -77.03862033333333, "is_reserved": 0, "bike_id": "9578191258f8930e9d6ece381b217a50", "fusion_lon": 0.0, "rental_uris": {"android": "https://dc.lft.to/lastmile_qr_scan", "ios": "https://dc.lft.to/lastmile_qr_scan"}, "name": "9578191258f8930e9d6ece381b217a50", "type": "electric_scooter", "lat": 38.9450065, "is_disabled": 0}, {"fusion_lat": 0.0, "lon": -77.0073605, "is_reserved": 0, "bike_id": "222d03191b1a475f707a0e3d7678b6af", "fusion_lon": 0.0, "rental_uris": {"android": "https://dc.lft.to/lastmile_qr_scan", "ios": "https://dc.lft.to/lastmile_qr_scan"}, "name": "222d03191b1a475f707a0e3d7678b6af", "type": "electric_scooter", "lat": 38.876599666666664, "is_disabled": 0}, {"fusion_lat": 0.0, "lon": -77.036399, "is_reserved": 0, "bike_id": "004c83051ec2484f97b2801f591d7624", "fusion_lon": 0.0, "rental_uris": {"android": "https://dc.lft.to/lastmile_qr_scan", "ios": "https://dc.lft.to/lastmile_qr_scan"}, "name": "004c83051ec2484f97b2801f591d7624", "type": "electric_scooter", "lat": 38.9211195, "is_disabled": 0}, {"fusion_lat": 0.0, "lon": -77.02805283333333, "is_reserved": 0, "bike_id": "b348451e24437e9e8ced29e03e4df542", "fusion_lon": 0.0, "rental_uris": {"android": "https://dc.lft.to/lastmile_qr_scan", "ios": "https://dc.lft.to/lastmile_qr_scan"}, "name": "b348451e24437e9e8ced29e03e4df542", "type": "electric_scooter", "lat": 38.90976033333333, "is_disabled": 0}, {"fusion_lat": 0.0, "lon": -77.04246966666666, "is_reserved": 0, "bike_id": "4dd5a005916e6c8c849a7e1e4c9a05a1", "fusion_lon": 0.0, "rental_uris": {"android": "https://dc.lft.to/lastmile_qr_scan", "ios": "https://dc.lft.to/lastmile_qr_scan"}, "name": "4dd5a005916e6c8c849a7e1e4c9a05a1", "type": "electric_scooter", "lat": 38.916938, "is_disabled": 0}, {"fusion_lat": 0.0, "lon": -76.981017, "is_reserved": 0, "bike_id": "bec9307c5cf6fa2f00e81c0504b11137", "fusion_lon": 0.0, "rental_uris": {"android": "https://dc.lft.to/lastmile_qr_scan", "ios": "https://dc.lft.to/lastmile_qr_scan"}, "name": "bec9307c5cf6fa2f00e81c0504b11137", "type": "electric_scooter", "lat": 38.9039285, "is_disabled": 0}, {"fusion_lat": 0.0, "lon": -76.98509083333333, "is_reserved": 0, "bike_id": "8f998d6bc594f01ea164ed82dd6a83a0", "fusion_lon": 0.0, "rental_uris": {"android": "https://dc.lft.to/lastmile_qr_scan", "ios": "https://dc.lft.to/lastmile_qr_scan"}, "name": "8f998d6bc594f01ea164ed82dd6a83a0", "type": "electric_scooter", "lat": 38.866502833333335, "is_disabled": 0}, {"fusion_lat": 0.0, "lon": -77.04647033333333, "is_reserved": 0, "bike_id": "4bee3adb406224e8112fc97a2b2aae8e", "fusion_lon": 0.0, "rental_uris": {"android": "https://dc.lft.to/lastmile_qr_scan", "ios": "https://dc.lft.to/lastmile_qr_scan"}, "name": "4bee3adb406224e8112fc97a2b2aae8e", "type": "electric_scooter", "lat": 38.903258666666666, "is_disabled": 0}, {"fusion_lat": 0.0, "lon": -77.027653, "is_reserved": 0, "bike_id": "e8f33f5990a77a1072513fc598e6387e", "fusion_lon": 0.0, "rental_uris": {"android": "https://dc.lft.to/lastmile_qr_scan", "ios": "https://dc.lft.to/lastmile_qr_scan"}, "name": "e8f33f5990a77a1072513fc598e6387e", "type": "electric_scooter", "lat": 38.92980433333334, "is_disabled": 0}, {"fusion_lat": 0.0, "lon": -76.99011766666666, "is_reserved": 0, "bike_id": "698a3daf5590174875dac459c28a4832", "fusion_lon": 0.0, "rental_uris": {"android": "https://dc.lft.to/lastmile_qr_scan", "ios": "https://dc.lft.to/lastmile_qr_scan"}, "name": "698a3daf5590174875dac459c28a4832", "type": "electric_scooter", "lat": 38.8818135, "is_disabled": 0}, {"fusion_lat": 0.0, "lon": -77.000609, "is_reserved": 0, "bike_id": "f5ef849f69f44dc390f53f7458720ef4", "fusion_lon": 0.0, "rental_uris": {"android": "https://dc.lft.to/lastmile_qr_scan", "ios": "https://dc.lft.to/lastmile_qr_scan"}, "name": "f5ef849f69f44dc390f53f7458720ef4", "type": "electric_scooter", "lat": 38.8998645, "is_disabled": 0}, {"fusion_lat": 0.0, "lon": -77.02501466666666, "is_reserved": 0, "bike_id": "211ad718a1384d50a15cfe33f475087b", "fusion_lon": 0.0, "rental_uris": {"android": "https://dc.lft.to/lastmile_qr_scan", "ios": "https://dc.lft.to/lastmile_qr_scan"}, "name": "211ad718a1384d50a15cfe33f475087b", "type": "electric_scooter", "lat": 38.92096016666667, "is_disabled": 0}, {"fusion_lat": 0.0, "lon": -77.03269216666666, "is_reserved": 0, "bike_id": "6f92a95ad612bc00201dc58a0529752a", "fusion_lon": 0.0, "rental_uris": {"android": "https://dc.lft.to/lastmile_qr_scan", "ios": "https://dc.lft.to/lastmile_qr_scan"}, "name": "6f92a95ad612bc00201dc58a0529752a", "type": "electric_scooter", "lat": 38.92847783333333, "is_disabled": 0}, {"fusion_lat": 0.0, "lon": -77.04323233333334, "is_reserved": 0, "bike_id": "678ac849e9bc69a29304cc49a1524299", "fusion_lon": 0.0, "rental_uris": {"android": "https://dc.lft.to/lastmile_qr_scan", "ios": "https://dc.lft.to/lastmile_qr_scan"}, "name": "678ac849e9bc69a29304cc49a1524299", "type": "electric_scooter", "lat": 38.8922355, "is_disabled": 0}, {"fusion_lat": 0.0, "lon": -77.03477616666666, "is_reserved": 0, "bike_id": "6d4455c10c1d17fe08f445a5abb1d05b", "fusion_lon": 0.0, "rental_uris": {"android": "https://dc.lft.to/lastmile_qr_scan", "ios": "https://dc.lft.to/lastmile_qr_scan"}, "name": "6d4455c10c1d17fe08f445a5abb1d05b", "type": "electric_scooter", "lat": 38.90580683333334, "is_disabled": 0}, {"fusion_lat": 0.0, "lon": -77.00734033333333, "is_reserved": 0, "bike_id": "3264b9bf920dc24d9ac8c2f696240cf0", "fusion_lon": 0.0, "rental_uris": {"android": "https://dc.lft.to/lastmile_qr_scan", "ios": "https://dc.lft.to/lastmile_qr_scan"}, "name": "3264b9bf920dc24d9ac8c2f696240cf0", "type": "electric_scooter", "lat": 38.905697333333336, "is_disabled": 0}, {"fusion_lat": 0.0, "lon": -77.03204383333333, "is_reserved": 0, "bike_id": "333cd6e52d3b4183fa0bbaee1244dd80", "fusion_lon": 0.0, "rental_uris": {"android": "https://dc.lft.to/lastmile_qr_scan", "ios": "https://dc.lft.to/lastmile_qr_scan"}, "name": "333cd6e52d3b4183fa0bbaee1244dd80", "type": "electric_scooter", "lat": 38.9178545, "is_disabled": 0}, {"fusion_lat": 0.0, "lon": -76.98108416666666, "is_reserved": 0, "bike_id": "927ef414fbc68f02431208995f2e1592", "fusion_lon": 0.0, "rental_uris": {"android": "https://dc.lft.to/lastmile_qr_scan", "ios": "https://dc.lft.to/lastmile_qr_scan"}, "name": "927ef414fbc68f02431208995f2e1592", "type": "electric_scooter", "lat": 38.90408016666667, "is_disabled": 0}, {"fusion_lat": 0.0, "lon": -76.99825666666666, "is_reserved": 0, "bike_id": "21ea4baeb7c3c255588693057cf9890e", "fusion_lon": 0.0, "rental_uris": {"android": "https://dc.lft.to/lastmile_qr_scan", "ios": "https://dc.lft.to/lastmile_qr_scan"}, "name": "21ea4baeb7c3c255588693057cf9890e", "type": "electric_scooter", "lat": 38.908671, "is_disabled": 0}, {"fusion_lat": 0.0, "lon": -76.98369216666667, "is_reserved": 0, "bike_id": "b8e1b31c841df78dd43c76ac64ccf280", "fusion_lon": 0.0, "rental_uris": {"android": "https://dc.lft.to/lastmile_qr_scan", "ios": "https://dc.lft.to/lastmile_qr_scan"}, "name": "b8e1b31c841df78dd43c76ac64ccf280", "type": "electric_scooter", "lat": 38.9154925, "is_disabled": 0}, {"fusion_lat": 0.0, "lon": -77.030837, "is_reserved": 0, "bike_id": "881e37ecbd31c86b478a1441ce847770", "fusion_lon": 0.0, "rental_uris": {"android": "https://dc.lft.to/lastmile_qr_scan", "ios": "https://dc.lft.to/lastmile_qr_scan"}, "name": "881e37ecbd31c86b478a1441ce847770", "type": "electric_scooter", "lat": 38.9224625, "is_disabled": 0}, {"fusion_lat": 0.0, "lon": -77.00603433333333, "is_reserved": 0, "bike_id": "58ae54788f1c8270ef5c75a8996fa34b", "fusion_lon": 0.0, "rental_uris": {"android": "https://dc.lft.to/lastmile_qr_scan", "ios": "https://dc.lft.to/lastmile_qr_scan"}, "name": "58ae54788f1c8270ef5c75a8996fa34b", "type": "electric_scooter", "lat": 38.90571, "is_disabled": 0}, {"fusion_lat": 0.0, "lon": -77.02793966666667, "is_reserved": 0, "bike_id": "a0fdfb4b3ce2fe648c63b1f2f4c7817b", "fusion_lon": 0.0, "rental_uris": {"android": "https://dc.lft.to/lastmile_qr_scan", "ios": "https://dc.lft.to/lastmile_qr_scan"}, "name": "a0fdfb4b3ce2fe648c63b1f2f4c7817b", "type": "electric_scooter", "lat": 38.95401666666667, "is_disabled": 0}, {"fusion_lat": 0.0, "lon": -77.0121515, "is_reserved": 0, "bike_id": "301221abc454eb8878df84d1eaae292d", "fusion_lon": 0.0, "rental_uris": {"android": "https://dc.lft.to/lastmile_qr_scan", "ios": "https://dc.lft.to/lastmile_qr_scan"}, "name": "301221abc454eb8878df84d1eaae292d", "type": "electric_scooter", "lat": 38.917584, "is_disabled": 0}, {"fusion_lat": 0.0, "lon": -77.02623866666667, "is_reserved": 0, "bike_id": "c44f99a40e497fa90a34bbef7900bc77", "fusion_lon": 0.0, "rental_uris": {"android": "https://dc.lft.to/lastmile_qr_scan", "ios": "https://dc.lft.to/lastmile_qr_scan"}, "name": "c44f99a40e497fa90a34bbef7900bc77", "type": "electric_bike", "lat": 38.9622045, "is_disabled": 0}, {"fusion_lat": 0.0, "lon": -77.03258966666667, "is_reserved": 0, "bike_id": "f71a1e666291083762f25730fdaca938", "fusion_lon": 0.0, "rental_uris": {"android": "https://dc.lft.to/lastmile_qr_scan", "ios": "https://dc.lft.to/lastmile_qr_scan"}, "name": "f71a1e666291083762f25730fdaca938", "type": "electric_scooter", "lat": 38.923641833333335, "is_disabled": 0}, {"fusion_lat": 0.0, "lon": -77.360835, "is_reserved": 0, "bike_id": "7e2f90554c5342e0951454e46d953802", "fusion_lon": 0.0, "rental_uris": {"android": "https://dc.lft.to/lastmile_qr_scan", "ios": "https://dc.lft.to/lastmile_qr_scan"}, "name": "7e2f90554c5342e0951454e46d953802", "type": "electric_bike", "lat": 38.939533833333336, "is_disabled": 0}, {"fusion_lat": 0.0, "lon": -76.95141, "is_reserved": 0, "bike_id": "43aed360fed2dda15d76b0685741c1fc", "fusion_lon": 0.0, "rental_uris": {"android": "https://dc.lft.to/lastmile_qr_scan", "ios": "https://dc.lft.to/lastmile_qr_scan"}, "name": "43aed360fed2dda15d76b0685741c1fc", "type": "electric_scooter", "lat": 38.89042466666667, "is_disabled": 0}, {"fusion_lat": 0.0, "lon": -77.02895116666667, "is_reserved": 0, "bike_id": "7a9c64bf48319ea6c60a868f1a646e3b", "fusion_lon": 0.0, "rental_uris": {"android": "https://dc.lft.to/lastmile_qr_scan", "ios": "https://dc.lft.to/lastmile_qr_scan"}, "name": "7a9c64bf48319ea6c60a868f1a646e3b", "type": "electric_scooter", "lat": 38.93986683333333, "is_disabled": 0}, {"fusion_lat": 0.0, "lon": -76.98615516666666, "is_reserved": 0, "bike_id": "73ffa7daef4a51f86d27ebbfcfc0d34f", "fusion_lon": 0.0, "rental_uris": {"android": "https://dc.lft.to/lastmile_qr_scan", "ios": "https://dc.lft.to/lastmile_qr_scan"}, "name": "73ffa7daef4a51f86d27ebbfcfc0d34f", "type": "electric_scooter", "lat": 38.938265666666666, "is_disabled": 0}, {"fusion_lat": 0.0, "lon": -77.00402833333334, "is_reserved": 0, "bike_id": "aebbf15a7808b02a0cf33fe4ecae441e", "fusion_lon": 0.0, "rental_uris": {"android": "https://dc.lft.to/lastmile_qr_scan", "ios": "https://dc.lft.to/lastmile_qr_scan"}, "name": "aebbf15a7808b02a0cf33fe4ecae441e", "type": "electric_scooter", "lat": 38.921361166666664, "is_disabled": 0}, {"fusion_lat": 0.0, "lon": -77.03973983333333, "is_reserved": 0, "bike_id": "06ef35af51f3322da582db7e46f8f985", "fusion_lon": 0.0, "rental_uris": {"android": "https://dc.lft.to/lastmile_qr_scan", "ios": "https://dc.lft.to/lastmile_qr_scan"}, "name": "06ef35af51f3322da582db7e46f8f985", "type": "electric_scooter", "lat": 38.9202075, "is_disabled": 0}, {"fusion_lat": 0.0, "lon": -76.977019, "is_reserved": 0, "bike_id": "052353c707e9c9bb66d173b6c3e46946", "fusion_lon": 0.0, "rental_uris": {"android": "https://dc.lft.to/lastmile_qr_scan", "ios": "https://dc.lft.to/lastmile_qr_scan"}, "name": "052353c707e9c9bb66d173b6c3e46946", "type": "electric_bike", "lat": 38.949132, "is_disabled": 0}, {"fusion_lat": 0.0, "lon": -77.048736, "is_reserved": 0, "bike_id": "a26a8e15b9e76e374ad77828803e535a", "fusion_lon": 0.0, "rental_uris": {"android": "https://dc.lft.to/lastmile_qr_scan", "ios": "https://dc.lft.to/lastmile_qr_scan"}, "name": "a26a8e15b9e76e374ad77828803e535a", "type": "electric_scooter", "lat": 38.9097645, "is_disabled": 0}, {"fusion_lat": 0.0, "lon": -77.0267725, "is_reserved": 0, "bike_id": "b4a8693ec391459ad7c10b1388dbb328", "fusion_lon": 0.0, "rental_uris": {"android": "https://dc.lft.to/lastmile_qr_scan", "ios": "https://dc.lft.to/lastmile_qr_scan"}, "name": "b4a8693ec391459ad7c10b1388dbb328", "type": "electric_scooter", "lat": 38.901114166666666, "is_disabled": 0}, {"fusion_lat": 0.0, "lon": -77.00591166666666, "is_reserved": 0, "bike_id": "b7559ae8421a285df47fa73d8d650a9a", "fusion_lon": 0.0, "rental_uris": {"android": "https://dc.lft.to/lastmile_qr_scan", "ios": "https://dc.lft.to/lastmile_qr_scan"}, "name": "b7559ae8421a285df47fa73d8d650a9a", "type": "electric_scooter", "lat": 38.885228, "is_disabled": 0}, {"fusion_lat": 0.0, "lon": -77.026939, "is_reserved": 0, "bike_id": "7645c030b09d7f4f3cea7b269b5aace5", "fusion_lon": 0.0, "rental_uris": {"android": "https://dc.lft.to/lastmile_qr_scan", "ios": "https://dc.lft.to/lastmile_qr_scan"}, "name": "7645c030b09d7f4f3cea7b269b5aace5", "type": "electric_scooter", "lat": 38.90238566666667, "is_disabled": 0}, {"fusion_lat": 0.0, "lon": -77.01746316666667, "is_reserved": 0, "bike_id": "368cbabe50aa443bd4ca588e1fc41c58", "fusion_lon": 0.0, "rental_uris": {"android": "https://dc.lft.to/lastmile_qr_scan", "ios": "https://dc.lft.to/lastmile_qr_scan"}, "name": "368cbabe50aa443bd4ca588e1fc41c58", "type": "electric_scooter", "lat": 38.88339716666667, "is_disabled": 0}, {"fusion_lat": 0.0, "lon": -77.02359516666667, "is_reserved": 0, "bike_id": "86d974abb4f6ef34e102e608fcafcf35", "fusion_lon": 0.0, "rental_uris": {"android": "https://dc.lft.to/lastmile_qr_scan", "ios": "https://dc.lft.to/lastmile_qr_scan"}, "name": "86d974abb4f6ef34e102e608fcafcf35", "type": "electric_scooter", "lat": 38.8922015, "is_disabled": 0}, {"fusion_lat": 0.0, "lon": -77.0380735, "is_reserved": 0, "bike_id": "9cb5eacc6ba2e759739bb7a0e358d28a", "fusion_lon": 0.0, "rental_uris": {"android": "https://dc.lft.to/lastmile_qr_scan", "ios": "https://dc.lft.to/lastmile_qr_scan"}, "name": "9cb5eacc6ba2e759739bb7a0e358d28a", "type": "electric_scooter", "lat": 38.91421533333333, "is_disabled": 0}, {"fusion_lat": 0.0, "lon": -77.01930483333334, "is_reserved": 0, "bike_id": "426a2fcde7e45d48ad6acc60a5d01566", "fusion_lon": 0.0, "rental_uris": {"android": "https://dc.lft.to/lastmile_qr_scan", "ios": "https://dc.lft.to/lastmile_qr_scan"}, "name": "426a2fcde7e45d48ad6acc60a5d01566", "type": "electric_scooter", "lat": 38.9055945, "is_disabled": 0}, {"fusion_lat": 0.0, "lon": -77.025112, "is_reserved": 0, "bike_id": "50b3c4a07e33b81dcacf2700caca122d", "fusion_lon": 0.0, "rental_uris": {"android": "https://dc.lft.to/lastmile_qr_scan", "ios": "https://dc.lft.to/lastmile_qr_scan"}, "name": "50b3c4a07e33b81dcacf2700caca122d", "type": "electric_scooter", "lat": 38.93092566666667, "is_disabled": 0}, {"fusion_lat": 0.0, "lon": -77.036636, "is_reserved": 0, "bike_id": "be07de15597cbe563b45b27e315166d4", "fusion_lon": 0.0, "rental_uris": {"android": "https://dc.lft.to/lastmile_qr_scan", "ios": "https://dc.lft.to/lastmile_qr_scan"}, "name": "be07de15597cbe563b45b27e315166d4", "type": "electric_bike", "lat": 38.923224, "is_disabled": 0}, {"fusion_lat": 0.0, "lon": -76.98510166666667, "is_reserved": 0, "bike_id": "8bb74146bb24db326e68ec61a40a72f6", "fusion_lon": 0.0, "rental_uris": {"android": "https://dc.lft.to/lastmile_qr_scan", "ios": "https://dc.lft.to/lastmile_qr_scan"}, "name": "8bb74146bb24db326e68ec61a40a72f6", "type": "electric_scooter", "lat": 38.8665845, "is_disabled": 0}, {"fusion_lat": 0.0, "lon": -77.05157283333334, "is_reserved": 0, "bike_id": "b0310df06e8865f654ca9beb979f62c9", "fusion_lon": 0.0, "rental_uris": {"android": "https://dc.lft.to/lastmile_qr_scan", "ios": "https://dc.lft.to/lastmile_qr_scan"}, "name": "b0310df06e8865f654ca9beb979f62c9", "type": "electric_scooter", "lat": 38.9052895, "is_disabled": 0}, {"fusion_lat": 0.0, "lon": -76.98554666666666, "is_reserved": 0, "bike_id": "184b11f5f6661712f6c290b2f8e93edd", "fusion_lon": 0.0, "rental_uris": {"android": "https://dc.lft.to/lastmile_qr_scan", "ios": "https://dc.lft.to/lastmile_qr_scan"}, "name": "184b11f5f6661712f6c290b2f8e93edd", "type": "electric_scooter", "lat": 38.91033066666667, "is_disabled": 0}, {"fusion_lat": 0.0, "lon": -77.03965016666666, "is_reserved": 0, "bike_id": "494f90f030300361f121eb88d416970c", "fusion_lon": 0.0, "rental_uris": {"android": "https://dc.lft.to/lastmile_qr_scan", "ios": "https://dc.lft.to/lastmile_qr_scan"}, "name": "494f90f030300361f121eb88d416970c", "type": "electric_scooter", "lat": 38.897191, "is_disabled": 0}, {"fusion_lat": 0.0, "lon": -77.04477316666667, "is_reserved": 0, "bike_id": "a93af72ee90e9911fd257a441f947f69", "fusion_lon": 0.0, "rental_uris": {"android": "https://dc.lft.to/lastmile_qr_scan", "ios": "https://dc.lft.to/lastmile_qr_scan"}, "name": "a93af72ee90e9911fd257a441f947f69", "type": "electric_scooter", "lat": 38.918692666666665, "is_disabled": 0}, {"fusion_lat": 0.0, "lon": -77.03427716666667, "is_reserved": 0, "bike_id": "116cd88be7e166ef64f8b94a00549b93", "fusion_lon": 0.0, "rental_uris": {"android": "https://dc.lft.to/lastmile_qr_scan", "ios": "https://dc.lft.to/lastmile_qr_scan"}, "name": "116cd88be7e166ef64f8b94a00549b93", "type": "electric_scooter", "lat": 38.9079835, "is_disabled": 0}, {"fusion_lat": 0.0, "lon": -76.92371366666667, "is_reserved": 0, "bike_id": "3f710ddf8aa97b40bbbf07b32460f2fd", "fusion_lon": 0.0, "rental_uris": {"android": "https://dc.lft.to/lastmile_qr_scan", "ios": "https://dc.lft.to/lastmile_qr_scan"}, "name": "3f710ddf8aa97b40bbbf07b32460f2fd", "type": "electric_bike", "lat": 38.8837405, "is_disabled": 0}, {"fusion_lat": 0.0, "lon": -76.93197583333334, "is_reserved": 0, "bike_id": "be99d39533e827ab6c0ea10a29ec99bb", "fusion_lon": 0.0, "rental_uris": {"android": "https://dc.lft.to/lastmile_qr_scan", "ios": "https://dc.lft.to/lastmile_qr_scan"}, "name": "be99d39533e827ab6c0ea10a29ec99bb", "type": "electric_scooter", "lat": 38.89880766666667, "is_disabled": 0}, {"fusion_lat": 0.0, "lon": -76.93539866666667, "is_reserved": 0, "bike_id": "b0fc9daf03435f4987d8dc3e70a828f1", "fusion_lon": 0.0, "rental_uris": {"android": "https://dc.lft.to/lastmile_qr_scan", "ios": "https://dc.lft.to/lastmile_qr_scan"}, "name": "b0fc9daf03435f4987d8dc3e70a828f1", "type": "electric_bike", "lat": 38.95561516666667, "is_disabled": 0}, {"fusion_lat": 0.0, "lon": -77.01429816666666, "is_reserved": 0, "bike_id": "4cb5df6108c6d10352f8506d2dd124da", "fusion_lon": 0.0, "rental_uris": {"android": "https://dc.lft.to/lastmile_qr_scan", "ios": "https://dc.lft.to/lastmile_qr_scan"}, "name": "4cb5df6108c6d10352f8506d2dd124da", "type": "electric_bike", "lat": 38.8767425, "is_disabled": 0}, {"fusion_lat": 0.0, "lon": -77.05740416666667, "is_reserved": 0, "bike_id": "340888213d2a7591eb5136916fb0c3e7", "fusion_lon": 0.0, "rental_uris": {"android": "https://dc.lft.to/lastmile_qr_scan", "ios": "https://dc.lft.to/lastmile_qr_scan"}, "name": "340888213d2a7591eb5136916fb0c3e7", "type": "electric_scooter", "lat": 38.933898166666665, "is_disabled": 0},