{"data": {"bikes": [{"is_disabled": 0, "is_reserved": 0, "fusion_lat": 0.0, "lat": 38.83492616666667, "fusion_lon": 0.0, "rental_uris": {"ios": "https://dc.lft.to/lastmile_qr_scan", "android": "https://dc.lft.to/lastmile_qr_scan"}, "lon": -77.00430216666666, "bike_id": "8eae482c6f7155cfdb38b068528b3ad1", "type": "electric_bike", "name": "8eae482c6f7155cfdb38b068528b3ad1"}, {"is_disabled": 0, "is_reserved": 0, "fusion_lat": 0.0, "lat": 38.9058595, "fusion_lon": 0.0, "rental_uris": {"ios": "https://dc.lft.to/lastmile_qr_scan", "android": "https://dc.lft.to/lastmile_qr_scan"}, "lon": -76.98893716666667, "bike_id": "13c94b3125548835e0ff1812103d4a7c", "type": "electric_scooter", "name": "13c94b3125548835e0ff1812103d4a7c"}, {"is_disabled": 0, "is_reserved": 0, "fusion_lat": 0.0, "lat": 38.8743255, "fusion_lon": 0.0, "rental_uris": {"ios": "https://dc.lft.to/lastmile_qr_scan", "android": "https://dc.lft.to/lastmile_qr_scan"}, "lon": -77.00038216666667, "bike_id": "090d705ec7890ed0dfd62aadd7efbe5f", "type": "electric_scooter", "name": "090d705ec7890ed0dfd62aadd7efbe5f"}, {"is_disabled": 0, "is_reserved": 0, "fusion_lat": 0.0, "lat": 38.90846916666667, "fusion_lon": 0.0, "rental_uris": {"ios": "https://dc.lft.to/lastmile_qr_scan", "android": "https://dc.lft.to/lastmile_qr_scan"}, "lon": -76.99794766666666, "bike_id": "02f536d6517ade3f012123ded5fc55fe", "type": "electric_scooter", "name": "02f536d6517ade3f012123ded5fc55fe"}, {"is_disabled": 0, "is_reserved": 0, "fusion_lat": 0.0, "lat": 39.02923633333333, "fusion_lon": 0.0, "rental_uris": {"ios": "https://dc.lft.to/lastmile_qr_scan", "android": "https://dc.lft.to/lastmile_qr_scan"}, "lon": -77.01344616666667, "bike_id": "76008d05a3f402971cc92bf5f2a6ae7b", "type": "electric_bike", "name": "76008d05a3f402971cc92bf5f2a6ae7b"}, {"is_disabled": 0, "is_reserved": 0, "fusion_lat": 0.0, "lat": 38.84625183333333, "fusion_lon": 0.0, "rental_uris": {"ios": "https://dc.lft.to/lastmile_qr_scan", "android": "https://dc.lft.to/lastmile_qr_scan"}, "lon": -76.96903916666666, "bike_id": "4f366e82e3f6fa8b84bcb010db3086c3", "type": "electric_bike", "name": "4f366e82e3f6fa8b84bcb010db3086c3"}, {"is_disabled": 0, "is_reserved": 0, "fusion_lat": 0.0, "lat": 38.88717533333333, "fusion_lon": 0.0, "rental_uris": {"ios": "https://dc.lft.to/lastmile_qr_scan", "android": "https://dc.lft.to/lastmile_qr_scan"}, "lon": -76.99603866666666, "bike_id": "c3a64eadfbfe32a0cff2973ab694f356", "type": "electric_scooter", "name": "c3a64eadfbfe32a0cff2973ab694f356"}, {"is_disabled": 0, "is_reserved": 0, "fusion_lat": 0.0, "lat": 38.922023333333335, "fusion_lon": 0.0, "rental_uris": {"ios": "https://dc.lft.to/lastmile_qr_scan", "android": "https://dc.lft.to/lastmile_qr_scan"}, "lon": -77.04243, "bike_id": "25d1a4f53f28228107b7b5850d1a5c6f", "type": "electric_scooter", "name": "25d1a4f53f28228107b7b5850d1a5c6f"}, {"is_disabled": 0, "is_reserved": 0, "fusion_lat": 0.0, "lat": 38.9086125, "fusion_lon": 0.0, "rental_uris": {"ios": "https://dc.lft.to/lastmile_qr_scan", "android": "https://dc.lft.to/lastmile_qr_scan"}, "lon": -77.0473235, "bike_id": "f7b0fd1a083f86da483dcb7a60b7b37b", "type": "electric_scooter", "name": "f7b0fd1a083f86da483dcb7a60b7b37b"}, {"is_disabled": 0, "is_reserved": 0, "fusion_lat": 0.0, "lat": 38.9085465, "fusion_lon": 0.0, "rental_uris": {"ios": "https://dc.lft.to/lastmile_qr_scan", "android": "https://dc.lft.to/lastmile_qr_scan"}, "lon": -77.048208, "bike_id": "fdfc29507bbc25609e61af7913ed482a", "type": "electric_scooter", "name": "fdfc29507bbc25609e61af7913ed482a"}, {"is_disabled": 0, "is_reserved": 0, "fusion_lat": 0.0, "lat": 38.974721333333335, "fusion_lon": 0.0, "rental_uris": {"ios": "https://dc.lft.to/lastmile_qr_scan", "android": "https://dc.lft.to/lastmile_qr_scan"}, "lon": -76.98662816666666, "bike_id": "685ed32821aaf024848249f8ff8227e4", "type": "electric_bike", "name": "685ed32821aaf024848249f8ff8227e4"}, {"is_disabled": 0, "is_reserved": 0, "fusion_lat": 0.0, "lat": 38.8983775, "fusion_lon": 0.0, "rental_uris": {"ios": "https://dc.lft.to/lastmile_qr_scan", "android": "https://dc.lft.to/lastmile_qr_scan"}, "lon": -77.02975483333333, "bike_id": "82499360bc54d35232e50962d7b747fc", "type": "electric_scooter", "name": "82499360bc54d35232e50962d7b747fc"}, {"is_disabled": 0, "is_reserved": 0, "fusion_lat": 0.0, "lat": 38.933944, "fusion_lon": 0.0, "rental_uris": {"ios": "https://dc.lft.to/lastmile_qr_scan", "android": "https://dc.lft.to/lastmile_qr_scan"}, "lon": -77.03532683333333, "bike_id": "799a98f45d276e7fe14efcb6a55b62e9", "type": "electric_bike", "name": "799a98f45d276e7fe14efcb6a55b62e9"}, {"is_disabled": 0, "is_reserved": 0, "fusion_lat": 0.0, "lat": 38.907543, "fusion_lon": 0.0, "rental_uris": {"ios": "https://dc.lft.to/lastmile_qr_scan", "android": "https://dc.lft.to/lastmile_qr_scan"}, "lon": -77.04206083333334, "bike_id": "739857fc68b664f5346fcd7e6c4f1972", "type": "electric_scooter", "name": "739857fc68b664f5346fcd7e6c4f1972"}, {"is_disabled": 0, "is_reserved": 0, "fusion_lat": 0.0, "lat": 38.949208666666664, "fusion_lon": 0.0, "rental_uris": {"ios": "https://dc.lft.to/lastmile_qr_scan", "android": "https://dc.lft.to/lastmile_qr_scan"}, "lon": -77.0231085, "bike_id": "3ee5482b355615f00bda9f4932bb3138", "type": "electric_scooter", "name": "3ee5482b355615f00bda9f4932bb3138"}, {"is_disabled": 0, "is_reserved": 0, "fusion_lat": 0.0, "lat": 38.904905666666664, "fusion_lon": 0.0, "rental_uris": {"ios": "https://dc.lft.to/lastmile_qr_scan", "android": "https://dc.lft.to/lastmile_qr_scan"}, "lon": -76.9495175, "bike_id": "eb6509b8da0c85ec1d57fcf0082eedf9", "type": "electric_scooter", "name": "eb6509b8da0c85ec1d57fcf0082eedf9"}, {"is_disabled": 0, "is_reserved": 0, "fusion_lat": 0.0, "lat": 38.93900716666667, "fusion_lon": 0.0, "rental_uris": {"ios": "https://dc.lft.to/lastmile_qr_scan", "android": "https://dc.lft.to/lastmile_qr_scan"}, "lon": -77.07756433333333, "bike_id": "cc17bbbec93e8c02a9293ec17f5b742b", "type": "electric_scooter", "name": "cc17bbbec93e8c02a9293ec17f5b742b"}, {"is_disabled": 0, "is_reserved": 0, "fusion_lat": 0.0, "lat": 38.807696666666665, "fusion_lon": 0.0, "rental_uris": {"ios": "https://dc.lft.to/lastmile_qr_scan", "android": "https://dc.lft.to/lastmile_qr_scan"}, "lon": -77.05741633333334, "bike_id": "363e986ff5a552879753c7a468fb5913", "type": "electric_bike", "name": "363e986ff5a552879753c7a468fb5913"}, {"is_disabled": 0, "is_reserved": 0, "fusion_lat": 0.0, "lat": 38.896139, "fusion_lon": 0.0, "rental_uris": {"ios": "https://dc.lft.to/lastmile_qr_scan", "android": "https://dc.lft.to/lastmile_qr_scan"}, "lon": -77.0453715, "bike_id": "dc1b7684b16c5c37c95db4786409834b", "type": "electric_scooter", "name": "dc1b7684b16c5c37c95db4786409834b"}, {"is_disabled": 0, "is_reserved": 0, "fusion_lat": 0.0, "lat": 38.86684266666666, "fusion_lon": 0.0, "rental_uris": {"ios": "https://dc.lft.to/lastmile_qr_scan", "android": "https://dc.lft.to/lastmile_qr_scan"}, "lon": -76.94854166666667, "bike_id": "95b11edb8fc035c503fd6d4c269631e1", "type": "electric_scooter", "name": "95b11edb8fc035c503fd6d4c269631e1"}, {"is_disabled": 0, "is_reserved": 0, "fusion_lat": 0.0, "lat": 38.9243565, "fusion_lon": 0.0, "rental_uris": {"ios": "https://dc.lft.to/lastmile_qr_scan", "android": "https://dc.lft.to/lastmile_qr_scan"}, "lon": -77.03394566666667, "bike_id": "91853d4bc1bce2d3ed35ae35208b87e5", "type": "electric_scooter", "name": "91853d4bc1bce2d3ed35ae35208b87e5"}, {"is_disabled": 0, "is_reserved": 0, "fusion_lat": 0.0, "lat": 38.897375, "fusion_lon": 0.0, "rental_uris": {"ios": "https://dc.lft.to/lastmile_qr_scan", "android": "https://dc.lft.to/lastmile_qr_scan"}, "lon": -77.021348, "bike_id": "0c6b29764fcbcf242e1f945d6fa03c94", "type": "electric_scooter", "name": "0c6b29764fcbcf242e1f945d6fa03c94"}, {"is_disabled": 0, "is_reserved": 0, "fusion_lat": 0.0, "lat": 38.857173833333334, "fusion_lon": 0.0, "rental_uris": {"ios": "https://dc.lft.to/lastmile_qr_scan", "android": "https://dc.lft.to/lastmile_qr_scan"}, "lon": -76.9809265, "bike_id": "732741e9f89c82d0897e4cdd03f872be", "type": "electric_scooter", "name": "732741e9f89c82d0897e4cdd03f872be"}, {"is_disabled": 0, "is_reserved": 0, "fusion_lat": 0.0, "lat": 38.87170866666666, "fusion_lon": 0.0, "rental_uris": {"ios": "https://dc.lft.to/lastmile_qr_scan", "android": "https://dc.lft.to/lastmile_qr_scan"}, "lon": -77.00622566666667, "bike_id": "ec17bc347a448c822ca2c0f927f95e83", "type": "electric_scooter", "name": "ec17bc347a448c822ca2c0f927f95e83"}, {"is_disabled": 0, "is_reserved": 0, "fusion_lat": 0.0, "lat": 38.88475916666667, "fusion_lon": 0.0, "rental_uris": {"ios": "https://dc.lft.to/lastmile_qr_scan", "android": "https://dc.lft.to/lastmile_qr_scan"}, "lon": -77.02636316666667, "bike_id": "d554fda1428ee1900518898e17fdd308", "type": "electric_scooter", "name": "d554fda1428ee1900518898e17fdd308"}, {"is_disabled": 0, "is_reserved": 0, "fusion_lat": 0.0, "lat": 38.90523183333333, "fusion_lon": 0.0, "rental_uris": {"ios": "https://dc.lft.to/lastmile_qr_scan", "android": "https://dc.lft.to/lastmile_qr_scan"}, "lon": -77.00682816666666, "bike_id": "1293852cd2c571d9e9c8f39c34740f50", "type": "electric_scooter", "name": "1293852cd2c571d9e9c8f39c34740f50"}, {"is_disabled": 0, "is_reserved": 0, "fusion_lat": 0.0, "lat": 38.90258716666666, "fusion_lon": 0.0, "rental_uris": {"ios": "https://dc.lft.to/lastmile_qr_scan", "android": "https://dc.lft.to/lastmile_qr_scan"}, "lon": -77.01762166666667, "bike_id": "675f3c8abdda94da19548d10d02ea98e", "type": "electric_scooter", "name": "675f3c8abdda94da19548d10d02ea98e"}, {"is_disabled": 0, "is_reserved": 0, "fusion_lat": 0.0, "lat": 38.90959566666667, "fusion_lon": 0.0, "rental_uris": {"ios": "https://dc.lft.to/lastmile_qr_scan", "android": "https://dc.lft.to/lastmile_qr_scan"}, "lon": -77.02274, "bike_id": "851ccdeae5a04223c67dea12b12672ab", "type": "electric_scooter", "name": "851ccdeae5a04223c67dea12b12672ab"}, {"is_disabled": 0, "is_reserved": 0, "fusion_lat": 0.0, "lat": 38.881313166666665, "fusion_lon": 0.0, "rental_uris": {"ios": "https://dc.lft.to/lastmile_qr_scan", "android": "https://dc.lft.to/lastmile_qr_scan"}, "lon": -77.0226715, "bike_id": "29e2112ad3f63611231a6b52d325a458", "type": "electric_scooter", "name": "29e2112ad3f63611231a6b52d325a458"}, {"is_disabled": 0, "is_reserved": 0, "fusion_lat": 0.0, "lat": 38.89982283333333, "fusion_lon": 0.0, "rental_uris": {"ios": "https://dc.lft.to/lastmile_qr_scan", "android": "https://dc.lft.to/lastmile_qr_scan"}, "lon": -77.02940116666667, "bike_id": "9b98f58116b4e0cefe38aa481ad3d2ef", "type": "electric_scooter", "name": "9b98f58116b4e0cefe38aa481ad3d2ef"}, {"is_disabled": 0, "is_reserved": 0, "fusion_lat": 0.0, "lat": 38.882999833333336, "fusion_lon": 0.0, "rental_uris": {"ios": "https://dc.lft.to/lastmile_qr_scan", "android": "https://dc.lft.to/lastmile_qr_scan"}, "lon": -76.94851116666666, "bike_id": "534defec75e563a69c6f35ac5dcb213b", "type": "electric_scooter", "name": "534defec75e563a69c6f35ac5dcb213b"}, {"is_disabled": 0, "is_reserved": 0, "fusion_lat": 0.0, "lat": 38.922161, "fusion_lon": 0.0, "rental_uris": {"ios": "https://dc.lft.to/lastmile_qr_scan", "android": "https://dc.lft.to/lastmile_qr_scan"}, "lon": -77.04236666666667, "bike_id": "f67897b768fb562632c0dcc23edb3392", "type": "electric_scooter", "name": "f67897b768fb562632c0dcc23edb3392"}, {"is_disabled": 0, "is_reserved": 0, "fusion_lat": 0.0, "lat": 38.89247316666667, "fusion_lon": 0.0, "rental_uris": {"ios": "https://dc.lft.to/lastmile_qr_scan", "android": "https://dc.lft.to/lastmile_qr_scan"}, "lon": -76.98537366666666, "bike_id": "7b4cf99547a1ee9b4d7e9735fb0d4c98", "type": "electric_bike", "name": "7b4cf99547a1ee9b4d7e9735fb0d4c98"}, {"is_disabled": 0, "is_reserved": 0, "fusion_lat": 0.0, "lat": 38.91193333333333, "fusion_lon": 0.0, "rental_uris": {"ios": "https://dc.lft.to/lastmile_qr_scan", "android": "https://dc.lft.to/lastmile_qr_scan"}, "lon": -76.98770933333333, "bike_id": "5c79cafeb4e507905c5e50c843c23470", "type": "electric_scooter", "name": "5c79cafeb4e507905c5e50c843c23470"}, {"is_disabled": 0, "is_reserved": 0, "fusion_lat": 0.0, "lat": 38.970317, "fusion_lon": 0.0, "rental_uris": {"ios": "https://dc.lft.to/lastmile_qr_scan", "android": "https://dc.lft.to/lastmile_qr_scan"}, "lon": -77.0223535, "bike_id": "3ed8ddaed74f54b07ba926ea5b7b881f", "type": "electric_bike", "name": "3ed8ddaed74f54b07ba926ea5b7b881f"}, {"is_disabled": 0, "is_reserved": 0, "fusion_lat": 0.0, "lat": 38.91615866666667, "fusion_lon": 0.0, "rental_uris": {"ios": "https://dc.lft.to/lastmile_qr_scan", "android": "https://dc.lft.to/lastmile_qr_scan"}, "lon": -77.00288566666667, "bike_id": "8aecb93f1bdf1880e9b1a1d68299b79a", "type": "electric_bike", "name": "8aecb93f1bdf1880e9b1a1d68299b79a"}, {"is_disabled": 0, "is_reserved": 0, "fusion_lat": 0.0, "lat": 38.8419515, "fusion_lon": 0.0, "rental_uris": {"ios": "https://dc.lft.to/lastmile_qr_scan", "android": "https://dc.lft.to/lastmile_qr_scan"}, "lon": -77.07752133333334, "bike_id": "c32d1b48a717be3ec82ecb4a4db2ab19", "type": "electric_bike", "name": "c32d1b48a717be3ec82ecb4a4db2ab19"}, {"is_disabled": 0, "is_reserved": 0, "fusion_lat": 0.0, "lat": 38.921485833333335, "fusion_lon": 0.0, "rental_uris": {"ios": "https://dc.lft.to/lastmile_qr_scan", "android": "https://dc.lft.to/lastmile_qr_scan"}, "lon": -77.03861833333333, "bike_id": "094c2a9df5390a8ac7409ef5a09208a6", "type": "electric_scooter", "name": "094c2a9df5390a8ac7409ef5a09208a6"}, {"is_disabled": 0, "is_reserved": 0, "fusion_lat": 0.0, "lat": 38.92834033333333, "fusion_lon": 0.0, "rental_uris": {"ios": "https://dc.lft.to/lastmile_qr_scan", "android": "https://dc.lft.to/lastmile_qr_scan"}, "lon": -77.01398016666667, "bike_id": "47ae41776ed5de245b1704152fafaf05", "type": "electric_scooter", "name": "47ae41776ed5de245b1704152fafaf05"}, {"is_disabled": 0, "is_reserved": 0, "fusion_lat": 0.0, "lat": 38.90522566666667, "fusion_lon": 0.0, "rental_uris": {"ios": "https://dc.lft.to/lastmile_qr_scan", "android": "https://dc.lft.to/lastmile_qr_scan"}, "lon": -77.066062, "bike_id": "c5a58384a219c4e329b7fd4d51e71416", "type": "electric_scooter", "name": "c5a58384a219c4e329b7fd4d51e71416"}, {"is_disabled": 0, "is_reserved": 0, "fusion_lat": 0.0, "lat": 38.93286833333333, "fusion_lon": 0.0, "rental_uris": {"ios": "https://dc.lft.to/lastmile_qr_scan", "android": "https://dc.lft.to/lastmile_qr_scan"}, "lon": -77.03617866666667, "bike_id": "ff76e702e8378277c4044c2d14684557", "type": "electric_scooter", "name": "ff76e702e8378277c4044c2d14684557"}, {"is_disabled": 0, "is_reserved": 0, "fusion_lat": 0.0, "lat": 38.95329016666667, "fusion_lon": 0.0, "rental_uris": {"ios": "https://dc.lft.to/lastmile_qr_scan", "android": "https://dc.lft.to/lastmile_qr_scan"}, "lon": -76.98252600000001, "bike_id": "bc2778e9a69add27110cabfb9af9c0bb", "type": "electric_bike", "name": "bc2778e9a69add27110cabfb9af9c0bb"}, {"is_disabled": 0, "is_reserved": 0, "fusion_lat": 0.0, "lat": 38.91801016666667, "fusion_lon": 0.0, "rental_uris": {"ios": "https://dc.lft.to/lastmile_qr_scan", "android": "https://dc.lft.to/lastmile_qr_scan"}, "lon": -77.03432383333333, "bike_id": "6ceef15a9a3a3f47a64fb0ca3f020849", "type": "electric_scooter", "name": "6ceef15a9a3a3f47a64fb0ca3f020849"}, {"is_disabled": 0, "is_reserved": 0, "fusion_lat": 0.0, "lat": 38.916745, "fusion_lon": 0.0, "rental_uris": {"ios": "https://dc.lft.to/lastmile_qr_scan", "android": "https://dc.lft.to/lastmile_qr_scan"}, "lon": -77.03637633333334, "bike_id": "96aabdb4906e7e69f99939c7d87de806", "type": "electric_scooter", "name": "96aabdb4906e7e69f99939c7d87de806"}, {"is_disabled": 0, "is_reserved": 0, "fusion_lat": 0.0, "lat": 38.887667, "fusion_lon": 0.0, "rental_uris": {"ios": "https://dc.lft.to/lastmile_qr_scan", "android": "https://dc.lft.to/lastmile_qr_scan"}, "lon": -77.01462683333334, "bike_id": "e13b128394afd27fb384da25b33aef91", "type": "electric_scooter", "name": "e13b128394afd27fb384da25b33aef91"}, {"is_disabled": 0, "is_reserved": 0, "fusion_lat": 0.0, "lat": 38.89754216666667, "fusion_lon": 0.0, "rental_uris": {"ios": "https://dc.lft.to/lastmile_qr_scan", "android": "https://dc.lft.to/lastmile_qr_scan"}, "lon": -77.05483866666667, "bike_id": "81f2690576e79e9904128d6198f2eee6", "type": "electric_scooter", "name": "81f2690576e79e9904128d6198f2eee6"}, {"is_disabled": 0, "is_reserved": 0, "fusion_lat": 0.0, "lat": 38.917894833333335, "fusion_lon": 0.0, "rental_uris": {"ios": "https://dc.lft.to/lastmile_qr_scan", "android": "https://dc.lft.to/lastmile_qr_scan"}, "lon": -77.03634983333333, "bike_id": "7fc349f7fff243b5e121511e3614b7d7", "type": "electric_scooter", "name": "7fc349f7fff243b5e121511e3614b7d7"}, {"is_disabled": 0, "is_reserved": 0, "fusion_lat": 0.0, "lat": 38.92091216666667, "fusion_lon": 0.0, "rental_uris": {"ios": "https://dc.lft.to/lastmile_qr_scan", "android": "https://dc.lft.to/lastmile_qr_scan"}, "lon": -77.04106183333333, "bike_id": "4591d96b8e464e927860a7850753f1bc", "type": "electric_scooter", "name": "4591d96b8e464e927860a7850753f1bc"}, {"is_disabled": 0, "is_reserved": 0, "fusion_lat": 0.0, "lat": 38.859322, "fusion_lon": 0.0, "rental_uris": {"ios": "https://dc.lft.to/lastmile_qr_scan", "android": "https://dc.lft.to/lastmile_qr_scan"}, "lon": -76.98669733333334, "bike_id": "7aaa652e47d828bf0163958504fe238e", "type": "electric_scooter", "name": "7aaa652e47d828bf0163958504fe238e"}, {"is_disabled": 0, "is_reserved": 0, "fusion_lat": 0.0, "lat": 38.89686966666667, "fusion_lon": 0.0, "rental_uris": {"ios": "https://dc.lft.to/lastmile_qr_scan", "android": "https://dc.lft.to/lastmile_qr_scan"}, "lon": -76.93905383333333, "bike_id": "2ab01f2fe54de7e54ca90610c694428b", "type": "electric_scooter", "name": "2ab01f2fe54de7e54ca90610c694428b"}, {"is_disabled": 0, "is_reserved": 0, "fusion_lat": 0.0, "lat": 38.91805633333333, "fusion_lon": 0.0, "rental_uris": {"ios": "https://dc.lft.to/lastmile_qr_scan", "android": "https://dc.lft.to/lastmile_qr_scan"}, "lon": -77.03709333333333, "bike_id": "415b6269d3934611636f92aa3751f4ec", "type": "electric_scooter", "name": "415b6269d3934611636f92aa3751f4ec"}, {"is_disabled": 0, "is_reserved": 0, "fusion_lat": 0.0, "lat": 38.918368, "fusion_lon": 0.0, "rental_uris": {"ios": "https://dc.lft.to/lastmile_qr_scan", "android": "https://dc.lft.to/lastmile_qr_scan"}, "lon": -77.03911233333334, "bike_id": "1b288ce3b7282e2cf96158c8d442c575", "type": "electric_scooter", "name": "1b288ce3b7282e2cf96158c8d442c575"}, {"is_disabled": 0, "is_reserved": 0, "fusion_lat": 0.0, "lat": 38.8243045, "fusion_lon": 0.0, "rental_uris": {"ios": "https://dc.lft.to/lastmile_qr_scan", "android": "https://dc.lft.to/lastmile_qr_scan"}, "lon": -77.12038166666666, "bike_id": "a647e1b9779772409be6ac81c22d9d91", "type": "electric_bike", "name": "a647e1b9779772409be6ac81c22d9d91"}, {"is_disabled": 0, "is_reserved": 0, "fusion_lat": 0.0, "lat": 38.87283716666666, "fusion_lon": 0.0, "rental_uris": {"ios": "https://dc.lft.to/lastmile_qr_scan", "android": "https://dc.lft.to/lastmile_qr_scan"}, "lon": -77.0098105, "bike_id": "c3ab1c7f1240c4ed18a41b0be5ed6768", "type": "electric_scooter", "name": "c3ab1c7f1240c4ed18a41b0be5ed6768"}, {"is_disabled": 0, "is_reserved": 0, "fusion_lat": 0.0, "lat": 38.92173716666667, "fusion_lon": 0.0, "rental_uris": {"ios": "https://dc.lft.to/lastmile_qr_scan", "android": "https://dc.lft.to/lastmile_qr_scan"}, "lon": -77.0422875, "bike_id": "154084d2bf45ccf3d33ea8cca50d2900", "type": "electric_scooter", "name": "154084d2bf45ccf3d33ea8cca50d2900"}, {"is_disabled": 0, "is_reserved": 0, "fusion_lat": 0.0, "lat": 38.865537, "fusion_lon": 0.0, "rental_uris": {"ios": "https://dc.lft.to/lastmile_qr_scan", "android": "https://dc.lft.to/lastmile_qr_scan"}, "lon": -76.974748, "bike_id": "8033991156bccb9d4603427c4bb3b746", "type": "electric_bike", "name": "8033991156bccb9d4603427c4bb3b746"}, {"is_disabled": 0, "is_reserved": 0, "fusion_lat": 0.0, "lat": 38.8563815, "fusion_lon": 0.0, "rental_uris": {"ios": "https://dc.lft.to/lastmile_qr_scan", "android": "https://dc.lft.to/lastmile_qr_scan"}, "lon": -77.0683315, "bike_id": "9cb9366a8f739b86b272bfcdcff272ff", "type": "electric_bike", "name": "9cb9366a8f739b86b272bfcdcff272ff"}, {"is_disabled": 0, "is_reserved": 0, "fusion_lat": 0.0, "lat": 38.90061983333333, "fusion_lon": 0.0, "rental_uris": {"ios": "https://dc.lft.to/lastmile_qr_scan", "android": "https://dc.lft.to/lastmile_qr_scan"}, "lon": -77.0382215, "bike_id": "2cbdbcd1f6b91459b3a8769b88e88bbb", "type": "electric_scooter", "name": "2cbdbcd1f6b91459b3a8769b88e88bbb"}, {"is_disabled": 0, "is_reserved": 0, "fusion_lat": 0.0, "lat": 38.88216466666667, "fusion_lon": 0.0, "rental_uris": {"ios": "https://dc.lft.to/lastmile_qr_scan", "android": "https://dc.lft.to/lastmile_qr_scan"}, "lon": -76.997377, "bike_id": "d9c40fe6506c6e089f24b08fa12f5c7b", "type": "electric_scooter", "name": "d9c40fe6506c6e089f24b08fa12f5c7b"}, {"is_disabled": 0, "is_reserved": 0, "fusion_lat": 0.0, "lat": 38.90114416666667, "fusion_lon": 0.0, "rental_uris": {"ios": "https://dc.lft.to/lastmile_qr_scan", "android": "https://dc.lft.to/lastmile_qr_scan"}, "lon": -77.01806433333333, "bike_id": "cfdf31c03e32d7453776c3fe8ffb9c92", "type": "electric_scooter", "name": "cfdf31c03e32d7453776c3fe8ffb9c92"}, {"is_disabled": 0, "is_reserved": 0, "fusion_lat": 0.0, "lat": 38.9205955, "fusion_lon": 0.0, "rental_uris": {"ios": "https://dc.lft.to/lastmile_qr_scan", "android": "https://dc.lft.to/lastmile_qr_scan"}, "lon": -77.024017, "bike_id": "e2c62e48569f43aedd74a01e35b83440", "type": "electric_scooter", "name": "e2c62e48569f43aedd74a01e35b83440"}, {"is_disabled": 0, "is_reserved": 0, "fusion_lat": 0.0, "lat": 38.911081333333335, "fusion_lon": 0.0, "rental_uris": {"ios": "https://dc.lft.to/lastmile_qr_scan", "android": "https://dc.lft.to/lastmile_qr_scan"}, "lon": -77.03826866666667, "bike_id": "7484260d41d2fa0f75bdc2311270c87f", "type": "electric_scooter", "name": "7484260d41d2fa0f75bdc2311270c87f"}, {"is_disabled": 0, "is_reserved": 0, "fusion_lat": 0.0, "lat": 38.90626283333334, "fusion_lon": 0.0, "rental_uris": {"ios": "https://dc.lft.to/lastmile_qr_scan", "android": "https://dc.lft.to/lastmile_qr_scan"}, "lon": -77.0416555, "bike_id": "279013147fb134fb2cdc2dfde3ece346", "type": "electric_scooter", "name": "279013147fb134fb2cdc2dfde3ece346"}, {"is_disabled": 0, "is_reserved": 0, "fusion_lat": 0.0, "lat": 38.909305, "fusion_lon": 0.0, "rental_uris": {"ios": "https://dc.lft.to/lastmile_qr_scan", "android": "https://dc.lft.to/lastmile_qr_scan"}, "lon": -76.99903966666666, "bike_id": "67deb025f1f578acf6df8a04d5807072", "type": "electric_scooter", "name": "67deb025f1f578acf6df8a04d5807072"}, {"is_disabled": 0, "is_reserved": 0, "fusion_lat": 0.0, "lat": 38.90259116666667, "fusion_lon": 0.0, "rental_uris": {"ios": "https://dc.lft.to/lastmile_qr_scan", "android": "https://dc.lft.to/lastmile_qr_scan"}, "lon": -77.03071566666667, "bike_id": "6eeeb286fdf0401d70f8a05bdad755f8", "type": "electric_scooter", "name": "6eeeb286fdf0401d70f8a05bdad755f8"}, {"is_disabled": 0, "is_reserved": 0, "fusion_lat": 0.0, "lat": 38.89174516666667, "fusion_lon": 0.0, "rental_uris": {"ios": "https://dc.lft.to/lastmile_qr_scan", "android": "https://dc.lft.to/lastmile_qr_scan"}, "lon": -77.01546433333333, "bike_id": "82a90c4cef3033a63faec9b8102bbc88", "type": "electric_scooter", "name": "82a90c4cef3033a63faec9b8102bbc88"}, {"is_disabled": 0, "is_reserved": 0, "fusion_lat": 0.0, "lat": 38.92568216666667, "fusion_lon": 0.0, "rental_uris": {"ios": "https://dc.lft.to/lastmile_qr_scan", "android": "https://dc.lft.to/lastmile_qr_scan"}, "lon": -77.03136433333333, "bike_id": "78435128fc664092b9242ba7f133d985", "type": "electric_scooter", "name": "78435128fc664092b9242ba7f133d985"}, {"is_disabled": 0, "is_reserved": 0, "fusion_lat": 0.0, "lat": 38.9097895, "fusion_lon": 0.0, "rental_uris": {"ios": "https://dc.lft.to/lastmile_qr_scan", "android": "https://dc.lft.to/lastmile_qr_scan"}, "lon": -77.031764, "bike_id": "3f9fe2b29dd7e6e002749995f9094cf7", "type": "electric_scooter", "name": "3f9fe2b29dd7e6e002749995f9094cf7"}, {"is_disabled": 0, "is_reserved": 0, "fusion_lat": 0.0, "lat": 38.918142, "fusion_lon": 0.0, "rental_uris": {"ios": "https://dc.lft.to/lastmile_qr_scan", "android": "https://dc.lft.to/lastmile_qr_scan"}, "lon": -77.02474366666667, "bike_id": "e2511707f75f30562715142a597fc595", "type": "electric_scooter", "name": "e2511707f75f30562715142a597fc595"}, {"is_disabled": 0, "is_reserved": 0, "fusion_lat": 0.0, "lat": 38.89167966666667, "fusion_lon": 0.0, "rental_uris": {"ios": "https://dc.lft.to/lastmile_qr_scan", "android": "https://dc.lft.to/lastmile_qr_scan"}, "lon": -77.01558283333334, "bike_id": "cbbbcaa6dbbeacec5829d1f669a7f61c", "type": "electric_scooter", "name": "cbbbcaa6dbbeacec5829d1f669a7f61c"}, {"is_disabled": 0, "is_reserved": 0, "fusion_lat": 0.0, "lat": 38.92050166666667, "fusion_lon": 0.0, "rental_uris": {"ios": "https://dc.lft.to/lastmile_qr_scan", "android": "https://dc.lft.to/lastmile_qr_scan"}, "lon": -77.03329783333334, "bike_id": "8f2b66ea312ea3d99b5d5032d6161431", "type": "electric_scooter", "name": "8f2b66ea312ea3d99b5d5032d6161431"}, {"is_disabled": 0, "is_reserved": 0, "fusion_lat": 0.0, "lat": 38.912848, "fusion_lon": 0.0, "rental_uris": {"ios": "https://dc.lft.to/lastmile_qr_scan", "android": "https://dc.lft.to/lastmile_qr_scan"}, "lon": -77.02303, "bike_id": "657224a64200be21d2ea5816da5f5f9b", "type": "electric_scooter", "name": "657224a64200be21d2ea5816da5f5f9b"}, {"is_disabled": 0, "is_reserved": 0, "fusion_lat": 0.0, "lat": 38.9195905, "fusion_lon": 0.0, "rental_uris": {"ios": "https://dc.lft.to/lastmile_qr_scan", "android": "https://dc.lft.to/lastmile_qr_scan"}, "lon": -77.04242166666667, "bike_id": "ba9b5a8eac8d2876505c7f314fceec33", "type": "electric_scooter", "name": "ba9b5a8eac8d2876505c7f314fceec33"}, {"is_disabled": 0, "is_reserved": 0, "fusion_lat": 0.0, "lat": 38.911092333333336, "fusion_lon": 0.0, "rental_uris": {"ios": "https://dc.lft.to/lastmile_qr_scan", "android": "https://dc.lft.to/lastmile_qr_scan"}, "lon": -77.038623, "bike_id": "d961cb9e52fdde86ed746a5cb4be4529", "type": "electric_scooter", "name": "d961cb9e52fdde86ed746a5cb4be4529"}, {"is_disabled": 0, "is_reserved": 0, "fusion_lat": 0.0, "lat": 38.914458833333335, "fusion_lon": 0.0, "rental_uris": {"ios": "https://dc.lft.to/lastmile_qr_scan", "android": "https://dc.lft.to/lastmile_qr_scan"}, "lon": -77.021913, "bike_id": "cba7a79d8bd925a299e26e606833b952", "type": "electric_scooter", "name": "cba7a79d8bd925a299e26e606833b952"}, {"is_disabled": 0, "is_reserved": 0, "fusion_lat": 0.0, "lat": 38.8047975, "fusion_lon": 0.0, "rental_uris": {"ios": "https://dc.lft.to/lastmile_qr_scan", "android": "https://dc.lft.to/lastmile_qr_scan"}, "lon": -76.99106133333333, "bike_id": "1ef64736c573b5174eb73ca10482d443", "type": "electric_bike", "name": "1ef64736c573b5174eb73ca10482d443"}, {"is_disabled": 0, "is_reserved": 0, "fusion_lat": 0.0, "lat": 38.90069733333333, "fusion_lon": 0.0, "rental_uris": {"ios": "https://dc.lft.to/lastmile_qr_scan", "android": "https://dc.lft.to/lastmile_qr_scan"}, "lon": -77.0501185, "bike_id": "6b0a8070f16a5048a789da276435e933", "type": "electric_scooter", "name": "6b0a8070f16a5048a789da276435e933"}, {"is_disabled": 0, "is_reserved": 0, "fusion_lat": 0.0, "lat": 38.91346716666666, "fusion_lon": 0.0, "rental_uris": {"ios": "https://dc.lft.to/lastmile_qr_scan", "android": "https://dc.lft.to/lastmile_qr_scan"}, "lon": -77.03185283333333, "bike_id": "729f5a8ca86809ec7f59bd3a0e41a6aa", "type": "electric_scooter", "name": "729f5a8ca86809ec7f59bd3a0e41a6aa"}, {"is_disabled": 0, "is_reserved": 0, "fusion_lat": 0.0, "lat": 38.958834333333336, "fusion_lon": 0.0, "rental_uris": {"ios": "https://dc.lft.to/lastmile_qr_scan", "android": "https://dc.lft.to/lastmile_qr_scan"}, "lon": -76.9809625, "bike_id": "3e8810700c3e5a184bea50c17251187a", "type": "electric_bike", "name": "3e8810700c3e5a184bea50c17251187a"}, {"is_disabled": 0, "is_reserved": 0, "fusion_lat": 0.0, "lat": 38.92134883333333, "fusion_lon": 0.0, "rental_uris": {"ios": "https://dc.lft.to/lastmile_qr_scan", "android": "https://dc.lft.to/lastmile_qr_scan"}, "lon": -77.05157183333333, "bike_id": "0663615ae8b73badf1ea64def2bd8094", "type": "electric_scooter", "name": "0663615ae8b73badf1ea64def2bd8094"}, {"is_disabled": 0, "is_reserved": 0, "fusion_lat": 0.0, "lat": 38.90589966666667, "fusion_lon": 0.0, "rental_uris": {"ios": "https://dc.lft.to/lastmile_qr_scan", "android": "https://dc.lft.to/lastmile_qr_scan"}, "lon": -77.021766, "bike_id": "6b35e14b9501e6b26349d1b7a532e2ab", "type": "electric_scooter", "name": "6b35e14b9501e6b26349d1b7a532e2ab"}, {"is_disabled": 0, "is_reserved": 0, "fusion_lat": 0.0, "lat": 38.90891966666667, "fusion_lon": 0.0, "rental_uris": {"ios": "https://dc.lft.to/lastmile_qr_scan", "android": "https://dc.lft.to/lastmile_qr_scan"}, "lon": -77.04395166666667, "bike_id": "53e3cf0b43d83d8937ce4e706d704161", "type": "electric_scooter", "name": "53e3cf0b43d83d8937ce4e706d704161"}, {"is_disabled": 0, "is_reserved": 0, "fusion_lat": 0.0, "lat": 38.90454733333333, "fusion_lon": 0.0, "rental_uris": {"ios": "https://dc.lft.to/lastmile_qr_scan", "android": "https://dc.lft.to/lastmile_qr_scan"}, "lon": -76.9327645, "bike_id": "77f00cc73d3f1f36c7f0ecaadbbc0ecd", "type": "electric_scooter", "name": "77f00cc73d3f1f36c7f0ecaadbbc0ecd"}, {"is_disabled": 0, "is_reserved": 0, "fusion_lat": 0.0, "lat": 38.9398495, "fusion_lon": 0.0, "rental_uris": {"ios": "https://dc.lft.to/lastmile_qr_scan", "android": "https://dc.lft.to/lastmile_qr_scan"}, "lon": -77.02890833333333, "bike_id": "602b20dd96916de9a29805e83643cc21", "type": "electric_scooter", "name": "602b20dd96916de9a29805e83643cc21"}, {"is_disabled": 0, "is_reserved": 0, "fusion_lat": 0.0, "lat": 38.873060333333335, "fusion_lon": 0.0, "rental_uris": {"ios": "https://dc.lft.to/lastmile_qr_scan", "android": "https://dc.lft.to/lastmile_qr_scan"}, "lon": -77.00610583333334, "bike_id": "cbe1ca1a54a3974acf9e152f7da0d782", "type": "electric_scooter", "name": "cbe1ca1a54a3974acf9e152f7da0d782"}, {"is_disabled": 0, "is_reserved": 0, "fusion_lat": 0.0, "lat": 38.923794666666666, "fusion_lon": 0.0, "rental_uris": {"ios": "https://dc.lft.to/lastmile_qr_scan", "android": "https://dc.lft.to/lastmile_qr_scan"}, "lon": -77.0403085, "bike_id": "102ffb0d0155b976716b619302127957", "type": "electric_scooter", "name": "102ffb0d0155b976716b619302127957"}, {"is_disabled": 0, "is_reserved": 0, "fusion_lat": 0.0, "lat": 38.9232865, "fusion_lon": 0.0, "rental_uris": {"ios": "https://dc.lft.to/lastmile_qr_scan", "android": "https://dc.lft.to/lastmile_qr_scan"}, "lon": -77.05673283333333, "bike_id": "1c50157f4910b134a26fcf8ca7123ef9", "type": "electric_scooter", "name": "1c50157f4910b134a26fcf8ca7123ef9"}, {"is_disabled": 0, "is_reserved": 0, "fusion_lat": 0.0, "lat": 38.92318133333333, "fusion_lon": 0.0, "rental_uris": {"ios": "https://dc.lft.to/lastmile_qr_scan", "android": "https://dc.lft.to/lastmile_qr_scan"}, "lon": -77.029039, "bike_id": "cd33c69238d3e6920e287e5676878651", "type": "electric_scooter", "name": "cd33c69238d3e6920e287e5676878651"}, {"is_disabled": 0, "is_reserved": 0, "fusion_lat": 0.0, "lat": 38.9191545, "fusion_lon": 0.0, "rental_uris": {"ios": "https://dc.lft.to/lastmile_qr_scan", "android": "https://dc.lft.to/lastmile_qr_scan"}, "lon": -77.03172833333333, "bike_id": "c8d4021c25471c1cf931e5f67a80ee45", "type": "electric_scooter", "name": "c8d4021c25471c1cf931e5f67a80ee45"}, {"is_disabled": 0, "is_reserved": 0, "fusion_lat": 0.0, "lat": 38.902474166666664, "fusion_lon": 0.0, "rental_uris": {"ios": "https://dc.lft.to/lastmile_qr_scan", "android": "https://dc.lft.to/lastmile_qr_scan"}, "lon": -77.03279766666667, "bike_id": "b81a4a1d1f639b549883f9a2769557dd", "type": "electric_scooter", "name": "b81a4a1d1f639b549883f9a2769557dd"}, {"is_disabled": 0, "is_reserved": 0, "fusion_lat": 0.0, "lat": 38.920258, "fusion_lon": 0.0, "rental_uris": {"ios": "https://dc.lft.to/lastmile_qr_scan", "android": "https://dc.lft.to/lastmile_qr_scan"}, "lon": -77.01749916666667, "bike_id": "1c268a88ef0bcd7465bc9fbbb6982339", "type": "electric_scooter", "name": "1c268a88ef0bcd7465bc9fbbb6982339"}, {"is_disabled": 0, "is_reserved": 0, "fusion_lat": 0.0, "lat": 38.883279, "fusion_lon": 0.0, "rental_uris": {"ios": "https://dc.lft.to/lastmile_qr_scan", "android": "https://dc.lft.to/lastmile_qr_scan"}, "lon": -76.93497766666667, "bike_id": "85c265cae87c68360ff963c7f0f13c71", "type": "electric_scooter", "name": "85c265cae87c68360ff963c7f0f13c71"}, {"is_disabled": 0, "is_reserved": 0, "fusion_lat": 0.0, "lat": 38.892334166666664, "fusion_lon": 0.0, "rental_uris": {"ios": "https://dc.lft.to/lastmile_qr_scan", "android": "https://dc.lft.to/lastmile_qr_scan"}, "lon": -77.04870116666666, "bike_id": "d2b7d492e959088eb9e0268131227ef6", "type": "electric_scooter", "name": "d2b7d492e959088eb9e0268131227ef6"}, {"is_disabled": 0, "is_reserved": 0, "fusion_lat": 0.0, "lat": 38.852488, "fusion_lon": 0.0, "rental_uris": {"ios": "https://dc.lft.to/lastmile_qr_scan", "android": "https://dc.lft.to/lastmile_qr_scan"}, "lon": -77.1140675, "bike_id": "8b5678640c336149e5674d6e46d8d89f", "type": "electric_bike", "name": "8b5678640c336149e5674d6e46d8d89f"}, {"is_disabled": 0, "is_reserved": 0, "fusion_lat": 0.0, "lat": 38.9125415, "fusion_lon": 0.0, "rental_uris": {"ios": "https://dc.lft.to/lastmile_qr_scan", "android": "https://dc.lft.to/lastmile_qr_scan"}, "lon": -77.03859783333333, "bike_id": "f9822e6d366bebf11044d6fae393c611", "type": "electric_scooter", "name": "f9822e6d366bebf11044d6fae393c611"}, {"is_disabled": 0, "is_reserved": 0, "fusion_lat": 0.0, "lat": 38.915772, "fusion_lon": 0.0, "rental_uris": {"ios": "https://dc.lft.to/lastmile_qr_scan", "android": "https://dc.lft.to/lastmile_qr_scan"}, "lon": -77.03662683333333, "bike_id": "5ef666ccfa173781cc0d7ffb6ebb9f58", "type": "electric_scooter", "name": "5ef666ccfa173781cc0d7ffb6ebb9f58"}, {"is_disabled": 0, "is_reserved": 0, "fusion_lat": 0.0, "lat": 38.93194783333333, "fusion_lon": 0.0, "rental_uris": {"ios": "https://dc.lft.to/lastmile_qr_scan", "android": "https://dc.lft.to/lastmile_qr_scan"}, "lon": -77.02390583333333, "bike_id": "08ee0d73923baf5f015ef1ad61157fa0", "type": "electric_scooter", "name": "08ee0d73923baf5f015ef1ad61157fa0"}, {"is_disabled": 0, "is_reserved": 0, "fusion_lat": 0.0, "lat": 38.946338, "fusion_lon": 0.0, "rental_uris": {"ios": "https://dc.lft.to/lastmile_qr_scan", "android": "https://dc.lft.to/lastmile_qr_scan"}, "lon": -77.06480083333334, "bike_id": "affaa0ac4dedf69bf66e2eb9af095687", "type": "electric_scooter", "name": "affaa0ac4dedf69bf66e2eb9af095687"}, {"is_disabled": 0, "is_reserved": 0, "fusion_lat": 0.0, "lat": 38.904680666666664, "fusion_lon": 0.0, "rental_uris": {"ios": "https://dc.lft.to/lastmile_qr_scan", "android": "https://dc.lft.to/lastmile_qr_scan"}, "lon": -77.06592716666667, "bike_id": "f9e34f891a80146d584d7f806a053255", "type": "electric_scooter", "name": "f9e34f891a80146d584d7f806a053255"}, {"is_disabled": 0, "is_reserved": 0, "fusion_lat": 0.0, "lat": 38.90456783333333, "fusion_lon": 0.0, "rental_uris": {"ios": "https://dc.lft.to/lastmile_qr_scan", "android": "https://dc.lft.to/lastmile_qr_scan"}, "lon": -77.0430545, "bike_id": "3802eb635c6e097ad6050488154d3de3", "type": "electric_scooter", "name": "3802eb635c6e097ad6050488154d3de3"}, {"is_disabled": 0, "is_reserved": 0, "fusion_lat": 0.0, "lat": 38.916709833333336, "fusion_lon": 0.0, "rental_uris": {"ios": "https://dc.lft.to/lastmile_qr_scan", "android": "https://dc.lft.to/lastmile_qr_scan"}, "lon": -77.0295215, "bike_id": "016151e1585428e4d10aee828ef33f4d", "type": "electric_scooter", "name": "016151e1585428e4d10aee828ef33f4d"}, {"is_disabled": 0, "is_reserved": 0, "fusion_lat": 0.0, "lat": 38.89205166666667, "fusion_lon": 0.0, "rental_uris": {"ios": "https://dc.lft.to/lastmile_qr_scan", "android": "https://dc.lft.to/lastmile_qr_scan"}, "lon": -76.99926916666666, "bike_id": "44bdd3ce4a3c493cc8cd03eed8ee742a", "type": "electric_scooter", "name": "44bdd3ce4a3c493cc8cd03eed8ee742a"}, {"is_disabled": 0, "is_reserved": 0, "fusion_lat": 0.0, "lat": 38.9143345, "fusion_lon": 0.0, "rental_uris": {"ios": "https://dc.lft.to/lastmile_qr_scan", "android": "https://dc.lft.to/lastmile_qr_scan"}, "lon": -76.98435733333334, "bike_id": "33941d27a589ee752395943ae82e433a", "type": "electric_scooter", "name": "33941d27a589ee752395943ae82e433a"}, {"is_disabled": 0, "is_reserved": 0, "fusion_lat": 0.0, "lat": 38.878932, "fusion_lon": 0.0, "rental_uris": {"ios": "https://dc.lft.to/lastmile_qr_scan", "android": "https://dc.lft.to/lastmile_qr_scan"}, "lon": -76.93521733333333, "bike_id": "37a993650c90ee3f99235b642e7e6ea9", "type": "electric_scooter", "name": "37a993650c90ee3f99235b642e7e6ea9"}, {"is_disabled": 0, "is_reserved": 0, "fusion_lat": 0.0, "lat": 38.86218933333333, "fusion_lon": 0.0, "rental_uris": {"ios": "https://dc.lft.to/lastmile_qr_scan", "android": "https://dc.lft.to/lastmile_qr_scan"}, "lon": -76.99479016666666, "bike_id": "19781dc6534b07e8fe6071ea4f5a863e", "type": "electric_scooter", "name": "19781dc6534b07e8fe6071ea4f5a863e"}, {"is_disabled": 0, "is_reserved": 0, "fusion_lat": 0.0, "lat": 38.94977983333333, "fusion_lon": 0.0, "rental_uris": {"ios": "https://dc.lft.to/lastmile_qr_scan", "android": "https://dc.lft.to/lastmile_qr_scan"}, "lon": -77.02429316666667, "bike_id": "27120c452859507645fdd42791ce3503", "type": "electric_scooter", "name": "27120c452859507645fdd42791ce3503"}, {"is_disabled": 0, "is_reserved": 0, "fusion_lat": 0.0, "lat": 38.9196135, "fusion_lon": 0.0, "rental_uris": {"ios": "https://dc.lft.to/lastmile_qr_scan", "android": "https://dc.lft.to/lastmile_qr_scan"}, "lon": -77.01903866666666, "bike_id": "68616d39ddce50846c70ae866d939e60", "type": "electric_scooter", "name": "68616d39ddce50846c70ae866d939e60"}, {"is_disabled": 0, "is_reserved": 0, "fusion_lat": 0.0, "lat": 38.922186333333336, "fusion_lon": 0.0, "rental_uris": {"ios": "https://dc.lft.to/lastmile_qr_scan", "android": "https://dc.lft.to/lastmile_qr_scan"}, "lon": -77.03890733333333, "bike_id": "b6cea9850f9e48d616eb8ecf2b9cbf5e", "type": "electric_scooter", "name": "b6cea9850f9e48d616eb8ecf2b9cbf5e"}, {"is_disabled": 0, "is_reserved": 0, "fusion_lat": 0.0, "lat": 38.92338266666667, "fusion_lon": 0.0, "rental_uris": {"ios": "https://dc.lft.to/lastmile_qr_scan", "android": "https://dc.lft.to/lastmile_qr_scan"}, "lon": -77.03519133333333, "bike_id": "5e7ab8460841c9a6617fbe1d22b30984", "type": "electric_scooter", "name": "5e7ab8460841c9a6617fbe1d22b30984"}, {"is_disabled": 0, "is_reserved": 0, "fusion_lat": 0.0, "lat": 38.89530716666667, "fusion_lon": 0.0, "rental_uris": {"ios": "https://dc.lft.to/lastmile_qr_scan", "android": "https://dc.lft.to/lastmile_qr_scan"}, "lon": -77.032071, "bike_id": "52589ac7f8f536ecebc274047252bca0", "type": "electric_scooter", "name": "52589ac7f8f536ecebc274047252bca0"}, {"is_disabled": 0, "is_reserved": 0, "fusion_lat": 0.0, "lat": 38.93656133333333, "fusion_lon": 0.0, "rental_uris": {"ios": "https://dc.lft.to/lastmile_qr_scan", "android": "https://dc.lft.to/lastmile_qr_scan"}, "lon": -77.0365335, "bike_id": "86f4e9091d942685fdbf2ba9f4df9c96", "type": "electric_scooter", "name": "86f4e9091d942685fdbf2ba9f4df9c96"}, {"is_disabled": 0, "is_reserved": 0, "fusion_lat": 0.0, "lat": 38.89492166666667, "fusion_lon": 0.0, "rental_uris": {"ios": "https://dc.lft.to/lastmile_qr_scan", "android": "https://dc.lft.to/lastmile_qr_scan"}, "lon": -77.0281155, "bike_id": "fc478f8a6141272a4108988a5bc3aad4", "type": "electric_scooter", "name": "fc478f8a6141272a4108988a5bc3aad4"}, {"is_disabled": 0, "is_reserved": 0, "fusion_lat": 0.0, "lat": 38.90958583333333, "fusion_lon": 0.0, "rental_uris": {"ios": "https://dc.lft.to/lastmile_qr_scan", "android": "https://dc.lft.to/lastmile_qr_scan"}, "lon": -77.02277616666667, "bike_id": "1669383021e6e10564ea029f0e6d7cb9", "type": "electric_scooter", "name": "1669383021e6e10564ea029f0e6d7cb9"}, {"is_disabled": 0, "is_reserved": 0, "fusion_lat": 0.0, "lat": 38.922381, "fusion_lon": 0.0, "rental_uris": {"ios": "https://dc.lft.to/lastmile_qr_scan", "android": "https://dc.lft.to/lastmile_qr_scan"}, "lon": -77.03887783333333, "bike_id": "942ffdd5ce62f0964ea708fcff1a4c48", "type": "electric_scooter", "name": "942ffdd5ce62f0964ea708fcff1a4c48"}, {"is_disabled": 0, "is_reserved": 0, "fusion_lat": 0.0, "lat": 38.90030433333333, "fusion_lon": 0.0, "rental_uris": {"ios": "https://dc.lft.to/lastmile_qr_scan", "android": "https://dc.lft.to/lastmile_qr_scan"}, "lon": -77.01757916666666, "bike_id": "8c1e32de04fc3f26d8ffbf4dd9e91cbf", "type": "electric_scooter", "name": "8c1e32de04fc3f26d8ffbf4dd9e91cbf"}, {"is_disabled": 0, "is_reserved": 0, "fusion_lat": 0.0, "lat": 38.902541, "fusion_lon": 0.0, "rental_uris": {"ios": "https://dc.lft.to/lastmile_qr_scan", "android": "https://dc.lft.to/lastmile_qr_scan"}, "lon": -77.00162266666666, "bike_id": "d30b8c7037751df0653ada54c1c9b1cb", "type": "electric_scooter", "name": "d30b8c7037751df0653ada54c1c9b1cb"}, {"is_disabled": 0, "is_reserved": 0, "fusion_lat": 0.0, "lat": 38.913682666666666, "fusion_lon": 0.0, "rental_uris": {"ios": "https://dc.lft.to/lastmile_qr_scan", "android": "https://dc.lft.to/lastmile_qr_scan"}, "lon": -77.02051016666667, "bike_id": "dc567ee53b0ff928b7e83c8181d32901", "type": "electric_scooter", "name": "dc567ee53b0ff928b7e83c8181d32901"}, {"is_disabled": 0, "is_reserved": 0, "fusion_lat": 0.0, "lat": 38.908173833333336, "fusion_lon": 0.0, "rental_uris": {"ios": "https://dc.lft.to/lastmile_qr_scan", "android": "https://dc.lft.to/lastmile_qr_scan"}, "lon": -76.9825875, "bike_id": "6d2c3358d227ec75e9abb31f69362610", "type": "electric_scooter", "name": "6d2c3358d227ec75e9abb31f69362610"}, {"is_disabled": 0, "is_reserved": 0, "fusion_lat": 0.0, "lat": 38.92518066666667, "fusion_lon": 0.0, "rental_uris": {"ios": "https://dc.lft.to/lastmile_qr_scan", "android": "https://dc.lft.to/lastmile_qr_scan"}, "lon": -77.03848383333333, "bike_id": "27b31a5dbb7656b88fd0becf76d1eaf0", "type": "electric_scooter", "name": "27b31a5dbb7656b88fd0becf76d1eaf0"}, {"is_disabled": 0, "is_reserved": 0, "fusion_lat": 0.0, "lat": 38.907807166666665, "fusion_lon": 0.0, "rental_uris": {"ios": "https://dc.lft.to/lastmile_qr_scan", "android": "https://dc.lft.to/lastmile_qr_scan"}, "lon": -77.04507533333333, "bike_id": "9086d08ce14f0c58a11afe1d0c84c30d", "type": "electric_scooter", "name": "9086d08ce14f0c58a11afe1d0c84c30d"}, {"is_disabled": 0, "is_reserved": 0, "fusion_lat": 0.0, "lat": 38.90197916666666, "fusion_lon": 0.0, "rental_uris": {"ios": "https://dc.lft.to/lastmile_qr_scan", "android": "https://dc.lft.to/lastmile_qr_scan"}, "lon": -77.03387133333334, "bike_id": "b72a32f164fddc579a5ed9393d48ab24", "type": "electric_scooter", "name": "b72a32f164fddc579a5ed9393d48ab24"}, {"is_disabled": 0, "is_reserved": 0, "fusion_lat": 0.0, "lat": 38.87084633333333, "fusion_lon": 0.0, "rental_uris": {"ios": "https://dc.lft.to/lastmile_qr_scan", "android": "https://dc.lft.to/lastmile_qr_scan"}, "lon": -77.1333125, "bike_id": "91703ad54a845452df42a08d0a2a7839", "type": "electric_bike", "name": "91703ad54a845452df42a08d0a2a7839"}, {"is_disabled": 0, "is_reserved": 0, "fusion_lat": 0.0, "lat": 38.831594833333334, "fusion_lon": 0.0, "rental_uris": {"ios": "https://dc.lft.to/lastmile_qr_scan", "android": "https://dc.lft.to/lastmile_qr_scan"}, "lon": -76.9957305, "bike_id": "8263341a356db4ddce864fa11931dea0", "type": "electric_bike", "name": "8263341a356db4ddce864fa11931dea0"}, {"is_disabled": 0, "is_reserved": 0, "fusion_lat": 0.0, "lat": 38.84647616666667, "fusion_lon": 0.0, "rental_uris": {"ios": "https://dc.lft.to/lastmile_qr_scan", "android": "https://dc.lft.to/lastmile_qr_scan"}, "lon": -77.003688, "bike_id": "2c83b8888365b6e74dacd842716e0aa1", "type": "electric_scooter", "name": "2c83b8888365b6e74dacd842716e0aa1"}, {"is_disabled": 0, "is_reserved": 0, "fusion_lat": 0.0, "lat": 38.8802675, "fusion_lon": 0.0, "rental_uris": {"ios": "https://dc.lft.to/lastmile_qr_scan", "android": "https://dc.lft.to/lastmile_qr_scan"}, "lon": -76.94323516666667, "bike_id": "5ee276b0fc84184f3607df7efbf96e6e", "type": "electric_scooter", "name": "5ee276b0fc84184f3607df7efbf96e6e"}, {"is_disabled": 0, "is_reserved": 0, "fusion_lat": 0.0, "lat": 38.913113, "fusion_lon": 0.0, "rental_uris": {"ios": "https://dc.lft.to/lastmile_qr_scan", "android": "https://dc.lft.to/lastmile_qr_scan"}, "lon": -77.03177833333334, "bike_id": "e3329fc84ec1b072ed876acbbe8b0afc", "type": "electric_scooter", "name": "e3329fc84ec1b072ed876acbbe8b0afc"}, {"is_disabled": 0, "is_reserved": 0, "fusion_lat": 0.0, "lat": 38.88711083333333, "fusion_lon": 0.0, "rental_uris": {"ios": "https://dc.lft.to/lastmile_qr_scan", "android": "https://dc.lft.to/lastmile_qr_scan"}, "lon": -76.98338316666667, "bike_id": "4a0814e154a700429fbc61dc6d7320d9", "type": "electric_scooter", "name": "4a0814e154a700429fbc61dc6d7320d9"}, {"is_disabled": 0, "is_reserved": 0, "fusion_lat": 0.0, "lat": 38.919064666666664, "fusion_lon": 0.0, "rental_uris": {"ios": "https://dc.lft.to/lastmile_qr_scan", "android": "https://dc.lft.to/lastmile_qr_scan"}, "lon": -77.031729, "bike_id": "41f779c01ae9deddd865e06fdb6fe722", "type": "electric_scooter", "name": "41f779c01ae9deddd865e06fdb6fe722"}, {"is_disabled": 0, "is_reserved": 0, "fusion_lat": 0.0, "lat": 38.8825935, "fusion_lon": 0.0, "rental_uris": {"ios": "https://dc.lft.to/lastmile_qr_scan", "android": "https://dc.lft.to/lastmile_qr_scan"}, "lon": -77.00065666666667, "bike_id": "1915b2850110d8b4bffe2b4e4bb7a16d", "type": "electric_scooter", "name": "1915b2850110d8b4bffe2b4e4bb7a16d"}, {"is_disabled": 0, "is_reserved": 0, "fusion_lat": 0.0, "lat": 38.93119866666667, "fusion_lon": 0.0, "rental_uris": {"ios": "https://dc.lft.to/lastmile_qr_scan", "android": "https://dc.lft.to/lastmile_qr_scan"}, "lon": -77.0207105, "bike_id": "f114c31cf91db641bc90f526908e1e4b", "type": "electric_scooter", "name": "f114c31cf91db641bc90f526908e1e4b"}, {"is_disabled": 0, "is_reserved": 0, "fusion_lat": 0.0, "lat": 38.92147833333333, "fusion_lon": 0.0, "rental_uris": {"ios": "https://dc.lft.to/lastmile_qr_scan", "android": "https://dc.lft.to/lastmile_qr_scan"}, "lon": -77.0344195, "bike_id": "535b352f00d875692e4f2fca4514da7b", "type": "electric_scooter", "name": "535b352f00d875692e4f2fca4514da7b"}, {"is_disabled": 0, "is_reserved": 0, "fusion_lat": 0.0, "lat": 38.92148133333333, "fusion_lon": 0.0, "rental_uris": {"ios": "https://dc.lft.to/lastmile_qr_scan", "android": "https://dc.lft.to/lastmile_qr_scan"}, "lon": -77.03871916666667, "bike_id": "adf41cc5959f0886bacb78e5582748c1", "type": "electric_scooter", "name": "adf41cc5959f0886bacb78e5582748c1"}, {"is_disabled": 0, "is_reserved": 0, "fusion_lat": 0.0, "lat": 38.930575833333336, "fusion_lon": 0.0, "rental_uris": {"ios": "https://dc.lft.to/lastmile_qr_scan", "android": "https://dc.lft.to/lastmile_qr_scan"}, "lon": -77.040228, "bike_id": "624bcd09fc22647d52f3440751ad3d1d", "type": "electric_scooter", "name": "624bcd09fc22647d52f3440751ad3d1d"}, {"is_disabled": 0, "is_reserved": 0, "fusion_lat": 0.0, "lat": 38.874716, "fusion_lon": 0.0, "rental_uris": {"ios": "https://dc.lft.to/lastmile_qr_scan", "android": "https://dc.lft.to/lastmile_qr_scan"}, "lon": -77.01067783333333, "bike_id": "a04c3e6df560545c25cb6eb75b0a44ed", "type": "electric_scooter", "name": "a04c3e6df560545c25cb6eb75b0a44ed"}, {"is_disabled": 0, "is_reserved": 0, "fusion_lat": 0.0, "lat": 38.88375633333333, "fusion_lon": 0.0, "rental_uris": {"ios": "https://dc.lft.to/lastmile_qr_scan", "android": "https://dc.lft.to/lastmile_qr_scan"}, "lon": -77.01969616666666, "bike_id": "4fb236116f66821a24ea27cdf240ce97", "type": "electric_scooter", "name": "4fb236116f66821a24ea27cdf240ce97"}, {"is_disabled": 0, "is_reserved": 0, "fusion_lat": 0.0, "lat": 38.936601833333334, "fusion_lon": 0.0, "rental_uris": {"ios": "https://dc.lft.to/lastmile_qr_scan", "android": "https://dc.lft.to/lastmile_qr_scan"}, "lon": -77.06606016666667, "bike_id": "cbd3e3ad82cc7c1ecf85258a6e3cefe0", "type": "electric_scooter", "name": "cbd3e3ad82cc7c1ecf85258a6e3cefe0"}, {"is_disabled": 0, "is_reserved": 0, "fusion_lat": 0.0, "lat": 38.922499, "fusion_lon": 0.0, "rental_uris": {"ios": "https://dc.lft.to/lastmile_qr_scan", "android": "https://dc.lft.to/lastmile_qr_scan"}, "lon": -77.03468683333334, "bike_id": "5c8003c856be2d368423af688892babf", "type": "electric_scooter", "name": "5c8003c856be2d368423af688892babf"}, {"is_disabled": 0, "is_reserved": 0, "fusion_lat": 0.0, "lat": 38.9171345, "fusion_lon": 0.0, "rental_uris": {"ios": "https://dc.lft.to/lastmile_qr_scan", "android": "https://dc.lft.to/lastmile_qr_scan"}, "lon": -77.03855916666667, "bike_id": "d4bd2748b161e4de302588b0ce3717ae", "type": "electric_scooter", "name": "d4bd2748b161e4de302588b0ce3717ae"}, {"is_disabled": 0, "is_reserved": 0, "fusion_lat": 0.0, "lat": 38.92913433333333, "fusion_lon": 0.0, "rental_uris": {"ios": "https://dc.lft.to/lastmile_qr_scan", "android": "https://dc.lft.to/lastmile_qr_scan"}, "lon": -77.0322655, "bike_id": "33205cd34477a0b132ac8707185c97dc", "type": "electric_scooter", "name": "33205cd34477a0b132ac8707185c97dc"}, {"is_disabled": 0, "is_reserved": 0, "fusion_lat": 0.0, "lat": 38.879417, "fusion_lon": 0.0, "rental_uris": {"ios": "https://dc.lft.to/lastmile_qr_scan", "android": "https://dc.lft.to/lastmile_qr_scan"}, "lon": -77.00798983333334, "bike_id": "b1fd026d244b7128ef6efd963b1f3e0e", "type": "electric_scooter", "name": "b1fd026d244b7128ef6efd963b1f3e0e"}, {"is_disabled": 0, "is_reserved": 0, "fusion_lat": 0.0, "lat": 38.920916166666665, "fusion_lon": 0.0, "rental_uris": {"ios": "https://dc.lft.to/lastmile_qr_scan", "android": "https://dc.lft.to/lastmile_qr_scan"}, "lon": -77.01788983333333, "bike_id": "a3725e2d4d7d7cb8a8babe917852f20a", "type": "electric_scooter", "name": "a3725e2d4d7d7cb8a8babe917852f20a"}, {"is_disabled": 0, "is_reserved": 0, "fusion_lat": 0.0, "lat": 38.928396, "fusion_lon": 0.0, "rental_uris": {"ios": "https://dc.lft.to/lastmile_qr_scan", "android": "https://dc.lft.to/lastmile_qr_scan"}, "lon": -77.037231, "bike_id": "910efad4f688906d77846a7989e695ad", "type": "electric_scooter", "name": "910efad4f688906d77846a7989e695ad"}, {"is_disabled": 0, "is_reserved": 0, "fusion_lat": 0.0, "lat": 38.87669416666667, "fusion_lon": 0.0, "rental_uris": {"ios": "https://dc.lft.to/lastmile_qr_scan", "android": "https://dc.lft.to/lastmile_qr_scan"}, "lon": -77.0144145, "bike_id": "1b996d21a17dd0e852d0ac94006932cb", "type": "electric_bike", "name": "1b996d21a17dd0e852d0ac94006932cb"}, {"is_disabled": 0, "is_reserved": 0, "fusion_lat": 0.0, "lat": 38.9507905, "fusion_lon": 0.0, "rental_uris": {"ios": "https://dc.lft.to/lastmile_qr_scan", "android": "https://dc.lft.to/lastmile_qr_scan"}, "lon": -77.01196033333333, "bike_id": "472133ddccf01d521f2d39352b0ae717", "type": "electric_bike", "name": "472133ddccf01d521f2d39352b0ae717"}, {"is_disabled": 0, "is_reserved": 0, "fusion_lat": 0.0, "lat": 38.848574166666666, "fusion_lon": 0.0, "rental_uris": {"ios": "https://dc.lft.to/lastmile_qr_scan", "android": "https://dc.lft.to/lastmile_qr_scan"}, "lon": -77.06828366666667, "bike_id": "430f0d433e91a9f8bc498522a92a7356", "type": "electric_bike", "name": "430f0d433e91a9f8bc498522a92a7356"}, {"is_disabled": 0, "is_reserved": 0, "fusion_lat": 0.0, "lat": 38.8974405, "fusion_lon": 0.0, "rental_uris": {"ios": "https://dc.lft.to/lastmile_qr_scan", "android": "https://dc.lft.to/lastmile_qr_scan"}, "lon": -76.992181, "bike_id": "09cd31548f7a63d58d64f6e67559cba1", "type": "electric_bike", "name": "09cd31548f7a63d58d64f6e67559cba1"}, {"is_disabled": 0, "is_reserved": 0, "fusion_lat": 0.0, "lat": 38.89701266666667, "fusion_lon": 0.0, "rental_uris": {"ios": "https://dc.lft.to/lastmile_qr_scan", "android": "https://dc.lft.to/lastmile_qr_scan"}, "lon": -77.02771716666666, "bike_id": "097297ca515036aa5db50aad58737073", "type": "electric_scooter", "name": "097297ca515036aa5db50aad58737073"}, {"is_disabled": 0, "is_reserved": 0, "fusion_lat": 0.0, "lat": 38.91957266666667, "fusion_lon": 0.0, "rental_uris": {"ios": "https://dc.lft.to/lastmile_qr_scan", "android": "https://dc.lft.to/lastmile_qr_scan"}, "lon": -77.0786535, "bike_id": "5d5a8db575833eea53797503a88381f2", "type": "electric_scooter", "name": "5d5a8db575833eea53797503a88381f2"}, {"is_disabled": 0, "is_reserved": 0, "fusion_lat": 0.0, "lat": 38.90751566666667, "fusion_lon": 0.0, "rental_uris": {"ios": "https://dc.lft.to/lastmile_qr_scan", "android": "https://dc.lft.to/lastmile_qr_scan"}, "lon": -77.00130766666666, "bike_id": "be3dc7aec0de0ebc7381606b69710d43", "type": "electric_scooter", "name": "be3dc7aec0de0ebc7381606b69710d43"}, {"is_disabled": 0, "is_reserved": 0, "fusion_lat": 0.0, "lat": 38.926044166666664, "fusion_lon": 0.0, "rental_uris": {"ios": "https://dc.lft.to/lastmile_qr_scan", "android": "https://dc.lft.to/lastmile_qr_scan"}, "lon": -77.0796875, "bike_id": "c382d935fbeb15362bb2ef3115b894ea", "type": "electric_scooter", "name": "c382d935fbeb15362bb2ef3115b894ea"}, {"is_disabled": 0, "is_reserved": 0, "fusion_lat": 0.0, "lat": 38.91421316666667, "fusion_lon": 0.0, "rental_uris": {"ios": "https://dc.lft.to/lastmile_qr_scan", "android": "https://dc.lft.to/lastmile_qr_scan"}, "lon": -77.03174533333333, "bike_id": "c3dab5bb0f57d66f989dcb765bcc8b15", "type": "electric_scooter", "name": "c3dab5bb0f57d66f989dcb765bcc8b15"}, {"is_disabled": 0, "is_reserved": 0, "fusion_lat": 0.0, "lat": 38.906672666666665, "fusion_lon": 0.0, "rental_uris": {"ios": "https://dc.lft.to/lastmile_qr_scan", "android": "https://dc.lft.to/lastmile_qr_scan"}, "lon": -77.0269105, "bike_id": "b1ebdb232d12b2a3554fa0e96144848d", "type": "electric_scooter", "name": "b1ebdb232d12b2a3554fa0e96144848d"}, {"is_disabled": 0, "is_reserved": 0, "fusion_lat": 0.0, "lat": 38.90441033333333, "fusion_lon": 0.0, "rental_uris": {"ios": "https://dc.lft.to/lastmile_qr_scan", "android": "https://dc.lft.to/lastmile_qr_scan"}, "lon": -77.03117333333333, "bike_id": "8e1168f2074912cbe10bf0320813c68b", "type": "electric_scooter", "name": "8e1168f2074912cbe10bf0320813c68b"}, {"is_disabled": 0, "is_reserved": 0, "fusion_lat": 0.0, "lat": 38.90788283333333, "fusion_lon": 0.0, "rental_uris": {"ios": "https://dc.lft.to/lastmile_qr_scan", "android": "https://dc.lft.to/lastmile_qr_scan"}, "lon": -77.0450695, "bike_id": "75083dde711d6c73fd03ddcf4f9c9614", "type": "electric_scooter", "name": "75083dde711d6c73fd03ddcf4f9c9614"}, {"is_disabled": 0, "is_reserved": 0, "fusion_lat": 0.0, "lat": 38.91658266666666, "fusion_lon": 0.0, "rental_uris": {"ios": "https://dc.lft.to/lastmile_qr_scan", "android": "https://dc.lft.to/lastmile_qr_scan"}, "lon": -77.03839566666667, "bike_id": "0c33e56efb8fe94cb943fc552c1248ef", "type": "electric_scooter", "name": "0c33e56efb8fe94cb943fc552c1248ef"}, {"is_disabled": 0, "is_reserved": 0, "fusion_lat": 0.0, "lat": 38.89276066666667, "fusion_lon": 0.0, "rental_uris": {"ios": "https://dc.lft.to/lastmile_qr_scan", "android": "https://dc.lft.to/lastmile_qr_scan"}, "lon": -77.04651916666667, "bike_id": "3e1f3d08a178de3b9d4710f341e9e331", "type": "electric_scooter", "name": "3e1f3d08a178de3b9d4710f341e9e331"}, {"is_disabled": 0, "is_reserved": 0, "fusion_lat": 0.0, "lat": 38.9248185, "fusion_lon": 0.0, "rental_uris": {"ios": "https://dc.lft.to/lastmile_qr_scan", "android": "https://dc.lft.to/lastmile_qr_scan"}, "lon": -77.0261875, "bike_id": "2459eeccaff18ba1f9fdcda5f42564a1", "type": "electric_scooter", "name": "2459eeccaff18ba1f9fdcda5f42564a1"}, {"is_disabled": 0, "is_reserved": 0, "fusion_lat": 0.0, "lat": 38.878567, "fusion_lon": 0.0, "rental_uris": {"ios": "https://dc.lft.to/lastmile_qr_scan", "android": "https://dc.lft.to/lastmile_qr_scan"}, "lon": -77.01876633333333, "bike_id": "ab4c02c210151b89a1272f79186cc22c", "type": "electric_scooter", "name": "ab4c02c210151b89a1272f79186cc22c"}, {"is_disabled": 0, "is_reserved": 0, "fusion_lat": 0.0, "lat": 38.88735666666667, "fusion_lon": 0.0, "rental_uris": {"ios": "https://dc.lft.to/lastmile_qr_scan", "android": "https://dc.lft.to/lastmile_qr_scan"}, "lon": -76.98354916666666, "bike_id": "b4fabe20e88388c8f22a4ae8cb0c492d", "type": "electric_bike", "name": "b4fabe20e88388c8f22a4ae8cb0c492d"}, {"is_disabled": 0, "is_reserved": 0, "fusion_lat": 0.0, "lat": 38.927418, "fusion_lon": 0.0, "rental_uris": {"ios": "https://dc.lft.to/lastmile_qr_scan", "android": "https://dc.lft.to/lastmile_qr_scan"}, "lon": -77.02296183333333, "bike_id": "a7bce617941b07ccd59c2a4855115701", "type": "electric_scooter", "name": "a7bce617941b07ccd59c2a4855115701"}, {"is_disabled": 0, "is_reserved": 0, "fusion_lat": 0.0, "lat": 38.863708333333335, "fusion_lon": 0.0, "rental_uris": {"ios": "https://dc.lft.to/lastmile_qr_scan", "android": "https://dc.lft.to/lastmile_qr_scan"}, "lon": -77.013703, "bike_id": "f3a4ff5fdbc5dd2a9b4bc95290124669", "type": "electric_scooter", "name": "f3a4ff5fdbc5dd2a9b4bc95290124669"}, {"is_disabled": 0, "is_reserved": 0, "fusion_lat": 0.0, "lat": 38.93246583333333, "fusion_lon": 0.0, "rental_uris": {"ios": "https://dc.lft.to/lastmile_qr_scan", "android": "https://dc.lft.to/lastmile_qr_scan"}, "lon": -77.03265383333333, "bike_id": "34517f1c4beb5f1846519ebe1e207dee", "type": "electric_scooter", "name": "34517f1c4beb5f1846519ebe1e207dee"}, {"is_disabled": 0, "is_reserved": 0, "fusion_lat": 0.0, "lat": 38.9271905, "fusion_lon": 0.0, "rental_uris": {"ios": "https://dc.lft.to/lastmile_qr_scan", "android": "https://dc.lft.to/lastmile_qr_scan"}, "lon": -77.051297, "bike_id": "20ade867174b3e742e6beaee8852a065", "type": "electric_scooter", "name": "20ade867174b3e742e6beaee8852a065"}, {"is_disabled": 0, "is_reserved": 0, "fusion_lat": 0.0, "lat": 38.89996883333333, "fusion_lon": 0.0, "rental_uris": {"ios": "https://dc.lft.to/lastmile_qr_scan", "android": "https://dc.lft.to/lastmile_qr_scan"}, "lon": -77.02680516666666, "bike_id": "43fa2f75fbe5cbcb40b37307b236469c", "type": "electric_scooter", "name": "43fa2f75fbe5cbcb40b37307b236469c"}, {"is_disabled": 0, "is_reserved": 0, "fusion_lat": 0.0, "lat": 38.855147, "fusion_lon": 0.0, "rental_uris": {"ios": "https://dc.lft.to/lastmile_qr_scan", "android": "https://dc.lft.to/lastmile_qr_scan"}, "lon": -77.10155583333334, "bike_id": "6dd68186e9fc5858724eb2a84f461689", "type": "electric_bike", "name": "6dd68186e9fc5858724eb2a84f461689"}, {"is_disabled": 0, "is_reserved": 0, "fusion_lat": 0.0, "lat": 38.90311466666667, "fusion_lon": 0.0, "rental_uris": {"ios": "https://dc.lft.to/lastmile_qr_scan", "android": "https://dc.lft.to/lastmile_qr_scan"}, "lon": -77.05020933333333, "bike_id": "b3d322436c912027129ca7731a3ccacf", "type": "electric_scooter", "name": "b3d322436c912027129ca7731a3ccacf"}, {"is_disabled": 0, "is_reserved": 0, "fusion_lat": 0.0, "lat": 38.91134266666667, "fusion_lon": 0.0, "rental_uris": {"ios": "https://dc.lft.to/lastmile_qr_scan", "android": "https://dc.lft.to/lastmile_qr_scan"}, "lon": -77.04861683333333, "bike_id": "0c9d0ed4ea3403c43e6401faf0491e7e", "type": "electric_scooter", "name": "0c9d0ed4ea3403c43e6401faf0491e7e"}, {"is_disabled": 0, "is_reserved": 0, "fusion_lat": 0.0, "lat": 38.91813533333333, "fusion_lon": 0.0, "rental_uris": {"ios": "https://dc.lft.to/lastmile_qr_scan", "android": "https://dc.lft.to/lastmile_qr_scan"}, "lon": -77.0247295, "bike_id": "dc565cf106114cfb191a547b3fa0d47d", "type": "electric_scooter", "name": "dc565cf106114cfb191a547b3fa0d47d"}, {"is_disabled": 0, "is_reserved": 0, "fusion_lat": 0.0, "lat": 38.896175, "fusion_lon": 0.0, "rental_uris": {"ios": "https://dc.lft.to/lastmile_qr_scan", "android": "https://dc.lft.to/lastmile_qr_scan"}, "lon": -77.04325483333334, "bike_id": "c1adf05202529d095404079f4a1d6b65", "type": "electric_scooter", "name": "c1adf05202529d095404079f4a1d6b65"}, {"is_disabled": 0, "is_reserved": 0, "fusion_lat": 0.0, "lat": 38.920796, "fusion_lon": 0.0, "rental_uris": {"ios": "https://dc.lft.to/lastmile_qr_scan", "android": "https://dc.lft.to/lastmile_qr_scan"}, "lon": -77.02287733333333, "bike_id": "40aacee6c2e1db37edb7e58b28ad57b0", "type": "electric_scooter", "name": "40aacee6c2e1db37edb7e58b28ad57b0"}, {"is_disabled": 0, "is_reserved": 0, "fusion_lat": 0.0, "lat": 38.93101716666666, "fusion_lon": 0.0, "rental_uris": {"ios": "https://dc.lft.to/lastmile_qr_scan", "android": "https://dc.lft.to/lastmile_qr_scan"}, "lon": -77.02479583333333, "bike_id": "41b743e894a124d63ae50e0fc5c92e1f", "type": "electric_scooter", "name": "41b743e894a124d63ae50e0fc5c92e1f"}, {"is_disabled": 0, "is_reserved": 0, "fusion_lat": 0.0, "lat": 38.827591166666664, "fusion_lon": 0.0, "rental_uris": {"ios": "https://dc.lft.to/lastmile_qr_scan", "android": "https://dc.lft.to/lastmile_qr_scan"}, "lon": -77.050326, "bike_id": "b1b1ca7841a2821823d0bc4c6a7d4885", "type": "electric_bike", "name": "b1b1ca7841a2821823d0bc4c6a7d4885"}, {"is_disabled": 0, "is_reserved": 0, "fusion_lat": 0.0, "lat": 38.89197216666667, "fusion_lon": 0.0, "rental_uris": {"ios": "https://dc.lft.to/lastmile_qr_scan", "android": "https://dc.lft.to/lastmile_qr_scan"}, "lon": -77.04381533333333, "bike_id": "19c791c6066ab0ae3b2377b74dae64a7", "type": "electric_scooter", "name": "19c791c6066ab0ae3b2377b74dae64a7"}, {"is_disabled": 0, "is_reserved": 0, "fusion_lat": 0.0, "lat": 38.883957333333335, "fusion_lon": 0.0, "rental_uris": {"ios": "https://dc.lft.to/lastmile_qr_scan", "android": "https://dc.lft.to/lastmile_qr_scan"}, "lon": -76.98586883333333, "bike_id": "1b736ba2a9208c97bd829794209ec7ad", "type": "electric_bike", "name": "1b736ba2a9208c97bd829794209ec7ad"}, {"is_disabled": 0, "is_reserved": 0, "fusion_lat": 0.0, "lat": 38.900732166666664, "fusion_lon": 0.0, "rental_uris": {"ios": "https://dc.lft.to/lastmile_qr_scan", "android": "https://dc.lft.to/lastmile_qr_scan"}, "lon": -77.0475325, "bike_id": "52d75a2eb7737b9c2efebc90e1cf3d63", "type": "electric_scooter", "name": "52d75a2eb7737b9c2efebc90e1cf3d63"}, {"is_disabled": 0, "is_reserved": 0, "fusion_lat": 0.0, "lat": 38.9317, "fusion_lon": 0.0, "rental_uris": {"ios": "https://dc.lft.to/lastmile_qr_scan", "android": "https://dc.lft.to/lastmile_qr_scan"}, "lon": -77.0281225, "bike_id": "9a8055090fe7493eaa75c50d37d8bbf9", "type": "electric_scooter", "name": "9a8055090fe7493eaa75c50d37d8bbf9"}, {"is_disabled": 0, "is_reserved": 0, "fusion_lat": 0.0, "lat": 38.900208166666665, "fusion_lon": 0.0, "rental_uris": {"ios": "https://dc.lft.to/lastmile_qr_scan", "android": "https://dc.lft.to/lastmile_qr_scan"}, "lon": -76.998728, "bike_id": "526139b5763ecb74bfbe47ec364be4bd", "type": "electric_scooter", "name": "526139b5763ecb74bfbe47ec364be4bd"}, {"is_disabled": 0, "is_reserved": 0, "fusion_lat": 0.0, "lat": 38.91826833333333, "fusion_lon": 0.0, "rental_uris": {"ios": "https://dc.lft.to/lastmile_qr_scan", "android": "https://dc.lft.to/lastmile_qr_scan"}, "lon": -77.03451483333333, "bike_id": "bf01ac38a1b604e0aa0953e48bfedf53", "type": "electric_scooter", "name": "bf01ac38a1b604e0aa0953e48bfedf53"}, {"is_disabled": 0, "is_reserved": 0, "fusion_lat": 0.0, "lat": 38.923423, "fusion_lon": 0.0, "rental_uris": {"ios": "https://dc.lft.to/lastmile_qr_scan", "android": "https://dc.lft.to/lastmile_qr_scan"}, "lon": -76.99867033333334, "bike_id": "1a41c3d115b3aa65f3550ab8f7354059", "type": "electric_scooter", "name": "1a41c3d115b3aa65f3550ab8f7354059"}, {"is_disabled": 0, "is_reserved": 0, "fusion_lat": 0.0, "lat": 38.855230666666664, "fusion_lon": 0.0, "rental_uris": {"ios": "https://dc.lft.to/lastmile_qr_scan", "android": "https://dc.lft.to/lastmile_qr_scan"}, "lon": -77.1204945, "bike_id": "490d5aae9744c8fd3c356b34fa91e737", "type": "electric_bike", "name": "490d5aae9744c8fd3c356b34fa91e737"}, {"is_disabled": 0, "is_reserved": 0, "fusion_lat": 0.0, "lat": 38.8743195, "fusion_lon": 0.0, "rental_uris": {"ios": "https://dc.lft.to/lastmile_qr_scan", "android": "https://dc.lft.to/lastmile_qr_scan"}, "lon": -77.0002925, "bike_id": "f3243610c3f85048c75e6694e4524e00", "type": "electric_scooter", "name": "f3243610c3f85048c75e6694e4524e00"}, {"is_disabled": 0, "is_reserved": 0, "fusion_lat": 0.0, "lat": 38.898074, "fusion_lon": 0.0, "rental_uris": {"ios": "https://dc.lft.to/lastmile_qr_scan", "android": "https://dc.lft.to/lastmile_qr_scan"}, "lon": -76.97947733333334, "bike_id": "441da9efb4ff72e88da2810b39038537", "type": "electric_scooter", "name": "441da9efb4ff72e88da2810b39038537"}, {"is_disabled": 0, "is_reserved": 0, "fusion_lat": 0.0, "lat": 38.93069233333333, "fusion_lon": 0.0, "rental_uris": {"ios": "https://dc.lft.to/lastmile_qr_scan", "android": "https://dc.lft.to/lastmile_qr_scan"}, "lon": -77.02160716666667, "bike_id": "8dd559e5a0979e1bb1dcc10a9cd7314f", "type": "electric_scooter", "name": "8dd559e5a0979e1bb1dcc10a9cd7314f"}, {"is_disabled": 0, "is_reserved": 0, "fusion_lat": 0.0, "lat": 38.8924265, "fusion_lon": 0.0, "rental_uris": {"ios": "https://dc.lft.to/lastmile_qr_scan", "android": "https://dc.lft.to/lastmile_qr_scan"}, "lon": -77.03212316666666, "bike_id": "2066d7d1a2eaddbf6dbb68172757aff0", "type": "electric_scooter", "name": "2066d7d1a2eaddbf6dbb68172757aff0"}, {"is_disabled": 0, "is_reserved": 0, "fusion_lat": 0.0, "lat": 38.899975166666664, "fusion_lon": 0.0, "rental_uris": {"ios": "https://dc.lft.to/lastmile_qr_scan", "android": "https://dc.lft.to/lastmile_qr_scan"}, "lon": -77.0271505, "bike_id": "47674b8e8ea1e2e68092e41933616449", "type": "electric_bike", "name": "47674b8e8ea1e2e68092e41933616449"}, {"is_disabled": 0, "is_reserved": 0, "fusion_lat": 0.0, "lat": 38.880387999999996, "fusion_lon": 0.0, "rental_uris": {"ios": "https://dc.lft.to/lastmile_qr_scan", "android": "https://dc.lft.to/lastmile_qr_scan"}, "lon": -76.9271795, "bike_id": "7554dc3ad12b91d76ec281b800adb552", "type": "electric_scooter", "name": "7554dc3ad12b91d76ec281b800adb552"}, {"is_disabled": 0, "is_reserved": 0, "fusion_lat": 0.0, "lat": 38.9303045, "fusion_lon": 0.0, "rental_uris": {"ios": "https://dc.lft.to/lastmile_qr_scan", "android": "https://dc.lft.to/lastmile_qr_scan"}, "lon": -77.06076666666667, "bike_id": "9984326d519807dd7737e7017feacca5", "type": "electric_scooter", "name": "9984326d519807dd7737e7017feacca5"}, {"is_disabled": 0, "is_reserved": 0, "fusion_lat": 0.0, "lat": 38.91439316666667, "fusion_lon": 0.0, "rental_uris": {"ios": "https://dc.lft.to/lastmile_qr_scan", "android": "https://dc.lft.to/lastmile_qr_scan"}, "lon": -77.0227725, "bike_id": "99d13c804c963429cdff2d023e775fce", "type": "electric_scooter", "name": "99d13c804c963429cdff2d023e775fce"}, {"is_disabled": 0, "is_reserved": 0, "fusion_lat": 0.0, "lat": 38.90213933333333, "fusion_lon": 0.0, "rental_uris": {"ios": "https://dc.lft.to/lastmile_qr_scan", "android": "https://dc.lft.to/lastmile_qr_scan"}, "lon": -77.051146, "bike_id": "ea1320030db76beb9f5b2ba6890531fe", "type": "electric_scooter", "name": "ea1320030db76beb9f5b2ba6890531fe"}, {"is_disabled": 0, "is_reserved": 0, "fusion_lat": 0.0, "lat": 38.9316985, "fusion_lon": 0.0, "rental_uris": {"ios": "https://dc.lft.to/lastmile_qr_scan", "android": "https://dc.lft.to/lastmile_qr_scan"}, "lon": -77.0281225, "bike_id": "53e2def1a80e67807f3f43f66753a42f", "type": "electric_scooter", "name": "53e2def1a80e67807f3f43f66753a42f"}, {"is_disabled": 0, "is_reserved": 0, "fusion_lat": 0.0, "lat": 38.900241333333334, "fusion_lon": 0.0, "rental_uris": {"ios": "https://dc.lft.to/lastmile_qr_scan", "android": "https://dc.lft.to/lastmile_qr_scan"}, "lon": -77.00210066666666, "bike_id": "e3ff974c77a07b97f5f21347d9dc5a81", "type": "electric_scooter", "name": "e3ff974c77a07b97f5f21347d9dc5a81"}, {"is_disabled": 0, "is_reserved": 0, "fusion_lat": 0.0, "lat": 38.87575983333333, "fusion_lon": 0.0, "rental_uris": {"ios": "https://dc.lft.to/lastmile_qr_scan", "android": "https://dc.lft.to/lastmile_qr_scan"}, "lon": -77.23409766666667, "bike_id": "4a1488b14e7663b5230a4b39fdb4ba05", "type": "electric_bike", "name": "4a1488b14e7663b5230a4b39fdb4ba05"}, {"is_disabled": 0, "is_reserved": 0, "fusion_lat": 0.0, "lat": 38.92037933333334, "fusion_lon": 0.0, "rental_uris": {"ios": "https://dc.lft.to/lastmile_qr_scan", "android": "https://dc.lft.to/lastmile_qr_scan"}, "lon": -77.047122, "bike_id": "30fba31b8099bbe9be1119480635a60f", "type": "electric_scooter", "name": "30fba31b8099bbe9be1119480635a60f"}, {"is_disabled": 0, "is_reserved": 0, "fusion_lat": 0.0, "lat": 38.8707075, "fusion_lon": 0.0, "rental_uris": {"ios": "https://dc.lft.to/lastmile_qr_scan", "android": "https://dc.lft.to/lastmile_qr_scan"}, "lon": -76.97972416666667, "bike_id": "eb800852e71fa9942c8c8301c68ef0c0", "type": "electric_scooter", "name": "eb800852e71fa9942c8c8301c68ef0c0"}, {"is_disabled": 0, "is_reserved": 0, "fusion_lat": 0.0, "lat": 38.926506833333335, "fusion_lon": 0.0, "rental_uris": {"ios": "https://dc.lft.to/lastmile_qr_scan", "android": "https://dc.lft.to/lastmile_qr_scan"}, "lon": -77.090185, "bike_id": "e845aae284dbbbecae81bbe07471ba48", "type": "electric_bike", "name": "e845aae284dbbbecae81bbe07471ba48"}, {"is_disabled": 0, "is_reserved": 0, "fusion_lat": 0.0, "lat": 38.880320833333336, "fusion_lon": 0.0, "rental_uris": {"ios": "https://dc.lft.to/lastmile_qr_scan", "android": "https://dc.lft.to/lastmile_qr_scan"}, "lon": -76.92715883333334, "bike_id": "cf3ee6e4fda2b312fd404cda1ae49087", "type": "electric_scooter", "name": "cf3ee6e4fda2b312fd404cda1ae49087"}, {"is_disabled": 0, "is_reserved": 0, "fusion_lat": 0.0, "lat": 38.895608333333335, "fusion_lon": 0.0, "rental_uris": {"ios": "https://dc.lft.to/lastmile_qr_scan", "android": "https://dc.lft.to/lastmile_qr_scan"}, "lon": -77.1272915, "bike_id": "cb37766e425d80a5708a6d58641f15b2", "type": "electric_bike", "name": "cb37766e425d80a5708a6d58641f15b2"}, {"is_disabled": 0, "is_reserved": 0, "fusion_lat": 0.0, "lat": 38.91804116666667, "fusion_lon": 0.0, "rental_uris": {"ios": "https://dc.lft.to/lastmile_qr_scan", "android": "https://dc.lft.to/lastmile_qr_scan"}, "lon": -77.0342475, "bike_id": "dcac1bd13e1f4a26d67d42d8d891bcbe", "type": "electric_scooter", "name": "dcac1bd13e1f4a26d67d42d8d891bcbe"}, {"is_disabled": 0, "is_reserved": 0, "fusion_lat": 0.0, "lat": 38.92653266666667, "fusion_lon": 0.0, "rental_uris": {"ios": "https://dc.lft.to/lastmile_qr_scan", "android": "https://dc.lft.to/lastmile_qr_scan"}, "lon": -77.0383655, "bike_id": "0784461a71e30574e5a839cfd6b28eae", "type": "electric_scooter", "name": "0784461a71e30574e5a839cfd6b28eae"}, {"is_disabled": 0, "is_reserved": 0, "fusion_lat": 0.0, "lat": 38.916273333333336, "fusion_lon": 0.0, "rental_uris": {"ios": "https://dc.lft.to/lastmile_qr_scan", "android": "https://dc.lft.to/lastmile_qr_scan"}, "lon": -77.03970333333334, "bike_id": "979cc7c22d5e1a4317cb2f62a9842dd8", "type": "electric_scooter", "name": "979cc7c22d5e1a4317cb2f62a9842dd8"}, {"is_disabled": 0, "is_reserved": 0, "fusion_lat": 0.0, "lat": 38.94976366666667, "fusion_lon": 0.0, "rental_uris": {"ios": "https://dc.lft.to/lastmile_qr_scan", "android": "https://dc.lft.to/lastmile_qr_scan"}, "lon": -77.02433616666667, "bike_id": "68cc41dfef0d74fce26587a44b66c233", "type": "electric_scooter", "name": "68cc41dfef0d74fce26587a44b66c233"}, {"is_disabled": 0, "is_reserved": 0, "fusion_lat": 0.0, "lat": 38.89707883333333, "fusion_lon": 0.0, "rental_uris": {"ios": "https://dc.lft.to/lastmile_qr_scan", "android": "https://dc.lft.to/lastmile_qr_scan"}, "lon": -76.9390325, "bike_id": "c0652c79217a1b19fe2005a07b288b41", "type": "electric_scooter", "name": "c0652c79217a1b19fe2005a07b288b41"}, {"is_disabled": 0, "is_reserved": 0, "fusion_lat": 0.0, "lat": 38.90120783333333, "fusion_lon": 0.0, "rental_uris": {"ios": "https://dc.lft.to/lastmile_qr_scan", "android": "https://dc.lft.to/lastmile_qr_scan"}, "lon": -77.04975833333333, "bike_id": "43bf49e62cb5745dcaf1a2d47186cb9b", "type": "electric_scooter", "name": "43bf49e62cb5745dcaf1a2d47186cb9b"}, {"is_disabled": 0, "is_reserved": 0, "fusion_lat": 0.0, "lat": 38.923298333333335, "fusion_lon": 0.0, "rental_uris": {"ios": "https://dc.lft.to/lastmile_qr_scan", "android": "https://dc.lft.to/lastmile_qr_scan"}, "lon": -77.03665433333333, "bike_id": "341469561eba65b05c63f68e506073a6", "type": "electric_scooter", "name": "341469561eba65b05c63f68e506073a6"}, {"is_disabled": 0, "is_reserved": 0, "fusion_lat": 0.0, "lat": 38.971542666666664, "fusion_lon": 0.0, "rental_uris": {"ios": "https://dc.lft.to/lastmile_qr_scan", "android": "https://dc.lft.to/lastmile_qr_scan"}, "lon": -76.98358883333333, "bike_id": "79b6cd6fddd8c3cf4c829e5308a66a57", "type": "electric_bike", "name": "79b6cd6fddd8c3cf4c829e5308a66a57"}, {"is_disabled": 0, "is_reserved": 0, "fusion_lat": 0.0, "lat": 38.913486666666664, "fusion_lon": 0.0, "rental_uris": {"ios": "https://dc.lft.to/lastmile_qr_scan", "android": "https://dc.lft.to/lastmile_qr_scan"}, "lon": -77.03208833333333, "bike_id": "26ae9013e7a43eb5670ce591092de636", "type": "electric_scooter", "name": "26ae9013e7a43eb5670ce591092de636"}, {"is_disabled": 0, "is_reserved": 0, "fusion_lat": 0.0, "lat": 38.902023, "fusion_lon": 0.0, "rental_uris": {"ios": "https://dc.lft.to/lastmile_qr_scan", "android": "https://dc.lft.to/lastmile_qr_scan"}, "lon": -77.02163183333333, "bike_id": "b2e9a1e8e116cdc64fbf1662b4133600", "type": "electric_scooter", "name": "b2e9a1e8e116cdc64fbf1662b4133600"}, {"is_disabled": 0, "is_reserved": 0, "fusion_lat": 0.0, "lat": 38.9115685, "fusion_lon": 0.0, "rental_uris": {"ios": "https://dc.lft.to/lastmile_qr_scan", "android": "https://dc.lft.to/lastmile_qr_scan"}, "lon": -77.01087083333333, "bike_id": "9251abb2cbcd90732023aa78e97d00c3", "type": "electric_scooter", "name": "9251abb2cbcd90732023aa78e97d00c3"}, {"is_disabled": 0, "is_reserved": 0, "fusion_lat": 0.0, "lat": 38.93241033333334, "fusion_lon": 0.0, "rental_uris": {"ios": "https://dc.lft.to/lastmile_qr_scan", "android": "https://dc.lft.to/lastmile_qr_scan"}, "lon": -76.99194716666666, "bike_id": "d37c6e1eee613cf13bdf4fa0e85835d8", "type": "electric_scooter", "name": "d37c6e1eee613cf13bdf4fa0e85835d8"}, {"is_disabled": 0, "is_reserved": 0, "fusion_lat": 0.0, "lat": 38.917082666666666, "fusion_lon": 0.0, "rental_uris": {"ios": "https://dc.lft.to/lastmile_qr_scan", "android": "https://dc.lft.to/lastmile_qr_scan"}, "lon": -77.03862616666666, "bike_id": "faef9d3872a5e6f2de2b09f1f6945fdb", "type": "electric_scooter", "name": "faef9d3872a5e6f2de2b09f1f6945fdb"}, {"is_disabled": 0, "is_reserved": 0, "fusion_lat": 0.0, "lat": 38.887351333333335, "fusion_lon": 0.0, "rental_uris": {"ios": "https://dc.lft.to/lastmile_qr_scan", "android": "https://dc.lft.to/lastmile_qr_scan"}, "lon": -77.02202533333333, "bike_id": "adb34faef9c40479f9aa82eb0bda0883", "type": "electric_scooter", "name": "adb34faef9c40479f9aa82eb0bda0883"}, {"is_disabled": 0, "is_reserved": 0, "fusion_lat": 0.0, "lat": 38.921944, "fusion_lon": 0.0, "rental_uris": {"ios": "https://dc.lft.to/lastmile_qr_scan", "android": "https://dc.lft.to/lastmile_qr_scan"}, "lon": -77.0379255, "bike_id": "aa3a994d8f615831d776cfd0399d28d6", "type": "electric_scooter", "name": "aa3a994d8f615831d776cfd0399d28d6"}, {"is_disabled": 0, "is_reserved": 0, "fusion_lat": 0.0, "lat": 38.85786816666667, "fusion_lon": 0.0, "rental_uris": {"ios": "https://dc.lft.to/lastmile_qr_scan", "android": "https://dc.lft.to/lastmile_qr_scan"}, "lon": -76.98755566666667, "bike_id": "2db65ce1071f7ac03c4721b6bd4ffd46", "type": "electric_bike", "name": "2db65ce1071f7ac03c4721b6bd4ffd46"}, {"is_disabled": 0, "is_reserved": 0, "fusion_lat": 0.0, "lat": 38.92317216666667, "fusion_lon": 0.0, "rental_uris": {"ios": "https://dc.lft.to/lastmile_qr_scan", "android": "https://dc.lft.to/lastmile_qr_scan"}, "lon": -77.02796866666667, "bike_id": "e81e3029aa9bb68f6781b66cbdaf7fa0", "type": "electric_scooter", "name": "e81e3029aa9bb68f6781b66cbdaf7fa0"}, {"is_disabled": 0, "is_reserved": 0, "fusion_lat": 0.0, "lat": 38.923128, "fusion_lon": 0.0, "rental_uris": {"ios": "https://dc.lft.to/lastmile_qr_scan", "android": "https://dc.lft.to/lastmile_qr_scan"}, "lon": -77.03808583333333, "bike_id": "7f9cfc257798f529eb29e8d5c1d7f358", "type": "electric_bike", "name": "7f9cfc257798f529eb29e8d5c1d7f358"}, {"is_disabled": 0, "is_reserved": 0, "fusion_lat": 0.0, "lat": 38.90006733333333, "fusion_lon": 0.0, "rental_uris": {"ios": "https://dc.lft.to/lastmile_qr_scan", "android": "https://dc.lft.to/lastmile_qr_scan"}, "lon": -77.05251333333334, "bike_id": "3c42604d872971142dd3f102db76dce3", "type": "electric_scooter", "name": "3c42604d872971142dd3f102db76dce3"}, {"is_disabled": 0, "is_reserved": 0, "fusion_lat": 0.0, "lat": 38.91919883333333, "fusion_lon": 0.0, "rental_uris": {"ios": "https://dc.lft.to/lastmile_qr_scan", "android": "https://dc.lft.to/lastmile_qr_scan"}, "lon": -77.03103466666667, "bike_id": "87f3addda13b0e398f8022d082f6f956", "type": "electric_scooter", "name": "87f3addda13b0e398f8022d082f6f956"}, {"is_disabled": 0, "is_reserved": 0, "fusion_lat": 0.0, "lat": 38.92320866666667, "fusion_lon": 0.0, "rental_uris": {"ios": "https://dc.lft.to/lastmile_qr_scan", "android": "https://dc.lft.to/lastmile_qr_scan"}, "lon": -77.02965016666667, "bike_id": "9a1b975e5b319bd967611ba404ed413a", "type": "electric_scooter", "name": "9a1b975e5b319bd967611ba404ed413a"}, {"is_disabled": 0, "is_reserved": 0, "fusion_lat": 0.0, "lat": 38.924113166666665, "fusion_lon": 0.0, "rental_uris": {"ios": "https://dc.lft.to/lastmile_qr_scan", "android": "https://dc.lft.to/lastmile_qr_scan"}, "lon": -77.02713333333334, "bike_id": "25df79481658d0873b193b7dd6fab70e", "type": "electric_scooter", "name": "25df79481658d0873b193b7dd6fab70e"}, {"is_disabled": 0, "is_reserved": 0, "fusion_lat": 0.0, "lat": 38.917815, "fusion_lon": 0.0, "rental_uris": {"ios": "https://dc.lft.to/lastmile_qr_scan", "android": "https://dc.lft.to/lastmile_qr_scan"}, "lon": -77.02308616666667, "bike_id": "ec7fbab7caf1bcbbec055d30f9f8df9e", "type": "electric_scooter", "name": "ec7fbab7caf1bcbbec055d30f9f8df9e"}, {"is_disabled": 0, "is_reserved": 0, "fusion_lat": 0.0, "lat": 38.905120333333336, "fusion_lon": 0.0, "rental_uris": {"ios": "https://dc.lft.to/lastmile_qr_scan", "android": "https://dc.lft.to/lastmile_qr_scan"}, "lon": -77.06746116666666, "bike_id": "90cde53dcdf3bcab50037b95755e651e", "type": "electric_scooter", "name": "90cde53dcdf3bcab50037b95755e651e"}, {"is_disabled": 0, "is_reserved": 0, "fusion_lat": 0.0, "lat": 38.89198616666667, "fusion_lon": 0.0, "rental_uris": {"ios": "https://dc.lft.to/lastmile_qr_scan", "android": "https://dc.lft.to/lastmile_qr_scan"}, "lon": -76.99843566666667, "bike_id": "334a8da7fb0d5209c47c5a09fb5caef6", "type": "electric_scooter", "name": "334a8da7fb0d5209c47c5a09fb5caef6"}, {"is_disabled": 0, "is_reserved": 0, "fusion_lat": 0.0, "lat": 38.9118675, "fusion_lon": 0.0, "rental_uris": {"ios": "https://dc.lft.to/lastmile_qr_scan", "android": "https://dc.lft.to/lastmile_qr_scan"}, "lon": -77.00270766666667, "bike_id": "9f5b11b7788749ab2117e53d5c0659fa", "type": "electric_scooter", "name": "9f5b11b7788749ab2117e53d5c0659fa"}, {"is_disabled": 0, "is_reserved": 0, "fusion_lat": 0.0, "lat": 39.0423635, "fusion_lon": 0.0, "rental_uris": {"ios": "https://dc.lft.to/lastmile_qr_scan", "android": "https://dc.lft.to/lastmile_qr_scan"}, "lon": -76.9973045, "bike_id": "17521bb2e12241a13bee6fada676915d", "type": "electric_bike", "name": "17521bb2e12241a13bee6fada676915d"}, {"is_disabled": 0, "is_reserved": 0, "fusion_lat": 0.0, "lat": 38.92089683333333, "fusion_lon": 0.0, "rental_uris": {"ios": "https://dc.lft.to/lastmile_qr_scan", "android": "https://dc.lft.to/lastmile_qr_scan"}, "lon": -77.02249716666667, "bike_id": "c7cdd0316d93c9bbb91b9f7038e9434f", "type": "electric_scooter", "name": "c7cdd0316d93c9bbb91b9f7038e9434f"}, {"is_disabled": 0, "is_reserved": 0, "fusion_lat": 0.0, "lat": 38.92005566666667, "fusion_lon": 0.0, "rental_uris": {"ios": "https://dc.lft.to/lastmile_qr_scan", "android": "https://dc.lft.to/lastmile_qr_scan"}, "lon": -76.98498683333334, "bike_id": "5481e520067c3c46a868c1043993b153", "type": "electric_scooter", "name": "5481e520067c3c46a868c1043993b153"}, {"is_disabled": 0, "is_reserved": 0, "fusion_lat": 0.0, "lat": 38.998500166666666, "fusion_lon": 0.0, "rental_uris": {"ios": "https://dc.lft.to/lastmile_qr_scan", "android": "https://dc.lft.to/lastmile_qr_scan"}, "lon": -77.00247616666667, "bike_id": "4ae41fff91a2c33c6fbf9a54c4c42757", "type": "electric_bike", "name": "4ae41fff91a2c33c6fbf9a54c4c42757"}, {"is_disabled": 0, "is_reserved": 0, "fusion_lat": 0.0, "lat": 38.918069833333334, "fusion_lon": 0.0, "rental_uris": {"ios": "https://dc.lft.to/lastmile_qr_scan", "android": "https://dc.lft.to/lastmile_qr_scan"}, "lon": -77.03188766666666, "bike_id": "f7c46559c5648cba610f334c2f4fd7e4", "type": "electric_scooter", "name": "f7c46559c5648cba610f334c2f4fd7e4"}, {"is_disabled": 0, "is_reserved": 0, "fusion_lat": 0.0, "lat": 38.934609333333334, "fusion_lon": 0.0, "rental_uris": {"ios": "https://dc.lft.to/lastmile_qr_scan", "android": "https://dc.lft.to/lastmile_qr_scan"}, "lon": -77.02838, "bike_id": "15dd15f8d7e98fd321618dacd609b214", "type": "electric_scooter", "name": "15dd15f8d7e98fd321618dacd609b214"}, {"is_disabled": 0, "is_reserved": 0, "fusion_lat": 0.0, "lat": 38.905042333333334, "fusion_lon": 0.0, "rental_uris": {"ios": "https://dc.lft.to/lastmile_qr_scan", "android": "https://dc.lft.to/lastmile_qr_scan"}, "lon": -76.99012083333334, "bike_id": "2fd25f658cc88af0a3751cbd0d04e88d", "type": "electric_scooter", "name": "2fd25f658cc88af0a3751cbd0d04e88d"}, {"is_disabled": 0, "is_reserved": 0, "fusion_lat": 0.0, "lat": 38.9458615, "fusion_lon": 0.0, "rental_uris": {"ios": "https://dc.lft.to/lastmile_qr_scan", "android": "https://dc.lft.to/lastmile_qr_scan"}, "lon": -77.02029616666667, "bike_id": "af21c3a73650ed8bd39b1d4008bedefa", "type": "electric_scooter", "name": "af21c3a73650ed8bd39b1d4008bedefa"}, {"is_disabled": 0, "is_reserved": 0, "fusion_lat": 0.0, "lat": 38.90671116666667, "fusion_lon": 0.0, "rental_uris": {"ios": "https://dc.lft.to/lastmile_qr_scan", "android": "https://dc.lft.to/lastmile_qr_scan"}, "lon": -77.02713916666667, "bike_id": "e11972671d8152292669c82db69aeefe", "type": "electric_scooter", "name": "e11972671d8152292669c82db69aeefe"}, {"is_disabled": 0, "is_reserved": 0, "fusion_lat": 0.0, "lat": 38.90974883333333, "fusion_lon": 0.0, "rental_uris": {"ios": "https://dc.lft.to/lastmile_qr_scan", "android": "https://dc.lft.to/lastmile_qr_scan"}, "lon": -77.048193, "bike_id": "fbd15396e080d00799fc4b45fa5b696a", "type": "electric_scooter", "name": "fbd15396e080d00799fc4b45fa5b696a"}, {"is_disabled": 0, "is_reserved": 0, "fusion_lat": 0.0, "lat": 38.90711133333333, "fusion_lon": 0.0, "rental_uris": {"ios": "https://dc.lft.to/lastmile_qr_scan", "android": "https://dc.lft.to/lastmile_qr_scan"}, "lon": -77.03517716666667, "bike_id": "38665097a00befd561f902eb070b12cb", "type": "electric_scooter", "name": "38665097a00befd561f902eb070b12cb"}, {"is_disabled": 0, "is_reserved": 0, "fusion_lat": 0.0, "lat": 38.89265816666666, "fusion_lon": 0.0, "rental_uris": {"ios": "https://dc.lft.to/lastmile_qr_scan", "android": "https://dc.lft.to/lastmile_qr_scan"}, "lon": -77.0420085, "bike_id": "067b9b35a8edb3a0a4c3c693488c0c0d", "type": "electric_scooter", "name": "067b9b35a8edb3a0a4c3c693488c0c0d"}, {"is_disabled": 0, "is_reserved": 0, "fusion_lat": 0.0, "lat": 38.908769166666666, "fusion_lon": 0.0, "rental_uris": {"ios": "https://dc.lft.to/lastmile_qr_scan", "android": "https://dc.lft.to/lastmile_qr_scan"}, "lon": -77.04335883333333, "bike_id": "c5084f0d05c33aeae0c5e9e3e0e2bbb4", "type": "electric_scooter", "name": "c5084f0d05c33aeae0c5e9e3e0e2bbb4"}, {"is_disabled": 0, "is_reserved": 0, "fusion_lat": 0.0, "lat": 38.9968525, "fusion_lon": 0.0, "rental_uris": {"ios": "https://dc.lft.to/lastmile_qr_scan", "android": "https://dc.lft.to/lastmile_qr_scan"}, "lon": -77.03778516666667, "bike_id": "272261adf8968d6c085e0e69c655cd94", "type": "electric_bike", "name": "272261adf8968d6c085e0e69c655cd94"}, {"is_disabled": 0, "is_reserved": 0, "fusion_lat": 0.0, "lat": 38.912699333333336, "fusion_lon": 0.0, "rental_uris": {"ios": "https://dc.lft.to/lastmile_qr_scan", "android": "https://dc.lft.to/lastmile_qr_scan"}, "lon": -77.022299, "bike_id": "5d504208267b7aafee1040938035f464", "type": "electric_scooter", "name": "5d504208267b7aafee1040938035f464"}, {"is_disabled": 0, "is_reserved": 0, "fusion_lat": 0.0, "lat": 38.9237075, "fusion_lon": 0.0, "rental_uris": {"ios": "https://dc.lft.to/lastmile_qr_scan", "android": "https://dc.lft.to/lastmile_qr_scan"}, "lon": -77.04019283333334, "bike_id": "b5cd8f4b5d97cf7622fcbfe5a4c26ce5", "type": "electric_scooter", "name": "b5cd8f4b5d97cf7622fcbfe5a4c26ce5"}, {"is_disabled": 0, "is_reserved": 0, "fusion_lat": 0.0, "lat": 38.89898816666667, "fusion_lon": 0.0, "rental_uris": {"ios": "https://dc.lft.to/lastmile_qr_scan", "android": "https://dc.lft.to/lastmile_qr_scan"}, "lon": -76.9895955, "bike_id": "d94a8198a4aaf0913c091812038a0813", "type": "electric_bike", "name": "d94a8198a4aaf0913c091812038a0813"}, {"is_disabled": 0, "is_reserved": 0, "fusion_lat": 0.0, "lat": 38.90728333333333, "fusion_lon": 0.0, "rental_uris": {"ios": "https://dc.lft.to/lastmile_qr_scan", "android": "https://dc.lft.to/lastmile_qr_scan"}, "lon": -77.0308685, "bike_id": "974fd6a7b078a1bd6d5d1be0d9621a40", "type": "electric_scooter", "name": "974fd6a7b078a1bd6d5d1be0d9621a40"}, {"is_disabled": 0, "is_reserved": 0, "fusion_lat": 0.0, "lat": 38.9286245, "fusion_lon": 0.0, "rental_uris": {"ios": "https://dc.lft.to/lastmile_qr_scan", "android": "https://dc.lft.to/lastmile_qr_scan"}, "lon": -77.07336383333333, "bike_id": "d00f788918358d706b0ad5c8912fced0", "type": "electric_scooter", "name": "d00f788918358d706b0ad5c8912fced0"}, {"is_disabled": 0, "is_reserved": 0, "fusion_lat": 0.0, "lat": 38.94634766666667, "fusion_lon": 0.0, "rental_uris": {"ios": "https://dc.lft.to/lastmile_qr_scan", "android": "https://dc.lft.to/lastmile_qr_scan"}, "lon": -77.01840533333333, "bike_id": "7709366059cd50e7541ab65de35a34d0", "type": "electric_scooter", "name": "7709366059cd50e7541ab65de35a34d0"}, {"is_disabled": 0, "is_reserved": 0, "fusion_lat": 0.0, "lat": 38.9510075, "fusion_lon": 0.0, "rental_uris": {"ios": "https://dc.lft.to/lastmile_qr_scan", "android": "https://dc.lft.to/lastmile_qr_scan"}, "lon": -77.01575116666666, "bike_id": "25570b6830bfd6c97dc722a6d56ade12", "type": "electric_scooter", "name": "25570b6830bfd6c97dc722a6d56ade12"}, {"is_disabled": 0, "is_reserved": 0, "fusion_lat": 0.0, "lat": 38.91784783333333, "fusion_lon": 0.0, "rental_uris": {"ios": "https://dc.lft.to/lastmile_qr_scan", "android": "https://dc.lft.to/lastmile_qr_scan"}, "lon": -77.0231445, "bike_id": "0099ac9559c6955a661970979f88db8e", "type": "electric_scooter", "name": "0099ac9559c6955a661970979f88db8e"}, {"is_disabled": 0, "is_reserved": 0, "fusion_lat": 0.0, "lat": 38.925203833333335, "fusion_lon": 0.0, "rental_uris": {"ios": "https://dc.lft.to/lastmile_qr_scan", "android": "https://dc.lft.to/lastmile_qr_scan"}, "lon": -77.03881733333333, "bike_id": "9821ff572aedc709d602acfc382db2ed", "type": "electric_scooter", "name": "9821ff572aedc709d602acfc382db2ed"}, {"is_disabled": 0, "is_reserved": 0, "fusion_lat": 0.0, "lat": 38.923382333333336, "fusion_lon": 0.0, "rental_uris": {"ios": "https://dc.lft.to/lastmile_qr_scan", "android": "https://dc.lft.to/lastmile_qr_scan"}, "lon": -77.0353625, "bike_id": "447e4cf695d7fec995d1ab6e7cddb935", "type": "electric_scooter", "name": "447e4cf695d7fec995d1ab6e7cddb935"}, {"is_disabled": 0, "is_reserved": 0, "fusion_lat": 0.0, "lat": 38.913231333333336, "fusion_lon": 0.0, "rental_uris": {"ios": "https://dc.lft.to/lastmile_qr_scan", "android": "https://dc.lft.to/lastmile_qr_scan"}, "lon": -77.03174466666667, "bike_id": "5469315a556f24961e89b8f3964ea4d9", "type": "electric_scooter", "name": "5469315a556f24961e89b8f3964ea4d9"}, {"is_disabled": 0, "is_reserved": 0, "fusion_lat": 0.0, "lat": 38.9287035, "fusion_lon": 0.0, "rental_uris": {"ios": "https://dc.lft.to/lastmile_qr_scan", "android": "https://dc.lft.to/lastmile_qr_scan"}, "lon": -77.03447116666666, "bike_id": "1b93b1b6158227b246bebc8b70a2e783", "type": "electric_scooter", "name": "1b93b1b6158227b246bebc8b70a2e783"}, {"is_disabled": 0, "is_reserved": 0, "fusion_lat": 0.0, "lat": 38.913085833333334, "fusion_lon": 0.0, "rental_uris": {"ios": "https://dc.lft.to/lastmile_qr_scan", "android": "https://dc.lft.to/lastmile_qr_scan"}, "lon": -77.00830716666667, "bike_id": "72ba8830c43a924e964b117526f96171", "type": "electric_scooter", "name": "72ba8830c43a924e964b117526f96171"}, {"is_disabled": 0, "is_reserved": 0, "fusion_lat": 0.0, "lat": 38.8963955, "fusion_lon": 0.0, "rental_uris": {"ios": "https://dc.lft.to/lastmile_qr_scan", "android": "https://dc.lft.to/lastmile_qr_scan"}, "lon": -76.92798583333334, "bike_id": "0cc5efcac895c71ebb3920dcad7c36f7", "type": "electric_scooter", "name": "0cc5efcac895c71ebb3920dcad7c36f7"}, {"is_disabled": 0, "is_reserved": 0, "fusion_lat": 0.0, "lat": 38.911779333333335, "fusion_lon": 0.0, "rental_uris": {"ios": "https://dc.lft.to/lastmile_qr_scan", "android": "https://dc.lft.to/lastmile_qr_scan"}, "lon": -77.01205933333334, "bike_id": "b74a49cfd942c59e3deb206e1e69aa3b", "type": "electric_scooter", "name": "b74a49cfd942c59e3deb206e1e69aa3b"}, {"is_disabled": 0, "is_reserved": 0, "fusion_lat": 0.0, "lat": 38.8989025, "fusion_lon": 0.0, "rental_uris": {"ios": "https://dc.lft.to/lastmile_qr_scan", "android": "https://dc.lft.to/lastmile_qr_scan"}, "lon": -76.98688833333334, "bike_id": "256dc83c8506d27337db189aa6f46bed", "type": "electric_scooter", "name": "256dc83c8506d27337db189aa6f46bed"}, {"is_disabled": 0, "is_reserved": 0, "fusion_lat": 0.0, "lat": 38.90265766666667, "fusion_lon": 0.0, "rental_uris": {"ios": "https://dc.lft.to/lastmile_qr_scan", "android": "https://dc.lft.to/lastmile_qr_scan"}, "lon": -77.01757066666667, "bike_id": "fd18ef772a579da9853787c0b96d110e", "type": "electric_scooter", "name": "fd18ef772a579da9853787c0b96d110e"}, {"is_disabled": 0, "is_reserved": 0, "fusion_lat": 0.0, "lat": 38.9206015, "fusion_lon": 0.0, "rental_uris": {"ios": "https://dc.lft.to/lastmile_qr_scan", "android": "https://dc.lft.to/lastmile_qr_scan"}, "lon": -77.02426416666667, "bike_id": "2a7f65a3ab5b94b8e9b36777cddc229a", "type": "electric_bike", "name": "2a7f65a3ab5b94b8e9b36777cddc229a"}, {"is_disabled": 0, "is_reserved": 0, "fusion_lat": 0.0, "lat": 38.9282515, "fusion_lon": 0.0, "rental_uris": {"ios": "https://dc.lft.to/lastmile_qr_scan", "android": "https://dc.lft.to/lastmile_qr_scan"}, "lon": -77.0597395, "bike_id": "6c09278125afd592b2334978ad07b08e", "type": "electric_bike", "name": "6c09278125afd592b2334978ad07b08e"}, {"is_disabled": 0, "is_reserved": 0, "fusion_lat": 0.0, "lat": 38.934531166666666, "fusion_lon": 0.0, "rental_uris": {"ios": "https://dc.lft.to/lastmile_qr_scan", "android": "https://dc.lft.to/lastmile_qr_scan"}, "lon": -77.02910533333333, "bike_id": "077e41e94924c6a4ce7b9dcdede69b39", "type": "electric_scooter", "name": "077e41e94924c6a4ce7b9dcdede69b39"}, {"is_disabled": 0, "is_reserved": 0, "fusion_lat": 0.0, "lat": 38.876088833333334, "fusion_lon": 0.0, "rental_uris": {"ios": "https://dc.lft.to/lastmile_qr_scan", "android": "https://dc.lft.to/lastmile_qr_scan"}, "lon": -77.02056466666667, "bike_id": "32cf76be08eb064f6c42cc2d2ec275e1", "type": "electric_scooter", "name": "32cf76be08eb064f6c42cc2d2ec275e1"}, {"is_disabled": 0, "is_reserved": 0, "fusion_lat": 0.0, "lat": 38.91219233333333, "fusion_lon": 0.0, "rental_uris": {"ios": "https://dc.lft.to/lastmile_qr_scan", "android": "https://dc.lft.to/lastmile_qr_scan"}, "lon": -77.031827, "bike_id": "9788cb71c18804fba6363d14d67e8098", "type": "electric_scooter", "name": "9788cb71c18804fba6363d14d67e8098"}, {"is_disabled": 0, "is_reserved": 0, "fusion_lat": 0.0, "lat": 38.917070833333334, "fusion_lon": 0.0, "rental_uris": {"ios": "https://dc.lft.to/lastmile_qr_scan", "android": "https://dc.lft.to/lastmile_qr_scan"}, "lon": -77.03462733333333, "bike_id": "b9bdd77fd1e955b3d77433155cc8b73e", "type": "electric_scooter", "name": "b9bdd77fd1e955b3d77433155cc8b73e"}, {"is_disabled": 0, "is_reserved": 0, "fusion_lat": 0.0, "lat": 38.91644016666667, "fusion_lon": 0.0, "rental_uris": {"ios": "https://dc.lft.to/lastmile_qr_scan", "android": "https://dc.lft.to/lastmile_qr_scan"}, "lon": -77.04645783333333, "bike_id": "2274436295b2d1312d7ce8f2e1d01929", "type": "electric_scooter", "name": "2274436295b2d1312d7ce8f2e1d01929"}, {"is_disabled": 0, "is_reserved": 0, "fusion_lat": 0.0, "lat": 38.889731166666664, "fusion_lon": 0.0, "rental_uris": {"ios": "https://dc.lft.to/lastmile_qr_scan", "android": "https://dc.lft.to/lastmile_qr_scan"}, "lon": -76.98174066666667, "bike_id": "7f2c139472f7a45dc30ffd5e5d3a74cd", "type": "electric_scooter", "name": "7f2c139472f7a45dc30ffd5e5d3a74cd"}, {"is_disabled": 0, "is_reserved": 0, "fusion_lat": 0.0, "lat": 38.918128333333335, "fusion_lon": 0.0, "rental_uris": {"ios": "https://dc.lft.to/lastmile_qr_scan", "android": "https://dc.lft.to/lastmile_qr_scan"}, "lon": -77.00004733333333, "bike_id": "e8e048b8f197e299bc4645ef21b59947", "type": "electric_scooter", "name": "e8e048b8f197e299bc4645ef21b59947"}, {"is_disabled": 0, "is_reserved": 0, "fusion_lat": 0.0, "lat": 38.914719, "fusion_lon": 0.0, "rental_uris": {"ios": "https://dc.lft.to/lastmile_qr_scan", "android": "https://dc.lft.to/lastmile_qr_scan"}, "lon": -77.00910433333334, "bike_id": "cc50dd9e0e67d9c6482069f38692ec00", "type": "electric_scooter", "name": "cc50dd9e0e67d9c6482069f38692ec00"}, {"is_disabled": 0, "is_reserved": 0, "fusion_lat": 0.0, "lat": 38.926047833333335, "fusion_lon": 0.0, "rental_uris": {"ios": "https://dc.lft.to/lastmile_qr_scan", "android": "https://dc.lft.to/lastmile_qr_scan"}, "lon": -77.05283116666666, "bike_id": "a3f21ee6c2f84cd3960d81396caa8a5f", "type": "electric_scooter", "name": "a3f21ee6c2f84cd3960d81396caa8a5f"}, {"is_disabled": 0, "is_reserved": 0, "fusion_lat": 0.0, "lat": 38.914531333333336, "fusion_lon": 0.0, "rental_uris": {"ios": "https://dc.lft.to/lastmile_qr_scan", "android": "https://dc.lft.to/lastmile_qr_scan"}, "lon": -77.03174483333333, "bike_id": "41dc52a3fb1cf0ca391415e20dab21b7", "type": "electric_scooter", "name": "41dc52a3fb1cf0ca391415e20dab21b7"}, {"is_disabled": 0, "is_reserved": 0, "fusion_lat": 0.0, "lat": 39.026477, "fusion_lon": 0.0, "rental_uris": {"ios": "https://dc.lft.to/lastmile_qr_scan", "android": "https://dc.lft.to/lastmile_qr_scan"}, "lon": -77.0368445, "bike_id": "e58a11e1fc80a9a876f48a224f352efc", "type": "electric_bike", "name": "e58a11e1fc80a9a876f48a224f352efc"}, {"is_disabled": 0, "is_reserved": 0, "fusion_lat": 0.0, "lat": 38.93018033333333, "fusion_lon": 0.0, "rental_uris": {"ios": "https://dc.lft.to/lastmile_qr_scan", "android": "https://dc.lft.to/lastmile_qr_scan"}, "lon": -77.02327833333334, "bike_id": "3e09b6425fcdc4495fa3632326f29870", "type": "electric_scooter", "name": "3e09b6425fcdc4495fa3632326f29870"}, {"is_disabled": 0, "is_reserved": 0, "fusion_lat": 0.0, "lat": 38.943306666666665, "fusion_lon": 0.0, "rental_uris": {"ios": "https://dc.lft.to/lastmile_qr_scan", "android": "https://dc.lft.to/lastmile_qr_scan"}, "lon": -77.02689183333334, "bike_id": "ba66b3521644534b337f30f564c863ac", "type": "electric_scooter", "name": "ba66b3521644534b337f30f564c863ac"}, {"is_disabled": 0, "is_reserved": 0, "fusion_lat": 0.0, "lat": 38.905120333333336, "fusion_lon": 0.0, "rental_uris": {"ios": "https://dc.lft.to/lastmile_qr_scan", "android": "https://dc.lft.to/lastmile_qr_scan"}, "lon": -76.951859, "bike_id": "58070a101e2c6caf9622f3a5623461aa", "type": "electric_scooter", "name": "58070a101e2c6caf9622f3a5623461aa"}, {"is_disabled": 0, "is_reserved": 0, "fusion_lat": 0.0, "lat": 38.91411883333333, "fusion_lon": 0.0, "rental_uris": {"ios": "https://dc.lft.to/lastmile_qr_scan", "android": "https://dc.lft.to/lastmile_qr_scan"}, "lon": -77.05203666666667, "bike_id": "563a0ac41db912d889d0af26195886bf", "type": "electric_scooter", "name": "563a0ac41db912d889d0af26195886bf"}, {"is_disabled": 0, "is_reserved": 0, "fusion_lat": 0.0, "lat": 38.886213, "fusion_lon": 0.0, "rental_uris": {"ios": "https://dc.lft.to/lastmile_qr_scan", "android": "https://dc.lft.to/lastmile_qr_scan"}, "lon": -76.92631066666667, "bike_id": "711c3d1dcc7f7c6194808381d27f9a78", "type": "electric_scooter", "name": "711c3d1dcc7f7c6194808381d27f9a78"}, {"is_disabled": 0, "is_reserved": 0, "fusion_lat": 0.0, "lat": 38.923574, "fusion_lon": 0.0, "rental_uris": {"ios": "https://dc.lft.to/lastmile_qr_scan", "android": "https://dc.lft.to/lastmile_qr_scan"}, "lon": -77.02128266666666, "bike_id": "f796fa7a1e06700b3dd99ea378cc29d0", "type": "electric_scooter", "name": "f796fa7a1e06700b3dd99ea378cc29d0"}, {"is_disabled": 0, "is_reserved": 0, "fusion_lat": 0.0, "lat": 38.89989583333333, "fusion_lon": 0.0, "rental_uris": {"ios": "https://dc.lft.to/lastmile_qr_scan", "android": "https://dc.lft.to/lastmile_qr_scan"}, "lon": -77.02686133333333, "bike_id": "2df925581f1e95a06fbe13c171dc2194", "type": "electric_scooter", "name": "2df925581f1e95a06fbe13c171dc2194"}, {"is_disabled": 0, "is_reserved": 0, "fusion_lat": 0.0, "lat": 38.93058766666667, "fusion_lon": 0.0, "rental_uris": {"ios": "https://dc.lft.to/lastmile_qr_scan", "android": "https://dc.lft.to/lastmile_qr_scan"}, "lon": -77.04048033333333, "bike_id": "311009b1ce6c3cb099ffa70517294c79", "type": "electric_scooter", "name": "311009b1ce6c3cb099ffa70517294c79"}, {"is_disabled": 0, "is_reserved": 0, "fusion_lat": 0.0, "lat": 38.91752616666667, "fusion_lon": 0.0, "rental_uris": {"ios": "https://dc.lft.to/lastmile_qr_scan", "android": "https://dc.lft.to/lastmile_qr_scan"}, "lon": -77.03194416666666, "bike_id": "6e2a5b7f408658ce6fae996b8819df4e", "type": "electric_scooter", "name": "6e2a5b7f408658ce6fae996b8819df4e"}, {"is_disabled": 0, "is_reserved": 0, "fusion_lat": 0.0, "lat": 38.93364316666667, "fusion_lon": 0.0, "rental_uris": {"ios": "https://dc.lft.to/lastmile_qr_scan", "android": "https://dc.lft.to/lastmile_qr_scan"}, "lon": -77.02362816666667, "bike_id": "63904a7b695e638f9860ff8ac0e958ac", "type": "electric_scooter", "name": "63904a7b695e638f9860ff8ac0e958ac"}, {"is_disabled": 0, "is_reserved": 0, "fusion_lat": 0.0, "lat": 38.8962165, "fusion_lon": 0.0, "rental_uris": {"ios": "https://dc.lft.to/lastmile_qr_scan", "android": "https://dc.lft.to/lastmile_qr_scan"}, "lon": -77.02374533333334, "bike_id": "5673eaf5777793e5120e2ebbc050263b", "type": "electric_scooter", "name": "5673eaf5777793e5120e2ebbc050263b"}, {"is_disabled": 0, "is_reserved": 0, "fusion_lat": 0.0, "lat": 38.8979985, "fusion_lon": 0.0, "rental_uris": {"ios": "https://dc.lft.to/lastmile_qr_scan", "android": "https://dc.lft.to/lastmile_qr_scan"}, "lon": -76.971712, "bike_id": "e2f9e3187e637521891d15941469765d", "type": "electric_scooter", "name": "e2f9e3187e637521891d15941469765d"}, {"is_disabled": 0, "is_reserved": 0, "fusion_lat": 0.0, "lat": 38.902325833333336, "fusion_lon": 0.0, "rental_uris": {"ios": "https://dc.lft.to/lastmile_qr_scan", "android": "https://dc.lft.to/lastmile_qr_scan"}, "lon": -77.018861, "bike_id": "ee6f54d140c0140527627d15ff8b767f", "type": "electric_scooter", "name": "ee6f54d140c0140527627d15ff8b767f"}, {"is_disabled": 0, "is_reserved": 0, "fusion_lat": 0.0, "lat": 39.034762, "fusion_lon": 0.0, "rental_uris": {"ios": "https://dc.lft.to/lastmile_qr_scan", "android": "https://dc.lft.to/lastmile_qr_scan"}, "lon": -77.01659466666666, "bike_id": "af4b054911c7eda583e37e7f38f25261", "type": "electric_bike", "name": "af4b054911c7eda583e37e7f38f25261"}, {"is_disabled": 0, "is_reserved": 0, "fusion_lat": 0.0, "lat": 39.084702, "fusion_lon": 0.0, "rental_uris": {"ios": "https://dc.lft.to/lastmile_qr_scan", "android": "https://dc.lft.to/lastmile_qr_scan"}, "lon": -76.95059016666667, "bike_id": "43a4254269eb7f32c393e5a01f876737", "type": "electric_bike", "name": "43a4254269eb7f32c393e5a01f876737"},