{"data": {"bikes": [{"fusion_lat": 0.0, "name": "e4d9620e213739c4d0dc8b601daf378e", "is_disabled": 0, "rental_uris": {"android": "https://dc.lft.to/lastmile_qr_scan", "ios": "https://dc.lft.to/lastmile_qr_scan"}, "fusion_lon": 0.0, "lat": 38.91399633333333, "bike_id": "e4d9620e213739c4d0dc8b601daf378e", "type": "electric_scooter", "is_reserved": 0, "lon": -77.034456}, {"fusion_lat": 0.0, "name": "4b2f6ecb7ccbc9d8d5598aef17f7bef5", "is_disabled": 0, "rental_uris": {"android": "https://dc.lft.to/lastmile_qr_scan", "ios": "https://dc.lft.to/lastmile_qr_scan"}, "fusion_lon": 0.0, "lat": 38.937953, "bike_id": "4b2f6ecb7ccbc9d8d5598aef17f7bef5", "type": "electric_scooter", "is_reserved": 0, "lon": -77.0245285}, {"fusion_lat": 0.0, "name": "ee37c9d190a88f17502d46489ed597d8", "is_disabled": 0, "rental_uris": {"android": "https://dc.lft.to/lastmile_qr_scan", "ios": "https://dc.lft.to/lastmile_qr_scan"}, "fusion_lon": 0.0, "lat": 38.951166666666666, "bike_id": "ee37c9d190a88f17502d46489ed597d8", "type": "electric_scooter", "is_reserved": 0, "lon": -77.01364316666667}, {"fusion_lat": 0.0, "name": "e63d2d3654773d23f7fb26089d6e48db", "is_disabled": 0, "rental_uris": {"android": "https://dc.lft.to/lastmile_qr_scan", "ios": "https://dc.lft.to/lastmile_qr_scan"}, "fusion_lon": 0.0, "lat": 38.918691, "bike_id": "e63d2d3654773d23f7fb26089d6e48db", "type": "electric_scooter", "is_reserved": 0, "lon": -77.0403835}, {"fusion_lat": 0.0, "name": "a30dba3ce073454bcf6ff8386843d63f", "is_disabled": 0, "rental_uris": {"android": "https://dc.lft.to/lastmile_qr_scan", "ios": "https://dc.lft.to/lastmile_qr_scan"}, "fusion_lon": 0.0, "lat": 38.89497, "bike_id": "a30dba3ce073454bcf6ff8386843d63f", "type": "electric_scooter", "is_reserved": 0, "lon": -77.01533783333333}, {"fusion_lat": 0.0, "name": "e83c331a7094f7c24d3bd8ed269e1966", "is_disabled": 0, "rental_uris": {"android": "https://dc.lft.to/lastmile_qr_scan", "ios": "https://dc.lft.to/lastmile_qr_scan"}, "fusion_lon": 0.0, "lat": 38.9367835, "bike_id": "e83c331a7094f7c24d3bd8ed269e1966", "type": "electric_scooter", "is_reserved": 0, "lon": -77.03594133333333}, {"fusion_lat": 0.0, "name": "dbadefe29836a9c0d03585b09d74c181", "is_disabled": 0, "rental_uris": {"android": "https://dc.lft.to/lastmile_qr_scan", "ios": "https://dc.lft.to/lastmile_qr_scan"}, "fusion_lon": 0.0, "lat": 38.931994333333336, "bike_id": "dbadefe29836a9c0d03585b09d74c181", "type": "electric_scooter", "is_reserved": 0, "lon": -77.04296516666666}, {"fusion_lat": 0.0, "name": "fb512fe41da8c994ec1f602b9a9991fe", "is_disabled": 0, "rental_uris": {"android": "https://dc.lft.to/lastmile_qr_scan", "ios": "https://dc.lft.to/lastmile_qr_scan"}, "fusion_lon": 0.0, "lat": 38.94701666666667, "bike_id": "fb512fe41da8c994ec1f602b9a9991fe", "type": "electric_scooter", "is_reserved": 0, "lon": -77.01941966666666}, {"fusion_lat": 0.0, "name": "442cf6cc68f596c578fcd3a87a025622", "is_disabled": 0, "rental_uris": {"android": "https://dc.lft.to/lastmile_qr_scan", "ios": "https://dc.lft.to/lastmile_qr_scan"}, "fusion_lon": 0.0, "lat": 38.884602666666666, "bike_id": "442cf6cc68f596c578fcd3a87a025622", "type": "electric_scooter", "is_reserved": 0, "lon": -76.99834033333333}, {"fusion_lat": 0.0, "name": "2a470798d04999e5a099bddda92a88d4", "is_disabled": 0, "rental_uris": {"android": "https://dc.lft.to/lastmile_qr_scan", "ios": "https://dc.lft.to/lastmile_qr_scan"}, "fusion_lon": 0.0, "lat": 38.92841883333333, "bike_id": "2a470798d04999e5a099bddda92a88d4", "type": "electric_bike", "is_reserved": 0, "lon": -77.02064033333333}, {"fusion_lat": 0.0, "name": "4ff0f23ff58ccd6bb4796794c77e0c7c", "is_disabled": 0, "rental_uris": {"android": "https://dc.lft.to/lastmile_qr_scan", "ios": "https://dc.lft.to/lastmile_qr_scan"}, "fusion_lon": 0.0, "lat": 38.92900983333333, "bike_id": "4ff0f23ff58ccd6bb4796794c77e0c7c", "type": "electric_scooter", "is_reserved": 0, "lon": -77.03283966666666}, {"fusion_lat": 0.0, "name": "d2c0cc13fdc40b34189d81b7b5a8428f", "is_disabled": 0, "rental_uris": {"android": "https://dc.lft.to/lastmile_qr_scan", "ios": "https://dc.lft.to/lastmile_qr_scan"}, "fusion_lon": 0.0, "lat": 38.8923325, "bike_id": "d2c0cc13fdc40b34189d81b7b5a8428f", "type": "electric_scooter", "is_reserved": 0, "lon": -77.04999683333334}, {"fusion_lat": 0.0, "name": "43a62db10b6af3768ac60f1962dd2efe", "is_disabled": 0, "rental_uris": {"android": "https://dc.lft.to/lastmile_qr_scan", "ios": "https://dc.lft.to/lastmile_qr_scan"}, "fusion_lon": 0.0, "lat": 38.908237, "bike_id": "43a62db10b6af3768ac60f1962dd2efe", "type": "electric_scooter", "is_reserved": 0, "lon": -77.05496116666667}, {"fusion_lat": 0.0, "name": "a834f23f961f7110afff36f631d8a007", "is_disabled": 0, "rental_uris": {"android": "https://dc.lft.to/lastmile_qr_scan", "ios": "https://dc.lft.to/lastmile_qr_scan"}, "fusion_lon": 0.0, "lat": 38.91717666666667, "bike_id": "a834f23f961f7110afff36f631d8a007", "type": "electric_scooter", "is_reserved": 0, "lon": -77.01205766666666}, {"fusion_lat": 0.0, "name": "a3d844e8ab34b44e0e96021c83ac5fca", "is_disabled": 0, "rental_uris": {"android": "https://dc.lft.to/lastmile_qr_scan", "ios": "https://dc.lft.to/lastmile_qr_scan"}, "fusion_lon": 0.0, "lat": 38.917741, "bike_id": "a3d844e8ab34b44e0e96021c83ac5fca", "type": "electric_scooter", "is_reserved": 0, "lon": -77.01912433333334}, {"fusion_lat": 0.0, "name": "d4872f3d874e91c841ac2d0657c0c323", "is_disabled": 0, "rental_uris": {"android": "https://dc.lft.to/lastmile_qr_scan", "ios": "https://dc.lft.to/lastmile_qr_scan"}, "fusion_lon": 0.0, "lat": 38.92078716666666, "bike_id": "d4872f3d874e91c841ac2d0657c0c323", "type": "electric_scooter", "is_reserved": 0, "lon": -77.00457116666666}, {"fusion_lat": 0.0, "name": "0d05fda77ff55c27005e721953e4cd82", "is_disabled": 0, "rental_uris": {"android": "https://dc.lft.to/lastmile_qr_scan", "ios": "https://dc.lft.to/lastmile_qr_scan"}, "fusion_lon": 0.0, "lat": 38.96119933333333, "bike_id": "0d05fda77ff55c27005e721953e4cd82", "type": "electric_scooter", "is_reserved": 0, "lon": -77.02866733333333}, {"fusion_lat": 0.0, "name": "6cf7764c84152ad7a2972b27a5eca42b", "is_disabled": 0, "rental_uris": {"android": "https://dc.lft.to/lastmile_qr_scan", "ios": "https://dc.lft.to/lastmile_qr_scan"}, "fusion_lon": 0.0, "lat": 38.91824716666667, "bike_id": "6cf7764c84152ad7a2972b27a5eca42b", "type": "electric_scooter", "is_reserved": 0, "lon": -77.028002}, {"fusion_lat": 0.0, "name": "0a68819128634e527e9b6aac0ccff2f2", "is_disabled": 0, "rental_uris": {"android": "https://dc.lft.to/lastmile_qr_scan", "ios": "https://dc.lft.to/lastmile_qr_scan"}, "fusion_lon": 0.0, "lat": 38.8843265, "bike_id": "0a68819128634e527e9b6aac0ccff2f2", "type": "electric_scooter", "is_reserved": 0, "lon": -76.99593866666666}, {"fusion_lat": 0.0, "name": "cfb19f142654f9dfbf7551af12f1ea78", "is_disabled": 0, "rental_uris": {"android": "https://dc.lft.to/lastmile_qr_scan", "ios": "https://dc.lft.to/lastmile_qr_scan"}, "fusion_lon": 0.0, "lat": 38.919141833333335, "bike_id": "cfb19f142654f9dfbf7551af12f1ea78", "type": "electric_scooter", "is_reserved": 0, "lon": -77.044636}, {"fusion_lat": 0.0, "name": "141a2e0e49db233b6a410156bc0132ac", "is_disabled": 0, "rental_uris": {"android": "https://dc.lft.to/lastmile_qr_scan", "ios": "https://dc.lft.to/lastmile_qr_scan"}, "fusion_lon": 0.0, "lat": 38.90974683333334, "bike_id": "141a2e0e49db233b6a410156bc0132ac", "type": "electric_scooter", "is_reserved": 0, "lon": -77.0372255}, {"fusion_lat": 0.0, "name": "45705d827b833d74af428b0e3ce4efeb", "is_disabled": 0, "rental_uris": {"android": "https://dc.lft.to/lastmile_qr_scan", "ios": "https://dc.lft.to/lastmile_qr_scan"}, "fusion_lon": 0.0, "lat": 38.897319333333336, "bike_id": "45705d827b833d74af428b0e3ce4efeb", "type": "electric_scooter", "is_reserved": 0, "lon": -77.05530816666666}, {"fusion_lat": 0.0, "name": "21702fb46636d884b624e1aee6d5a975", "is_disabled": 0, "rental_uris": {"android": "https://dc.lft.to/lastmile_qr_scan", "ios": "https://dc.lft.to/lastmile_qr_scan"}, "fusion_lon": 0.0, "lat": 38.90650133333333, "bike_id": "21702fb46636d884b624e1aee6d5a975", "type": "electric_scooter", "is_reserved": 0, "lon": -77.02493916666667}, {"fusion_lat": 0.0, "name": "5db7d29d292ddee571b0b0f4278f323d", "is_disabled": 0, "rental_uris": {"android": "https://dc.lft.to/lastmile_qr_scan", "ios": "https://dc.lft.to/lastmile_qr_scan"}, "fusion_lon": 0.0, "lat": 38.92506366666667, "bike_id": "5db7d29d292ddee571b0b0f4278f323d", "type": "electric_bike", "is_reserved": 0, "lon": -77.0575755}, {"fusion_lat": 0.0, "name": "d7e6af975edb030604a5ad764c962767", "is_disabled": 0, "rental_uris": {"android": "https://dc.lft.to/lastmile_qr_scan", "ios": "https://dc.lft.to/lastmile_qr_scan"}, "fusion_lon": 0.0, "lat": 38.90023033333333, "bike_id": "d7e6af975edb030604a5ad764c962767", "type": "electric_scooter", "is_reserved": 0, "lon": -77.04489016666666}, {"fusion_lat": 0.0, "name": "7667045c6c10de5a07daf2ce2d718e80", "is_disabled": 0, "rental_uris": {"android": "https://dc.lft.to/lastmile_qr_scan", "ios": "https://dc.lft.to/lastmile_qr_scan"}, "fusion_lon": 0.0, "lat": 38.88751333333333, "bike_id": "7667045c6c10de5a07daf2ce2d718e80", "type": "electric_scooter", "is_reserved": 0, "lon": -76.998359}, {"fusion_lat": 0.0, "name": "42d5297eef57d684e3bf51d5d3f72242", "is_disabled": 0, "rental_uris": {"android": "https://dc.lft.to/lastmile_qr_scan", "ios": "https://dc.lft.to/lastmile_qr_scan"}, "fusion_lon": 0.0, "lat": 38.871845, "bike_id": "42d5297eef57d684e3bf51d5d3f72242", "type": "electric_scooter", "is_reserved": 0, "lon": -77.00611666666667}, {"fusion_lat": 0.0, "name": "0df9aea3db64f5a973b4b7109b823b77", "is_disabled": 0, "rental_uris": {"android": "https://dc.lft.to/lastmile_qr_scan", "ios": "https://dc.lft.to/lastmile_qr_scan"}, "fusion_lon": 0.0, "lat": 38.9151145, "bike_id": "0df9aea3db64f5a973b4b7109b823b77", "type": "electric_scooter", "is_reserved": 0, "lon": -77.00060316666666}, {"fusion_lat": 0.0, "name": "c22d966d1dfb07ad2b26641d24c59ac2", "is_disabled": 0, "rental_uris": {"android": "https://dc.lft.to/lastmile_qr_scan", "ios": "https://dc.lft.to/lastmile_qr_scan"}, "fusion_lon": 0.0, "lat": 38.89489233333333, "bike_id": "c22d966d1dfb07ad2b26641d24c59ac2", "type": "electric_scooter", "is_reserved": 0, "lon": -77.009824}, {"fusion_lat": 0.0, "name": "4cfc776f551ca91154d52df0c994c8e7", "is_disabled": 0, "rental_uris": {"android": "https://dc.lft.to/lastmile_qr_scan", "ios": "https://dc.lft.to/lastmile_qr_scan"}, "fusion_lon": 0.0, "lat": 38.89431033333334, "bike_id": "4cfc776f551ca91154d52df0c994c8e7", "type": "electric_scooter", "is_reserved": 0, "lon": -77.00109333333333}, {"fusion_lat": 0.0, "name": "e7eb90e62087146f0846241741102a94", "is_disabled": 0, "rental_uris": {"android": "https://dc.lft.to/lastmile_qr_scan", "ios": "https://dc.lft.to/lastmile_qr_scan"}, "fusion_lon": 0.0, "lat": 38.922522, "bike_id": "e7eb90e62087146f0846241741102a94", "type": "electric_scooter", "is_reserved": 0, "lon": -77.02975383333333}, {"fusion_lat": 0.0, "name": "d89b8273549b9b8b6e9edacf6fe57d3f", "is_disabled": 0, "rental_uris": {"android": "https://dc.lft.to/lastmile_qr_scan", "ios": "https://dc.lft.to/lastmile_qr_scan"}, "fusion_lon": 0.0, "lat": 38.907304, "bike_id": "d89b8273549b9b8b6e9edacf6fe57d3f", "type": "electric_scooter", "is_reserved": 0, "lon": -77.029778}, {"fusion_lat": 0.0, "name": "c1b9bfb4d9b9779d0f169efe15eeb24c", "is_disabled": 0, "rental_uris": {"android": "https://dc.lft.to/lastmile_qr_scan", "ios": "https://dc.lft.to/lastmile_qr_scan"}, "fusion_lon": 0.0, "lat": 38.9081545, "bike_id": "c1b9bfb4d9b9779d0f169efe15eeb24c", "type": "electric_scooter", "is_reserved": 0, "lon": -77.03374016666666}, {"fusion_lat": 0.0, "name": "d03bc619b3af4110d64b649de4eef917", "is_disabled": 0, "rental_uris": {"android": "https://dc.lft.to/lastmile_qr_scan", "ios": "https://dc.lft.to/lastmile_qr_scan"}, "fusion_lon": 0.0, "lat": 38.961324166666664, "bike_id": "d03bc619b3af4110d64b649de4eef917", "type": "electric_scooter", "is_reserved": 0, "lon": -77.02782516666667}, {"fusion_lat": 0.0, "name": "0c6f444718bb31cc4045527025b0975b", "is_disabled": 0, "rental_uris": {"android": "https://dc.lft.to/lastmile_qr_scan", "ios": "https://dc.lft.to/lastmile_qr_scan"}, "fusion_lon": 0.0, "lat": 38.87689816666666, "bike_id": "0c6f444718bb31cc4045527025b0975b", "type": "electric_scooter", "is_reserved": 0, "lon": -76.9943025}, {"fusion_lat": 0.0, "name": "4bc064925234986ebb57af46e4e587e2", "is_disabled": 0, "rental_uris": {"android": "https://dc.lft.to/lastmile_qr_scan", "ios": "https://dc.lft.to/lastmile_qr_scan"}, "fusion_lon": 0.0, "lat": 38.9752295, "bike_id": "4bc064925234986ebb57af46e4e587e2", "type": "electric_scooter", "is_reserved": 0, "lon": -77.01727066666666}, {"fusion_lat": 0.0, "name": "679df14666452f7b028f4e2e952a7022", "is_disabled": 0, "rental_uris": {"android": "https://dc.lft.to/lastmile_qr_scan", "ios": "https://dc.lft.to/lastmile_qr_scan"}, "fusion_lon": 0.0, "lat": 38.91304316666667, "bike_id": "679df14666452f7b028f4e2e952a7022", "type": "electric_scooter", "is_reserved": 0, "lon": -77.01217883333334}, {"fusion_lat": 0.0, "name": "c1c4a1709e8e82cae1a8f31dcecb86d8", "is_disabled": 0, "rental_uris": {"android": "https://dc.lft.to/lastmile_qr_scan", "ios": "https://dc.lft.to/lastmile_qr_scan"}, "fusion_lon": 0.0, "lat": 38.928919, "bike_id": "c1c4a1709e8e82cae1a8f31dcecb86d8", "type": "electric_scooter", "is_reserved": 0, "lon": -77.03227716666666}, {"fusion_lat": 0.0, "name": "e88cfd90b048a426e9d8bc5acff8001d", "is_disabled": 0, "rental_uris": {"android": "https://dc.lft.to/lastmile_qr_scan", "ios": "https://dc.lft.to/lastmile_qr_scan"}, "fusion_lon": 0.0, "lat": 38.889038166666666, "bike_id": "e88cfd90b048a426e9d8bc5acff8001d", "type": "electric_scooter", "is_reserved": 0, "lon": -76.9920515}, {"fusion_lat": 0.0, "name": "4878260676d15238bc4dd5e3adde41ce", "is_disabled": 0, "rental_uris": {"android": "https://dc.lft.to/lastmile_qr_scan", "ios": "https://dc.lft.to/lastmile_qr_scan"}, "fusion_lon": 0.0, "lat": 38.93453, "bike_id": "4878260676d15238bc4dd5e3adde41ce", "type": "electric_scooter", "is_reserved": 0, "lon": -77.02730766666667}, {"fusion_lat": 0.0, "name": "c77d5ddc9f873aae8b79f25892900573", "is_disabled": 0, "rental_uris": {"android": "https://dc.lft.to/lastmile_qr_scan", "ios": "https://dc.lft.to/lastmile_qr_scan"}, "fusion_lon": 0.0, "lat": 38.905206, "bike_id": "c77d5ddc9f873aae8b79f25892900573", "type": "electric_scooter", "is_reserved": 0, "lon": -77.06135233333333}, {"fusion_lat": 0.0, "name": "b1bd02ecf2ef2aea050bddbd0c7ba458", "is_disabled": 0, "rental_uris": {"android": "https://dc.lft.to/lastmile_qr_scan", "ios": "https://dc.lft.to/lastmile_qr_scan"}, "fusion_lon": 0.0, "lat": 38.89352066666667, "bike_id": "b1bd02ecf2ef2aea050bddbd0c7ba458", "type": "electric_bike", "is_reserved": 0, "lon": -77.187453}, {"fusion_lat": 0.0, "name": "6cb8f9d3dbf84f8a896985d57a2e492f", "is_disabled": 0, "rental_uris": {"android": "https://dc.lft.to/lastmile_qr_scan", "ios": "https://dc.lft.to/lastmile_qr_scan"}, "fusion_lon": 0.0, "lat": 38.88195066666667, "bike_id": "6cb8f9d3dbf84f8a896985d57a2e492f", "type": "electric_scooter", "is_reserved": 0, "lon": -76.99484933333333}, {"fusion_lat": 0.0, "name": "253c40252184d02e0354e81aadc3c9cb", "is_disabled": 0, "rental_uris": {"android": "https://dc.lft.to/lastmile_qr_scan", "ios": "https://dc.lft.to/lastmile_qr_scan"}, "fusion_lon": 0.0, "lat": 38.92657, "bike_id": "253c40252184d02e0354e81aadc3c9cb", "type": "electric_scooter", "is_reserved": 0, "lon": -77.0372345}, {"fusion_lat": 0.0, "name": "7512b33a980b50edc7f25e82b12986b7", "is_disabled": 0, "rental_uris": {"android": "https://dc.lft.to/lastmile_qr_scan", "ios": "https://dc.lft.to/lastmile_qr_scan"}, "fusion_lon": 0.0, "lat": 38.9242365, "bike_id": "7512b33a980b50edc7f25e82b12986b7", "type": "electric_scooter", "is_reserved": 0, "lon": -77.01954916666666}, {"fusion_lat": 0.0, "name": "13a7625be88ba58577b6eb09ca7fb7c4", "is_disabled": 0, "rental_uris": {"android": "https://dc.lft.to/lastmile_qr_scan", "ios": "https://dc.lft.to/lastmile_qr_scan"}, "fusion_lon": 0.0, "lat": 38.9049375, "bike_id": "13a7625be88ba58577b6eb09ca7fb7c4", "type": "electric_bike", "is_reserved": 0, "lon": -76.975732}, {"fusion_lat": 0.0, "name": "209cd15ef1765a4ab0dfe0aee6fcdbe3", "is_disabled": 0, "rental_uris": {"android": "https://dc.lft.to/lastmile_qr_scan", "ios": "https://dc.lft.to/lastmile_qr_scan"}, "fusion_lon": 0.0, "lat": 38.94165233333333, "bike_id": "209cd15ef1765a4ab0dfe0aee6fcdbe3", "type": "electric_scooter", "is_reserved": 0, "lon": -77.024991}, {"fusion_lat": 0.0, "name": "58d8964c47d6dddbbfcda5ba723a2c0d", "is_disabled": 0, "rental_uris": {"android": "https://dc.lft.to/lastmile_qr_scan", "ios": "https://dc.lft.to/lastmile_qr_scan"}, "fusion_lon": 0.0, "lat": 38.92480366666667, "bike_id": "58d8964c47d6dddbbfcda5ba723a2c0d", "type": "electric_scooter", "is_reserved": 0, "lon": -77.05208416666666}, {"fusion_lat": 0.0, "name": "ffb07fba533449a37fc996111e488301", "is_disabled": 0, "rental_uris": {"android": "https://dc.lft.to/lastmile_qr_scan", "ios": "https://dc.lft.to/lastmile_qr_scan"}, "fusion_lon": 0.0, "lat": 38.920847333333334, "bike_id": "ffb07fba533449a37fc996111e488301", "type": "electric_scooter", "is_reserved": 0, "lon": -77.02726666666666}, {"fusion_lat": 0.0, "name": "bbdfa2a5787a113f77a6b78fea24d882", "is_disabled": 0, "rental_uris": {"android": "https://dc.lft.to/lastmile_qr_scan", "ios": "https://dc.lft.to/lastmile_qr_scan"}, "fusion_lon": 0.0, "lat": 38.898561, "bike_id": "bbdfa2a5787a113f77a6b78fea24d882", "type": "electric_scooter", "is_reserved": 0, "lon": -77.0326925}, {"fusion_lat": 0.0, "name": "a5a3508f96ce28fe34453341caf6b3f0", "is_disabled": 0, "rental_uris": {"android": "https://dc.lft.to/lastmile_qr_scan", "ios": "https://dc.lft.to/lastmile_qr_scan"}, "fusion_lon": 0.0, "lat": 38.957682, "bike_id": "a5a3508f96ce28fe34453341caf6b3f0", "type": "electric_bike", "is_reserved": 0, "lon": -76.98080283333333}, {"fusion_lat": 0.0, "name": "7b66a38d33e1d2018081e25a92c3cab0", "is_disabled": 0, "rental_uris": {"android": "https://dc.lft.to/lastmile_qr_scan", "ios": "https://dc.lft.to/lastmile_qr_scan"}, "fusion_lon": 0.0, "lat": 38.94438816666667, "bike_id": "7b66a38d33e1d2018081e25a92c3cab0", "type": "electric_scooter", "is_reserved": 0, "lon": -77.06354516666667}, {"fusion_lat": 0.0, "name": "71d1385e34464d0d624846f52cd1e3ce", "is_disabled": 0, "rental_uris": {"android": "https://dc.lft.to/lastmile_qr_scan", "ios": "https://dc.lft.to/lastmile_qr_scan"}, "fusion_lon": 0.0, "lat": 38.900251, "bike_id": "71d1385e34464d0d624846f52cd1e3ce", "type": "electric_scooter", "is_reserved": 0, "lon": -77.043727}, {"fusion_lat": 0.0, "name": "8a88e0cc3c477478ad398b47b8d783e1", "is_disabled": 0, "rental_uris": {"android": "https://dc.lft.to/lastmile_qr_scan", "ios": "https://dc.lft.to/lastmile_qr_scan"}, "fusion_lon": 0.0, "lat": 38.920459666666666, "bike_id": "8a88e0cc3c477478ad398b47b8d783e1", "type": "electric_scooter", "is_reserved": 0, "lon": -77.0481045}, {"fusion_lat": 0.0, "name": "a4cd388b96d3ba2b16ab83bedfe65983", "is_disabled": 0, "rental_uris": {"android": "https://dc.lft.to/lastmile_qr_scan", "ios": "https://dc.lft.to/lastmile_qr_scan"}, "fusion_lon": 0.0, "lat": 38.902191, "bike_id": "a4cd388b96d3ba2b16ab83bedfe65983", "type": "electric_scooter", "is_reserved": 0, "lon": -77.01890983333334}, {"fusion_lat": 0.0, "name": "64c5a5ba2db72e6df0fb7ab70f9619c5", "is_disabled": 0, "rental_uris": {"android": "https://dc.lft.to/lastmile_qr_scan", "ios": "https://dc.lft.to/lastmile_qr_scan"}, "fusion_lon": 0.0, "lat": 38.932020666666666, "bike_id": "64c5a5ba2db72e6df0fb7ab70f9619c5", "type": "electric_scooter", "is_reserved": 0, "lon": -76.98283983333333}, {"fusion_lat": 0.0, "name": "71ef2b3bb74f1c75f6e3f3aec857151f", "is_disabled": 0, "rental_uris": {"android": "https://dc.lft.to/lastmile_qr_scan", "ios": "https://dc.lft.to/lastmile_qr_scan"}, "fusion_lon": 0.0, "lat": 38.901290833333334, "bike_id": "71ef2b3bb74f1c75f6e3f3aec857151f", "type": "electric_scooter", "is_reserved": 0, "lon": -77.04470416666666}, {"fusion_lat": 0.0, "name": "5cc391f8034671f0894aa3bd8e07616c", "is_disabled": 0, "rental_uris": {"android": "https://dc.lft.to/lastmile_qr_scan", "ios": "https://dc.lft.to/lastmile_qr_scan"}, "fusion_lon": 0.0, "lat": 38.959746833333334, "bike_id": "5cc391f8034671f0894aa3bd8e07616c", "type": "electric_bike", "is_reserved": 0, "lon": -76.9816365}, {"fusion_lat": 0.0, "name": "ce31fec6f600fcc445aaae92174f9a68", "is_disabled": 0, "rental_uris": {"android": "https://dc.lft.to/lastmile_qr_scan", "ios": "https://dc.lft.to/lastmile_qr_scan"}, "fusion_lon": 0.0, "lat": 38.92421183333333, "bike_id": "ce31fec6f600fcc445aaae92174f9a68", "type": "electric_scooter", "is_reserved": 0, "lon": -77.01948516666667}, {"fusion_lat": 0.0, "name": "4749e2c5ac44a19690c7a5e4234f51dc", "is_disabled": 0, "rental_uris": {"android": "https://dc.lft.to/lastmile_qr_scan", "ios": "https://dc.lft.to/lastmile_qr_scan"}, "fusion_lon": 0.0, "lat": 38.899005333333335, "bike_id": "4749e2c5ac44a19690c7a5e4234f51dc", "type": "electric_scooter", "is_reserved": 0, "lon": -77.032952}, {"fusion_lat": 0.0, "name": "8d26173007f5a5f09209276ade2e8948", "is_disabled": 0, "rental_uris": {"android": "https://dc.lft.to/lastmile_qr_scan", "ios": "https://dc.lft.to/lastmile_qr_scan"}, "fusion_lon": 0.0, "lat": 38.918901, "bike_id": "8d26173007f5a5f09209276ade2e8948", "type": "electric_scooter", "is_reserved": 0, "lon": -77.0297235}, {"fusion_lat": 0.0, "name": "d6c921b308e57d5611d14077110f0f99", "is_disabled": 0, "rental_uris": {"android": "https://dc.lft.to/lastmile_qr_scan", "ios": "https://dc.lft.to/lastmile_qr_scan"}, "fusion_lon": 0.0, "lat": 38.87494433333333, "bike_id": "d6c921b308e57d5611d14077110f0f99", "type": "electric_bike", "is_reserved": 0, "lon": -77.2112545}, {"fusion_lat": 0.0, "name": "0c2136884cbd949a0fc12ef3fc6e71cc", "is_disabled": 0, "rental_uris": {"android": "https://dc.lft.to/lastmile_qr_scan", "ios": "https://dc.lft.to/lastmile_qr_scan"}, "fusion_lon": 0.0, "lat": 38.896125166666664, "bike_id": "0c2136884cbd949a0fc12ef3fc6e71cc", "type": "electric_bike", "is_reserved": 0, "lon": -76.90744383333333}, {"fusion_lat": 0.0, "name": "5194b907402cd1c2034efad5e9f0f6d4", "is_disabled": 0, "rental_uris": {"android": "https://dc.lft.to/lastmile_qr_scan", "ios": "https://dc.lft.to/lastmile_qr_scan"}, "fusion_lon": 0.0, "lat": 38.90470783333333, "bike_id": "5194b907402cd1c2034efad5e9f0f6d4", "type": "electric_scooter", "is_reserved": 0, "lon": -77.03091266666667}, {"fusion_lat": 0.0, "name": "29486eb2cbca38bb68ae5d76d2f1d7aa", "is_disabled": 0, "rental_uris": {"android": "https://dc.lft.to/lastmile_qr_scan", "ios": "https://dc.lft.to/lastmile_qr_scan"}, "fusion_lon": 0.0, "lat": 38.94627583333333, "bike_id": "29486eb2cbca38bb68ae5d76d2f1d7aa", "type": "electric_scooter", "is_reserved": 0, "lon": -77.08019066666667}, {"fusion_lat": 0.0, "name": "24d749475b705bdab22941ebfb7b9612", "is_disabled": 0, "rental_uris": {"android": "https://dc.lft.to/lastmile_qr_scan", "ios": "https://dc.lft.to/lastmile_qr_scan"}, "fusion_lon": 0.0, "lat": 38.8461105, "bike_id": "24d749475b705bdab22941ebfb7b9612", "type": "electric_bike", "is_reserved": 0, "lon": -76.96909266666667}, {"fusion_lat": 0.0, "name": "804967269975cbfc62ff2fae29d37dca", "is_disabled": 0, "rental_uris": {"android": "https://dc.lft.to/lastmile_qr_scan", "ios": "https://dc.lft.to/lastmile_qr_scan"}, "fusion_lon": 0.0, "lat": 38.9098025, "bike_id": "804967269975cbfc62ff2fae29d37dca", "type": "electric_scooter", "is_reserved": 0, "lon": -77.02812316666666}, {"fusion_lat": 0.0, "name": "33cab4a21bea0604713f9ecd7a6b3964", "is_disabled": 0, "rental_uris": {"android": "https://dc.lft.to/lastmile_qr_scan", "ios": "https://dc.lft.to/lastmile_qr_scan"}, "fusion_lon": 0.0, "lat": 38.916932333333335, "bike_id": "33cab4a21bea0604713f9ecd7a6b3964", "type": "electric_scooter", "is_reserved": 0, "lon": -77.02595133333334}, {"fusion_lat": 0.0, "name": "087d0d6f6b79548eed4975cce9d83766", "is_disabled": 0, "rental_uris": {"android": "https://dc.lft.to/lastmile_qr_scan", "ios": "https://dc.lft.to/lastmile_qr_scan"}, "fusion_lon": 0.0, "lat": 38.914783166666666, "bike_id": "087d0d6f6b79548eed4975cce9d83766", "type": "electric_bike", "is_reserved": 0, "lon": -77.0101705}, {"fusion_lat": 0.0, "name": "3a4fdac57f8719687c86904125948af2", "is_disabled": 0, "rental_uris": {"android": "https://dc.lft.to/lastmile_qr_scan", "ios": "https://dc.lft.to/lastmile_qr_scan"}, "fusion_lon": 0.0, "lat": 38.948220666666664, "bike_id": "3a4fdac57f8719687c86904125948af2", "type": "electric_scooter", "is_reserved": 0, "lon": -77.08002583333334}, {"fusion_lat": 0.0, "name": "f8718d98b9a7d35ba6e59265925d1c9f", "is_disabled": 0, "rental_uris": {"android": "https://dc.lft.to/lastmile_qr_scan", "ios": "https://dc.lft.to/lastmile_qr_scan"}, "fusion_lon": 0.0, "lat": 38.90428583333333, "bike_id": "f8718d98b9a7d35ba6e59265925d1c9f", "type": "electric_scooter", "is_reserved": 0, "lon": -77.043543}, {"fusion_lat": 0.0, "name": "d04adbdee1e994c4a1e121fe2534d76e", "is_disabled": 0, "rental_uris": {"android": "https://dc.lft.to/lastmile_qr_scan", "ios": "https://dc.lft.to/lastmile_qr_scan"}, "fusion_lon": 0.0, "lat": 38.90181483333333, "bike_id": "d04adbdee1e994c4a1e121fe2534d76e", "type": "electric_bike", "is_reserved": 0, "lon": -77.01973683333334}, {"fusion_lat": 0.0, "name": "d47915f7bc8e874015a2706d7aee2ca9", "is_disabled": 0, "rental_uris": {"android": "https://dc.lft.to/lastmile_qr_scan", "ios": "https://dc.lft.to/lastmile_qr_scan"}, "fusion_lon": 0.0, "lat": 38.928255666666665, "bike_id": "d47915f7bc8e874015a2706d7aee2ca9", "type": "electric_bike", "is_reserved": 0, "lon": -77.05416866666667}, {"fusion_lat": 0.0, "name": "63fc3e73022aa639ba02025db3929566", "is_disabled": 0, "rental_uris": {"android": "https://dc.lft.to/lastmile_qr_scan", "ios": "https://dc.lft.to/lastmile_qr_scan"}, "fusion_lon": 0.0, "lat": 38.816106166666664, "bike_id": "63fc3e73022aa639ba02025db3929566", "type": "electric_bike", "is_reserved": 0, "lon": -76.99660766666666}, {"fusion_lat": 0.0, "name": "a2642087693879b59c89c0846799bc04", "is_disabled": 0, "rental_uris": {"android": "https://dc.lft.to/lastmile_qr_scan", "ios": "https://dc.lft.to/lastmile_qr_scan"}, "fusion_lon": 0.0, "lat": 38.917758166666665, "bike_id": "a2642087693879b59c89c0846799bc04", "type": "electric_scooter", "is_reserved": 0, "lon": -77.0192415}, {"fusion_lat": 0.0, "name": "5978710fe02bfdfdb9b6dd6029ec8f05", "is_disabled": 0, "rental_uris": {"android": "https://dc.lft.to/lastmile_qr_scan", "ios": "https://dc.lft.to/lastmile_qr_scan"}, "fusion_lon": 0.0, "lat": 39.014193166666665, "bike_id": "5978710fe02bfdfdb9b6dd6029ec8f05", "type": "electric_bike", "is_reserved": 0, "lon": -77.04500583333333}, {"fusion_lat": 0.0, "name": "f78401d3066c70df808e96c2ce94240e", "is_disabled": 0, "rental_uris": {"android": "https://dc.lft.to/lastmile_qr_scan", "ios": "https://dc.lft.to/lastmile_qr_scan"}, "fusion_lon": 0.0, "lat": 38.84914883333333, "bike_id": "f78401d3066c70df808e96c2ce94240e", "type": "electric_bike", "is_reserved": 0, "lon": -77.079291}, {"fusion_lat": 0.0, "name": "030aba2e0383093f5f3f62063b47d642", "is_disabled": 0, "rental_uris": {"android": "https://dc.lft.to/lastmile_qr_scan", "ios": "https://dc.lft.to/lastmile_qr_scan"}, "fusion_lon": 0.0, "lat": 38.922297, "bike_id": "030aba2e0383093f5f3f62063b47d642", "type": "electric_scooter", "is_reserved": 0, "lon": -77.02113566666667}, {"fusion_lat": 0.0, "name": "bfe9db08b6ceb13d16a36524c3f1ef01", "is_disabled": 0, "rental_uris": {"android": "https://dc.lft.to/lastmile_qr_scan", "ios": "https://dc.lft.to/lastmile_qr_scan"}, "fusion_lon": 0.0, "lat": 38.88509083333334, "bike_id": "bfe9db08b6ceb13d16a36524c3f1ef01", "type": "electric_scooter", "is_reserved": 0, "lon": -76.99752783333334}, {"fusion_lat": 0.0, "name": "26c1b38c265c155cf3da09151351fedf", "is_disabled": 0, "rental_uris": {"android": "https://dc.lft.to/lastmile_qr_scan", "ios": "https://dc.lft.to/lastmile_qr_scan"}, "fusion_lon": 0.0, "lat": 38.898841, "bike_id": "26c1b38c265c155cf3da09151351fedf", "type": "electric_scooter", "is_reserved": 0, "lon": -76.976751}, {"fusion_lat": 0.0, "name": "3aa20759179c02bf2cf70eb94bd61083", "is_disabled": 0, "rental_uris": {"android": "https://dc.lft.to/lastmile_qr_scan", "ios": "https://dc.lft.to/lastmile_qr_scan"}, "fusion_lon": 0.0, "lat": 38.884915666666664, "bike_id": "3aa20759179c02bf2cf70eb94bd61083", "type": "electric_scooter", "is_reserved": 0, "lon": -77.00712266666666}, {"fusion_lat": 0.0, "name": "bb6b401d52b608bac35aed7b76ebcda3", "is_disabled": 0, "rental_uris": {"android": "https://dc.lft.to/lastmile_qr_scan", "ios": "https://dc.lft.to/lastmile_qr_scan"}, "fusion_lon": 0.0, "lat": 38.86759166666667, "bike_id": "bb6b401d52b608bac35aed7b76ebcda3", "type": "electric_scooter", "is_reserved": 0, "lon": -76.9827935}, {"fusion_lat": 0.0, "name": "53d93e7e5893592b2d9e4e5b83bd8a90", "is_disabled": 0, "rental_uris": {"android": "https://dc.lft.to/lastmile_qr_scan", "ios": "https://dc.lft.to/lastmile_qr_scan"}, "fusion_lon": 0.0, "lat": 38.888973, "bike_id": "53d93e7e5893592b2d9e4e5b83bd8a90", "type": "electric_scooter", "is_reserved": 0, "lon": -76.97727533333334}, {"fusion_lat": 0.0, "name": "6a0c05f2b3dee12bd1bd46995b10d6a3", "is_disabled": 0, "rental_uris": {"android": "https://dc.lft.to/lastmile_qr_scan", "ios": "https://dc.lft.to/lastmile_qr_scan"}, "fusion_lon": 0.0, "lat": 38.9397665, "bike_id": "6a0c05f2b3dee12bd1bd46995b10d6a3", "type": "electric_scooter", "is_reserved": 0, "lon": -77.0356325}, {"fusion_lat": 0.0, "name": "a2ac45011e5b062a1536d5ea3f104162", "is_disabled": 0, "rental_uris": {"android": "https://dc.lft.to/lastmile_qr_scan", "ios": "https://dc.lft.to/lastmile_qr_scan"}, "fusion_lon": 0.0, "lat": 38.88470733333333, "bike_id": "a2ac45011e5b062a1536d5ea3f104162", "type": "electric_scooter", "is_reserved": 0, "lon": -76.94979416666666}, {"fusion_lat": 0.0, "name": "88f8472d0588f3a67c0f0e0a267483f2", "is_disabled": 0, "rental_uris": {"android": "https://dc.lft.to/lastmile_qr_scan", "ios": "https://dc.lft.to/lastmile_qr_scan"}, "fusion_lon": 0.0, "lat": 38.917099, "bike_id": "88f8472d0588f3a67c0f0e0a267483f2", "type": "electric_scooter", "is_reserved": 0, "lon": -77.0347865}, {"fusion_lat": 0.0, "name": "8f896ac3bf027752e4956c7483f2091f", "is_disabled": 0, "rental_uris": {"android": "https://dc.lft.to/lastmile_qr_scan", "ios": "https://dc.lft.to/lastmile_qr_scan"}, "fusion_lon": 0.0, "lat": 38.90776683333333, "bike_id": "8f896ac3bf027752e4956c7483f2091f", "type": "electric_scooter", "is_reserved": 0, "lon": -77.04006233333334}, {"fusion_lat": 0.0, "name": "a0199484a20a1f808a94bc2a5d477167", "is_disabled": 0, "rental_uris": {"android": "https://dc.lft.to/lastmile_qr_scan", "ios": "https://dc.lft.to/lastmile_qr_scan"}, "fusion_lon": 0.0, "lat": 38.961291333333335, "bike_id": "a0199484a20a1f808a94bc2a5d477167", "type": "electric_bike", "is_reserved": 0, "lon": -77.03273766666666}, {"fusion_lat": 0.0, "name": "966bb572b1b79554a2b387c74a25771d", "is_disabled": 0, "rental_uris": {"android": "https://dc.lft.to/lastmile_qr_scan", "ios": "https://dc.lft.to/lastmile_qr_scan"}, "fusion_lon": 0.0, "lat": 38.916404, "bike_id": "966bb572b1b79554a2b387c74a25771d", "type": "electric_scooter", "is_reserved": 0, "lon": -77.04788233333333}, {"fusion_lat": 0.0, "name": "840f4c70febd2c485be2694b92a60040", "is_disabled": 0, "rental_uris": {"android": "https://dc.lft.to/lastmile_qr_scan", "ios": "https://dc.lft.to/lastmile_qr_scan"}, "fusion_lon": 0.0, "lat": 38.89890966666667, "bike_id": "840f4c70febd2c485be2694b92a60040", "type": "electric_scooter", "is_reserved": 0, "lon": -77.032886}, {"fusion_lat": 0.0, "name": "cdb1569ff52e414858ef619e0ba962e0", "is_disabled": 0, "rental_uris": {"android": "https://dc.lft.to/lastmile_qr_scan", "ios": "https://dc.lft.to/lastmile_qr_scan"}, "fusion_lon": 0.0, "lat": 38.9143535, "bike_id": "cdb1569ff52e414858ef619e0ba962e0", "type": "electric_scooter", "is_reserved": 0, "lon": -77.01224033333334}, {"fusion_lat": 0.0, "name": "50820c9a9d8b02709c65668c2f03e561", "is_disabled": 0, "rental_uris": {"android": "https://dc.lft.to/lastmile_qr_scan", "ios": "https://dc.lft.to/lastmile_qr_scan"}, "fusion_lon": 0.0, "lat": 38.90921933333333, "bike_id": "50820c9a9d8b02709c65668c2f03e561", "type": "electric_scooter", "is_reserved": 0, "lon": -77.0308375}, {"fusion_lat": 0.0, "name": "14a30e3b1ad9870b7e05016af1eeac81", "is_disabled": 0, "rental_uris": {"android": "https://dc.lft.to/lastmile_qr_scan", "ios": "https://dc.lft.to/lastmile_qr_scan"}, "fusion_lon": 0.0, "lat": 38.931129166666665, "bike_id": "14a30e3b1ad9870b7e05016af1eeac81", "type": "electric_scooter", "is_reserved": 0, "lon": -77.03843116666667}, {"fusion_lat": 0.0, "name": "791abede5f2c59267d7ffc3ae629962b", "is_disabled": 0, "rental_uris": {"android": "https://dc.lft.to/lastmile_qr_scan", "ios": "https://dc.lft.to/lastmile_qr_scan"}, "fusion_lon": 0.0, "lat": 38.90149683333333, "bike_id": "791abede5f2c59267d7ffc3ae629962b", "type": "electric_scooter", "is_reserved": 0, "lon": -77.04362983333333}, {"fusion_lat": 0.0, "name": "b1e59a59f3a1ad61c698524d0e67d237", "is_disabled": 0, "rental_uris": {"android": "https://dc.lft.to/lastmile_qr_scan", "ios": "https://dc.lft.to/lastmile_qr_scan"}, "fusion_lon": 0.0, "lat": 38.95405733333333, "bike_id": "b1e59a59f3a1ad61c698524d0e67d237", "type": "electric_scooter", "is_reserved": 0, "lon": -77.02749516666667}, {"fusion_lat": 0.0, "name": "4186c8b403f5a7973f95291d188d549c", "is_disabled": 0, "rental_uris": {"android": "https://dc.lft.to/lastmile_qr_scan", "ios": "https://dc.lft.to/lastmile_qr_scan"}, "fusion_lon": 0.0, "lat": 38.9013745, "bike_id": "4186c8b403f5a7973f95291d188d549c", "type": "electric_scooter", "is_reserved": 0, "lon": -77.03240033333333}, {"fusion_lat": 0.0, "name": "d3cc4ebee8b9019a8afa1d151f729b31", "is_disabled": 0, "rental_uris": {"android": "https://dc.lft.to/lastmile_qr_scan", "ios": "https://dc.lft.to/lastmile_qr_scan"}, "fusion_lon": 0.0, "lat": 38.89572783333333, "bike_id": "d3cc4ebee8b9019a8afa1d151f729b31", "type": "electric_scooter", "is_reserved": 0, "lon": -77.02827433333333}, {"fusion_lat": 0.0, "name": "b832a85ddee40b987ca017743587de28", "is_disabled": 0, "rental_uris": {"android": "https://dc.lft.to/lastmile_qr_scan", "ios": "https://dc.lft.to/lastmile_qr_scan"}, "fusion_lon": 0.0, "lat": 38.926540333333335, "bike_id": "b832a85ddee40b987ca017743587de28", "type": "electric_scooter", "is_reserved": 0, "lon": -77.03725616666667}, {"fusion_lat": 0.0, "name": "60b24dc2ae4962c314fc53bd9f349c6c", "is_disabled": 0, "rental_uris": {"android": "https://dc.lft.to/lastmile_qr_scan", "ios": "https://dc.lft.to/lastmile_qr_scan"}, "fusion_lon": 0.0, "lat": 38.916496, "bike_id": "60b24dc2ae4962c314fc53bd9f349c6c", "type": "electric_scooter", "is_reserved": 0, "lon": -77.03151266666667}, {"fusion_lat": 0.0, "name": "70e378d42423898e828007337a4e282b", "is_disabled": 0, "rental_uris": {"android": "https://dc.lft.to/lastmile_qr_scan", "ios": "https://dc.lft.to/lastmile_qr_scan"}, "fusion_lon": 0.0, "lat": 38.883284833333335, "bike_id": "70e378d42423898e828007337a4e282b", "type": "electric_scooter", "is_reserved": 0, "lon": -77.01767566666666}, {"fusion_lat": 0.0, "name": "862964c5536406d22d87a79c7c0433fb", "is_disabled": 0, "rental_uris": {"android": "https://dc.lft.to/lastmile_qr_scan", "ios": "https://dc.lft.to/lastmile_qr_scan"}, "fusion_lon": 0.0, "lat": 38.910611333333335, "bike_id": "862964c5536406d22d87a79c7c0433fb", "type": "electric_scooter", "is_reserved": 0, "lon": -77.044129}, {"fusion_lat": 0.0, "name": "87641e7cbb8075a672dbb55fbc80eca5", "is_disabled": 0, "rental_uris": {"android": "https://dc.lft.to/lastmile_qr_scan", "ios": "https://dc.lft.to/lastmile_qr_scan"}, "fusion_lon": 0.0, "lat": 38.921861666666665, "bike_id": "87641e7cbb8075a672dbb55fbc80eca5", "type": "electric_scooter", "is_reserved": 0, "lon": -77.03824333333333}, {"fusion_lat": 0.0, "name": "b60d61a274039868499013573880d7f7", "is_disabled": 0, "rental_uris": {"android": "https://dc.lft.to/lastmile_qr_scan", "ios": "https://dc.lft.to/lastmile_qr_scan"}, "fusion_lon": 0.0, "lat": 38.91480516666667, "bike_id": "b60d61a274039868499013573880d7f7", "type": "electric_scooter", "is_reserved": 0, "lon": -77.04545116666667}, {"fusion_lat": 0.0, "name": "aef6260e2f5b61d4364447c8455e4955", "is_disabled": 0, "rental_uris": {"android": "https://dc.lft.to/lastmile_qr_scan", "ios": "https://dc.lft.to/lastmile_qr_scan"}, "fusion_lon": 0.0, "lat": 38.90349366666667, "bike_id": "aef6260e2f5b61d4364447c8455e4955", "type": "electric_scooter", "is_reserved": 0, "lon": -76.99955833333334}, {"fusion_lat": 0.0, "name": "b16faed1afdfd53c8ab350461fef6f3f", "is_disabled": 0, "rental_uris": {"android": "https://dc.lft.to/lastmile_qr_scan", "ios": "https://dc.lft.to/lastmile_qr_scan"}, "fusion_lon": 0.0, "lat": 38.9086815, "bike_id": "b16faed1afdfd53c8ab350461fef6f3f", "type": "electric_scooter", "is_reserved": 0, "lon": -77.02338533333334}, {"fusion_lat": 0.0, "name": "116d7d365a464b5af22b1209e09091d1", "is_disabled": 0, "rental_uris": {"android": "https://dc.lft.to/lastmile_qr_scan", "ios": "https://dc.lft.to/lastmile_qr_scan"}, "fusion_lon": 0.0, "lat": 38.821813666666664, "bike_id": "116d7d365a464b5af22b1209e09091d1", "type": "electric_bike", "is_reserved": 0, "lon": -76.99516383333334}, {"fusion_lat": 0.0, "name": "b8545fbdc305fa80e4dc266d3aaebfee", "is_disabled": 0, "rental_uris": {"android": "https://dc.lft.to/lastmile_qr_scan", "ios": "https://dc.lft.to/lastmile_qr_scan"}, "fusion_lon": 0.0, "lat": 38.80452916666667, "bike_id": "b8545fbdc305fa80e4dc266d3aaebfee", "type": "electric_bike", "is_reserved": 0, "lon": -77.05385116666666}, {"fusion_lat": 0.0, "name": "721ab42ef7a979dd3d199724b209c792", "is_disabled": 0, "rental_uris": {"android": "https://dc.lft.to/lastmile_qr_scan", "ios": "https://dc.lft.to/lastmile_qr_scan"}, "fusion_lon": 0.0, "lat": 38.9156385, "bike_id": "721ab42ef7a979dd3d199724b209c792", "type": "electric_scooter", "is_reserved": 0, "lon": -77.03226383333333}, {"fusion_lat": 0.0, "name": "cc681234188584fe4781937a241f3147", "is_disabled": 0, "rental_uris": {"android": "https://dc.lft.to/lastmile_qr_scan", "ios": "https://dc.lft.to/lastmile_qr_scan"}, "fusion_lon": 0.0, "lat": 38.926066, "bike_id": "cc681234188584fe4781937a241f3147", "type": "electric_scooter", "is_reserved": 0, "lon": -77.0215795}, {"fusion_lat": 0.0, "name": "08cbc378e593818c7f9782291b8ddaf6", "is_disabled": 0, "rental_uris": {"android": "https://dc.lft.to/lastmile_qr_scan", "ios": "https://dc.lft.to/lastmile_qr_scan"}, "fusion_lon": 0.0, "lat": 38.908842166666666, "bike_id": "08cbc378e593818c7f9782291b8ddaf6", "type": "electric_scooter", "is_reserved": 0, "lon": -77.02290533333333}, {"fusion_lat": 0.0, "name": "2555a2b1d9f4f4f46694f2f69151db57", "is_disabled": 0, "rental_uris": {"android": "https://dc.lft.to/lastmile_qr_scan", "ios": "https://dc.lft.to/lastmile_qr_scan"}, "fusion_lon": 0.0, "lat": 38.89829966666667, "bike_id": "2555a2b1d9f4f4f46694f2f69151db57", "type": "electric_scooter", "is_reserved": 0, "lon": -76.94631716666666}, {"fusion_lat": 0.0, "name": "39d3ca06e8a2d6c8dc35c4ddc3584810", "is_disabled": 0, "rental_uris": {"android": "https://dc.lft.to/lastmile_qr_scan", "ios": "https://dc.lft.to/lastmile_qr_scan"}, "fusion_lon": 0.0, "lat": 38.8775245, "bike_id": "39d3ca06e8a2d6c8dc35c4ddc3584810", "type": "electric_scooter", "is_reserved": 0, "lon": -77.01430283333333}, {"fusion_lat": 0.0, "name": "9403f92b49c86344325784ce9d58fcd3", "is_disabled": 0, "rental_uris": {"android": "https://dc.lft.to/lastmile_qr_scan", "ios": "https://dc.lft.to/lastmile_qr_scan"}, "fusion_lon": 0.0, "lat": 38.88707733333333, "bike_id": "9403f92b49c86344325784ce9d58fcd3", "type": "electric_scooter", "is_reserved": 0, "lon": -77.00251366666667}, {"fusion_lat": 0.0, "name": "e1ea90b93817fde04786733a55db1f6c", "is_disabled": 0, "rental_uris": {"android": "https://dc.lft.to/lastmile_qr_scan", "ios": "https://dc.lft.to/lastmile_qr_scan"}, "fusion_lon": 0.0, "lat": 38.904062833333334, "bike_id": "e1ea90b93817fde04786733a55db1f6c", "type": "electric_scooter", "is_reserved": 0, "lon": -77.05246883333334}, {"fusion_lat": 0.0, "name": "a4b881370a27c214177f2372c5a89f42", "is_disabled": 0, "rental_uris": {"android": "https://dc.lft.to/lastmile_qr_scan", "ios": "https://dc.lft.to/lastmile_qr_scan"}, "fusion_lon": 0.0, "lat": 38.900347, "bike_id": "a4b881370a27c214177f2372c5a89f42", "type": "electric_scooter", "is_reserved": 0, "lon": -77.04680233333333}, {"fusion_lat": 0.0, "name": "3d01ccad9fcb6134a48b2b50665770f8", "is_disabled": 0, "rental_uris": {"android": "https://dc.lft.to/lastmile_qr_scan", "ios": "https://dc.lft.to/lastmile_qr_scan"}, "fusion_lon": 0.0, "lat": 38.879607166666666, "bike_id": "3d01ccad9fcb6134a48b2b50665770f8", "type": "electric_scooter", "is_reserved": 0, "lon": -76.99014033333333}, {"fusion_lat": 0.0, "name": "41ca3630d8569568d19bef90315dcef6", "is_disabled": 0, "rental_uris": {"android": "https://dc.lft.to/lastmile_qr_scan", "ios": "https://dc.lft.to/lastmile_qr_scan"}, "fusion_lon": 0.0, "lat": 38.88257266666667, "bike_id": "41ca3630d8569568d19bef90315dcef6", "type": "electric_scooter", "is_reserved": 0, "lon": -76.99491333333333}, {"fusion_lat": 0.0, "name": "120a6a366f71b53981e916113b1f2559", "is_disabled": 0, "rental_uris": {"android": "https://dc.lft.to/lastmile_qr_scan", "ios": "https://dc.lft.to/lastmile_qr_scan"}, "fusion_lon": 0.0, "lat": 38.912589, "bike_id": "120a6a366f71b53981e916113b1f2559", "type": "electric_scooter", "is_reserved": 0, "lon": -77.047382}, {"fusion_lat": 0.0, "name": "05830c91835e311fbf59977071b8ba2f", "is_disabled": 0, "rental_uris": {"android": "https://dc.lft.to/lastmile_qr_scan", "ios": "https://dc.lft.to/lastmile_qr_scan"}, "fusion_lon": 0.0, "lat": 38.8774465, "bike_id": "05830c91835e311fbf59977071b8ba2f", "type": "electric_scooter", "is_reserved": 0, "lon": -77.0070565}, {"fusion_lat": 0.0, "name": "50e2d09b2a610be41a3a79092bbe919a", "is_disabled": 0, "rental_uris": {"android": "https://dc.lft.to/lastmile_qr_scan", "ios": "https://dc.lft.to/lastmile_qr_scan"}, "fusion_lon": 0.0, "lat": 38.86557833333333, "bike_id": "50e2d09b2a610be41a3a79092bbe919a", "type": "electric_scooter", "is_reserved": 0, "lon": -76.9835285}, {"fusion_lat": 0.0, "name": "3a1b9ea5b8dee86b70d6c52ba43abb68", "is_disabled": 0, "rental_uris": {"android": "https://dc.lft.to/lastmile_qr_scan", "ios": "https://dc.lft.to/lastmile_qr_scan"}, "fusion_lon": 0.0, "lat": 38.899434166666666, "bike_id": "3a1b9ea5b8dee86b70d6c52ba43abb68", "type": "electric_scooter", "is_reserved": 0, "lon": -77.041687}, {"fusion_lat": 0.0, "name": "1a7f16b60edb438321f9cb9c690cb651", "is_disabled": 0, "rental_uris": {"android": "https://dc.lft.to/lastmile_qr_scan", "ios": "https://dc.lft.to/lastmile_qr_scan"}, "fusion_lon": 0.0, "lat": 38.9169755, "bike_id": "1a7f16b60edb438321f9cb9c690cb651", "type": "electric_scooter", "is_reserved": 0, "lon": -77.031021}, {"fusion_lat": 0.0, "name": "bb6b7d87d38a73e53f6c156140ea9768", "is_disabled": 0, "rental_uris": {"android": "https://dc.lft.to/lastmile_qr_scan", "ios": "https://dc.lft.to/lastmile_qr_scan"}, "fusion_lon": 0.0, "lat": 38.905416833333334, "bike_id": "bb6b7d87d38a73e53f6c156140ea9768", "type": "electric_scooter", "is_reserved": 0, "lon": -77.04939166666666}, {"fusion_lat": 0.0, "name": "1aea4b37bc73215177190152b7af6418", "is_disabled": 0, "rental_uris": {"android": "https://dc.lft.to/lastmile_qr_scan", "ios": "https://dc.lft.to/lastmile_qr_scan"}, "fusion_lon": 0.0, "lat": 38.871386, "bike_id": "1aea4b37bc73215177190152b7af6418", "type": "electric_bike", "is_reserved": 0, "lon": -77.10023833333334}, {"fusion_lat": 0.0, "name": "45d6e1982104ba3423c0c5cc8a7efd3d", "is_disabled": 0, "rental_uris": {"android": "https://dc.lft.to/lastmile_qr_scan", "ios": "https://dc.lft.to/lastmile_qr_scan"}, "fusion_lon": 0.0, "lat": 38.897315166666665, "bike_id": "45d6e1982104ba3423c0c5cc8a7efd3d", "type": "electric_scooter", "is_reserved": 0, "lon": -77.02014033333333}, {"fusion_lat": 0.0, "name": "f41e455c1fde5e608af2faf451c83017", "is_disabled": 0, "rental_uris": {"android": "https://dc.lft.to/lastmile_qr_scan", "ios": "https://dc.lft.to/lastmile_qr_scan"}, "fusion_lon": 0.0, "lat": 38.92225783333333, "bike_id": "f41e455c1fde5e608af2faf451c83017", "type": "electric_scooter", "is_reserved": 0, "lon": -76.99356233333333}, {"fusion_lat": 0.0, "name": "53aca7aa0e460636866876c83602b8e7", "is_disabled": 0, "rental_uris": {"android": "https://dc.lft.to/lastmile_qr_scan", "ios": "https://dc.lft.to/lastmile_qr_scan"}, "fusion_lon": 0.0, "lat": 38.9132765, "bike_id": "53aca7aa0e460636866876c83602b8e7", "type": "electric_scooter", "is_reserved": 0, "lon": -77.02960333333333}, {"fusion_lat": 0.0, "name": "2fbb393bdb94f61281270d27e876cd48", "is_disabled": 0, "rental_uris": {"android": "https://dc.lft.to/lastmile_qr_scan", "ios": "https://dc.lft.to/lastmile_qr_scan"}, "fusion_lon": 0.0, "lat": 38.950649166666665, "bike_id": "2fbb393bdb94f61281270d27e876cd48", "type": "electric_bike", "is_reserved": 0, "lon": -77.07233116666667}, {"fusion_lat": 0.0, "name": "2d9ccd842e2c8327edeadab74b0bd273", "is_disabled": 0, "rental_uris": {"android": "https://dc.lft.to/lastmile_qr_scan", "ios": "https://dc.lft.to/lastmile_qr_scan"}, "fusion_lon": 0.0, "lat": 38.917074666666664, "bike_id": "2d9ccd842e2c8327edeadab74b0bd273", "type": "electric_scooter", "is_reserved": 0, "lon": -77.026231}, {"fusion_lat": 0.0, "name": "a3d5a0632b88487353b903d796eecbb0", "is_disabled": 0, "rental_uris": {"android": "https://dc.lft.to/lastmile_qr_scan", "ios": "https://dc.lft.to/lastmile_qr_scan"}, "fusion_lon": 0.0, "lat": 38.956390999999996, "bike_id": "a3d5a0632b88487353b903d796eecbb0", "type": "electric_scooter", "is_reserved": 0, "lon": -77.033031}, {"fusion_lat": 0.0, "name": "5100600711ce17df8a43ab1dcedfdf3b", "is_disabled": 0, "rental_uris": {"android": "https://dc.lft.to/lastmile_qr_scan", "ios": "https://dc.lft.to/lastmile_qr_scan"}, "fusion_lon": 0.0, "lat": 38.91656, "bike_id": "5100600711ce17df8a43ab1dcedfdf3b", "type": "electric_scooter", "is_reserved": 0, "lon": -77.03858066666666}, {"fusion_lat": 0.0, "name": "9600c5aebd87b567c69b483b89207034", "is_disabled": 0, "rental_uris": {"android": "https://dc.lft.to/lastmile_qr_scan", "ios": "https://dc.lft.to/lastmile_qr_scan"}, "fusion_lon": 0.0, "lat": 38.95878716666667, "bike_id": "9600c5aebd87b567c69b483b89207034", "type": "electric_bike", "is_reserved": 0, "lon": -76.970526}, {"fusion_lat": 0.0, "name": "b545182ab8f8f7f533d9d3aa9ce95d83", "is_disabled": 0, "rental_uris": {"android": "https://dc.lft.to/lastmile_qr_scan", "ios": "https://dc.lft.to/lastmile_qr_scan"}, "fusion_lon": 0.0, "lat": 38.92092316666667, "bike_id": "b545182ab8f8f7f533d9d3aa9ce95d83", "type": "electric_scooter", "is_reserved": 0, "lon": -77.07373033333333}, {"fusion_lat": 0.0, "name": "ac9ceee31ebff48f321c5831346df36e", "is_disabled": 0, "rental_uris": {"android": "https://dc.lft.to/lastmile_qr_scan", "ios": "https://dc.lft.to/lastmile_qr_scan"}, "fusion_lon": 0.0, "lat": 38.95741866666667, "bike_id": "ac9ceee31ebff48f321c5831346df36e", "type": "electric_bike", "is_reserved": 0, "lon": -77.02169116666667}, {"fusion_lat": 0.0, "name": "4f0d1438ee68abe9fb8d2ca19b0c35aa", "is_disabled": 0, "rental_uris": {"android": "https://dc.lft.to/lastmile_qr_scan", "ios": "https://dc.lft.to/lastmile_qr_scan"}, "fusion_lon": 0.0, "lat": 38.9267055, "bike_id": "4f0d1438ee68abe9fb8d2ca19b0c35aa", "type": "electric_bike", "is_reserved": 0, "lon": -77.09851983333333}, {"fusion_lat": 0.0, "name": "81d3b6d69f5c52b6d082ce1f801a49f4", "is_disabled": 0, "rental_uris": {"android": "https://dc.lft.to/lastmile_qr_scan", "ios": "https://dc.lft.to/lastmile_qr_scan"}, "fusion_lon": 0.0, "lat": 38.894405166666665, "bike_id": "81d3b6d69f5c52b6d082ce1f801a49f4", "type": "electric_scooter", "is_reserved": 0, "lon": -77.02634916666666}, {"fusion_lat": 0.0, "name": "1bac21dfdbd5644bd0ccf604cd0eb705", "is_disabled": 0, "rental_uris": {"android": "https://dc.lft.to/lastmile_qr_scan", "ios": "https://dc.lft.to/lastmile_qr_scan"}, "fusion_lon": 0.0, "lat": 38.912838666666666, "bike_id": "1bac21dfdbd5644bd0ccf604cd0eb705", "type": "electric_scooter", "is_reserved": 0, "lon": -77.038499}, {"fusion_lat": 0.0, "name": "c54b746eb4edb8377fbde4d9b98057b3", "is_disabled": 0, "rental_uris": {"android": "https://dc.lft.to/lastmile_qr_scan", "ios": "https://dc.lft.to/lastmile_qr_scan"}, "fusion_lon": 0.0, "lat": 38.883076833333334, "bike_id": "c54b746eb4edb8377fbde4d9b98057b3", "type": "electric_scooter", "is_reserved": 0, "lon": -76.99166666666666}, {"fusion_lat": 0.0, "name": "615a973ed6a5cbf88686c8cfdbbc66d1", "is_disabled": 0, "rental_uris": {"android": "https://dc.lft.to/lastmile_qr_scan", "ios": "https://dc.lft.to/lastmile_qr_scan"}, "fusion_lon": 0.0, "lat": 38.95746533333333, "bike_id": "615a973ed6a5cbf88686c8cfdbbc66d1", "type": "electric_bike", "is_reserved": 0, "lon": -76.97257016666667}, {"fusion_lat": 0.0, "name": "3873cd41832ac248ea10fc83b129548e", "is_disabled": 0, "rental_uris": {"android": "https://dc.lft.to/lastmile_qr_scan", "ios": "https://dc.lft.to/lastmile_qr_scan"}, "fusion_lon": 0.0, "lat": 38.798564999999996, "bike_id": "3873cd41832ac248ea10fc83b129548e", "type": "electric_bike", "is_reserved": 0, "lon": -77.06305716666667}, {"fusion_lat": 0.0, "name": "c064eb19e972c583f99df8202b5a6249", "is_disabled": 0, "rental_uris": {"android": "https://dc.lft.to/lastmile_qr_scan", "ios": "https://dc.lft.to/lastmile_qr_scan"}, "fusion_lon": 0.0, "lat": 38.9395535, "bike_id": "c064eb19e972c583f99df8202b5a6249", "type": "electric_scooter", "is_reserved": 0, "lon": -77.08594016666666}, {"fusion_lat": 0.0, "name": "5f7d92979df7a30dd9b8f707edca1940", "is_disabled": 0, "rental_uris": {"android": "https://dc.lft.to/lastmile_qr_scan", "ios": "https://dc.lft.to/lastmile_qr_scan"}, "fusion_lon": 0.0, "lat": 38.88287666666667, "bike_id": "5f7d92979df7a30dd9b8f707edca1940", "type": "electric_scooter", "is_reserved": 0, "lon": -77.03122566666667}, {"fusion_lat": 0.0, "name": "a57216d646f5f0255f55c0da77657ff6", "is_disabled": 0, "rental_uris": {"android": "https://dc.lft.to/lastmile_qr_scan", "ios": "https://dc.lft.to/lastmile_qr_scan"}, "fusion_lon": 0.0, "lat": 38.8799075, "bike_id": "a57216d646f5f0255f55c0da77657ff6", "type": "electric_scooter", "is_reserved": 0, "lon": -77.024132}, {"fusion_lat": 0.0, "name": "da1a2f9c8915ebb5d7ffb314daba1a1c", "is_disabled": 0, "rental_uris": {"android": "https://dc.lft.to/lastmile_qr_scan", "ios": "https://dc.lft.to/lastmile_qr_scan"}, "fusion_lon": 0.0, "lat": 38.898544333333334, "bike_id": "da1a2f9c8915ebb5d7ffb314daba1a1c", "type": "electric_scooter", "is_reserved": 0, "lon": -76.97642633333334}, {"fusion_lat": 0.0, "name": "1bba5b6c7134fe1f06849c19fa14b92d", "is_disabled": 0, "rental_uris": {"android": "https://dc.lft.to/lastmile_qr_scan", "ios": "https://dc.lft.to/lastmile_qr_scan"}, "fusion_lon": 0.0, "lat": 38.90504116666666, "bike_id": "1bba5b6c7134fe1f06849c19fa14b92d", "type": "electric_scooter", "is_reserved": 0, "lon": -77.00097833333334}, {"fusion_lat": 0.0, "name": "7aa17be59fbc24c05d584b6c19d3c41a", "is_disabled": 0, "rental_uris": {"android": "https://dc.lft.to/lastmile_qr_scan", "ios": "https://dc.lft.to/lastmile_qr_scan"}, "fusion_lon": 0.0, "lat": 38.89092, "bike_id": "7aa17be59fbc24c05d584b6c19d3c41a", "type": "electric_scooter", "is_reserved": 0, "lon": -76.91928483333334}, {"fusion_lat": 0.0, "name": "4212cbf6511a537ea0929c55f9f999ea", "is_disabled": 0, "rental_uris": {"android": "https://dc.lft.to/lastmile_qr_scan", "ios": "https://dc.lft.to/lastmile_qr_scan"}, "fusion_lon": 0.0, "lat": 38.912682, "bike_id": "4212cbf6511a537ea0929c55f9f999ea", "type": "electric_scooter", "is_reserved": 0, "lon": -77.0317955}, {"fusion_lat": 0.0, "name": "9b58ca6c83ac0954c98a047b0e22751d", "is_disabled": 0, "rental_uris": {"android": "https://dc.lft.to/lastmile_qr_scan", "ios": "https://dc.lft.to/lastmile_qr_scan"}, "fusion_lon": 0.0, "lat": 38.92196216666667, "bike_id": "9b58ca6c83ac0954c98a047b0e22751d", "type": "electric_scooter", "is_reserved": 0, "lon": -77.023934}, {"fusion_lat": 0.0, "name": "b51e965b69211feeec8d07120bffcf05", "is_disabled": 0, "rental_uris": {"android": "https://dc.lft.to/lastmile_qr_scan", "ios": "https://dc.lft.to/lastmile_qr_scan"}, "fusion_lon": 0.0, "lat": 38.932317166666664, "bike_id": "b51e965b69211feeec8d07120bffcf05", "type": "electric_scooter", "is_reserved": 0, "lon": -77.03429466666667}, {"fusion_lat": 0.0, "name": "fcece53f75fe0f7ec1644c262621a51b", "is_disabled": 0, "rental_uris": {"android": "https://dc.lft.to/lastmile_qr_scan", "ios": "https://dc.lft.to/lastmile_qr_scan"}, "fusion_lon": 0.0, "lat": 38.901404, "bike_id": "fcece53f75fe0f7ec1644c262621a51b", "type": "electric_scooter", "is_reserved": 0, "lon": -77.0444815}, {"fusion_lat": 0.0, "name": "f084f31e86af647e63caf5631380eb28", "is_disabled": 0, "rental_uris": {"android": "https://dc.lft.to/lastmile_qr_scan", "ios": "https://dc.lft.to/lastmile_qr_scan"}, "fusion_lon": 0.0, "lat": 38.94430416666667, "bike_id": "f084f31e86af647e63caf5631380eb28", "type": "electric_bike", "is_reserved": 0, "lon": -77.02601966666667}, {"fusion_lat": 0.0, "name": "5f1788a2482d32adf90f76af8b9089d7", "is_disabled": 0, "rental_uris": {"android": "https://dc.lft.to/lastmile_qr_scan", "ios": "https://dc.lft.to/lastmile_qr_scan"}, "fusion_lon": 0.0, "lat": 38.9475415, "bike_id": "5f1788a2482d32adf90f76af8b9089d7", "type": "electric_scooter", "is_reserved": 0, "lon": -77.0071625}, {"fusion_lat": 0.0, "name": "d24ed86440637485f985c7c5d1cb34fd", "is_disabled": 0, "rental_uris": {"android": "https://dc.lft.to/lastmile_qr_scan", "ios": "https://dc.lft.to/lastmile_qr_scan"}, "fusion_lon": 0.0, "lat": 38.90476616666667, "bike_id": "d24ed86440637485f985c7c5d1cb34fd", "type": "electric_scooter", "is_reserved": 0, "lon": -77.05112466666667}, {"fusion_lat": 0.0, "name": "4623f9d301499f5de0ce18866d25e245", "is_disabled": 0, "rental_uris": {"android": "https://dc.lft.to/lastmile_qr_scan", "ios": "https://dc.lft.to/lastmile_qr_scan"}, "fusion_lon": 0.0, "lat": 38.85796833333333, "bike_id": "4623f9d301499f5de0ce18866d25e245", "type": "electric_scooter", "is_reserved": 0, "lon": -76.989138}, {"fusion_lat": 0.0, "name": "c8968476a06efe5e7391c00f23a96f86", "is_disabled": 0, "rental_uris": {"android": "https://dc.lft.to/lastmile_qr_scan", "ios": "https://dc.lft.to/lastmile_qr_scan"}, "fusion_lon": 0.0, "lat": 38.921578333333336, "bike_id": "c8968476a06efe5e7391c00f23a96f86", "type": "electric_scooter", "is_reserved": 0, "lon": -77.03519416666667}, {"fusion_lat": 0.0, "name": "0b7ddd56437fa78cac012743629a45be", "is_disabled": 0, "rental_uris": {"android": "https://dc.lft.to/lastmile_qr_scan", "ios": "https://dc.lft.to/lastmile_qr_scan"}, "fusion_lon": 0.0, "lat": 38.974858, "bike_id": "0b7ddd56437fa78cac012743629a45be", "type": "electric_scooter", "is_reserved": 0, "lon": -77.0146745}, {"fusion_lat": 0.0, "name": "92174d4831378cfbbc7d2ca61b1413f5", "is_disabled": 0, "rental_uris": {"android": "https://dc.lft.to/lastmile_qr_scan", "ios": "https://dc.lft.to/lastmile_qr_scan"}, "fusion_lon": 0.0, "lat": 38.89717916666667, "bike_id": "92174d4831378cfbbc7d2ca61b1413f5", "type": "electric_scooter", "is_reserved": 0, "lon": -77.00804016666666}, {"fusion_lat": 0.0, "name": "31b6fba2f792baec1c3c3d563dcef32a", "is_disabled": 0, "rental_uris": {"android": "https://dc.lft.to/lastmile_qr_scan", "ios": "https://dc.lft.to/lastmile_qr_scan"}, "fusion_lon": 0.0, "lat": 38.944097666666664, "bike_id": "31b6fba2f792baec1c3c3d563dcef32a", "type": "electric_scooter", "is_reserved": 0, "lon": -77.03204833333334}, {"fusion_lat": 0.0, "name": "5dcc1f1fe8acf5844275fe52aa4b4cd8", "is_disabled": 0, "rental_uris": {"android": "https://dc.lft.to/lastmile_qr_scan", "ios": "https://dc.lft.to/lastmile_qr_scan"}, "fusion_lon": 0.0, "lat": 38.929634166666666, "bike_id": "5dcc1f1fe8acf5844275fe52aa4b4cd8", "type": "electric_scooter", "is_reserved": 0, "lon": -77.03095683333333}, {"fusion_lat": 0.0, "name": "0bd3cab660dca83ea97acc7503a5276d", "is_disabled": 0, "rental_uris": {"android": "https://dc.lft.to/lastmile_qr_scan", "ios": "https://dc.lft.to/lastmile_qr_scan"}, "fusion_lon": 0.0, "lat": 38.90677016666667, "bike_id": "0bd3cab660dca83ea97acc7503a5276d", "type": "electric_scooter", "is_reserved": 0, "lon": -77.04731983333333}, {"fusion_lat": 0.0, "name": "4558b71d6bb9796f6e280ca69e4f3222", "is_disabled": 0, "rental_uris": {"android": "https://dc.lft.to/lastmile_qr_scan", "ios": "https://dc.lft.to/lastmile_qr_scan"}, "fusion_lon": 0.0, "lat": 38.879008166666665, "bike_id": "4558b71d6bb9796f6e280ca69e4f3222", "type": "electric_scooter", "is_reserved": 0, "lon": -77.01360316666667}, {"fusion_lat": 0.0, "name": "038ba7d22ab4156a651d56094b0f3276", "is_disabled": 0, "rental_uris": {"android": "https://dc.lft.to/lastmile_qr_scan", "ios": "https://dc.lft.to/lastmile_qr_scan"}, "fusion_lon": 0.0, "lat": 38.908765333333335, "bike_id": "038ba7d22ab4156a651d56094b0f3276", "type": "electric_scooter", "is_reserved": 0, "lon": -77.06427666666667}, {"fusion_lat": 0.0, "name": "e453ab8f8cb60fad2db026555d8d7821", "is_disabled": 0, "rental_uris": {"android": "https://dc.lft.to/lastmile_qr_scan", "ios": "https://dc.lft.to/lastmile_qr_scan"}, "fusion_lon": 0.0, "lat": 38.916994333333335, "bike_id": "e453ab8f8cb60fad2db026555d8d7821", "type": "electric_scooter", "is_reserved": 0, "lon": -77.04217466666667}, {"fusion_lat": 0.0, "name": "0e7dbc0919f3383d3c0d85e1de7d0973", "is_disabled": 0, "rental_uris": {"android": "https://dc.lft.to/lastmile_qr_scan", "ios": "https://dc.lft.to/lastmile_qr_scan"}, "fusion_lon": 0.0, "lat": 38.92505966666667, "bike_id": "0e7dbc0919f3383d3c0d85e1de7d0973", "type": "electric_scooter", "is_reserved": 0, "lon": -77.0511}, {"fusion_lat": 0.0, "name": "c10d8cdc8dffbae2acd58fb75bcd4d51", "is_disabled": 0, "rental_uris": {"android": "https://dc.lft.to/lastmile_qr_scan", "ios": "https://dc.lft.to/lastmile_qr_scan"}, "fusion_lon": 0.0, "lat": 38.92613683333333, "bike_id": "c10d8cdc8dffbae2acd58fb75bcd4d51", "type": "electric_scooter", "is_reserved": 0, "lon": -77.05717233333333}, {"fusion_lat": 0.0, "name": "1cc5b2f184f2d253e6de55e9a40f80cf", "is_disabled": 0, "rental_uris": {"android": "https://dc.lft.to/lastmile_qr_scan", "ios": "https://dc.lft.to/lastmile_qr_scan"}, "fusion_lon": 0.0, "lat": 38.918214666666664, "bike_id": "1cc5b2f184f2d253e6de55e9a40f80cf", "type": "electric_scooter", "is_reserved": 0, "lon": -77.027133}, {"fusion_lat": 0.0, "name": "56954f95cb3c39b74fd531ee459aba25", "is_disabled": 0, "rental_uris": {"android": "https://dc.lft.to/lastmile_qr_scan", "ios": "https://dc.lft.to/lastmile_qr_scan"}, "fusion_lon": 0.0, "lat": 38.93581733333333, "bike_id": "56954f95cb3c39b74fd531ee459aba25", "type": "electric_scooter", "is_reserved": 0, "lon": -77.033627}, {"fusion_lat": 0.0, "name": "08f1011a82a1c36781ab64222d5fcd0b", "is_disabled": 0, "rental_uris": {"android": "https://dc.lft.to/lastmile_qr_scan", "ios": "https://dc.lft.to/lastmile_qr_scan"}, "fusion_lon": 0.0, "lat": 38.87664183333333, "bike_id": "08f1011a82a1c36781ab64222d5fcd0b", "type": "electric_scooter", "is_reserved": 0, "lon": -77.00518766666667}, {"fusion_lat": 0.0, "name": "ba653b3f105fdfb9a29e7d49d2ef2135", "is_disabled": 0, "rental_uris": {"android": "https://dc.lft.to/lastmile_qr_scan", "ios": "https://dc.lft.to/lastmile_qr_scan"}, "fusion_lon": 0.0, "lat": 38.8861435, "bike_id": "ba653b3f105fdfb9a29e7d49d2ef2135", "type": "electric_scooter", "is_reserved": 0, "lon": -77.01527383333334}, {"fusion_lat": 0.0, "name": "8ba572d36a84efd22c1ce64f0b5e7fe2", "is_disabled": 0, "rental_uris": {"android": "https://dc.lft.to/lastmile_qr_scan", "ios": "https://dc.lft.to/lastmile_qr_scan"}, "fusion_lon": 0.0, "lat": 38.90132466666667, "bike_id": "8ba572d36a84efd22c1ce64f0b5e7fe2", "type": "electric_scooter", "is_reserved": 0, "lon": -77.03925}, {"fusion_lat": 0.0, "name": "67753dec1fde9d4b3a8114c28bd57f30", "is_disabled": 0, "rental_uris": {"android": "https://dc.lft.to/lastmile_qr_scan", "ios": "https://dc.lft.to/lastmile_qr_scan"}, "fusion_lon": 0.0, "lat": 38.905574333333334, "bike_id": "67753dec1fde9d4b3a8114c28bd57f30", "type": "electric_scooter", "is_reserved": 0, "lon": -77.00617383333334}, {"fusion_lat": 0.0, "name": "e4ed87c5e6750931415d7eb47120f06b", "is_disabled": 0, "rental_uris": {"android": "https://dc.lft.to/lastmile_qr_scan", "ios": "https://dc.lft.to/lastmile_qr_scan"}, "fusion_lon": 0.0, "lat": 38.897377166666665, "bike_id": "e4ed87c5e6750931415d7eb47120f06b", "type": "electric_scooter", "is_reserved": 0, "lon": -77.04531883333334}, {"fusion_lat": 0.0, "name": "27542dc40f66be73307944cc847e64b3", "is_disabled": 0, "rental_uris": {"android": "https://dc.lft.to/lastmile_qr_scan", "ios": "https://dc.lft.to/lastmile_qr_scan"}, "fusion_lon": 0.0, "lat": 38.912737, "bike_id": "27542dc40f66be73307944cc847e64b3", "type": "electric_scooter", "is_reserved": 0, "lon": -77.03869933333333}, {"fusion_lat": 0.0, "name": "129a8547eb90c19cf5e3ad1af27221b8", "is_disabled": 0, "rental_uris": {"android": "https://dc.lft.to/lastmile_qr_scan", "ios": "https://dc.lft.to/lastmile_qr_scan"}, "fusion_lon": 0.0, "lat": 38.928238666666665, "bike_id": "129a8547eb90c19cf5e3ad1af27221b8", "type": "electric_scooter", "is_reserved": 0, "lon": -77.0544515}, {"fusion_lat": 0.0, "name": "ce445173ce3e0a04c974a101ff9df380", "is_disabled": 0, "rental_uris": {"android": "https://dc.lft.to/lastmile_qr_scan", "ios": "https://dc.lft.to/lastmile_qr_scan"}, "fusion_lon": 0.0, "lat": 38.921755, "bike_id": "ce445173ce3e0a04c974a101ff9df380", "type": "electric_scooter", "is_reserved": 0, "lon": -76.99749683333333}, {"fusion_lat": 0.0, "name": "2e6ba9b6eb0fa16290a69ef63f7df033", "is_disabled": 0, "rental_uris": {"android": "https://dc.lft.to/lastmile_qr_scan", "ios": "https://dc.lft.to/lastmile_qr_scan"}, "fusion_lon": 0.0, "lat": 38.899615833333336, "bike_id": "2e6ba9b6eb0fa16290a69ef63f7df033", "type": "electric_scooter", "is_reserved": 0, "lon": -77.0161845}, {"fusion_lat": 0.0, "name": "7935149c52ba5c8d265a1fdc9915db12", "is_disabled": 0, "rental_uris": {"android": "https://dc.lft.to/lastmile_qr_scan", "ios": "https://dc.lft.to/lastmile_qr_scan"}, "fusion_lon": 0.0, "lat": 38.91990916666666, "bike_id": "7935149c52ba5c8d265a1fdc9915db12", "type": "electric_scooter", "is_reserved": 0, "lon": -76.97302083333334}, {"fusion_lat": 0.0, "name": "7b800b6c59bc7667df9256f54b0145f1", "is_disabled": 0, "rental_uris": {"android": "https://dc.lft.to/lastmile_qr_scan", "ios": "https://dc.lft.to/lastmile_qr_scan"}, "fusion_lon": 0.0, "lat": 38.898035, "bike_id": "7b800b6c59bc7667df9256f54b0145f1", "type": "electric_scooter", "is_reserved": 0, "lon": -76.990367}, {"fusion_lat": 0.0, "name": "c45b5885612956cbe2b0db8ad2a0b678", "is_disabled": 0, "rental_uris": {"android": "https://dc.lft.to/lastmile_qr_scan", "ios": "https://dc.lft.to/lastmile_qr_scan"}, "fusion_lon": 0.0, "lat": 38.8817895, "bike_id": "c45b5885612956cbe2b0db8ad2a0b678", "type": "electric_scooter", "is_reserved": 0, "lon": -76.9590005}, {"fusion_lat": 0.0, "name": "7d1bd1d106895bc7ac88b52f8d04dfff", "is_disabled": 0, "rental_uris": {"android": "https://dc.lft.to/lastmile_qr_scan", "ios": "https://dc.lft.to/lastmile_qr_scan"}, "fusion_lon": 0.0, "lat": 38.93104966666667, "bike_id": "7d1bd1d106895bc7ac88b52f8d04dfff", "type": "electric_scooter", "is_reserved": 0, "lon": -77.02668183333333}, {"fusion_lat": 0.0, "name": "deb3fac0283853ef092f71fd6af8210e", "is_disabled": 0, "rental_uris": {"android": "https://dc.lft.to/lastmile_qr_scan", "ios": "https://dc.lft.to/lastmile_qr_scan"}, "fusion_lon": 0.0, "lat": 38.91926483333334, "bike_id": "deb3fac0283853ef092f71fd6af8210e", "type": "electric_scooter", "is_reserved": 0, "lon": -77.03422783333333}, {"fusion_lat": 0.0, "name": "d2b9dc1aee9264c946348f2f5cbd894f", "is_disabled": 0, "rental_uris": {"android": "https://dc.lft.to/lastmile_qr_scan", "ios": "https://dc.lft.to/lastmile_qr_scan"}, "fusion_lon": 0.0, "lat": 38.92086833333333, "bike_id": "d2b9dc1aee9264c946348f2f5cbd894f", "type": "electric_scooter", "is_reserved": 0, "lon": -77.0240595}, {"fusion_lat": 0.0, "name": "119016705c0e0f610dd4339802b9dbad", "is_disabled": 0, "rental_uris": {"android": "https://dc.lft.to/lastmile_qr_scan", "ios": "https://dc.lft.to/lastmile_qr_scan"}, "fusion_lon": 0.0, "lat": 38.92039233333333, "bike_id": "119016705c0e0f610dd4339802b9dbad", "type": "electric_scooter", "is_reserved": 0, "lon": -77.02588516666667}, {"fusion_lat": 0.0, "name": "2b9adf228118057ee217bfb0c0da606c", "is_disabled": 0, "rental_uris": {"android": "https://dc.lft.to/lastmile_qr_scan", "ios": "https://dc.lft.to/lastmile_qr_scan"}, "fusion_lon": 0.0, "lat": 38.934365166666666, "bike_id": "2b9adf228118057ee217bfb0c0da606c", "type": "electric_scooter", "is_reserved": 0, "lon": -77.0345105}, {"fusion_lat": 0.0, "name": "8d8cead1b38fd71a608b4dba489473b4", "is_disabled": 0, "rental_uris": {"android": "https://dc.lft.to/lastmile_qr_scan", "ios": "https://dc.lft.to/lastmile_qr_scan"}, "fusion_lon": 0.0, "lat": 38.91680783333334, "bike_id": "8d8cead1b38fd71a608b4dba489473b4", "type": "electric_scooter", "is_reserved": 0, "lon": -77.032044}, {"fusion_lat": 0.0, "name": "c35dd66d0719459111d635aecabc46df", "is_disabled": 0, "rental_uris": {"android": "https://dc.lft.to/lastmile_qr_scan", "ios": "https://dc.lft.to/lastmile_qr_scan"}, "fusion_lon": 0.0, "lat": 38.91639083333333, "bike_id": "c35dd66d0719459111d635aecabc46df", "type": "electric_scooter", "is_reserved": 0, "lon": -77.02697066666667}, {"fusion_lat": 0.0, "name": "fd8b46526b13212277f107000164d44b", "is_disabled": 0, "rental_uris": {"android": "https://dc.lft.to/lastmile_qr_scan", "ios": "https://dc.lft.to/lastmile_qr_scan"}, "fusion_lon": 0.0, "lat": 38.93191916666667, "bike_id": "fd8b46526b13212277f107000164d44b", "type": "electric_scooter", "is_reserved": 0, "lon": -77.04305866666667}, {"fusion_lat": 0.0, "name": "a9ee21c05bda6b7ed6ac130bc6416ff2", "is_disabled": 0, "rental_uris": {"android": "https://dc.lft.to/lastmile_qr_scan", "ios": "https://dc.lft.to/lastmile_qr_scan"}, "fusion_lon": 0.0, "lat": 38.88427983333333, "bike_id": "a9ee21c05bda6b7ed6ac130bc6416ff2", "type": "electric_scooter", "is_reserved": 0, "lon": -77.03048883333334}, {"fusion_lat": 0.0, "name": "8228d74b70a7a233493307a001e3cf30", "is_disabled": 0, "rental_uris": {"android": "https://dc.lft.to/lastmile_qr_scan", "ios": "https://dc.lft.to/lastmile_qr_scan"}, "fusion_lon": 0.0, "lat": 38.88302766666666, "bike_id": "8228d74b70a7a233493307a001e3cf30", "type": "electric_scooter", "is_reserved": 0, "lon": -77.01379683333333}, {"fusion_lat": 0.0, "name": "bfa11767f1a1c2d0d49097760ed7973e", "is_disabled": 0, "rental_uris": {"android": "https://dc.lft.to/lastmile_qr_scan", "ios": "https://dc.lft.to/lastmile_qr_scan"}, "fusion_lon": 0.0, "lat": 38.92223466666667, "bike_id": "bfa11767f1a1c2d0d49097760ed7973e", "type": "electric_scooter", "is_reserved": 0, "lon": -77.0425015}, {"fusion_lat": 0.0, "name": "c5621d712e5d6f09103a746e9db8ebc5", "is_disabled": 0, "rental_uris": {"android": "https://dc.lft.to/lastmile_qr_scan", "ios": "https://dc.lft.to/lastmile_qr_scan"}, "fusion_lon": 0.0, "lat": 38.8947895, "bike_id": "c5621d712e5d6f09103a746e9db8ebc5", "type": "electric_scooter", "is_reserved": 0, "lon": -77.03956766666667}, {"fusion_lat": 0.0, "name": "1bd03b1d24ebaa02daa0f509d5788f9e", "is_disabled": 0, "rental_uris": {"android": "https://dc.lft.to/lastmile_qr_scan", "ios": "https://dc.lft.to/lastmile_qr_scan"}, "fusion_lon": 0.0, "lat": 38.9087405, "bike_id": "1bd03b1d24ebaa02daa0f509d5788f9e", "type": "electric_scooter", "is_reserved": 0, "lon": -77.05420983333333}, {"fusion_lat": 0.0, "name": "e42c52203fb09d9415af2f3f814df09a", "is_disabled": 0, "rental_uris": {"android": "https://dc.lft.to/lastmile_qr_scan", "ios": "https://dc.lft.to/lastmile_qr_scan"}, "fusion_lon": 0.0, "lat": 38.91797866666667, "bike_id": "e42c52203fb09d9415af2f3f814df09a", "type": "electric_scooter", "is_reserved": 0, "lon": -77.0343775}, {"fusion_lat": 0.0, "name": "84645d73a0fd226093b73995f400017b", "is_disabled": 0, "rental_uris": {"android": "https://dc.lft.to/lastmile_qr_scan", "ios": "https://dc.lft.to/lastmile_qr_scan"}, "fusion_lon": 0.0, "lat": 38.93023633333333, "bike_id": "84645d73a0fd226093b73995f400017b", "type": "electric_scooter", "is_reserved": 0, "lon": -77.03805866666667}, {"fusion_lat": 0.0, "name": "e3834fd65ff23934548a210258ca9d3f", "is_disabled": 0, "rental_uris": {"android": "https://dc.lft.to/lastmile_qr_scan", "ios": "https://dc.lft.to/lastmile_qr_scan"}, "fusion_lon": 0.0, "lat": 38.90142183333333, "bike_id": "e3834fd65ff23934548a210258ca9d3f", "type": "electric_scooter", "is_reserved": 0, "lon": -77.06075983333334}, {"fusion_lat": 0.0, "name": "242f99bb27742755056618b4dd37d325", "is_disabled": 0, "rental_uris": {"android": "https://dc.lft.to/lastmile_qr_scan", "ios": "https://dc.lft.to/lastmile_qr_scan"}, "fusion_lon": 0.0, "lat": 38.9035155, "bike_id": "242f99bb27742755056618b4dd37d325", "type": "electric_scooter", "is_reserved": 0, "lon": -76.97476583333334}, {"fusion_lat": 0.0, "name": "7ca246d7bb97e9160861dd803ad8ab2e", "is_disabled": 0, "rental_uris": {"android": "https://dc.lft.to/lastmile_qr_scan", "ios": "https://dc.lft.to/lastmile_qr_scan"}, "fusion_lon": 0.0, "lat": 38.916282333333335, "bike_id": "7ca246d7bb97e9160861dd803ad8ab2e", "type": "electric_scooter", "is_reserved": 0, "lon": -77.03187733333333}, {"fusion_lat": 0.0, "name": "1d57d1d554dd76f2d87eefbf1820a51f", "is_disabled": 0, "rental_uris": {"android": "https://dc.lft.to/lastmile_qr_scan", "ios": "https://dc.lft.to/lastmile_qr_scan"}, "fusion_lon": 0.0, "lat": 38.93063716666666, "bike_id": "1d57d1d554dd76f2d87eefbf1820a51f", "type": "electric_scooter", "is_reserved": 0, "lon": -77.02808316666666}, {"fusion_lat": 0.0, "name": "3997d5f3970c66e7d96248d594e7c36f", "is_disabled": 0, "rental_uris": {"android": "https://dc.lft.to/lastmile_qr_scan", "ios": "https://dc.lft.to/lastmile_qr_scan"}, "fusion_lon": 0.0, "lat": 38.910053166666664, "bike_id": "3997d5f3970c66e7d96248d594e7c36f", "type": "electric_scooter", "is_reserved": 0, "lon": -76.9941075}, {"fusion_lat": 0.0, "name": "f7079726058575b89a5f07ebee7b7fa3", "is_disabled": 0, "rental_uris": {"android": "https://dc.lft.to/lastmile_qr_scan", "ios": "https://dc.lft.to/lastmile_qr_scan"}, "fusion_lon": 0.0, "lat": 38.93700066666667, "bike_id": "f7079726058575b89a5f07ebee7b7fa3", "type": "electric_scooter", "is_reserved": 0, "lon": -77.03285683333333}, {"fusion_lat": 0.0, "name": "917af810aad60ae5e3ab9821e8007be9", "is_disabled": 0, "rental_uris": {"android": "https://dc.lft.to/lastmile_qr_scan", "ios": "https://dc.lft.to/lastmile_qr_scan"}, "fusion_lon": 0.0, "lat": 38.90126933333333, "bike_id": "917af810aad60ae5e3ab9821e8007be9", "type": "electric_scooter", "is_reserved": 0, "lon": -77.03924866666667}, {"fusion_lat": 0.0, "name": "ab8bcf7658a66bf0ff2f6656867f410b", "is_disabled": 0, "rental_uris": {"android": "https://dc.lft.to/lastmile_qr_scan", "ios": "https://dc.lft.to/lastmile_qr_scan"}, "fusion_lon": 0.0, "lat": 38.9057525, "bike_id": "ab8bcf7658a66bf0ff2f6656867f410b", "type": "electric_scooter", "is_reserved": 0, "lon": -77.05136733333333}, {"fusion_lat": 0.0, "name": "d483fb00eb3924f0e6cf83a052f3800e", "is_disabled": 0, "rental_uris": {"android": "https://dc.lft.to/lastmile_qr_scan", "ios": "https://dc.lft.to/lastmile_qr_scan"}, "fusion_lon": 0.0, "lat": 38.8853815, "bike_id": "d483fb00eb3924f0e6cf83a052f3800e", "type": "electric_scooter", "is_reserved": 0, "lon": -77.015208}, {"fusion_lat": 0.0, "name": "e81c60436dbce123f65b6f04daae87f1", "is_disabled": 0, "rental_uris": {"android": "https://dc.lft.to/lastmile_qr_scan", "ios": "https://dc.lft.to/lastmile_qr_scan"}, "fusion_lon": 0.0, "lat": 38.93714516666667, "bike_id": "e81c60436dbce123f65b6f04daae87f1", "type": "electric_scooter", "is_reserved": 0, "lon": -77.0244915}, {"fusion_lat": 0.0, "name": "9017b8e4d6f5aaced9bb77ad984730b1", "is_disabled": 0, "rental_uris": {"android": "https://dc.lft.to/lastmile_qr_scan", "ios": "https://dc.lft.to/lastmile_qr_scan"}, "fusion_lon": 0.0, "lat": 38.94231216666667, "bike_id": "9017b8e4d6f5aaced9bb77ad984730b1", "type": "electric_scooter", "is_reserved": 0, "lon": -77.0138535}, {"fusion_lat": 0.0, "name": "b083149ee0298480c96515efa63f46f6", "is_disabled": 0, "rental_uris": {"android": "https://dc.lft.to/lastmile_qr_scan", "ios": "https://dc.lft.to/lastmile_qr_scan"}, "fusion_lon": 0.0, "lat": 38.90247216666667, "bike_id": "b083149ee0298480c96515efa63f46f6", "type": "electric_scooter", "is_reserved": 0, "lon": -77.05936166666666}, {"fusion_lat": 0.0, "name": "aa8787001a9e70ea995f0301560055af", "is_disabled": 0, "rental_uris": {"android": "https://dc.lft.to/lastmile_qr_scan", "ios": "https://dc.lft.to/lastmile_qr_scan"}, "fusion_lon": 0.0, "lat": 38.8837775, "bike_id": "aa8787001a9e70ea995f0301560055af", "type": "electric_scooter", "is_reserved": 0, "lon": -76.995738}, {"fusion_lat": 0.0, "name": "e41fad41dc24d8bce6512a61044150bc", "is_disabled": 0, "rental_uris": {"android": "https://dc.lft.to/lastmile_qr_scan", "ios": "https://dc.lft.to/lastmile_qr_scan"}, "fusion_lon": 0.0, "lat": 38.923589666666665, "bike_id": "e41fad41dc24d8bce6512a61044150bc", "type": "electric_scooter", "is_reserved": 0, "lon": -77.0505305}, {"fusion_lat": 0.0, "name": "e23ddec5390da37492a299c2b3eb357e", "is_disabled": 0, "rental_uris": {"android": "https://dc.lft.to/lastmile_qr_scan", "ios": "https://dc.lft.to/lastmile_qr_scan"}, "fusion_lon": 0.0, "lat": 38.92079733333333, "bike_id": "e23ddec5390da37492a299c2b3eb357e", "type": "electric_bike", "is_reserved": 0, "lon": -76.98944683333333}, {"fusion_lat": 0.0, "name": "67f7e69b5e9a7d014915ef4bbe8bf52d", "is_disabled": 0, "rental_uris": {"android": "https://dc.lft.to/lastmile_qr_scan", "ios": "https://dc.lft.to/lastmile_qr_scan"}, "fusion_lon": 0.0, "lat": 38.95403266666667, "bike_id": "67f7e69b5e9a7d014915ef4bbe8bf52d", "type": "electric_scooter", "is_reserved": 0, "lon": -77.0274775}, {"fusion_lat": 0.0, "name": "3cccd0fbd3b921e22f776ab2b49eb08a", "is_disabled": 0, "rental_uris": {"android": "https://dc.lft.to/lastmile_qr_scan", "ios": "https://dc.lft.to/lastmile_qr_scan"}, "fusion_lon": 0.0, "lat": 38.899451166666665, "bike_id": "3cccd0fbd3b921e22f776ab2b49eb08a", "type": "electric_scooter", "is_reserved": 0, "lon": -77.04172533333333}, {"fusion_lat": 0.0, "name": "67df89ac39feec7aedb1ab3303c89895", "is_disabled": 0, "rental_uris": {"android": "https://dc.lft.to/lastmile_qr_scan", "ios": "https://dc.lft.to/lastmile_qr_scan"}, "fusion_lon": 0.0, "lat": 38.921017166666665, "bike_id": "67df89ac39feec7aedb1ab3303c89895", "type": "electric_scooter", "is_reserved": 0, "lon": -77.03184866666666}, {"fusion_lat": 0.0, "name": "10d38d21a4d75278acf97bc775c3aa9b", "is_disabled": 0, "rental_uris": {"android": "https://dc.lft.to/lastmile_qr_scan", "ios": "https://dc.lft.to/lastmile_qr_scan"}, "fusion_lon": 0.0, "lat": 38.91351983333333, "bike_id": "10d38d21a4d75278acf97bc775c3aa9b", "type": "electric_scooter", "is_reserved": 0, "lon": -77.031838}, {"fusion_lat": 0.0, "name": "485bb4194f9da426ee1e5d7c2c40f4e9", "is_disabled": 0, "rental_uris": {"android": "https://dc.lft.to/lastmile_qr_scan", "ios": "https://dc.lft.to/lastmile_qr_scan"}, "fusion_lon": 0.0, "lat": 38.876833833333336, "bike_id": "485bb4194f9da426ee1e5d7c2c40f4e9", "type": "electric_scooter", "is_reserved": 0, "lon": -77.01757183333334}, {"fusion_lat": 0.0, "name": "9cc5d944d547985997bc81f1fe5cdea8", "is_disabled": 0, "rental_uris": {"android": "https://dc.lft.to/lastmile_qr_scan", "ios": "https://dc.lft.to/lastmile_qr_scan"}, "fusion_lon": 0.0, "lat": 38.88609116666667, "bike_id": "9cc5d944d547985997bc81f1fe5cdea8", "type": "electric_scooter", "is_reserved": 0, "lon": -77.01519233333333}, {"fusion_lat": 0.0, "name": "53f925079e9d4e4d7cfb40301c3f00d4", "is_disabled": 0, "rental_uris": {"android": "https://dc.lft.to/lastmile_qr_scan", "ios": "https://dc.lft.to/lastmile_qr_scan"}, "fusion_lon": 0.0, "lat": 38.92197866666667, "bike_id": "53f925079e9d4e4d7cfb40301c3f00d4", "type": "electric_scooter", "is_reserved": 0, "lon": -77.02967966666667}, {"fusion_lat": 0.0, "name": "dd87c2e78063b419e96b2902eedd4860", "is_disabled": 0, "rental_uris": {"android": "https://dc.lft.to/lastmile_qr_scan", "ios": "https://dc.lft.to/lastmile_qr_scan"}, "fusion_lon": 0.0, "lat": 38.835469333333336, "bike_id": "dd87c2e78063b419e96b2902eedd4860", "type": "electric_bike", "is_reserved": 0, "lon": -76.98729016666667}, {"fusion_lat": 0.0, "name": "59267cc8f4d7726d79c66a16a21bb2cb", "is_disabled": 0, "rental_uris": {"android": "https://dc.lft.to/lastmile_qr_scan", "ios": "https://dc.lft.to/lastmile_qr_scan"}, "fusion_lon": 0.0, "lat": 38.89222616666667, "bike_id": "59267cc8f4d7726d79c66a16a21bb2cb", "type": "electric_scooter", "is_reserved": 0, "lon": -77.03097483333333}, {"fusion_lat": 0.0, "name": "ce0812ec79897a45e240dbfbfa61b17f", "is_disabled": 0, "rental_uris": {"android": "https://dc.lft.to/lastmile_qr_scan", "ios": "https://dc.lft.to/lastmile_qr_scan"}, "fusion_lon": 0.0, "lat": 38.93434366666666, "bike_id": "ce0812ec79897a45e240dbfbfa61b17f", "type": "electric_scooter", "is_reserved": 0, "lon": -77.03998066666666}, {"fusion_lat": 0.0, "name": "cb5b118cb487c2c9c0925baea4199d69", "is_disabled": 0, "rental_uris": {"android": "https://dc.lft.to/lastmile_qr_scan", "ios": "https://dc.lft.to/lastmile_qr_scan"}, "fusion_lon": 0.0, "lat": 38.993727166666666, "bike_id": "cb5b118cb487c2c9c0925baea4199d69", "type": "electric_bike", "is_reserved": 0, "lon": -77.03174183333333}, {"fusion_lat": 0.0, "name": "71856bf7893b156352a1912ee758bab6", "is_disabled": 0, "rental_uris": {"android": "https://dc.lft.to/lastmile_qr_scan", "ios": "https://dc.lft.to/lastmile_qr_scan"}, "fusion_lon": 0.0, "lat": 38.9006185, "bike_id": "71856bf7893b156352a1912ee758bab6", "type": "electric_scooter", "is_reserved": 0, "lon": -76.93384433333334}, {"fusion_lat": 0.0, "name": "28187d13d666dbd44c2a32bae298ceef", "is_disabled": 0, "rental_uris": {"android": "https://dc.lft.to/lastmile_qr_scan", "ios": "https://dc.lft.to/lastmile_qr_scan"}, "fusion_lon": 0.0, "lat": 38.93205483333333, "bike_id": "28187d13d666dbd44c2a32bae298ceef", "type": "electric_scooter", "is_reserved": 0, "lon": -77.03280633333334}, {"fusion_lat": 0.0, "name": "ea8fe52afe07dd6b420be34f159f435f", "is_disabled": 0, "rental_uris": {"android": "https://dc.lft.to/lastmile_qr_scan", "ios": "https://dc.lft.to/lastmile_qr_scan"}, "fusion_lon": 0.0, "lat": 38.901497666666664, "bike_id": "ea8fe52afe07dd6b420be34f159f435f", "type": "electric_scooter", "is_reserved": 0, "lon": -76.93065866666667}, {"fusion_lat": 0.0, "name": "efc2e6211c87a2842cf96550364353fa", "is_disabled": 0, "rental_uris": {"android": "https://dc.lft.to/lastmile_qr_scan", "ios": "https://dc.lft.to/lastmile_qr_scan"}, "fusion_lon": 0.0, "lat": 38.910582166666664, "bike_id": "efc2e6211c87a2842cf96550364353fa", "type": "electric_scooter", "is_reserved": 0, "lon": -76.98524133333333}, {"fusion_lat": 0.0, "name": "5203b36e580edfef4fed9a310c6baf84", "is_disabled": 0, "rental_uris": {"android": "https://dc.lft.to/lastmile_qr_scan", "ios": "https://dc.lft.to/lastmile_qr_scan"}, "fusion_lon": 0.0, "lat": 38.8877225, "bike_id": "5203b36e580edfef4fed9a310c6baf84", "type": "electric_scooter", "is_reserved": 0, "lon": -76.9774985}, {"fusion_lat": 0.0, "name": "fd562a8298f566d39f1e83f643826eaa", "is_disabled": 0, "rental_uris": {"android": "https://dc.lft.to/lastmile_qr_scan", "ios": "https://dc.lft.to/lastmile_qr_scan"}, "fusion_lon": 0.0, "lat": 38.9369315, "bike_id": "fd562a8298f566d39f1e83f643826eaa", "type": "electric_bike", "is_reserved": 0, "lon": -76.9905925}, {"fusion_lat": 0.0, "name": "d66e15a89be3d305ba75afe67083fd3e", "is_disabled": 0, "rental_uris": {"android": "https://dc.lft.to/lastmile_qr_scan", "ios": "https://dc.lft.to/lastmile_qr_scan"}, "fusion_lon": 0.0, "lat": 38.9044, "bike_id": "d66e15a89be3d305ba75afe67083fd3e", "type": "electric_scooter", "is_reserved": 0, "lon": -77.043447}, {"fusion_lat": 0.0, "name": "662b53a3b53975c0136593981c41f69c", "is_disabled": 0, "rental_uris": {"android": "https://dc.lft.to/lastmile_qr_scan", "ios": "https://dc.lft.to/lastmile_qr_scan"}, "fusion_lon": 0.0, "lat": 38.9088785, "bike_id": "662b53a3b53975c0136593981c41f69c", "type": "electric_scooter", "is_reserved": 0, "lon": -77.04336666666667}, {"fusion_lat": 0.0, "name": "4e4974b75bbc75bec536f2e3d4b7d8be", "is_disabled": 0, "rental_uris": {"android": "https://dc.lft.to/lastmile_qr_scan", "ios": "https://dc.lft.to/lastmile_qr_scan"}, "fusion_lon": 0.0, "lat": 38.898373166666666, "bike_id": "4e4974b75bbc75bec536f2e3d4b7d8be", "type": "electric_scooter", "is_reserved": 0, "lon": -77.0075025}, {"fusion_lat": 0.0, "name": "dd8350648ceff016a52f83033c6d22dd", "is_disabled": 0, "rental_uris": {"android": "https://dc.lft.to/lastmile_qr_scan", "ios": "https://dc.lft.to/lastmile_qr_scan"}, "fusion_lon": 0.0, "lat": 38.90878383333333, "bike_id": "dd8350648ceff016a52f83033c6d22dd", "type": "electric_scooter", "is_reserved": 0, "lon": -77.00277083333333}, {"fusion_lat": 0.0, "name": "137e669a60067a803ab0e16a7330e0e5", "is_disabled": 0, "rental_uris": {"android": "https://dc.lft.to/lastmile_qr_scan", "ios": "https://dc.lft.to/lastmile_qr_scan"}, "fusion_lon": 0.0, "lat": 38.89691216666667, "bike_id": "137e669a60067a803ab0e16a7330e0e5", "type": "electric_bike", "is_reserved": 0, "lon": -76.99624633333333}, {"fusion_lat": 0.0, "name": "b01d2307a37f32f6ab70f94a980c785b", "is_disabled": 0, "rental_uris": {"android": "https://dc.lft.to/lastmile_qr_scan", "ios": "https://dc.lft.to/lastmile_qr_scan"}, "fusion_lon": 0.0, "lat": 38.984627833333334, "bike_id": "b01d2307a37f32f6ab70f94a980c785b", "type": "electric_bike", "is_reserved": 0, "lon": -76.97053166666667}, {"fusion_lat": 0.0, "name": "6809e6b2910403f3955d9d4e301eedc3", "is_disabled": 0, "rental_uris": {"android": "https://dc.lft.to/lastmile_qr_scan", "ios": "https://dc.lft.to/lastmile_qr_scan"}, "fusion_lon": 0.0, "lat": 38.906856166666664, "bike_id": "6809e6b2910403f3955d9d4e301eedc3", "type": "electric_bike", "is_reserved": 0, "lon": -76.94493983333334}, {"fusion_lat": 0.0, "name": "d5cc3074413203107209e6862a074baa", "is_disabled": 0, "rental_uris": {"android": "https://dc.lft.to/lastmile_qr_scan", "ios": "https://dc.lft.to/lastmile_qr_scan"}, "fusion_lon": 0.0, "lat": 38.930900666666666, "bike_id": "d5cc3074413203107209e6862a074baa", "type": "electric_scooter", "is_reserved": 0, "lon": -77.02557016666667}, {"fusion_lat": 0.0, "name": "f12943ff841bda53fc0d7e6ce063f5d7", "is_disabled": 0, "rental_uris": {"android": "https://dc.lft.to/lastmile_qr_scan", "ios": "https://dc.lft.to/lastmile_qr_scan"}, "fusion_lon": 0.0, "lat": 38.86558483333334, "bike_id": "f12943ff841bda53fc0d7e6ce063f5d7", "type": "electric_scooter", "is_reserved": 0, "lon": -76.98352516666667}, {"fusion_lat": 0.0, "name": "a569553b17265fb810e4995c5005b227", "is_disabled": 0, "rental_uris": {"android": "https://dc.lft.to/lastmile_qr_scan", "ios": "https://dc.lft.to/lastmile_qr_scan"}, "fusion_lon": 0.0, "lat": 38.8980525, "bike_id": "a569553b17265fb810e4995c5005b227", "type": "electric_scooter", "is_reserved": 0, "lon": -77.01049866666666}, {"fusion_lat": 0.0, "name": "ec594d58204e153f8a343d8e61981408", "is_disabled": 0, "rental_uris": {"android": "https://dc.lft.to/lastmile_qr_scan", "ios": "https://dc.lft.to/lastmile_qr_scan"}, "fusion_lon": 0.0, "lat": 38.90786933333333, "bike_id": "ec594d58204e153f8a343d8e61981408", "type": "electric_scooter", "is_reserved": 0, "lon": -77.01106083333333}, {"fusion_lat": 0.0, "name": "52a8c608437af507f55f32b7418505b9", "is_disabled": 0, "rental_uris": {"android": "https://dc.lft.to/lastmile_qr_scan", "ios": "https://dc.lft.to/lastmile_qr_scan"}, "fusion_lon": 0.0, "lat": 38.89875266666667, "bike_id": "52a8c608437af507f55f32b7418505b9", "type": "electric_scooter", "is_reserved": 0, "lon": -76.93184966666666}, {"fusion_lat": 0.0, "name": "dae2aa7936f2361359966dabcf649672", "is_disabled": 0, "rental_uris": {"android": "https://dc.lft.to/lastmile_qr_scan", "ios": "https://dc.lft.to/lastmile_qr_scan"}, "fusion_lon": 0.0, "lat": 38.88505033333333, "bike_id": "dae2aa7936f2361359966dabcf649672", "type": "electric_scooter", "is_reserved": 0, "lon": -77.00699033333333}, {"fusion_lat": 0.0, "name": "5881f4f3c7714122e498fed26aead423", "is_disabled": 0, "rental_uris": {"android": "https://dc.lft.to/lastmile_qr_scan", "ios": "https://dc.lft.to/lastmile_qr_scan"}, "fusion_lon": 0.0, "lat": 38.884111, "bike_id": "5881f4f3c7714122e498fed26aead423", "type": "electric_bike", "is_reserved": 0, "lon": -76.96062883333333}, {"fusion_lat": 0.0, "name": "0919618fc48f9c5d1bfb8a31e21db37a", "is_disabled": 0, "rental_uris": {"android": "https://dc.lft.to/lastmile_qr_scan", "ios": "https://dc.lft.to/lastmile_qr_scan"}, "fusion_lon": 0.0, "lat": 38.8957745, "bike_id": "0919618fc48f9c5d1bfb8a31e21db37a", "type": "electric_scooter", "is_reserved": 0, "lon": -77.02718683333333}, {"fusion_lat": 0.0, "name": "a6808ca7b35f8b19a28b0e643d485483", "is_disabled": 0, "rental_uris": {"android": "https://dc.lft.to/lastmile_qr_scan", "ios": "https://dc.lft.to/lastmile_qr_scan"}, "fusion_lon": 0.0, "lat": 38.92313933333333, "bike_id": "a6808ca7b35f8b19a28b0e643d485483", "type": "electric_scooter", "is_reserved": 0, "lon": -77.01953683333333}, {"fusion_lat": 0.0, "name": "07e9ade4e801e270b68f549c42ab39b6", "is_disabled": 0, "rental_uris": {"android": "https://dc.lft.to/lastmile_qr_scan", "ios": "https://dc.lft.to/lastmile_qr_scan"}, "fusion_lon": 0.0, "lat": 38.88740683333333, "bike_id": "07e9ade4e801e270b68f549c42ab39b6", "type": "electric_scooter", "is_reserved": 0, "lon": -77.01529866666667}, {"fusion_lat": 0.0, "name": "532cca535d72c3213fe17eada5b8da27", "is_disabled": 0, "rental_uris": {"android": "https://dc.lft.to/lastmile_qr_scan", "ios": "https://dc.lft.to/lastmile_qr_scan"}, "fusion_lon": 0.0, "lat": 38.93048366666667, "bike_id": "532cca535d72c3213fe17eada5b8da27", "type": "electric_scooter", "is_reserved": 0, "lon": -77.03793716666667}, {"fusion_lat": 0.0, "name": "c6627525a5cec6a491b0729c587ccc45", "is_disabled": 0, "rental_uris": {"android": "https://dc.lft.to/lastmile_qr_scan", "ios": "https://dc.lft.to/lastmile_qr_scan"}, "fusion_lon": 0.0, "lat": 38.897651, "bike_id": "c6627525a5cec6a491b0729c587ccc45", "type": "electric_scooter", "is_reserved": 0, "lon": -77.00896933333334}, {"fusion_lat": 0.0, "name": "b5f2d2efb5718ca296f869ecb7542418", "is_disabled": 0, "rental_uris": {"android": "https://dc.lft.to/lastmile_qr_scan", "ios": "https://dc.lft.to/lastmile_qr_scan"}, "fusion_lon": 0.0, "lat": 38.883293, "bike_id": "b5f2d2efb5718ca296f869ecb7542418", "type": "electric_scooter", "is_reserved": 0, "lon": -77.0175585}, {"fusion_lat": 0.0, "name": "4275f52e0bacd0f211d2130d5d9f24a7", "is_disabled": 0, "rental_uris": {"android": "https://dc.lft.to/lastmile_qr_scan", "ios": "https://dc.lft.to/lastmile_qr_scan"}, "fusion_lon": 0.0, "lat": 38.909818333333334, "bike_id": "4275f52e0bacd0f211d2130d5d9f24a7", "type": "electric_scooter", "is_reserved": 0, "lon": -77.06512583333334}, {"fusion_lat": 0.0, "name": "9951331434ff8debf867f5213afe54bb", "is_disabled": 0, "rental_uris": {"android": "https://dc.lft.to/lastmile_qr_scan", "ios": "https://dc.lft.to/lastmile_qr_scan"}, "fusion_lon": 0.0, "lat": 38.920825, "bike_id": "9951331434ff8debf867f5213afe54bb", "type": "electric_scooter", "is_reserved": 0, "lon": -77.025038}, {"fusion_lat": 0.0, "name": "673df5e9639a19187b8c050952e4d552", "is_disabled": 0, "rental_uris": {"android": "https://dc.lft.to/lastmile_qr_scan", "ios": "https://dc.lft.to/lastmile_qr_scan"}, "fusion_lon": 0.0, "lat": 38.89617116666667, "bike_id": "673df5e9639a19187b8c050952e4d552", "type": "electric_scooter", "is_reserved": 0, "lon": -77.009141}, {"fusion_lat": 0.0, "name": "c6bf8843a8f72f95dffffdd0021bcedf", "is_disabled": 0, "rental_uris": {"android": "https://dc.lft.to/lastmile_qr_scan", "ios": "https://dc.lft.to/lastmile_qr_scan"}, "fusion_lon": 0.0, "lat": 38.9111755, "bike_id": "c6bf8843a8f72f95dffffdd0021bcedf", "type": "electric_scooter", "is_reserved": 0, "lon": -77.022367}, {"fusion_lat": 0.0, "name": "fd7d13649d579e4e737534cd4142cd2d", "is_disabled": 0, "rental_uris": {"android": "https://dc.lft.to/lastmile_qr_scan", "ios": "https://dc.lft.to/lastmile_qr_scan"}, "fusion_lon": 0.0, "lat": 38.9190935, "bike_id": "fd7d13649d579e4e737534cd4142cd2d", "type": "electric_scooter", "is_reserved": 0, "lon": -77.04101883333334}, {"fusion_lat": 0.0, "name": "0faec0def5df07b1eb50e2317d101806", "is_disabled": 0, "rental_uris": {"android": "https://dc.lft.to/lastmile_qr_scan", "ios": "https://dc.lft.to/lastmile_qr_scan"}, "fusion_lon": 0.0, "lat": 39.052521166666665, "bike_id": "0faec0def5df07b1eb50e2317d101806", "type": "electric_bike", "is_reserved": 0, "lon": -77.08067533333333}, {"fusion_lat": 0.0, "name": "57b1d1b5ae55cb5b177866e3cd60ed57", "is_disabled": 0, "rental_uris": {"android": "https://dc.lft.to/lastmile_qr_scan", "ios": "https://dc.lft.to/lastmile_qr_scan"}, "fusion_lon": 0.0, "lat": 38.88327433333333, "bike_id": "57b1d1b5ae55cb5b177866e3cd60ed57", "type": "electric_scooter", "is_reserved": 0, "lon": -77.01762433333333}, {"fusion_lat": 0.0, "name": "878c4688979d7089cfef0628cf39f68e", "is_disabled": 0, "rental_uris": {"android": "https://dc.lft.to/lastmile_qr_scan", "ios": "https://dc.lft.to/lastmile_qr_scan"}, "fusion_lon": 0.0, "lat": 38.898726, "bike_id": "878c4688979d7089cfef0628cf39f68e", "type": "electric_scooter", "is_reserved": 0, "lon": -76.931878}, {"fusion_lat": 0.0, "name": "0e9f8715c818931461d4db88ce885bac", "is_disabled": 0, "rental_uris": {"android": "https://dc.lft.to/lastmile_qr_scan", "ios": "https://dc.lft.to/lastmile_qr_scan"}, "fusion_lon": 0.0, "lat": 38.892258, "bike_id": "0e9f8715c818931461d4db88ce885bac", "type": "electric_scooter", "is_reserved": 0, "lon": -77.0468135}, {"fusion_lat": 0.0, "name": "a142f950b6a3be127681c36bd260be9f", "is_disabled": 0, "rental_uris": {"android": "https://dc.lft.to/lastmile_qr_scan", "ios": "https://dc.lft.to/lastmile_qr_scan"}, "fusion_lon": 0.0, "lat": 38.92336616666667, "bike_id": "a142f950b6a3be127681c36bd260be9f", "type": "electric_scooter", "is_reserved": 0, "lon": -77.0205115}, {"fusion_lat": 0.0, "name": "1ebf315336e38bec1dd447d406d665c5", "is_disabled": 0, "rental_uris": {"android": "https://dc.lft.to/lastmile_qr_scan", "ios": "https://dc.lft.to/lastmile_qr_scan"}, "fusion_lon": 0.0, "lat": 38.840881, "bike_id": "1ebf315336e38bec1dd447d406d665c5", "type": "electric_bike", "is_reserved": 0, "lon": -76.97030216666667}, {"fusion_lat": 0.0, "name": "2b34dd699d3b9171491d8a2f037fe83a", "is_disabled": 0, "rental_uris": {"android": "https://dc.lft.to/lastmile_qr_scan", "ios": "https://dc.lft.to/lastmile_qr_scan"}, "fusion_lon": 0.0, "lat": 38.921595333333336, "bike_id": "2b34dd699d3b9171491d8a2f037fe83a", "type": "electric_scooter", "is_reserved": 0, "lon": -77.03394966666667}, {"fusion_lat": 0.0, "name": "1ba3db38d22b6f41fa003ae032b99056", "is_disabled": 0, "rental_uris": {"android": "https://dc.lft.to/lastmile_qr_scan", "ios": "https://dc.lft.to/lastmile_qr_scan"}, "fusion_lon": 0.0, "lat": 38.91673516666667, "bike_id": "1ba3db38d22b6f41fa003ae032b99056", "type": "electric_scooter", "is_reserved": 0, "lon": -77.0365725}, {"fusion_lat": 0.0, "name": "203b7d7af69c3a75c2398b7fccc717cf", "is_disabled": 0, "rental_uris": {"android": "https://dc.lft.to/lastmile_qr_scan", "ios": "https://dc.lft.to/lastmile_qr_scan"}, "fusion_lon": 0.0, "lat": 38.855476833333334, "bike_id": "203b7d7af69c3a75c2398b7fccc717cf", "type": "electric_scooter", "is_reserved": 0, "lon": -76.98761766666667}, {"fusion_lat": 0.0, "name": "3fc98676b2d95913f44c787db32b7f55", "is_disabled": 0, "rental_uris": {"android": "https://dc.lft.to/lastmile_qr_scan", "ios": "https://dc.lft.to/lastmile_qr_scan"}, "fusion_lon": 0.0, "lat": 38.90879133333333, "bike_id": "3fc98676b2d95913f44c787db32b7f55", "type": "electric_scooter", "is_reserved": 0, "lon": -77.04881016666667}, {"fusion_lat": 0.0, "name": "6a8ccc5564d85426411f040853a1bebd", "is_disabled": 0, "rental_uris": {"android": "https://dc.lft.to/lastmile_qr_scan", "ios": "https://dc.lft.to/lastmile_qr_scan"}, "fusion_lon": 0.0, "lat": 38.9251155, "bike_id": "6a8ccc5564d85426411f040853a1bebd", "type": "electric_scooter", "is_reserved": 0, "lon": -77.00216283333333}, {"fusion_lat": 0.0, "name": "83a6ccfb1faeb38cf9cacf3875d7ab46", "is_disabled": 0, "rental_uris": {"android": "https://dc.lft.to/lastmile_qr_scan", "ios": "https://dc.lft.to/lastmile_qr_scan"}, "fusion_lon": 0.0, "lat": 38.89739933333333, "bike_id": "83a6ccfb1faeb38cf9cacf3875d7ab46", "type": "electric_scooter", "is_reserved": 0, "lon": -77.04312083333333}, {"fusion_lat": 0.0, "name": "ec89b76b68a27f0a49da83a8a82ba07f", "is_disabled": 0, "rental_uris": {"android": "https://dc.lft.to/lastmile_qr_scan", "ios": "https://dc.lft.to/lastmile_qr_scan"}, "fusion_lon": 0.0, "lat": 38.906076166666665, "bike_id": "ec89b76b68a27f0a49da83a8a82ba07f", "type": "electric_scooter", "is_reserved": 0, "lon": -77.05696966666666}, {"fusion_lat": 0.0, "name": "62b3797d93a09bb071bdca9f70936453", "is_disabled": 0, "rental_uris": {"android": "https://dc.lft.to/lastmile_qr_scan", "ios": "https://dc.lft.to/lastmile_qr_scan"}, "fusion_lon": 0.0, "lat": 38.84787683333333, "bike_id": "62b3797d93a09bb071bdca9f70936453", "type": "electric_scooter", "is_reserved": 0, "lon": -76.97479066666666}, {"fusion_lat": 0.0, "name": "efed00a8033db37bb5d51bef1dd9217d", "is_disabled": 0, "rental_uris": {"android": "https://dc.lft.to/lastmile_qr_scan", "ios": "https://dc.lft.to/lastmile_qr_scan"}, "fusion_lon": 0.0, "lat": 38.92320683333333, "bike_id": "efed00a8033db37bb5d51bef1dd9217d", "type": "electric_scooter", "is_reserved": 0, "lon": -77.0213785}, {"fusion_lat": 0.0, "name": "f36e3340f6fd3439090b0a504df0b3b2", "is_disabled": 0, "rental_uris": {"android": "https://dc.lft.to/lastmile_qr_scan", "ios": "https://dc.lft.to/lastmile_qr_scan"}, "fusion_lon": 0.0, "lat": 38.93064566666666, "bike_id": "f36e3340f6fd3439090b0a504df0b3b2", "type": "electric_scooter", "is_reserved": 0, "lon": -77.02326733333334}, {"fusion_lat": 0.0, "name": "2a0404a98bb9dc5887ead796054801b4", "is_disabled": 0, "rental_uris": {"android": "https://dc.lft.to/lastmile_qr_scan", "ios": "https://dc.lft.to/lastmile_qr_scan"}, "fusion_lon": 0.0, "lat": 38.92005016666667, "bike_id": "2a0404a98bb9dc5887ead796054801b4", "type": "electric_scooter", "is_reserved": 0, "lon": -77.07130533333333}, {"fusion_lat": 0.0, "name": "b2c386d359be2aed9e7677f49f30e8c4", "is_disabled": 0, "rental_uris": {"android": "https://dc.lft.to/lastmile_qr_scan", "ios": "https://dc.lft.to/lastmile_qr_scan"}, "fusion_lon": 0.0, "lat": 38.95359633333333, "bike_id": "b2c386d359be2aed9e7677f49f30e8c4", "type": "electric_bike", "is_reserved": 0, "lon": -76.98090616666667}, {"fusion_lat": 0.0, "name": "a1f14caa0e38e62bea44b23908e77f23", "is_disabled": 0, "rental_uris": {"android": "https://dc.lft.to/lastmile_qr_scan", "ios": "https://dc.lft.to/lastmile_qr_scan"}, "fusion_lon": 0.0, "lat": 38.9230445, "bike_id": "a1f14caa0e38e62bea44b23908e77f23", "type": "electric_scooter", "is_reserved": 0, "lon": -77.042696}, {"fusion_lat": 0.0, "name": "43cde0d4ab9a6acf6f1ea45b59948467", "is_disabled": 0, "rental_uris": {"android": "https://dc.lft.to/lastmile_qr_scan", "ios": "https://dc.lft.to/lastmile_qr_scan"}, "fusion_lon": 0.0, "lat": 38.921681, "bike_id": "43cde0d4ab9a6acf6f1ea45b59948467", "type": "electric_scooter", "is_reserved": 0, "lon": -77.03259566666667}, {"fusion_lat": 0.0, "name": "d3b4556815413f87b26558a962aee581", "is_disabled": 0, "rental_uris": {"android": "https://dc.lft.to/lastmile_qr_scan", "ios": "https://dc.lft.to/lastmile_qr_scan"}, "fusion_lon": 0.0, "lat": 38.896166, "bike_id": "d3b4556815413f87b26558a962aee581", "type": "electric_bike", "is_reserved": 0, "lon": -76.90742283333333}, {"fusion_lat": 0.0, "name": "ec31853a28b1b18e38c7c3ddc6ac783c", "is_disabled": 0, "rental_uris": {"android": "https://dc.lft.to/lastmile_qr_scan", "ios": "https://dc.lft.to/lastmile_qr_scan"}, "fusion_lon": 0.0, "lat": 38.92316183333333, "bike_id": "ec31853a28b1b18e38c7c3ddc6ac783c", "type": "electric_scooter", "is_reserved": 0, "lon": -77.043964}, {"fusion_lat": 0.0, "name": "b6da46fab692ef5ceef25659de56d6fc", "is_disabled": 0, "rental_uris": {"android": "https://dc.lft.to/lastmile_qr_scan", "ios": "https://dc.lft.to/lastmile_qr_scan"}, "fusion_lon": 0.0, "lat": 38.88722466666667, "bike_id": "b6da46fab692ef5ceef25659de56d6fc", "type": "electric_scooter", "is_reserved": 0, "lon": -76.996866}, {"fusion_lat": 0.0, "name": "751390b887314daaa36df2bac7afa071", "is_disabled": 0, "rental_uris": {"android": "https://dc.lft.to/lastmile_qr_scan", "ios": "https://dc.lft.to/lastmile_qr_scan"}, "fusion_lon": 0.0, "lat": 38.898469166666665, "bike_id": "751390b887314daaa36df2bac7afa071", "type": "electric_scooter", "is_reserved": 0, "lon": -77.04140033333333}, {"fusion_lat": 0.0, "name": "136436ae74fb39650cb1093cbb41e47a", "is_disabled": 0, "rental_uris": {"android": "https://dc.lft.to/lastmile_qr_scan", "ios": "https://dc.lft.to/lastmile_qr_scan"}, "fusion_lon": 0.0, "lat": 38.921472666666666, "bike_id": "136436ae74fb39650cb1093cbb41e47a", "type": "electric_scooter", "is_reserved": 0, "lon": -77.0319655}, {"fusion_lat": 0.0, "name": "40ef792ea08b290e510447d492ba805f", "is_disabled": 0, "rental_uris": {"android": "https://dc.lft.to/lastmile_qr_scan", "ios": "https://dc.lft.to/lastmile_qr_scan"}, "fusion_lon": 0.0, "lat": 38.90187016666667, "bike_id": "40ef792ea08b290e510447d492ba805f", "type": "electric_scooter", "is_reserved": 0, "lon": -77.01623633333334}, {"fusion_lat": 0.0, "name": "6836a3a17cc14a2837b6f0eaf0360a78", "is_disabled": 0, "rental_uris": {"android": "https://dc.lft.to/lastmile_qr_scan", "ios": "https://dc.lft.to/lastmile_qr_scan"}, "fusion_lon": 0.0, "lat": 38.92667316666667, "bike_id": "6836a3a17cc14a2837b6f0eaf0360a78", "type": "electric_scooter", "is_reserved": 0, "lon": -77.01490033333333}, {"fusion_lat": 0.0, "name": "db0a603443a3a0efc9577def35952d59", "is_disabled": 0, "rental_uris": {"android": "https://dc.lft.to/lastmile_qr_scan", "ios": "https://dc.lft.to/lastmile_qr_scan"}, "fusion_lon": 0.0, "lat": 38.9241505, "bike_id": "db0a603443a3a0efc9577def35952d59", "type": "electric_scooter", "is_reserved": 0, "lon": -77.04457233333333}, {"fusion_lat": 0.0, "name": "1dac858166ff78893d9017abe889d1df", "is_disabled": 0, "rental_uris": {"android": "https://dc.lft.to/lastmile_qr_scan", "ios": "https://dc.lft.to/lastmile_qr_scan"}, "fusion_lon": 0.0, "lat": 38.89954, "bike_id": "1dac858166ff78893d9017abe889d1df", "type": "electric_scooter", "is_reserved": 0, "lon": -77.02016333333333}, {"fusion_lat": 0.0, "name": "05c28b966b3046db7195c66e70199d68", "is_disabled": 0, "rental_uris": {"android": "https://dc.lft.to/lastmile_qr_scan", "ios": "https://dc.lft.to/lastmile_qr_scan"}, "fusion_lon": 0.0, "lat": 38.864301166666664, "bike_id": "05c28b966b3046db7195c66e70199d68", "type": "electric_scooter", "is_reserved": 0, "lon": -76.97427316666666}, {"fusion_lat": 0.0, "name": "6d86923f3d7cdc595f3872725f00e90f", "is_disabled": 0, "rental_uris": {"android": "https://dc.lft.to/lastmile_qr_scan", "ios": "https://dc.lft.to/lastmile_qr_scan"}, "fusion_lon": 0.0, "lat": 38.93609216666667, "bike_id": "6d86923f3d7cdc595f3872725f00e90f", "type": "electric_scooter", "is_reserved": 0, "lon": -77.05861616666667},