{"data": {"bikes": [{"fusion_lat": 0.0, "name": "e84161a5bde46f55e42c3a59c63661b4", "is_disabled": 0, "rental_uris": {"android": "https://dc.lft.to/lastmile_qr_scan", "ios": "https://dc.lft.to/lastmile_qr_scan"}, "fusion_lon": 0.0, "lat": 38.8952655, "bike_id": "e84161a5bde46f55e42c3a59c63661b4", "type": "electric_scooter", "is_reserved": 0, "lon": -76.93412116666667}, {"fusion_lat": 0.0, "name": "fd3a268330430c250de0c71bf46ca607", "is_disabled": 0, "rental_uris": {"android": "https://dc.lft.to/lastmile_qr_scan", "ios": "https://dc.lft.to/lastmile_qr_scan"}, "fusion_lon": 0.0, "lat": 38.90078, "bike_id": "fd3a268330430c250de0c71bf46ca607", "type": "electric_scooter", "is_reserved": 0, "lon": -77.050359}, {"fusion_lat": 0.0, "name": "b426a5c6828898a4d15c3b99242d2979", "is_disabled": 0, "rental_uris": {"android": "https://dc.lft.to/lastmile_qr_scan", "ios": "https://dc.lft.to/lastmile_qr_scan"}, "fusion_lon": 0.0, "lat": 38.9240435, "bike_id": "b426a5c6828898a4d15c3b99242d2979", "type": "electric_scooter", "is_reserved": 0, "lon": -77.0257985}, {"fusion_lat": 0.0, "name": "19c2d7de96ed010862432f63a3ca00cf", "is_disabled": 0, "rental_uris": {"android": "https://dc.lft.to/lastmile_qr_scan", "ios": "https://dc.lft.to/lastmile_qr_scan"}, "fusion_lon": 0.0, "lat": 38.90038166666667, "bike_id": "19c2d7de96ed010862432f63a3ca00cf", "type": "electric_scooter", "is_reserved": 0, "lon": -77.01234766666667}, {"fusion_lat": 0.0, "name": "0afaf806158819c7c8c832c7218289b2", "is_disabled": 0, "rental_uris": {"android": "https://dc.lft.to/lastmile_qr_scan", "ios": "https://dc.lft.to/lastmile_qr_scan"}, "fusion_lon": 0.0, "lat": 38.90155983333333, "bike_id": "0afaf806158819c7c8c832c7218289b2", "type": "electric_scooter", "is_reserved": 0, "lon": -77.06113966666666}, {"fusion_lat": 0.0, "name": "085b4ba0d5dc93f83e775fc53e85a15c", "is_disabled": 0, "rental_uris": {"android": "https://dc.lft.to/lastmile_qr_scan", "ios": "https://dc.lft.to/lastmile_qr_scan"}, "fusion_lon": 0.0, "lat": 38.924825, "bike_id": "085b4ba0d5dc93f83e775fc53e85a15c", "type": "electric_scooter", "is_reserved": 0, "lon": -77.02685683333333}, {"fusion_lat": 0.0, "name": "599f09179622da835ddbb55020961853", "is_disabled": 0, "rental_uris": {"android": "https://dc.lft.to/lastmile_qr_scan", "ios": "https://dc.lft.to/lastmile_qr_scan"}, "fusion_lon": 0.0, "lat": 38.9078355, "bike_id": "599f09179622da835ddbb55020961853", "type": "electric_scooter", "is_reserved": 0, "lon": -77.03864383333334}, {"fusion_lat": 0.0, "name": "41459c0dce87400a2337fd7d60d65dd3", "is_disabled": 0, "rental_uris": {"android": "https://dc.lft.to/lastmile_qr_scan", "ios": "https://dc.lft.to/lastmile_qr_scan"}, "fusion_lon": 0.0, "lat": 38.878976, "bike_id": "41459c0dce87400a2337fd7d60d65dd3", "type": "electric_scooter", "is_reserved": 0, "lon": -77.0136645}, {"fusion_lat": 0.0, "name": "902dcefe56821d3641a7c7dbf2d15f3c", "is_disabled": 0, "rental_uris": {"android": "https://dc.lft.to/lastmile_qr_scan", "ios": "https://dc.lft.to/lastmile_qr_scan"}, "fusion_lon": 0.0, "lat": 38.86213466666667, "bike_id": "902dcefe56821d3641a7c7dbf2d15f3c", "type": "electric_scooter", "is_reserved": 0, "lon": -76.99468833333333}, {"fusion_lat": 0.0, "name": "162fae48c4fdd659edbdc198d76be71b", "is_disabled": 0, "rental_uris": {"android": "https://dc.lft.to/lastmile_qr_scan", "ios": "https://dc.lft.to/lastmile_qr_scan"}, "fusion_lon": 0.0, "lat": 38.90636833333333, "bike_id": "162fae48c4fdd659edbdc198d76be71b", "type": "electric_scooter", "is_reserved": 0, "lon": -77.0371785}, {"fusion_lat": 0.0, "name": "1b7292df4836925f55be6e9b9f3b3703", "is_disabled": 0, "rental_uris": {"android": "https://dc.lft.to/lastmile_qr_scan", "ios": "https://dc.lft.to/lastmile_qr_scan"}, "fusion_lon": 0.0, "lat": 38.925375833333334, "bike_id": "1b7292df4836925f55be6e9b9f3b3703", "type": "electric_scooter", "is_reserved": 0, "lon": -77.03835633333334}, {"fusion_lat": 0.0, "name": "fb748ebea951692740b0e9c15e6265e8", "is_disabled": 0, "rental_uris": {"android": "https://dc.lft.to/lastmile_qr_scan", "ios": "https://dc.lft.to/lastmile_qr_scan"}, "fusion_lon": 0.0, "lat": 38.918329666666665, "bike_id": "fb748ebea951692740b0e9c15e6265e8", "type": "electric_scooter", "is_reserved": 0, "lon": -77.02308333333333}, {"fusion_lat": 0.0, "name": "903fa3dee9ebec9a69e42c1aa1d8687f", "is_disabled": 0, "rental_uris": {"android": "https://dc.lft.to/lastmile_qr_scan", "ios": "https://dc.lft.to/lastmile_qr_scan"}, "fusion_lon": 0.0, "lat": 38.938750666666664, "bike_id": "903fa3dee9ebec9a69e42c1aa1d8687f", "type": "electric_scooter", "is_reserved": 0, "lon": -77.024734}, {"fusion_lat": 0.0, "name": "e6913d01d68fa6c8f10392efb69aef24", "is_disabled": 0, "rental_uris": {"android": "https://dc.lft.to/lastmile_qr_scan", "ios": "https://dc.lft.to/lastmile_qr_scan"}, "fusion_lon": 0.0, "lat": 38.871796, "bike_id": "e6913d01d68fa6c8f10392efb69aef24", "type": "electric_scooter", "is_reserved": 0, "lon": -77.0061355}, {"fusion_lat": 0.0, "name": "5cba5e89c52c45a1b198f904f7845fa8", "is_disabled": 0, "rental_uris": {"android": "https://dc.lft.to/lastmile_qr_scan", "ios": "https://dc.lft.to/lastmile_qr_scan"}, "fusion_lon": 0.0, "lat": 38.9078225, "bike_id": "5cba5e89c52c45a1b198f904f7845fa8", "type": "electric_scooter", "is_reserved": 0, "lon": -77.03861983333333}, {"fusion_lat": 0.0, "name": "c403959974e30cda32a32f4563f746af", "is_disabled": 0, "rental_uris": {"android": "https://dc.lft.to/lastmile_qr_scan", "ios": "https://dc.lft.to/lastmile_qr_scan"}, "fusion_lon": 0.0, "lat": 38.900867166666664, "bike_id": "c403959974e30cda32a32f4563f746af", "type": "electric_scooter", "is_reserved": 0, "lon": -76.9833485}, {"fusion_lat": 0.0, "name": "1537280446a357b63cd825cd2903aa34", "is_disabled": 0, "rental_uris": {"android": "https://dc.lft.to/lastmile_qr_scan", "ios": "https://dc.lft.to/lastmile_qr_scan"}, "fusion_lon": 0.0, "lat": 38.9104095, "bike_id": "1537280446a357b63cd825cd2903aa34", "type": "electric_scooter", "is_reserved": 0, "lon": -77.00830116666667}, {"fusion_lat": 0.0, "name": "1cb2e4dfabb5074c24bb195458af1b1d", "is_disabled": 0, "rental_uris": {"android": "https://dc.lft.to/lastmile_qr_scan", "ios": "https://dc.lft.to/lastmile_qr_scan"}, "fusion_lon": 0.0, "lat": 38.91704033333333, "bike_id": "1cb2e4dfabb5074c24bb195458af1b1d", "type": "electric_scooter", "is_reserved": 0, "lon": -77.02684916666666}, {"fusion_lat": 0.0, "name": "2d3d98ea5c284ddf6f147f1ca09fabf1", "is_disabled": 0, "rental_uris": {"android": "https://dc.lft.to/lastmile_qr_scan", "ios": "https://dc.lft.to/lastmile_qr_scan"}, "fusion_lon": 0.0, "lat": 38.91578716666667, "bike_id": "2d3d98ea5c284ddf6f147f1ca09fabf1", "type": "electric_scooter", "is_reserved": 0, "lon": -77.0124255}, {"fusion_lat": 0.0, "name": "851271eb701318749a6e2b26c0ed6116", "is_disabled": 0, "rental_uris": {"android": "https://dc.lft.to/lastmile_qr_scan", "ios": "https://dc.lft.to/lastmile_qr_scan"}, "fusion_lon": 0.0, "lat": 38.90374516666667, "bike_id": "851271eb701318749a6e2b26c0ed6116", "type": "electric_scooter", "is_reserved": 0, "lon": -77.007483}, {"fusion_lat": 0.0, "name": "29c38a04eb21e872daad34b796f0f4dd", "is_disabled": 0, "rental_uris": {"android": "https://dc.lft.to/lastmile_qr_scan", "ios": "https://dc.lft.to/lastmile_qr_scan"}, "fusion_lon": 0.0, "lat": 38.90031, "bike_id": "29c38a04eb21e872daad34b796f0f4dd", "type": "electric_scooter", "is_reserved": 0, "lon": -76.99139833333334}, {"fusion_lat": 0.0, "name": "3b9ca75ee5fc4040657357bd5d8dd4d2", "is_disabled": 0, "rental_uris": {"android": "https://dc.lft.to/lastmile_qr_scan", "ios": "https://dc.lft.to/lastmile_qr_scan"}, "fusion_lon": 0.0, "lat": 38.884043, "bike_id": "3b9ca75ee5fc4040657357bd5d8dd4d2", "type": "electric_scooter", "is_reserved": 0, "lon": -77.01990633333334}, {"fusion_lat": 0.0, "name": "79f7a4c74f0487146fb110a09c95d787", "is_disabled": 0, "rental_uris": {"android": "https://dc.lft.to/lastmile_qr_scan", "ios": "https://dc.lft.to/lastmile_qr_scan"}, "fusion_lon": 0.0, "lat": 38.906703, "bike_id": "79f7a4c74f0487146fb110a09c95d787", "type": "electric_scooter", "is_reserved": 0, "lon": -77.02196266666667}, {"fusion_lat": 0.0, "name": "9d096574c12cf6cbddc73302a844c465", "is_disabled": 0, "rental_uris": {"android": "https://dc.lft.to/lastmile_qr_scan", "ios": "https://dc.lft.to/lastmile_qr_scan"}, "fusion_lon": 0.0, "lat": 38.928748166666665, "bike_id": "9d096574c12cf6cbddc73302a844c465", "type": "electric_scooter", "is_reserved": 0, "lon": -76.99574233333334}, {"fusion_lat": 0.0, "name": "f423c34f88c3844009690ae09c9bd39f", "is_disabled": 0, "rental_uris": {"android": "https://dc.lft.to/lastmile_qr_scan", "ios": "https://dc.lft.to/lastmile_qr_scan"}, "fusion_lon": 0.0, "lat": 38.880137833333336, "bike_id": "f423c34f88c3844009690ae09c9bd39f", "type": "electric_bike", "is_reserved": 0, "lon": -77.02482883333333}, {"fusion_lat": 0.0, "name": "a9d05545564ab82f704ffc833a1dda75", "is_disabled": 0, "rental_uris": {"android": "https://dc.lft.to/lastmile_qr_scan", "ios": "https://dc.lft.to/lastmile_qr_scan"}, "fusion_lon": 0.0, "lat": 38.94204716666667, "bike_id": "a9d05545564ab82f704ffc833a1dda75", "type": "electric_scooter", "is_reserved": 0, "lon": -77.02592733333333}, {"fusion_lat": 0.0, "name": "23d322b4d69f0cdd367aa20c7124adc3", "is_disabled": 0, "rental_uris": {"android": "https://dc.lft.to/lastmile_qr_scan", "ios": "https://dc.lft.to/lastmile_qr_scan"}, "fusion_lon": 0.0, "lat": 38.956360833333335, "bike_id": "23d322b4d69f0cdd367aa20c7124adc3", "type": "electric_scooter", "is_reserved": 0, "lon": -77.0330525}, {"fusion_lat": 0.0, "name": "df11489aee9602035947c24ab00d8c16", "is_disabled": 0, "rental_uris": {"android": "https://dc.lft.to/lastmile_qr_scan", "ios": "https://dc.lft.to/lastmile_qr_scan"}, "fusion_lon": 0.0, "lat": 38.91057416666666, "bike_id": "df11489aee9602035947c24ab00d8c16", "type": "electric_scooter", "is_reserved": 0, "lon": -77.04577583333334}, {"fusion_lat": 0.0, "name": "f9a5bad9c524783ced3a09735cc89105", "is_disabled": 0, "rental_uris": {"android": "https://dc.lft.to/lastmile_qr_scan", "ios": "https://dc.lft.to/lastmile_qr_scan"}, "fusion_lon": 0.0, "lat": 38.90232683333333, "bike_id": "f9a5bad9c524783ced3a09735cc89105", "type": "electric_scooter", "is_reserved": 0, "lon": -77.05944716666667}, {"fusion_lat": 0.0, "name": "7d1ba1a69b47c46fc9a0394f65b1b152", "is_disabled": 0, "rental_uris": {"android": "https://dc.lft.to/lastmile_qr_scan", "ios": "https://dc.lft.to/lastmile_qr_scan"}, "fusion_lon": 0.0, "lat": 38.902954, "bike_id": "7d1ba1a69b47c46fc9a0394f65b1b152", "type": "electric_scooter", "is_reserved": 0, "lon": -77.02005116666666}, {"fusion_lat": 0.0, "name": "64a7880d055e5e9baa8e0fe7489a47c5", "is_disabled": 0, "rental_uris": {"android": "https://dc.lft.to/lastmile_qr_scan", "ios": "https://dc.lft.to/lastmile_qr_scan"}, "fusion_lon": 0.0, "lat": 38.86335166666667, "bike_id": "64a7880d055e5e9baa8e0fe7489a47c5", "type": "electric_bike", "is_reserved": 0, "lon": -76.987373}, {"fusion_lat": 0.0, "name": "86d8540284f8bec201b1846280640120", "is_disabled": 0, "rental_uris": {"android": "https://dc.lft.to/lastmile_qr_scan", "ios": "https://dc.lft.to/lastmile_qr_scan"}, "fusion_lon": 0.0, "lat": 38.91442883333333, "bike_id": "86d8540284f8bec201b1846280640120", "type": "electric_scooter", "is_reserved": 0, "lon": -77.04161683333334}, {"fusion_lat": 0.0, "name": "16a7f9a049931318f17dad81125f01b7", "is_disabled": 0, "rental_uris": {"android": "https://dc.lft.to/lastmile_qr_scan", "ios": "https://dc.lft.to/lastmile_qr_scan"}, "fusion_lon": 0.0, "lat": 38.90684183333333, "bike_id": "16a7f9a049931318f17dad81125f01b7", "type": "electric_scooter", "is_reserved": 0, "lon": -77.07214716666667}, {"fusion_lat": 0.0, "name": "65b8d3b46b5885d65c9cf3771a8bae86", "is_disabled": 0, "rental_uris": {"android": "https://dc.lft.to/lastmile_qr_scan", "ios": "https://dc.lft.to/lastmile_qr_scan"}, "fusion_lon": 0.0, "lat": 38.942701, "bike_id": "65b8d3b46b5885d65c9cf3771a8bae86", "type": "electric_scooter", "is_reserved": 0, "lon": -77.03260966666667}, {"fusion_lat": 0.0, "name": "7c1ea0a12d1a11c580e4c6f6d8e4df64", "is_disabled": 0, "rental_uris": {"android": "https://dc.lft.to/lastmile_qr_scan", "ios": "https://dc.lft.to/lastmile_qr_scan"}, "fusion_lon": 0.0, "lat": 38.835180333333334, "bike_id": "7c1ea0a12d1a11c580e4c6f6d8e4df64", "type": "electric_bike", "is_reserved": 0, "lon": -76.986803}, {"fusion_lat": 0.0, "name": "9fb95a20f0e26d5bac0b7419ed62e54f", "is_disabled": 0, "rental_uris": {"android": "https://dc.lft.to/lastmile_qr_scan", "ios": "https://dc.lft.to/lastmile_qr_scan"}, "fusion_lon": 0.0, "lat": 38.940070666666664, "bike_id": "9fb95a20f0e26d5bac0b7419ed62e54f", "type": "electric_scooter", "is_reserved": 0, "lon": -77.08418516666667}, {"fusion_lat": 0.0, "name": "0673a800c7d88b6a59d1af8bde60984c", "is_disabled": 0, "rental_uris": {"android": "https://dc.lft.to/lastmile_qr_scan", "ios": "https://dc.lft.to/lastmile_qr_scan"}, "fusion_lon": 0.0, "lat": 38.915534666666666, "bike_id": "0673a800c7d88b6a59d1af8bde60984c", "type": "electric_scooter", "is_reserved": 0, "lon": -77.01132933333334}, {"fusion_lat": 0.0, "name": "5ba2d5631701d7d551fa6f284f8d8b17", "is_disabled": 0, "rental_uris": {"android": "https://dc.lft.to/lastmile_qr_scan", "ios": "https://dc.lft.to/lastmile_qr_scan"}, "fusion_lon": 0.0, "lat": 38.9016965, "bike_id": "5ba2d5631701d7d551fa6f284f8d8b17", "type": "electric_scooter", "is_reserved": 0, "lon": -77.02017216666667}, {"fusion_lat": 0.0, "name": "7b818159f58fd49db274fb42c7604a73", "is_disabled": 0, "rental_uris": {"android": "https://dc.lft.to/lastmile_qr_scan", "ios": "https://dc.lft.to/lastmile_qr_scan"}, "fusion_lon": 0.0, "lat": 38.902545333333336, "bike_id": "7b818159f58fd49db274fb42c7604a73", "type": "electric_scooter", "is_reserved": 0, "lon": -77.0212385}, {"fusion_lat": 0.0, "name": "90db9ea29d93c07efb10f2e5cdbe1985", "is_disabled": 0, "rental_uris": {"android": "https://dc.lft.to/lastmile_qr_scan", "ios": "https://dc.lft.to/lastmile_qr_scan"}, "fusion_lon": 0.0, "lat": 38.90064133333333, "bike_id": "90db9ea29d93c07efb10f2e5cdbe1985", "type": "electric_scooter", "is_reserved": 0, "lon": -76.93392833333333}, {"fusion_lat": 0.0, "name": "9a4dc45a71256a6f6332d6193b8b7168", "is_disabled": 0, "rental_uris": {"android": "https://dc.lft.to/lastmile_qr_scan", "ios": "https://dc.lft.to/lastmile_qr_scan"}, "fusion_lon": 0.0, "lat": 38.907696, "bike_id": "9a4dc45a71256a6f6332d6193b8b7168", "type": "electric_scooter", "is_reserved": 0, "lon": -77.05593916666666}, {"fusion_lat": 0.0, "name": "96cf74b70f8ad9328428d71be280e0c6", "is_disabled": 0, "rental_uris": {"android": "https://dc.lft.to/lastmile_qr_scan", "ios": "https://dc.lft.to/lastmile_qr_scan"}, "fusion_lon": 0.0, "lat": 38.92704966666667, "bike_id": "96cf74b70f8ad9328428d71be280e0c6", "type": "electric_scooter", "is_reserved": 0, "lon": -77.02411233333333}, {"fusion_lat": 0.0, "name": "40b80433ab51c6673c18ef2c70e13f12", "is_disabled": 0, "rental_uris": {"android": "https://dc.lft.to/lastmile_qr_scan", "ios": "https://dc.lft.to/lastmile_qr_scan"}, "fusion_lon": 0.0, "lat": 38.92322466666667, "bike_id": "40b80433ab51c6673c18ef2c70e13f12", "type": "electric_scooter", "is_reserved": 0, "lon": -77.035184}, {"fusion_lat": 0.0, "name": "9161df01e3a8a31fdaa1d4d07556016c", "is_disabled": 0, "rental_uris": {"android": "https://dc.lft.to/lastmile_qr_scan", "ios": "https://dc.lft.to/lastmile_qr_scan"}, "fusion_lon": 0.0, "lat": 38.91820883333333, "bike_id": "9161df01e3a8a31fdaa1d4d07556016c", "type": "electric_scooter", "is_reserved": 0, "lon": -77.03685166666666}, {"fusion_lat": 0.0, "name": "177e725f4255350208729fe6a8d6a7fa", "is_disabled": 0, "rental_uris": {"android": "https://dc.lft.to/lastmile_qr_scan", "ios": "https://dc.lft.to/lastmile_qr_scan"}, "fusion_lon": 0.0, "lat": 38.8872805, "bike_id": "177e725f4255350208729fe6a8d6a7fa", "type": "electric_scooter", "is_reserved": 0, "lon": -76.983577}, {"fusion_lat": 0.0, "name": "eebf8738923bb3232700b5e6fd74ab80", "is_disabled": 0, "rental_uris": {"android": "https://dc.lft.to/lastmile_qr_scan", "ios": "https://dc.lft.to/lastmile_qr_scan"}, "fusion_lon": 0.0, "lat": 38.88740766666667, "bike_id": "eebf8738923bb3232700b5e6fd74ab80", "type": "electric_scooter", "is_reserved": 0, "lon": -77.00324833333333}, {"fusion_lat": 0.0, "name": "3022bc21a136259a12ac23081c30fe6b", "is_disabled": 0, "rental_uris": {"android": "https://dc.lft.to/lastmile_qr_scan", "ios": "https://dc.lft.to/lastmile_qr_scan"}, "fusion_lon": 0.0, "lat": 38.92076933333333, "bike_id": "3022bc21a136259a12ac23081c30fe6b", "type": "electric_bike", "is_reserved": 0, "lon": -76.98950683333334}, {"fusion_lat": 0.0, "name": "ed6f87c1e637eabb88a32dc6502f9276", "is_disabled": 0, "rental_uris": {"android": "https://dc.lft.to/lastmile_qr_scan", "ios": "https://dc.lft.to/lastmile_qr_scan"}, "fusion_lon": 0.0, "lat": 38.94230266666667, "bike_id": "ed6f87c1e637eabb88a32dc6502f9276", "type": "electric_scooter", "is_reserved": 0, "lon": -77.0138385}, {"fusion_lat": 0.0, "name": "d96fc711b93730dbe39fe2c0b694b088", "is_disabled": 0, "rental_uris": {"android": "https://dc.lft.to/lastmile_qr_scan", "ios": "https://dc.lft.to/lastmile_qr_scan"}, "fusion_lon": 0.0, "lat": 38.91624516666667, "bike_id": "d96fc711b93730dbe39fe2c0b694b088", "type": "electric_scooter", "is_reserved": 0, "lon": -77.02815033333333}, {"fusion_lat": 0.0, "name": "82ce4b80a17021fd31bd7040cc9c2f18", "is_disabled": 0, "rental_uris": {"android": "https://dc.lft.to/lastmile_qr_scan", "ios": "https://dc.lft.to/lastmile_qr_scan"}, "fusion_lon": 0.0, "lat": 38.8984615, "bike_id": "82ce4b80a17021fd31bd7040cc9c2f18", "type": "electric_scooter", "is_reserved": 0, "lon": -77.01952116666666}, {"fusion_lat": 0.0, "name": "eea72c6187fe051413050abd5df8564d", "is_disabled": 0, "rental_uris": {"android": "https://dc.lft.to/lastmile_qr_scan", "ios": "https://dc.lft.to/lastmile_qr_scan"}, "fusion_lon": 0.0, "lat": 38.8996615, "bike_id": "eea72c6187fe051413050abd5df8564d", "type": "electric_scooter", "is_reserved": 0, "lon": -76.98717}, {"fusion_lat": 0.0, "name": "83374f3297a85065a04de4887da92dee", "is_disabled": 0, "rental_uris": {"android": "https://dc.lft.to/lastmile_qr_scan", "ios": "https://dc.lft.to/lastmile_qr_scan"}, "fusion_lon": 0.0, "lat": 38.927252333333335, "bike_id": "83374f3297a85065a04de4887da92dee", "type": "electric_scooter", "is_reserved": 0, "lon": -77.03147616666666}, {"fusion_lat": 0.0, "name": "d157b0b8b6e94e774ee5662ac195fc54", "is_disabled": 0, "rental_uris": {"android": "https://dc.lft.to/lastmile_qr_scan", "ios": "https://dc.lft.to/lastmile_qr_scan"}, "fusion_lon": 0.0, "lat": 38.9026605, "bike_id": "d157b0b8b6e94e774ee5662ac195fc54", "type": "electric_scooter", "is_reserved": 0, "lon": -76.99603533333334}, {"fusion_lat": 0.0, "name": "a2ec146971dba287febc5383496c9276", "is_disabled": 0, "rental_uris": {"android": "https://dc.lft.to/lastmile_qr_scan", "ios": "https://dc.lft.to/lastmile_qr_scan"}, "fusion_lon": 0.0, "lat": 38.916084, "bike_id": "a2ec146971dba287febc5383496c9276", "type": "electric_scooter", "is_reserved": 0, "lon": -77.0459645}, {"fusion_lat": 0.0, "name": "c009bfe00582a5359865413c7eaf68b8", "is_disabled": 0, "rental_uris": {"android": "https://dc.lft.to/lastmile_qr_scan", "ios": "https://dc.lft.to/lastmile_qr_scan"}, "fusion_lon": 0.0, "lat": 38.897381, "bike_id": "c009bfe00582a5359865413c7eaf68b8", "type": "electric_scooter", "is_reserved": 0, "lon": -76.94721266666667}, {"fusion_lat": 0.0, "name": "d830f2b36b2adf8ca532520fb8c983cc", "is_disabled": 0, "rental_uris": {"android": "https://dc.lft.to/lastmile_qr_scan", "ios": "https://dc.lft.to/lastmile_qr_scan"}, "fusion_lon": 0.0, "lat": 38.904660166666666, "bike_id": "d830f2b36b2adf8ca532520fb8c983cc", "type": "electric_scooter", "is_reserved": 0, "lon": -77.01272766666666}, {"fusion_lat": 0.0, "name": "795bbdbdbf1472903caed464b932c3c0", "is_disabled": 0, "rental_uris": {"android": "https://dc.lft.to/lastmile_qr_scan", "ios": "https://dc.lft.to/lastmile_qr_scan"}, "fusion_lon": 0.0, "lat": 38.9002765, "bike_id": "795bbdbdbf1472903caed464b932c3c0", "type": "electric_scooter", "is_reserved": 0, "lon": -76.99134833333333}, {"fusion_lat": 0.0, "name": "a5667814304b93056e10729ff2040a74", "is_disabled": 0, "rental_uris": {"android": "https://dc.lft.to/lastmile_qr_scan", "ios": "https://dc.lft.to/lastmile_qr_scan"}, "fusion_lon": 0.0, "lat": 38.930461666666666, "bike_id": "a5667814304b93056e10729ff2040a74", "type": "electric_scooter", "is_reserved": 0, "lon": -77.033024}, {"fusion_lat": 0.0, "name": "437e4f83691b63a05ee14db1479f485d", "is_disabled": 0, "rental_uris": {"android": "https://dc.lft.to/lastmile_qr_scan", "ios": "https://dc.lft.to/lastmile_qr_scan"}, "fusion_lon": 0.0, "lat": 38.907241166666665, "bike_id": "437e4f83691b63a05ee14db1479f485d", "type": "electric_scooter", "is_reserved": 0, "lon": -77.0250685}, {"fusion_lat": 0.0, "name": "b49270d22766437a5f18d827ee228b79", "is_disabled": 0, "rental_uris": {"android": "https://dc.lft.to/lastmile_qr_scan", "ios": "https://dc.lft.to/lastmile_qr_scan"}, "fusion_lon": 0.0, "lat": 38.9002425, "bike_id": "b49270d22766437a5f18d827ee228b79", "type": "electric_scooter", "is_reserved": 0, "lon": -76.99935316666667}, {"fusion_lat": 0.0, "name": "556c27a6aa8f854c4bd740ef55cbfca5", "is_disabled": 0, "rental_uris": {"android": "https://dc.lft.to/lastmile_qr_scan", "ios": "https://dc.lft.to/lastmile_qr_scan"}, "fusion_lon": 0.0, "lat": 38.923167, "bike_id": "556c27a6aa8f854c4bd740ef55cbfca5", "type": "electric_scooter", "is_reserved": 0, "lon": -77.04623466666666}, {"fusion_lat": 0.0, "name": "f1d09e486d2e1db0d8ac14d64263a9bb", "is_disabled": 0, "rental_uris": {"android": "https://dc.lft.to/lastmile_qr_scan", "ios": "https://dc.lft.to/lastmile_qr_scan"}, "fusion_lon": 0.0, "lat": 38.905817166666665, "bike_id": "f1d09e486d2e1db0d8ac14d64263a9bb", "type": "electric_scooter", "is_reserved": 0, "lon": -77.0342175}, {"fusion_lat": 0.0, "name": "18c13ed03bc3ba702d17261e1e67fb04", "is_disabled": 0, "rental_uris": {"android": "https://dc.lft.to/lastmile_qr_scan", "ios": "https://dc.lft.to/lastmile_qr_scan"}, "fusion_lon": 0.0, "lat": 38.910821, "bike_id": "18c13ed03bc3ba702d17261e1e67fb04", "type": "electric_scooter", "is_reserved": 0, "lon": -77.06550033333333}, {"fusion_lat": 0.0, "name": "d6b22aec43fbe8204a8fb7c0f9bd6dd7", "is_disabled": 0, "rental_uris": {"android": "https://dc.lft.to/lastmile_qr_scan", "ios": "https://dc.lft.to/lastmile_qr_scan"}, "fusion_lon": 0.0, "lat": 38.8747875, "bike_id": "d6b22aec43fbe8204a8fb7c0f9bd6dd7", "type": "electric_scooter", "is_reserved": 0, "lon": -77.01889166666666}, {"fusion_lat": 0.0, "name": "5a80e350fc824c1d1aee01fe61fb0708", "is_disabled": 0, "rental_uris": {"android": "https://dc.lft.to/lastmile_qr_scan", "ios": "https://dc.lft.to/lastmile_qr_scan"}, "fusion_lon": 0.0, "lat": 38.92083233333334, "bike_id": "5a80e350fc824c1d1aee01fe61fb0708", "type": "electric_scooter", "is_reserved": 0, "lon": -77.04084233333333}, {"fusion_lat": 0.0, "name": "2d770a06acebc19f250ee72f20c9dba2", "is_disabled": 0, "rental_uris": {"android": "https://dc.lft.to/lastmile_qr_scan", "ios": "https://dc.lft.to/lastmile_qr_scan"}, "fusion_lon": 0.0, "lat": 38.87595116666667, "bike_id": "2d770a06acebc19f250ee72f20c9dba2", "type": "electric_scooter", "is_reserved": 0, "lon": -77.00588283333333}, {"fusion_lat": 0.0, "name": "a3c4cd03894da7ee649c92f3de8fc3fe", "is_disabled": 0, "rental_uris": {"android": "https://dc.lft.to/lastmile_qr_scan", "ios": "https://dc.lft.to/lastmile_qr_scan"}, "fusion_lon": 0.0, "lat": 38.936730833333336, "bike_id": "a3c4cd03894da7ee649c92f3de8fc3fe", "type": "electric_scooter", "is_reserved": 0, "lon": -77.0363945}, {"fusion_lat": 0.0, "name": "aa3abda637e378a535faa3d79491b831", "is_disabled": 0, "rental_uris": {"android": "https://dc.lft.to/lastmile_qr_scan", "ios": "https://dc.lft.to/lastmile_qr_scan"}, "fusion_lon": 0.0, "lat": 38.92300133333333, "bike_id": "aa3abda637e378a535faa3d79491b831", "type": "electric_scooter", "is_reserved": 0, "lon": -76.9942995}, {"fusion_lat": 0.0, "name": "95d95676370410096d8b859dc2c5cdeb", "is_disabled": 0, "rental_uris": {"android": "https://dc.lft.to/lastmile_qr_scan", "ios": "https://dc.lft.to/lastmile_qr_scan"}, "fusion_lon": 0.0, "lat": 38.897378833333335, "bike_id": "95d95676370410096d8b859dc2c5cdeb", "type": "electric_scooter", "is_reserved": 0, "lon": -77.02616483333334}, {"fusion_lat": 0.0, "name": "a25aeda24e71106f7d3ba84816441dd8", "is_disabled": 0, "rental_uris": {"android": "https://dc.lft.to/lastmile_qr_scan", "ios": "https://dc.lft.to/lastmile_qr_scan"}, "fusion_lon": 0.0, "lat": 38.92366083333334, "bike_id": "a25aeda24e71106f7d3ba84816441dd8", "type": "electric_scooter", "is_reserved": 0, "lon": -77.081571}, {"fusion_lat": 0.0, "name": "229a72f1f1237c281d6e30b92d96be0e", "is_disabled": 0, "rental_uris": {"android": "https://dc.lft.to/lastmile_qr_scan", "ios": "https://dc.lft.to/lastmile_qr_scan"}, "fusion_lon": 0.0, "lat": 38.92871, "bike_id": "229a72f1f1237c281d6e30b92d96be0e", "type": "electric_scooter", "is_reserved": 0, "lon": -77.013616}, {"fusion_lat": 0.0, "name": "f244d6d215325f39fa8703cfe8ec2f06", "is_disabled": 0, "rental_uris": {"android": "https://dc.lft.to/lastmile_qr_scan", "ios": "https://dc.lft.to/lastmile_qr_scan"}, "fusion_lon": 0.0, "lat": 38.90253116666667, "bike_id": "f244d6d215325f39fa8703cfe8ec2f06", "type": "electric_scooter", "is_reserved": 0, "lon": -77.01797933333333}, {"fusion_lat": 0.0, "name": "c93348f8fe914d3cbb433e78ef7f4a14", "is_disabled": 0, "rental_uris": {"android": "https://dc.lft.to/lastmile_qr_scan", "ios": "https://dc.lft.to/lastmile_qr_scan"}, "fusion_lon": 0.0, "lat": 38.961431833333336, "bike_id": "c93348f8fe914d3cbb433e78ef7f4a14", "type": "electric_bike", "is_reserved": 0, "lon": -77.02800933333333}, {"fusion_lat": 0.0, "name": "5270961f100e4c079356a0ddc3deeb59", "is_disabled": 0, "rental_uris": {"android": "https://dc.lft.to/lastmile_qr_scan", "ios": "https://dc.lft.to/lastmile_qr_scan"}, "fusion_lon": 0.0, "lat": 38.9166575, "bike_id": "5270961f100e4c079356a0ddc3deeb59", "type": "electric_scooter", "is_reserved": 0, "lon": -77.02816216666666}, {"fusion_lat": 0.0, "name": "0d35da5d798fe814a19dcd8d81b54a1f", "is_disabled": 0, "rental_uris": {"android": "https://dc.lft.to/lastmile_qr_scan", "ios": "https://dc.lft.to/lastmile_qr_scan"}, "fusion_lon": 0.0, "lat": 38.92329066666667, "bike_id": "0d35da5d798fe814a19dcd8d81b54a1f", "type": "electric_scooter", "is_reserved": 0, "lon": -77.03824083333333}, {"fusion_lat": 0.0, "name": "ad6f49762fb47ec6b7629fe6bbe511fd", "is_disabled": 0, "rental_uris": {"android": "https://dc.lft.to/lastmile_qr_scan", "ios": "https://dc.lft.to/lastmile_qr_scan"}, "fusion_lon": 0.0, "lat": 38.900247, "bike_id": "ad6f49762fb47ec6b7629fe6bbe511fd", "type": "electric_scooter", "is_reserved": 0, "lon": -77.01180716666667}, {"fusion_lat": 0.0, "name": "cbbe55228d49d3b270d945a6d54edc53", "is_disabled": 0, "rental_uris": {"android": "https://dc.lft.to/lastmile_qr_scan", "ios": "https://dc.lft.to/lastmile_qr_scan"}, "fusion_lon": 0.0, "lat": 38.879237833333335, "bike_id": "cbbe55228d49d3b270d945a6d54edc53", "type": "electric_scooter", "is_reserved": 0, "lon": -77.01375866666666}, {"fusion_lat": 0.0, "name": "a8b291fbde9d8eac06441b59810c6999", "is_disabled": 0, "rental_uris": {"android": "https://dc.lft.to/lastmile_qr_scan", "ios": "https://dc.lft.to/lastmile_qr_scan"}, "fusion_lon": 0.0, "lat": 38.9162265, "bike_id": "a8b291fbde9d8eac06441b59810c6999", "type": "electric_scooter", "is_reserved": 0, "lon": -77.03144566666667}, {"fusion_lat": 0.0, "name": "6a315d1549b11ffa84091e46e34d2aff", "is_disabled": 0, "rental_uris": {"android": "https://dc.lft.to/lastmile_qr_scan", "ios": "https://dc.lft.to/lastmile_qr_scan"}, "fusion_lon": 0.0, "lat": 38.92296283333334, "bike_id": "6a315d1549b11ffa84091e46e34d2aff", "type": "electric_scooter", "is_reserved": 0, "lon": -77.01826016666666}, {"fusion_lat": 0.0, "name": "97be23f0e7694fd50e70743dc0601611", "is_disabled": 0, "rental_uris": {"android": "https://dc.lft.to/lastmile_qr_scan", "ios": "https://dc.lft.to/lastmile_qr_scan"}, "fusion_lon": 0.0, "lat": 38.949003, "bike_id": "97be23f0e7694fd50e70743dc0601611", "type": "electric_bike", "is_reserved": 0, "lon": -76.96377483333333}, {"fusion_lat": 0.0, "name": "52ae1747fb72f0e9acde7dc25be17dad", "is_disabled": 0, "rental_uris": {"android": "https://dc.lft.to/lastmile_qr_scan", "ios": "https://dc.lft.to/lastmile_qr_scan"}, "fusion_lon": 0.0, "lat": 38.921760666666664, "bike_id": "52ae1747fb72f0e9acde7dc25be17dad", "type": "electric_scooter", "is_reserved": 0, "lon": -77.03839366666666}, {"fusion_lat": 0.0, "name": "b0e7e398979173ef807c301efb374e08", "is_disabled": 0, "rental_uris": {"android": "https://dc.lft.to/lastmile_qr_scan", "ios": "https://dc.lft.to/lastmile_qr_scan"}, "fusion_lon": 0.0, "lat": 38.91557983333333, "bike_id": "b0e7e398979173ef807c301efb374e08", "type": "electric_scooter", "is_reserved": 0, "lon": -77.03868233333333}, {"fusion_lat": 0.0, "name": "0c0cd6d4441e59d6436e73402eb359d1", "is_disabled": 0, "rental_uris": {"android": "https://dc.lft.to/lastmile_qr_scan", "ios": "https://dc.lft.to/lastmile_qr_scan"}, "fusion_lon": 0.0, "lat": 38.8740485, "bike_id": "0c0cd6d4441e59d6436e73402eb359d1", "type": "electric_scooter", "is_reserved": 0, "lon": -77.000708}, {"fusion_lat": 0.0, "name": "134361d3e137e563056b0e7fd92f2f47", "is_disabled": 0, "rental_uris": {"android": "https://dc.lft.to/lastmile_qr_scan", "ios": "https://dc.lft.to/lastmile_qr_scan"}, "fusion_lon": 0.0, "lat": 38.93189733333333, "bike_id": "134361d3e137e563056b0e7fd92f2f47", "type": "electric_scooter", "is_reserved": 0, "lon": -77.0330905}, {"fusion_lat": 0.0, "name": "f353cd6d9aa203323f42ce2454faf9d0", "is_disabled": 0, "rental_uris": {"android": "https://dc.lft.to/lastmile_qr_scan", "ios": "https://dc.lft.to/lastmile_qr_scan"}, "fusion_lon": 0.0, "lat": 38.909074333333336, "bike_id": "f353cd6d9aa203323f42ce2454faf9d0", "type": "electric_scooter", "is_reserved": 0, "lon": -77.026227}, {"fusion_lat": 0.0, "name": "5f791e6f0fbd34c8b30a8546b408aa5c", "is_disabled": 0, "rental_uris": {"android": "https://dc.lft.to/lastmile_qr_scan", "ios": "https://dc.lft.to/lastmile_qr_scan"}, "fusion_lon": 0.0, "lat": 38.89831133333333, "bike_id": "5f791e6f0fbd34c8b30a8546b408aa5c", "type": "electric_bike", "is_reserved": 0, "lon": -77.046856}, {"fusion_lat": 0.0, "name": "5eb7e61b70763616b84e0dfbb48e138f", "is_disabled": 0, "rental_uris": {"android": "https://dc.lft.to/lastmile_qr_scan", "ios": "https://dc.lft.to/lastmile_qr_scan"}, "fusion_lon": 0.0, "lat": 38.901284, "bike_id": "5eb7e61b70763616b84e0dfbb48e138f", "type": "electric_scooter", "is_reserved": 0, "lon": -77.01824733333333}, {"fusion_lat": 0.0, "name": "4c4bb99197f21762d15333acce29e9df", "is_disabled": 0, "rental_uris": {"android": "https://dc.lft.to/lastmile_qr_scan", "ios": "https://dc.lft.to/lastmile_qr_scan"}, "fusion_lon": 0.0, "lat": 38.930581333333336, "bike_id": "4c4bb99197f21762d15333acce29e9df", "type": "electric_scooter", "is_reserved": 0, "lon": -77.03953266666667}, {"fusion_lat": 0.0, "name": "ccbaebb9804e08e89e80ddfd9d6ed50f", "is_disabled": 0, "rental_uris": {"android": "https://dc.lft.to/lastmile_qr_scan", "ios": "https://dc.lft.to/lastmile_qr_scan"}, "fusion_lon": 0.0, "lat": 38.927954, "bike_id": "ccbaebb9804e08e89e80ddfd9d6ed50f", "type": "electric_scooter", "is_reserved": 0, "lon": -76.955591}, {"fusion_lat": 0.0, "name": "c72dc35fd8a7085b2780a01378354e88", "is_disabled": 0, "rental_uris": {"android": "https://dc.lft.to/lastmile_qr_scan", "ios": "https://dc.lft.to/lastmile_qr_scan"}, "fusion_lon": 0.0, "lat": 38.9194155, "bike_id": "c72dc35fd8a7085b2780a01378354e88", "type": "electric_scooter", "is_reserved": 0, "lon": -77.02496883333333}, {"fusion_lat": 0.0, "name": "7cad9afcb472ae806b40c996ce61cd1a", "is_disabled": 0, "rental_uris": {"android": "https://dc.lft.to/lastmile_qr_scan", "ios": "https://dc.lft.to/lastmile_qr_scan"}, "fusion_lon": 0.0, "lat": 38.9076915, "bike_id": "7cad9afcb472ae806b40c996ce61cd1a", "type": "electric_scooter", "is_reserved": 0, "lon": -77.0621735}, {"fusion_lat": 0.0, "name": "7039f13ab051bb9874de19dcb4e6bdb2", "is_disabled": 0, "rental_uris": {"android": "https://dc.lft.to/lastmile_qr_scan", "ios": "https://dc.lft.to/lastmile_qr_scan"}, "fusion_lon": 0.0, "lat": 38.87830616666667, "bike_id": "7039f13ab051bb9874de19dcb4e6bdb2", "type": "electric_scooter", "is_reserved": 0, "lon": -77.00772683333334}, {"fusion_lat": 0.0, "name": "00efbeb17587e017c71914b6effaadd2", "is_disabled": 0, "rental_uris": {"android": "https://dc.lft.to/lastmile_qr_scan", "ios": "https://dc.lft.to/lastmile_qr_scan"}, "fusion_lon": 0.0, "lat": 38.9048215, "bike_id": "00efbeb17587e017c71914b6effaadd2", "type": "electric_scooter", "is_reserved": 0, "lon": -76.94961433333333}, {"fusion_lat": 0.0, "name": "6b37835bec4460d19b32de4ca1a8d9bd", "is_disabled": 0, "rental_uris": {"android": "https://dc.lft.to/lastmile_qr_scan", "ios": "https://dc.lft.to/lastmile_qr_scan"}, "fusion_lon": 0.0, "lat": 38.926145166666664, "bike_id": "6b37835bec4460d19b32de4ca1a8d9bd", "type": "electric_scooter", "is_reserved": 0, "lon": -77.07571716666666}, {"fusion_lat": 0.0, "name": "c5a059e4ea31ec56f5bf47ca15f1dcf5", "is_disabled": 0, "rental_uris": {"android": "https://dc.lft.to/lastmile_qr_scan", "ios": "https://dc.lft.to/lastmile_qr_scan"}, "fusion_lon": 0.0, "lat": 38.9076625, "bike_id": "c5a059e4ea31ec56f5bf47ca15f1dcf5", "type": "electric_scooter", "is_reserved": 0, "lon": -77.0423535}, {"fusion_lat": 0.0, "name": "6c553cf0ffa253fd8b5b3ad064bd45ce", "is_disabled": 0, "rental_uris": {"android": "https://dc.lft.to/lastmile_qr_scan", "ios": "https://dc.lft.to/lastmile_qr_scan"}, "fusion_lon": 0.0, "lat": 38.900174666666665, "bike_id": "6c553cf0ffa253fd8b5b3ad064bd45ce", "type": "electric_scooter", "is_reserved": 0, "lon": -77.003775}, {"fusion_lat": 0.0, "name": "50c81f7934b47a32e39cc5455991abc0", "is_disabled": 0, "rental_uris": {"android": "https://dc.lft.to/lastmile_qr_scan", "ios": "https://dc.lft.to/lastmile_qr_scan"}, "fusion_lon": 0.0, "lat": 38.9159625, "bike_id": "50c81f7934b47a32e39cc5455991abc0", "type": "electric_scooter", "is_reserved": 0, "lon": -77.04166716666667}, {"fusion_lat": 0.0, "name": "69fc08f26e7d58ce0244306b095a0b00", "is_disabled": 0, "rental_uris": {"android": "https://dc.lft.to/lastmile_qr_scan", "ios": "https://dc.lft.to/lastmile_qr_scan"}, "fusion_lon": 0.0, "lat": 38.928091, "bike_id": "69fc08f26e7d58ce0244306b095a0b00", "type": "electric_scooter", "is_reserved": 0, "lon": -77.04372366666666}, {"fusion_lat": 0.0, "name": "fd26660cdf8697482451f631b57109dc", "is_disabled": 0, "rental_uris": {"android": "https://dc.lft.to/lastmile_qr_scan", "ios": "https://dc.lft.to/lastmile_qr_scan"}, "fusion_lon": 0.0, "lat": 38.87921466666667, "bike_id": "fd26660cdf8697482451f631b57109dc", "type": "electric_scooter", "is_reserved": 0, "lon": -77.00717933333334}, {"fusion_lat": 0.0, "name": "802d49332e93bb6fd8ad107ba19805ed", "is_disabled": 0, "rental_uris": {"android": "https://dc.lft.to/lastmile_qr_scan", "ios": "https://dc.lft.to/lastmile_qr_scan"}, "fusion_lon": 0.0, "lat": 38.901085, "bike_id": "802d49332e93bb6fd8ad107ba19805ed", "type": "electric_scooter", "is_reserved": 0, "lon": -76.974296}, {"fusion_lat": 0.0, "name": "b70d6aee1f150057eafd4223c74b6ad7", "is_disabled": 0, "rental_uris": {"android": "https://dc.lft.to/lastmile_qr_scan", "ios": "https://dc.lft.to/lastmile_qr_scan"}, "fusion_lon": 0.0, "lat": 38.89874833333333, "bike_id": "b70d6aee1f150057eafd4223c74b6ad7", "type": "electric_scooter", "is_reserved": 0, "lon": -77.02035666666667}, {"fusion_lat": 0.0, "name": "d318acad26ba8334eb3f5769171f93eb", "is_disabled": 0, "rental_uris": {"android": "https://dc.lft.to/lastmile_qr_scan", "ios": "https://dc.lft.to/lastmile_qr_scan"}, "fusion_lon": 0.0, "lat": 38.9001245, "bike_id": "d318acad26ba8334eb3f5769171f93eb", "type": "electric_scooter", "is_reserved": 0, "lon": -77.04484033333334}, {"fusion_lat": 0.0, "name": "08740443f73dc1b22ca517eaf347d160", "is_disabled": 0, "rental_uris": {"android": "https://dc.lft.to/lastmile_qr_scan", "ios": "https://dc.lft.to/lastmile_qr_scan"}, "fusion_lon": 0.0, "lat": 38.92714316666667, "bike_id": "08740443f73dc1b22ca517eaf347d160", "type": "electric_scooter", "is_reserved": 0, "lon": -77.05392233333333}, {"fusion_lat": 0.0, "name": "bf8593ce2eb8619f0a898fc92c12a6c4", "is_disabled": 0, "rental_uris": {"android": "https://dc.lft.to/lastmile_qr_scan", "ios": "https://dc.lft.to/lastmile_qr_scan"}, "fusion_lon": 0.0, "lat": 38.91697083333333, "bike_id": "bf8593ce2eb8619f0a898fc92c12a6c4", "type": "electric_scooter", "is_reserved": 0, "lon": -77.03497366666667}, {"fusion_lat": 0.0, "name": "e036a887062942f20d659bb920f44a0d", "is_disabled": 0, "rental_uris": {"android": "https://dc.lft.to/lastmile_qr_scan", "ios": "https://dc.lft.to/lastmile_qr_scan"}, "fusion_lon": 0.0, "lat": 38.934154166666666, "bike_id": "e036a887062942f20d659bb920f44a0d", "type": "electric_scooter", "is_reserved": 0, "lon": -77.04166533333333}, {"fusion_lat": 0.0, "name": "97074e8487b51fa08e386689f33ece33", "is_disabled": 0, "rental_uris": {"android": "https://dc.lft.to/lastmile_qr_scan", "ios": "https://dc.lft.to/lastmile_qr_scan"}, "fusion_lon": 0.0, "lat": 38.9170055, "bike_id": "97074e8487b51fa08e386689f33ece33", "type": "electric_scooter", "is_reserved": 0, "lon": -77.024671}, {"fusion_lat": 0.0, "name": "952252e2bd0a8f3ab9b8784e3847f819", "is_disabled": 0, "rental_uris": {"android": "https://dc.lft.to/lastmile_qr_scan", "ios": "https://dc.lft.to/lastmile_qr_scan"}, "fusion_lon": 0.0, "lat": 38.899074166666665, "bike_id": "952252e2bd0a8f3ab9b8784e3847f819", "type": "electric_scooter", "is_reserved": 0, "lon": -76.93353616666667}, {"fusion_lat": 0.0, "name": "851a68529b44574b48d6d80bcdcf98e5", "is_disabled": 0, "rental_uris": {"android": "https://dc.lft.to/lastmile_qr_scan", "ios": "https://dc.lft.to/lastmile_qr_scan"}, "fusion_lon": 0.0, "lat": 38.914103, "bike_id": "851a68529b44574b48d6d80bcdcf98e5", "type": "electric_scooter", "is_reserved": 0, "lon": -77.041068}, {"fusion_lat": 0.0, "name": "0aa749396f1ac278e8d125ed554d8589", "is_disabled": 0, "rental_uris": {"android": "https://dc.lft.to/lastmile_qr_scan", "ios": "https://dc.lft.to/lastmile_qr_scan"}, "fusion_lon": 0.0, "lat": 38.90654516666667, "bike_id": "0aa749396f1ac278e8d125ed554d8589", "type": "electric_scooter", "is_reserved": 0, "lon": -77.00658633333333}, {"fusion_lat": 0.0, "name": "b1c7a1c1503c3193888585e5cfa83ea8", "is_disabled": 0, "rental_uris": {"android": "https://dc.lft.to/lastmile_qr_scan", "ios": "https://dc.lft.to/lastmile_qr_scan"}, "fusion_lon": 0.0, "lat": 38.9666655, "bike_id": "b1c7a1c1503c3193888585e5cfa83ea8", "type": "electric_scooter", "is_reserved": 0, "lon": -77.0255515}, {"fusion_lat": 0.0, "name": "b6e51204d62230dbc73d161a23c9d335", "is_disabled": 0, "rental_uris": {"android": "https://dc.lft.to/lastmile_qr_scan", "ios": "https://dc.lft.to/lastmile_qr_scan"}, "fusion_lon": 0.0, "lat": 38.881441, "bike_id": "b6e51204d62230dbc73d161a23c9d335", "type": "electric_scooter", "is_reserved": 0, "lon": -76.9951325}, {"fusion_lat": 0.0, "name": "8163010bc7ab31e34f8f1d368fd0bb31", "is_disabled": 0, "rental_uris": {"android": "https://dc.lft.to/lastmile_qr_scan", "ios": "https://dc.lft.to/lastmile_qr_scan"}, "fusion_lon": 0.0, "lat": 38.913136333333334, "bike_id": "8163010bc7ab31e34f8f1d368fd0bb31", "type": "electric_scooter", "is_reserved": 0, "lon": -77.03662716666666}, {"fusion_lat": 0.0, "name": "7dfb7ebd860861e8cf0a580c880b13c3", "is_disabled": 0, "rental_uris": {"android": "https://dc.lft.to/lastmile_qr_scan", "ios": "https://dc.lft.to/lastmile_qr_scan"}, "fusion_lon": 0.0, "lat": 38.9024205, "bike_id": "7dfb7ebd860861e8cf0a580c880b13c3", "type": "electric_scooter", "is_reserved": 0, "lon": -77.00351766666667}, {"fusion_lat": 0.0, "name": "5cdb880656373eb5ccd1849af218c7f7", "is_disabled": 0, "rental_uris": {"android": "https://dc.lft.to/lastmile_qr_scan", "ios": "https://dc.lft.to/lastmile_qr_scan"}, "fusion_lon": 0.0, "lat": 38.89683266666667, "bike_id": "5cdb880656373eb5ccd1849af218c7f7", "type": "electric_scooter", "is_reserved": 0, "lon": -77.0055025}, {"fusion_lat": 0.0, "name": "f1089aa98ddb9991c1a8a360ce5e5947", "is_disabled": 0, "rental_uris": {"android": "https://dc.lft.to/lastmile_qr_scan", "ios": "https://dc.lft.to/lastmile_qr_scan"}, "fusion_lon": 0.0, "lat": 38.90345, "bike_id": "f1089aa98ddb9991c1a8a360ce5e5947", "type": "electric_scooter", "is_reserved": 0, "lon": -77.066614}, {"fusion_lat": 0.0, "name": "90f33c666753df2ee41442a3aa2407a8", "is_disabled": 0, "rental_uris": {"android": "https://dc.lft.to/lastmile_qr_scan", "ios": "https://dc.lft.to/lastmile_qr_scan"}, "fusion_lon": 0.0, "lat": 38.86419316666667, "bike_id": "90f33c666753df2ee41442a3aa2407a8", "type": "electric_scooter", "is_reserved": 0, "lon": -77.01226066666666}, {"fusion_lat": 0.0, "name": "93a0ba2ad83b4b36f30a311f2d9b5f1e", "is_disabled": 0, "rental_uris": {"android": "https://dc.lft.to/lastmile_qr_scan", "ios": "https://dc.lft.to/lastmile_qr_scan"}, "fusion_lon": 0.0, "lat": 38.91100683333333, "bike_id": "93a0ba2ad83b4b36f30a311f2d9b5f1e", "type": "electric_scooter", "is_reserved": 0, "lon": -77.07351283333334}, {"fusion_lat": 0.0, "name": "c6209aa6293dd3435f5b5dd43286ba1c", "is_disabled": 0, "rental_uris": {"android": "https://dc.lft.to/lastmile_qr_scan", "ios": "https://dc.lft.to/lastmile_qr_scan"}, "fusion_lon": 0.0, "lat": 38.896685166666664, "bike_id": "c6209aa6293dd3435f5b5dd43286ba1c", "type": "electric_scooter", "is_reserved": 0, "lon": -77.02474316666667}, {"fusion_lat": 0.0, "name": "35a1d8aa3d8ab4ff928d2fd23949bf07", "is_disabled": 0, "rental_uris": {"android": "https://dc.lft.to/lastmile_qr_scan", "ios": "https://dc.lft.to/lastmile_qr_scan"}, "fusion_lon": 0.0, "lat": 38.8840875, "bike_id": "35a1d8aa3d8ab4ff928d2fd23949bf07", "type": "electric_scooter", "is_reserved": 0, "lon": -77.02599333333333}, {"fusion_lat": 0.0, "name": "8891a20ca3fb1c234f1b750d0c3e347b", "is_disabled": 0, "rental_uris": {"android": "https://dc.lft.to/lastmile_qr_scan", "ios": "https://dc.lft.to/lastmile_qr_scan"}, "fusion_lon": 0.0, "lat": 38.958815666666666, "bike_id": "8891a20ca3fb1c234f1b750d0c3e347b", "type": "electric_scooter", "is_reserved": 0, "lon": -77.011782}, {"fusion_lat": 0.0, "name": "8d313135105954f6546abb1b5389e324", "is_disabled": 0, "rental_uris": {"android": "https://dc.lft.to/lastmile_qr_scan", "ios": "https://dc.lft.to/lastmile_qr_scan"}, "fusion_lon": 0.0, "lat": 38.926792166666665, "bike_id": "8d313135105954f6546abb1b5389e324", "type": "electric_scooter", "is_reserved": 0, "lon": -77.03104433333333}, {"fusion_lat": 0.0, "name": "4d1448b9984496d17914e141fee8a13a", "is_disabled": 0, "rental_uris": {"android": "https://dc.lft.to/lastmile_qr_scan", "ios": "https://dc.lft.to/lastmile_qr_scan"}, "fusion_lon": 0.0, "lat": 38.931922166666666, "bike_id": "4d1448b9984496d17914e141fee8a13a", "type": "electric_scooter", "is_reserved": 0, "lon": -77.01971233333333}, {"fusion_lat": 0.0, "name": "55335b2bee7e8e431e5660a28565c946", "is_disabled": 0, "rental_uris": {"android": "https://dc.lft.to/lastmile_qr_scan", "ios": "https://dc.lft.to/lastmile_qr_scan"}, "fusion_lon": 0.0, "lat": 38.91384383333333, "bike_id": "55335b2bee7e8e431e5660a28565c946", "type": "electric_scooter", "is_reserved": 0, "lon": -77.01806266666667}, {"fusion_lat": 0.0, "name": "90e4c34ac7e64db30df1e6ed526434c6", "is_disabled": 0, "rental_uris": {"android": "https://dc.lft.to/lastmile_qr_scan", "ios": "https://dc.lft.to/lastmile_qr_scan"}, "fusion_lon": 0.0, "lat": 38.9045685, "bike_id": "90e4c34ac7e64db30df1e6ed526434c6", "type": "electric_scooter", "is_reserved": 0, "lon": -77.05920283333333}, {"fusion_lat": 0.0, "name": "809410ef0a5b1eba9238d18ed82a9057", "is_disabled": 0, "rental_uris": {"android": "https://dc.lft.to/lastmile_qr_scan", "ios": "https://dc.lft.to/lastmile_qr_scan"}, "fusion_lon": 0.0, "lat": 38.90757216666667, "bike_id": "809410ef0a5b1eba9238d18ed82a9057", "type": "electric_scooter", "is_reserved": 0, "lon": -76.99954533333333}, {"fusion_lat": 0.0, "name": "2dfbb08581fd24726bfa2a6cd50e3dcb", "is_disabled": 0, "rental_uris": {"android": "https://dc.lft.to/lastmile_qr_scan", "ios": "https://dc.lft.to/lastmile_qr_scan"}, "fusion_lon": 0.0, "lat": 38.879355333333336, "bike_id": "2dfbb08581fd24726bfa2a6cd50e3dcb", "type": "electric_scooter", "is_reserved": 0, "lon": -77.0042115}, {"fusion_lat": 0.0, "name": "e5bdcce1e686aada8fbda15878c769a5", "is_disabled": 0, "rental_uris": {"android": "https://dc.lft.to/lastmile_qr_scan", "ios": "https://dc.lft.to/lastmile_qr_scan"}, "fusion_lon": 0.0, "lat": 38.89260483333333, "bike_id": "e5bdcce1e686aada8fbda15878c769a5", "type": "electric_bike", "is_reserved": 0, "lon": -76.95123966666667}, {"fusion_lat": 0.0, "name": "c45de232dafbb37974d75514f94e93d1", "is_disabled": 0, "rental_uris": {"android": "https://dc.lft.to/lastmile_qr_scan", "ios": "https://dc.lft.to/lastmile_qr_scan"}, "fusion_lon": 0.0, "lat": 38.934997, "bike_id": "c45de232dafbb37974d75514f94e93d1", "type": "electric_scooter", "is_reserved": 0, "lon": -77.07345883333333}, {"fusion_lat": 0.0, "name": "3f5ce56c9ec8223f9f51fcf37fcae201", "is_disabled": 0, "rental_uris": {"android": "https://dc.lft.to/lastmile_qr_scan", "ios": "https://dc.lft.to/lastmile_qr_scan"}, "fusion_lon": 0.0, "lat": 38.896262666666665, "bike_id": "3f5ce56c9ec8223f9f51fcf37fcae201", "type": "electric_scooter", "is_reserved": 0, "lon": -77.02205283333333}, {"fusion_lat": 0.0, "name": "ad392832788df1a69d82974e9c6014d9", "is_disabled": 0, "rental_uris": {"android": "https://dc.lft.to/lastmile_qr_scan", "ios": "https://dc.lft.to/lastmile_qr_scan"}, "fusion_lon": 0.0, "lat": 38.929768, "bike_id": "ad392832788df1a69d82974e9c6014d9", "type": "electric_scooter", "is_reserved": 0, "lon": -77.04192366666666}, {"fusion_lat": 0.0, "name": "2a9344de46bfabb2ad380b5c6be74c02", "is_disabled": 0, "rental_uris": {"android": "https://dc.lft.to/lastmile_qr_scan", "ios": "https://dc.lft.to/lastmile_qr_scan"}, "fusion_lon": 0.0, "lat": 38.90639216666667, "bike_id": "2a9344de46bfabb2ad380b5c6be74c02", "type": "electric_scooter", "is_reserved": 0, "lon": -77.06922416666667}, {"fusion_lat": 0.0, "name": "50364fa866bcc3c8d4a58159172b6a28", "is_disabled": 0, "rental_uris": {"android": "https://dc.lft.to/lastmile_qr_scan", "ios": "https://dc.lft.to/lastmile_qr_scan"}, "fusion_lon": 0.0, "lat": 38.952438666666666, "bike_id": "50364fa866bcc3c8d4a58159172b6a28", "type": "electric_scooter", "is_reserved": 0, "lon": -77.02379716666667}, {"fusion_lat": 0.0, "name": "6a19865f57137beaa6b7a1a0f10d1bfc", "is_disabled": 0, "rental_uris": {"android": "https://dc.lft.to/lastmile_qr_scan", "ios": "https://dc.lft.to/lastmile_qr_scan"}, "fusion_lon": 0.0, "lat": 38.9287225, "bike_id": "6a19865f57137beaa6b7a1a0f10d1bfc", "type": "electric_scooter", "is_reserved": 0, "lon": -77.03275966666666}, {"fusion_lat": 0.0, "name": "c0051b7b579aa08464d81e25929b6f2e", "is_disabled": 0, "rental_uris": {"android": "https://dc.lft.to/lastmile_qr_scan", "ios": "https://dc.lft.to/lastmile_qr_scan"}, "fusion_lon": 0.0, "lat": 38.8765125, "bike_id": "c0051b7b579aa08464d81e25929b6f2e", "type": "electric_scooter", "is_reserved": 0, "lon": -77.00722666666667}, {"fusion_lat": 0.0, "name": "9aa5bb0697452ee8d520ebd3287d4cbf", "is_disabled": 0, "rental_uris": {"android": "https://dc.lft.to/lastmile_qr_scan", "ios": "https://dc.lft.to/lastmile_qr_scan"}, "fusion_lon": 0.0, "lat": 38.865164666666665, "bike_id": "9aa5bb0697452ee8d520ebd3287d4cbf", "type": "electric_bike", "is_reserved": 0, "lon": -76.97339333333333}, {"fusion_lat": 0.0, "name": "e552977e03145ea3cce98ca3f3f6a029", "is_disabled": 0, "rental_uris": {"android": "https://dc.lft.to/lastmile_qr_scan", "ios": "https://dc.lft.to/lastmile_qr_scan"}, "fusion_lon": 0.0, "lat": 38.87703583333333, "bike_id": "e552977e03145ea3cce98ca3f3f6a029", "type": "electric_scooter", "is_reserved": 0, "lon": -77.00733816666667}, {"fusion_lat": 0.0, "name": "334c5f7bafab30c65718fc584d317712", "is_disabled": 0, "rental_uris": {"android": "https://dc.lft.to/lastmile_qr_scan", "ios": "https://dc.lft.to/lastmile_qr_scan"}, "fusion_lon": 0.0, "lat": 38.9692875, "bike_id": "334c5f7bafab30c65718fc584d317712", "type": "electric_bike", "is_reserved": 0, "lon": -77.02619983333334}, {"fusion_lat": 0.0, "name": "9b22037994583c4050555a3fa6891549", "is_disabled": 0, "rental_uris": {"android": "https://dc.lft.to/lastmile_qr_scan", "ios": "https://dc.lft.to/lastmile_qr_scan"}, "fusion_lon": 0.0, "lat": 38.849132, "bike_id": "9b22037994583c4050555a3fa6891549", "type": "electric_bike", "is_reserved": 0, "lon": -77.09980966666667}, {"fusion_lat": 0.0, "name": "96a0027409d689f669c19b6532f13dc8", "is_disabled": 0, "rental_uris": {"android": "https://dc.lft.to/lastmile_qr_scan", "ios": "https://dc.lft.to/lastmile_qr_scan"}, "fusion_lon": 0.0, "lat": 38.903794166666664, "bike_id": "96a0027409d689f669c19b6532f13dc8", "type": "electric_scooter", "is_reserved": 0, "lon": -77.0331375}, {"fusion_lat": 0.0, "name": "84cfe46b3f39864fe4213216e7d3e6a1", "is_disabled": 0, "rental_uris": {"android": "https://dc.lft.to/lastmile_qr_scan", "ios": "https://dc.lft.to/lastmile_qr_scan"}, "fusion_lon": 0.0, "lat": 38.928087, "bike_id": "84cfe46b3f39864fe4213216e7d3e6a1", "type": "electric_scooter", "is_reserved": 0, "lon": -77.04361083333333}, {"fusion_lat": 0.0, "name": "b9b8009151714afc231f3ba3a833d6b1", "is_disabled": 0, "rental_uris": {"android": "https://dc.lft.to/lastmile_qr_scan", "ios": "https://dc.lft.to/lastmile_qr_scan"}, "fusion_lon": 0.0, "lat": 38.911177, "bike_id": "b9b8009151714afc231f3ba3a833d6b1", "type": "electric_scooter", "is_reserved": 0, "lon": -77.032848}, {"fusion_lat": 0.0, "name": "c4fc66db709e5d3f40c3aeace96667b3", "is_disabled": 0, "rental_uris": {"android": "https://dc.lft.to/lastmile_qr_scan", "ios": "https://dc.lft.to/lastmile_qr_scan"}, "fusion_lon": 0.0, "lat": 38.93881483333333, "bike_id": "c4fc66db709e5d3f40c3aeace96667b3", "type": "electric_scooter", "is_reserved": 0, "lon": -77.03285583333333}, {"fusion_lat": 0.0, "name": "448b4cc1595ad70113f2d69e24867c01", "is_disabled": 0, "rental_uris": {"android": "https://dc.lft.to/lastmile_qr_scan", "ios": "https://dc.lft.to/lastmile_qr_scan"}, "fusion_lon": 0.0, "lat": 38.91326633333333, "bike_id": "448b4cc1595ad70113f2d69e24867c01", "type": "electric_scooter", "is_reserved": 0, "lon": -77.02141133333333}, {"fusion_lat": 0.0, "name": "fd45fc494e9142a547933654cd59f844", "is_disabled": 0, "rental_uris": {"android": "https://dc.lft.to/lastmile_qr_scan", "ios": "https://dc.lft.to/lastmile_qr_scan"}, "fusion_lon": 0.0, "lat": 38.928092, "bike_id": "fd45fc494e9142a547933654cd59f844", "type": "electric_scooter", "is_reserved": 0, "lon": -77.0360345}, {"fusion_lat": 0.0, "name": "f48a3664d8e38a3a5f8487d7f8c41254", "is_disabled": 0, "rental_uris": {"android": "https://dc.lft.to/lastmile_qr_scan", "ios": "https://dc.lft.to/lastmile_qr_scan"}, "fusion_lon": 0.0, "lat": 38.91811283333333, "bike_id": "f48a3664d8e38a3a5f8487d7f8c41254", "type": "electric_scooter", "is_reserved": 0, "lon": -77.03313833333333}, {"fusion_lat": 0.0, "name": "9366562e76913940134ac71a7eacfafb", "is_disabled": 0, "rental_uris": {"android": "https://dc.lft.to/lastmile_qr_scan", "ios": "https://dc.lft.to/lastmile_qr_scan"}, "fusion_lon": 0.0, "lat": 38.879669, "bike_id": "9366562e76913940134ac71a7eacfafb", "type": "electric_bike", "is_reserved": 0, "lon": -76.9161795}, {"fusion_lat": 0.0, "name": "734b76b59db6789bc6d904c5d0a6de21", "is_disabled": 0, "rental_uris": {"android": "https://dc.lft.to/lastmile_qr_scan", "ios": "https://dc.lft.to/lastmile_qr_scan"}, "fusion_lon": 0.0, "lat": 38.9242135, "bike_id": "734b76b59db6789bc6d904c5d0a6de21", "type": "electric_scooter", "is_reserved": 0, "lon": -77.01953583333334}, {"fusion_lat": 0.0, "name": "07800e87eecc90c150c00c5893779188", "is_disabled": 0, "rental_uris": {"android": "https://dc.lft.to/lastmile_qr_scan", "ios": "https://dc.lft.to/lastmile_qr_scan"}, "fusion_lon": 0.0, "lat": 38.91552033333333, "bike_id": "07800e87eecc90c150c00c5893779188", "type": "electric_scooter", "is_reserved": 0, "lon": -77.03177}, {"fusion_lat": 0.0, "name": "a81da14d30a24a51806cedbd886eba2c", "is_disabled": 0, "rental_uris": {"android": "https://dc.lft.to/lastmile_qr_scan", "ios": "https://dc.lft.to/lastmile_qr_scan"}, "fusion_lon": 0.0, "lat": 38.9002655, "bike_id": "a81da14d30a24a51806cedbd886eba2c", "type": "electric_scooter", "is_reserved": 0, "lon": -76.99449683333333}, {"fusion_lat": 0.0, "name": "823976f34fdaeeb78c9a2350e39dd89f", "is_disabled": 0, "rental_uris": {"android": "https://dc.lft.to/lastmile_qr_scan", "ios": "https://dc.lft.to/lastmile_qr_scan"}, "fusion_lon": 0.0, "lat": 38.921077833333335, "bike_id": "823976f34fdaeeb78c9a2350e39dd89f", "type": "electric_scooter", "is_reserved": 0, "lon": -77.04219333333333}, {"fusion_lat": 0.0, "name": "b2a989de0304cbc1ea724a8d0eee85ba", "is_disabled": 0, "rental_uris": {"android": "https://dc.lft.to/lastmile_qr_scan", "ios": "https://dc.lft.to/lastmile_qr_scan"}, "fusion_lon": 0.0, "lat": 38.897289, "bike_id": "b2a989de0304cbc1ea724a8d0eee85ba", "type": "electric_scooter", "is_reserved": 0, "lon": -76.94702616666666}, {"fusion_lat": 0.0, "name": "33a766d2c5968a48763f821ee3827855", "is_disabled": 0, "rental_uris": {"android": "https://dc.lft.to/lastmile_qr_scan", "ios": "https://dc.lft.to/lastmile_qr_scan"}, "fusion_lon": 0.0, "lat": 38.90086066666667, "bike_id": "33a766d2c5968a48763f821ee3827855", "type": "electric_bike", "is_reserved": 0, "lon": -77.04918083333334}, {"fusion_lat": 0.0, "name": "b1fa3c54ff58937097113e0dcc3334c8", "is_disabled": 0, "rental_uris": {"android": "https://dc.lft.to/lastmile_qr_scan", "ios": "https://dc.lft.to/lastmile_qr_scan"}, "fusion_lon": 0.0, "lat": 38.908541666666665, "bike_id": "b1fa3c54ff58937097113e0dcc3334c8", "type": "electric_scooter", "is_reserved": 0, "lon": -77.06390216666667}, {"fusion_lat": 0.0, "name": "1cfb97cf5dc02b91fd25255f0af22431", "is_disabled": 0, "rental_uris": {"android": "https://dc.lft.to/lastmile_qr_scan", "ios": "https://dc.lft.to/lastmile_qr_scan"}, "fusion_lon": 0.0, "lat": 38.960673666666665, "bike_id": "1cfb97cf5dc02b91fd25255f0af22431", "type": "electric_scooter", "is_reserved": 0, "lon": -77.00106716666667}, {"fusion_lat": 0.0, "name": "c04ec1f031c773fd8a061fb60401c55c", "is_disabled": 0, "rental_uris": {"android": "https://dc.lft.to/lastmile_qr_scan", "ios": "https://dc.lft.to/lastmile_qr_scan"}, "fusion_lon": 0.0, "lat": 38.884776, "bike_id": "c04ec1f031c773fd8a061fb60401c55c", "type": "electric_scooter", "is_reserved": 0, "lon": -77.023742}, {"fusion_lat": 0.0, "name": "1da827e9b00ab1e7367812d8b179e03b", "is_disabled": 0, "rental_uris": {"android": "https://dc.lft.to/lastmile_qr_scan", "ios": "https://dc.lft.to/lastmile_qr_scan"}, "fusion_lon": 0.0, "lat": 38.894520666666665, "bike_id": "1da827e9b00ab1e7367812d8b179e03b", "type": "electric_scooter", "is_reserved": 0, "lon": -77.04547116666667}, {"fusion_lat": 0.0, "name": "5c58d57f71c31d61fe1ef5d715956054", "is_disabled": 0, "rental_uris": {"android": "https://dc.lft.to/lastmile_qr_scan", "ios": "https://dc.lft.to/lastmile_qr_scan"}, "fusion_lon": 0.0, "lat": 38.897288, "bike_id": "5c58d57f71c31d61fe1ef5d715956054", "type": "electric_scooter", "is_reserved": 0, "lon": -77.055238}, {"fusion_lat": 0.0, "name": "09341869bd3396db9a476c2cc0d6b4af", "is_disabled": 0, "rental_uris": {"android": "https://dc.lft.to/lastmile_qr_scan", "ios": "https://dc.lft.to/lastmile_qr_scan"}, "fusion_lon": 0.0, "lat": 38.9052525, "bike_id": "09341869bd3396db9a476c2cc0d6b4af", "type": "electric_scooter", "is_reserved": 0, "lon": -77.06382416666666}, {"fusion_lat": 0.0, "name": "4d7b9ad08b805c34f6b5ff0fc6c27d42", "is_disabled": 0, "rental_uris": {"android": "https://dc.lft.to/lastmile_qr_scan", "ios": "https://dc.lft.to/lastmile_qr_scan"}, "fusion_lon": 0.0, "lat": 38.90362433333333, "bike_id": "4d7b9ad08b805c34f6b5ff0fc6c27d42", "type": "electric_scooter", "is_reserved": 0, "lon": -77.0610235}, {"fusion_lat": 0.0, "name": "1b8dfecc559afd1688f2ea1227a73f16", "is_disabled": 0, "rental_uris": {"android": "https://dc.lft.to/lastmile_qr_scan", "ios": "https://dc.lft.to/lastmile_qr_scan"}, "fusion_lon": 0.0, "lat": 38.89858366666667, "bike_id": "1b8dfecc559afd1688f2ea1227a73f16", "type": "electric_scooter", "is_reserved": 0, "lon": -77.02635566666666}, {"fusion_lat": 0.0, "name": "b75cba1e9ff87839d542a72f7ed3bafd", "is_disabled": 0, "rental_uris": {"android": "https://dc.lft.to/lastmile_qr_scan", "ios": "https://dc.lft.to/lastmile_qr_scan"}, "fusion_lon": 0.0, "lat": 38.8922385, "bike_id": "b75cba1e9ff87839d542a72f7ed3bafd", "type": "electric_scooter", "is_reserved": 0, "lon": -77.04692183333333}, {"fusion_lat": 0.0, "name": "fd065832d5b737aaaa51ca1eeae53a97", "is_disabled": 0, "rental_uris": {"android": "https://dc.lft.to/lastmile_qr_scan", "ios": "https://dc.lft.to/lastmile_qr_scan"}, "fusion_lon": 0.0, "lat": 38.857668, "bike_id": "fd065832d5b737aaaa51ca1eeae53a97", "type": "electric_bike", "is_reserved": 0, "lon": -76.98769466666667}, {"fusion_lat": 0.0, "name": "88539afba937a63585a0da77a882e91a", "is_disabled": 0, "rental_uris": {"android": "https://dc.lft.to/lastmile_qr_scan", "ios": "https://dc.lft.to/lastmile_qr_scan"}, "fusion_lon": 0.0, "lat": 38.88382883333333, "bike_id": "88539afba937a63585a0da77a882e91a", "type": "electric_scooter", "is_reserved": 0, "lon": -76.930474}, {"fusion_lat": 0.0, "name": "ddc810c8564c4d3a3e25289ec96943aa", "is_disabled": 0, "rental_uris": {"android": "https://dc.lft.to/lastmile_qr_scan", "ios": "https://dc.lft.to/lastmile_qr_scan"}, "fusion_lon": 0.0, "lat": 38.89784383333333, "bike_id": "ddc810c8564c4d3a3e25289ec96943aa", "type": "electric_scooter", "is_reserved": 0, "lon": -77.0220285}, {"fusion_lat": 0.0, "name": "0c8d5a43ccec4e3db7f2d207889311dd", "is_disabled": 0, "rental_uris": {"android": "https://dc.lft.to/lastmile_qr_scan", "ios": "https://dc.lft.to/lastmile_qr_scan"}, "fusion_lon": 0.0, "lat": 38.940878166666664, "bike_id": "0c8d5a43ccec4e3db7f2d207889311dd", "type": "electric_scooter", "is_reserved": 0, "lon": -77.0619035}, {"fusion_lat": 0.0, "name": "5fd28e42f3e8743182f12e5c4080019e", "is_disabled": 0, "rental_uris": {"android": "https://dc.lft.to/lastmile_qr_scan", "ios": "https://dc.lft.to/lastmile_qr_scan"}, "fusion_lon": 0.0, "lat": 38.953591, "bike_id": "5fd28e42f3e8743182f12e5c4080019e", "type": "electric_bike", "is_reserved": 0, "lon": -76.980993}, {"fusion_lat": 0.0, "name": "d4d9d4d506908eff579779c85abc6566", "is_disabled": 0, "rental_uris": {"android": "https://dc.lft.to/lastmile_qr_scan", "ios": "https://dc.lft.to/lastmile_qr_scan"}, "fusion_lon": 0.0, "lat": 38.905152333333334, "bike_id": "d4d9d4d506908eff579779c85abc6566", "type": "electric_scooter", "is_reserved": 0, "lon": -77.0678895}, {"fusion_lat": 0.0, "name": "84fe61ea9f837032b19e18b8a7108b6d", "is_disabled": 0, "rental_uris": {"android": "https://dc.lft.to/lastmile_qr_scan", "ios": "https://dc.lft.to/lastmile_qr_scan"}, "fusion_lon": 0.0, "lat": 38.92489366666667, "bike_id": "84fe61ea9f837032b19e18b8a7108b6d", "type": "electric_bike", "is_reserved": 0, "lon": -77.233579}, {"fusion_lat": 0.0, "name": "9459072da7a734a5776ec779277dcdde", "is_disabled": 0, "rental_uris": {"android": "https://dc.lft.to/lastmile_qr_scan", "ios": "https://dc.lft.to/lastmile_qr_scan"}, "fusion_lon": 0.0, "lat": 38.931193666666665, "bike_id": "9459072da7a734a5776ec779277dcdde", "type": "electric_scooter", "is_reserved": 0, "lon": -77.02090166666666}, {"fusion_lat": 0.0, "name": "8ebc9999e9f5f949b9f298777fde7a4c", "is_disabled": 0, "rental_uris": {"android": "https://dc.lft.to/lastmile_qr_scan", "ios": "https://dc.lft.to/lastmile_qr_scan"}, "fusion_lon": 0.0, "lat": 38.93966016666667, "bike_id": "8ebc9999e9f5f949b9f298777fde7a4c", "type": "electric_scooter", "is_reserved": 0, "lon": -77.03287416666667}, {"fusion_lat": 0.0, "name": "d8fc56c0b16bf4cea00ccc19f59f1bf9", "is_disabled": 0, "rental_uris": {"android": "https://dc.lft.to/lastmile_qr_scan", "ios": "https://dc.lft.to/lastmile_qr_scan"}, "fusion_lon": 0.0, "lat": 38.932587166666664, "bike_id": "d8fc56c0b16bf4cea00ccc19f59f1bf9", "type": "electric_scooter", "is_reserved": 0, "lon": -77.019164}, {"fusion_lat": 0.0, "name": "0d7497cdc059691b7b697d98c1c87775", "is_disabled": 0, "rental_uris": {"android": "https://dc.lft.to/lastmile_qr_scan", "ios": "https://dc.lft.to/lastmile_qr_scan"}, "fusion_lon": 0.0, "lat": 38.8966945, "bike_id": "0d7497cdc059691b7b697d98c1c87775", "type": "electric_scooter", "is_reserved": 0, "lon": -76.93210366666666}, {"fusion_lat": 0.0, "name": "3bcc70ff70adf91f4e4ff5dac69126e7", "is_disabled": 0, "rental_uris": {"android": "https://dc.lft.to/lastmile_qr_scan", "ios": "https://dc.lft.to/lastmile_qr_scan"}, "fusion_lon": 0.0, "lat": 38.902673, "bike_id": "3bcc70ff70adf91f4e4ff5dac69126e7", "type": "electric_scooter", "is_reserved": 0, "lon": -77.027263}, {"fusion_lat": 0.0, "name": "80b35cae7c9a3b175c189cd481a2ffd6", "is_disabled": 0, "rental_uris": {"android": "https://dc.lft.to/lastmile_qr_scan", "ios": "https://dc.lft.to/lastmile_qr_scan"}, "fusion_lon": 0.0, "lat": 38.934874, "bike_id": "80b35cae7c9a3b175c189cd481a2ffd6", "type": "electric_scooter", "is_reserved": 0, "lon": -77.0454}, {"fusion_lat": 0.0, "name": "adfc5f16561ac02440f643b91c3df733", "is_disabled": 0, "rental_uris": {"android": "https://dc.lft.to/lastmile_qr_scan", "ios": "https://dc.lft.to/lastmile_qr_scan"}, "fusion_lon": 0.0, "lat": 38.88224733333333, "bike_id": "adfc5f16561ac02440f643b91c3df733", "type": "electric_scooter", "is_reserved": 0, "lon": -77.04149966666667}, {"fusion_lat": 0.0, "name": "76d4ad1ed56a88df2abc7ae5ca55b508", "is_disabled": 0, "rental_uris": {"android": "https://dc.lft.to/lastmile_qr_scan", "ios": "https://dc.lft.to/lastmile_qr_scan"}, "fusion_lon": 0.0, "lat": 38.90930633333333, "bike_id": "76d4ad1ed56a88df2abc7ae5ca55b508", "type": "electric_scooter", "is_reserved": 0, "lon": -77.062767}, {"fusion_lat": 0.0, "name": "b7a623deb2f83dc6877d48d81d3141ae", "is_disabled": 0, "rental_uris": {"android": "https://dc.lft.to/lastmile_qr_scan", "ios": "https://dc.lft.to/lastmile_qr_scan"}, "fusion_lon": 0.0, "lat": 38.923186, "bike_id": "b7a623deb2f83dc6877d48d81d3141ae", "type": "electric_scooter", "is_reserved": 0, "lon": -77.057914}, {"fusion_lat": 0.0, "name": "762e05f8244dcd3843006d06ab3b3fce", "is_disabled": 0, "rental_uris": {"android": "https://dc.lft.to/lastmile_qr_scan", "ios": "https://dc.lft.to/lastmile_qr_scan"}, "fusion_lon": 0.0, "lat": 38.92701616666667, "bike_id": "762e05f8244dcd3843006d06ab3b3fce", "type": "electric_scooter", "is_reserved": 0, "lon": -77.02073933333334}, {"fusion_lat": 0.0, "name": "1bc7a1aabb3dec40a63edd15ba64804f", "is_disabled": 0, "rental_uris": {"android": "https://dc.lft.to/lastmile_qr_scan", "ios": "https://dc.lft.to/lastmile_qr_scan"}, "fusion_lon": 0.0, "lat": 38.934485333333335, "bike_id": "1bc7a1aabb3dec40a63edd15ba64804f", "type": "electric_scooter", "is_reserved": 0, "lon": -77.03876266666667}, {"fusion_lat": 0.0, "name": "3afa82845ea021c8fdadfbc2b7b40d7d", "is_disabled": 0, "rental_uris": {"android": "https://dc.lft.to/lastmile_qr_scan", "ios": "https://dc.lft.to/lastmile_qr_scan"}, "fusion_lon": 0.0, "lat": 38.9165325, "bike_id": "3afa82845ea021c8fdadfbc2b7b40d7d", "type": "electric_scooter", "is_reserved": 0, "lon": -77.0320765}, {"fusion_lat": 0.0, "name": "193a5a23c8cd2d51aa20c35a11a6fcf3", "is_disabled": 0, "rental_uris": {"android": "https://dc.lft.to/lastmile_qr_scan", "ios": "https://dc.lft.to/lastmile_qr_scan"}, "fusion_lon": 0.0, "lat": 38.89259033333333, "bike_id": "193a5a23c8cd2d51aa20c35a11a6fcf3", "type": "electric_scooter", "is_reserved": 0, "lon": -77.05029883333333}, {"fusion_lat": 0.0, "name": "88fe4128386d163488791eb35772a9f3", "is_disabled": 0, "rental_uris": {"android": "https://dc.lft.to/lastmile_qr_scan", "ios": "https://dc.lft.to/lastmile_qr_scan"}, "fusion_lon": 0.0, "lat": 38.916641166666665, "bike_id": "88fe4128386d163488791eb35772a9f3", "type": "electric_scooter", "is_reserved": 0, "lon": -77.03854016666666}, {"fusion_lat": 0.0, "name": "66067ffec8f72ea1da247210964d2144", "is_disabled": 0, "rental_uris": {"android": "https://dc.lft.to/lastmile_qr_scan", "ios": "https://dc.lft.to/lastmile_qr_scan"}, "fusion_lon": 0.0, "lat": 38.93059683333333, "bike_id": "66067ffec8f72ea1da247210964d2144", "type": "electric_scooter", "is_reserved": 0, "lon": -77.031901}, {"fusion_lat": 0.0, "name": "418eb4fea69238a8e7891ca67a3f0296", "is_disabled": 0, "rental_uris": {"android": "https://dc.lft.to/lastmile_qr_scan", "ios": "https://dc.lft.to/lastmile_qr_scan"}, "fusion_lon": 0.0, "lat": 38.88709333333333, "bike_id": "418eb4fea69238a8e7891ca67a3f0296", "type": "electric_scooter", "is_reserved": 0, "lon": -76.99674366666666}, {"fusion_lat": 0.0, "name": "50d5666605905872260d3611d00cc9bb", "is_disabled": 0, "rental_uris": {"android": "https://dc.lft.to/lastmile_qr_scan", "ios": "https://dc.lft.to/lastmile_qr_scan"}, "fusion_lon": 0.0, "lat": 38.91400216666667, "bike_id": "50d5666605905872260d3611d00cc9bb", "type": "electric_scooter", "is_reserved": 0, "lon": -77.03184116666667}, {"fusion_lat": 0.0, "name": "5887087238a15d4d196aba2c91f86e6c", "is_disabled": 0, "rental_uris": {"android": "https://dc.lft.to/lastmile_qr_scan", "ios": "https://dc.lft.to/lastmile_qr_scan"}, "fusion_lon": 0.0, "lat": 38.902299, "bike_id": "5887087238a15d4d196aba2c91f86e6c", "type": "electric_scooter", "is_reserved": 0, "lon": -77.03476216666667}, {"fusion_lat": 0.0, "name": "b7e3954630ac5859329a30616ce6b1b8", "is_disabled": 0, "rental_uris": {"android": "https://dc.lft.to/lastmile_qr_scan", "ios": "https://dc.lft.to/lastmile_qr_scan"}, "fusion_lon": 0.0, "lat": 38.90658066666667, "bike_id": "b7e3954630ac5859329a30616ce6b1b8", "type": "electric_bike", "is_reserved": 0, "lon": -77.00921416666667}, {"fusion_lat": 0.0, "name": "019627606568e46380f8d903e65f7376", "is_disabled": 0, "rental_uris": {"android": "https://dc.lft.to/lastmile_qr_scan", "ios": "https://dc.lft.to/lastmile_qr_scan"}, "fusion_lon": 0.0, "lat": 38.9075135, "bike_id": "019627606568e46380f8d903e65f7376", "type": "electric_scooter", "is_reserved": 0, "lon": -77.00759683333334}, {"fusion_lat": 0.0, "name": "d4fb244abc8dec2ccba0c7ea4be613d6", "is_disabled": 0, "rental_uris": {"android": "https://dc.lft.to/lastmile_qr_scan", "ios": "https://dc.lft.to/lastmile_qr_scan"}, "fusion_lon": 0.0, "lat": 38.90686016666667, "bike_id": "d4fb244abc8dec2ccba0c7ea4be613d6", "type": "electric_scooter", "is_reserved": 0, "lon": -77.027233}, {"fusion_lat": 0.0, "name": "941a6c6d0528b1e8f5f7ef6e44018ff0", "is_disabled": 0, "rental_uris": {"android": "https://dc.lft.to/lastmile_qr_scan", "ios": "https://dc.lft.to/lastmile_qr_scan"}, "fusion_lon": 0.0, "lat": 38.9192485, "bike_id": "941a6c6d0528b1e8f5f7ef6e44018ff0", "type": "electric_scooter", "is_reserved": 0, "lon": -77.0318415}, {"fusion_lat": 0.0, "name": "7e222923f2fc0c624e5672572c292309", "is_disabled": 0, "rental_uris": {"android": "https://dc.lft.to/lastmile_qr_scan", "ios": "https://dc.lft.to/lastmile_qr_scan"}, "fusion_lon": 0.0, "lat": 38.900634333333336, "bike_id": "7e222923f2fc0c624e5672572c292309", "type": "electric_scooter", "is_reserved": 0, "lon": -77.01381566666667}, {"fusion_lat": 0.0, "name": "6c1bf9b13d57ad22bd0f95e1b5e601bc", "is_disabled": 0, "rental_uris": {"android": "https://dc.lft.to/lastmile_qr_scan", "ios": "https://dc.lft.to/lastmile_qr_scan"}, "fusion_lon": 0.0, "lat": 38.941200333333335, "bike_id": "6c1bf9b13d57ad22bd0f95e1b5e601bc", "type": "electric_bike", "is_reserved": 0, "lon": -76.9903145}, {"fusion_lat": 0.0, "name": "516a69022e07513e8be20470ca4c282d", "is_disabled": 0, "rental_uris": {"android": "https://dc.lft.to/lastmile_qr_scan", "ios": "https://dc.lft.to/lastmile_qr_scan"}, "fusion_lon": 0.0, "lat": 38.93388066666667, "bike_id": "516a69022e07513e8be20470ca4c282d", "type": "electric_scooter", "is_reserved": 0, "lon": -77.02417533333333}, {"fusion_lat": 0.0, "name": "1820c9d960890d3736eee713320da45e", "is_disabled": 0, "rental_uris": {"android": "https://dc.lft.to/lastmile_qr_scan", "ios": "https://dc.lft.to/lastmile_qr_scan"}, "fusion_lon": 0.0, "lat": 38.88437166666667, "bike_id": "1820c9d960890d3736eee713320da45e", "type": "electric_scooter", "is_reserved": 0, "lon": -77.0255245}, {"fusion_lat": 0.0, "name": "30a631ad8af5a5eee45bcfb0ad9a34f4", "is_disabled": 0, "rental_uris": {"android": "https://dc.lft.to/lastmile_qr_scan", "ios": "https://dc.lft.to/lastmile_qr_scan"}, "fusion_lon": 0.0, "lat": 38.914544166666666, "bike_id": "30a631ad8af5a5eee45bcfb0ad9a34f4", "type": "electric_scooter", "is_reserved": 0, "lon": -77.07222733333333}, {"fusion_lat": 0.0, "name": "a7424d822d450daa048700ec9f293d54", "is_disabled": 0, "rental_uris": {"android": "https://dc.lft.to/lastmile_qr_scan", "ios": "https://dc.lft.to/lastmile_qr_scan"}, "fusion_lon": 0.0, "lat": 38.873723166666664, "bike_id": "a7424d822d450daa048700ec9f293d54", "type": "electric_scooter", "is_reserved": 0, "lon": -77.00035416666667}, {"fusion_lat": 0.0, "name": "bb31fb66789e37e7f905fb42883567b0", "is_disabled": 0, "rental_uris": {"android": "https://dc.lft.to/lastmile_qr_scan", "ios": "https://dc.lft.to/lastmile_qr_scan"}, "fusion_lon": 0.0, "lat": 38.9155445, "bike_id": "bb31fb66789e37e7f905fb42883567b0", "type": "electric_scooter", "is_reserved": 0, "lon": -77.03172833333333}, {"fusion_lat": 0.0, "name": "9c7a1e1be21bac2b413992dc14ee93b3", "is_disabled": 0, "rental_uris": {"android": "https://dc.lft.to/lastmile_qr_scan", "ios": "https://dc.lft.to/lastmile_qr_scan"}, "fusion_lon": 0.0, "lat": 38.90065766666667, "bike_id": "9c7a1e1be21bac2b413992dc14ee93b3", "type": "electric_scooter", "is_reserved": 0, "lon": -76.9274755}, {"fusion_lat": 0.0, "name": "df99f4464fdffb93b5b96ac15cff50fa", "is_disabled": 0, "rental_uris": {"android": "https://dc.lft.to/lastmile_qr_scan", "ios": "https://dc.lft.to/lastmile_qr_scan"}, "fusion_lon": 0.0, "lat": 38.906136833333335, "bike_id": "df99f4464fdffb93b5b96ac15cff50fa", "type": "electric_scooter", "is_reserved": 0, "lon": -77.06305583333334}, {"fusion_lat": 0.0, "name": "18f821d93bde62ec3236cd84ba179c5a", "is_disabled": 0, "rental_uris": {"android": "https://dc.lft.to/lastmile_qr_scan", "ios": "https://dc.lft.to/lastmile_qr_scan"}, "fusion_lon": 0.0, "lat": 38.87664316666667, "bike_id": "18f821d93bde62ec3236cd84ba179c5a", "type": "electric_scooter", "is_reserved": 0, "lon": -76.99627616666666}, {"fusion_lat": 0.0, "name": "f0511fe71184d876245cc591413d2428", "is_disabled": 0, "rental_uris": {"android": "https://dc.lft.to/lastmile_qr_scan", "ios": "https://dc.lft.to/lastmile_qr_scan"}, "fusion_lon": 0.0, "lat": 38.92472466666667, "bike_id": "f0511fe71184d876245cc591413d2428", "type": "electric_scooter", "is_reserved": 0, "lon": -77.03921783333334}, {"fusion_lat": 0.0, "name": "682b7a81c5fd748e4f38996779685db3", "is_disabled": 0, "rental_uris": {"android": "https://dc.lft.to/lastmile_qr_scan", "ios": "https://dc.lft.to/lastmile_qr_scan"}, "fusion_lon": 0.0, "lat": 38.92222316666667, "bike_id": "682b7a81c5fd748e4f38996779685db3", "type": "electric_scooter", "is_reserved": 0, "lon": -77.03792616666667}, {"fusion_lat": 0.0, "name": "01976a9b1db901b83cc25595f234a11d", "is_disabled": 0, "rental_uris": {"android": "https://dc.lft.to/lastmile_qr_scan", "ios": "https://dc.lft.to/lastmile_qr_scan"}, "fusion_lon": 0.0, "lat": 38.91059416666667, "bike_id": "01976a9b1db901b83cc25595f234a11d", "type": "electric_scooter", "is_reserved": 0, "lon": -77.0651495}, {"fusion_lat": 0.0, "name": "134ee04135712a60fee46f4c66c02307", "is_disabled": 0, "rental_uris": {"android": "https://dc.lft.to/lastmile_qr_scan", "ios": "https://dc.lft.to/lastmile_qr_scan"}, "fusion_lon": 0.0, "lat": 38.9163195, "bike_id": "134ee04135712a60fee46f4c66c02307", "type": "electric_scooter", "is_reserved": 0, "lon": -77.02245383333333}, {"fusion_lat": 0.0, "name": "5b97ef44ba835e58a578fc72a0be1ef4", "is_disabled": 0, "rental_uris": {"android": "https://dc.lft.to/lastmile_qr_scan", "ios": "https://dc.lft.to/lastmile_qr_scan"}, "fusion_lon": 0.0, "lat": 38.91607583333333, "bike_id": "5b97ef44ba835e58a578fc72a0be1ef4", "type": "electric_scooter", "is_reserved": 0, "lon": -77.0455655}, {"fusion_lat": 0.0, "name": "7ae44ec90268f7bad53539339f8934a0", "is_disabled": 0, "rental_uris": {"android": "https://dc.lft.to/lastmile_qr_scan", "ios": "https://dc.lft.to/lastmile_qr_scan"}, "fusion_lon": 0.0, "lat": 38.9232065, "bike_id": "7ae44ec90268f7bad53539339f8934a0", "type": "electric_scooter", "is_reserved": 0, "lon": -77.04382633333333}, {"fusion_lat": 0.0, "name": "49bf3957899b42e95bcf7f3e22bf444e", "is_disabled": 0, "rental_uris": {"android": "https://dc.lft.to/lastmile_qr_scan", "ios": "https://dc.lft.to/lastmile_qr_scan"}, "fusion_lon": 0.0, "lat": 38.86935966666667, "bike_id": "49bf3957899b42e95bcf7f3e22bf444e", "type": "electric_scooter", "is_reserved": 0, "lon": -77.01383216666666}, {"fusion_lat": 0.0, "name": "f01a50e6f5529c1662c857e268b1c9e2", "is_disabled": 0, "rental_uris": {"android": "https://dc.lft.to/lastmile_qr_scan", "ios": "https://dc.lft.to/lastmile_qr_scan"}, "fusion_lon": 0.0, "lat": 38.875366166666666, "bike_id": "f01a50e6f5529c1662c857e268b1c9e2", "type": "electric_scooter", "is_reserved": 0, "lon": -77.00512966666666}, {"fusion_lat": 0.0, "name": "4e4090a24eb67a02003e14bf190e5cb1", "is_disabled": 0, "rental_uris": {"android": "https://dc.lft.to/lastmile_qr_scan", "ios": "https://dc.lft.to/lastmile_qr_scan"}, "fusion_lon": 0.0, "lat": 38.8954135, "bike_id": "4e4090a24eb67a02003e14bf190e5cb1", "type": "electric_scooter", "is_reserved": 0, "lon": -76.9495025}, {"fusion_lat": 0.0, "name": "617faa5301ed44ad539a1526236b8973", "is_disabled": 0, "rental_uris": {"android": "https://dc.lft.to/lastmile_qr_scan", "ios": "https://dc.lft.to/lastmile_qr_scan"}, "fusion_lon": 0.0, "lat": 38.89677366666667, "bike_id": "617faa5301ed44ad539a1526236b8973", "type": "electric_scooter", "is_reserved": 0, "lon": -77.0509905}, {"fusion_lat": 0.0, "name": "1a71f174a58a2b005d77a62cb75ed554", "is_disabled": 0, "rental_uris": {"android": "https://dc.lft.to/lastmile_qr_scan", "ios": "https://dc.lft.to/lastmile_qr_scan"}, "fusion_lon": 0.0, "lat": 38.8766725, "bike_id": "1a71f174a58a2b005d77a62cb75ed554", "type": "electric_scooter", "is_reserved": 0, "lon": -77.00833633333333}, {"fusion_lat": 0.0, "name": "bc07e31eed02b1d747b32019cf52d626", "is_disabled": 0, "rental_uris": {"android": "https://dc.lft.to/lastmile_qr_scan", "ios": "https://dc.lft.to/lastmile_qr_scan"}, "fusion_lon": 0.0, "lat": 38.91964816666667, "bike_id": "bc07e31eed02b1d747b32019cf52d626", "type": "electric_scooter", "is_reserved": 0, "lon": -77.02406083333334}, {"fusion_lat": 0.0, "name": "4b33719acc5be07feee3a9be8d1ec44b", "is_disabled": 0, "rental_uris": {"android": "https://dc.lft.to/lastmile_qr_scan", "ios": "https://dc.lft.to/lastmile_qr_scan"}, "fusion_lon": 0.0, "lat": 38.9311905, "bike_id": "4b33719acc5be07feee3a9be8d1ec44b", "type": "electric_scooter", "is_reserved": 0, "lon": -77.03523916666667}, {"fusion_lat": 0.0, "name": "88b532560ff6dda1fc07a4822c5992e9", "is_disabled": 0, "rental_uris": {"android": "https://dc.lft.to/lastmile_qr_scan", "ios": "https://dc.lft.to/lastmile_qr_scan"}, "fusion_lon": 0.0, "lat": 38.90224033333333, "bike_id": "88b532560ff6dda1fc07a4822c5992e9", "type": "electric_scooter", "is_reserved": 0, "lon": -77.02233866666667}, {"fusion_lat": 0.0, "name": "639e577a0de079a72de756063f05de22", "is_disabled": 0, "rental_uris": {"android": "https://dc.lft.to/lastmile_qr_scan", "ios": "https://dc.lft.to/lastmile_qr_scan"}, "fusion_lon": 0.0, "lat": 38.918633666666665, "bike_id": "639e577a0de079a72de756063f05de22", "type": "electric_scooter", "is_reserved": 0, "lon": -77.04591183333334}, {"fusion_lat": 0.0, "name": "fbb09d439fb63d6e6279173f401e84c9", "is_disabled": 0, "rental_uris": {"android": "https://dc.lft.to/lastmile_qr_scan", "ios": "https://dc.lft.to/lastmile_qr_scan"}, "fusion_lon": 0.0, "lat": 38.94982566666667, "bike_id": "fbb09d439fb63d6e6279173f401e84c9", "type": "electric_scooter", "is_reserved": 0, "lon": -77.026989}, {"fusion_lat": 0.0, "name": "ab917b9ca38ef867f1eca6d56482374a", "is_disabled": 0, "rental_uris": {"android": "https://dc.lft.to/lastmile_qr_scan", "ios": "https://dc.lft.to/lastmile_qr_scan"}, "fusion_lon": 0.0, "lat": 38.911721666666665, "bike_id": "ab917b9ca38ef867f1eca6d56482374a", "type": "electric_scooter", "is_reserved": 0, "lon": -77.068636}, {"fusion_lat": 0.0, "name": "f3780871f91c64558069f6c45a0b5181", "is_disabled": 0, "rental_uris": {"android": "https://dc.lft.to/lastmile_qr_scan", "ios": "https://dc.lft.to/lastmile_qr_scan"}, "fusion_lon": 0.0, "lat": 38.93624, "bike_id": "f3780871f91c64558069f6c45a0b5181", "type": "electric_scooter", "is_reserved": 0, "lon": -77.02415483333333}, {"fusion_lat": 0.0, "name": "b16555cd9c107070907cb428c51b14fa", "is_disabled": 0, "rental_uris": {"android": "https://dc.lft.to/lastmile_qr_scan", "ios": "https://dc.lft.to/lastmile_qr_scan"}, "fusion_lon": 0.0, "lat": 38.8931065, "bike_id": "b16555cd9c107070907cb428c51b14fa", "type": "electric_scooter", "is_reserved": 0, "lon": -77.0558935}, {"fusion_lat": 0.0, "name": "fed89d164cfdfd9e79163036710661a5", "is_disabled": 0, "rental_uris": {"android": "https://dc.lft.to/lastmile_qr_scan", "ios": "https://dc.lft.to/lastmile_qr_scan"}, "fusion_lon": 0.0, "lat": 38.94493633333333, "bike_id": "fed89d164cfdfd9e79163036710661a5", "type": "electric_bike", "is_reserved": 0, "lon": -77.005509}, {"fusion_lat": 0.0, "name": "907f73414a2d9c5008cb57b526bbd0fa", "is_disabled": 0, "rental_uris": {"android": "https://dc.lft.to/lastmile_qr_scan", "ios": "https://dc.lft.to/lastmile_qr_scan"}, "fusion_lon": 0.0, "lat": 38.861405833333336, "bike_id": "907f73414a2d9c5008cb57b526bbd0fa", "type": "electric_bike", "is_reserved": 0, "lon": -76.971717}, {"fusion_lat": 0.0, "name": "d97dc9ad4b9c1aaedd80aa5cb4d3b0d3", "is_disabled": 0, "rental_uris": {"android": "https://dc.lft.to/lastmile_qr_scan", "ios": "https://dc.lft.to/lastmile_qr_scan"}, "fusion_lon": 0.0, "lat": 38.93627166666667, "bike_id": "d97dc9ad4b9c1aaedd80aa5cb4d3b0d3", "type": "electric_scooter", "is_reserved": 0, "lon": -77.07312283333333}, {"fusion_lat": 0.0, "name": "bfe753e48f7211c769270fbf4ca4e376", "is_disabled": 0, "rental_uris": {"android": "https://dc.lft.to/lastmile_qr_scan", "ios": "https://dc.lft.to/lastmile_qr_scan"}, "fusion_lon": 0.0, "lat": 38.847544166666665, "bike_id": "bfe753e48f7211c769270fbf4ca4e376", "type": "electric_scooter", "is_reserved": 0, "lon": -76.99501683333334}, {"fusion_lat": 0.0, "name": "39d9b1615c81a3c5ab09c175e1513bb1", "is_disabled": 0, "rental_uris": {"android": "https://dc.lft.to/lastmile_qr_scan", "ios": "https://dc.lft.to/lastmile_qr_scan"}, "fusion_lon": 0.0, "lat": 38.94520833333333, "bike_id": "39d9b1615c81a3c5ab09c175e1513bb1", "type": "electric_scooter", "is_reserved": 0, "lon": -77.038898}, {"fusion_lat": 0.0, "name": "8fb375d471b1771401a6c2e3241f4fea", "is_disabled": 0, "rental_uris": {"android": "https://dc.lft.to/lastmile_qr_scan", "ios": "https://dc.lft.to/lastmile_qr_scan"}, "fusion_lon": 0.0, "lat": 38.923523833333334, "bike_id": "8fb375d471b1771401a6c2e3241f4fea", "type": "electric_scooter", "is_reserved": 0, "lon": -76.992551}, {"fusion_lat": 0.0, "name": "0b5f815fa520ec1c7daa09858a991ff5", "is_disabled": 0, "rental_uris": {"android": "https://dc.lft.to/lastmile_qr_scan", "ios": "https://dc.lft.to/lastmile_qr_scan"}, "fusion_lon": 0.0, "lat": 38.90164633333333, "bike_id": "0b5f815fa520ec1c7daa09858a991ff5", "type": "electric_scooter", "is_reserved": 0, "lon": -76.99257783333333}, {"fusion_lat": 0.0, "name": "1a5660edb6389cb766e8266e073219d7", "is_disabled": 0, "rental_uris": {"android": "https://dc.lft.to/lastmile_qr_scan", "ios": "https://dc.lft.to/lastmile_qr_scan"}, "fusion_lon": 0.0, "lat": 38.887523333333334, "bike_id": "1a5660edb6389cb766e8266e073219d7", "type": "electric_scooter", "is_reserved": 0, "lon": -76.99786416666667}, {"fusion_lat": 0.0, "name": "35ec02ac112e780965a413cd3f84c24b", "is_disabled": 0, "rental_uris": {"android": "https://dc.lft.to/lastmile_qr_scan", "ios": "https://dc.lft.to/lastmile_qr_scan"}, "fusion_lon": 0.0, "lat": 38.90052716666667, "bike_id": "35ec02ac112e780965a413cd3f84c24b", "type": "electric_scooter", "is_reserved": 0, "lon": -77.04483516666667}, {"fusion_lat": 0.0, "name": "af08607b4cd2f22d44532cb7c52f74e9", "is_disabled": 0, "rental_uris": {"android": "https://dc.lft.to/lastmile_qr_scan", "ios": "https://dc.lft.to/lastmile_qr_scan"}, "fusion_lon": 0.0, "lat": 38.91118066666667, "bike_id": "af08607b4cd2f22d44532cb7c52f74e9", "type": "electric_scooter", "is_reserved": 0, "lon": -77.03833666666667}, {"fusion_lat": 0.0, "name": "99b726ab33caf9a8766a5f63fe055a1d", "is_disabled": 0, "rental_uris": {"android": "https://dc.lft.to/lastmile_qr_scan", "ios": "https://dc.lft.to/lastmile_qr_scan"}, "fusion_lon": 0.0, "lat": 38.91711333333333, "bike_id": "99b726ab33caf9a8766a5f63fe055a1d", "type": "electric_scooter", "is_reserved": 0, "lon": -77.02743233333334}, {"fusion_lat": 0.0, "name": "8b03fc38f999743ab36d3834d1b22b94", "is_disabled": 0, "rental_uris": {"android": "https://dc.lft.to/lastmile_qr_scan", "ios": "https://dc.lft.to/lastmile_qr_scan"}, "fusion_lon": 0.0, "lat": 38.923756, "bike_id": "8b03fc38f999743ab36d3834d1b22b94", "type": "electric_scooter", "is_reserved": 0, "lon": -77.02920316666666}, {"fusion_lat": 0.0, "name": "ae804ea2280b2472cc98a783dd7231fe", "is_disabled": 0, "rental_uris": {"android": "https://dc.lft.to/lastmile_qr_scan", "ios": "https://dc.lft.to/lastmile_qr_scan"}, "fusion_lon": 0.0, "lat": 38.905299, "bike_id": "ae804ea2280b2472cc98a783dd7231fe", "type": "electric_scooter", "is_reserved": 0, "lon": -77.0629675}, {"fusion_lat": 0.0, "name": "d54facd131f472fdb47f07fa2face298", "is_disabled": 0, "rental_uris": {"android": "https://dc.lft.to/lastmile_qr_scan", "ios": "https://dc.lft.to/lastmile_qr_scan"}, "fusion_lon": 0.0, "lat": 38.905275833333334, "bike_id": "d54facd131f472fdb47f07fa2face298", "type": "electric_scooter", "is_reserved": 0, "lon": -77.0614705}, {"fusion_lat": 0.0, "name": "958666aa1c2078dcab36cd8059ed8d2b", "is_disabled": 0, "rental_uris": {"android": "https://dc.lft.to/lastmile_qr_scan", "ios": "https://dc.lft.to/lastmile_qr_scan"}, "fusion_lon": 0.0, "lat": 38.920714333333336, "bike_id": "958666aa1c2078dcab36cd8059ed8d2b", "type": "electric_scooter", "is_reserved": 0, "lon": -77.04111183333333}, {"fusion_lat": 0.0, "name": "e45ec154796ad225b0375615b2e32cbf", "is_disabled": 0, "rental_uris": {"android": "https://dc.lft.to/lastmile_qr_scan", "ios": "https://dc.lft.to/lastmile_qr_scan"}, "fusion_lon": 0.0, "lat": 38.807671666666664, "bike_id": "e45ec154796ad225b0375615b2e32cbf", "type": "electric_bike", "is_reserved": 0, "lon": -77.09470383333333}, {"fusion_lat": 0.0, "name": "91dc09643cbd15a62daf121b5921ab19", "is_disabled": 0, "rental_uris": {"android": "https://dc.lft.to/lastmile_qr_scan", "ios": "https://dc.lft.to/lastmile_qr_scan"}, "fusion_lon": 0.0, "lat": 38.905632, "bike_id": "91dc09643cbd15a62daf121b5921ab19", "type": "electric_scooter", "is_reserved": 0, "lon": -77.0426025}, {"fusion_lat": 0.0, "name": "9dd415e36713d29d57af7e44f5d98ebc", "is_disabled": 0, "rental_uris": {"android": "https://dc.lft.to/lastmile_qr_scan", "ios": "https://dc.lft.to/lastmile_qr_scan"}, "fusion_lon": 0.0, "lat": 38.91404416666666, "bike_id": "9dd415e36713d29d57af7e44f5d98ebc", "type": "electric_scooter", "is_reserved": 0, "lon": -77.03175816666666}, {"fusion_lat": 0.0, "name": "95514d5a4f787c9e1643d8b260ca60c6", "is_disabled": 0, "rental_uris": {"android": "https://dc.lft.to/lastmile_qr_scan", "ios": "https://dc.lft.to/lastmile_qr_scan"}, "fusion_lon": 0.0, "lat": 38.94129433333333, "bike_id": "95514d5a4f787c9e1643d8b260ca60c6", "type": "electric_scooter", "is_reserved": 0, "lon": -77.02659433333334}, {"fusion_lat": 0.0, "name": "edeab3e4ec8a0fd6d0f0f85ede61c2e6", "is_disabled": 0, "rental_uris": {"android": "https://dc.lft.to/lastmile_qr_scan", "ios": "https://dc.lft.to/lastmile_qr_scan"}, "fusion_lon": 0.0, "lat": 38.900135666666664, "bike_id": "edeab3e4ec8a0fd6d0f0f85ede61c2e6", "type": "electric_scooter", "is_reserved": 0, "lon": -77.02201733333334}, {"fusion_lat": 0.0, "name": "5f59fee6c5240e3223514b765645cdbd", "is_disabled": 0, "rental_uris": {"android": "https://dc.lft.to/lastmile_qr_scan", "ios": "https://dc.lft.to/lastmile_qr_scan"}, "fusion_lon": 0.0, "lat": 38.904117, "bike_id": "5f59fee6c5240e3223514b765645cdbd", "type": "electric_scooter", "is_reserved": 0, "lon": -76.97334416666666}, {"fusion_lat": 0.0, "name": "4984c6582b197981bd2da1a7badb9a51", "is_disabled": 0, "rental_uris": {"android": "https://dc.lft.to/lastmile_qr_scan", "ios": "https://dc.lft.to/lastmile_qr_scan"}, "fusion_lon": 0.0, "lat": 38.90584666666667, "bike_id": "4984c6582b197981bd2da1a7badb9a51", "type": "electric_scooter", "is_reserved": 0, "lon": -77.00649083333333}, {"fusion_lat": 0.0, "name": "4fa66e8febf8e91a269e0f87f60a93a1", "is_disabled": 0, "rental_uris": {"android": "https://dc.lft.to/lastmile_qr_scan", "ios": "https://dc.lft.to/lastmile_qr_scan"}, "fusion_lon": 0.0, "lat": 38.997776, "bike_id": "4fa66e8febf8e91a269e0f87f60a93a1", "type": "electric_bike", "is_reserved": 0, "lon": -77.04721133333334}, {"fusion_lat": 0.0, "name": "d0fa20bf6437c12c3ea8be87efa3b21a", "is_disabled": 0, "rental_uris": {"android": "https://dc.lft.to/lastmile_qr_scan", "ios": "https://dc.lft.to/lastmile_qr_scan"}, "fusion_lon": 0.0, "lat": 38.92101233333333, "bike_id": "d0fa20bf6437c12c3ea8be87efa3b21a", "type": "electric_scooter", "is_reserved": 0, "lon": -77.03918916666667}, {"fusion_lat": 0.0, "name": "d5d7cce21705a374cf708a9d926ba64f", "is_disabled": 0, "rental_uris": {"android": "https://dc.lft.to/lastmile_qr_scan", "ios": "https://dc.lft.to/lastmile_qr_scan"}, "fusion_lon": 0.0, "lat": 38.898401166666666, "bike_id": "d5d7cce21705a374cf708a9d926ba64f", "type": "electric_scooter", "is_reserved": 0, "lon": -77.02266266666666}, {"fusion_lat": 0.0, "name": "c05040b786d69590123e0bb818e67c00", "is_disabled": 0, "rental_uris": {"android": "https://dc.lft.to/lastmile_qr_scan", "ios": "https://dc.lft.to/lastmile_qr_scan"}, "fusion_lon": 0.0, "lat": 38.90239733333333, "bike_id": "c05040b786d69590123e0bb818e67c00", "type": "electric_scooter", "is_reserved": 0, "lon": -77.01611633333333}, {"fusion_lat": 0.0, "name": "f8264c481a934ce1cc019a1cc5e9a6ef", "is_disabled": 0, "rental_uris": {"android": "https://dc.lft.to/lastmile_qr_scan", "ios": "https://dc.lft.to/lastmile_qr_scan"}, "fusion_lon": 0.0, "lat": 38.903067666666665, "bike_id": "f8264c481a934ce1cc019a1cc5e9a6ef", "type": "electric_scooter", "is_reserved": 0, "lon": -76.9765685}, {"fusion_lat": 0.0, "name": "c4b2e827055c01d6494970ee6195813b", "is_disabled": 0, "rental_uris": {"android": "https://dc.lft.to/lastmile_qr_scan", "ios": "https://dc.lft.to/lastmile_qr_scan"}, "fusion_lon": 0.0, "lat": 38.940555833333335, "bike_id": "c4b2e827055c01d6494970ee6195813b", "type": "electric_bike", "is_reserved": 0, "lon": -76.90423966666667}, {"fusion_lat": 0.0, "name": "4a94086adf82f24ad0561f37d4b0744f", "is_disabled": 0, "rental_uris": {"android": "https://dc.lft.to/lastmile_qr_scan", "ios": "https://dc.lft.to/lastmile_qr_scan"}, "fusion_lon": 0.0, "lat": 38.876478166666665, "bike_id": "4a94086adf82f24ad0561f37d4b0744f", "type": "electric_scooter", "is_reserved": 0, "lon": -77.00822366666667}, {"fusion_lat": 0.0, "name": "4389f50740d4f3923c9ccec9fdfc4f47", "is_disabled": 0, "rental_uris": {"android": "https://dc.lft.to/lastmile_qr_scan", "ios": "https://dc.lft.to/lastmile_qr_scan"}, "fusion_lon": 0.0, "lat": 38.884782666666666, "bike_id": "4389f50740d4f3923c9ccec9fdfc4f47", "type": "electric_scooter", "is_reserved": 0, "lon": -77.02379416666666}, {"fusion_lat": 0.0, "name": "25abc66f7a5d3bd6e015b0f1255d3a3d", "is_disabled": 0, "rental_uris": {"android": "https://dc.lft.to/lastmile_qr_scan", "ios": "https://dc.lft.to/lastmile_qr_scan"}, "fusion_lon": 0.0, "lat": 38.994465, "bike_id": "25abc66f7a5d3bd6e015b0f1255d3a3d", "type": "electric_bike", "is_reserved": 0, "lon": -76.99589783333333}, {"fusion_lat": 0.0, "name": "91e7db9c9cadcdd7244b9650736e86f5", "is_disabled": 0, "rental_uris": {"android": "https://dc.lft.to/lastmile_qr_scan", "ios": "https://dc.lft.to/lastmile_qr_scan"}, "fusion_lon": 0.0, "lat": 38.888736, "bike_id": "91e7db9c9cadcdd7244b9650736e86f5", "type": "electric_bike", "is_reserved": 0, "lon": -77.00177066666667}, {"fusion_lat": 0.0, "name": "7f906e497a7abcb33ae6dd99aa31ee93", "is_disabled": 0, "rental_uris": {"android": "https://dc.lft.to/lastmile_qr_scan", "ios": "https://dc.lft.to/lastmile_qr_scan"}, "fusion_lon": 0.0, "lat": 38.902703833333334, "bike_id": "7f906e497a7abcb33ae6dd99aa31ee93", "type": "electric_scooter", "is_reserved": 0, "lon": -77.02018183333334}, {"fusion_lat": 0.0, "name": "899d80e65b2ff51ce8e229927c3423d6", "is_disabled": 0, "rental_uris": {"android": "https://dc.lft.to/lastmile_qr_scan", "ios": "https://dc.lft.to/lastmile_qr_scan"}, "fusion_lon": 0.0, "lat": 38.916610166666665, "bike_id": "899d80e65b2ff51ce8e229927c3423d6", "type": "electric_scooter", "is_reserved": 0, "lon": -77.03859666666666}, {"fusion_lat": 0.0, "name": "ee8825eb632ddd19ff2f09cec18d3acf", "is_disabled": 0, "rental_uris": {"android": "https://dc.lft.to/lastmile_qr_scan", "ios": "https://dc.lft.to/lastmile_qr_scan"}, "fusion_lon": 0.0, "lat": 38.85511983333333, "bike_id": "ee8825eb632ddd19ff2f09cec18d3acf", "type": "electric_bike", "is_reserved": 0, "lon": -77.10543483333333}, {"fusion_lat": 0.0, "name": "b3786895c3f80f84b009b12dd46a0430", "is_disabled": 0, "rental_uris": {"android": "https://dc.lft.to/lastmile_qr_scan", "ios": "https://dc.lft.to/lastmile_qr_scan"}, "fusion_lon": 0.0, "lat": 38.88872116666667, "bike_id": "b3786895c3f80f84b009b12dd46a0430", "type": "electric_scooter", "is_reserved": 0, "lon": -76.98452216666666}, {"fusion_lat": 0.0, "name": "001176b5f334e1f4c3d0b0add34f7e6d", "is_disabled": 0, "rental_uris": {"android": "https://dc.lft.to/lastmile_qr_scan", "ios": "https://dc.lft.to/lastmile_qr_scan"}, "fusion_lon": 0.0, "lat": 38.90684783333333, "bike_id": "001176b5f334e1f4c3d0b0add34f7e6d", "type": "electric_scooter", "is_reserved": 0, "lon": -77.02720616666667}, {"fusion_lat": 0.0, "name": "d58fb8717e7e407f8a68c6d9631b503a", "is_disabled": 0, "rental_uris": {"android": "https://dc.lft.to/lastmile_qr_scan", "ios": "https://dc.lft.to/lastmile_qr_scan"}, "fusion_lon": 0.0, "lat": 38.89485283333333, "bike_id": "d58fb8717e7e407f8a68c6d9631b503a", "type": "electric_scooter", "is_reserved": 0, "lon": -76.997436}, {"fusion_lat": 0.0, "name": "adb4d5fe7a40dea8de35f8b6ece1898c", "is_disabled": 0, "rental_uris": {"android": "https://dc.lft.to/lastmile_qr_scan", "ios": "https://dc.lft.to/lastmile_qr_scan"}, "fusion_lon": 0.0, "lat": 38.882569833333335, "bike_id": "adb4d5fe7a40dea8de35f8b6ece1898c", "type": "electric_scooter", "is_reserved": 0, "lon": -76.9903605}, {"fusion_lat": 0.0, "name": "03c7d3c025754d1acca4ea05b192662b", "is_disabled": 0, "rental_uris": {"android": "https://dc.lft.to/lastmile_qr_scan", "ios": "https://dc.lft.to/lastmile_qr_scan"}, "fusion_lon": 0.0, "lat": 38.90517783333333, "bike_id": "03c7d3c025754d1acca4ea05b192662b", "type": "electric_scooter", "is_reserved": 0, "lon": -77.0171605}, {"fusion_lat": 0.0, "name": "7ea0b107beb0fdbd7589352c9e59fe7f", "is_disabled": 0, "rental_uris": {"android": "https://dc.lft.to/lastmile_qr_scan", "ios": "https://dc.lft.to/lastmile_qr_scan"}, "fusion_lon": 0.0, "lat": 38.98469516666667, "bike_id": "7ea0b107beb0fdbd7589352c9e59fe7f", "type": "electric_scooter", "is_reserved": 0, "lon": -77.02640083333333}, {"fusion_lat": 0.0, "name": "b0f9e10bbfae23ee4cac5e1f6fdfed9e", "is_disabled": 0, "rental_uris": {"android": "https://dc.lft.to/lastmile_qr_scan", "ios": "https://dc.lft.to/lastmile_qr_scan"}, "fusion_lon": 0.0, "lat": 38.87735966666666, "bike_id": "b0f9e10bbfae23ee4cac5e1f6fdfed9e", "type": "electric_scooter", "is_reserved": 0, "lon": -76.9703395}, {"fusion_lat": 0.0, "name": "97563bdf8043bfe8104705eb790cfcb6", "is_disabled": 0, "rental_uris": {"android": "https://dc.lft.to/lastmile_qr_scan", "ios": "https://dc.lft.to/lastmile_qr_scan"}, "fusion_lon": 0.0, "lat": 38.916872833333336, "bike_id": "97563bdf8043bfe8104705eb790cfcb6", "type": "electric_scooter", "is_reserved": 0, "lon": -77.03126416666667}, {"fusion_lat": 0.0, "name": "75528ced534624c63c8edf2892b9c901", "is_disabled": 0, "rental_uris": {"android": "https://dc.lft.to/lastmile_qr_scan", "ios": "https://dc.lft.to/lastmile_qr_scan"}, "fusion_lon": 0.0, "lat": 38.88051766666667, "bike_id": "75528ced534624c63c8edf2892b9c901", "type": "electric_scooter", "is_reserved": 0, "lon": -77.0037225}, {"fusion_lat": 0.0, "name": "5c4356526f6f7a88e9efd775e01c2be1", "is_disabled": 0, "rental_uris": {"android": "https://dc.lft.to/lastmile_qr_scan", "ios": "https://dc.lft.to/lastmile_qr_scan"}, "fusion_lon": 0.0, "lat": 38.919265333333335, "bike_id": "5c4356526f6f7a88e9efd775e01c2be1", "type": "electric_scooter", "is_reserved": 0, "lon": -77.02409483333334}, {"fusion_lat": 0.0, "name": "dfab067fdf81456f494eb15a524dc2c9", "is_disabled": 0, "rental_uris": {"android": "https://dc.lft.to/lastmile_qr_scan", "ios": "https://dc.lft.to/lastmile_qr_scan"}, "fusion_lon": 0.0, "lat": 38.935353166666665, "bike_id": "dfab067fdf81456f494eb15a524dc2c9", "type": "electric_scooter", "is_reserved": 0, "lon": -77.02361466666666}, {"fusion_lat": 0.0, "name": "c60cd26d857849b5801ee364cf0f6f54", "is_disabled": 0, "rental_uris": {"android": "https://dc.lft.to/lastmile_qr_scan", "ios": "https://dc.lft.to/lastmile_qr_scan"}, "fusion_lon": 0.0, "lat": 38.9531475, "bike_id": "c60cd26d857849b5801ee364cf0f6f54", "type": "electric_scooter", "is_reserved": 0, "lon": -77.02252216666666}, {"fusion_lat": 0.0, "name": "839acbcf2e29ee88895055da4d4cbb28", "is_disabled": 0, "rental_uris": {"android": "https://dc.lft.to/lastmile_qr_scan", "ios": "https://dc.lft.to/lastmile_qr_scan"}, "fusion_lon": 0.0, "lat": 38.992289166666666, "bike_id": "839acbcf2e29ee88895055da4d4cbb28", "type": "electric_bike", "is_reserved": 0, "lon": -76.9441515}, {"fusion_lat": 0.0, "name": "aec86fb22739bb0a70f5e9ff3285437d", "is_disabled": 0, "rental_uris": {"android": "https://dc.lft.to/lastmile_qr_scan", "ios": "https://dc.lft.to/lastmile_qr_scan"}, "fusion_lon": 0.0, "lat": 38.943078666666665, "bike_id": "aec86fb22739bb0a70f5e9ff3285437d", "type": "electric_scooter", "is_reserved": 0, "lon": -77.02014316666667}, {"fusion_lat": 0.0, "name": "f46e5f5ab25cd08da39db24e927723d4", "is_disabled": 0, "rental_uris": {"android": "https://dc.lft.to/lastmile_qr_scan", "ios": "https://dc.lft.to/lastmile_qr_scan"}, "fusion_lon": 0.0, "lat": 38.87368716666667, "bike_id": "f46e5f5ab25cd08da39db24e927723d4", "type": "electric_scooter", "is_reserved": 0, "lon": -77.00066766666667}, {"fusion_lat": 0.0, "name": "2ac02415aafa0552df2d14195f24ed93", "is_disabled": 0, "rental_uris": {"android": "https://dc.lft.to/lastmile_qr_scan", "ios": "https://dc.lft.to/lastmile_qr_scan"}, "fusion_lon": 0.0, "lat": 38.8719165, "bike_id": "2ac02415aafa0552df2d14195f24ed93", "type": "electric_scooter", "is_reserved": 0, "lon": -77.0062575}, {"fusion_lat": 0.0, "name": "a76a5b41d8832b6f2693b80c665453dd", "is_disabled": 0, "rental_uris": {"android": "https://dc.lft.to/lastmile_qr_scan", "ios": "https://dc.lft.to/lastmile_qr_scan"}, "fusion_lon": 0.0, "lat": 38.9029315, "bike_id": "a76a5b41d8832b6f2693b80c665453dd", "type": "electric_scooter", "is_reserved": 0, "lon": -76.9926225}, {"fusion_lat": 0.0, "name": "fa9174ee12ae303642f071036d86238b", "is_disabled": 0, "rental_uris": {"android": "https://dc.lft.to/lastmile_qr_scan", "ios": "https://dc.lft.to/lastmile_qr_scan"}, "fusion_lon": 0.0, "lat": 38.88807533333333, "bike_id": "fa9174ee12ae303642f071036d86238b", "type": "electric_scooter", "is_reserved": 0, "lon": -76.98362716666666}, {"fusion_lat": 0.0, "name": "2180bed92818c1b29d4181f837b99056", "is_disabled": 0, "rental_uris": {"android": "https://dc.lft.to/lastmile_qr_scan", "ios": "https://dc.lft.to/lastmile_qr_scan"}, "fusion_lon": 0.0, "lat": 38.92682683333334, "bike_id": "2180bed92818c1b29d4181f837b99056", "type": "electric_scooter", "is_reserved": 0, "lon": -77.03144266666666}, {"fusion_lat": 0.0, "name": "64a2eeb2d5a01925aa4ff4f515fbde57", "is_disabled": 0, "rental_uris": {"android": "https://dc.lft.to/lastmile_qr_scan", "ios": "https://dc.lft.to/lastmile_qr_scan"}, "fusion_lon": 0.0, "lat": 38.924108333333336, "bike_id": "64a2eeb2d5a01925aa4ff4f515fbde57", "type": "electric_scooter", "is_reserved": 0, "lon": -77.02012333333333}, {"fusion_lat": 0.0, "name": "aad9633e0d1c8dcaba3cea62b48f31e2", "is_disabled": 0, "rental_uris": {"android": "https://dc.lft.to/lastmile_qr_scan", "ios": "https://dc.lft.to/lastmile_qr_scan"}, "fusion_lon": 0.0, "lat": 38.9134755, "bike_id": "aad9633e0d1c8dcaba3cea62b48f31e2", "type": "electric_bike", "is_reserved": 0, "lon": -76.989091}, {"fusion_lat": 0.0, "name": "2c8d45cb774eecd6108621de9d08ce53", "is_disabled": 0, "rental_uris": {"android": "https://dc.lft.to/lastmile_qr_scan", "ios": "https://dc.lft.to/lastmile_qr_scan"}, "fusion_lon": 0.0, "lat": 38.90269033333333, "bike_id": "2c8d45cb774eecd6108621de9d08ce53", "type": "electric_scooter", "is_reserved": 0, "lon": -77.00200966666667}, {"fusion_lat": 0.0, "name": "ed4d78da392e47a3e0d9f3acdd045282", "is_disabled": 0, "rental_uris": {"android": "https://dc.lft.to/lastmile_qr_scan", "ios": "https://dc.lft.to/lastmile_qr_scan"}, "fusion_lon": 0.0, "lat": 38.8874385, "bike_id": "ed4d78da392e47a3e0d9f3acdd045282", "type": "electric_scooter", "is_reserved": 0, "lon": -76.98360416666667}, {"fusion_lat": 0.0, "name": "60c8ff78e296e8a3a7d90ee38cfe7c29", "is_disabled": 0, "rental_uris": {"android": "https://dc.lft.to/lastmile_qr_scan", "ios": "https://dc.lft.to/lastmile_qr_scan"}, "fusion_lon": 0.0, "lat": 38.89955416666667, "bike_id": "60c8ff78e296e8a3a7d90ee38cfe7c29", "type": "electric_scooter", "is_reserved": 0, "lon": -77.05476366666667}, {"fusion_lat": 0.0, "name": "8435c7849dc6d398a9d1f53afa74d12b", "is_disabled": 0, "rental_uris": {"android": "https://dc.lft.to/lastmile_qr_scan", "ios": "https://dc.lft.to/lastmile_qr_scan"}, "fusion_lon": 0.0, "lat": 38.91701616666667, "bike_id": "8435c7849dc6d398a9d1f53afa74d12b", "type": "electric_scooter", "is_reserved": 0, "lon": -77.0408655}, {"fusion_lat": 0.0, "name": "b31b8aac48c5f41adde4440b41b9412e", "is_disabled": 0, "rental_uris": {"android": "https://dc.lft.to/lastmile_qr_scan", "ios": "https://dc.lft.to/lastmile_qr_scan"}, "fusion_lon": 0.0, "lat": 38.87230916666667, "bike_id": "b31b8aac48c5f41adde4440b41b9412e", "type": "electric_scooter", "is_reserved": 0, "lon": -77.01770983333333}, {"fusion_lat": 0.0, "name": "b78fd82a12985d81e7874215899236a1", "is_disabled": 0, "rental_uris": {"android": "https://dc.lft.to/lastmile_qr_scan", "ios": "https://dc.lft.to/lastmile_qr_scan"}, "fusion_lon": 0.0, "lat": 38.916476833333334, "bike_id": "b78fd82a12985d81e7874215899236a1", "type": "electric_scooter", "is_reserved": 0, "lon": -77.03699233333333}, {"fusion_lat": 0.0, "name": "b7cec1e93aa555f7798d85e8d872e5e4", "is_disabled": 0, "rental_uris": {"android": "https://dc.lft.to/lastmile_qr_scan", "ios": "https://dc.lft.to/lastmile_qr_scan"}, "fusion_lon": 0.0, "lat": 38.90576766666667, "bike_id": "b7cec1e93aa555f7798d85e8d872e5e4", "type": "electric_scooter", "is_reserved": 0, "lon": -77.00805466666667},