{"data": {"bikes": [{"fusion_lat": 0.0, "name": "5abda700b300d987411e397285df6427", "is_disabled": 0, "rental_uris": {"android": "https://dc.lft.to/lastmile_qr_scan", "ios": "https://dc.lft.to/lastmile_qr_scan"}, "fusion_lon": 0.0, "lat": 38.887283, "bike_id": "5abda700b300d987411e397285df6427", "type": "electric_scooter", "is_reserved": 0, "lon": -77.03217466666666}, {"fusion_lat": 0.0, "name": "cd966515887f08ecfc43f89f29e64bc3", "is_disabled": 0, "rental_uris": {"android": "https://dc.lft.to/lastmile_qr_scan", "ios": "https://dc.lft.to/lastmile_qr_scan"}, "fusion_lon": 0.0, "lat": 38.918071166666664, "bike_id": "cd966515887f08ecfc43f89f29e64bc3", "type": "electric_scooter", "is_reserved": 0, "lon": -77.02878366666667}, {"fusion_lat": 0.0, "name": "416e7dfc39ccc0fd3b72622de36c0127", "is_disabled": 0, "rental_uris": {"android": "https://dc.lft.to/lastmile_qr_scan", "ios": "https://dc.lft.to/lastmile_qr_scan"}, "fusion_lon": 0.0, "lat": 38.896726666666666, "bike_id": "416e7dfc39ccc0fd3b72622de36c0127", "type": "electric_scooter", "is_reserved": 0, "lon": -77.05100316666666}, {"fusion_lat": 0.0, "name": "ea62aa0d00241f0e2a9aaefd64bdaebb", "is_disabled": 0, "rental_uris": {"android": "https://dc.lft.to/lastmile_qr_scan", "ios": "https://dc.lft.to/lastmile_qr_scan"}, "fusion_lon": 0.0, "lat": 38.920355666666666, "bike_id": "ea62aa0d00241f0e2a9aaefd64bdaebb", "type": "electric_bike", "is_reserved": 0, "lon": -76.97960183333333}, {"fusion_lat": 0.0, "name": "811bd30ac256b4243c2e3e374d5cb566", "is_disabled": 0, "rental_uris": {"android": "https://dc.lft.to/lastmile_qr_scan", "ios": "https://dc.lft.to/lastmile_qr_scan"}, "fusion_lon": 0.0, "lat": 38.88739433333333, "bike_id": "811bd30ac256b4243c2e3e374d5cb566", "type": "electric_scooter", "is_reserved": 0, "lon": -77.01519433333333}, {"fusion_lat": 0.0, "name": "5f97e6eb009cd621db048c3e7cfda0dc", "is_disabled": 0, "rental_uris": {"android": "https://dc.lft.to/lastmile_qr_scan", "ios": "https://dc.lft.to/lastmile_qr_scan"}, "fusion_lon": 0.0, "lat": 38.87535183333333, "bike_id": "5f97e6eb009cd621db048c3e7cfda0dc", "type": "electric_scooter", "is_reserved": 0, "lon": -77.00507833333333}, {"fusion_lat": 0.0, "name": "7a53c8e0be8ab1b2759b2186d1e30eeb", "is_disabled": 0, "rental_uris": {"android": "https://dc.lft.to/lastmile_qr_scan", "ios": "https://dc.lft.to/lastmile_qr_scan"}, "fusion_lon": 0.0, "lat": 38.91179366666667, "bike_id": "7a53c8e0be8ab1b2759b2186d1e30eeb", "type": "electric_bike", "is_reserved": 0, "lon": -77.01144116666667}, {"fusion_lat": 0.0, "name": "f8ba88f1897171ab881044572719c081", "is_disabled": 0, "rental_uris": {"android": "https://dc.lft.to/lastmile_qr_scan", "ios": "https://dc.lft.to/lastmile_qr_scan"}, "fusion_lon": 0.0, "lat": 38.92307733333333, "bike_id": "f8ba88f1897171ab881044572719c081", "type": "electric_scooter", "is_reserved": 0, "lon": -77.04230583333333}, {"fusion_lat": 0.0, "name": "e30726f6cc9e58e97e7fd55bd73b679e", "is_disabled": 0, "rental_uris": {"android": "https://dc.lft.to/lastmile_qr_scan", "ios": "https://dc.lft.to/lastmile_qr_scan"}, "fusion_lon": 0.0, "lat": 38.92751166666667, "bike_id": "e30726f6cc9e58e97e7fd55bd73b679e", "type": "electric_scooter", "is_reserved": 0, "lon": -77.02425233333334}, {"fusion_lat": 0.0, "name": "12a33293930d5d71cfd62607ac0af237", "is_disabled": 0, "rental_uris": {"android": "https://dc.lft.to/lastmile_qr_scan", "ios": "https://dc.lft.to/lastmile_qr_scan"}, "fusion_lon": 0.0, "lat": 38.8717975, "bike_id": "12a33293930d5d71cfd62607ac0af237", "type": "electric_scooter", "is_reserved": 0, "lon": -77.00611783333333}, {"fusion_lat": 0.0, "name": "147b54453d23d22450e7fc838241296e", "is_disabled": 0, "rental_uris": {"android": "https://dc.lft.to/lastmile_qr_scan", "ios": "https://dc.lft.to/lastmile_qr_scan"}, "fusion_lon": 0.0, "lat": 38.92122066666667, "bike_id": "147b54453d23d22450e7fc838241296e", "type": "electric_scooter", "is_reserved": 0, "lon": -77.04695116666667}, {"fusion_lat": 0.0, "name": "7739a8e0da2c53f54e9e4d08b3392d64", "is_disabled": 0, "rental_uris": {"android": "https://dc.lft.to/lastmile_qr_scan", "ios": "https://dc.lft.to/lastmile_qr_scan"}, "fusion_lon": 0.0, "lat": 38.957573, "bike_id": "7739a8e0da2c53f54e9e4d08b3392d64", "type": "electric_scooter", "is_reserved": 0, "lon": -77.020587}, {"fusion_lat": 0.0, "name": "81dd1ade40b9cf80a1be3c26c0e29baa", "is_disabled": 0, "rental_uris": {"android": "https://dc.lft.to/lastmile_qr_scan", "ios": "https://dc.lft.to/lastmile_qr_scan"}, "fusion_lon": 0.0, "lat": 38.881923, "bike_id": "81dd1ade40b9cf80a1be3c26c0e29baa", "type": "electric_scooter", "is_reserved": 0, "lon": -76.99488133333334}, {"fusion_lat": 0.0, "name": "e5e18d6c843424c2e6d360cb418ace24", "is_disabled": 0, "rental_uris": {"android": "https://dc.lft.to/lastmile_qr_scan", "ios": "https://dc.lft.to/lastmile_qr_scan"}, "fusion_lon": 0.0, "lat": 38.89655833333333, "bike_id": "e5e18d6c843424c2e6d360cb418ace24", "type": "electric_scooter", "is_reserved": 0, "lon": -77.0335285}, {"fusion_lat": 0.0, "name": "232f37cc2bfc47acd77557627653ff60", "is_disabled": 0, "rental_uris": {"android": "https://dc.lft.to/lastmile_qr_scan", "ios": "https://dc.lft.to/lastmile_qr_scan"}, "fusion_lon": 0.0, "lat": 38.80764716666667, "bike_id": "232f37cc2bfc47acd77557627653ff60", "type": "electric_bike", "is_reserved": 0, "lon": -77.129883}, {"fusion_lat": 0.0, "name": "c7ddd69614088b432ae70db7403ae286", "is_disabled": 0, "rental_uris": {"android": "https://dc.lft.to/lastmile_qr_scan", "ios": "https://dc.lft.to/lastmile_qr_scan"}, "fusion_lon": 0.0, "lat": 38.910942, "bike_id": "c7ddd69614088b432ae70db7403ae286", "type": "electric_scooter", "is_reserved": 0, "lon": -77.04482866666666}, {"fusion_lat": 0.0, "name": "9e89798792660943c5c912f02e9f1d5b", "is_disabled": 0, "rental_uris": {"android": "https://dc.lft.to/lastmile_qr_scan", "ios": "https://dc.lft.to/lastmile_qr_scan"}, "fusion_lon": 0.0, "lat": 38.900632, "bike_id": "9e89798792660943c5c912f02e9f1d5b", "type": "electric_scooter", "is_reserved": 0, "lon": -76.927442}, {"fusion_lat": 0.0, "name": "e782daa79ef9e4980e10beb3f2e9e41e", "is_disabled": 0, "rental_uris": {"android": "https://dc.lft.to/lastmile_qr_scan", "ios": "https://dc.lft.to/lastmile_qr_scan"}, "fusion_lon": 0.0, "lat": 38.9191405, "bike_id": "e782daa79ef9e4980e10beb3f2e9e41e", "type": "electric_scooter", "is_reserved": 0, "lon": -77.028153}, {"fusion_lat": 0.0, "name": "2108dfdc2ed4504807fb05bcd655e8e1", "is_disabled": 0, "rental_uris": {"android": "https://dc.lft.to/lastmile_qr_scan", "ios": "https://dc.lft.to/lastmile_qr_scan"}, "fusion_lon": 0.0, "lat": 38.895535833333334, "bike_id": "2108dfdc2ed4504807fb05bcd655e8e1", "type": "electric_scooter", "is_reserved": 0, "lon": -76.94934766666667}, {"fusion_lat": 0.0, "name": "8e087e50e3641ebf4b8c89fc8404c808", "is_disabled": 0, "rental_uris": {"android": "https://dc.lft.to/lastmile_qr_scan", "ios": "https://dc.lft.to/lastmile_qr_scan"}, "fusion_lon": 0.0, "lat": 38.96117266666667, "bike_id": "8e087e50e3641ebf4b8c89fc8404c808", "type": "electric_scooter", "is_reserved": 0, "lon": -77.02794033333333}, {"fusion_lat": 0.0, "name": "0b4553a890aafb7a17d14e67e680fe15", "is_disabled": 0, "rental_uris": {"android": "https://dc.lft.to/lastmile_qr_scan", "ios": "https://dc.lft.to/lastmile_qr_scan"}, "fusion_lon": 0.0, "lat": 38.901182666666664, "bike_id": "0b4553a890aafb7a17d14e67e680fe15", "type": "electric_scooter", "is_reserved": 0, "lon": -77.00217716666667}, {"fusion_lat": 0.0, "name": "e79fb49057f8e1b2f30ad97493d5f7f3", "is_disabled": 0, "rental_uris": {"android": "https://dc.lft.to/lastmile_qr_scan", "ios": "https://dc.lft.to/lastmile_qr_scan"}, "fusion_lon": 0.0, "lat": 38.892200833333334, "bike_id": "e79fb49057f8e1b2f30ad97493d5f7f3", "type": "electric_scooter", "is_reserved": 0, "lon": -77.02659316666667}, {"fusion_lat": 0.0, "name": "a99e8004ad19a33d39bd3a19308f51e2", "is_disabled": 0, "rental_uris": {"android": "https://dc.lft.to/lastmile_qr_scan", "ios": "https://dc.lft.to/lastmile_qr_scan"}, "fusion_lon": 0.0, "lat": 38.900218, "bike_id": "a99e8004ad19a33d39bd3a19308f51e2", "type": "electric_scooter", "is_reserved": 0, "lon": -77.0447955}, {"fusion_lat": 0.0, "name": "9c86bb8ae39c5578d478b34c9c3f8d83", "is_disabled": 0, "rental_uris": {"android": "https://dc.lft.to/lastmile_qr_scan", "ios": "https://dc.lft.to/lastmile_qr_scan"}, "fusion_lon": 0.0, "lat": 38.91713016666667, "bike_id": "9c86bb8ae39c5578d478b34c9c3f8d83", "type": "electric_scooter", "is_reserved": 0, "lon": -77.02307283333333}, {"fusion_lat": 0.0, "name": "8f69b483ab082c4c23f2aeeb5de4e99b", "is_disabled": 0, "rental_uris": {"android": "https://dc.lft.to/lastmile_qr_scan", "ios": "https://dc.lft.to/lastmile_qr_scan"}, "fusion_lon": 0.0, "lat": 38.92131416666667, "bike_id": "8f69b483ab082c4c23f2aeeb5de4e99b", "type": "electric_scooter", "is_reserved": 0, "lon": -77.02515916666667}, {"fusion_lat": 0.0, "name": "05537ab58d90d6d1ff6c29eef5061ebd", "is_disabled": 0, "rental_uris": {"android": "https://dc.lft.to/lastmile_qr_scan", "ios": "https://dc.lft.to/lastmile_qr_scan"}, "fusion_lon": 0.0, "lat": 38.8976585, "bike_id": "05537ab58d90d6d1ff6c29eef5061ebd", "type": "electric_scooter", "is_reserved": 0, "lon": -77.02699866666667}, {"fusion_lat": 0.0, "name": "a5380b3b1e9b04150c86b476e5d4f379", "is_disabled": 0, "rental_uris": {"android": "https://dc.lft.to/lastmile_qr_scan", "ios": "https://dc.lft.to/lastmile_qr_scan"}, "fusion_lon": 0.0, "lat": 38.92408483333333, "bike_id": "a5380b3b1e9b04150c86b476e5d4f379", "type": "electric_scooter", "is_reserved": 0, "lon": -77.02712616666666}, {"fusion_lat": 0.0, "name": "bea2da3382b94ce23bf50e37abc24980", "is_disabled": 0, "rental_uris": {"android": "https://dc.lft.to/lastmile_qr_scan", "ios": "https://dc.lft.to/lastmile_qr_scan"}, "fusion_lon": 0.0, "lat": 38.9097405, "bike_id": "bea2da3382b94ce23bf50e37abc24980", "type": "electric_scooter", "is_reserved": 0, "lon": -77.00898333333333}, {"fusion_lat": 0.0, "name": "2b0597c9795e08f6d7c1376490a5e468", "is_disabled": 0, "rental_uris": {"android": "https://dc.lft.to/lastmile_qr_scan", "ios": "https://dc.lft.to/lastmile_qr_scan"}, "fusion_lon": 0.0, "lat": 38.89726233333333, "bike_id": "2b0597c9795e08f6d7c1376490a5e468", "type": "electric_scooter", "is_reserved": 0, "lon": -77.05523533333333}, {"fusion_lat": 0.0, "name": "14a10875b51a9c887ed20d40bd59ebe4", "is_disabled": 0, "rental_uris": {"android": "https://dc.lft.to/lastmile_qr_scan", "ios": "https://dc.lft.to/lastmile_qr_scan"}, "fusion_lon": 0.0, "lat": 38.847549666666666, "bike_id": "14a10875b51a9c887ed20d40bd59ebe4", "type": "electric_scooter", "is_reserved": 0, "lon": -76.99502316666667}, {"fusion_lat": 0.0, "name": "575f938c88b3c91d597c1c184e7dd264", "is_disabled": 0, "rental_uris": {"android": "https://dc.lft.to/lastmile_qr_scan", "ios": "https://dc.lft.to/lastmile_qr_scan"}, "fusion_lon": 0.0, "lat": 38.90244883333333, "bike_id": "575f938c88b3c91d597c1c184e7dd264", "type": "electric_scooter", "is_reserved": 0, "lon": -77.02003916666666}, {"fusion_lat": 0.0, "name": "2d153d096c2c38d795fa64a01ae41d36", "is_disabled": 0, "rental_uris": {"android": "https://dc.lft.to/lastmile_qr_scan", "ios": "https://dc.lft.to/lastmile_qr_scan"}, "fusion_lon": 0.0, "lat": 38.91284133333333, "bike_id": "2d153d096c2c38d795fa64a01ae41d36", "type": "electric_scooter", "is_reserved": 0, "lon": -77.023822}, {"fusion_lat": 0.0, "name": "f0bd9eeaf2dff510da1dc8edd01eb46d", "is_disabled": 0, "rental_uris": {"android": "https://dc.lft.to/lastmile_qr_scan", "ios": "https://dc.lft.to/lastmile_qr_scan"}, "fusion_lon": 0.0, "lat": 38.912602666666665, "bike_id": "f0bd9eeaf2dff510da1dc8edd01eb46d", "type": "electric_scooter", "is_reserved": 0, "lon": -77.036512}, {"fusion_lat": 0.0, "name": "c39acab081c587771f3cd0058340fe66", "is_disabled": 0, "rental_uris": {"android": "https://dc.lft.to/lastmile_qr_scan", "ios": "https://dc.lft.to/lastmile_qr_scan"}, "fusion_lon": 0.0, "lat": 38.915972333333336, "bike_id": "c39acab081c587771f3cd0058340fe66", "type": "electric_scooter", "is_reserved": 0, "lon": -76.993608}, {"fusion_lat": 0.0, "name": "c77b928ad881a6b15d99d40196084f12", "is_disabled": 0, "rental_uris": {"android": "https://dc.lft.to/lastmile_qr_scan", "ios": "https://dc.lft.to/lastmile_qr_scan"}, "fusion_lon": 0.0, "lat": 38.853579833333335, "bike_id": "c77b928ad881a6b15d99d40196084f12", "type": "electric_bike", "is_reserved": 0, "lon": -77.1346565}, {"fusion_lat": 0.0, "name": "aa87bed552353d1cde971e44fe4abbe4", "is_disabled": 0, "rental_uris": {"android": "https://dc.lft.to/lastmile_qr_scan", "ios": "https://dc.lft.to/lastmile_qr_scan"}, "fusion_lon": 0.0, "lat": 38.92655666666667, "bike_id": "aa87bed552353d1cde971e44fe4abbe4", "type": "electric_scooter", "is_reserved": 0, "lon": -77.04309566666667}, {"fusion_lat": 0.0, "name": "094f88e59965ee9bc882a77517ec28ab", "is_disabled": 0, "rental_uris": {"android": "https://dc.lft.to/lastmile_qr_scan", "ios": "https://dc.lft.to/lastmile_qr_scan"}, "fusion_lon": 0.0, "lat": 38.9072325, "bike_id": "094f88e59965ee9bc882a77517ec28ab", "type": "electric_scooter", "is_reserved": 0, "lon": -77.03305366666666}, {"fusion_lat": 0.0, "name": "5da84080c1081b66530173b8401bb919", "is_disabled": 0, "rental_uris": {"android": "https://dc.lft.to/lastmile_qr_scan", "ios": "https://dc.lft.to/lastmile_qr_scan"}, "fusion_lon": 0.0, "lat": 38.866725333333335, "bike_id": "5da84080c1081b66530173b8401bb919", "type": "electric_scooter", "is_reserved": 0, "lon": -77.01104033333333}, {"fusion_lat": 0.0, "name": "e7d743f1fc07b112538a434d2fd9acb0", "is_disabled": 0, "rental_uris": {"android": "https://dc.lft.to/lastmile_qr_scan", "ios": "https://dc.lft.to/lastmile_qr_scan"}, "fusion_lon": 0.0, "lat": 38.90678166666667, "bike_id": "e7d743f1fc07b112538a434d2fd9acb0", "type": "electric_scooter", "is_reserved": 0, "lon": -77.03636033333333}, {"fusion_lat": 0.0, "name": "9da486cfb6debda3cf941be6791e419c", "is_disabled": 0, "rental_uris": {"android": "https://dc.lft.to/lastmile_qr_scan", "ios": "https://dc.lft.to/lastmile_qr_scan"}, "fusion_lon": 0.0, "lat": 38.954218166666664, "bike_id": "9da486cfb6debda3cf941be6791e419c", "type": "electric_scooter", "is_reserved": 0, "lon": -77.0276155}, {"fusion_lat": 0.0, "name": "75d5d32a3c1f76dc0f29af6a6be064c1", "is_disabled": 0, "rental_uris": {"android": "https://dc.lft.to/lastmile_qr_scan", "ios": "https://dc.lft.to/lastmile_qr_scan"}, "fusion_lon": 0.0, "lat": 38.9287115, "bike_id": "75d5d32a3c1f76dc0f29af6a6be064c1", "type": "electric_scooter", "is_reserved": 0, "lon": -77.0138525}, {"fusion_lat": 0.0, "name": "95a912f58198eed57a0c61cd5c24439a", "is_disabled": 0, "rental_uris": {"android": "https://dc.lft.to/lastmile_qr_scan", "ios": "https://dc.lft.to/lastmile_qr_scan"}, "fusion_lon": 0.0, "lat": 38.91310766666667, "bike_id": "95a912f58198eed57a0c61cd5c24439a", "type": "electric_scooter", "is_reserved": 0, "lon": -77.0190015}, {"fusion_lat": 0.0, "name": "61c97fba73b268870dd7afcd19d9be0f", "is_disabled": 0, "rental_uris": {"android": "https://dc.lft.to/lastmile_qr_scan", "ios": "https://dc.lft.to/lastmile_qr_scan"}, "fusion_lon": 0.0, "lat": 38.80679033333333, "bike_id": "61c97fba73b268870dd7afcd19d9be0f", "type": "electric_bike", "is_reserved": 0, "lon": -77.0691305}, {"fusion_lat": 0.0, "name": "5bc7aa9deecff4b4ed99544e204a4b52", "is_disabled": 0, "rental_uris": {"android": "https://dc.lft.to/lastmile_qr_scan", "ios": "https://dc.lft.to/lastmile_qr_scan"}, "fusion_lon": 0.0, "lat": 38.9072685, "bike_id": "5bc7aa9deecff4b4ed99544e204a4b52", "type": "electric_scooter", "is_reserved": 0, "lon": -77.05051133333333}, {"fusion_lat": 0.0, "name": "6726d700bb58ec26276d4276cb7c1437", "is_disabled": 0, "rental_uris": {"android": "https://dc.lft.to/lastmile_qr_scan", "ios": "https://dc.lft.to/lastmile_qr_scan"}, "fusion_lon": 0.0, "lat": 38.9223795, "bike_id": "6726d700bb58ec26276d4276cb7c1437", "type": "electric_scooter", "is_reserved": 0, "lon": -77.02908683333334}, {"fusion_lat": 0.0, "name": "8eca671579912c65e61c60fb31c994dc", "is_disabled": 0, "rental_uris": {"android": "https://dc.lft.to/lastmile_qr_scan", "ios": "https://dc.lft.to/lastmile_qr_scan"}, "fusion_lon": 0.0, "lat": 38.916354, "bike_id": "8eca671579912c65e61c60fb31c994dc", "type": "electric_scooter", "is_reserved": 0, "lon": -77.03186383333333}, {"fusion_lat": 0.0, "name": "de7c756c6be404f837427c64dc446ff0", "is_disabled": 0, "rental_uris": {"android": "https://dc.lft.to/lastmile_qr_scan", "ios": "https://dc.lft.to/lastmile_qr_scan"}, "fusion_lon": 0.0, "lat": 38.90169216666666, "bike_id": "de7c756c6be404f837427c64dc446ff0", "type": "electric_scooter", "is_reserved": 0, "lon": -76.992596}, {"fusion_lat": 0.0, "name": "50b740b31dea4232b0ee7c6620e1a52f", "is_disabled": 0, "rental_uris": {"android": "https://dc.lft.to/lastmile_qr_scan", "ios": "https://dc.lft.to/lastmile_qr_scan"}, "fusion_lon": 0.0, "lat": 38.905635, "bike_id": "50b740b31dea4232b0ee7c6620e1a52f", "type": "electric_scooter", "is_reserved": 0, "lon": -77.045512}, {"fusion_lat": 0.0, "name": "7732b9aaad3c55af1882e644cf50d957", "is_disabled": 0, "rental_uris": {"android": "https://dc.lft.to/lastmile_qr_scan", "ios": "https://dc.lft.to/lastmile_qr_scan"}, "fusion_lon": 0.0, "lat": 38.80712916666667, "bike_id": "7732b9aaad3c55af1882e644cf50d957", "type": "electric_bike", "is_reserved": 0, "lon": -77.0617175}, {"fusion_lat": 0.0, "name": "d64f14929f89eb555c6b20f2e18c9ecf", "is_disabled": 0, "rental_uris": {"android": "https://dc.lft.to/lastmile_qr_scan", "ios": "https://dc.lft.to/lastmile_qr_scan"}, "fusion_lon": 0.0, "lat": 38.887326, "bike_id": "d64f14929f89eb555c6b20f2e18c9ecf", "type": "electric_scooter", "is_reserved": 0, "lon": -77.0151585}, {"fusion_lat": 0.0, "name": "74372351c26953c7f0cf12d6af440ec6", "is_disabled": 0, "rental_uris": {"android": "https://dc.lft.to/lastmile_qr_scan", "ios": "https://dc.lft.to/lastmile_qr_scan"}, "fusion_lon": 0.0, "lat": 38.904960333333335, "bike_id": "74372351c26953c7f0cf12d6af440ec6", "type": "electric_scooter", "is_reserved": 0, "lon": -77.0094315}, {"fusion_lat": 0.0, "name": "ef06c20984f6d2afb0d69af3f3875437", "is_disabled": 0, "rental_uris": {"android": "https://dc.lft.to/lastmile_qr_scan", "ios": "https://dc.lft.to/lastmile_qr_scan"}, "fusion_lon": 0.0, "lat": 38.921742, "bike_id": "ef06c20984f6d2afb0d69af3f3875437", "type": "electric_scooter", "is_reserved": 0, "lon": -77.04027366666666}, {"fusion_lat": 0.0, "name": "b1c472172e8b42c6ae113c8798567a33", "is_disabled": 0, "rental_uris": {"android": "https://dc.lft.to/lastmile_qr_scan", "ios": "https://dc.lft.to/lastmile_qr_scan"}, "fusion_lon": 0.0, "lat": 38.892284833333335, "bike_id": "b1c472172e8b42c6ae113c8798567a33", "type": "electric_scooter", "is_reserved": 0, "lon": -76.98815866666666}, {"fusion_lat": 0.0, "name": "8b092afaa693775c8337c87ac4f88f06", "is_disabled": 0, "rental_uris": {"android": "https://dc.lft.to/lastmile_qr_scan", "ios": "https://dc.lft.to/lastmile_qr_scan"}, "fusion_lon": 0.0, "lat": 38.91856283333333, "bike_id": "8b092afaa693775c8337c87ac4f88f06", "type": "electric_bike", "is_reserved": 0, "lon": -76.96089266666667}, {"fusion_lat": 0.0, "name": "016b7e8b9a8054409d02cb922181d411", "is_disabled": 0, "rental_uris": {"android": "https://dc.lft.to/lastmile_qr_scan", "ios": "https://dc.lft.to/lastmile_qr_scan"}, "fusion_lon": 0.0, "lat": 38.91106383333333, "bike_id": "016b7e8b9a8054409d02cb922181d411", "type": "electric_scooter", "is_reserved": 0, "lon": -77.0119105}, {"fusion_lat": 0.0, "name": "a44abbcda793fc2074f76b1a0b2836b3", "is_disabled": 0, "rental_uris": {"android": "https://dc.lft.to/lastmile_qr_scan", "ios": "https://dc.lft.to/lastmile_qr_scan"}, "fusion_lon": 0.0, "lat": 38.902383, "bike_id": "a44abbcda793fc2074f76b1a0b2836b3", "type": "electric_scooter", "is_reserved": 0, "lon": -77.04597483333333}, {"fusion_lat": 0.0, "name": "1d0b15ccea63f46fb7c07816902b8ac5", "is_disabled": 0, "rental_uris": {"android": "https://dc.lft.to/lastmile_qr_scan", "ios": "https://dc.lft.to/lastmile_qr_scan"}, "fusion_lon": 0.0, "lat": 38.9212805, "bike_id": "1d0b15ccea63f46fb7c07816902b8ac5", "type": "electric_scooter", "is_reserved": 0, "lon": -77.0179815}, {"fusion_lat": 0.0, "name": "6b1ee6d468928c529138b0dd81a1fdd5", "is_disabled": 0, "rental_uris": {"android": "https://dc.lft.to/lastmile_qr_scan", "ios": "https://dc.lft.to/lastmile_qr_scan"}, "fusion_lon": 0.0, "lat": 38.92036933333333, "bike_id": "6b1ee6d468928c529138b0dd81a1fdd5", "type": "electric_scooter", "is_reserved": 0, "lon": -77.041769}, {"fusion_lat": 0.0, "name": "0c2900a3b2d273af630edfb542b7e69c", "is_disabled": 0, "rental_uris": {"android": "https://dc.lft.to/lastmile_qr_scan", "ios": "https://dc.lft.to/lastmile_qr_scan"}, "fusion_lon": 0.0, "lat": 38.91764766666667, "bike_id": "0c2900a3b2d273af630edfb542b7e69c", "type": "electric_scooter", "is_reserved": 0, "lon": -77.06952316666667}, {"fusion_lat": 0.0, "name": "b2d14570b219a9c0e1edaa81cc06cbc6", "is_disabled": 0, "rental_uris": {"android": "https://dc.lft.to/lastmile_qr_scan", "ios": "https://dc.lft.to/lastmile_qr_scan"}, "fusion_lon": 0.0, "lat": 38.93485666666667, "bike_id": "b2d14570b219a9c0e1edaa81cc06cbc6", "type": "electric_scooter", "is_reserved": 0, "lon": -77.07277083333334}, {"fusion_lat": 0.0, "name": "6343b99533dbbe23ab698998040165a7", "is_disabled": 0, "rental_uris": {"android": "https://dc.lft.to/lastmile_qr_scan", "ios": "https://dc.lft.to/lastmile_qr_scan"}, "fusion_lon": 0.0, "lat": 38.90561016666667, "bike_id": "6343b99533dbbe23ab698998040165a7", "type": "electric_scooter", "is_reserved": 0, "lon": -77.02093233333333}, {"fusion_lat": 0.0, "name": "3e32cdce264053b011d6534565281526", "is_disabled": 0, "rental_uris": {"android": "https://dc.lft.to/lastmile_qr_scan", "ios": "https://dc.lft.to/lastmile_qr_scan"}, "fusion_lon": 0.0, "lat": 38.836250166666666, "bike_id": "3e32cdce264053b011d6534565281526", "type": "electric_bike", "is_reserved": 0, "lon": -77.06955566666667}, {"fusion_lat": 0.0, "name": "52084712d8f4bec4c9f1a588df2eabbe", "is_disabled": 0, "rental_uris": {"android": "https://dc.lft.to/lastmile_qr_scan", "ios": "https://dc.lft.to/lastmile_qr_scan"}, "fusion_lon": 0.0, "lat": 38.906872, "bike_id": "52084712d8f4bec4c9f1a588df2eabbe", "type": "electric_scooter", "is_reserved": 0, "lon": -76.95192333333334}, {"fusion_lat": 0.0, "name": "842232c3734c0941fdebd9c51d298be8", "is_disabled": 0, "rental_uris": {"android": "https://dc.lft.to/lastmile_qr_scan", "ios": "https://dc.lft.to/lastmile_qr_scan"}, "fusion_lon": 0.0, "lat": 38.919887, "bike_id": "842232c3734c0941fdebd9c51d298be8", "type": "electric_scooter", "is_reserved": 0, "lon": -77.03964316666666}, {"fusion_lat": 0.0, "name": "87a3e8a156eaf49a1d94fc6f1c4c702d", "is_disabled": 0, "rental_uris": {"android": "https://dc.lft.to/lastmile_qr_scan", "ios": "https://dc.lft.to/lastmile_qr_scan"}, "fusion_lon": 0.0, "lat": 38.907124333333336, "bike_id": "87a3e8a156eaf49a1d94fc6f1c4c702d", "type": "electric_scooter", "is_reserved": 0, "lon": -77.02385583333333}, {"fusion_lat": 0.0, "name": "bb4a27fd4898d64da2e3857573490775", "is_disabled": 0, "rental_uris": {"android": "https://dc.lft.to/lastmile_qr_scan", "ios": "https://dc.lft.to/lastmile_qr_scan"}, "fusion_lon": 0.0, "lat": 38.9163845, "bike_id": "bb4a27fd4898d64da2e3857573490775", "type": "electric_scooter", "is_reserved": 0, "lon": -77.03194683333334}, {"fusion_lat": 0.0, "name": "9f8eb8975149adb70441bc31d651eee0", "is_disabled": 0, "rental_uris": {"android": "https://dc.lft.to/lastmile_qr_scan", "ios": "https://dc.lft.to/lastmile_qr_scan"}, "fusion_lon": 0.0, "lat": 38.934413666666664, "bike_id": "9f8eb8975149adb70441bc31d651eee0", "type": "electric_scooter", "is_reserved": 0, "lon": -77.0297695}, {"fusion_lat": 0.0, "name": "090e71a73f4b186216ea004e3a7c0828", "is_disabled": 0, "rental_uris": {"android": "https://dc.lft.to/lastmile_qr_scan", "ios": "https://dc.lft.to/lastmile_qr_scan"}, "fusion_lon": 0.0, "lat": 38.91855666666667, "bike_id": "090e71a73f4b186216ea004e3a7c0828", "type": "electric_scooter", "is_reserved": 0, "lon": -77.02360633333333}, {"fusion_lat": 0.0, "name": "9539e4ba90cf30de5f28eef9cdecf277", "is_disabled": 0, "rental_uris": {"android": "https://dc.lft.to/lastmile_qr_scan", "ios": "https://dc.lft.to/lastmile_qr_scan"}, "fusion_lon": 0.0, "lat": 38.91720433333333, "bike_id": "9539e4ba90cf30de5f28eef9cdecf277", "type": "electric_scooter", "is_reserved": 0, "lon": -77.031835}, {"fusion_lat": 0.0, "name": "69d7cbdce0e4a67afa81089780667940", "is_disabled": 0, "rental_uris": {"android": "https://dc.lft.to/lastmile_qr_scan", "ios": "https://dc.lft.to/lastmile_qr_scan"}, "fusion_lon": 0.0, "lat": 38.91573183333333, "bike_id": "69d7cbdce0e4a67afa81089780667940", "type": "electric_scooter", "is_reserved": 0, "lon": -77.0448525}, {"fusion_lat": 0.0, "name": "298113fbdbb399ba07c338f6fd082bed", "is_disabled": 0, "rental_uris": {"android": "https://dc.lft.to/lastmile_qr_scan", "ios": "https://dc.lft.to/lastmile_qr_scan"}, "fusion_lon": 0.0, "lat": 38.865143833333335, "bike_id": "298113fbdbb399ba07c338f6fd082bed", "type": "electric_bike", "is_reserved": 0, "lon": -76.97334883333333}, {"fusion_lat": 0.0, "name": "09e01a76e088d80ab686fe527b266a24", "is_disabled": 0, "rental_uris": {"android": "https://dc.lft.to/lastmile_qr_scan", "ios": "https://dc.lft.to/lastmile_qr_scan"}, "fusion_lon": 0.0, "lat": 38.92407816666667, "bike_id": "09e01a76e088d80ab686fe527b266a24", "type": "electric_scooter", "is_reserved": 0, "lon": -77.0407875}, {"fusion_lat": 0.0, "name": "49eebe91283c371d2bed0d0566d028f1", "is_disabled": 0, "rental_uris": {"android": "https://dc.lft.to/lastmile_qr_scan", "ios": "https://dc.lft.to/lastmile_qr_scan"}, "fusion_lon": 0.0, "lat": 38.88899716666667, "bike_id": "49eebe91283c371d2bed0d0566d028f1", "type": "electric_scooter", "is_reserved": 0, "lon": -76.99203883333334}, {"fusion_lat": 0.0, "name": "3560fe8d21c33eb17c5dfb1c2e9386ba", "is_disabled": 0, "rental_uris": {"android": "https://dc.lft.to/lastmile_qr_scan", "ios": "https://dc.lft.to/lastmile_qr_scan"}, "fusion_lon": 0.0, "lat": 38.84915516666667, "bike_id": "3560fe8d21c33eb17c5dfb1c2e9386ba", "type": "electric_bike", "is_reserved": 0, "lon": -77.09980133333333}, {"fusion_lat": 0.0, "name": "f6adcdbf21224e95d4b52dab57c8af38", "is_disabled": 0, "rental_uris": {"android": "https://dc.lft.to/lastmile_qr_scan", "ios": "https://dc.lft.to/lastmile_qr_scan"}, "fusion_lon": 0.0, "lat": 38.897449, "bike_id": "f6adcdbf21224e95d4b52dab57c8af38", "type": "electric_scooter", "is_reserved": 0, "lon": -77.02181516666667}, {"fusion_lat": 0.0, "name": "25947891a255a5b0ed71e760db415a36", "is_disabled": 0, "rental_uris": {"android": "https://dc.lft.to/lastmile_qr_scan", "ios": "https://dc.lft.to/lastmile_qr_scan"}, "fusion_lon": 0.0, "lat": 38.8782235, "bike_id": "25947891a255a5b0ed71e760db415a36", "type": "electric_scooter", "is_reserved": 0, "lon": -77.00129083333333}, {"fusion_lat": 0.0, "name": "baddd96592ae8ca00a57a782eca2155d", "is_disabled": 0, "rental_uris": {"android": "https://dc.lft.to/lastmile_qr_scan", "ios": "https://dc.lft.to/lastmile_qr_scan"}, "fusion_lon": 0.0, "lat": 38.931145666666666, "bike_id": "baddd96592ae8ca00a57a782eca2155d", "type": "electric_scooter", "is_reserved": 0, "lon": -77.03031366666667}, {"fusion_lat": 0.0, "name": "4eeafbcaa0fd89c8b9ec1e0c9741e39c", "is_disabled": 0, "rental_uris": {"android": "https://dc.lft.to/lastmile_qr_scan", "ios": "https://dc.lft.to/lastmile_qr_scan"}, "fusion_lon": 0.0, "lat": 38.92853516666667, "bike_id": "4eeafbcaa0fd89c8b9ec1e0c9741e39c", "type": "electric_scooter", "is_reserved": 0, "lon": -77.014178}, {"fusion_lat": 0.0, "name": "4629b35e159116d7250d4d12d172c42b", "is_disabled": 0, "rental_uris": {"android": "https://dc.lft.to/lastmile_qr_scan", "ios": "https://dc.lft.to/lastmile_qr_scan"}, "fusion_lon": 0.0, "lat": 38.94097416666666, "bike_id": "4629b35e159116d7250d4d12d172c42b", "type": "electric_scooter", "is_reserved": 0, "lon": -77.03276166666667}, {"fusion_lat": 0.0, "name": "a3f81e113cba1035f68c8dd153b81333", "is_disabled": 0, "rental_uris": {"android": "https://dc.lft.to/lastmile_qr_scan", "ios": "https://dc.lft.to/lastmile_qr_scan"}, "fusion_lon": 0.0, "lat": 38.92057666666667, "bike_id": "a3f81e113cba1035f68c8dd153b81333", "type": "electric_scooter", "is_reserved": 0, "lon": -77.02358633333333}, {"fusion_lat": 0.0, "name": "5da260682693a5f288ba01d9d88a9c89", "is_disabled": 0, "rental_uris": {"android": "https://dc.lft.to/lastmile_qr_scan", "ios": "https://dc.lft.to/lastmile_qr_scan"}, "fusion_lon": 0.0, "lat": 38.9307565, "bike_id": "5da260682693a5f288ba01d9d88a9c89", "type": "electric_scooter", "is_reserved": 0, "lon": -77.07759316666667}, {"fusion_lat": 0.0, "name": "7ab99e75a92f41f000fb3ed8af24ef6c", "is_disabled": 0, "rental_uris": {"android": "https://dc.lft.to/lastmile_qr_scan", "ios": "https://dc.lft.to/lastmile_qr_scan"}, "fusion_lon": 0.0, "lat": 38.906314, "bike_id": "7ab99e75a92f41f000fb3ed8af24ef6c", "type": "electric_scooter", "is_reserved": 0, "lon": -77.04879183333334}, {"fusion_lat": 0.0, "name": "7d144565b28e7159a7c1ddd7cd8b1432", "is_disabled": 0, "rental_uris": {"android": "https://dc.lft.to/lastmile_qr_scan", "ios": "https://dc.lft.to/lastmile_qr_scan"}, "fusion_lon": 0.0, "lat": 38.86014616666667, "bike_id": "7d144565b28e7159a7c1ddd7cd8b1432", "type": "electric_bike", "is_reserved": 0, "lon": -77.12807283333333}, {"fusion_lat": 0.0, "name": "17153e648f64b1feb66fe9687441930b", "is_disabled": 0, "rental_uris": {"android": "https://dc.lft.to/lastmile_qr_scan", "ios": "https://dc.lft.to/lastmile_qr_scan"}, "fusion_lon": 0.0, "lat": 38.87453566666667, "bike_id": "17153e648f64b1feb66fe9687441930b", "type": "electric_scooter", "is_reserved": 0, "lon": -77.00298383333333}, {"fusion_lat": 0.0, "name": "2587de0f29a463b82dc015b963e2ba80", "is_disabled": 0, "rental_uris": {"android": "https://dc.lft.to/lastmile_qr_scan", "ios": "https://dc.lft.to/lastmile_qr_scan"}, "fusion_lon": 0.0, "lat": 38.930825166666665, "bike_id": "2587de0f29a463b82dc015b963e2ba80", "type": "electric_scooter", "is_reserved": 0, "lon": -77.0279315}, {"fusion_lat": 0.0, "name": "7e2d6a14992df2b9f835b23d9921176c", "is_disabled": 0, "rental_uris": {"android": "https://dc.lft.to/lastmile_qr_scan", "ios": "https://dc.lft.to/lastmile_qr_scan"}, "fusion_lon": 0.0, "lat": 38.914814666666665, "bike_id": "7e2d6a14992df2b9f835b23d9921176c", "type": "electric_scooter", "is_reserved": 0, "lon": -77.04607716666666}, {"fusion_lat": 0.0, "name": "054a903867b25bd367a226f1953510cd", "is_disabled": 0, "rental_uris": {"android": "https://dc.lft.to/lastmile_qr_scan", "ios": "https://dc.lft.to/lastmile_qr_scan"}, "fusion_lon": 0.0, "lat": 38.917244, "bike_id": "054a903867b25bd367a226f1953510cd", "type": "electric_scooter", "is_reserved": 0, "lon": -77.01917866666666}, {"fusion_lat": 0.0, "name": "00ed3b7bef1b65f3914c60355818bc24", "is_disabled": 0, "rental_uris": {"android": "https://dc.lft.to/lastmile_qr_scan", "ios": "https://dc.lft.to/lastmile_qr_scan"}, "fusion_lon": 0.0, "lat": 38.92072533333333, "bike_id": "00ed3b7bef1b65f3914c60355818bc24", "type": "electric_scooter", "is_reserved": 0, "lon": -77.03805816666667}, {"fusion_lat": 0.0, "name": "09dc2103da44fbbad51e6a35d4f937ae", "is_disabled": 0, "rental_uris": {"android": "https://dc.lft.to/lastmile_qr_scan", "ios": "https://dc.lft.to/lastmile_qr_scan"}, "fusion_lon": 0.0, "lat": 38.9333865, "bike_id": "09dc2103da44fbbad51e6a35d4f937ae", "type": "electric_scooter", "is_reserved": 0, "lon": -77.02623483333333}, {"fusion_lat": 0.0, "name": "5da1c9240cdc97922f62c6be404ef207", "is_disabled": 0, "rental_uris": {"android": "https://dc.lft.to/lastmile_qr_scan", "ios": "https://dc.lft.to/lastmile_qr_scan"}, "fusion_lon": 0.0, "lat": 38.9212815, "bike_id": "5da1c9240cdc97922f62c6be404ef207", "type": "electric_scooter", "is_reserved": 0, "lon": -77.017985}, {"fusion_lat": 0.0, "name": "231a93f0bca2c71e33548936a0f173bd", "is_disabled": 0, "rental_uris": {"android": "https://dc.lft.to/lastmile_qr_scan", "ios": "https://dc.lft.to/lastmile_qr_scan"}, "fusion_lon": 0.0, "lat": 38.931315833333336, "bike_id": "231a93f0bca2c71e33548936a0f173bd", "type": "electric_scooter", "is_reserved": 0, "lon": -77.0385395}, {"fusion_lat": 0.0, "name": "f98f09f797a1bd8c01edc824b6b1388f", "is_disabled": 0, "rental_uris": {"android": "https://dc.lft.to/lastmile_qr_scan", "ios": "https://dc.lft.to/lastmile_qr_scan"}, "fusion_lon": 0.0, "lat": 38.895636833333334, "bike_id": "f98f09f797a1bd8c01edc824b6b1388f", "type": "electric_scooter", "is_reserved": 0, "lon": -77.02174283333333}, {"fusion_lat": 0.0, "name": "db81a6ddab39a48eb0ea9bfd12aa8eed", "is_disabled": 0, "rental_uris": {"android": "https://dc.lft.to/lastmile_qr_scan", "ios": "https://dc.lft.to/lastmile_qr_scan"}, "fusion_lon": 0.0, "lat": 38.914799, "bike_id": "db81a6ddab39a48eb0ea9bfd12aa8eed", "type": "electric_scooter", "is_reserved": 0, "lon": -77.04609633333334}, {"fusion_lat": 0.0, "name": "73c9d8202b5d105aacf4a5e83949193f", "is_disabled": 0, "rental_uris": {"android": "https://dc.lft.to/lastmile_qr_scan", "ios": "https://dc.lft.to/lastmile_qr_scan"}, "fusion_lon": 0.0, "lat": 38.897327, "bike_id": "73c9d8202b5d105aacf4a5e83949193f", "type": "electric_scooter", "is_reserved": 0, "lon": -77.02376066666666}, {"fusion_lat": 0.0, "name": "6448c0cdca82c776fe19980feeabf43e", "is_disabled": 0, "rental_uris": {"android": "https://dc.lft.to/lastmile_qr_scan", "ios": "https://dc.lft.to/lastmile_qr_scan"}, "fusion_lon": 0.0, "lat": 38.900763833333336, "bike_id": "6448c0cdca82c776fe19980feeabf43e", "type": "electric_scooter", "is_reserved": 0, "lon": -77.050119}, {"fusion_lat": 0.0, "name": "c1e0d762a55655ebf78b7cd067b537c4", "is_disabled": 0, "rental_uris": {"android": "https://dc.lft.to/lastmile_qr_scan", "ios": "https://dc.lft.to/lastmile_qr_scan"}, "fusion_lon": 0.0, "lat": 38.912733, "bike_id": "c1e0d762a55655ebf78b7cd067b537c4", "type": "electric_scooter", "is_reserved": 0, "lon": -77.01976883333333}, {"fusion_lat": 0.0, "name": "8c7fb84743f92744966479a1d6758f28", "is_disabled": 0, "rental_uris": {"android": "https://dc.lft.to/lastmile_qr_scan", "ios": "https://dc.lft.to/lastmile_qr_scan"}, "fusion_lon": 0.0, "lat": 38.905054, "bike_id": "8c7fb84743f92744966479a1d6758f28", "type": "electric_scooter", "is_reserved": 0, "lon": -77.06468516666666}, {"fusion_lat": 0.0, "name": "08486476743122f64a2de7d0772792ab", "is_disabled": 0, "rental_uris": {"android": "https://dc.lft.to/lastmile_qr_scan", "ios": "https://dc.lft.to/lastmile_qr_scan"}, "fusion_lon": 0.0, "lat": 38.89903483333333, "bike_id": "08486476743122f64a2de7d0772792ab", "type": "electric_scooter", "is_reserved": 0, "lon": -76.99395266666667}, {"fusion_lat": 0.0, "name": "b41b214ab2701a80c300d4e6a6c620ab", "is_disabled": 0, "rental_uris": {"android": "https://dc.lft.to/lastmile_qr_scan", "ios": "https://dc.lft.to/lastmile_qr_scan"}, "fusion_lon": 0.0, "lat": 38.956229, "bike_id": "b41b214ab2701a80c300d4e6a6c620ab", "type": "electric_bike", "is_reserved": 0, "lon": -76.93872916666666}, {"fusion_lat": 0.0, "name": "891f7f30b0dd442e1bba11203643ee45", "is_disabled": 0, "rental_uris": {"android": "https://dc.lft.to/lastmile_qr_scan", "ios": "https://dc.lft.to/lastmile_qr_scan"}, "fusion_lon": 0.0, "lat": 38.894999166666665, "bike_id": "891f7f30b0dd442e1bba11203643ee45", "type": "electric_scooter", "is_reserved": 0, "lon": -77.03957283333334}, {"fusion_lat": 0.0, "name": "7dc05fe08e314e76288c8a168d43d4cf", "is_disabled": 0, "rental_uris": {"android": "https://dc.lft.to/lastmile_qr_scan", "ios": "https://dc.lft.to/lastmile_qr_scan"}, "fusion_lon": 0.0, "lat": 38.895251, "bike_id": "7dc05fe08e314e76288c8a168d43d4cf", "type": "electric_scooter", "is_reserved": 0, "lon": -76.9341065}, {"fusion_lat": 0.0, "name": "53f51b982a611d7b8f8cc6e615734a53", "is_disabled": 0, "rental_uris": {"android": "https://dc.lft.to/lastmile_qr_scan", "ios": "https://dc.lft.to/lastmile_qr_scan"}, "fusion_lon": 0.0, "lat": 38.900886666666665, "bike_id": "53f51b982a611d7b8f8cc6e615734a53", "type": "electric_scooter", "is_reserved": 0, "lon": -76.98336616666667}, {"fusion_lat": 0.0, "name": "559a86f62c04d252d99ed236db2a1e1b", "is_disabled": 0, "rental_uris": {"android": "https://dc.lft.to/lastmile_qr_scan", "ios": "https://dc.lft.to/lastmile_qr_scan"}, "fusion_lon": 0.0, "lat": 38.906217166666664, "bike_id": "559a86f62c04d252d99ed236db2a1e1b", "type": "electric_scooter", "is_reserved": 0, "lon": -77.00574366666666}, {"fusion_lat": 0.0, "name": "aacd6d0a378766973a5b0d4188cd0f1c", "is_disabled": 0, "rental_uris": {"android": "https://dc.lft.to/lastmile_qr_scan", "ios": "https://dc.lft.to/lastmile_qr_scan"}, "fusion_lon": 0.0, "lat": 38.9375665, "bike_id": "aacd6d0a378766973a5b0d4188cd0f1c", "type": "electric_scooter", "is_reserved": 0, "lon": -77.032512}, {"fusion_lat": 0.0, "name": "d02632bddbb1d23f08c74062b3d07c3c", "is_disabled": 0, "rental_uris": {"android": "https://dc.lft.to/lastmile_qr_scan", "ios": "https://dc.lft.to/lastmile_qr_scan"}, "fusion_lon": 0.0, "lat": 38.92139983333333, "bike_id": "d02632bddbb1d23f08c74062b3d07c3c", "type": "electric_scooter", "is_reserved": 0, "lon": -77.0192765}, {"fusion_lat": 0.0, "name": "832a6c213d1a64b8d2fb2dc4d8a51814", "is_disabled": 0, "rental_uris": {"android": "https://dc.lft.to/lastmile_qr_scan", "ios": "https://dc.lft.to/lastmile_qr_scan"}, "fusion_lon": 0.0, "lat": 38.905181, "bike_id": "832a6c213d1a64b8d2fb2dc4d8a51814", "type": "electric_scooter", "is_reserved": 0, "lon": -77.02948333333333}, {"fusion_lat": 0.0, "name": "d73e3b5937d8f835970b187d1d4afc61", "is_disabled": 0, "rental_uris": {"android": "https://dc.lft.to/lastmile_qr_scan", "ios": "https://dc.lft.to/lastmile_qr_scan"}, "fusion_lon": 0.0, "lat": 38.919766333333335, "bike_id": "d73e3b5937d8f835970b187d1d4afc61", "type": "electric_scooter", "is_reserved": 0, "lon": -77.02395066666666}, {"fusion_lat": 0.0, "name": "da879d2ebea22bcfbf70dca76e9a20fe", "is_disabled": 0, "rental_uris": {"android": "https://dc.lft.to/lastmile_qr_scan", "ios": "https://dc.lft.to/lastmile_qr_scan"}, "fusion_lon": 0.0, "lat": 38.90664983333333, "bike_id": "da879d2ebea22bcfbf70dca76e9a20fe", "type": "electric_scooter", "is_reserved": 0, "lon": -77.03864433333334}, {"fusion_lat": 0.0, "name": "e461a30a957d4edb903284fe0695b4a6", "is_disabled": 0, "rental_uris": {"android": "https://dc.lft.to/lastmile_qr_scan", "ios": "https://dc.lft.to/lastmile_qr_scan"}, "fusion_lon": 0.0, "lat": 38.90113216666666, "bike_id": "e461a30a957d4edb903284fe0695b4a6", "type": "electric_scooter", "is_reserved": 0, "lon": -77.02609483333333}, {"fusion_lat": 0.0, "name": "c3785a78cb8de7ebe3bf55aefe8acc33", "is_disabled": 0, "rental_uris": {"android": "https://dc.lft.to/lastmile_qr_scan", "ios": "https://dc.lft.to/lastmile_qr_scan"}, "fusion_lon": 0.0, "lat": 38.904684333333336, "bike_id": "c3785a78cb8de7ebe3bf55aefe8acc33", "type": "electric_scooter", "is_reserved": 0, "lon": -77.03555866666666}, {"fusion_lat": 0.0, "name": "84c65dcbcea978470be24a8ade6e07e3", "is_disabled": 0, "rental_uris": {"android": "https://dc.lft.to/lastmile_qr_scan", "ios": "https://dc.lft.to/lastmile_qr_scan"}, "fusion_lon": 0.0, "lat": 38.909702333333335, "bike_id": "84c65dcbcea978470be24a8ade6e07e3", "type": "electric_scooter", "is_reserved": 0, "lon": -77.03423816666667}, {"fusion_lat": 0.0, "name": "0d590ead260fec8533b107c3f3959f69", "is_disabled": 0, "rental_uris": {"android": "https://dc.lft.to/lastmile_qr_scan", "ios": "https://dc.lft.to/lastmile_qr_scan"}, "fusion_lon": 0.0, "lat": 38.932033, "bike_id": "0d590ead260fec8533b107c3f3959f69", "type": "electric_scooter", "is_reserved": 0, "lon": -77.03501633333333}, {"fusion_lat": 0.0, "name": "5a7fb8c4860110f2ad515e8f650934e9", "is_disabled": 0, "rental_uris": {"android": "https://dc.lft.to/lastmile_qr_scan", "ios": "https://dc.lft.to/lastmile_qr_scan"}, "fusion_lon": 0.0, "lat": 38.90717016666667, "bike_id": "5a7fb8c4860110f2ad515e8f650934e9", "type": "electric_scooter", "is_reserved": 0, "lon": -77.02406416666666}, {"fusion_lat": 0.0, "name": "bc67c6e51dee188f5408cca2e77a6817", "is_disabled": 0, "rental_uris": {"android": "https://dc.lft.to/lastmile_qr_scan", "ios": "https://dc.lft.to/lastmile_qr_scan"}, "fusion_lon": 0.0, "lat": 38.89728066666667, "bike_id": "bc67c6e51dee188f5408cca2e77a6817", "type": "electric_scooter", "is_reserved": 0, "lon": -77.0441705}, {"fusion_lat": 0.0, "name": "6036ee5ff75e9c4603cad13c3cb76662", "is_disabled": 0, "rental_uris": {"android": "https://dc.lft.to/lastmile_qr_scan", "ios": "https://dc.lft.to/lastmile_qr_scan"}, "fusion_lon": 0.0, "lat": 38.92757916666667, "bike_id": "6036ee5ff75e9c4603cad13c3cb76662", "type": "electric_scooter", "is_reserved": 0, "lon": -77.05269533333333}, {"fusion_lat": 0.0, "name": "3a54db24bcb5e32c41da77bb151141ab", "is_disabled": 0, "rental_uris": {"android": "https://dc.lft.to/lastmile_qr_scan", "ios": "https://dc.lft.to/lastmile_qr_scan"}, "fusion_lon": 0.0, "lat": 38.927870166666665, "bike_id": "3a54db24bcb5e32c41da77bb151141ab", "type": "electric_scooter", "is_reserved": 0, "lon": -77.05312516666666}, {"fusion_lat": 0.0, "name": "ea5a06c66dae2c5ed0cec7fa9aa93e33", "is_disabled": 0, "rental_uris": {"android": "https://dc.lft.to/lastmile_qr_scan", "ios": "https://dc.lft.to/lastmile_qr_scan"}, "fusion_lon": 0.0, "lat": 38.9251565, "bike_id": "ea5a06c66dae2c5ed0cec7fa9aa93e33", "type": "electric_scooter", "is_reserved": 0, "lon": -77.0504145}, {"fusion_lat": 0.0, "name": "bd3e90afe0e273e1c223c153224d213a", "is_disabled": 0, "rental_uris": {"android": "https://dc.lft.to/lastmile_qr_scan", "ios": "https://dc.lft.to/lastmile_qr_scan"}, "fusion_lon": 0.0, "lat": 38.8865145, "bike_id": "bd3e90afe0e273e1c223c153224d213a", "type": "electric_scooter", "is_reserved": 0, "lon": -77.0198355}, {"fusion_lat": 0.0, "name": "2126b452d3ac733eead83501bab063f5", "is_disabled": 0, "rental_uris": {"android": "https://dc.lft.to/lastmile_qr_scan", "ios": "https://dc.lft.to/lastmile_qr_scan"}, "fusion_lon": 0.0, "lat": 38.93224083333333, "bike_id": "2126b452d3ac733eead83501bab063f5", "type": "electric_scooter", "is_reserved": 0, "lon": -76.994918}, {"fusion_lat": 0.0, "name": "7d8bd7d2d25c1a1541ad6e6f41ad7263", "is_disabled": 0, "rental_uris": {"android": "https://dc.lft.to/lastmile_qr_scan", "ios": "https://dc.lft.to/lastmile_qr_scan"}, "fusion_lon": 0.0, "lat": 38.9268555, "bike_id": "7d8bd7d2d25c1a1541ad6e6f41ad7263", "type": "electric_scooter", "is_reserved": 0, "lon": -77.02543766666666}, {"fusion_lat": 0.0, "name": "c391eb6b82c9d8ce25ec3fe791262dba", "is_disabled": 0, "rental_uris": {"android": "https://dc.lft.to/lastmile_qr_scan", "ios": "https://dc.lft.to/lastmile_qr_scan"}, "fusion_lon": 0.0, "lat": 38.91712233333333, "bike_id": "c391eb6b82c9d8ce25ec3fe791262dba", "type": "electric_scooter", "is_reserved": 0, "lon": -77.03877}, {"fusion_lat": 0.0, "name": "69e8c34ac035c733bbd07ad659b40f7c", "is_disabled": 0, "rental_uris": {"android": "https://dc.lft.to/lastmile_qr_scan", "ios": "https://dc.lft.to/lastmile_qr_scan"}, "fusion_lon": 0.0, "lat": 38.8830025, "bike_id": "69e8c34ac035c733bbd07ad659b40f7c", "type": "electric_scooter", "is_reserved": 0, "lon": -76.94853616666667}, {"fusion_lat": 0.0, "name": "f2d10a241fa32828f7b54788c8b9dc22", "is_disabled": 0, "rental_uris": {"android": "https://dc.lft.to/lastmile_qr_scan", "ios": "https://dc.lft.to/lastmile_qr_scan"}, "fusion_lon": 0.0, "lat": 38.8982325, "bike_id": "f2d10a241fa32828f7b54788c8b9dc22", "type": "electric_scooter", "is_reserved": 0, "lon": -77.02979366666666}, {"fusion_lat": 0.0, "name": "d3b4f3e4956e798648b5816f0b698ed5", "is_disabled": 0, "rental_uris": {"android": "https://dc.lft.to/lastmile_qr_scan", "ios": "https://dc.lft.to/lastmile_qr_scan"}, "fusion_lon": 0.0, "lat": 38.80751716666666, "bike_id": "d3b4f3e4956e798648b5816f0b698ed5", "type": "electric_bike", "is_reserved": 0, "lon": -77.0945035}, {"fusion_lat": 0.0, "name": "77a97630d71ace715776401e25dee60c", "is_disabled": 0, "rental_uris": {"android": "https://dc.lft.to/lastmile_qr_scan", "ios": "https://dc.lft.to/lastmile_qr_scan"}, "fusion_lon": 0.0, "lat": 38.907644, "bike_id": "77a97630d71ace715776401e25dee60c", "type": "electric_scooter", "is_reserved": 0, "lon": -77.038365}, {"fusion_lat": 0.0, "name": "5c682e630ceb2a55474f4c34897ae748", "is_disabled": 0, "rental_uris": {"android": "https://dc.lft.to/lastmile_qr_scan", "ios": "https://dc.lft.to/lastmile_qr_scan"}, "fusion_lon": 0.0, "lat": 38.90913033333333, "bike_id": "5c682e630ceb2a55474f4c34897ae748", "type": "electric_scooter", "is_reserved": 0, "lon": -77.064341}, {"fusion_lat": 0.0, "name": "01dc0eedc0467ddc4b75f20eec58d82e", "is_disabled": 0, "rental_uris": {"android": "https://dc.lft.to/lastmile_qr_scan", "ios": "https://dc.lft.to/lastmile_qr_scan"}, "fusion_lon": 0.0, "lat": 38.854224333333335, "bike_id": "01dc0eedc0467ddc4b75f20eec58d82e", "type": "electric_bike", "is_reserved": 0, "lon": -77.1208}, {"fusion_lat": 0.0, "name": "e1ab5d40a257df321a82b3ce8bddfd4d", "is_disabled": 0, "rental_uris": {"android": "https://dc.lft.to/lastmile_qr_scan", "ios": "https://dc.lft.to/lastmile_qr_scan"}, "fusion_lon": 0.0, "lat": 38.91205683333333, "bike_id": "e1ab5d40a257df321a82b3ce8bddfd4d", "type": "electric_scooter", "is_reserved": 0, "lon": -77.00084516666666}, {"fusion_lat": 0.0, "name": "8aac16eecd8ff81a8b75e359509bf5bf", "is_disabled": 0, "rental_uris": {"android": "https://dc.lft.to/lastmile_qr_scan", "ios": "https://dc.lft.to/lastmile_qr_scan"}, "fusion_lon": 0.0, "lat": 38.91711816666667, "bike_id": "8aac16eecd8ff81a8b75e359509bf5bf", "type": "electric_scooter", "is_reserved": 0, "lon": -77.03228566666667}, {"fusion_lat": 0.0, "name": "08f46a0cc0268e553917b8c52450de63", "is_disabled": 0, "rental_uris": {"android": "https://dc.lft.to/lastmile_qr_scan", "ios": "https://dc.lft.to/lastmile_qr_scan"}, "fusion_lon": 0.0, "lat": 38.923545, "bike_id": "08f46a0cc0268e553917b8c52450de63", "type": "electric_bike", "is_reserved": 0, "lon": -77.04155916666667}, {"fusion_lat": 0.0, "name": "3ee317230661bd8bf274d3297299848c", "is_disabled": 0, "rental_uris": {"android": "https://dc.lft.to/lastmile_qr_scan", "ios": "https://dc.lft.to/lastmile_qr_scan"}, "fusion_lon": 0.0, "lat": 38.909619, "bike_id": "3ee317230661bd8bf274d3297299848c", "type": "electric_scooter", "is_reserved": 0, "lon": -77.04801166666667}, {"fusion_lat": 0.0, "name": "fe730f6e4609c8d4a8628e2ef3e67fe1", "is_disabled": 0, "rental_uris": {"android": "https://dc.lft.to/lastmile_qr_scan", "ios": "https://dc.lft.to/lastmile_qr_scan"}, "fusion_lon": 0.0, "lat": 38.924204, "bike_id": "fe730f6e4609c8d4a8628e2ef3e67fe1", "type": "electric_scooter", "is_reserved": 0, "lon": -77.04454833333334}, {"fusion_lat": 0.0, "name": "3bd1b7cf78cfe97852b870b9069f071a", "is_disabled": 0, "rental_uris": {"android": "https://dc.lft.to/lastmile_qr_scan", "ios": "https://dc.lft.to/lastmile_qr_scan"}, "fusion_lon": 0.0, "lat": 38.9181115, "bike_id": "3bd1b7cf78cfe97852b870b9069f071a", "type": "electric_scooter", "is_reserved": 0, "lon": -77.031685}, {"fusion_lat": 0.0, "name": "dda5fd5e1fbc90fd0ffb2017a23c89ec", "is_disabled": 0, "rental_uris": {"android": "https://dc.lft.to/lastmile_qr_scan", "ios": "https://dc.lft.to/lastmile_qr_scan"}, "fusion_lon": 0.0, "lat": 38.90637733333333, "bike_id": "dda5fd5e1fbc90fd0ffb2017a23c89ec", "type": "electric_scooter", "is_reserved": 0, "lon": -77.06289933333333}, {"fusion_lat": 0.0, "name": "0e9a4161c7d7b2278649b6e815431c12", "is_disabled": 0, "rental_uris": {"android": "https://dc.lft.to/lastmile_qr_scan", "ios": "https://dc.lft.to/lastmile_qr_scan"}, "fusion_lon": 0.0, "lat": 38.918497333333335, "bike_id": "0e9a4161c7d7b2278649b6e815431c12", "type": "electric_scooter", "is_reserved": 0, "lon": -77.02456633333334}, {"fusion_lat": 0.0, "name": "7720b9fe034fcc3d60636e8596263493", "is_disabled": 0, "rental_uris": {"android": "https://dc.lft.to/lastmile_qr_scan", "ios": "https://dc.lft.to/lastmile_qr_scan"}, "fusion_lon": 0.0, "lat": 38.9214265, "bike_id": "7720b9fe034fcc3d60636e8596263493", "type": "electric_scooter", "is_reserved": 0, "lon": -77.04354683333334}, {"fusion_lat": 0.0, "name": "402f4b96cee1c29d1d1f995aa8e90616", "is_disabled": 0, "rental_uris": {"android": "https://dc.lft.to/lastmile_qr_scan", "ios": "https://dc.lft.to/lastmile_qr_scan"}, "fusion_lon": 0.0, "lat": 38.9039, "bike_id": "402f4b96cee1c29d1d1f995aa8e90616", "type": "electric_scooter", "is_reserved": 0, "lon": -77.017708}, {"fusion_lat": 0.0, "name": "37e980e47281b17f5e5e67b875efc90c", "is_disabled": 0, "rental_uris": {"android": "https://dc.lft.to/lastmile_qr_scan", "ios": "https://dc.lft.to/lastmile_qr_scan"}, "fusion_lon": 0.0, "lat": 38.921337666666666, "bike_id": "37e980e47281b17f5e5e67b875efc90c", "type": "electric_scooter", "is_reserved": 0, "lon": -77.00402983333333}, {"fusion_lat": 0.0, "name": "2a2fb03d5661124e802e6b3117a67252", "is_disabled": 0, "rental_uris": {"android": "https://dc.lft.to/lastmile_qr_scan", "ios": "https://dc.lft.to/lastmile_qr_scan"}, "fusion_lon": 0.0, "lat": 38.90549683333333, "bike_id": "2a2fb03d5661124e802e6b3117a67252", "type": "electric_scooter", "is_reserved": 0, "lon": -77.04273383333333}, {"fusion_lat": 0.0, "name": "74b8987ef8921471a606d606b8fb0bf3", "is_disabled": 0, "rental_uris": {"android": "https://dc.lft.to/lastmile_qr_scan", "ios": "https://dc.lft.to/lastmile_qr_scan"}, "fusion_lon": 0.0, "lat": 38.90188, "bike_id": "74b8987ef8921471a606d606b8fb0bf3", "type": "electric_scooter", "is_reserved": 0, "lon": -77.05065433333333}, {"fusion_lat": 0.0, "name": "e460c515720a73cbcfad2b3a62231ce1", "is_disabled": 0, "rental_uris": {"android": "https://dc.lft.to/lastmile_qr_scan", "ios": "https://dc.lft.to/lastmile_qr_scan"}, "fusion_lon": 0.0, "lat": 38.838107666666666, "bike_id": "e460c515720a73cbcfad2b3a62231ce1", "type": "electric_bike", "is_reserved": 0, "lon": -77.09524883333333}, {"fusion_lat": 0.0, "name": "7b3a7bbca664b5fea3cc2231ff0e4138", "is_disabled": 0, "rental_uris": {"android": "https://dc.lft.to/lastmile_qr_scan", "ios": "https://dc.lft.to/lastmile_qr_scan"}, "fusion_lon": 0.0, "lat": 38.8747675, "bike_id": "7b3a7bbca664b5fea3cc2231ff0e4138", "type": "electric_scooter", "is_reserved": 0, "lon": -77.0059695}, {"fusion_lat": 0.0, "name": "786aa35d3df505273038441e32ccde64", "is_disabled": 0, "rental_uris": {"android": "https://dc.lft.to/lastmile_qr_scan", "ios": "https://dc.lft.to/lastmile_qr_scan"}, "fusion_lon": 0.0, "lat": 38.97881066666667, "bike_id": "786aa35d3df505273038441e32ccde64", "type": "electric_bike", "is_reserved": 0, "lon": -77.06029616666666}, {"fusion_lat": 0.0, "name": "4697d21fd4e3764a12bea2e6365376c2", "is_disabled": 0, "rental_uris": {"android": "https://dc.lft.to/lastmile_qr_scan", "ios": "https://dc.lft.to/lastmile_qr_scan"}, "fusion_lon": 0.0, "lat": 38.93305483333333, "bike_id": "4697d21fd4e3764a12bea2e6365376c2", "type": "electric_scooter", "is_reserved": 0, "lon": -77.03079733333334}, {"fusion_lat": 0.0, "name": "a9adf0cd030328faa1a0b938ccf0b5e8", "is_disabled": 0, "rental_uris": {"android": "https://dc.lft.to/lastmile_qr_scan", "ios": "https://dc.lft.to/lastmile_qr_scan"}, "fusion_lon": 0.0, "lat": 38.92365266666667, "bike_id": "a9adf0cd030328faa1a0b938ccf0b5e8", "type": "electric_scooter", "is_reserved": 0, "lon": -77.052551}, {"fusion_lat": 0.0, "name": "953cc0d5a09376a5ba4a137df4533125", "is_disabled": 0, "rental_uris": {"android": "https://dc.lft.to/lastmile_qr_scan", "ios": "https://dc.lft.to/lastmile_qr_scan"}, "fusion_lon": 0.0, "lat": 38.87451766666667, "bike_id": "953cc0d5a09376a5ba4a137df4533125", "type": "electric_scooter", "is_reserved": 0, "lon": -77.00927033333333}, {"fusion_lat": 0.0, "name": "862ff53f8391db7bac3de105caed832b", "is_disabled": 0, "rental_uris": {"android": "https://dc.lft.to/lastmile_qr_scan", "ios": "https://dc.lft.to/lastmile_qr_scan"}, "fusion_lon": 0.0, "lat": 38.905939833333335, "bike_id": "862ff53f8391db7bac3de105caed832b", "type": "electric_scooter", "is_reserved": 0, "lon": -77.04692116666666}, {"fusion_lat": 0.0, "name": "b6e33abb2f85a84e94a78509a9d498f6", "is_disabled": 0, "rental_uris": {"android": "https://dc.lft.to/lastmile_qr_scan", "ios": "https://dc.lft.to/lastmile_qr_scan"}, "fusion_lon": 0.0, "lat": 38.911709333333334, "bike_id": "b6e33abb2f85a84e94a78509a9d498f6", "type": "electric_scooter", "is_reserved": 0, "lon": -77.03182}, {"fusion_lat": 0.0, "name": "54e00a1adcc6a889128dfbb80b428839", "is_disabled": 0, "rental_uris": {"android": "https://dc.lft.to/lastmile_qr_scan", "ios": "https://dc.lft.to/lastmile_qr_scan"}, "fusion_lon": 0.0, "lat": 38.93177766666667, "bike_id": "54e00a1adcc6a889128dfbb80b428839", "type": "electric_scooter", "is_reserved": 0, "lon": -77.02350716666666}, {"fusion_lat": 0.0, "name": "e7a4fb6684b7850f8b1a44bd755df1b6", "is_disabled": 0, "rental_uris": {"android": "https://dc.lft.to/lastmile_qr_scan", "ios": "https://dc.lft.to/lastmile_qr_scan"}, "fusion_lon": 0.0, "lat": 38.94205183333333, "bike_id": "e7a4fb6684b7850f8b1a44bd755df1b6", "type": "electric_scooter", "is_reserved": 0, "lon": -77.0246655}, {"fusion_lat": 0.0, "name": "a91286764fca1f17e1784125b25aa2a1", "is_disabled": 0, "rental_uris": {"android": "https://dc.lft.to/lastmile_qr_scan", "ios": "https://dc.lft.to/lastmile_qr_scan"}, "fusion_lon": 0.0, "lat": 38.899389166666666, "bike_id": "a91286764fca1f17e1784125b25aa2a1", "type": "electric_scooter", "is_reserved": 0, "lon": -77.0401635}, {"fusion_lat": 0.0, "name": "c4a118773943d3c6e9d743191f4bb72c", "is_disabled": 0, "rental_uris": {"android": "https://dc.lft.to/lastmile_qr_scan", "ios": "https://dc.lft.to/lastmile_qr_scan"}, "fusion_lon": 0.0, "lat": 38.917857166666664, "bike_id": "c4a118773943d3c6e9d743191f4bb72c", "type": "electric_scooter", "is_reserved": 0, "lon": -77.040467}, {"fusion_lat": 0.0, "name": "e11bf2ca5d399bb8c7787840b3f111b9", "is_disabled": 0, "rental_uris": {"android": "https://dc.lft.to/lastmile_qr_scan", "ios": "https://dc.lft.to/lastmile_qr_scan"}, "fusion_lon": 0.0, "lat": 38.8989835, "bike_id": "e11bf2ca5d399bb8c7787840b3f111b9", "type": "electric_scooter", "is_reserved": 0, "lon": -77.0272155}, {"fusion_lat": 0.0, "name": "9a39f2725998f22a2a148ad0347208fc", "is_disabled": 0, "rental_uris": {"android": "https://dc.lft.to/lastmile_qr_scan", "ios": "https://dc.lft.to/lastmile_qr_scan"}, "fusion_lon": 0.0, "lat": 38.911978500000004, "bike_id": "9a39f2725998f22a2a148ad0347208fc", "type": "electric_scooter", "is_reserved": 0, "lon": -77.0317935}, {"fusion_lat": 0.0, "name": "899891efe2c3b5cba9393f0856b5b2c4", "is_disabled": 0, "rental_uris": {"android": "https://dc.lft.to/lastmile_qr_scan", "ios": "https://dc.lft.to/lastmile_qr_scan"}, "fusion_lon": 0.0, "lat": 38.924304, "bike_id": "899891efe2c3b5cba9393f0856b5b2c4", "type": "electric_bike", "is_reserved": 0, "lon": -77.23234683333334}, {"fusion_lat": 0.0, "name": "05d75cb25c3f0005d1706396d2bdeecb", "is_disabled": 0, "rental_uris": {"android": "https://dc.lft.to/lastmile_qr_scan", "ios": "https://dc.lft.to/lastmile_qr_scan"}, "fusion_lon": 0.0, "lat": 38.898532, "bike_id": "05d75cb25c3f0005d1706396d2bdeecb", "type": "electric_scooter", "is_reserved": 0, "lon": -76.95044566666667}, {"fusion_lat": 0.0, "name": "82e2e5b328421f71ac4d82e8dd8403f2", "is_disabled": 0, "rental_uris": {"android": "https://dc.lft.to/lastmile_qr_scan", "ios": "https://dc.lft.to/lastmile_qr_scan"}, "fusion_lon": 0.0, "lat": 38.88519216666667, "bike_id": "82e2e5b328421f71ac4d82e8dd8403f2", "type": "electric_scooter", "is_reserved": 0, "lon": -76.99619916666667}, {"fusion_lat": 0.0, "name": "38e542d64b003f491c33934276248072", "is_disabled": 0, "rental_uris": {"android": "https://dc.lft.to/lastmile_qr_scan", "ios": "https://dc.lft.to/lastmile_qr_scan"}, "fusion_lon": 0.0, "lat": 38.9039585, "bike_id": "38e542d64b003f491c33934276248072", "type": "electric_scooter", "is_reserved": 0, "lon": -77.06800433333333}, {"fusion_lat": 0.0, "name": "7f3e695123de0521ea19356ae1f87264", "is_disabled": 0, "rental_uris": {"android": "https://dc.lft.to/lastmile_qr_scan", "ios": "https://dc.lft.to/lastmile_qr_scan"}, "fusion_lon": 0.0, "lat": 38.883028833333334, "bike_id": "7f3e695123de0521ea19356ae1f87264", "type": "electric_scooter", "is_reserved": 0, "lon": -76.9485845}, {"fusion_lat": 0.0, "name": "ca9d980802ca1801f5883cb831941602", "is_disabled": 0, "rental_uris": {"android": "https://dc.lft.to/lastmile_qr_scan", "ios": "https://dc.lft.to/lastmile_qr_scan"}, "fusion_lon": 0.0, "lat": 38.888298, "bike_id": "ca9d980802ca1801f5883cb831941602", "type": "electric_scooter", "is_reserved": 0, "lon": -77.04836166666666}, {"fusion_lat": 0.0, "name": "a7c917573215b527a830ecb55676f56a", "is_disabled": 0, "rental_uris": {"android": "https://dc.lft.to/lastmile_qr_scan", "ios": "https://dc.lft.to/lastmile_qr_scan"}, "fusion_lon": 0.0, "lat": 38.9073145, "bike_id": "a7c917573215b527a830ecb55676f56a", "type": "electric_scooter", "is_reserved": 0, "lon": -76.93542316666667}, {"fusion_lat": 0.0, "name": "362b2d6b2fc85ed1bd84e5fdc8fa574e", "is_disabled": 0, "rental_uris": {"android": "https://dc.lft.to/lastmile_qr_scan", "ios": "https://dc.lft.to/lastmile_qr_scan"}, "fusion_lon": 0.0, "lat": 38.81246, "bike_id": "362b2d6b2fc85ed1bd84e5fdc8fa574e", "type": "electric_bike", "is_reserved": 0, "lon": -77.11760233333334}, {"fusion_lat": 0.0, "name": "c1e24154b417ffa756fc57a08d4a7174", "is_disabled": 0, "rental_uris": {"android": "https://dc.lft.to/lastmile_qr_scan", "ios": "https://dc.lft.to/lastmile_qr_scan"}, "fusion_lon": 0.0, "lat": 38.91713983333333, "bike_id": "c1e24154b417ffa756fc57a08d4a7174", "type": "electric_scooter", "is_reserved": 0, "lon": -77.03874233333333}, {"fusion_lat": 0.0, "name": "fa5d109cff848c5d59f0616e8525c50b", "is_disabled": 0, "rental_uris": {"android": "https://dc.lft.to/lastmile_qr_scan", "ios": "https://dc.lft.to/lastmile_qr_scan"}, "fusion_lon": 0.0, "lat": 38.80705583333334, "bike_id": "fa5d109cff848c5d59f0616e8525c50b", "type": "electric_bike", "is_reserved": 0, "lon": -77.06175916666666}, {"fusion_lat": 0.0, "name": "f93577ba3c93b5a260b4ba806da6cd78", "is_disabled": 0, "rental_uris": {"android": "https://dc.lft.to/lastmile_qr_scan", "ios": "https://dc.lft.to/lastmile_qr_scan"}, "fusion_lon": 0.0, "lat": 38.925395333333334, "bike_id": "f93577ba3c93b5a260b4ba806da6cd78", "type": "electric_scooter", "is_reserved": 0, "lon": -77.00761816666666}, {"fusion_lat": 0.0, "name": "4cfbf7e1e519ef51690ace9d2bd55905", "is_disabled": 0, "rental_uris": {"android": "https://dc.lft.to/lastmile_qr_scan", "ios": "https://dc.lft.to/lastmile_qr_scan"}, "fusion_lon": 0.0, "lat": 38.92483083333333, "bike_id": "4cfbf7e1e519ef51690ace9d2bd55905", "type": "electric_bike", "is_reserved": 0, "lon": -77.03198516666667}, {"fusion_lat": 0.0, "name": "bb09eddeda6ccac4d1fd7b2a0bc2192d", "is_disabled": 0, "rental_uris": {"android": "https://dc.lft.to/lastmile_qr_scan", "ios": "https://dc.lft.to/lastmile_qr_scan"}, "fusion_lon": 0.0, "lat": 38.922375833333334, "bike_id": "bb09eddeda6ccac4d1fd7b2a0bc2192d", "type": "electric_scooter", "is_reserved": 0, "lon": -77.042435}, {"fusion_lat": 0.0, "name": "5009c838ef248f4ada5fa4949bbb777e", "is_disabled": 0, "rental_uris": {"android": "https://dc.lft.to/lastmile_qr_scan", "ios": "https://dc.lft.to/lastmile_qr_scan"}, "fusion_lon": 0.0, "lat": 38.92718833333333, "bike_id": "5009c838ef248f4ada5fa4949bbb777e", "type": "electric_scooter", "is_reserved": 0, "lon": -77.030598}, {"fusion_lat": 0.0, "name": "9fde9333470fe4da5bedef1e557facbc", "is_disabled": 0, "rental_uris": {"android": "https://dc.lft.to/lastmile_qr_scan", "ios": "https://dc.lft.to/lastmile_qr_scan"}, "fusion_lon": 0.0, "lat": 38.8191345, "bike_id": "9fde9333470fe4da5bedef1e557facbc", "type": "electric_bike", "is_reserved": 0, "lon": -77.04792166666667}, {"fusion_lat": 0.0, "name": "7bd6b65a77ff4c5ea335ecf36248333f", "is_disabled": 0, "rental_uris": {"android": "https://dc.lft.to/lastmile_qr_scan", "ios": "https://dc.lft.to/lastmile_qr_scan"}, "fusion_lon": 0.0, "lat": 38.91553783333333, "bike_id": "7bd6b65a77ff4c5ea335ecf36248333f", "type": "electric_scooter", "is_reserved": 0, "lon": -77.02145133333333}, {"fusion_lat": 0.0, "name": "6135dfb653be2872589bfcfe1a7d3dd8", "is_disabled": 0, "rental_uris": {"android": "https://dc.lft.to/lastmile_qr_scan", "ios": "https://dc.lft.to/lastmile_qr_scan"}, "fusion_lon": 0.0, "lat": 38.91996816666666, "bike_id": "6135dfb653be2872589bfcfe1a7d3dd8", "type": "electric_scooter", "is_reserved": 0, "lon": -77.03216766666667}, {"fusion_lat": 0.0, "name": "cb58236d8c177de39ee17e739927d844", "is_disabled": 0, "rental_uris": {"android": "https://dc.lft.to/lastmile_qr_scan", "ios": "https://dc.lft.to/lastmile_qr_scan"}, "fusion_lon": 0.0, "lat": 38.92452866666667, "bike_id": "cb58236d8c177de39ee17e739927d844", "type": "electric_scooter", "is_reserved": 0, "lon": -77.02020233333333}, {"fusion_lat": 0.0, "name": "7957d7900060897eeb5d26f9d65c5ddf", "is_disabled": 0, "rental_uris": {"android": "https://dc.lft.to/lastmile_qr_scan", "ios": "https://dc.lft.to/lastmile_qr_scan"}, "fusion_lon": 0.0, "lat": 38.922373666666665, "bike_id": "7957d7900060897eeb5d26f9d65c5ddf", "type": "electric_scooter", "is_reserved": 0, "lon": -77.02909716666667}, {"fusion_lat": 0.0, "name": "0302e5c39c6bf19734665db6fe7d1295", "is_disabled": 0, "rental_uris": {"android": "https://dc.lft.to/lastmile_qr_scan", "ios": "https://dc.lft.to/lastmile_qr_scan"}, "fusion_lon": 0.0, "lat": 38.90184633333333, "bike_id": "0302e5c39c6bf19734665db6fe7d1295", "type": "electric_scooter", "is_reserved": 0, "lon": -77.0245225}, {"fusion_lat": 0.0, "name": "8db6bef0c83d36424543feddf4d3155c", "is_disabled": 0, "rental_uris": {"android": "https://dc.lft.to/lastmile_qr_scan", "ios": "https://dc.lft.to/lastmile_qr_scan"}, "fusion_lon": 0.0, "lat": 38.921235833333334, "bike_id": "8db6bef0c83d36424543feddf4d3155c", "type": "electric_scooter", "is_reserved": 0, "lon": -77.01793166666667}, {"fusion_lat": 0.0, "name": "25998c82f887ce1fcab1e739c4b1a36f", "is_disabled": 0, "rental_uris": {"android": "https://dc.lft.to/lastmile_qr_scan", "ios": "https://dc.lft.to/lastmile_qr_scan"}, "fusion_lon": 0.0, "lat": 38.93046283333334, "bike_id": "25998c82f887ce1fcab1e739c4b1a36f", "type": "electric_scooter", "is_reserved": 0, "lon": -77.02352466666666}, {"fusion_lat": 0.0, "name": "b65b76346be007cbab467122fa850c85", "is_disabled": 0, "rental_uris": {"android": "https://dc.lft.to/lastmile_qr_scan", "ios": "https://dc.lft.to/lastmile_qr_scan"}, "fusion_lon": 0.0, "lat": 38.91712316666667, "bike_id": "b65b76346be007cbab467122fa850c85", "type": "electric_scooter", "is_reserved": 0, "lon": -76.97658516666667}, {"fusion_lat": 0.0, "name": "fabf747fe068be2242ad7f2e5489f4c4", "is_disabled": 0, "rental_uris": {"android": "https://dc.lft.to/lastmile_qr_scan", "ios": "https://dc.lft.to/lastmile_qr_scan"}, "fusion_lon": 0.0, "lat": 38.9039405, "bike_id": "fabf747fe068be2242ad7f2e5489f4c4", "type": "electric_scooter", "is_reserved": 0, "lon": -77.060153}, {"fusion_lat": 0.0, "name": "6e8265ef7074825db7b1c116f8f6c6ab", "is_disabled": 0, "rental_uris": {"android": "https://dc.lft.to/lastmile_qr_scan", "ios": "https://dc.lft.to/lastmile_qr_scan"}, "fusion_lon": 0.0, "lat": 38.93878133333333, "bike_id": "6e8265ef7074825db7b1c116f8f6c6ab", "type": "electric_scooter", "is_reserved": 0, "lon": -77.0248265}, {"fusion_lat": 0.0, "name": "33e93ac84b12bc6bc0b905bf87079bc1", "is_disabled": 0, "rental_uris": {"android": "https://dc.lft.to/lastmile_qr_scan", "ios": "https://dc.lft.to/lastmile_qr_scan"}, "fusion_lon": 0.0, "lat": 38.898849166666665, "bike_id": "33e93ac84b12bc6bc0b905bf87079bc1", "type": "electric_scooter", "is_reserved": 0, "lon": -77.053031}, {"fusion_lat": 0.0, "name": "8a65f6f7a145c0ad5c18f82980bb8de0", "is_disabled": 0, "rental_uris": {"android": "https://dc.lft.to/lastmile_qr_scan", "ios": "https://dc.lft.to/lastmile_qr_scan"}, "fusion_lon": 0.0, "lat": 38.90231283333333, "bike_id": "8a65f6f7a145c0ad5c18f82980bb8de0", "type": "electric_scooter", "is_reserved": 0, "lon": -77.01736516666666}, {"fusion_lat": 0.0, "name": "ab66cfe7f2dfdc052a54bc5c91644779", "is_disabled": 0, "rental_uris": {"android": "https://dc.lft.to/lastmile_qr_scan", "ios": "https://dc.lft.to/lastmile_qr_scan"}, "fusion_lon": 0.0, "lat": 38.912750333333335, "bike_id": "ab66cfe7f2dfdc052a54bc5c91644779", "type": "electric_scooter", "is_reserved": 0, "lon": -77.04506683333334}, {"fusion_lat": 0.0, "name": "f2f570f0c3df3cf92e6893c2be1d28ee", "is_disabled": 0, "rental_uris": {"android": "https://dc.lft.to/lastmile_qr_scan", "ios": "https://dc.lft.to/lastmile_qr_scan"}, "fusion_lon": 0.0, "lat": 38.8853405, "bike_id": "f2f570f0c3df3cf92e6893c2be1d28ee", "type": "electric_scooter", "is_reserved": 0, "lon": -76.998276}, {"fusion_lat": 0.0, "name": "f1e25aadcb321015ca65449083938164", "is_disabled": 0, "rental_uris": {"android": "https://dc.lft.to/lastmile_qr_scan", "ios": "https://dc.lft.to/lastmile_qr_scan"}, "fusion_lon": 0.0, "lat": 38.9027155, "bike_id": "f1e25aadcb321015ca65449083938164", "type": "electric_scooter", "is_reserved": 0, "lon": -76.92899283333334}, {"fusion_lat": 0.0, "name": "70a7f00bde5e08d58392ba1d9cb85b85", "is_disabled": 0, "rental_uris": {"android": "https://dc.lft.to/lastmile_qr_scan", "ios": "https://dc.lft.to/lastmile_qr_scan"}, "fusion_lon": 0.0, "lat": 38.884779333333334, "bike_id": "70a7f00bde5e08d58392ba1d9cb85b85", "type": "electric_scooter", "is_reserved": 0, "lon": -77.024311}, {"fusion_lat": 0.0, "name": "c95e7278a6162aff90bb33b4a3dc8c3a", "is_disabled": 0, "rental_uris": {"android": "https://dc.lft.to/lastmile_qr_scan", "ios": "https://dc.lft.to/lastmile_qr_scan"}, "fusion_lon": 0.0, "lat": 38.90118916666667, "bike_id": "c95e7278a6162aff90bb33b4a3dc8c3a", "type": "electric_scooter", "is_reserved": 0, "lon": -77.0021835}, {"fusion_lat": 0.0, "name": "1dbce4c97a17fb3e0c0d2f5f974bd5b9", "is_disabled": 0, "rental_uris": {"android": "https://dc.lft.to/lastmile_qr_scan", "ios": "https://dc.lft.to/lastmile_qr_scan"}, "fusion_lon": 0.0, "lat": 38.9023185, "bike_id": "1dbce4c97a17fb3e0c0d2f5f974bd5b9", "type": "electric_scooter", "is_reserved": 0, "lon": -77.06151616666666}, {"fusion_lat": 0.0, "name": "fb8de0027ee2939cdd77656723b684d9", "is_disabled": 0, "rental_uris": {"android": "https://dc.lft.to/lastmile_qr_scan", "ios": "https://dc.lft.to/lastmile_qr_scan"}, "fusion_lon": 0.0, "lat": 38.88012366666667, "bike_id": "fb8de0027ee2939cdd77656723b684d9", "type": "electric_scooter", "is_reserved": 0, "lon": -76.93107433333333}, {"fusion_lat": 0.0, "name": "41de07d8330fcf4be4795017cca2ddeb", "is_disabled": 0, "rental_uris": {"android": "https://dc.lft.to/lastmile_qr_scan", "ios": "https://dc.lft.to/lastmile_qr_scan"}, "fusion_lon": 0.0, "lat": 38.89627433333333, "bike_id": "41de07d8330fcf4be4795017cca2ddeb", "type": "electric_scooter", "is_reserved": 0, "lon": -77.00940316666667}, {"fusion_lat": 0.0, "name": "e749957b40bc292f2a9d909c2ba9c237", "is_disabled": 0, "rental_uris": {"android": "https://dc.lft.to/lastmile_qr_scan", "ios": "https://dc.lft.to/lastmile_qr_scan"}, "fusion_lon": 0.0, "lat": 38.917679666666665, "bike_id": "e749957b40bc292f2a9d909c2ba9c237", "type": "electric_scooter", "is_reserved": 0, "lon": -77.028143}, {"fusion_lat": 0.0, "name": "8d4e4d5dbd44ac81ecb2af2195b99dc8", "is_disabled": 0, "rental_uris": {"android": "https://dc.lft.to/lastmile_qr_scan", "ios": "https://dc.lft.to/lastmile_qr_scan"}, "fusion_lon": 0.0, "lat": 38.90269216666667, "bike_id": "8d4e4d5dbd44ac81ecb2af2195b99dc8", "type": "electric_scooter", "is_reserved": 0, "lon": -77.03932583333334}, {"fusion_lat": 0.0, "name": "ae308dd248ee131965515ddc27c8c1f5", "is_disabled": 0, "rental_uris": {"android": "https://dc.lft.to/lastmile_qr_scan", "ios": "https://dc.lft.to/lastmile_qr_scan"}, "fusion_lon": 0.0, "lat": 38.824563833333336, "bike_id": "ae308dd248ee131965515ddc27c8c1f5", "type": "electric_bike", "is_reserved": 0, "lon": -77.00789766666666}, {"fusion_lat": 0.0, "name": "f952fc89f1f3b171a0c20dfd68456297", "is_disabled": 0, "rental_uris": {"android": "https://dc.lft.to/lastmile_qr_scan", "ios": "https://dc.lft.to/lastmile_qr_scan"}, "fusion_lon": 0.0, "lat": 38.905351, "bike_id": "f952fc89f1f3b171a0c20dfd68456297", "type": "electric_scooter", "is_reserved": 0, "lon": -77.0296585}, {"fusion_lat": 0.0, "name": "8bb7b48facb485cec24a1a2c9540351d", "is_disabled": 0, "rental_uris": {"android": "https://dc.lft.to/lastmile_qr_scan", "ios": "https://dc.lft.to/lastmile_qr_scan"}, "fusion_lon": 0.0, "lat": 38.9245285, "bike_id": "8bb7b48facb485cec24a1a2c9540351d", "type": "electric_scooter", "is_reserved": 0, "lon": -77.04020433333334}, {"fusion_lat": 0.0, "name": "ac9390553fc71ad3f65a18f0c63e7906", "is_disabled": 0, "rental_uris": {"android": "https://dc.lft.to/lastmile_qr_scan", "ios": "https://dc.lft.to/lastmile_qr_scan"}, "fusion_lon": 0.0, "lat": 38.944022833333335, "bike_id": "ac9390553fc71ad3f65a18f0c63e7906", "type": "electric_scooter", "is_reserved": 0, "lon": -77.0386415}, {"fusion_lat": 0.0, "name": "e6b57fadd8f1efdaae187e77afd0d8a4", "is_disabled": 0, "rental_uris": {"android": "https://dc.lft.to/lastmile_qr_scan", "ios": "https://dc.lft.to/lastmile_qr_scan"}, "fusion_lon": 0.0, "lat": 38.91400766666667, "bike_id": "e6b57fadd8f1efdaae187e77afd0d8a4", "type": "electric_scooter", "is_reserved": 0, "lon": -77.00845116666666}, {"fusion_lat": 0.0, "name": "8e36789e3d5431197e12ae2ce8f37801", "is_disabled": 0, "rental_uris": {"android": "https://dc.lft.to/lastmile_qr_scan", "ios": "https://dc.lft.to/lastmile_qr_scan"}, "fusion_lon": 0.0, "lat": 38.91657466666667, "bike_id": "8e36789e3d5431197e12ae2ce8f37801", "type": "electric_scooter", "is_reserved": 0, "lon": -77.04390333333333}, {"fusion_lat": 0.0, "name": "a84693fc27c82b9dcbdd052794b23a25", "is_disabled": 0, "rental_uris": {"android": "https://dc.lft.to/lastmile_qr_scan", "ios": "https://dc.lft.to/lastmile_qr_scan"}, "fusion_lon": 0.0, "lat": 38.899154333333335, "bike_id": "a84693fc27c82b9dcbdd052794b23a25", "type": "electric_scooter", "is_reserved": 0, "lon": -76.94550433333333}, {"fusion_lat": 0.0, "name": "a659cb813ca4cde95244ce0e326301b4", "is_disabled": 0, "rental_uris": {"android": "https://dc.lft.to/lastmile_qr_scan", "ios": "https://dc.lft.to/lastmile_qr_scan"}, "fusion_lon": 0.0, "lat": 38.8922205, "bike_id": "a659cb813ca4cde95244ce0e326301b4", "type": "electric_scooter", "is_reserved": 0, "lon": -77.0486785}, {"fusion_lat": 0.0, "name": "d034d77bbb3ff22c2c5f5e8720959bc7", "is_disabled": 0, "rental_uris": {"android": "https://dc.lft.to/lastmile_qr_scan", "ios": "https://dc.lft.to/lastmile_qr_scan"}, "fusion_lon": 0.0, "lat": 38.947363, "bike_id": "d034d77bbb3ff22c2c5f5e8720959bc7", "type": "electric_scooter", "is_reserved": 0, "lon": -77.01619783333334}, {"fusion_lat": 0.0, "name": "5cbe1db8880a8c99e1a4cdd2fa429c31", "is_disabled": 0, "rental_uris": {"android": "https://dc.lft.to/lastmile_qr_scan", "ios": "https://dc.lft.to/lastmile_qr_scan"}, "fusion_lon": 0.0, "lat": 38.9296185, "bike_id": "5cbe1db8880a8c99e1a4cdd2fa429c31", "type": "electric_scooter", "is_reserved": 0, "lon": -77.01973683333334}, {"fusion_lat": 0.0, "name": "671d84e25054c69aa410274cd66d8a2a", "is_disabled": 0, "rental_uris": {"android": "https://dc.lft.to/lastmile_qr_scan", "ios": "https://dc.lft.to/lastmile_qr_scan"}, "fusion_lon": 0.0, "lat": 38.907103166666666, "bike_id": "671d84e25054c69aa410274cd66d8a2a", "type": "electric_scooter", "is_reserved": 0, "lon": -77.0513095}, {"fusion_lat": 0.0, "name": "e1e3b6a8dc6a1497c37bfefefe1fb566", "is_disabled": 0, "rental_uris": {"android": "https://dc.lft.to/lastmile_qr_scan", "ios": "https://dc.lft.to/lastmile_qr_scan"}, "fusion_lon": 0.0, "lat": 38.84296616666666, "bike_id": "e1e3b6a8dc6a1497c37bfefefe1fb566", "type": "electric_bike", "is_reserved": 0, "lon": -77.10866316666667}, {"fusion_lat": 0.0, "name": "e344de8947935a528ea5e7ac9a196b60", "is_disabled": 0, "rental_uris": {"android": "https://dc.lft.to/lastmile_qr_scan", "ios": "https://dc.lft.to/lastmile_qr_scan"}, "fusion_lon": 0.0, "lat": 38.90045716666667, "bike_id": "e344de8947935a528ea5e7ac9a196b60", "type": "electric_scooter", "is_reserved": 0, "lon": -77.03301216666667}, {"fusion_lat": 0.0, "name": "54890e8a39c5228c775385fcfd9fd04a", "is_disabled": 0, "rental_uris": {"android": "https://dc.lft.to/lastmile_qr_scan", "ios": "https://dc.lft.to/lastmile_qr_scan"}, "fusion_lon": 0.0, "lat": 38.903859833333335, "bike_id": "54890e8a39c5228c775385fcfd9fd04a", "type": "electric_scooter", "is_reserved": 0, "lon": -77.03837333333334}, {"fusion_lat": 0.0, "name": "b98376c97de8ce1d780d05cbbbf50d0b", "is_disabled": 0, "rental_uris": {"android": "https://dc.lft.to/lastmile_qr_scan", "ios": "https://dc.lft.to/lastmile_qr_scan"}, "fusion_lon": 0.0, "lat": 38.843567666666665, "bike_id": "b98376c97de8ce1d780d05cbbbf50d0b", "type": "electric_bike", "is_reserved": 0, "lon": -76.9782425}, {"fusion_lat": 0.0, "name": "21daca24aeb84a53cc7189d34aafcea6", "is_disabled": 0, "rental_uris": {"android": "https://dc.lft.to/lastmile_qr_scan", "ios": "https://dc.lft.to/lastmile_qr_scan"}, "fusion_lon": 0.0, "lat": 38.89666116666667, "bike_id": "21daca24aeb84a53cc7189d34aafcea6", "type": "electric_scooter", "is_reserved": 0, "lon": -77.02483333333333}, {"fusion_lat": 0.0, "name": "fea8b927cf427fa26d140de93d29be81", "is_disabled": 0, "rental_uris": {"android": "https://dc.lft.to/lastmile_qr_scan", "ios": "https://dc.lft.to/lastmile_qr_scan"}, "fusion_lon": 0.0, "lat": 38.8836305, "bike_id": "fea8b927cf427fa26d140de93d29be81", "type": "electric_scooter", "is_reserved": 0, "lon": -76.94155316666667}, {"fusion_lat": 0.0, "name": "c3598de9f56b592aea5930812d3bcbad", "is_disabled": 0, "rental_uris": {"android": "https://dc.lft.to/lastmile_qr_scan", "ios": "https://dc.lft.to/lastmile_qr_scan"}, "fusion_lon": 0.0, "lat": 38.923402, "bike_id": "c3598de9f56b592aea5930812d3bcbad", "type": "electric_scooter", "is_reserved": 0, "lon": -77.0522665}, {"fusion_lat": 0.0, "name": "9c8ef24e02cae5e00063527517500a2a", "is_disabled": 0, "rental_uris": {"android": "https://dc.lft.to/lastmile_qr_scan", "ios": "https://dc.lft.to/lastmile_qr_scan"}, "fusion_lon": 0.0, "lat": 38.91580366666667, "bike_id": "9c8ef24e02cae5e00063527517500a2a", "type": "electric_scooter", "is_reserved": 0, "lon": -76.98382616666666}, {"fusion_lat": 0.0, "name": "16a16f1238ceefad7639fec1c8a6daf6", "is_disabled": 0, "rental_uris": {"android": "https://dc.lft.to/lastmile_qr_scan", "ios": "https://dc.lft.to/lastmile_qr_scan"}, "fusion_lon": 0.0, "lat": 38.901627500000004, "bike_id": "16a16f1238ceefad7639fec1c8a6daf6", "type": "electric_scooter", "is_reserved": 0, "lon": -77.05911066666667}, {"fusion_lat": 0.0, "name": "25af12ea0f2d3c114f4c694ba5edb19b", "is_disabled": 0, "rental_uris": {"android": "https://dc.lft.to/lastmile_qr_scan", "ios": "https://dc.lft.to/lastmile_qr_scan"}, "fusion_lon": 0.0, "lat": 38.91707483333333, "bike_id": "25af12ea0f2d3c114f4c694ba5edb19b", "type": "electric_scooter", "is_reserved": 0, "lon": -77.0322695}, {"fusion_lat": 0.0, "name": "1792ffc912c27b326b8778697f181fc1", "is_disabled": 0, "rental_uris": {"android": "https://dc.lft.to/lastmile_qr_scan", "ios": "https://dc.lft.to/lastmile_qr_scan"}, "fusion_lon": 0.0, "lat": 38.920465666666665, "bike_id": "1792ffc912c27b326b8778697f181fc1", "type": "electric_bike", "is_reserved": 0, "lon": -76.99819133333334}, {"fusion_lat": 0.0, "name": "c3bd1a5f6a2243281f0419a177c55044", "is_disabled": 0, "rental_uris": {"android": "https://dc.lft.to/lastmile_qr_scan", "ios": "https://dc.lft.to/lastmile_qr_scan"}, "fusion_lon": 0.0, "lat": 38.95627566666667, "bike_id": "c3bd1a5f6a2243281f0419a177c55044", "type": "electric_scooter", "is_reserved": 0, "lon": -77.0283255}, {"fusion_lat": 0.0, "name": "993eee95ac455c6acabefa927a0944a1", "is_disabled": 0, "rental_uris": {"android": "https://dc.lft.to/lastmile_qr_scan", "ios": "https://dc.lft.to/lastmile_qr_scan"}, "fusion_lon": 0.0, "lat": 38.91780683333333, "bike_id": "993eee95ac455c6acabefa927a0944a1", "type": "electric_bike", "is_reserved": 0, "lon": -77.04257383333334}, {"fusion_lat": 0.0, "name": "cf6ba04d97c2c3119715da59a8ffccf0", "is_disabled": 0, "rental_uris": {"android": "https://dc.lft.to/lastmile_qr_scan", "ios": "https://dc.lft.to/lastmile_qr_scan"}, "fusion_lon": 0.0, "lat": 38.903761333333335, "bike_id": "cf6ba04d97c2c3119715da59a8ffccf0", "type": "electric_scooter", "is_reserved": 0, "lon": -77.03537116666666}, {"fusion_lat": 0.0, "name": "a2554eb6ff7f89c40408d1bae041ac02", "is_disabled": 0, "rental_uris": {"android": "https://dc.lft.to/lastmile_qr_scan", "ios": "https://dc.lft.to/lastmile_qr_scan"}, "fusion_lon": 0.0, "lat": 38.904997, "bike_id": "a2554eb6ff7f89c40408d1bae041ac02", "type": "electric_bike", "is_reserved": 0, "lon": -76.97447383333333}, {"fusion_lat": 0.0, "name": "6e0223b575a292eb27ddd49dc9d55d12", "is_disabled": 0, "rental_uris": {"android": "https://dc.lft.to/lastmile_qr_scan", "ios": "https://dc.lft.to/lastmile_qr_scan"}, "fusion_lon": 0.0, "lat": 38.9313055, "bike_id": "6e0223b575a292eb27ddd49dc9d55d12", "type": "electric_bike", "is_reserved": 0, "lon": -77.01969933333334}, {"fusion_lat": 0.0, "name": "f36d761547f9eb260dc4a11a890c8f5e", "is_disabled": 0, "rental_uris": {"android": "https://dc.lft.to/lastmile_qr_scan", "ios": "https://dc.lft.to/lastmile_qr_scan"}, "fusion_lon": 0.0, "lat": 38.92348966666667, "bike_id": "f36d761547f9eb260dc4a11a890c8f5e", "type": "electric_scooter", "is_reserved": 0, "lon": -77.03901683333333}, {"fusion_lat": 0.0, "name": "0a054fbcaaeec4b1f98b75d5848c0603", "is_disabled": 0, "rental_uris": {"android": "https://dc.lft.to/lastmile_qr_scan", "ios": "https://dc.lft.to/lastmile_qr_scan"}, "fusion_lon": 0.0, "lat": 38.90249033333333, "bike_id": "0a054fbcaaeec4b1f98b75d5848c0603", "type": "electric_scooter", "is_reserved": 0, "lon": -77.01814216666666}, {"fusion_lat": 0.0, "name": "2488329d62866fdf14a0df34d07e5cf4", "is_disabled": 0, "rental_uris": {"android": "https://dc.lft.to/lastmile_qr_scan", "ios": "https://dc.lft.to/lastmile_qr_scan"}, "fusion_lon": 0.0, "lat": 38.94269666666667, "bike_id": "2488329d62866fdf14a0df34d07e5cf4", "type": "electric_scooter", "is_reserved": 0, "lon": -77.0325615}, {"fusion_lat": 0.0, "name": "6a3231adbddf012950f31172d82693df", "is_disabled": 0, "rental_uris": {"android": "https://dc.lft.to/lastmile_qr_scan", "ios": "https://dc.lft.to/lastmile_qr_scan"}, "fusion_lon": 0.0, "lat": 38.934881833333336, "bike_id": "6a3231adbddf012950f31172d82693df", "type": "electric_scooter", "is_reserved": 0, "lon": -77.072715}, {"fusion_lat": 0.0, "name": "da1598dbbc36309b26e0659ea580cb7b", "is_disabled": 0, "rental_uris": {"android": "https://dc.lft.to/lastmile_qr_scan", "ios": "https://dc.lft.to/lastmile_qr_scan"}, "fusion_lon": 0.0, "lat": 38.89790083333333, "bike_id": "da1598dbbc36309b26e0659ea580cb7b", "type": "electric_scooter", "is_reserved": 0, "lon": -76.94731666666667}, {"fusion_lat": 0.0, "name": "d9cde6a1b9c9eb679374f4697e0a81e1", "is_disabled": 0, "rental_uris": {"android": "https://dc.lft.to/lastmile_qr_scan", "ios": "https://dc.lft.to/lastmile_qr_scan"}, "fusion_lon": 0.0, "lat": 38.902669333333336, "bike_id": "d9cde6a1b9c9eb679374f4697e0a81e1", "type": "electric_scooter", "is_reserved": 0, "lon": -77.0362965}, {"fusion_lat": 0.0, "name": "2f2446394a1dbf2702e02ba80c838d19", "is_disabled": 0, "rental_uris": {"android": "https://dc.lft.to/lastmile_qr_scan", "ios": "https://dc.lft.to/lastmile_qr_scan"}, "fusion_lon": 0.0, "lat": 38.91475166666667, "bike_id": "2f2446394a1dbf2702e02ba80c838d19", "type": "electric_scooter", "is_reserved": 0, "lon": -77.042384}, {"fusion_lat": 0.0, "name": "71399bba864745342adc4fbde328d765", "is_disabled": 0, "rental_uris": {"android": "https://dc.lft.to/lastmile_qr_scan", "ios": "https://dc.lft.to/lastmile_qr_scan"}, "fusion_lon": 0.0, "lat": 38.90960616666667, "bike_id": "71399bba864745342adc4fbde328d765", "type": "electric_scooter", "is_reserved": 0, "lon": -77.04618883333333}, {"fusion_lat": 0.0, "name": "1761be7ea2757931274bb8d98453c551", "is_disabled": 0, "rental_uris": {"android": "https://dc.lft.to/lastmile_qr_scan", "ios": "https://dc.lft.to/lastmile_qr_scan"}, "fusion_lon": 0.0, "lat": 38.911179, "bike_id": "1761be7ea2757931274bb8d98453c551", "type": "electric_scooter", "is_reserved": 0, "lon": -77.01162283333333}, {"fusion_lat": 0.0, "name": "0566c3fd2fe47091944c8b3cd785e73e", "is_disabled": 0, "rental_uris": {"android": "https://dc.lft.to/lastmile_qr_scan", "ios": "https://dc.lft.to/lastmile_qr_scan"}, "fusion_lon": 0.0, "lat": 38.956034833333334, "bike_id": "0566c3fd2fe47091944c8b3cd785e73e", "type": "electric_scooter", "is_reserved": 0, "lon": -77.033519}, {"fusion_lat": 0.0, "name": "94d180ef81d84f8123c3df299d7fa5dc", "is_disabled": 0, "rental_uris": {"android": "https://dc.lft.to/lastmile_qr_scan", "ios": "https://dc.lft.to/lastmile_qr_scan"}, "fusion_lon": 0.0, "lat": 38.938200333333334, "bike_id": "94d180ef81d84f8123c3df299d7fa5dc", "type": "electric_scooter", "is_reserved": 0, "lon": -77.0328405}, {"fusion_lat": 0.0, "name": "ed6e48ac8d8761fc11be93bed6ca0ef5", "is_disabled": 0, "rental_uris": {"android": "https://dc.lft.to/lastmile_qr_scan", "ios": "https://dc.lft.to/lastmile_qr_scan"}, "fusion_lon": 0.0, "lat": 38.9377665, "bike_id": "ed6e48ac8d8761fc11be93bed6ca0ef5", "type": "electric_scooter", "is_reserved": 0, "lon": -77.0326475}, {"fusion_lat": 0.0, "name": "189f9a940703f6f64092eac128456ff5", "is_disabled": 0, "rental_uris": {"android": "https://dc.lft.to/lastmile_qr_scan", "ios": "https://dc.lft.to/lastmile_qr_scan"}, "fusion_lon": 0.0, "lat": 38.9042935, "bike_id": "189f9a940703f6f64092eac128456ff5", "type": "electric_scooter", "is_reserved": 0, "lon": -77.02591966666667}, {"fusion_lat": 0.0, "name": "6742ecf52a6a27539f0f87369dd154d2", "is_disabled": 0, "rental_uris": {"android": "https://dc.lft.to/lastmile_qr_scan", "ios": "https://dc.lft.to/lastmile_qr_scan"}, "fusion_lon": 0.0, "lat": 38.931031, "bike_id": "6742ecf52a6a27539f0f87369dd154d2", "type": "electric_scooter", "is_reserved": 0, "lon": -77.02377283333334}, {"fusion_lat": 0.0, "name": "aae6869985b60cd908c3edd0d2cf0ad3", "is_disabled": 0, "rental_uris": {"android": "https://dc.lft.to/lastmile_qr_scan", "ios": "https://dc.lft.to/lastmile_qr_scan"}, "fusion_lon": 0.0, "lat": 38.8982665, "bike_id": "aae6869985b60cd908c3edd0d2cf0ad3", "type": "electric_scooter", "is_reserved": 0, "lon": -77.02973716666666}, {"fusion_lat": 0.0, "name": "9814f69b5a23d10a88848b46746e2f26", "is_disabled": 0, "rental_uris": {"android": "https://dc.lft.to/lastmile_qr_scan", "ios": "https://dc.lft.to/lastmile_qr_scan"}, "fusion_lon": 0.0, "lat": 38.9190005, "bike_id": "9814f69b5a23d10a88848b46746e2f26", "type": "electric_scooter", "is_reserved": 0, "lon": -77.02405466666667}, {"fusion_lat": 0.0, "name": "412215f926c6fa7fad0d7404b0a123a3", "is_disabled": 0, "rental_uris": {"android": "https://dc.lft.to/lastmile_qr_scan", "ios": "https://dc.lft.to/lastmile_qr_scan"}, "fusion_lon": 0.0, "lat": 38.9057965, "bike_id": "412215f926c6fa7fad0d7404b0a123a3", "type": "electric_scooter", "is_reserved": 0, "lon": -77.0445235}, {"fusion_lat": 0.0, "name": "5b226f3d55169b572dbb818ca2e6567c", "is_disabled": 0, "rental_uris": {"android": "https://dc.lft.to/lastmile_qr_scan", "ios": "https://dc.lft.to/lastmile_qr_scan"}, "fusion_lon": 0.0, "lat": 38.90947333333333, "bike_id": "5b226f3d55169b572dbb818ca2e6567c", "type": "electric_scooter", "is_reserved": 0, "lon": -77.04868866666666}, {"fusion_lat": 0.0, "name": "e80adc60fed5d95cf2ec52538eec806a", "is_disabled": 0, "rental_uris": {"android": "https://dc.lft.to/lastmile_qr_scan", "ios": "https://dc.lft.to/lastmile_qr_scan"}, "fusion_lon": 0.0, "lat": 38.89728983333333, "bike_id": "e80adc60fed5d95cf2ec52538eec806a", "type": "electric_scooter", "is_reserved": 0, "lon": -77.0468385}, {"fusion_lat": 0.0, "name": "1737cc1b4c99da2c446c407c43587443", "is_disabled": 0, "rental_uris": {"android": "https://dc.lft.to/lastmile_qr_scan", "ios": "https://dc.lft.to/lastmile_qr_scan"}, "fusion_lon": 0.0, "lat": 38.911868, "bike_id": "1737cc1b4c99da2c446c407c43587443", "type": "electric_scooter", "is_reserved": 0, "lon": -77.03759983333333}, {"fusion_lat": 0.0, "name": "ce420b7b3159bd72be0985d34839e25e", "is_disabled": 0, "rental_uris": {"android": "https://dc.lft.to/lastmile_qr_scan", "ios": "https://dc.lft.to/lastmile_qr_scan"}, "fusion_lon": 0.0, "lat": 38.93827116666667, "bike_id": "ce420b7b3159bd72be0985d34839e25e", "type": "electric_scooter", "is_reserved": 0, "lon": -76.9918805}, {"fusion_lat": 0.0, "name": "4d963bfb79711fde9aa0ce2c80c1bdd5", "is_disabled": 0, "rental_uris": {"android": "https://dc.lft.to/lastmile_qr_scan", "ios": "https://dc.lft.to/lastmile_qr_scan"}, "fusion_lon": 0.0, "lat": 38.9039325, "bike_id": "4d963bfb79711fde9aa0ce2c80c1bdd5", "type": "electric_scooter", "is_reserved": 0, "lon": -77.038431}, {"fusion_lat": 0.0, "name": "eee281d9b4e017b7910f7987efaf9f41", "is_disabled": 0, "rental_uris": {"android": "https://dc.lft.to/lastmile_qr_scan", "ios": "https://dc.lft.to/lastmile_qr_scan"}, "fusion_lon": 0.0, "lat": 38.91727366666667, "bike_id": "eee281d9b4e017b7910f7987efaf9f41", "type": "electric_scooter", "is_reserved": 0, "lon": -77.02697883333333}, {"fusion_lat": 0.0, "name": "14ac9efdf46503c23be518b020792f81", "is_disabled": 0, "rental_uris": {"android": "https://dc.lft.to/lastmile_qr_scan", "ios": "https://dc.lft.to/lastmile_qr_scan"}, "fusion_lon": 0.0, "lat": 38.87082, "bike_id": "14ac9efdf46503c23be518b020792f81", "type": "electric_scooter", "is_reserved": 0, "lon": -77.01079083333333}, {"fusion_lat": 0.0, "name": "49707cee0f9f98a1c0635a3af29cb1d2", "is_disabled": 0, "rental_uris": {"android": "https://dc.lft.to/lastmile_qr_scan", "ios": "https://dc.lft.to/lastmile_qr_scan"}, "fusion_lon": 0.0, "lat": 38.907791333333336, "bike_id": "49707cee0f9f98a1c0635a3af29cb1d2", "type": "electric_scooter", "is_reserved": 0, "lon": -77.035116}, {"fusion_lat": 0.0, "name": "051f7c6be44cd87fbf9522a7be9009ae", "is_disabled": 0, "rental_uris": {"android": "https://dc.lft.to/lastmile_qr_scan", "ios": "https://dc.lft.to/lastmile_qr_scan"}, "fusion_lon": 0.0, "lat": 38.9047685, "bike_id": "051f7c6be44cd87fbf9522a7be9009ae", "type": "electric_scooter", "is_reserved": 0, "lon": -77.0260755}, {"fusion_lat": 0.0, "name": "5c709e61c68a2fa2c52082d8f874a64c", "is_disabled": 0, "rental_uris": {"android": "https://dc.lft.to/lastmile_qr_scan", "ios": "https://dc.lft.to/lastmile_qr_scan"}, "fusion_lon": 0.0, "lat": 38.906837833333334, "bike_id": "5c709e61c68a2fa2c52082d8f874a64c", "type": "electric_scooter", "is_reserved": 0, "lon": -77.03646466666666}, {"fusion_lat": 0.0, "name": "71443e3153c76c2f19614d1328cf8f96", "is_disabled": 0, "rental_uris": {"android": "https://dc.lft.to/lastmile_qr_scan", "ios": "https://dc.lft.to/lastmile_qr_scan"}, "fusion_lon": 0.0, "lat": 38.905156833333336, "bike_id": "71443e3153c76c2f19614d1328cf8f96", "type": "electric_scooter", "is_reserved": 0, "lon": -77.04877516666667}, {"fusion_lat": 0.0, "name": "0dc4f00dacc194d034128fc2f2062a5d", "is_disabled": 0, "rental_uris": {"android": "https://dc.lft.to/lastmile_qr_scan", "ios": "https://dc.lft.to/lastmile_qr_scan"}, "fusion_lon": 0.0, "lat": 38.919534666666664, "bike_id": "0dc4f00dacc194d034128fc2f2062a5d", "type": "electric_bike", "is_reserved": 0, "lon": -77.22124716666667}, {"fusion_lat": 0.0, "name": "06fab6749b2e8ab94b56fd130a5729b4", "is_disabled": 0, "rental_uris": {"android": "https://dc.lft.to/lastmile_qr_scan", "ios": "https://dc.lft.to/lastmile_qr_scan"}, "fusion_lon": 0.0, "lat": 38.91102166666667, "bike_id": "06fab6749b2e8ab94b56fd130a5729b4", "type": "electric_scooter", "is_reserved": 0, "lon": -77.0021305}, {"fusion_lat": 0.0, "name": "af64858a485228ed4f3b77829f9d1a13", "is_disabled": 0, "rental_uris": {"android": "https://dc.lft.to/lastmile_qr_scan", "ios": "https://dc.lft.to/lastmile_qr_scan"}, "fusion_lon": 0.0, "lat": 38.889892333333336, "bike_id": "af64858a485228ed4f3b77829f9d1a13", "type": "electric_bike", "is_reserved": 0, "lon": -77.07131116666666}, {"fusion_lat": 0.0, "name": "0c15f1b4989ef379090ec7bbb753280f", "is_disabled": 0, "rental_uris": {"android": "https://dc.lft.to/lastmile_qr_scan", "ios": "https://dc.lft.to/lastmile_qr_scan"}, "fusion_lon": 0.0, "lat": 38.91749816666667, "bike_id": "0c15f1b4989ef379090ec7bbb753280f", "type": "electric_scooter", "is_reserved": 0, "lon": -77.06934233333334}, {"fusion_lat": 0.0, "name": "f21daa013e4290d16782275350b99753", "is_disabled": 0, "rental_uris": {"android": "https://dc.lft.to/lastmile_qr_scan", "ios": "https://dc.lft.to/lastmile_qr_scan"}, "fusion_lon": 0.0, "lat": 38.880437, "bike_id": "f21daa013e4290d16782275350b99753", "type": "electric_bike", "is_reserved": 0, "lon": -77.00476816666666}, {"fusion_lat": 0.0, "name": "6377f626d937dc0937db29bf693cac17", "is_disabled": 0, "rental_uris": {"android": "https://dc.lft.to/lastmile_qr_scan", "ios": "https://dc.lft.to/lastmile_qr_scan"}, "fusion_lon": 0.0, "lat": 38.909141, "bike_id": "6377f626d937dc0937db29bf693cac17", "type": "electric_scooter", "is_reserved": 0, "lon": -77.04214566666667}, {"fusion_lat": 0.0, "name": "2c1b79049d5f1884e1f986e34c500d84", "is_disabled": 0, "rental_uris": {"android": "https://dc.lft.to/lastmile_qr_scan", "ios": "https://dc.lft.to/lastmile_qr_scan"}, "fusion_lon": 0.0, "lat": 38.916131666666665, "bike_id": "2c1b79049d5f1884e1f986e34c500d84", "type": "electric_scooter", "is_reserved": 0, "lon": -77.02386266666667}, {"fusion_lat": 0.0, "name": "ec3f55ddde8f9eb87205cbd0a1b1fbf6", "is_disabled": 0, "rental_uris": {"android": "https://dc.lft.to/lastmile_qr_scan", "ios": "https://dc.lft.to/lastmile_qr_scan"}, "fusion_lon": 0.0, "lat": 38.923296, "bike_id": "ec3f55ddde8f9eb87205cbd0a1b1fbf6", "type": "electric_bike", "is_reserved": 0, "lon": -77.0389545}, {"fusion_lat": 0.0, "name": "959838ebac2cb28c16b428b731f5d69b", "is_disabled": 0, "rental_uris": {"android": "https://dc.lft.to/lastmile_qr_scan", "ios": "https://dc.lft.to/lastmile_qr_scan"}, "fusion_lon": 0.0, "lat": 38.903536333333335, "bike_id": "959838ebac2cb28c16b428b731f5d69b", "type": "electric_scooter", "is_reserved": 0, "lon": -77.03306016666667}, {"fusion_lat": 0.0, "name": "fac0045b54d2c6b99e87e4c0834ab5ed", "is_disabled": 0, "rental_uris": {"android": "https://dc.lft.to/lastmile_qr_scan", "ios": "https://dc.lft.to/lastmile_qr_scan"}, "fusion_lon": 0.0, "lat": 38.90736583333333, "bike_id": "fac0045b54d2c6b99e87e4c0834ab5ed", "type": "electric_scooter", "is_reserved": 0, "lon": -77.04336433333333}, {"fusion_lat": 0.0, "name": "bbe6e4daa996c03661fc9676235305d3", "is_disabled": 0, "rental_uris": {"android": "https://dc.lft.to/lastmile_qr_scan", "ios": "https://dc.lft.to/lastmile_qr_scan"}, "fusion_lon": 0.0, "lat": 38.907290333333336, "bike_id": "bbe6e4daa996c03661fc9676235305d3", "type": "electric_scooter", "is_reserved": 0, "lon": -77.043363}, {"fusion_lat": 0.0, "name": "55e6b9eb114cac45533b0c56ec8d61a7", "is_disabled": 0, "rental_uris": {"android": "https://dc.lft.to/lastmile_qr_scan", "ios": "https://dc.lft.to/lastmile_qr_scan"}, "fusion_lon": 0.0, "lat": 38.9208885, "bike_id": "55e6b9eb114cac45533b0c56ec8d61a7", "type": "electric_scooter", "is_reserved": 0, "lon": -77.02400533333333}, {"fusion_lat": 0.0, "name": "a2e4c5b5cfd9f6244d3565fed476685f", "is_disabled": 0, "rental_uris": {"android": "https://dc.lft.to/lastmile_qr_scan", "ios": "https://dc.lft.to/lastmile_qr_scan"}, "fusion_lon": 0.0, "lat": 38.90763333333334, "bike_id": "a2e4c5b5cfd9f6244d3565fed476685f", "type": "electric_scooter", "is_reserved": 0, "lon": -77.03586466666667}, {"fusion_lat": 0.0, "name": "1456fb41d509e28b60fa5bf4fc1dae4e", "is_disabled": 0, "rental_uris": {"android": "https://dc.lft.to/lastmile_qr_scan", "ios": "https://dc.lft.to/lastmile_qr_scan"}, "fusion_lon": 0.0, "lat": 38.930591666666665, "bike_id": "1456fb41d509e28b60fa5bf4fc1dae4e", "type": "electric_scooter", "is_reserved": 0, "lon": -77.03211533333334}, {"fusion_lat": 0.0, "name": "63b203bf20336115fc9b9e48c55774be", "is_disabled": 0, "rental_uris": {"android": "https://dc.lft.to/lastmile_qr_scan", "ios": "https://dc.lft.to/lastmile_qr_scan"}, "fusion_lon": 0.0, "lat": 38.923556166666664, "bike_id": "63b203bf20336115fc9b9e48c55774be", "type": "electric_scooter", "is_reserved": 0, "lon": -77.041521}, {"fusion_lat": 0.0, "name": "206f49b7267eee6d62b3af45f0fdedb8", "is_disabled": 0, "rental_uris": {"android": "https://dc.lft.to/lastmile_qr_scan", "ios": "https://dc.lft.to/lastmile_qr_scan"}, "fusion_lon": 0.0, "lat": 38.91532433333333, "bike_id": "206f49b7267eee6d62b3af45f0fdedb8", "type": "electric_scooter", "is_reserved": 0, "lon": -77.074843}, {"fusion_lat": 0.0, "name": "68afaf754872e8d42a5b909466499c52", "is_disabled": 0, "rental_uris": {"android": "https://dc.lft.to/lastmile_qr_scan", "ios": "https://dc.lft.to/lastmile_qr_scan"}, "fusion_lon": 0.0, "lat": 38.919814, "bike_id": "68afaf754872e8d42a5b909466499c52", "type": "electric_scooter", "is_reserved": 0, "lon": -77.02399516666667}, {"fusion_lat": 0.0, "name": "358064a000879ebcb96523f0724bb71b", "is_disabled": 0, "rental_uris": {"android": "https://dc.lft.to/lastmile_qr_scan", "ios": "https://dc.lft.to/lastmile_qr_scan"}, "fusion_lon": 0.0, "lat": 38.9177435, "bike_id": "358064a000879ebcb96523f0724bb71b", "type": "electric_scooter", "is_reserved": 0, "lon": -77.01452633333334}, {"fusion_lat": 0.0, "name": "897d14e7234c54a0e840f592a251caec", "is_disabled": 0, "rental_uris": {"android": "https://dc.lft.to/lastmile_qr_scan", "ios": "https://dc.lft.to/lastmile_qr_scan"}, "fusion_lon": 0.0, "lat": 38.93700233333333, "bike_id": "897d14e7234c54a0e840f592a251caec", "type": "electric_scooter", "is_reserved": 0, "lon": -77.03281066666666}, {"fusion_lat": 0.0, "name": "3e0cfaef4aec39ad206f44967491fe69", "is_disabled": 0, "rental_uris": {"android": "https://dc.lft.to/lastmile_qr_scan", "ios": "https://dc.lft.to/lastmile_qr_scan"}, "fusion_lon": 0.0, "lat": 38.91706583333333, "bike_id": "3e0cfaef4aec39ad206f44967491fe69", "type": "electric_scooter", "is_reserved": 0, "lon": -77.0276475}, {"fusion_lat": 0.0, "name": "915d158773a4b24b07a898489ee6df98", "is_disabled": 0, "rental_uris": {"android": "https://dc.lft.to/lastmile_qr_scan", "ios": "https://dc.lft.to/lastmile_qr_scan"}, "fusion_lon": 0.0, "lat": 38.88622816666667, "bike_id": "915d158773a4b24b07a898489ee6df98", "type": "electric_scooter", "is_reserved": 0, "lon": -77.02822816666666}, {"fusion_lat": 0.0, "name": "c4623d11b8b5506964842f9c602ead69", "is_disabled": 0, "rental_uris": {"android": "https://dc.lft.to/lastmile_qr_scan", "ios": "https://dc.lft.to/lastmile_qr_scan"}, "fusion_lon": 0.0, "lat": 38.91562866666666, "bike_id": "c4623d11b8b5506964842f9c602ead69", "type": "electric_scooter", "is_reserved": 0, "lon": -77.01049166666667}, {"fusion_lat": 0.0, "name": "d467015bfcc1b081768243c0128ae051", "is_disabled": 0, "rental_uris": {"android": "https://dc.lft.to/lastmile_qr_scan", "ios": "https://dc.lft.to/lastmile_qr_scan"}, "fusion_lon": 0.0, "lat": 38.892284, "bike_id": "d467015bfcc1b081768243c0128ae051", "type": "electric_scooter", "is_reserved": 0, "lon": -77.040935}, {"fusion_lat": 0.0, "name": "2ba6d7c8b04228095446644e627099ae", "is_disabled": 0, "rental_uris": {"android": "https://dc.lft.to/lastmile_qr_scan", "ios": "https://dc.lft.to/lastmile_qr_scan"}, "fusion_lon": 0.0, "lat": 38.90186, "bike_id": "2ba6d7c8b04228095446644e627099ae", "type": "electric_scooter", "is_reserved": 0, "lon": -77.05881783333334}, {"fusion_lat": 0.0, "name": "442e7033a458f4b6f946e60a8afe4cbb", "is_disabled": 0, "rental_uris": {"android": "https://dc.lft.to/lastmile_qr_scan", "ios": "https://dc.lft.to/lastmile_qr_scan"}, "fusion_lon": 0.0, "lat": 38.904119333333334, "bike_id": "442e7033a458f4b6f946e60a8afe4cbb", "type": "electric_scooter", "is_reserved": 0, "lon": -77.024849}, {"fusion_lat": 0.0, "name": "a682b9b6c3c8ea934ccc0dfa86b2a5bf", "is_disabled": 0, "rental_uris": {"android": "https://dc.lft.to/lastmile_qr_scan", "ios": "https://dc.lft.to/lastmile_qr_scan"}, "fusion_lon": 0.0, "lat": 39.03608833333333, "bike_id": "a682b9b6c3c8ea934ccc0dfa86b2a5bf", "type": "electric_bike", "is_reserved": 0, "lon": -77.055463}, {"fusion_lat": 0.0, "name": "0e435f46b5087d5c8473407447b8a818", "is_disabled": 0, "rental_uris": {"android": "https://dc.lft.to/lastmile_qr_scan", "ios": "https://dc.lft.to/lastmile_qr_scan"}, "fusion_lon": 0.0, "lat": 38.947259, "bike_id": "0e435f46b5087d5c8473407447b8a818", "type": "electric_scooter", "is_reserved": 0, "lon": -77.02768416666666}, {"fusion_lat": 0.0, "name": "167d40cd5f2b8c4cdd21085ff714053c", "is_disabled": 0, "rental_uris": {"android": "https://dc.lft.to/lastmile_qr_scan", "ios": "https://dc.lft.to/lastmile_qr_scan"}, "fusion_lon": 0.0, "lat": 38.927865833333335, "bike_id": "167d40cd5f2b8c4cdd21085ff714053c", "type": "electric_scooter", "is_reserved": 0, "lon": -77.0531375}, {"fusion_lat": 0.0, "name": "b1e0af4d8272642104d5ef543a130926", "is_disabled": 0, "rental_uris": {"android": "https://dc.lft.to/lastmile_qr_scan", "ios": "https://dc.lft.to/lastmile_qr_scan"}, "fusion_lon": 0.0, "lat": 38.86262033333333, "bike_id": "b1e0af4d8272642104d5ef543a130926", "type": "electric_bike", "is_reserved": 0, "lon": -76.98346633333334}, {"fusion_lat": 0.0, "name": "1acab526509d55a5353cfee097a5d039", "is_disabled": 0, "rental_uris": {"android": "https://dc.lft.to/lastmile_qr_scan", "ios": "https://dc.lft.to/lastmile_qr_scan"}, "fusion_lon": 0.0, "lat": 38.908610833333334, "bike_id": "1acab526509d55a5353cfee097a5d039", "type": "electric_bike", "is_reserved": 0, "lon": -77.043943}, {"fusion_lat": 0.0, "name": "0c7141cdf74288182f7b42d6a22a66ee", "is_disabled": 0, "rental_uris": {"android": "https://dc.lft.to/lastmile_qr_scan", "ios": "https://dc.lft.to/lastmile_qr_scan"}, "fusion_lon": 0.0, "lat": 38.962324, "bike_id": "0c7141cdf74288182f7b42d6a22a66ee", "type": "electric_bike", "is_reserved": 0, "lon": -76.927972}, {"fusion_lat": 0.0, "name": "e7d94f80cb83358864e8acb20cf87307", "is_disabled": 0, "rental_uris": {"android": "https://dc.lft.to/lastmile_qr_scan", "ios": "https://dc.lft.to/lastmile_qr_scan"}, "fusion_lon": 0.0, "lat": 38.91016483333333, "bike_id": "e7d94f80cb83358864e8acb20cf87307", "type": "electric_scooter", "is_reserved": 0, "lon": -77.03859316666667}, {"fusion_lat": 0.0, "name": "195db05d111b528eed711e4a4cfac923", "is_disabled": 0, "rental_uris": {"android": "https://dc.lft.to/lastmile_qr_scan", "ios": "https://dc.lft.to/lastmile_qr_scan"}, "fusion_lon": 0.0, "lat": 38.908806166666665, "bike_id": "195db05d111b528eed711e4a4cfac923", "type": "electric_scooter", "is_reserved": 0, "lon": -77.0438125}, {"fusion_lat": 0.0, "name": "f6776e64d039216345be76e97b9ec354", "is_disabled": 0, "rental_uris": {"android": "https://dc.lft.to/lastmile_qr_scan", "ios": "https://dc.lft.to/lastmile_qr_scan"}, "fusion_lon": 0.0, "lat": 38.924628166666665, "bike_id": "f6776e64d039216345be76e97b9ec354", "type": "electric_scooter", "is_reserved": 0, "lon": -77.03946183333333}, {"fusion_lat": 0.0, "name": "0b5a41d58546b09ac934f9b196856329", "is_disabled": 0, "rental_uris": {"android": "https://dc.lft.to/lastmile_qr_scan", "ios": "https://dc.lft.to/lastmile_qr_scan"}, "fusion_lon": 0.0, "lat": 38.914098833333334, "bike_id": "0b5a41d58546b09ac934f9b196856329", "type": "electric_scooter", "is_reserved": 0, "lon": -77.02486716666667}, {"fusion_lat": 0.0, "name": "ac10ca5cd4290281a1b21017c32824ed", "is_disabled": 0, "rental_uris": {"android": "https://dc.lft.to/lastmile_qr_scan", "ios": "https://dc.lft.to/lastmile_qr_scan"}, "fusion_lon": 0.0, "lat": 38.93871733333334, "bike_id": "ac10ca5cd4290281a1b21017c32824ed", "type": "electric_scooter", "is_reserved": 0, "lon": -77.0291845}, {"fusion_lat": 0.0, "name": "84090086e47bb6b516725cb1ca3341b3", "is_disabled": 0, "rental_uris": {"android": "https://dc.lft.to/lastmile_qr_scan", "ios": "https://dc.lft.to/lastmile_qr_scan"},