{"data": {"bikes": [{"lat": 38.90157083333333, "is_disabled": 0, "type": "electric_scooter", "lon": -76.986313, "bike_id": "8d790493e22e5d36f4fa37b522fafee6", "fusion_lat": 0.0, "name": "8d790493e22e5d36f4fa37b522fafee6", "is_reserved": 0, "rental_uris": {"android": "https://dc.lft.to/lastmile_qr_scan", "ios": "https://dc.lft.to/lastmile_qr_scan"}, "fusion_lon": 0.0}, {"lat": 38.9036505, "is_disabled": 0, "type": "electric_scooter", "lon": -77.0034685, "bike_id": "bcf53b785ea2acfdfe129d5b38c43712", "fusion_lat": 0.0, "name": "bcf53b785ea2acfdfe129d5b38c43712", "is_reserved": 0, "rental_uris": {"android": "https://dc.lft.to/lastmile_qr_scan", "ios": "https://dc.lft.to/lastmile_qr_scan"}, "fusion_lon": 0.0}, {"lat": 38.925818, "is_disabled": 0, "type": "electric_scooter", "lon": -77.0573845, "bike_id": "0fbc2952f0a0280eb302135dfdc30232", "fusion_lat": 0.0, "name": "0fbc2952f0a0280eb302135dfdc30232", "is_reserved": 0, "rental_uris": {"android": "https://dc.lft.to/lastmile_qr_scan", "ios": "https://dc.lft.to/lastmile_qr_scan"}, "fusion_lon": 0.0}, {"lat": 38.897750333333335, "is_disabled": 0, "type": "electric_bike", "lon": -76.904309, "bike_id": "3476b58a04264ef8dea29c429565d67a", "fusion_lat": 0.0, "name": "3476b58a04264ef8dea29c429565d67a", "is_reserved": 0, "rental_uris": {"android": "https://dc.lft.to/lastmile_qr_scan", "ios": "https://dc.lft.to/lastmile_qr_scan"}, "fusion_lon": 0.0}, {"lat": 38.898033, "is_disabled": 0, "type": "electric_scooter", "lon": -77.0006185, "bike_id": "e73cedf9caf61176733a7303100d6af6", "fusion_lat": 0.0, "name": "e73cedf9caf61176733a7303100d6af6", "is_reserved": 0, "rental_uris": {"android": "https://dc.lft.to/lastmile_qr_scan", "ios": "https://dc.lft.to/lastmile_qr_scan"}, "fusion_lon": 0.0}, {"lat": 38.8809835, "is_disabled": 0, "type": "electric_scooter", "lon": -76.99857033333333, "bike_id": "4739263b49dbf5757066a8d221bac7bc", "fusion_lat": 0.0, "name": "4739263b49dbf5757066a8d221bac7bc", "is_reserved": 0, "rental_uris": {"android": "https://dc.lft.to/lastmile_qr_scan", "ios": "https://dc.lft.to/lastmile_qr_scan"}, "fusion_lon": 0.0}, {"lat": 38.95641716666667, "is_disabled": 0, "type": "electric_bike", "lon": -76.93884916666667, "bike_id": "31e82499df49a183f3447220abfdb627", "fusion_lat": 0.0, "name": "31e82499df49a183f3447220abfdb627", "is_reserved": 0, "rental_uris": {"android": "https://dc.lft.to/lastmile_qr_scan", "ios": "https://dc.lft.to/lastmile_qr_scan"}, "fusion_lon": 0.0}, {"lat": 38.8427775, "is_disabled": 0, "type": "electric_bike", "lon": -76.98842333333333, "bike_id": "8aea800efaab368b1a6531881c3ab7a1", "fusion_lat": 0.0, "name": "8aea800efaab368b1a6531881c3ab7a1", "is_reserved": 0, "rental_uris": {"android": "https://dc.lft.to/lastmile_qr_scan", "ios": "https://dc.lft.to/lastmile_qr_scan"}, "fusion_lon": 0.0}, {"lat": 38.90065383333334, "is_disabled": 0, "type": "electric_scooter", "lon": -77.04965966666667, "bike_id": "436a13e3ac8ff7cc193a49432d45c935", "fusion_lat": 0.0, "name": "436a13e3ac8ff7cc193a49432d45c935", "is_reserved": 0, "rental_uris": {"android": "https://dc.lft.to/lastmile_qr_scan", "ios": "https://dc.lft.to/lastmile_qr_scan"}, "fusion_lon": 0.0}, {"lat": 38.906108, "is_disabled": 0, "type": "electric_scooter", "lon": -77.01524133333334, "bike_id": "485dadda90d281692e9f2fb1a1011e49", "fusion_lat": 0.0, "name": "485dadda90d281692e9f2fb1a1011e49", "is_reserved": 0, "rental_uris": {"android": "https://dc.lft.to/lastmile_qr_scan", "ios": "https://dc.lft.to/lastmile_qr_scan"}, "fusion_lon": 0.0}, {"lat": 38.90364116666667, "is_disabled": 0, "type": "electric_scooter", "lon": -77.03102783333334, "bike_id": "1d203571d9e66e7048dabde5d12ee0ca", "fusion_lat": 0.0, "name": "1d203571d9e66e7048dabde5d12ee0ca", "is_reserved": 0, "rental_uris": {"android": "https://dc.lft.to/lastmile_qr_scan", "ios": "https://dc.lft.to/lastmile_qr_scan"}, "fusion_lon": 0.0}, {"lat": 38.91969066666667, "is_disabled": 0, "type": "electric_scooter", "lon": -77.01202983333333, "bike_id": "4446e9688fed213422b378a53d56d037", "fusion_lat": 0.0, "name": "4446e9688fed213422b378a53d56d037", "is_reserved": 0, "rental_uris": {"android": "https://dc.lft.to/lastmile_qr_scan", "ios": "https://dc.lft.to/lastmile_qr_scan"}, "fusion_lon": 0.0}, {"lat": 38.9275155, "is_disabled": 0, "type": "electric_scooter", "lon": -76.99715516666667, "bike_id": "a9cca2ad75a0bc6ad2598a8f4e4503dc", "fusion_lat": 0.0, "name": "a9cca2ad75a0bc6ad2598a8f4e4503dc", "is_reserved": 0, "rental_uris": {"android": "https://dc.lft.to/lastmile_qr_scan", "ios": "https://dc.lft.to/lastmile_qr_scan"}, "fusion_lon": 0.0}, {"lat": 38.879867833333336, "is_disabled": 0, "type": "electric_scooter", "lon": -76.98681, "bike_id": "d53c1d6c037a06fc2216718ab24e225e", "fusion_lat": 0.0, "name": "d53c1d6c037a06fc2216718ab24e225e", "is_reserved": 0, "rental_uris": {"android": "https://dc.lft.to/lastmile_qr_scan", "ios": "https://dc.lft.to/lastmile_qr_scan"}, "fusion_lon": 0.0}, {"lat": 38.93618516666667, "is_disabled": 0, "type": "electric_scooter", "lon": -77.05751066666667, "bike_id": "3bd2e3c444012ade263db58a29aac856", "fusion_lat": 0.0, "name": "3bd2e3c444012ade263db58a29aac856", "is_reserved": 0, "rental_uris": {"android": "https://dc.lft.to/lastmile_qr_scan", "ios": "https://dc.lft.to/lastmile_qr_scan"}, "fusion_lon": 0.0}, {"lat": 38.92504383333333, "is_disabled": 0, "type": "electric_scooter", "lon": -77.07645666666667, "bike_id": "ffd31f67207dbb3fb032c0ebd758a3ab", "fusion_lat": 0.0, "name": "ffd31f67207dbb3fb032c0ebd758a3ab", "is_reserved": 0, "rental_uris": {"android": "https://dc.lft.to/lastmile_qr_scan", "ios": "https://dc.lft.to/lastmile_qr_scan"}, "fusion_lon": 0.0}, {"lat": 38.867011833333336, "is_disabled": 0, "type": "electric_scooter", "lon": -76.9871505, "bike_id": "b5ceaf7174d6cd41a114cb47e69adf42", "fusion_lat": 0.0, "name": "b5ceaf7174d6cd41a114cb47e69adf42", "is_reserved": 0, "rental_uris": {"android": "https://dc.lft.to/lastmile_qr_scan", "ios": "https://dc.lft.to/lastmile_qr_scan"}, "fusion_lon": 0.0}, {"lat": 38.90241733333333, "is_disabled": 0, "type": "electric_scooter", "lon": -77.01754833333334, "bike_id": "73e3d2ee0e4a7921af08cc9436ca07a3", "fusion_lat": 0.0, "name": "73e3d2ee0e4a7921af08cc9436ca07a3", "is_reserved": 0, "rental_uris": {"android": "https://dc.lft.to/lastmile_qr_scan", "ios": "https://dc.lft.to/lastmile_qr_scan"}, "fusion_lon": 0.0}, {"lat": 38.932495833333334, "is_disabled": 0, "type": "electric_scooter", "lon": -77.0665555, "bike_id": "194d956a3a2e579460fa7eddb30b9b9a", "fusion_lat": 0.0, "name": "194d956a3a2e579460fa7eddb30b9b9a", "is_reserved": 0, "rental_uris": {"android": "https://dc.lft.to/lastmile_qr_scan", "ios": "https://dc.lft.to/lastmile_qr_scan"}, "fusion_lon": 0.0}, {"lat": 38.952631833333335, "is_disabled": 0, "type": "electric_scooter", "lon": -77.06982983333333, "bike_id": "f35a67f86c6959b06e54231add072f69", "fusion_lat": 0.0, "name": "f35a67f86c6959b06e54231add072f69", "is_reserved": 0, "rental_uris": {"android": "https://dc.lft.to/lastmile_qr_scan", "ios": "https://dc.lft.to/lastmile_qr_scan"}, "fusion_lon": 0.0}, {"lat": 38.9168735, "is_disabled": 0, "type": "electric_scooter", "lon": -77.02946816666666, "bike_id": "f49bc7fcbeb3faed04a422109ad79cda", "fusion_lat": 0.0, "name": "f49bc7fcbeb3faed04a422109ad79cda", "is_reserved": 0, "rental_uris": {"android": "https://dc.lft.to/lastmile_qr_scan", "ios": "https://dc.lft.to/lastmile_qr_scan"}, "fusion_lon": 0.0}, {"lat": 38.9068145, "is_disabled": 0, "type": "electric_scooter", "lon": -77.03635683333333, "bike_id": "760f9a237b626a1255e59fa1ce2648f8", "fusion_lat": 0.0, "name": "760f9a237b626a1255e59fa1ce2648f8", "is_reserved": 0, "rental_uris": {"android": "https://dc.lft.to/lastmile_qr_scan", "ios": "https://dc.lft.to/lastmile_qr_scan"}, "fusion_lon": 0.0}, {"lat": 38.91618533333333, "is_disabled": 0, "type": "electric_scooter", "lon": -77.036433, "bike_id": "1359615bfaba8b1710b0536587e99796", "fusion_lat": 0.0, "name": "1359615bfaba8b1710b0536587e99796", "is_reserved": 0, "rental_uris": {"android": "https://dc.lft.to/lastmile_qr_scan", "ios": "https://dc.lft.to/lastmile_qr_scan"}, "fusion_lon": 0.0}, {"lat": 38.9238195, "is_disabled": 0, "type": "electric_scooter", "lon": -77.05762333333334, "bike_id": "42f1055dfd43034be78f6f6c9f8f8495", "fusion_lat": 0.0, "name": "42f1055dfd43034be78f6f6c9f8f8495", "is_reserved": 0, "rental_uris": {"android": "https://dc.lft.to/lastmile_qr_scan", "ios": "https://dc.lft.to/lastmile_qr_scan"}, "fusion_lon": 0.0}, {"lat": 38.915672, "is_disabled": 0, "type": "electric_scooter", "lon": -77.03850716666666, "bike_id": "2c6b770b485afa084018d02eaeb2e7e8", "fusion_lat": 0.0, "name": "2c6b770b485afa084018d02eaeb2e7e8", "is_reserved": 0, "rental_uris": {"android": "https://dc.lft.to/lastmile_qr_scan", "ios": "https://dc.lft.to/lastmile_qr_scan"}, "fusion_lon": 0.0}, {"lat": 38.95495, "is_disabled": 0, "type": "electric_scooter", "lon": -77.06567166666666, "bike_id": "3ee7f5da19f2a6a8fef11915e6424d8d", "fusion_lat": 0.0, "name": "3ee7f5da19f2a6a8fef11915e6424d8d", "is_reserved": 0, "rental_uris": {"android": "https://dc.lft.to/lastmile_qr_scan", "ios": "https://dc.lft.to/lastmile_qr_scan"}, "fusion_lon": 0.0}, {"lat": 38.91202083333334, "is_disabled": 0, "type": "electric_scooter", "lon": -77.01464633333333, "bike_id": "849a78dea8fc072b2f47723d329c817a", "fusion_lat": 0.0, "name": "849a78dea8fc072b2f47723d329c817a", "is_reserved": 0, "rental_uris": {"android": "https://dc.lft.to/lastmile_qr_scan", "ios": "https://dc.lft.to/lastmile_qr_scan"}, "fusion_lon": 0.0}, {"lat": 38.923018, "is_disabled": 0, "type": "electric_bike", "lon": -77.03533183333333, "bike_id": "9f252bebb4a3756c5efd8407cd9cc9e2", "fusion_lat": 0.0, "name": "9f252bebb4a3756c5efd8407cd9cc9e2", "is_reserved": 0, "rental_uris": {"android": "https://dc.lft.to/lastmile_qr_scan", "ios": "https://dc.lft.to/lastmile_qr_scan"}, "fusion_lon": 0.0}, {"lat": 38.897802, "is_disabled": 0, "type": "electric_scooter", "lon": -77.00922233333333, "bike_id": "0b55c72828da472042b08c8c7af48ff3", "fusion_lat": 0.0, "name": "0b55c72828da472042b08c8c7af48ff3", "is_reserved": 0, "rental_uris": {"android": "https://dc.lft.to/lastmile_qr_scan", "ios": "https://dc.lft.to/lastmile_qr_scan"}, "fusion_lon": 0.0}, {"lat": 38.919329166666664, "is_disabled": 0, "type": "electric_scooter", "lon": -77.02492133333334, "bike_id": "de7e8dc25e105010959b59677ae6bd32", "fusion_lat": 0.0, "name": "de7e8dc25e105010959b59677ae6bd32", "is_reserved": 0, "rental_uris": {"android": "https://dc.lft.to/lastmile_qr_scan", "ios": "https://dc.lft.to/lastmile_qr_scan"}, "fusion_lon": 0.0}, {"lat": 38.887651, "is_disabled": 0, "type": "electric_scooter", "lon": -76.956006, "bike_id": "3b2871e461148a07cf4608aa028fa79a", "fusion_lat": 0.0, "name": "3b2871e461148a07cf4608aa028fa79a", "is_reserved": 0, "rental_uris": {"android": "https://dc.lft.to/lastmile_qr_scan", "ios": "https://dc.lft.to/lastmile_qr_scan"}, "fusion_lon": 0.0}, {"lat": 38.9366385, "is_disabled": 0, "type": "electric_scooter", "lon": -77.03678033333334, "bike_id": "1a1760dbdef70b5ce4600f286bddc2f6", "fusion_lat": 0.0, "name": "1a1760dbdef70b5ce4600f286bddc2f6", "is_reserved": 0, "rental_uris": {"android": "https://dc.lft.to/lastmile_qr_scan", "ios": "https://dc.lft.to/lastmile_qr_scan"}, "fusion_lon": 0.0}, {"lat": 38.95295133333333, "is_disabled": 0, "type": "electric_scooter", "lon": -77.081525, "bike_id": "e7d642e086bcf3b97abdfc9d0ec16dac", "fusion_lat": 0.0, "name": "e7d642e086bcf3b97abdfc9d0ec16dac", "is_reserved": 0, "rental_uris": {"android": "https://dc.lft.to/lastmile_qr_scan", "ios": "https://dc.lft.to/lastmile_qr_scan"}, "fusion_lon": 0.0}, {"lat": 38.8665955, "is_disabled": 0, "type": "electric_scooter", "lon": -76.98888216666667, "bike_id": "e53f3ffdb3e1958355c711cf3279d29f", "fusion_lat": 0.0, "name": "e53f3ffdb3e1958355c711cf3279d29f", "is_reserved": 0, "rental_uris": {"android": "https://dc.lft.to/lastmile_qr_scan", "ios": "https://dc.lft.to/lastmile_qr_scan"}, "fusion_lon": 0.0}, {"lat": 38.8994745, "is_disabled": 0, "type": "electric_bike", "lon": -77.0209565, "bike_id": "f17aac60f39b316370fcb4e7c8b59cfd", "fusion_lat": 0.0, "name": "f17aac60f39b316370fcb4e7c8b59cfd", "is_reserved": 0, "rental_uris": {"android": "https://dc.lft.to/lastmile_qr_scan", "ios": "https://dc.lft.to/lastmile_qr_scan"}, "fusion_lon": 0.0}, {"lat": 38.920636, "is_disabled": 0, "type": "electric_scooter", "lon": -77.043743, "bike_id": "351fc7a94fe0dba87bae6676319602ed", "fusion_lat": 0.0, "name": "351fc7a94fe0dba87bae6676319602ed", "is_reserved": 0, "rental_uris": {"android": "https://dc.lft.to/lastmile_qr_scan", "ios": "https://dc.lft.to/lastmile_qr_scan"}, "fusion_lon": 0.0}, {"lat": 38.938767166666665, "is_disabled": 0, "type": "electric_scooter", "lon": -77.0312205, "bike_id": "59b9ef43ba4f150b446dd6c6c2e92d72", "fusion_lat": 0.0, "name": "59b9ef43ba4f150b446dd6c6c2e92d72", "is_reserved": 0, "rental_uris": {"android": "https://dc.lft.to/lastmile_qr_scan", "ios": "https://dc.lft.to/lastmile_qr_scan"}, "fusion_lon": 0.0}, {"lat": 39.052006666666664, "is_disabled": 0, "type": "electric_bike", "lon": -77.10920883333333, "bike_id": "270965bb6b2ea669d24df0dc7715979f", "fusion_lat": 0.0, "name": "270965bb6b2ea669d24df0dc7715979f", "is_reserved": 0, "rental_uris": {"android": "https://dc.lft.to/lastmile_qr_scan", "ios": "https://dc.lft.to/lastmile_qr_scan"}, "fusion_lon": 0.0}, {"lat": 38.90056116666667, "is_disabled": 0, "type": "electric_scooter", "lon": -77.00205, "bike_id": "b198504d3d0c728c486966db9a0961b4", "fusion_lat": 0.0, "name": "b198504d3d0c728c486966db9a0961b4", "is_reserved": 0, "rental_uris": {"android": "https://dc.lft.to/lastmile_qr_scan", "ios": "https://dc.lft.to/lastmile_qr_scan"}, "fusion_lon": 0.0}, {"lat": 38.8923145, "is_disabled": 0, "type": "electric_scooter", "lon": -77.05004116666667, "bike_id": "76c1742fcb8c79f335763e859e788877", "fusion_lat": 0.0, "name": "76c1742fcb8c79f335763e859e788877", "is_reserved": 0, "rental_uris": {"android": "https://dc.lft.to/lastmile_qr_scan", "ios": "https://dc.lft.to/lastmile_qr_scan"}, "fusion_lon": 0.0}, {"lat": 38.91712183333333, "is_disabled": 0, "type": "electric_scooter", "lon": -77.03862633333334, "bike_id": "abd6048e38321a1f9b3b366199211ab8", "fusion_lat": 0.0, "name": "abd6048e38321a1f9b3b366199211ab8", "is_reserved": 0, "rental_uris": {"android": "https://dc.lft.to/lastmile_qr_scan", "ios": "https://dc.lft.to/lastmile_qr_scan"}, "fusion_lon": 0.0}, {"lat": 38.9233095, "is_disabled": 0, "type": "electric_scooter", "lon": -77.0269895, "bike_id": "16b4dd9a61519cd5f92683fae606459e", "fusion_lat": 0.0, "name": "16b4dd9a61519cd5f92683fae606459e", "is_reserved": 0, "rental_uris": {"android": "https://dc.lft.to/lastmile_qr_scan", "ios": "https://dc.lft.to/lastmile_qr_scan"}, "fusion_lon": 0.0}, {"lat": 38.901957, "is_disabled": 0, "type": "electric_scooter", "lon": -77.02374216666666, "bike_id": "cf913ed2003ab585abfcd7e54588c446", "fusion_lat": 0.0, "name": "cf913ed2003ab585abfcd7e54588c446", "is_reserved": 0, "rental_uris": {"android": "https://dc.lft.to/lastmile_qr_scan", "ios": "https://dc.lft.to/lastmile_qr_scan"}, "fusion_lon": 0.0}, {"lat": 38.923220666666666, "is_disabled": 0, "type": "electric_scooter", "lon": -77.03868883333334, "bike_id": "5cce48df8420d6c21e7154d1152671b9", "fusion_lat": 0.0, "name": "5cce48df8420d6c21e7154d1152671b9", "is_reserved": 0, "rental_uris": {"android": "https://dc.lft.to/lastmile_qr_scan", "ios": "https://dc.lft.to/lastmile_qr_scan"}, "fusion_lon": 0.0}, {"lat": 38.899674833333336, "is_disabled": 0, "type": "electric_scooter", "lon": -76.92659516666667, "bike_id": "ed775cedf45ae3a285284d052d1c086e", "fusion_lat": 0.0, "name": "ed775cedf45ae3a285284d052d1c086e", "is_reserved": 0, "rental_uris": {"android": "https://dc.lft.to/lastmile_qr_scan", "ios": "https://dc.lft.to/lastmile_qr_scan"}, "fusion_lon": 0.0}, {"lat": 38.9050745, "is_disabled": 0, "type": "electric_scooter", "lon": -77.02946216666666, "bike_id": "de160aaecf64ffb3b30c8edbba97cf19", "fusion_lat": 0.0, "name": "de160aaecf64ffb3b30c8edbba97cf19", "is_reserved": 0, "rental_uris": {"android": "https://dc.lft.to/lastmile_qr_scan", "ios": "https://dc.lft.to/lastmile_qr_scan"}, "fusion_lon": 0.0}, {"lat": 38.90730166666667, "is_disabled": 0, "type": "electric_scooter", "lon": -77.048273, "bike_id": "3eb3c11c8c6ab5f8c68f45f2ec42154d", "fusion_lat": 0.0, "name": "3eb3c11c8c6ab5f8c68f45f2ec42154d", "is_reserved": 0, "rental_uris": {"android": "https://dc.lft.to/lastmile_qr_scan", "ios": "https://dc.lft.to/lastmile_qr_scan"}, "fusion_lon": 0.0}, {"lat": 38.865078833333335, "is_disabled": 0, "type": "electric_scooter", "lon": -76.990044, "bike_id": "6945e0085d2f751abf3ca63d2648a2d5", "fusion_lat": 0.0, "name": "6945e0085d2f751abf3ca63d2648a2d5", "is_reserved": 0, "rental_uris": {"android": "https://dc.lft.to/lastmile_qr_scan", "ios": "https://dc.lft.to/lastmile_qr_scan"}, "fusion_lon": 0.0}, {"lat": 38.900921833333335, "is_disabled": 0, "type": "electric_scooter", "lon": -77.05600866666667, "bike_id": "e4914dab27a2ec5e50740dee2429bbc6", "fusion_lat": 0.0, "name": "e4914dab27a2ec5e50740dee2429bbc6", "is_reserved": 0, "rental_uris": {"android": "https://dc.lft.to/lastmile_qr_scan", "ios": "https://dc.lft.to/lastmile_qr_scan"}, "fusion_lon": 0.0}, {"lat": 38.90979566666667, "is_disabled": 0, "type": "electric_scooter", "lon": -77.03209316666667, "bike_id": "495937483ce422494e2643d342908f3d", "fusion_lat": 0.0, "name": "495937483ce422494e2643d342908f3d", "is_reserved": 0, "rental_uris": {"android": "https://dc.lft.to/lastmile_qr_scan", "ios": "https://dc.lft.to/lastmile_qr_scan"}, "fusion_lon": 0.0}, {"lat": 38.900147833333335, "is_disabled": 0, "type": "electric_scooter", "lon": -77.03332616666667, "bike_id": "5d808133690269346f14943e66e1f259", "fusion_lat": 0.0, "name": "5d808133690269346f14943e66e1f259", "is_reserved": 0, "rental_uris": {"android": "https://dc.lft.to/lastmile_qr_scan", "ios": "https://dc.lft.to/lastmile_qr_scan"}, "fusion_lon": 0.0}, {"lat": 38.9085305, "is_disabled": 0, "type": "electric_scooter", "lon": -77.029279, "bike_id": "e6f33026e12e48ff4496064ba694d9df", "fusion_lat": 0.0, "name": "e6f33026e12e48ff4496064ba694d9df", "is_reserved": 0, "rental_uris": {"android": "https://dc.lft.to/lastmile_qr_scan", "ios": "https://dc.lft.to/lastmile_qr_scan"}, "fusion_lon": 0.0}, {"lat": 38.88973633333333, "is_disabled": 0, "type": "electric_scooter", "lon": -76.93743966666666, "bike_id": "8e1309f1a7cf8db167dd57d0197dbc57", "fusion_lat": 0.0, "name": "8e1309f1a7cf8db167dd57d0197dbc57", "is_reserved": 0, "rental_uris": {"android": "https://dc.lft.to/lastmile_qr_scan", "ios": "https://dc.lft.to/lastmile_qr_scan"}, "fusion_lon": 0.0}, {"lat": 38.8998605, "is_disabled": 0, "type": "electric_scooter", "lon": -77.0191065, "bike_id": "7b7c350aa738dc56c94f7a3aff007a9d", "fusion_lat": 0.0, "name": "7b7c350aa738dc56c94f7a3aff007a9d", "is_reserved": 0, "rental_uris": {"android": "https://dc.lft.to/lastmile_qr_scan", "ios": "https://dc.lft.to/lastmile_qr_scan"}, "fusion_lon": 0.0}, {"lat": 38.92763933333333, "is_disabled": 0, "type": "electric_bike", "lon": -77.068825, "bike_id": "589466bb44011d4fd18e731bf2bff5b2", "fusion_lat": 0.0, "name": "589466bb44011d4fd18e731bf2bff5b2", "is_reserved": 0, "rental_uris": {"android": "https://dc.lft.to/lastmile_qr_scan", "ios": "https://dc.lft.to/lastmile_qr_scan"}, "fusion_lon": 0.0}, {"lat": 38.917075, "is_disabled": 0, "type": "electric_scooter", "lon": -77.03223066666666, "bike_id": "0f556ab539f578bb9bcf37b4ca2731b2", "fusion_lat": 0.0, "name": "0f556ab539f578bb9bcf37b4ca2731b2", "is_reserved": 0, "rental_uris": {"android": "https://dc.lft.to/lastmile_qr_scan", "ios": "https://dc.lft.to/lastmile_qr_scan"}, "fusion_lon": 0.0}, {"lat": 38.945130166666665, "is_disabled": 0, "type": "electric_scooter", "lon": -77.021764, "bike_id": "b442d894479def3d33475a0fae88a17b", "fusion_lat": 0.0, "name": "b442d894479def3d33475a0fae88a17b", "is_reserved": 0, "rental_uris": {"android": "https://dc.lft.to/lastmile_qr_scan", "ios": "https://dc.lft.to/lastmile_qr_scan"}, "fusion_lon": 0.0}, {"lat": 38.89221933333334, "is_disabled": 0, "type": "electric_scooter", "lon": -76.93293966666667, "bike_id": "1ae2644aeb48d22a38d7b8bbed43ab75", "fusion_lat": 0.0, "name": "1ae2644aeb48d22a38d7b8bbed43ab75", "is_reserved": 0, "rental_uris": {"android": "https://dc.lft.to/lastmile_qr_scan", "ios": "https://dc.lft.to/lastmile_qr_scan"}, "fusion_lon": 0.0}, {"lat": 38.904201666666665, "is_disabled": 0, "type": "electric_scooter", "lon": -77.02520816666667, "bike_id": "4513313379602628f4c7bb1d1e0665b9", "fusion_lat": 0.0, "name": "4513313379602628f4c7bb1d1e0665b9", "is_reserved": 0, "rental_uris": {"android": "https://dc.lft.to/lastmile_qr_scan", "ios": "https://dc.lft.to/lastmile_qr_scan"}, "fusion_lon": 0.0}, {"lat": 38.9321645, "is_disabled": 0, "type": "electric_scooter", "lon": -77.02730766666667, "bike_id": "a6147aea53f9e192c88980c728dd5111", "fusion_lat": 0.0, "name": "a6147aea53f9e192c88980c728dd5111", "is_reserved": 0, "rental_uris": {"android": "https://dc.lft.to/lastmile_qr_scan", "ios": "https://dc.lft.to/lastmile_qr_scan"}, "fusion_lon": 0.0}, {"lat": 38.89629733333334, "is_disabled": 0, "type": "electric_scooter", "lon": -77.045123, "bike_id": "0ae8f2574f953ccfa3816a005d0847a2", "fusion_lat": 0.0, "name": "0ae8f2574f953ccfa3816a005d0847a2", "is_reserved": 0, "rental_uris": {"android": "https://dc.lft.to/lastmile_qr_scan", "ios": "https://dc.lft.to/lastmile_qr_scan"}, "fusion_lon": 0.0}, {"lat": 38.9287995, "is_disabled": 0, "type": "electric_scooter", "lon": -77.0341615, "bike_id": "c0274f00f19b2e669e03513afce3a7e7", "fusion_lat": 0.0, "name": "c0274f00f19b2e669e03513afce3a7e7", "is_reserved": 0, "rental_uris": {"android": "https://dc.lft.to/lastmile_qr_scan", "ios": "https://dc.lft.to/lastmile_qr_scan"}, "fusion_lon": 0.0}, {"lat": 38.923261333333336, "is_disabled": 0, "type": "electric_scooter", "lon": -77.03954983333334, "bike_id": "ad366300a45ab0bcd96cefa0df728cc4", "fusion_lat": 0.0, "name": "ad366300a45ab0bcd96cefa0df728cc4", "is_reserved": 0, "rental_uris": {"android": "https://dc.lft.to/lastmile_qr_scan", "ios": "https://dc.lft.to/lastmile_qr_scan"}, "fusion_lon": 0.0}, {"lat": 38.90577716666667, "is_disabled": 0, "type": "electric_scooter", "lon": -77.029495, "bike_id": "ec3e5059a517a9c9758ea430cd3484fe", "fusion_lat": 0.0, "name": "ec3e5059a517a9c9758ea430cd3484fe", "is_reserved": 0, "rental_uris": {"android": "https://dc.lft.to/lastmile_qr_scan", "ios": "https://dc.lft.to/lastmile_qr_scan"}, "fusion_lon": 0.0}, {"lat": 38.91361933333334, "is_disabled": 0, "type": "electric_scooter", "lon": -77.06923033333334, "bike_id": "14bcdacfae2d02c07a01313447e0ad08", "fusion_lat": 0.0, "name": "14bcdacfae2d02c07a01313447e0ad08", "is_reserved": 0, "rental_uris": {"android": "https://dc.lft.to/lastmile_qr_scan", "ios": "https://dc.lft.to/lastmile_qr_scan"}, "fusion_lon": 0.0}, {"lat": 38.931475, "is_disabled": 0, "type": "electric_scooter", "lon": -77.04143516666667, "bike_id": "c7c02a92b7513b9c14f3efd59d3c9117", "fusion_lat": 0.0, "name": "c7c02a92b7513b9c14f3efd59d3c9117", "is_reserved": 0, "rental_uris": {"android": "https://dc.lft.to/lastmile_qr_scan", "ios": "https://dc.lft.to/lastmile_qr_scan"}, "fusion_lon": 0.0}, {"lat": 38.8665645, "is_disabled": 0, "type": "electric_scooter", "lon": -76.988847, "bike_id": "06c17ee9c82408b4a4049d1617c8b073", "fusion_lat": 0.0, "name": "06c17ee9c82408b4a4049d1617c8b073", "is_reserved": 0, "rental_uris": {"android": "https://dc.lft.to/lastmile_qr_scan", "ios": "https://dc.lft.to/lastmile_qr_scan"}, "fusion_lon": 0.0}, {"lat": 38.921602666666665, "is_disabled": 0, "type": "electric_scooter", "lon": -77.03358366666667, "bike_id": "fab26ab29b5cade2da0259ce5c21aa9d", "fusion_lat": 0.0, "name": "fab26ab29b5cade2da0259ce5c21aa9d", "is_reserved": 0, "rental_uris": {"android": "https://dc.lft.to/lastmile_qr_scan", "ios": "https://dc.lft.to/lastmile_qr_scan"}, "fusion_lon": 0.0}, {"lat": 38.84275983333333, "is_disabled": 0, "type": "electric_bike", "lon": -76.988446, "bike_id": "1d52f74aabc00badd1832b574d6eb81e", "fusion_lat": 0.0, "name": "1d52f74aabc00badd1832b574d6eb81e", "is_reserved": 0, "rental_uris": {"android": "https://dc.lft.to/lastmile_qr_scan", "ios": "https://dc.lft.to/lastmile_qr_scan"}, "fusion_lon": 0.0}, {"lat": 38.88489216666667, "is_disabled": 0, "type": "electric_scooter", "lon": -77.03473183333334, "bike_id": "05a84d373cdc4a2ca5b63f23eef08953", "fusion_lat": 0.0, "name": "05a84d373cdc4a2ca5b63f23eef08953", "is_reserved": 0, "rental_uris": {"android": "https://dc.lft.to/lastmile_qr_scan", "ios": "https://dc.lft.to/lastmile_qr_scan"}, "fusion_lon": 0.0}, {"lat": 38.89624716666667, "is_disabled": 0, "type": "electric_scooter", "lon": -77.02160433333333, "bike_id": "969da13e2e050c17dffcb09c711f3c84", "fusion_lat": 0.0, "name": "969da13e2e050c17dffcb09c711f3c84", "is_reserved": 0, "rental_uris": {"android": "https://dc.lft.to/lastmile_qr_scan", "ios": "https://dc.lft.to/lastmile_qr_scan"}, "fusion_lon": 0.0}, {"lat": 38.982793666666666, "is_disabled": 0, "type": "electric_bike", "lon": -77.02538566666666, "bike_id": "cd92d4b336373f14ddf0197e12f6c7fb", "fusion_lat": 0.0, "name": "cd92d4b336373f14ddf0197e12f6c7fb", "is_reserved": 0, "rental_uris": {"android": "https://dc.lft.to/lastmile_qr_scan", "ios": "https://dc.lft.to/lastmile_qr_scan"}, "fusion_lon": 0.0}, {"lat": 38.837258166666665, "is_disabled": 0, "type": "electric_bike", "lon": -76.99764916666666, "bike_id": "8aa3ecc946fac8e1ba01e7d60f963466", "fusion_lat": 0.0, "name": "8aa3ecc946fac8e1ba01e7d60f963466", "is_reserved": 0, "rental_uris": {"android": "https://dc.lft.to/lastmile_qr_scan", "ios": "https://dc.lft.to/lastmile_qr_scan"}, "fusion_lon": 0.0}, {"lat": 38.86509316666667, "is_disabled": 0, "type": "electric_scooter", "lon": -76.99006616666667, "bike_id": "679bec3839c791b70168da27e42a0f81", "fusion_lat": 0.0, "name": "679bec3839c791b70168da27e42a0f81", "is_reserved": 0, "rental_uris": {"android": "https://dc.lft.to/lastmile_qr_scan", "ios": "https://dc.lft.to/lastmile_qr_scan"}, "fusion_lon": 0.0}, {"lat": 38.922527, "is_disabled": 0, "type": "electric_scooter", "lon": -77.04258183333333, "bike_id": "0c55d30096bad3e05abbea76ca0e0f65", "fusion_lat": 0.0, "name": "0c55d30096bad3e05abbea76ca0e0f65", "is_reserved": 0, "rental_uris": {"android": "https://dc.lft.to/lastmile_qr_scan", "ios": "https://dc.lft.to/lastmile_qr_scan"}, "fusion_lon": 0.0}, {"lat": 38.934082333333336, "is_disabled": 0, "type": "electric_scooter", "lon": -77.02472283333333, "bike_id": "dd217ee6a39c4afa5d435edddb46e47c", "fusion_lat": 0.0, "name": "dd217ee6a39c4afa5d435edddb46e47c", "is_reserved": 0, "rental_uris": {"android": "https://dc.lft.to/lastmile_qr_scan", "ios": "https://dc.lft.to/lastmile_qr_scan"}, "fusion_lon": 0.0}, {"lat": 38.9166115, "is_disabled": 0, "type": "electric_scooter", "lon": -77.0472715, "bike_id": "b140d6ea3084d5a22d4a2006890286f0", "fusion_lat": 0.0, "name": "b140d6ea3084d5a22d4a2006890286f0", "is_reserved": 0, "rental_uris": {"android": "https://dc.lft.to/lastmile_qr_scan", "ios": "https://dc.lft.to/lastmile_qr_scan"}, "fusion_lon": 0.0}, {"lat": 38.8954505, "is_disabled": 0, "type": "electric_scooter", "lon": -77.0044005, "bike_id": "1a2e2a285dab05a88ef7ae919710fbf2", "fusion_lat": 0.0, "name": "1a2e2a285dab05a88ef7ae919710fbf2", "is_reserved": 0, "rental_uris": {"android": "https://dc.lft.to/lastmile_qr_scan", "ios": "https://dc.lft.to/lastmile_qr_scan"}, "fusion_lon": 0.0}, {"lat": 38.9015265, "is_disabled": 0, "type": "electric_scooter", "lon": -77.029002, "bike_id": "5864715d9ff4e4adcedec482e835da75", "fusion_lat": 0.0, "name": "5864715d9ff4e4adcedec482e835da75", "is_reserved": 0, "rental_uris": {"android": "https://dc.lft.to/lastmile_qr_scan", "ios": "https://dc.lft.to/lastmile_qr_scan"}, "fusion_lon": 0.0}, {"lat": 38.926645666666666, "is_disabled": 0, "type": "electric_scooter", "lon": -76.99745833333333, "bike_id": "d52ec1bdae1ee06ac81ec9093ae20b53", "fusion_lat": 0.0, "name": "d52ec1bdae1ee06ac81ec9093ae20b53", "is_reserved": 0, "rental_uris": {"android": "https://dc.lft.to/lastmile_qr_scan", "ios": "https://dc.lft.to/lastmile_qr_scan"}, "fusion_lon": 0.0}, {"lat": 38.85677483333333, "is_disabled": 0, "type": "electric_scooter", "lon": -76.9817385, "bike_id": "bbb0c283460bc299984625455277ae93", "fusion_lat": 0.0, "name": "bbb0c283460bc299984625455277ae93", "is_reserved": 0, "rental_uris": {"android": "https://dc.lft.to/lastmile_qr_scan", "ios": "https://dc.lft.to/lastmile_qr_scan"}, "fusion_lon": 0.0}, {"lat": 38.872312666666666, "is_disabled": 0, "type": "electric_bike", "lon": -77.01177216666666, "bike_id": "6d2beac12924b27334f788e938b0618a", "fusion_lat": 0.0, "name": "6d2beac12924b27334f788e938b0618a", "is_reserved": 0, "rental_uris": {"android": "https://dc.lft.to/lastmile_qr_scan", "ios": "https://dc.lft.to/lastmile_qr_scan"}, "fusion_lon": 0.0}, {"lat": 38.89683616666667, "is_disabled": 0, "type": "electric_scooter", "lon": -76.935352, "bike_id": "1ca9ba86451bddaf45d658444a3c833c", "fusion_lat": 0.0, "name": "1ca9ba86451bddaf45d658444a3c833c", "is_reserved": 0, "rental_uris": {"android": "https://dc.lft.to/lastmile_qr_scan", "ios": "https://dc.lft.to/lastmile_qr_scan"}, "fusion_lon": 0.0}, {"lat": 38.9149345, "is_disabled": 0, "type": "electric_scooter", "lon": -77.03262566666666, "bike_id": "0da60ed3ee70ac461eea35e76c7e5192", "fusion_lat": 0.0, "name": "0da60ed3ee70ac461eea35e76c7e5192", "is_reserved": 0, "rental_uris": {"android": "https://dc.lft.to/lastmile_qr_scan", "ios": "https://dc.lft.to/lastmile_qr_scan"}, "fusion_lon": 0.0}, {"lat": 38.900575833333335, "is_disabled": 0, "type": "electric_scooter", "lon": -77.00212266666666, "bike_id": "9473aa4eb4edca9f75b59781f95ce646", "fusion_lat": 0.0, "name": "9473aa4eb4edca9f75b59781f95ce646", "is_reserved": 0, "rental_uris": {"android": "https://dc.lft.to/lastmile_qr_scan", "ios": "https://dc.lft.to/lastmile_qr_scan"}, "fusion_lon": 0.0}, {"lat": 38.89224183333333, "is_disabled": 0, "type": "electric_scooter", "lon": -77.0487665, "bike_id": "05d2810d3edc3ac6436b17d6ca93d2b0", "fusion_lat": 0.0, "name": "05d2810d3edc3ac6436b17d6ca93d2b0", "is_reserved": 0, "rental_uris": {"android": "https://dc.lft.to/lastmile_qr_scan", "ios": "https://dc.lft.to/lastmile_qr_scan"}, "fusion_lon": 0.0}, {"lat": 38.961255, "is_disabled": 0, "type": "electric_scooter", "lon": -77.02812216666666, "bike_id": "069aec81d8bb929311fd075205acfb4c", "fusion_lat": 0.0, "name": "069aec81d8bb929311fd075205acfb4c", "is_reserved": 0, "rental_uris": {"android": "https://dc.lft.to/lastmile_qr_scan", "ios": "https://dc.lft.to/lastmile_qr_scan"}, "fusion_lon": 0.0}, {"lat": 38.92060566666667, "is_disabled": 0, "type": "electric_scooter", "lon": -77.0434555, "bike_id": "bd8b9cf05cfa89402e439e711ead1190", "fusion_lat": 0.0, "name": "bd8b9cf05cfa89402e439e711ead1190", "is_reserved": 0, "rental_uris": {"android": "https://dc.lft.to/lastmile_qr_scan", "ios": "https://dc.lft.to/lastmile_qr_scan"}, "fusion_lon": 0.0}, {"lat": 38.913308666666666, "is_disabled": 0, "type": "electric_scooter", "lon": -77.0326385, "bike_id": "a00a7185c21b39236d808ce50ba3243c", "fusion_lat": 0.0, "name": "a00a7185c21b39236d808ce50ba3243c", "is_reserved": 0, "rental_uris": {"android": "https://dc.lft.to/lastmile_qr_scan", "ios": "https://dc.lft.to/lastmile_qr_scan"}, "fusion_lon": 0.0}, {"lat": 38.90894266666667, "is_disabled": 0, "type": "electric_scooter", "lon": -77.04424066666667, "bike_id": "7ba15431b3501acf217fd479555696d8", "fusion_lat": 0.0, "name": "7ba15431b3501acf217fd479555696d8", "is_reserved": 0, "rental_uris": {"android": "https://dc.lft.to/lastmile_qr_scan", "ios": "https://dc.lft.to/lastmile_qr_scan"}, "fusion_lon": 0.0}, {"lat": 38.91669916666667, "is_disabled": 0, "type": "electric_scooter", "lon": -77.03345816666666, "bike_id": "803c6835a80633433bd78dc78700de4d", "fusion_lat": 0.0, "name": "803c6835a80633433bd78dc78700de4d", "is_reserved": 0, "rental_uris": {"android": "https://dc.lft.to/lastmile_qr_scan", "ios": "https://dc.lft.to/lastmile_qr_scan"}, "fusion_lon": 0.0}, {"lat": 38.892313, "is_disabled": 0, "type": "electric_scooter", "lon": -77.05002733333333, "bike_id": "c763cc9ec97a797e0aa5b13a786a2ba4", "fusion_lat": 0.0, "name": "c763cc9ec97a797e0aa5b13a786a2ba4", "is_reserved": 0, "rental_uris": {"android": "https://dc.lft.to/lastmile_qr_scan", "ios": "https://dc.lft.to/lastmile_qr_scan"}, "fusion_lon": 0.0}, {"lat": 38.93102566666666, "is_disabled": 0, "type": "electric_scooter", "lon": -77.03257683333334, "bike_id": "e1ec9b77f9ed30ca9b3283c6e4c86317", "fusion_lat": 0.0, "name": "e1ec9b77f9ed30ca9b3283c6e4c86317", "is_reserved": 0, "rental_uris": {"android": "https://dc.lft.to/lastmile_qr_scan", "ios": "https://dc.lft.to/lastmile_qr_scan"}, "fusion_lon": 0.0}, {"lat": 38.919174, "is_disabled": 0, "type": "electric_scooter", "lon": -77.04807816666667, "bike_id": "e7cda2f0acae29a6f2b4564965f746d0", "fusion_lat": 0.0, "name": "e7cda2f0acae29a6f2b4564965f746d0", "is_reserved": 0, "rental_uris": {"android": "https://dc.lft.to/lastmile_qr_scan", "ios": "https://dc.lft.to/lastmile_qr_scan"}, "fusion_lon": 0.0}, {"lat": 38.91781916666667, "is_disabled": 0, "type": "electric_scooter", "lon": -77.04302216666666, "bike_id": "333804fb6e4c8db847b8ba3ee13b245c", "fusion_lat": 0.0, "name": "333804fb6e4c8db847b8ba3ee13b245c", "is_reserved": 0, "rental_uris": {"android": "https://dc.lft.to/lastmile_qr_scan", "ios": "https://dc.lft.to/lastmile_qr_scan"}, "fusion_lon": 0.0}, {"lat": 38.86619966666667, "is_disabled": 0, "type": "electric_bike", "lon": -76.94568566666666, "bike_id": "de0dca311d2e662571e2a921fab74949", "fusion_lat": 0.0, "name": "de0dca311d2e662571e2a921fab74949", "is_reserved": 0, "rental_uris": {"android": "https://dc.lft.to/lastmile_qr_scan", "ios": "https://dc.lft.to/lastmile_qr_scan"}, "fusion_lon": 0.0}, {"lat": 38.8988265, "is_disabled": 0, "type": "electric_scooter", "lon": -77.03216133333333, "bike_id": "b2f520a3579109dee6d377262a36e9ce", "fusion_lat": 0.0, "name": "b2f520a3579109dee6d377262a36e9ce", "is_reserved": 0, "rental_uris": {"android": "https://dc.lft.to/lastmile_qr_scan", "ios": "https://dc.lft.to/lastmile_qr_scan"}, "fusion_lon": 0.0}, {"lat": 38.95957166666667, "is_disabled": 0, "type": "electric_bike", "lon": -77.10094733333334, "bike_id": "09ea62ed481fcbfda54c433a0a69ce12", "fusion_lat": 0.0, "name": "09ea62ed481fcbfda54c433a0a69ce12", "is_reserved": 0, "rental_uris": {"android": "https://dc.lft.to/lastmile_qr_scan", "ios": "https://dc.lft.to/lastmile_qr_scan"}, "fusion_lon": 0.0}, {"lat": 38.91824166666667, "is_disabled": 0, "type": "electric_scooter", "lon": -77.01213866666667, "bike_id": "51c6fd60b56ac793e03fa360a1b7c448", "fusion_lat": 0.0, "name": "51c6fd60b56ac793e03fa360a1b7c448", "is_reserved": 0, "rental_uris": {"android": "https://dc.lft.to/lastmile_qr_scan", "ios": "https://dc.lft.to/lastmile_qr_scan"}, "fusion_lon": 0.0}, {"lat": 38.884356, "is_disabled": 0, "type": "electric_scooter", "lon": -77.01756183333333, "bike_id": "efb781bd3c7e79ea062fad1d30d2f595", "fusion_lat": 0.0, "name": "efb781bd3c7e79ea062fad1d30d2f595", "is_reserved": 0, "rental_uris": {"android": "https://dc.lft.to/lastmile_qr_scan", "ios": "https://dc.lft.to/lastmile_qr_scan"}, "fusion_lon": 0.0}, {"lat": 38.8706565, "is_disabled": 0, "type": "electric_scooter", "lon": -77.0084135, "bike_id": "6b795efcc97080a05ca102caa1073d26", "fusion_lat": 0.0, "name": "6b795efcc97080a05ca102caa1073d26", "is_reserved": 0, "rental_uris": {"android": "https://dc.lft.to/lastmile_qr_scan", "ios": "https://dc.lft.to/lastmile_qr_scan"}, "fusion_lon": 0.0}, {"lat": 38.9204635, "is_disabled": 0, "type": "electric_scooter", "lon": -77.02444233333334, "bike_id": "c31e0da7e0cb818ffd3c2e01261735d0", "fusion_lat": 0.0, "name": "c31e0da7e0cb818ffd3c2e01261735d0", "is_reserved": 0, "rental_uris": {"android": "https://dc.lft.to/lastmile_qr_scan", "ios": "https://dc.lft.to/lastmile_qr_scan"}, "fusion_lon": 0.0}, {"lat": 38.90264366666667, "is_disabled": 0, "type": "electric_scooter", "lon": -77.003402, "bike_id": "9f23da72e1beb8e2d905251fb4c5bb0d", "fusion_lat": 0.0, "name": "9f23da72e1beb8e2d905251fb4c5bb0d", "is_reserved": 0, "rental_uris": {"android": "https://dc.lft.to/lastmile_qr_scan", "ios": "https://dc.lft.to/lastmile_qr_scan"}, "fusion_lon": 0.0}, {"lat": 38.8998905, "is_disabled": 0, "type": "electric_scooter", "lon": -77.02173316666666, "bike_id": "d88ff1045eb7877c4f85eb61f119a0cb", "fusion_lat": 0.0, "name": "d88ff1045eb7877c4f85eb61f119a0cb", "is_reserved": 0, "rental_uris": {"android": "https://dc.lft.to/lastmile_qr_scan", "ios": "https://dc.lft.to/lastmile_qr_scan"}, "fusion_lon": 0.0}, {"lat": 38.89501716666667, "is_disabled": 0, "type": "electric_scooter", "lon": -77.00323416666667, "bike_id": "2c7b3c8cda84f505a7fb8a77f2c25660", "fusion_lat": 0.0, "name": "2c7b3c8cda84f505a7fb8a77f2c25660", "is_reserved": 0, "rental_uris": {"android": "https://dc.lft.to/lastmile_qr_scan", "ios": "https://dc.lft.to/lastmile_qr_scan"}, "fusion_lon": 0.0}, {"lat": 38.920387, "is_disabled": 0, "type": "electric_scooter", "lon": -77.04180783333334, "bike_id": "73e69b0d2adb6ad5c3e175340024ada2", "fusion_lat": 0.0, "name": "73e69b0d2adb6ad5c3e175340024ada2", "is_reserved": 0, "rental_uris": {"android": "https://dc.lft.to/lastmile_qr_scan", "ios": "https://dc.lft.to/lastmile_qr_scan"}, "fusion_lon": 0.0}, {"lat": 38.87916466666667, "is_disabled": 0, "type": "electric_scooter", "lon": -77.00883733333333, "bike_id": "3c5b718dde54d8e561a497771d42ac2b", "fusion_lat": 0.0, "name": "3c5b718dde54d8e561a497771d42ac2b", "is_reserved": 0, "rental_uris": {"android": "https://dc.lft.to/lastmile_qr_scan", "ios": "https://dc.lft.to/lastmile_qr_scan"}, "fusion_lon": 0.0}, {"lat": 38.937947, "is_disabled": 0, "type": "electric_scooter", "lon": -77.02438633333334, "bike_id": "65235ce96eb5a1e6189c6af81f060187", "fusion_lat": 0.0, "name": "65235ce96eb5a1e6189c6af81f060187", "is_reserved": 0, "rental_uris": {"android": "https://dc.lft.to/lastmile_qr_scan", "ios": "https://dc.lft.to/lastmile_qr_scan"}, "fusion_lon": 0.0}, {"lat": 38.908545333333336, "is_disabled": 0, "type": "electric_scooter", "lon": -77.0062565, "bike_id": "842d792fcd3ba62b6a174aba30cb4a01", "fusion_lat": 0.0, "name": "842d792fcd3ba62b6a174aba30cb4a01", "is_reserved": 0, "rental_uris": {"android": "https://dc.lft.to/lastmile_qr_scan", "ios": "https://dc.lft.to/lastmile_qr_scan"}, "fusion_lon": 0.0}, {"lat": 38.91797616666667, "is_disabled": 0, "type": "electric_bike", "lon": -77.22343466666666, "bike_id": "d5584c8c9b2fcdeb5d5c0b0a9b4fc6ea", "fusion_lat": 0.0, "name": "d5584c8c9b2fcdeb5d5c0b0a9b4fc6ea", "is_reserved": 0, "rental_uris": {"android": "https://dc.lft.to/lastmile_qr_scan", "ios": "https://dc.lft.to/lastmile_qr_scan"}, "fusion_lon": 0.0}, {"lat": 38.89679116666667, "is_disabled": 0, "type": "electric_scooter", "lon": -77.05126716666666, "bike_id": "26ceb7e618ad1601b2f45b1d3112bfd5", "fusion_lat": 0.0, "name": "26ceb7e618ad1601b2f45b1d3112bfd5", "is_reserved": 0, "rental_uris": {"android": "https://dc.lft.to/lastmile_qr_scan", "ios": "https://dc.lft.to/lastmile_qr_scan"}, "fusion_lon": 0.0}, {"lat": 38.92642016666667, "is_disabled": 0, "type": "electric_scooter", "lon": -77.04300933333333, "bike_id": "923feaacf479b71116b42414c03d2551", "fusion_lat": 0.0, "name": "923feaacf479b71116b42414c03d2551", "is_reserved": 0, "rental_uris": {"android": "https://dc.lft.to/lastmile_qr_scan", "ios": "https://dc.lft.to/lastmile_qr_scan"}, "fusion_lon": 0.0}, {"lat": 38.92899583333333, "is_disabled": 0, "type": "electric_bike", "lon": -77.05779, "bike_id": "0b51551c7b2866a91cdbe4435d6f04be", "fusion_lat": 0.0, "name": "0b51551c7b2866a91cdbe4435d6f04be", "is_reserved": 0, "rental_uris": {"android": "https://dc.lft.to/lastmile_qr_scan", "ios": "https://dc.lft.to/lastmile_qr_scan"}, "fusion_lon": 0.0}, {"lat": 38.93034883333333, "is_disabled": 0, "type": "electric_scooter", "lon": -77.02957283333333, "bike_id": "0f5078ec55dd842262d83bf324e9d82d", "fusion_lat": 0.0, "name": "0f5078ec55dd842262d83bf324e9d82d", "is_reserved": 0, "rental_uris": {"android": "https://dc.lft.to/lastmile_qr_scan", "ios": "https://dc.lft.to/lastmile_qr_scan"}, "fusion_lon": 0.0}, {"lat": 38.91709516666667, "is_disabled": 0, "type": "electric_scooter", "lon": -77.04603716666666, "bike_id": "2768e741b674ac0b00d895d286fbbd33", "fusion_lat": 0.0, "name": "2768e741b674ac0b00d895d286fbbd33", "is_reserved": 0, "rental_uris": {"android": "https://dc.lft.to/lastmile_qr_scan", "ios": "https://dc.lft.to/lastmile_qr_scan"}, "fusion_lon": 0.0}, {"lat": 38.85572533333333, "is_disabled": 0, "type": "electric_bike", "lon": -77.111431, "bike_id": "5fd2355bc96ee59e377523747cfe5d6b", "fusion_lat": 0.0, "name": "5fd2355bc96ee59e377523747cfe5d6b", "is_reserved": 0, "rental_uris": {"android": "https://dc.lft.to/lastmile_qr_scan", "ios": "https://dc.lft.to/lastmile_qr_scan"}, "fusion_lon": 0.0}, {"lat": 38.919582166666665, "is_disabled": 0, "type": "electric_scooter", "lon": -76.980763, "bike_id": "dbd104a8e12fe12944e5dddc6dcea5e9", "fusion_lat": 0.0, "name": "dbd104a8e12fe12944e5dddc6dcea5e9", "is_reserved": 0, "rental_uris": {"android": "https://dc.lft.to/lastmile_qr_scan", "ios": "https://dc.lft.to/lastmile_qr_scan"}, "fusion_lon": 0.0}, {"lat": 38.9024695, "is_disabled": 0, "type": "electric_scooter", "lon": -77.028233, "bike_id": "899582f4ebeef0b611029c97eceaec84", "fusion_lat": 0.0, "name": "899582f4ebeef0b611029c97eceaec84", "is_reserved": 0, "rental_uris": {"android": "https://dc.lft.to/lastmile_qr_scan", "ios": "https://dc.lft.to/lastmile_qr_scan"}, "fusion_lon": 0.0}, {"lat": 38.93322466666667, "is_disabled": 0, "type": "electric_scooter", "lon": -77.04359216666667, "bike_id": "f1eeefe940ed1a3d248536f5d68fcdb9", "fusion_lat": 0.0, "name": "f1eeefe940ed1a3d248536f5d68fcdb9", "is_reserved": 0, "rental_uris": {"android": "https://dc.lft.to/lastmile_qr_scan", "ios": "https://dc.lft.to/lastmile_qr_scan"}, "fusion_lon": 0.0}, {"lat": 38.89846583333333, "is_disabled": 0, "type": "electric_scooter", "lon": -77.03046333333333, "bike_id": "9b754467f946c31d041335b9cb0f8160", "fusion_lat": 0.0, "name": "9b754467f946c31d041335b9cb0f8160", "is_reserved": 0, "rental_uris": {"android": "https://dc.lft.to/lastmile_qr_scan", "ios": "https://dc.lft.to/lastmile_qr_scan"}, "fusion_lon": 0.0}, {"lat": 38.92191433333333, "is_disabled": 0, "type": "electric_scooter", "lon": -77.0398105, "bike_id": "1557602e855b6fbed262f426ea2b2df3", "fusion_lat": 0.0, "name": "1557602e855b6fbed262f426ea2b2df3", "is_reserved": 0, "rental_uris": {"android": "https://dc.lft.to/lastmile_qr_scan", "ios": "https://dc.lft.to/lastmile_qr_scan"}, "fusion_lon": 0.0}, {"lat": 38.9248235, "is_disabled": 0, "type": "electric_scooter", "lon": -77.02833816666667, "bike_id": "7f1d2691404972b913f2b593afe40026", "fusion_lat": 0.0, "name": "7f1d2691404972b913f2b593afe40026", "is_reserved": 0, "rental_uris": {"android": "https://dc.lft.to/lastmile_qr_scan", "ios": "https://dc.lft.to/lastmile_qr_scan"}, "fusion_lon": 0.0}, {"lat": 38.906908333333334, "is_disabled": 0, "type": "electric_scooter", "lon": -77.06262716666667, "bike_id": "dc76ffd823099bde6fde816606bec84a", "fusion_lat": 0.0, "name": "dc76ffd823099bde6fde816606bec84a", "is_reserved": 0, "rental_uris": {"android": "https://dc.lft.to/lastmile_qr_scan", "ios": "https://dc.lft.to/lastmile_qr_scan"}, "fusion_lon": 0.0}, {"lat": 38.98663033333333, "is_disabled": 0, "type": "electric_bike", "lon": -77.05641783333333, "bike_id": "f7f1e159e85e2ca025947236e60e81a5", "fusion_lat": 0.0, "name": "f7f1e159e85e2ca025947236e60e81a5", "is_reserved": 0, "rental_uris": {"android": "https://dc.lft.to/lastmile_qr_scan", "ios": "https://dc.lft.to/lastmile_qr_scan"}, "fusion_lon": 0.0}, {"lat": 38.91554283333333, "is_disabled": 0, "type": "electric_scooter", "lon": -77.0123405, "bike_id": "e1d4d09b1e165c93a34a7ef6f95f57be", "fusion_lat": 0.0, "name": "e1d4d09b1e165c93a34a7ef6f95f57be", "is_reserved": 0, "rental_uris": {"android": "https://dc.lft.to/lastmile_qr_scan", "ios": "https://dc.lft.to/lastmile_qr_scan"}, "fusion_lon": 0.0}, {"lat": 38.844278, "is_disabled": 0, "type": "electric_scooter", "lon": -76.99778833333333, "bike_id": "f5718bfb2d90c2945db932284f883046", "fusion_lat": 0.0, "name": "f5718bfb2d90c2945db932284f883046", "is_reserved": 0, "rental_uris": {"android": "https://dc.lft.to/lastmile_qr_scan", "ios": "https://dc.lft.to/lastmile_qr_scan"}, "fusion_lon": 0.0}, {"lat": 38.924098, "is_disabled": 0, "type": "electric_scooter", "lon": -77.03555733333333, "bike_id": "16ce0c45dbfc4c2be780255880fdaa00", "fusion_lat": 0.0, "name": "16ce0c45dbfc4c2be780255880fdaa00", "is_reserved": 0, "rental_uris": {"android": "https://dc.lft.to/lastmile_qr_scan", "ios": "https://dc.lft.to/lastmile_qr_scan"}, "fusion_lon": 0.0}, {"lat": 38.907743333333336, "is_disabled": 0, "type": "electric_scooter", "lon": -77.03861233333333, "bike_id": "38d43dae20a8c5596507124494b4165a", "fusion_lat": 0.0, "name": "38d43dae20a8c5596507124494b4165a", "is_reserved": 0, "rental_uris": {"android": "https://dc.lft.to/lastmile_qr_scan", "ios": "https://dc.lft.to/lastmile_qr_scan"}, "fusion_lon": 0.0}, {"lat": 38.923007, "is_disabled": 0, "type": "electric_bike", "lon": -76.99372133333334, "bike_id": "d2a14f3a1217540ab1d0de2c702efe98", "fusion_lat": 0.0, "name": "d2a14f3a1217540ab1d0de2c702efe98", "is_reserved": 0, "rental_uris": {"android": "https://dc.lft.to/lastmile_qr_scan", "ios": "https://dc.lft.to/lastmile_qr_scan"}, "fusion_lon": 0.0}, {"lat": 38.95031616666667, "is_disabled": 0, "type": "electric_bike", "lon": -77.02955516666667, "bike_id": "4c0fdbef0724fb33ae714084d2fcc5c5", "fusion_lat": 0.0, "name": "4c0fdbef0724fb33ae714084d2fcc5c5", "is_reserved": 0, "rental_uris": {"android": "https://dc.lft.to/lastmile_qr_scan", "ios": "https://dc.lft.to/lastmile_qr_scan"}, "fusion_lon": 0.0}, {"lat": 38.91474316666667, "is_disabled": 0, "type": "electric_scooter", "lon": -77.00346516666667, "bike_id": "f2af6dd52842298310836254f9c7cef4", "fusion_lat": 0.0, "name": "f2af6dd52842298310836254f9c7cef4", "is_reserved": 0, "rental_uris": {"android": "https://dc.lft.to/lastmile_qr_scan", "ios": "https://dc.lft.to/lastmile_qr_scan"}, "fusion_lon": 0.0}, {"lat": 38.903, "is_disabled": 0, "type": "electric_scooter", "lon": -77.00046116666667, "bike_id": "b028ec75910925c2c93c5f0ee2f9e056", "fusion_lat": 0.0, "name": "b028ec75910925c2c93c5f0ee2f9e056", "is_reserved": 0, "rental_uris": {"android": "https://dc.lft.to/lastmile_qr_scan", "ios": "https://dc.lft.to/lastmile_qr_scan"}, "fusion_lon": 0.0}, {"lat": 38.91011183333333, "is_disabled": 0, "type": "electric_scooter", "lon": -77.0270145, "bike_id": "a2e2ebd014d83a6cd1c601dc0cef7b27", "fusion_lat": 0.0, "name": "a2e2ebd014d83a6cd1c601dc0cef7b27", "is_reserved": 0, "rental_uris": {"android": "https://dc.lft.to/lastmile_qr_scan", "ios": "https://dc.lft.to/lastmile_qr_scan"}, "fusion_lon": 0.0}, {"lat": 38.9129605, "is_disabled": 0, "type": "electric_scooter", "lon": -77.04022666666667, "bike_id": "4a3c66bb941fb600c16d70fed7f7a55a", "fusion_lat": 0.0, "name": "4a3c66bb941fb600c16d70fed7f7a55a", "is_reserved": 0, "rental_uris": {"android": "https://dc.lft.to/lastmile_qr_scan", "ios": "https://dc.lft.to/lastmile_qr_scan"}, "fusion_lon": 0.0}, {"lat": 38.91710033333333, "is_disabled": 0, "type": "electric_scooter", "lon": -77.03474016666667, "bike_id": "a27e140ad6e8b7606816fdb395f1970e", "fusion_lat": 0.0, "name": "a27e140ad6e8b7606816fdb395f1970e", "is_reserved": 0, "rental_uris": {"android": "https://dc.lft.to/lastmile_qr_scan", "ios": "https://dc.lft.to/lastmile_qr_scan"}, "fusion_lon": 0.0}, {"lat": 38.926755166666666, "is_disabled": 0, "type": "electric_scooter", "lon": -77.02862383333333, "bike_id": "fa873cdb21d6a436397fb8693cc0fff6", "fusion_lat": 0.0, "name": "fa873cdb21d6a436397fb8693cc0fff6", "is_reserved": 0, "rental_uris": {"android": "https://dc.lft.to/lastmile_qr_scan", "ios": "https://dc.lft.to/lastmile_qr_scan"}, "fusion_lon": 0.0}, {"lat": 38.970889, "is_disabled": 0, "type": "electric_bike", "lon": -77.06967033333333, "bike_id": "8a771c0de70ba7cfe5f3367a4993c0bb", "fusion_lat": 0.0, "name": "8a771c0de70ba7cfe5f3367a4993c0bb", "is_reserved": 0, "rental_uris": {"android": "https://dc.lft.to/lastmile_qr_scan", "ios": "https://dc.lft.to/lastmile_qr_scan"}, "fusion_lon": 0.0}, {"lat": 38.852026333333335, "is_disabled": 0, "type": "electric_bike", "lon": -77.10136966666667, "bike_id": "28f874d67d00dd14798f54e06468dbe5", "fusion_lat": 0.0, "name": "28f874d67d00dd14798f54e06468dbe5", "is_reserved": 0, "rental_uris": {"android": "https://dc.lft.to/lastmile_qr_scan", "ios": "https://dc.lft.to/lastmile_qr_scan"}, "fusion_lon": 0.0}, {"lat": 38.920216, "is_disabled": 0, "type": "electric_scooter", "lon": -77.023859, "bike_id": "d56ebdf82d930af83165f5c56d80f8f4", "fusion_lat": 0.0, "name": "d56ebdf82d930af83165f5c56d80f8f4", "is_reserved": 0, "rental_uris": {"android": "https://dc.lft.to/lastmile_qr_scan", "ios": "https://dc.lft.to/lastmile_qr_scan"}, "fusion_lon": 0.0}, {"lat": 38.9233035, "is_disabled": 0, "type": "electric_scooter", "lon": -77.035841, "bike_id": "de03d220109f8234848bad14cf2df09d", "fusion_lat": 0.0, "name": "de03d220109f8234848bad14cf2df09d", "is_reserved": 0, "rental_uris": {"android": "https://dc.lft.to/lastmile_qr_scan", "ios": "https://dc.lft.to/lastmile_qr_scan"}, "fusion_lon": 0.0}, {"lat": 38.929639333333334, "is_disabled": 0, "type": "electric_scooter", "lon": -77.03159083333334, "bike_id": "a1b57078a11050e74efa5ad836cfa085", "fusion_lat": 0.0, "name": "a1b57078a11050e74efa5ad836cfa085", "is_reserved": 0, "rental_uris": {"android": "https://dc.lft.to/lastmile_qr_scan", "ios": "https://dc.lft.to/lastmile_qr_scan"}, "fusion_lon": 0.0}, {"lat": 38.88399183333333, "is_disabled": 0, "type": "electric_bike", "lon": -76.96062583333334, "bike_id": "fb6f77f27e88df1a4baa95556b73dea9", "fusion_lat": 0.0, "name": "fb6f77f27e88df1a4baa95556b73dea9", "is_reserved": 0, "rental_uris": {"android": "https://dc.lft.to/lastmile_qr_scan", "ios": "https://dc.lft.to/lastmile_qr_scan"}, "fusion_lon": 0.0}, {"lat": 38.912583833333336, "is_disabled": 0, "type": "electric_scooter", "lon": -77.0385735, "bike_id": "70ef38dd5aa96e2163c74547898aecf9", "fusion_lat": 0.0, "name": "70ef38dd5aa96e2163c74547898aecf9", "is_reserved": 0, "rental_uris": {"android": "https://dc.lft.to/lastmile_qr_scan", "ios": "https://dc.lft.to/lastmile_qr_scan"}, "fusion_lon": 0.0}, {"lat": 38.90411266666667, "is_disabled": 0, "type": "electric_scooter", "lon": -77.0251245, "bike_id": "caca3065f079c609d2951383551a113d", "fusion_lat": 0.0, "name": "caca3065f079c609d2951383551a113d", "is_reserved": 0, "rental_uris": {"android": "https://dc.lft.to/lastmile_qr_scan", "ios": "https://dc.lft.to/lastmile_qr_scan"}, "fusion_lon": 0.0}, {"lat": 38.900422666666664, "is_disabled": 0, "type": "electric_scooter", "lon": -76.99506833333334, "bike_id": "5586124c0a0c2729f2538422640f70e8", "fusion_lat": 0.0, "name": "5586124c0a0c2729f2538422640f70e8", "is_reserved": 0, "rental_uris": {"android": "https://dc.lft.to/lastmile_qr_scan", "ios": "https://dc.lft.to/lastmile_qr_scan"}, "fusion_lon": 0.0}, {"lat": 38.9098565, "is_disabled": 0, "type": "electric_scooter", "lon": -76.98470116666667, "bike_id": "dda10a7374d12a0a252fcabf234e112a", "fusion_lat": 0.0, "name": "dda10a7374d12a0a252fcabf234e112a", "is_reserved": 0, "rental_uris": {"android": "https://dc.lft.to/lastmile_qr_scan", "ios": "https://dc.lft.to/lastmile_qr_scan"}, "fusion_lon": 0.0}, {"lat": 38.929162166666664, "is_disabled": 0, "type": "electric_scooter", "lon": -77.03632816666666, "bike_id": "36d07556aac145f4c59ffeb281736fd1", "fusion_lat": 0.0, "name": "36d07556aac145f4c59ffeb281736fd1", "is_reserved": 0, "rental_uris": {"android": "https://dc.lft.to/lastmile_qr_scan", "ios": "https://dc.lft.to/lastmile_qr_scan"}, "fusion_lon": 0.0}, {"lat": 38.839845833333335, "is_disabled": 0, "type": "electric_bike", "lon": -77.00573283333334, "bike_id": "545088f7ff5bff41a324acb4e08a598d", "fusion_lat": 0.0, "name": "545088f7ff5bff41a324acb4e08a598d", "is_reserved": 0, "rental_uris": {"android": "https://dc.lft.to/lastmile_qr_scan", "ios": "https://dc.lft.to/lastmile_qr_scan"}, "fusion_lon": 0.0}, {"lat": 38.924048166666665, "is_disabled": 0, "type": "electric_scooter", "lon": -77.0255655, "bike_id": "9f9a4a76e04d1bc2ec793690b76af57a", "fusion_lat": 0.0, "name": "9f9a4a76e04d1bc2ec793690b76af57a", "is_reserved": 0, "rental_uris": {"android": "https://dc.lft.to/lastmile_qr_scan", "ios": "https://dc.lft.to/lastmile_qr_scan"}, "fusion_lon": 0.0}, {"lat": 38.90826116666667, "is_disabled": 0, "type": "electric_scooter", "lon": -76.941493, "bike_id": "ecc607ed82cd0265081f4f0086140801", "fusion_lat": 0.0, "name": "ecc607ed82cd0265081f4f0086140801", "is_reserved": 0, "rental_uris": {"android": "https://dc.lft.to/lastmile_qr_scan", "ios": "https://dc.lft.to/lastmile_qr_scan"}, "fusion_lon": 0.0}, {"lat": 38.936296166666665, "is_disabled": 0, "type": "electric_scooter", "lon": -77.03662166666666, "bike_id": "d52435ba67f5b1d2e9631b565b24f3bc", "fusion_lat": 0.0, "name": "d52435ba67f5b1d2e9631b565b24f3bc", "is_reserved": 0, "rental_uris": {"android": "https://dc.lft.to/lastmile_qr_scan", "ios": "https://dc.lft.to/lastmile_qr_scan"}, "fusion_lon": 0.0}, {"lat": 38.924011166666666, "is_disabled": 0, "type": "electric_scooter", "lon": -77.05254416666666, "bike_id": "686565064b02f5f597990b5a078ea7db", "fusion_lat": 0.0, "name": "686565064b02f5f597990b5a078ea7db", "is_reserved": 0, "rental_uris": {"android": "https://dc.lft.to/lastmile_qr_scan", "ios": "https://dc.lft.to/lastmile_qr_scan"}, "fusion_lon": 0.0}, {"lat": 38.881238333333336, "is_disabled": 0, "type": "electric_scooter", "lon": -77.01638733333333, "bike_id": "bc07b6f7854d59dcc10db0832a593487", "fusion_lat": 0.0, "name": "bc07b6f7854d59dcc10db0832a593487", "is_reserved": 0, "rental_uris": {"android": "https://dc.lft.to/lastmile_qr_scan", "ios": "https://dc.lft.to/lastmile_qr_scan"}, "fusion_lon": 0.0}, {"lat": 38.9062335, "is_disabled": 0, "type": "electric_scooter", "lon": -77.03408716666667, "bike_id": "8c2b31248622cb5d91f0df9d830345f4", "fusion_lat": 0.0, "name": "8c2b31248622cb5d91f0df9d830345f4", "is_reserved": 0, "rental_uris": {"android": "https://dc.lft.to/lastmile_qr_scan", "ios": "https://dc.lft.to/lastmile_qr_scan"}, "fusion_lon": 0.0}, {"lat": 38.914183666666666, "is_disabled": 0, "type": "electric_scooter", "lon": -77.02021933333333, "bike_id": "a4a2d5335de0cdfc7c0e24248416bc25", "fusion_lat": 0.0, "name": "a4a2d5335de0cdfc7c0e24248416bc25", "is_reserved": 0, "rental_uris": {"android": "https://dc.lft.to/lastmile_qr_scan", "ios": "https://dc.lft.to/lastmile_qr_scan"}, "fusion_lon": 0.0}, {"lat": 38.94907383333333, "is_disabled": 0, "type": "electric_bike", "lon": -76.97237533333333, "bike_id": "257a94c437911c049962b1af5436b86f", "fusion_lat": 0.0, "name": "257a94c437911c049962b1af5436b86f", "is_reserved": 0, "rental_uris": {"android": "https://dc.lft.to/lastmile_qr_scan", "ios": "https://dc.lft.to/lastmile_qr_scan"}, "fusion_lon": 0.0}, {"lat": 38.90700366666667, "is_disabled": 0, "type": "electric_scooter", "lon": -77.00136383333333, "bike_id": "fe3c53a767454b52c2a3ad90d738f34a", "fusion_lat": 0.0, "name": "fe3c53a767454b52c2a3ad90d738f34a", "is_reserved": 0, "rental_uris": {"android": "https://dc.lft.to/lastmile_qr_scan", "ios": "https://dc.lft.to/lastmile_qr_scan"}, "fusion_lon": 0.0}, {"lat": 38.88339966666667, "is_disabled": 0, "type": "electric_scooter", "lon": -77.00933016666667, "bike_id": "fc3efa18c671a8b03da7ee7383ca22ea", "fusion_lat": 0.0, "name": "fc3efa18c671a8b03da7ee7383ca22ea", "is_reserved": 0, "rental_uris": {"android": "https://dc.lft.to/lastmile_qr_scan", "ios": "https://dc.lft.to/lastmile_qr_scan"}, "fusion_lon": 0.0}, {"lat": 38.89801466666667, "is_disabled": 0, "type": "electric_scooter", "lon": -77.05033383333334, "bike_id": "8e8a46732d3c39b7915b4e174722f8ea", "fusion_lat": 0.0, "name": "8e8a46732d3c39b7915b4e174722f8ea", "is_reserved": 0, "rental_uris": {"android": "https://dc.lft.to/lastmile_qr_scan", "ios": "https://dc.lft.to/lastmile_qr_scan"}, "fusion_lon": 0.0}, {"lat": 38.926868999999996, "is_disabled": 0, "type": "electric_scooter", "lon": -77.015712, "bike_id": "4917048fa53cf3a69a89a8b0029fa8a2", "fusion_lat": 0.0, "name": "4917048fa53cf3a69a89a8b0029fa8a2", "is_reserved": 0, "rental_uris": {"android": "https://dc.lft.to/lastmile_qr_scan", "ios": "https://dc.lft.to/lastmile_qr_scan"}, "fusion_lon": 0.0}, {"lat": 38.94086383333333, "is_disabled": 0, "type": "electric_scooter", "lon": -77.06132083333334, "bike_id": "d037008aeff956e411e5dbc5507a1026", "fusion_lat": 0.0, "name": "d037008aeff956e411e5dbc5507a1026", "is_reserved": 0, "rental_uris": {"android": "https://dc.lft.to/lastmile_qr_scan", "ios": "https://dc.lft.to/lastmile_qr_scan"}, "fusion_lon": 0.0}, {"lat": 38.921864166666666, "is_disabled": 0, "type": "electric_scooter", "lon": -77.04352666666666, "bike_id": "50de9195dd6b72fc130b68df67959690", "fusion_lat": 0.0, "name": "50de9195dd6b72fc130b68df67959690", "is_reserved": 0, "rental_uris": {"android": "https://dc.lft.to/lastmile_qr_scan", "ios": "https://dc.lft.to/lastmile_qr_scan"}, "fusion_lon": 0.0}, {"lat": 38.939861666666665, "is_disabled": 0, "type": "electric_scooter", "lon": -77.02888983333334, "bike_id": "08ed56d4a245aff630c281aebd743e68", "fusion_lat": 0.0, "name": "08ed56d4a245aff630c281aebd743e68", "is_reserved": 0, "rental_uris": {"android": "https://dc.lft.to/lastmile_qr_scan", "ios": "https://dc.lft.to/lastmile_qr_scan"}, "fusion_lon": 0.0}, {"lat": 38.90850366666667, "is_disabled": 0, "type": "electric_scooter", "lon": -77.00380733333333, "bike_id": "7c785033fea00bfb65d603fd27192ad7", "fusion_lat": 0.0, "name": "7c785033fea00bfb65d603fd27192ad7", "is_reserved": 0, "rental_uris": {"android": "https://dc.lft.to/lastmile_qr_scan", "ios": "https://dc.lft.to/lastmile_qr_scan"}, "fusion_lon": 0.0}, {"lat": 38.9203045, "is_disabled": 0, "type": "electric_scooter", "lon": -77.01321183333333, "bike_id": "2c193fb7718e411cee439a82dd04b85f", "fusion_lat": 0.0, "name": "2c193fb7718e411cee439a82dd04b85f", "is_reserved": 0, "rental_uris": {"android": "https://dc.lft.to/lastmile_qr_scan", "ios": "https://dc.lft.to/lastmile_qr_scan"}, "fusion_lon": 0.0}, {"lat": 38.9261885, "is_disabled": 0, "type": "electric_scooter", "lon": -77.04188183333333, "bike_id": "6aba0764932f729c8d2c785365d3c5cf", "fusion_lat": 0.0, "name": "6aba0764932f729c8d2c785365d3c5cf", "is_reserved": 0, "rental_uris": {"android": "https://dc.lft.to/lastmile_qr_scan", "ios": "https://dc.lft.to/lastmile_qr_scan"}, "fusion_lon": 0.0}, {"lat": 38.906943, "is_disabled": 0, "type": "electric_scooter", "lon": -77.02944633333334, "bike_id": "4e522a77e2647bb61a69d92963454fb1", "fusion_lat": 0.0, "name": "4e522a77e2647bb61a69d92963454fb1", "is_reserved": 0, "rental_uris": {"android": "https://dc.lft.to/lastmile_qr_scan", "ios": "https://dc.lft.to/lastmile_qr_scan"}, "fusion_lon": 0.0}, {"lat": 38.911976833333334, "is_disabled": 0, "type": "electric_scooter", "lon": -77.02346466666667, "bike_id": "ce5b111ce7831a9327351c854acd103e", "fusion_lat": 0.0, "name": "ce5b111ce7831a9327351c854acd103e", "is_reserved": 0, "rental_uris": {"android": "https://dc.lft.to/lastmile_qr_scan", "ios": "https://dc.lft.to/lastmile_qr_scan"}, "fusion_lon": 0.0}, {"lat": 38.90740483333333, "is_disabled": 0, "type": "electric_scooter", "lon": -77.00930383333333, "bike_id": "358238c2ea6ab1000403a80c49a12ba5", "fusion_lat": 0.0, "name": "358238c2ea6ab1000403a80c49a12ba5", "is_reserved": 0, "rental_uris": {"android": "https://dc.lft.to/lastmile_qr_scan", "ios": "https://dc.lft.to/lastmile_qr_scan"}, "fusion_lon": 0.0}, {"lat": 38.901680166666665, "is_disabled": 0, "type": "electric_scooter", "lon": -77.02496, "bike_id": "fe390e533dbc70befba12ae1f4f4fb3a", "fusion_lat": 0.0, "name": "fe390e533dbc70befba12ae1f4f4fb3a", "is_reserved": 0, "rental_uris": {"android": "https://dc.lft.to/lastmile_qr_scan", "ios": "https://dc.lft.to/lastmile_qr_scan"}, "fusion_lon": 0.0}, {"lat": 38.9084725, "is_disabled": 0, "type": "electric_scooter", "lon": -77.03439166666666, "bike_id": "97d7a8611fe25367fcb1b2dad6ac3216", "fusion_lat": 0.0, "name": "97d7a8611fe25367fcb1b2dad6ac3216", "is_reserved": 0, "rental_uris": {"android": "https://dc.lft.to/lastmile_qr_scan", "ios": "https://dc.lft.to/lastmile_qr_scan"}, "fusion_lon": 0.0}, {"lat": 38.9096025, "is_disabled": 0, "type": "electric_scooter", "lon": -77.02383516666667, "bike_id": "e5457a24b0a0c0dc2f5331d5b38f2e11", "fusion_lat": 0.0, "name": "e5457a24b0a0c0dc2f5331d5b38f2e11", "is_reserved": 0, "rental_uris": {"android": "https://dc.lft.to/lastmile_qr_scan", "ios": "https://dc.lft.to/lastmile_qr_scan"}, "fusion_lon": 0.0}, {"lat": 38.89494933333334, "is_disabled": 0, "type": "electric_scooter", "lon": -77.00211816666666, "bike_id": "c3f40696e5722b39d5a91b0c9b30a6a4", "fusion_lat": 0.0, "name": "c3f40696e5722b39d5a91b0c9b30a6a4", "is_reserved": 0, "rental_uris": {"android": "https://dc.lft.to/lastmile_qr_scan", "ios": "https://dc.lft.to/lastmile_qr_scan"}, "fusion_lon": 0.0}, {"lat": 39.0750195, "is_disabled": 0, "type": "electric_bike", "lon": -77.11899716666667, "bike_id": "17ff3eec17362f1cf22d1234a0c12cfb", "fusion_lat": 0.0, "name": "17ff3eec17362f1cf22d1234a0c12cfb", "is_reserved": 0, "rental_uris": {"android": "https://dc.lft.to/lastmile_qr_scan", "ios": "https://dc.lft.to/lastmile_qr_scan"}, "fusion_lon": 0.0}, {"lat": 38.92809916666667, "is_disabled": 0, "type": "electric_scooter", "lon": -77.05417266666667, "bike_id": "a6c20b4cb87d33ec17e8062c668b59e8", "fusion_lat": 0.0, "name": "a6c20b4cb87d33ec17e8062c668b59e8", "is_reserved": 0, "rental_uris": {"android": "https://dc.lft.to/lastmile_qr_scan", "ios": "https://dc.lft.to/lastmile_qr_scan"}, "fusion_lon": 0.0}, {"lat": 38.8629125, "is_disabled": 0, "type": "electric_scooter", "lon": -76.9923375, "bike_id": "c006019ed299855f691b7fa206765d99", "fusion_lat": 0.0, "name": "c006019ed299855f691b7fa206765d99", "is_reserved": 0, "rental_uris": {"android": "https://dc.lft.to/lastmile_qr_scan", "ios": "https://dc.lft.to/lastmile_qr_scan"}, "fusion_lon": 0.0}, {"lat": 38.9259525, "is_disabled": 0, "type": "electric_scooter", "lon": -77.052981, "bike_id": "3c7a2287217069324ea6b07e2cc2ae94", "fusion_lat": 0.0, "name": "3c7a2287217069324ea6b07e2cc2ae94", "is_reserved": 0, "rental_uris": {"android": "https://dc.lft.to/lastmile_qr_scan", "ios": "https://dc.lft.to/lastmile_qr_scan"}, "fusion_lon": 0.0}, {"lat": 38.9211815, "is_disabled": 0, "type": "electric_scooter", "lon": -77.045686, "bike_id": "be6f51e20879cb0ccefcb236b0b167f6", "fusion_lat": 0.0, "name": "be6f51e20879cb0ccefcb236b0b167f6", "is_reserved": 0, "rental_uris": {"android": "https://dc.lft.to/lastmile_qr_scan", "ios": "https://dc.lft.to/lastmile_qr_scan"}, "fusion_lon": 0.0}, {"lat": 38.8984195, "is_disabled": 0, "type": "electric_scooter", "lon": -76.944685, "bike_id": "09518d4d4513c84ec5d63d4a84f04d17", "fusion_lat": 0.0, "name": "09518d4d4513c84ec5d63d4a84f04d17", "is_reserved": 0, "rental_uris": {"android": "https://dc.lft.to/lastmile_qr_scan", "ios": "https://dc.lft.to/lastmile_qr_scan"}, "fusion_lon": 0.0}, {"lat": 38.914621, "is_disabled": 0, "type": "electric_scooter", "lon": -77.00212283333333, "bike_id": "80b55db75aa724548ab6030835ec4a55", "fusion_lat": 0.0, "name": "80b55db75aa724548ab6030835ec4a55", "is_reserved": 0, "rental_uris": {"android": "https://dc.lft.to/lastmile_qr_scan", "ios": "https://dc.lft.to/lastmile_qr_scan"}, "fusion_lon": 0.0}, {"lat": 38.90296633333333, "is_disabled": 0, "type": "electric_scooter", "lon": -77.06346716666667, "bike_id": "cee2e1fcc962e1736c4278183df77a6d", "fusion_lat": 0.0, "name": "cee2e1fcc962e1736c4278183df77a6d", "is_reserved": 0, "rental_uris": {"android": "https://dc.lft.to/lastmile_qr_scan", "ios": "https://dc.lft.to/lastmile_qr_scan"}, "fusion_lon": 0.0}, {"lat": 38.92962816666667, "is_disabled": 0, "type": "electric_scooter", "lon": -77.03076666666666, "bike_id": "e19732ae281b498ede1e1b23116f8e14", "fusion_lat": 0.0, "name": "e19732ae281b498ede1e1b23116f8e14", "is_reserved": 0, "rental_uris": {"android": "https://dc.lft.to/lastmile_qr_scan", "ios": "https://dc.lft.to/lastmile_qr_scan"}, "fusion_lon": 0.0}, {"lat": 38.905689833333334, "is_disabled": 0, "type": "electric_scooter", "lon": -77.02219333333333, "bike_id": "18feee4431e9cc7c9d1efc17abcec74e", "fusion_lat": 0.0, "name": "18feee4431e9cc7c9d1efc17abcec74e", "is_reserved": 0, "rental_uris": {"android": "https://dc.lft.to/lastmile_qr_scan", "ios": "https://dc.lft.to/lastmile_qr_scan"}, "fusion_lon": 0.0}, {"lat": 38.902544666666664, "is_disabled": 0, "type": "electric_scooter", "lon": -77.0320465, "bike_id": "54bd145358e6ffe9d6f149449e84eabf", "fusion_lat": 0.0, "name": "54bd145358e6ffe9d6f149449e84eabf", "is_reserved": 0, "rental_uris": {"android": "https://dc.lft.to/lastmile_qr_scan", "ios": "https://dc.lft.to/lastmile_qr_scan"}, "fusion_lon": 0.0}, {"lat": 38.890481666666666, "is_disabled": 0, "type": "electric_scooter", "lon": -76.94072333333334, "bike_id": "05054353966635f0fd10a1a6dbe9580b", "fusion_lat": 0.0, "name": "05054353966635f0fd10a1a6dbe9580b", "is_reserved": 0, "rental_uris": {"android": "https://dc.lft.to/lastmile_qr_scan", "ios": "https://dc.lft.to/lastmile_qr_scan"}, "fusion_lon": 0.0}, {"lat": 38.911722833333336, "is_disabled": 0, "type": "electric_scooter", "lon": -77.03857716666667, "bike_id": "29e846c94ae0cd256c2202e771d899ec", "fusion_lat": 0.0, "name": "29e846c94ae0cd256c2202e771d899ec", "is_reserved": 0, "rental_uris": {"android": "https://dc.lft.to/lastmile_qr_scan", "ios": "https://dc.lft.to/lastmile_qr_scan"}, "fusion_lon": 0.0}, {"lat": 38.958910833333334, "is_disabled": 0, "type": "electric_bike", "lon": -76.92488933333334, "bike_id": "e825521e0161a7e6638940ca1720af51", "fusion_lat": 0.0, "name": "e825521e0161a7e6638940ca1720af51", "is_reserved": 0, "rental_uris": {"android": "https://dc.lft.to/lastmile_qr_scan", "ios": "https://dc.lft.to/lastmile_qr_scan"}, "fusion_lon": 0.0}, {"lat": 38.858518833333335, "is_disabled": 0, "type": "electric_bike", "lon": -77.09756233333333, "bike_id": "d3ff0c3f1dd568e372fedb3c83a4f8b0", "fusion_lat": 0.0, "name": "d3ff0c3f1dd568e372fedb3c83a4f8b0", "is_reserved": 0, "rental_uris": {"android": "https://dc.lft.to/lastmile_qr_scan", "ios": "https://dc.lft.to/lastmile_qr_scan"}, "fusion_lon": 0.0}, {"lat": 38.91798816666667, "is_disabled": 0, "type": "electric_scooter", "lon": -77.04438966666666, "bike_id": "15aa4d7091fb457540d86685f4d170ac", "fusion_lat": 0.0, "name": "15aa4d7091fb457540d86685f4d170ac", "is_reserved": 0, "rental_uris": {"android": "https://dc.lft.to/lastmile_qr_scan", "ios": "https://dc.lft.to/lastmile_qr_scan"}, "fusion_lon": 0.0}, {"lat": 38.921151, "is_disabled": 0, "type": "electric_bike", "lon": -76.9858015, "bike_id": "e1042660f64a357350ea5993b48262de", "fusion_lat": 0.0, "name": "e1042660f64a357350ea5993b48262de", "is_reserved": 0, "rental_uris": {"android": "https://dc.lft.to/lastmile_qr_scan", "ios": "https://dc.lft.to/lastmile_qr_scan"}, "fusion_lon": 0.0}, {"lat": 38.931003833333335, "is_disabled": 0, "type": "electric_scooter", "lon": -77.02498, "bike_id": "e61ea0db728a9d6c41523ff1d5505e3a", "fusion_lat": 0.0, "name": "e61ea0db728a9d6c41523ff1d5505e3a", "is_reserved": 0, "rental_uris": {"android": "https://dc.lft.to/lastmile_qr_scan", "ios": "https://dc.lft.to/lastmile_qr_scan"}, "fusion_lon": 0.0}, {"lat": 38.9311885, "is_disabled": 0, "type": "electric_scooter", "lon": -77.033957, "bike_id": "6ec7f2da0aac21d642f6ae0de1d3ae7a", "fusion_lat": 0.0, "name": "6ec7f2da0aac21d642f6ae0de1d3ae7a", "is_reserved": 0, "rental_uris": {"android": "https://dc.lft.to/lastmile_qr_scan", "ios": "https://dc.lft.to/lastmile_qr_scan"}, "fusion_lon": 0.0}, {"lat": 38.907486, "is_disabled": 0, "type": "electric_scooter", "lon": -77.04178266666666, "bike_id": "fb882bbe2d0990427f471b99bfb20885", "fusion_lat": 0.0, "name": "fb882bbe2d0990427f471b99bfb20885", "is_reserved": 0, "rental_uris": {"android": "https://dc.lft.to/lastmile_qr_scan", "ios": "https://dc.lft.to/lastmile_qr_scan"}, "fusion_lon": 0.0}, {"lat": 38.9225115, "is_disabled": 0, "type": "electric_scooter", "lon": -77.03107616666667, "bike_id": "938234fe391025a7bc0b261d0d88fbac", "fusion_lat": 0.0, "name": "938234fe391025a7bc0b261d0d88fbac", "is_reserved": 0, "rental_uris": {"android": "https://dc.lft.to/lastmile_qr_scan", "ios": "https://dc.lft.to/lastmile_qr_scan"}, "fusion_lon": 0.0}, {"lat": 38.920759, "is_disabled": 0, "type": "electric_scooter", "lon": -77.01423733333333, "bike_id": "2a4eba6283e17dcc71c397f05b6e0144", "fusion_lat": 0.0, "name": "2a4eba6283e17dcc71c397f05b6e0144", "is_reserved": 0, "rental_uris": {"android": "https://dc.lft.to/lastmile_qr_scan", "ios": "https://dc.lft.to/lastmile_qr_scan"}, "fusion_lon": 0.0}, {"lat": 38.913837666666666, "is_disabled": 0, "type": "electric_scooter", "lon": -77.01899683333333, "bike_id": "feb083eeba01accb7e9601959f587818", "fusion_lat": 0.0, "name": "feb083eeba01accb7e9601959f587818", "is_reserved": 0, "rental_uris": {"android": "https://dc.lft.to/lastmile_qr_scan", "ios": "https://dc.lft.to/lastmile_qr_scan"}, "fusion_lon": 0.0}, {"lat": 38.9404135, "is_disabled": 0, "type": "electric_bike", "lon": -77.0515925, "bike_id": "cdbea187291305d6b2b09b2ecffc3741", "fusion_lat": 0.0, "name": "cdbea187291305d6b2b09b2ecffc3741", "is_reserved": 0, "rental_uris": {"android": "https://dc.lft.to/lastmile_qr_scan", "ios": "https://dc.lft.to/lastmile_qr_scan"}, "fusion_lon": 0.0}, {"lat": 38.903644, "is_disabled": 0, "type": "electric_scooter", "lon": -76.97654183333333, "bike_id": "65ba4bbe740f0ef7733430ce18198d1a", "fusion_lat": 0.0, "name": "65ba4bbe740f0ef7733430ce18198d1a", "is_reserved": 0, "rental_uris": {"android": "https://dc.lft.to/lastmile_qr_scan", "ios": "https://dc.lft.to/lastmile_qr_scan"}, "fusion_lon": 0.0}, {"lat": 38.92597716666667, "is_disabled": 0, "type": "electric_scooter", "lon": -77.02493616666666, "bike_id": "e0e64a5f9c5bd45c8d4e4a41fb23005b", "fusion_lat": 0.0, "name": "e0e64a5f9c5bd45c8d4e4a41fb23005b", "is_reserved": 0, "rental_uris": {"android": "https://dc.lft.to/lastmile_qr_scan", "ios": "https://dc.lft.to/lastmile_qr_scan"}, "fusion_lon": 0.0}, {"lat": 38.8747195, "is_disabled": 0, "type": "electric_scooter", "lon": -77.0051995, "bike_id": "5aaf89d86e6ea5d4b78428b608a5427d", "fusion_lat": 0.0, "name": "5aaf89d86e6ea5d4b78428b608a5427d", "is_reserved": 0, "rental_uris": {"android": "https://dc.lft.to/lastmile_qr_scan", "ios": "https://dc.lft.to/lastmile_qr_scan"}, "fusion_lon": 0.0}, {"lat": 38.960614666666665, "is_disabled": 0, "type": "electric_scooter", "lon": -77.07308216666667, "bike_id": "3b287384fc2a7de6df589b12fe952986", "fusion_lat": 0.0, "name": "3b287384fc2a7de6df589b12fe952986", "is_reserved": 0, "rental_uris": {"android": "https://dc.lft.to/lastmile_qr_scan", "ios": "https://dc.lft.to/lastmile_qr_scan"}, "fusion_lon": 0.0}, {"lat": 38.896359333333336, "is_disabled": 0, "type": "electric_scooter", "lon": -77.04507016666666, "bike_id": "21529560dbf7c549fa5bae85e6cb1a03", "fusion_lat": 0.0, "name": "21529560dbf7c549fa5bae85e6cb1a03", "is_reserved": 0, "rental_uris": {"android": "https://dc.lft.to/lastmile_qr_scan", "ios": "https://dc.lft.to/lastmile_qr_scan"}, "fusion_lon": 0.0}, {"lat": 38.91346716666666, "is_disabled": 0, "type": "electric_scooter", "lon": -77.0427975, "bike_id": "dd5b81658f77d20511419ab3f9c282c2", "fusion_lat": 0.0, "name": "dd5b81658f77d20511419ab3f9c282c2", "is_reserved": 0, "rental_uris": {"android": "https://dc.lft.to/lastmile_qr_scan", "ios": "https://dc.lft.to/lastmile_qr_scan"}, "fusion_lon": 0.0}, {"lat": 38.914773333333336, "is_disabled": 0, "type": "electric_scooter", "lon": -77.03233766666666, "bike_id": "45c750bd3398df98619323c2bfd9fdd4", "fusion_lat": 0.0, "name": "45c750bd3398df98619323c2bfd9fdd4", "is_reserved": 0, "rental_uris": {"android": "https://dc.lft.to/lastmile_qr_scan", "ios": "https://dc.lft.to/lastmile_qr_scan"}, "fusion_lon": 0.0}, {"lat": 38.89230666666667, "is_disabled": 0, "type": "electric_scooter", "lon": -77.05006083333333, "bike_id": "cf1b824c8f17734e207b1ee77d72c764", "fusion_lat": 0.0, "name": "cf1b824c8f17734e207b1ee77d72c764", "is_reserved": 0, "rental_uris": {"android": "https://dc.lft.to/lastmile_qr_scan", "ios": "https://dc.lft.to/lastmile_qr_scan"}, "fusion_lon": 0.0}, {"lat": 38.9187575, "is_disabled": 0, "type": "electric_scooter", "lon": -77.03504883333333, "bike_id": "364d670740d006192c6efb8401c7309b", "fusion_lat": 0.0, "name": "364d670740d006192c6efb8401c7309b", "is_reserved": 0, "rental_uris": {"android": "https://dc.lft.to/lastmile_qr_scan", "ios": "https://dc.lft.to/lastmile_qr_scan"}, "fusion_lon": 0.0}, {"lat": 38.895527666666666, "is_disabled": 0, "type": "electric_scooter", "lon": -76.933747, "bike_id": "ec20e1421652c8854dc123b2ee6c764b", "fusion_lat": 0.0, "name": "ec20e1421652c8854dc123b2ee6c764b", "is_reserved": 0, "rental_uris": {"android": "https://dc.lft.to/lastmile_qr_scan", "ios": "https://dc.lft.to/lastmile_qr_scan"}, "fusion_lon": 0.0}, {"lat": 38.9266345, "is_disabled": 0, "type": "electric_scooter", "lon": -77.05595533333333, "bike_id": "4a93df31c9089b1b20d482fe0784253e", "fusion_lat": 0.0, "name": "4a93df31c9089b1b20d482fe0784253e", "is_reserved": 0, "rental_uris": {"android": "https://dc.lft.to/lastmile_qr_scan", "ios": "https://dc.lft.to/lastmile_qr_scan"}, "fusion_lon": 0.0}, {"lat": 38.93533566666667, "is_disabled": 0, "type": "electric_scooter", "lon": -77.02350416666667, "bike_id": "6b9638d068f8d5857a497f79898dfc8b", "fusion_lat": 0.0, "name": "6b9638d068f8d5857a497f79898dfc8b", "is_reserved": 0, "rental_uris": {"android": "https://dc.lft.to/lastmile_qr_scan", "ios": "https://dc.lft.to/lastmile_qr_scan"}, "fusion_lon": 0.0}, {"lat": 38.90213633333333, "is_disabled": 0, "type": "electric_scooter", "lon": -76.98840483333333, "bike_id": "3f86da0cc97335a810a73f55a24d9133", "fusion_lat": 0.0, "name": "3f86da0cc97335a810a73f55a24d9133", "is_reserved": 0, "rental_uris": {"android": "https://dc.lft.to/lastmile_qr_scan", "ios": "https://dc.lft.to/lastmile_qr_scan"}, "fusion_lon": 0.0}, {"lat": 38.92860483333333, "is_disabled": 0, "type": "electric_scooter", "lon": -77.02999016666666, "bike_id": "f5be69629b480eba4ce413b408b9deeb", "fusion_lat": 0.0, "name": "f5be69629b480eba4ce413b408b9deeb", "is_reserved": 0, "rental_uris": {"android": "https://dc.lft.to/lastmile_qr_scan", "ios": "https://dc.lft.to/lastmile_qr_scan"}, "fusion_lon": 0.0}, {"lat": 38.925932833333334, "is_disabled": 0, "type": "electric_scooter", "lon": -77.022707, "bike_id": "8b46a74755083906f60792ea2b6f1585", "fusion_lat": 0.0, "name": "8b46a74755083906f60792ea2b6f1585", "is_reserved": 0, "rental_uris": {"android": "https://dc.lft.to/lastmile_qr_scan", "ios": "https://dc.lft.to/lastmile_qr_scan"}, "fusion_lon": 0.0}, {"lat": 38.90079683333333, "is_disabled": 0, "type": "electric_scooter", "lon": -77.049362, "bike_id": "bf635dbdab387e4c9983803e7a6b7b4d", "fusion_lat": 0.0, "name": "bf635dbdab387e4c9983803e7a6b7b4d", "is_reserved": 0, "rental_uris": {"android": "https://dc.lft.to/lastmile_qr_scan", "ios": "https://dc.lft.to/lastmile_qr_scan"}, "fusion_lon": 0.0}, {"lat": 38.93975866666667, "is_disabled": 0, "type": "electric_scooter", "lon": -77.03589433333333, "bike_id": "6c9a57cece7701bf7aa8d4caca80185b", "fusion_lat": 0.0, "name": "6c9a57cece7701bf7aa8d4caca80185b", "is_reserved": 0, "rental_uris": {"android": "https://dc.lft.to/lastmile_qr_scan", "ios": "https://dc.lft.to/lastmile_qr_scan"}, "fusion_lon": 0.0}, {"lat": 38.92027983333333, "is_disabled": 0, "type": "electric_scooter", "lon": -77.03733766666667, "bike_id": "d5a98090400f177e7cf4aba9d227e606", "fusion_lat": 0.0, "name": "d5a98090400f177e7cf4aba9d227e606", "is_reserved": 0, "rental_uris": {"android": "https://dc.lft.to/lastmile_qr_scan", "ios": "https://dc.lft.to/lastmile_qr_scan"}, "fusion_lon": 0.0}, {"lat": 38.95781133333333, "is_disabled": 0, "type": "electric_scooter", "lon": -77.0275005, "bike_id": "11bd5dda52e8ec7c2edd58ad6ad99579", "fusion_lat": 0.0, "name": "11bd5dda52e8ec7c2edd58ad6ad99579", "is_reserved": 0, "rental_uris": {"android": "https://dc.lft.to/lastmile_qr_scan", "ios": "https://dc.lft.to/lastmile_qr_scan"}, "fusion_lon": 0.0}, {"lat": 38.932941166666666, "is_disabled": 0, "type": "electric_scooter", "lon": -77.0355105, "bike_id": "b3f5b3e4128b5d63371a436f3ad80001", "fusion_lat": 0.0, "name": "b3f5b3e4128b5d63371a436f3ad80001", "is_reserved": 0, "rental_uris": {"android": "https://dc.lft.to/lastmile_qr_scan", "ios": "https://dc.lft.to/lastmile_qr_scan"}, "fusion_lon": 0.0}, {"lat": 38.95650416666667, "is_disabled": 0, "type": "electric_scooter", "lon": -77.02402283333333, "bike_id": "bbd3135ebf6acfb0562bac9e05aef77b", "fusion_lat": 0.0, "name": "bbd3135ebf6acfb0562bac9e05aef77b", "is_reserved": 0, "rental_uris": {"android": "https://dc.lft.to/lastmile_qr_scan", "ios": "https://dc.lft.to/lastmile_qr_scan"}, "fusion_lon": 0.0}, {"lat": 38.90881066666667, "is_disabled": 0, "type": "electric_scooter", "lon": -77.03671333333334, "bike_id": "62887c059dda5ce2aa28e6835ca3efa9", "fusion_lat": 0.0, "name": "62887c059dda5ce2aa28e6835ca3efa9", "is_reserved": 0, "rental_uris": {"android": "https://dc.lft.to/lastmile_qr_scan", "ios": "https://dc.lft.to/lastmile_qr_scan"}, "fusion_lon": 0.0}, {"lat": 38.9391255, "is_disabled": 0, "type": "electric_scooter", "lon": -77.06674483333333, "bike_id": "da3de93e112f8b5b3e8716128b4dd213", "fusion_lat": 0.0, "name": "da3de93e112f8b5b3e8716128b4dd213", "is_reserved": 0, "rental_uris": {"android": "https://dc.lft.to/lastmile_qr_scan", "ios": "https://dc.lft.to/lastmile_qr_scan"}, "fusion_lon": 0.0}, {"lat": 38.92883666666667, "is_disabled": 0, "type": "electric_scooter", "lon": -77.05749683333333, "bike_id": "dbd012230d0b907df3de75e61b0c1ff9", "fusion_lat": 0.0, "name": "dbd012230d0b907df3de75e61b0c1ff9", "is_reserved": 0, "rental_uris": {"android": "https://dc.lft.to/lastmile_qr_scan", "ios": "https://dc.lft.to/lastmile_qr_scan"}, "fusion_lon": 0.0}, {"lat": 38.908643833333336, "is_disabled": 0, "type": "electric_bike", "lon": -76.94013316666667, "bike_id": "160bd6fbbb3b5982feab675aa3147e6a", "fusion_lat": 0.0, "name": "160bd6fbbb3b5982feab675aa3147e6a", "is_reserved": 0, "rental_uris": {"android": "https://dc.lft.to/lastmile_qr_scan", "ios": "https://dc.lft.to/lastmile_qr_scan"}, "fusion_lon": 0.0}, {"lat": 38.867116333333335, "is_disabled": 0, "type": "electric_scooter", "lon": -76.98727866666667, "bike_id": "0506b23747d80428c406133056cca776", "fusion_lat": 0.0, "name": "0506b23747d80428c406133056cca776", "is_reserved": 0, "rental_uris": {"android": "https://dc.lft.to/lastmile_qr_scan", "ios": "https://dc.lft.to/lastmile_qr_scan"}, "fusion_lon": 0.0}, {"lat": 38.921261666666666, "is_disabled": 0, "type": "electric_scooter", "lon": -77.04583266666667, "bike_id": "e9058756190a17f17fbe15fad30b25d9", "fusion_lat": 0.0, "name": "e9058756190a17f17fbe15fad30b25d9", "is_reserved": 0, "rental_uris": {"android": "https://dc.lft.to/lastmile_qr_scan", "ios": "https://dc.lft.to/lastmile_qr_scan"}, "fusion_lon": 0.0}, {"lat": 38.845096166666664, "is_disabled": 0, "type": "electric_bike", "lon": -76.99354283333334, "bike_id": "72c47c929e6dab7840b8f306ad23504b", "fusion_lat": 0.0, "name": "72c47c929e6dab7840b8f306ad23504b", "is_reserved": 0, "rental_uris": {"android": "https://dc.lft.to/lastmile_qr_scan", "ios": "https://dc.lft.to/lastmile_qr_scan"}, "fusion_lon": 0.0}, {"lat": 38.903385, "is_disabled": 0, "type": "electric_scooter", "lon": -77.0520405, "bike_id": "95b8034d5e7620314d49574b983f72e3", "fusion_lat": 0.0, "name": "95b8034d5e7620314d49574b983f72e3", "is_reserved": 0, "rental_uris": {"android": "https://dc.lft.to/lastmile_qr_scan", "ios": "https://dc.lft.to/lastmile_qr_scan"}, "fusion_lon": 0.0}, {"lat": 38.89656133333333, "is_disabled": 0, "type": "electric_scooter", "lon": -77.00520616666667, "bike_id": "4753a36eff18f4b17ebea7ff176d088a", "fusion_lat": 0.0, "name": "4753a36eff18f4b17ebea7ff176d088a", "is_reserved": 0, "rental_uris": {"android": "https://dc.lft.to/lastmile_qr_scan", "ios": "https://dc.lft.to/lastmile_qr_scan"}, "fusion_lon": 0.0}, {"lat": 38.941051333333334, "is_disabled": 0, "type": "electric_scooter", "lon": -77.07718766666666, "bike_id": "8223a3c17ebf861e95b71ab2e629b8f2", "fusion_lat": 0.0, "name": "8223a3c17ebf861e95b71ab2e629b8f2", "is_reserved": 0, "rental_uris": {"android": "https://dc.lft.to/lastmile_qr_scan", "ios": "https://dc.lft.to/lastmile_qr_scan"}, "fusion_lon": 0.0}, {"lat": 38.91879566666667, "is_disabled": 0, "type": "electric_scooter", "lon": -77.03495066666666, "bike_id": "be984308f2780c79c75f6f3f4c45874c", "fusion_lat": 0.0, "name": "be984308f2780c79c75f6f3f4c45874c", "is_reserved": 0, "rental_uris": {"android": "https://dc.lft.to/lastmile_qr_scan", "ios": "https://dc.lft.to/lastmile_qr_scan"}, "fusion_lon": 0.0}, {"lat": 38.90588016666667, "is_disabled": 0, "type": "electric_scooter", "lon": -76.98618383333333, "bike_id": "99615ce4ff6512c3c977898997e370aa", "fusion_lat": 0.0, "name": "99615ce4ff6512c3c977898997e370aa", "is_reserved": 0, "rental_uris": {"android": "https://dc.lft.to/lastmile_qr_scan", "ios": "https://dc.lft.to/lastmile_qr_scan"}, "fusion_lon": 0.0}, {"lat": 38.90865633333333, "is_disabled": 0, "type": "electric_bike", "lon": -76.93162016666666, "bike_id": "71292365b7c891d2f8e0d452acd5200f", "fusion_lat": 0.0, "name": "71292365b7c891d2f8e0d452acd5200f", "is_reserved": 0, "rental_uris": {"android": "https://dc.lft.to/lastmile_qr_scan", "ios": "https://dc.lft.to/lastmile_qr_scan"}, "fusion_lon": 0.0}, {"lat": 38.96606666666667, "is_disabled": 0, "type": "electric_bike", "lon": -76.983361, "bike_id": "54bcc263c4626ff0286c55a28a4a4a2b", "fusion_lat": 0.0, "name": "54bcc263c4626ff0286c55a28a4a4a2b", "is_reserved": 0, "rental_uris": {"android": "https://dc.lft.to/lastmile_qr_scan", "ios": "https://dc.lft.to/lastmile_qr_scan"}, "fusion_lon": 0.0}, {"lat": 38.933583166666665, "is_disabled": 0, "type": "electric_scooter", "lon": -77.07368583333333, "bike_id": "275f3b93e767efa157b6feb4e3328428", "fusion_lat": 0.0, "name": "275f3b93e767efa157b6feb4e3328428", "is_reserved": 0, "rental_uris": {"android": "https://dc.lft.to/lastmile_qr_scan", "ios": "https://dc.lft.to/lastmile_qr_scan"}, "fusion_lon": 0.0}, {"lat": 38.892506833333336, "is_disabled": 0, "type": "electric_scooter", "lon": -77.04895633333334, "bike_id": "98d5d2541122816ea4476b3a7c9f77b0", "fusion_lat": 0.0, "name": "98d5d2541122816ea4476b3a7c9f77b0", "is_reserved": 0, "rental_uris": {"android": "https://dc.lft.to/lastmile_qr_scan", "ios": "https://dc.lft.to/lastmile_qr_scan"}, "fusion_lon": 0.0}, {"lat": 38.8983915, "is_disabled": 0, "type": "electric_scooter", "lon": -76.931026, "bike_id": "f5c19e3de79c49c51a3a99efcbd7e504", "fusion_lat": 0.0, "name": "f5c19e3de79c49c51a3a99efcbd7e504", "is_reserved": 0, "rental_uris": {"android": "https://dc.lft.to/lastmile_qr_scan", "ios": "https://dc.lft.to/lastmile_qr_scan"}, "fusion_lon": 0.0}, {"lat": 38.920834, "is_disabled": 0, "type": "electric_bike", "lon": -76.99187466666666, "bike_id": "f0f781a7ce49e6cc839ff48d34a6f6bf", "fusion_lat": 0.0, "name": "f0f781a7ce49e6cc839ff48d34a6f6bf", "is_reserved": 0, "rental_uris": {"android": "https://dc.lft.to/lastmile_qr_scan", "ios": "https://dc.lft.to/lastmile_qr_scan"}, "fusion_lon": 0.0}, {"lat": 38.90315783333333, "is_disabled": 0, "type": "electric_scooter", "lon": -76.9900075, "bike_id": "cfab9fc050c218945f4e111c4f00b4c6", "fusion_lat": 0.0, "name": "cfab9fc050c218945f4e111c4f00b4c6", "is_reserved": 0, "rental_uris": {"android": "https://dc.lft.to/lastmile_qr_scan", "ios": "https://dc.lft.to/lastmile_qr_scan"}, "fusion_lon": 0.0}, {"lat": 38.87456916666667, "is_disabled": 0, "type": "electric_scooter", "lon": -77.0093005, "bike_id": "03a6439c02ce3d6efbf597368bf140a5", "fusion_lat": 0.0, "name": "03a6439c02ce3d6efbf597368bf140a5", "is_reserved": 0, "rental_uris": {"android": "https://dc.lft.to/lastmile_qr_scan", "ios": "https://dc.lft.to/lastmile_qr_scan"}, "fusion_lon": 0.0}, {"lat": 38.90456366666667, "is_disabled": 0, "type": "electric_scooter", "lon": -76.994577, "bike_id": "ba8fc5a0ec60341d3ec50fd8f2e24475", "fusion_lat": 0.0, "name": "ba8fc5a0ec60341d3ec50fd8f2e24475", "is_reserved": 0, "rental_uris": {"android": "https://dc.lft.to/lastmile_qr_scan", "ios": "https://dc.lft.to/lastmile_qr_scan"}, "fusion_lon": 0.0}, {"lat": 38.96928783333333, "is_disabled": 0, "type": "electric_bike", "lon": -77.026238, "bike_id": "c87c6618dddd95648b16c07a1fba45fb", "fusion_lat": 0.0, "name": "c87c6618dddd95648b16c07a1fba45fb", "is_reserved": 0, "rental_uris": {"android": "https://dc.lft.to/lastmile_qr_scan", "ios": "https://dc.lft.to/lastmile_qr_scan"}, "fusion_lon": 0.0}, {"lat": 38.89644416666667, "is_disabled": 0, "type": "electric_scooter", "lon": -77.04673833333334, "bike_id": "68351cb18b03d874fa47828a30b396da", "fusion_lat": 0.0, "name": "68351cb18b03d874fa47828a30b396da", "is_reserved": 0, "rental_uris": {"android": "https://dc.lft.to/lastmile_qr_scan", "ios": "https://dc.lft.to/lastmile_qr_scan"}, "fusion_lon": 0.0}, {"lat": 38.930987, "is_disabled": 0, "type": "electric_scooter", "lon": -77.02561116666666, "bike_id": "3146b111d55c14e94aa06e2a0323966f", "fusion_lat": 0.0, "name": "3146b111d55c14e94aa06e2a0323966f", "is_reserved": 0, "rental_uris": {"android": "https://dc.lft.to/lastmile_qr_scan", "ios": "https://dc.lft.to/lastmile_qr_scan"}, "fusion_lon": 0.0}, {"lat": 38.91256883333333, "is_disabled": 0, "type": "electric_scooter", "lon": -77.04766083333334, "bike_id": "0e51dfe3a4c7536c414d943cdcdf9080", "fusion_lat": 0.0, "name": "0e51dfe3a4c7536c414d943cdcdf9080", "is_reserved": 0, "rental_uris": {"android": "https://dc.lft.to/lastmile_qr_scan", "ios": "https://dc.lft.to/lastmile_qr_scan"}, "fusion_lon": 0.0}, {"lat": 38.91554333333333, "is_disabled": 0, "type": "electric_scooter", "lon": -77.02430766666667, "bike_id": "4ededca73a25c081b2386fcec504ae37", "fusion_lat": 0.0, "name": "4ededca73a25c081b2386fcec504ae37", "is_reserved": 0, "rental_uris": {"android": "https://dc.lft.to/lastmile_qr_scan", "ios": "https://dc.lft.to/lastmile_qr_scan"}, "fusion_lon": 0.0}, {"lat": 38.898797, "is_disabled": 0, "type": "electric_scooter", "lon": -77.05338383333333, "bike_id": "ecd7ea3ff92da5b305f77dc3491ff576", "fusion_lat": 0.0, "name": "ecd7ea3ff92da5b305f77dc3491ff576", "is_reserved": 0, "rental_uris": {"android": "https://dc.lft.to/lastmile_qr_scan", "ios": "https://dc.lft.to/lastmile_qr_scan"}, "fusion_lon": 0.0}, {"lat": 38.8827525, "is_disabled": 0, "type": "electric_bike", "lon": -76.98778283333333, "bike_id": "5035cd9cf9acb45a3933d6aaa6f7041b", "fusion_lat": 0.0, "name": "5035cd9cf9acb45a3933d6aaa6f7041b", "is_reserved": 0, "rental_uris": {"android": "https://dc.lft.to/lastmile_qr_scan", "ios": "https://dc.lft.to/lastmile_qr_scan"}, "fusion_lon": 0.0}, {"lat": 38.899175166666666, "is_disabled": 0, "type": "electric_scooter", "lon": -76.93379333333333, "bike_id": "c63d9c7c268227e7e0c2902855e294e3", "fusion_lat": 0.0, "name": "c63d9c7c268227e7e0c2902855e294e3", "is_reserved": 0, "rental_uris": {"android": "https://dc.lft.to/lastmile_qr_scan", "ios": "https://dc.lft.to/lastmile_qr_scan"}, "fusion_lon": 0.0}, {"lat": 38.863479, "is_disabled": 0, "type": "electric_scooter", "lon": -76.9900135, "bike_id": "7f80dcec5463a029c6d0e4ec0e39d3f9", "fusion_lat": 0.0, "name": "7f80dcec5463a029c6d0e4ec0e39d3f9", "is_reserved": 0, "rental_uris": {"android": "https://dc.lft.to/lastmile_qr_scan", "ios": "https://dc.lft.to/lastmile_qr_scan"}, "fusion_lon": 0.0}, {"lat": 38.95553816666666, "is_disabled": 0, "type": "electric_bike", "lon": -76.93544116666666, "bike_id": "59b51e5b9743d23ed8ff5a1d8ff59b55", "fusion_lat": 0.0, "name": "59b51e5b9743d23ed8ff5a1d8ff59b55", "is_reserved": 0, "rental_uris": {"android": "https://dc.lft.to/lastmile_qr_scan", "ios": "https://dc.lft.to/lastmile_qr_scan"}, "fusion_lon": 0.0}, {"lat": 38.84867166666667, "is_disabled": 0, "type": "electric_scooter", "lon": -76.97694466666667, "bike_id": "db38a569cda7889d0ce6091aa31eaea5", "fusion_lat": 0.0, "name": "db38a569cda7889d0ce6091aa31eaea5", "is_reserved": 0, "rental_uris": {"android": "https://dc.lft.to/lastmile_qr_scan", "ios": "https://dc.lft.to/lastmile_qr_scan"}, "fusion_lon": 0.0}, {"lat": 38.919611, "is_disabled": 0, "type": "electric_scooter", "lon": -77.0431965, "bike_id": "7e806370d162e6ad2a0fb6ec7f0a86bc", "fusion_lat": 0.0, "name": "7e806370d162e6ad2a0fb6ec7f0a86bc", "is_reserved": 0, "rental_uris": {"android": "https://dc.lft.to/lastmile_qr_scan", "ios": "https://dc.lft.to/lastmile_qr_scan"}, "fusion_lon": 0.0}, {"lat": 38.89125466666667, "is_disabled": 0, "type": "electric_scooter", "lon": -76.94092666666667, "bike_id": "1e97db9bf25151785f98fc6e75f62cb3", "fusion_lat": 0.0, "name": "1e97db9bf25151785f98fc6e75f62cb3", "is_reserved": 0, "rental_uris": {"android": "https://dc.lft.to/lastmile_qr_scan", "ios": "https://dc.lft.to/lastmile_qr_scan"}, "fusion_lon": 0.0}, {"lat": 38.902677833333335, "is_disabled": 0, "type": "electric_scooter", "lon": -77.01928933333333, "bike_id": "1641acae7cd1ed8e5e2183800e96847f", "fusion_lat": 0.0, "name": "1641acae7cd1ed8e5e2183800e96847f", "is_reserved": 0, "rental_uris": {"android": "https://dc.lft.to/lastmile_qr_scan", "ios": "https://dc.lft.to/lastmile_qr_scan"}, "fusion_lon": 0.0}, {"lat": 38.936549666666664, "is_disabled": 0, "type": "electric_bike", "lon": -77.055887, "bike_id": "bb1b9035e4d39e182e89b147ac46d8cd", "fusion_lat": 0.0, "name": "bb1b9035e4d39e182e89b147ac46d8cd", "is_reserved": 0, "rental_uris": {"android": "https://dc.lft.to/lastmile_qr_scan", "ios": "https://dc.lft.to/lastmile_qr_scan"}, "fusion_lon": 0.0}, {"lat": 38.924555166666664, "is_disabled": 0, "type": "electric_scooter", "lon": -77.04199816666667, "bike_id": "b91860d23bbe3885aa46b8161d84115e", "fusion_lat": 0.0, "name": "b91860d23bbe3885aa46b8161d84115e", "is_reserved": 0, "rental_uris": {"android": "https://dc.lft.to/lastmile_qr_scan", "ios": "https://dc.lft.to/lastmile_qr_scan"}, "fusion_lon": 0.0}, {"lat": 38.901371833333336, "is_disabled": 0, "type": "electric_scooter", "lon": -77.00067766666666, "bike_id": "17841d0d419a4f81ec6de10c569447c6", "fusion_lat": 0.0, "name": "17841d0d419a4f81ec6de10c569447c6", "is_reserved": 0, "rental_uris": {"android": "https://dc.lft.to/lastmile_qr_scan", "ios": "https://dc.lft.to/lastmile_qr_scan"}, "fusion_lon": 0.0}, {"lat": 38.90526, "is_disabled": 0, "type": "electric_scooter", "lon": -77.0269105, "bike_id": "c659f85c6e08b34ccd229ac15d1305f2", "fusion_lat": 0.0, "name": "c659f85c6e08b34ccd229ac15d1305f2", "is_reserved": 0, "rental_uris": {"android": "https://dc.lft.to/lastmile_qr_scan", "ios": "https://dc.lft.to/lastmile_qr_scan"}, "fusion_lon": 0.0}, {"lat": 38.922130833333334, "is_disabled": 0, "type": "electric_scooter", "lon": -77.03288966666666, "bike_id": "800265664c3b3c50ef592de9ebd00461", "fusion_lat": 0.0, "name": "800265664c3b3c50ef592de9ebd00461", "is_reserved": 0, "rental_uris": {"android": "https://dc.lft.to/lastmile_qr_scan", "ios": "https://dc.lft.to/lastmile_qr_scan"}, "fusion_lon": 0.0}, {"lat": 39.015953333333336, "is_disabled": 0, "type": "electric_bike", "lon": -77.04426033333333, "bike_id": "6a69e3dcc57cb965650f1e3713eba7bb", "fusion_lat": 0.0, "name": "6a69e3dcc57cb965650f1e3713eba7bb", "is_reserved": 0, "rental_uris": {"android": "https://dc.lft.to/lastmile_qr_scan", "ios": "https://dc.lft.to/lastmile_qr_scan"}, "fusion_lon": 0.0}, {"lat": 38.960947833333336, "is_disabled": 0, "type": "electric_scooter", "lon": -77.08286066666666, "bike_id": "a283c2bb87efc15fd311357c4a22bbec", "fusion_lat": 0.0, "name": "a283c2bb87efc15fd311357c4a22bbec", "is_reserved": 0, "rental_uris": {"android": "https://dc.lft.to/lastmile_qr_scan", "ios": "https://dc.lft.to/lastmile_qr_scan"}, "fusion_lon": 0.0}, {"lat": 38.928602166666664, "is_disabled": 0, "type": "electric_bike", "lon": -76.98937283333333, "bike_id": "e3bf11692ddc21ea0a2031ba43129d45", "fusion_lat": 0.0, "name": "e3bf11692ddc21ea0a2031ba43129d45", "is_reserved": 0, "rental_uris": {"android": "https://dc.lft.to/lastmile_qr_scan", "ios": "https://dc.lft.to/lastmile_qr_scan"}, "fusion_lon": 0.0}, {"lat": 38.91771883333333, "is_disabled": 0, "type": "electric_scooter", "lon": -77.02309016666666, "bike_id": "39f17ed7e33f40cd2c106e483f831785", "fusion_lat": 0.0, "name": "39f17ed7e33f40cd2c106e483f831785", "is_reserved": 0, "rental_uris": {"android": "https://dc.lft.to/lastmile_qr_scan", "ios": "https://dc.lft.to/lastmile_qr_scan"}, "fusion_lon": 0.0}, {"lat": 38.900956666666666, "is_disabled": 0, "type": "electric_scooter", "lon": -77.00344683333333, "bike_id": "2eadaf5b0ebc9c49ca1707586cd327ca", "fusion_lat": 0.0, "name": "2eadaf5b0ebc9c49ca1707586cd327ca", "is_reserved": 0, "rental_uris": {"android": "https://dc.lft.to/lastmile_qr_scan", "ios": "https://dc.lft.to/lastmile_qr_scan"}, "fusion_lon": 0.0}, {"lat": 38.90717933333333, "is_disabled": 0, "type": "electric_scooter", "lon": -76.9982065, "bike_id": "4859e58caba4bd8d68e98fc6b3cbe6da", "fusion_lat": 0.0, "name": "4859e58caba4bd8d68e98fc6b3cbe6da", "is_reserved": 0, "rental_uris": {"android": "https://dc.lft.to/lastmile_qr_scan", "ios": "https://dc.lft.to/lastmile_qr_scan"}, "fusion_lon": 0.0}, {"lat": 38.92151883333333, "is_disabled": 0, "type": "electric_scooter", "lon": -77.03383266666667, "bike_id": "88816023239e59f0e0de555d68447da2", "fusion_lat": 0.0, "name": "88816023239e59f0e0de555d68447da2", "is_reserved": 0, "rental_uris": {"android": "https://dc.lft.to/lastmile_qr_scan", "ios": "https://dc.lft.to/lastmile_qr_scan"}, "fusion_lon": 0.0}, {"lat": 38.86703, "is_disabled": 0, "type": "electric_scooter", "lon": -76.9871025, "bike_id": "d1b265b25fa006f544f64e0b4b18aa05", "fusion_lat": 0.0, "name": "d1b265b25fa006f544f64e0b4b18aa05", "is_reserved": 0, "rental_uris": {"android": "https://dc.lft.to/lastmile_qr_scan", "ios": "https://dc.lft.to/lastmile_qr_scan"}, "fusion_lon": 0.0}, {"lat": 38.91706383333333, "is_disabled": 0, "type": "electric_scooter", "lon": -77.03224833333333, "bike_id": "d8ad3c939568f53ba7134c316e3050d5", "fusion_lat": 0.0, "name": "d8ad3c939568f53ba7134c316e3050d5", "is_reserved": 0, "rental_uris": {"android": "https://dc.lft.to/lastmile_qr_scan", "ios": "https://dc.lft.to/lastmile_qr_scan"}, "fusion_lon": 0.0}, {"lat": 38.917902, "is_disabled": 0, "type": "electric_bike", "lon": -76.97191316666667, "bike_id": "e53aee8b7d7781c74ae7eb9b14891e83", "fusion_lat": 0.0, "name": "e53aee8b7d7781c74ae7eb9b14891e83", "is_reserved": 0, "rental_uris": {"android": "https://dc.lft.to/lastmile_qr_scan", "ios": "https://dc.lft.to/lastmile_qr_scan"}, "fusion_lon": 0.0}, {"lat": 38.924159, "is_disabled": 0, "type": "electric_bike", "lon": -77.05047683333333, "bike_id": "3b3aac107d2a797604f5383c9caedb84", "fusion_lat": 0.0, "name": "3b3aac107d2a797604f5383c9caedb84", "is_reserved": 0, "rental_uris": {"android": "https://dc.lft.to/lastmile_qr_scan", "ios": "https://dc.lft.to/lastmile_qr_scan"}, "fusion_lon": 0.0}, {"lat": 38.90585033333333, "is_disabled": 0, "type": "electric_scooter", "lon": -77.04852, "bike_id": "39629c0950a9b45f1639ef798dc34a8a", "fusion_lat": 0.0, "name": "39629c0950a9b45f1639ef798dc34a8a", "is_reserved": 0, "rental_uris": {"android": "https://dc.lft.to/lastmile_qr_scan", "ios": "https://dc.lft.to/lastmile_qr_scan"}, "fusion_lon": 0.0}, {"lat": 38.861692, "is_disabled": 0, "type": "electric_bike", "lon": -77.131472, "bike_id": "a6e049c983ec96d6d55f34c513368bec", "fusion_lat": 0.0, "name": "a6e049c983ec96d6d55f34c513368bec", "is_reserved": 0, "rental_uris": {"android": "https://dc.lft.to/lastmile_qr_scan", "ios": "https://dc.lft.to/lastmile_qr_scan"}, "fusion_lon": 0.0}, {"lat": 38.90979466666667, "is_disabled": 0, "type": "electric_scooter", "lon": -77.0320815, "bike_id": "9b286bb95671e417dfa02500eb076c8f", "fusion_lat": 0.0, "name": "9b286bb95671e417dfa02500eb076c8f", "is_reserved": 0, "rental_uris": {"android": "https://dc.lft.to/lastmile_qr_scan", "ios": "https://dc.lft.to/lastmile_qr_scan"}, "fusion_lon": 0.0}, {"lat": 38.80498333333333, "is_disabled": 0, "type": "electric_bike", "lon": -77.04124183333333, "bike_id": "64de657c74387c48efcc82ce21269473", "fusion_lat": 0.0, "name": "64de657c74387c48efcc82ce21269473", "is_reserved": 0, "rental_uris": {"android": "https://dc.lft.to/lastmile_qr_scan", "ios": "https://dc.lft.to/lastmile_qr_scan"}, "fusion_lon": 0.0}, {"lat": 38.93341916666667, "is_disabled": 0, "type": "electric_scooter", "lon": -76.9930925, "bike_id": "b6d33f1164c46a907fbcc0f840c77ec6", "fusion_lat": 0.0, "name": "b6d33f1164c46a907fbcc0f840c77ec6", "is_reserved": 0, "rental_uris": {"android": "https://dc.lft.to/lastmile_qr_scan", "ios": "https://dc.lft.to/lastmile_qr_scan"}, "fusion_lon": 0.0}, {"lat": 38.866183166666666, "is_disabled": 0, "type": "electric_scooter", "lon": -76.986399, "bike_id": "7b464ffe17316962f53e05be52c7ff7f", "fusion_lat": 0.0, "name": "7b464ffe17316962f53e05be52c7ff7f", "is_reserved": 0, "rental_uris": {"android": "https://dc.lft.to/lastmile_qr_scan", "ios": "https://dc.lft.to/lastmile_qr_scan"}, "fusion_lon": 0.0}, {"lat": 38.93748516666667, "is_disabled": 0, "type": "electric_scooter", "lon": -77.03454366666666, "bike_id": "8e60f1c6f10979f2ff0f112185e49aca", "fusion_lat": 0.0, "name": "8e60f1c6f10979f2ff0f112185e49aca", "is_reserved": 0, "rental_uris": {"android": "https://dc.lft.to/lastmile_qr_scan", "ios": "https://dc.lft.to/lastmile_qr_scan"}, "fusion_lon": 0.0}, {"lat": 38.906455333333334, "is_disabled": 0, "type": "electric_scooter", "lon": -76.9902725, "bike_id": "f1bc2b0170dcf94fd3dcdb630af91086", "fusion_lat": 0.0, "name": "f1bc2b0170dcf94fd3dcdb630af91086", "is_reserved": 0, "rental_uris": {"android": "https://dc.lft.to/lastmile_qr_scan", "ios": "https://dc.lft.to/lastmile_qr_scan"}, "fusion_lon": 0.0}, {"lat": 38.956077666666665, "is_disabled": 0, "type": "electric_scooter", "lon": -77.01013633333334, "bike_id": "638d697a143ebda6c75bc2948696ceb4", "fusion_lat": 0.0, "name": "638d697a143ebda6c75bc2948696ceb4", "is_reserved": 0, "rental_uris": {"android": "https://dc.lft.to/lastmile_qr_scan", "ios": "https://dc.lft.to/lastmile_qr_scan"}, "fusion_lon": 0.0}, {"lat": 38.84428333333334, "is_disabled": 0, "type": "electric_scooter", "lon": -76.99781633333333, "bike_id": "64547326aa1128a03c6ac84df23bcdd4", "fusion_lat": 0.0, "name": "64547326aa1128a03c6ac84df23bcdd4", "is_reserved": 0, "rental_uris": {"android": "https://dc.lft.to/lastmile_qr_scan", "ios": "https://dc.lft.to/lastmile_qr_scan"}, "fusion_lon": 0.0}, {"lat": 38.952995666666666, "is_disabled": 0, "type": "electric_bike", "lon": -76.982095, "bike_id": "315b0b44ad48fa7754a492bd939251d6", "fusion_lat": 0.0, "name": "315b0b44ad48fa7754a492bd939251d6", "is_reserved": 0, "rental_uris": {"android": "https://dc.lft.to/lastmile_qr_scan", "ios": "https://dc.lft.to/lastmile_qr_scan"}, "fusion_lon": 0.0}, {"lat": 38.918346666666665, "is_disabled": 0, "type": "electric_scooter", "lon": -77.02308216666667, "bike_id": "efb62a07ce7121cf7f92181082a78779", "fusion_lat": 0.0, "name": "efb62a07ce7121cf7f92181082a78779", "is_reserved": 0, "rental_uris": {"android": "https://dc.lft.to/lastmile_qr_scan", "ios": "https://dc.lft.to/lastmile_qr_scan"}, "fusion_lon": 0.0}, {"lat": 38.92104766666667, "is_disabled": 0, "type": "electric_scooter", "lon": -77.03936883333333, "bike_id": "8b7e084a105ebc889030d10a833ffd16", "fusion_lat": 0.0, "name": "8b7e084a105ebc889030d10a833ffd16", "is_reserved": 0, "rental_uris": {"android": "https://dc.lft.to/lastmile_qr_scan", "ios": "https://dc.lft.to/lastmile_qr_scan"}, "fusion_lon": 0.0},