{"data": {"bikes": [{"is_disabled": 0, "is_reserved": 0, "fusion_lat": 0.0, "lat": 38.899604833333335, "fusion_lon": 0.0, "rental_uris": {"ios": "https://dc.lft.to/lastmile_qr_scan", "android": "https://dc.lft.to/lastmile_qr_scan"}, "lon": -76.92622133333333, "bike_id": "ea02429a57d5155273087b585b65403b", "type": "electric_scooter", "name": "ea02429a57d5155273087b585b65403b"}, {"is_disabled": 0, "is_reserved": 0, "fusion_lat": 0.0, "lat": 38.93000983333334, "fusion_lon": 0.0, "rental_uris": {"ios": "https://dc.lft.to/lastmile_qr_scan", "android": "https://dc.lft.to/lastmile_qr_scan"}, "lon": -77.03797966666667, "bike_id": "89383d66a0d71603c0d278854913daea", "type": "electric_scooter", "name": "89383d66a0d71603c0d278854913daea"}, {"is_disabled": 0, "is_reserved": 0, "fusion_lat": 0.0, "lat": 38.90657, "fusion_lon": 0.0, "rental_uris": {"ios": "https://dc.lft.to/lastmile_qr_scan", "android": "https://dc.lft.to/lastmile_qr_scan"}, "lon": -77.01625883333334, "bike_id": "2b3aa782e156bcf672fac1a40f91ddcd", "type": "electric_scooter", "name": "2b3aa782e156bcf672fac1a40f91ddcd"}, {"is_disabled": 0, "is_reserved": 0, "fusion_lat": 0.0, "lat": 38.88888033333333, "fusion_lon": 0.0, "rental_uris": {"ios": "https://dc.lft.to/lastmile_qr_scan", "android": "https://dc.lft.to/lastmile_qr_scan"}, "lon": -76.99034983333334, "bike_id": "7b3b1155a1d4e0cf4234237c99fa7013", "type": "electric_scooter", "name": "7b3b1155a1d4e0cf4234237c99fa7013"}, {"is_disabled": 0, "is_reserved": 0, "fusion_lat": 0.0, "lat": 39.025196333333334, "fusion_lon": 0.0, "rental_uris": {"ios": "https://dc.lft.to/lastmile_qr_scan", "android": "https://dc.lft.to/lastmile_qr_scan"}, "lon": -77.0197145, "bike_id": "22097ba8f9ff53d081fe34f5b07373d8", "type": "electric_bike", "name": "22097ba8f9ff53d081fe34f5b07373d8"}, {"is_disabled": 0, "is_reserved": 0, "fusion_lat": 0.0, "lat": 38.894677, "fusion_lon": 0.0, "rental_uris": {"ios": "https://dc.lft.to/lastmile_qr_scan", "android": "https://dc.lft.to/lastmile_qr_scan"}, "lon": -77.0023375, "bike_id": "3105493cd06759fb23c8a02dfaf8ec8e", "type": "electric_scooter", "name": "3105493cd06759fb23c8a02dfaf8ec8e"}, {"is_disabled": 0, "is_reserved": 0, "fusion_lat": 0.0, "lat": 38.932804833333336, "fusion_lon": 0.0, "rental_uris": {"ios": "https://dc.lft.to/lastmile_qr_scan", "android": "https://dc.lft.to/lastmile_qr_scan"}, "lon": -77.041424, "bike_id": "2126906d9c35595c54d00daa75fa67d7", "type": "electric_scooter", "name": "2126906d9c35595c54d00daa75fa67d7"}, {"is_disabled": 0, "is_reserved": 0, "fusion_lat": 0.0, "lat": 38.9032285, "fusion_lon": 0.0, "rental_uris": {"ios": "https://dc.lft.to/lastmile_qr_scan", "android": "https://dc.lft.to/lastmile_qr_scan"}, "lon": -77.03200983333333, "bike_id": "972e68c1a44ed50cbde8c2c7871d30cf", "type": "electric_scooter", "name": "972e68c1a44ed50cbde8c2c7871d30cf"}, {"is_disabled": 0, "is_reserved": 0, "fusion_lat": 0.0, "lat": 38.9235105, "fusion_lon": 0.0, "rental_uris": {"ios": "https://dc.lft.to/lastmile_qr_scan", "android": "https://dc.lft.to/lastmile_qr_scan"}, "lon": -76.97206583333333, "bike_id": "fe0852d20ec623f757e84a77e60bb4e4", "type": "electric_scooter", "name": "fe0852d20ec623f757e84a77e60bb4e4"}, {"is_disabled": 0, "is_reserved": 0, "fusion_lat": 0.0, "lat": 39.08475033333333, "fusion_lon": 0.0, "rental_uris": {"ios": "https://dc.lft.to/lastmile_qr_scan", "android": "https://dc.lft.to/lastmile_qr_scan"}, "lon": -76.9507065, "bike_id": "02a88d0d78159a1cd754b258caa63877", "type": "electric_bike", "name": "02a88d0d78159a1cd754b258caa63877"}, {"is_disabled": 0, "is_reserved": 0, "fusion_lat": 0.0, "lat": 38.9534325, "fusion_lon": 0.0, "rental_uris": {"ios": "https://dc.lft.to/lastmile_qr_scan", "android": "https://dc.lft.to/lastmile_qr_scan"}, "lon": -77.081546, "bike_id": "8fb37f9c0d11b258037045614d693263", "type": "electric_scooter", "name": "8fb37f9c0d11b258037045614d693263"}, {"is_disabled": 0, "is_reserved": 0, "fusion_lat": 0.0, "lat": 38.95109733333334, "fusion_lon": 0.0, "rental_uris": {"ios": "https://dc.lft.to/lastmile_qr_scan", "android": "https://dc.lft.to/lastmile_qr_scan"}, "lon": -77.01887533333333, "bike_id": "f7484b17ffedbc345aee654fe972bc95", "type": "electric_scooter", "name": "f7484b17ffedbc345aee654fe972bc95"}, {"is_disabled": 0, "is_reserved": 0, "fusion_lat": 0.0, "lat": 38.982070666666665, "fusion_lon": 0.0, "rental_uris": {"ios": "https://dc.lft.to/lastmile_qr_scan", "android": "https://dc.lft.to/lastmile_qr_scan"}, "lon": -76.97817516666667, "bike_id": "2418df874cb0cf69ec03bd2f4fb4e63f", "type": "electric_bike", "name": "2418df874cb0cf69ec03bd2f4fb4e63f"}, {"is_disabled": 0, "is_reserved": 0, "fusion_lat": 0.0, "lat": 38.89362766666667, "fusion_lon": 0.0, "rental_uris": {"ios": "https://dc.lft.to/lastmile_qr_scan", "android": "https://dc.lft.to/lastmile_qr_scan"}, "lon": -77.04475566666666, "bike_id": "dac7b180156d71d7be8c29b7dbd7eabe", "type": "electric_scooter", "name": "dac7b180156d71d7be8c29b7dbd7eabe"}, {"is_disabled": 0, "is_reserved": 0, "fusion_lat": 0.0, "lat": 38.93612816666667, "fusion_lon": 0.0, "rental_uris": {"ios": "https://dc.lft.to/lastmile_qr_scan", "android": "https://dc.lft.to/lastmile_qr_scan"}, "lon": -77.05591366666667, "bike_id": "ceb8801a617bb19ba7b24bb3ea54e954", "type": "electric_scooter", "name": "ceb8801a617bb19ba7b24bb3ea54e954"}, {"is_disabled": 0, "is_reserved": 0, "fusion_lat": 0.0, "lat": 38.928645, "fusion_lon": 0.0, "rental_uris": {"ios": "https://dc.lft.to/lastmile_qr_scan", "android": "https://dc.lft.to/lastmile_qr_scan"}, "lon": -77.03359066666667, "bike_id": "231d43bd6ecd1c2aebd1a8c22a7b4d31", "type": "electric_scooter", "name": "231d43bd6ecd1c2aebd1a8c22a7b4d31"}, {"is_disabled": 0, "is_reserved": 0, "fusion_lat": 0.0, "lat": 38.87840933333333, "fusion_lon": 0.0, "rental_uris": {"ios": "https://dc.lft.to/lastmile_qr_scan", "android": "https://dc.lft.to/lastmile_qr_scan"}, "lon": -76.98604666666667, "bike_id": "cf35b74586bdf5f79ff7d6b2ca290d1f", "type": "electric_scooter", "name": "cf35b74586bdf5f79ff7d6b2ca290d1f"}, {"is_disabled": 0, "is_reserved": 0, "fusion_lat": 0.0, "lat": 38.94165683333333, "fusion_lon": 0.0, "rental_uris": {"ios": "https://dc.lft.to/lastmile_qr_scan", "android": "https://dc.lft.to/lastmile_qr_scan"}, "lon": -76.99407833333333, "bike_id": "fec2d0d52905fcbcdf10ff9e45cb79cb", "type": "electric_bike", "name": "fec2d0d52905fcbcdf10ff9e45cb79cb"}, {"is_disabled": 0, "is_reserved": 0, "fusion_lat": 0.0, "lat": 38.927786, "fusion_lon": 0.0, "rental_uris": {"ios": "https://dc.lft.to/lastmile_qr_scan", "android": "https://dc.lft.to/lastmile_qr_scan"}, "lon": -77.0526035, "bike_id": "a101e39404bfcb51759b9054920482d3", "type": "electric_scooter", "name": "a101e39404bfcb51759b9054920482d3"}, {"is_disabled": 0, "is_reserved": 0, "fusion_lat": 0.0, "lat": 38.92613683333333, "fusion_lon": 0.0, "rental_uris": {"ios": "https://dc.lft.to/lastmile_qr_scan", "android": "https://dc.lft.to/lastmile_qr_scan"}, "lon": -77.006542, "bike_id": "29375acc39a945409af8cc1873086744", "type": "electric_scooter", "name": "29375acc39a945409af8cc1873086744"}, {"is_disabled": 0, "is_reserved": 0, "fusion_lat": 0.0, "lat": 38.93982916666667, "fusion_lon": 0.0, "rental_uris": {"ios": "https://dc.lft.to/lastmile_qr_scan", "android": "https://dc.lft.to/lastmile_qr_scan"}, "lon": -77.01911166666666, "bike_id": "35e8638b901bad842183f2326337b182", "type": "electric_scooter", "name": "35e8638b901bad842183f2326337b182"}, {"is_disabled": 0, "is_reserved": 0, "fusion_lat": 0.0, "lat": 38.88506, "fusion_lon": 0.0, "rental_uris": {"ios": "https://dc.lft.to/lastmile_qr_scan", "android": "https://dc.lft.to/lastmile_qr_scan"}, "lon": -76.997542, "bike_id": "bcd239fceadf2dea5820a2068f2ef146", "type": "electric_scooter", "name": "bcd239fceadf2dea5820a2068f2ef146"}, {"is_disabled": 0, "is_reserved": 0, "fusion_lat": 0.0, "lat": 38.92619966666667, "fusion_lon": 0.0, "rental_uris": {"ios": "https://dc.lft.to/lastmile_qr_scan", "android": "https://dc.lft.to/lastmile_qr_scan"}, "lon": -76.99061316666666, "bike_id": "04fc010b68ce7429fd20777cc90dd422", "type": "electric_scooter", "name": "04fc010b68ce7429fd20777cc90dd422"}, {"is_disabled": 0, "is_reserved": 0, "fusion_lat": 0.0, "lat": 38.857959, "fusion_lon": 0.0, "rental_uris": {"ios": "https://dc.lft.to/lastmile_qr_scan", "android": "https://dc.lft.to/lastmile_qr_scan"}, "lon": -76.98746866666667, "bike_id": "be75245d22f42e133c029d8848639179", "type": "electric_bike", "name": "be75245d22f42e133c029d8848639179"}, {"is_disabled": 0, "is_reserved": 0, "fusion_lat": 0.0, "lat": 39.02624466666666, "fusion_lon": 0.0, "rental_uris": {"ios": "https://dc.lft.to/lastmile_qr_scan", "android": "https://dc.lft.to/lastmile_qr_scan"}, "lon": -77.0387915, "bike_id": "2ad7ed32fa1305337752f312b62aa2f7", "type": "electric_bike", "name": "2ad7ed32fa1305337752f312b62aa2f7"}, {"is_disabled": 0, "is_reserved": 0, "fusion_lat": 0.0, "lat": 38.92681366666667, "fusion_lon": 0.0, "rental_uris": {"ios": "https://dc.lft.to/lastmile_qr_scan", "android": "https://dc.lft.to/lastmile_qr_scan"}, "lon": -77.008631, "bike_id": "58f36db7cc41f76c7ac1315de1d0936f", "type": "electric_scooter", "name": "58f36db7cc41f76c7ac1315de1d0936f"}, {"is_disabled": 0, "is_reserved": 0, "fusion_lat": 0.0, "lat": 38.912789333333336, "fusion_lon": 0.0, "rental_uris": {"ios": "https://dc.lft.to/lastmile_qr_scan", "android": "https://dc.lft.to/lastmile_qr_scan"}, "lon": -77.04669183333333, "bike_id": "6b5d9d4efec7d44fe3da094d2705ccbf", "type": "electric_scooter", "name": "6b5d9d4efec7d44fe3da094d2705ccbf"}, {"is_disabled": 0, "is_reserved": 0, "fusion_lat": 0.0, "lat": 38.99853733333333, "fusion_lon": 0.0, "rental_uris": {"ios": "https://dc.lft.to/lastmile_qr_scan", "android": "https://dc.lft.to/lastmile_qr_scan"}, "lon": -77.002512, "bike_id": "7f65341cfd0e3daf2ce2e0d8c3961c35", "type": "electric_bike", "name": "7f65341cfd0e3daf2ce2e0d8c3961c35"}, {"is_disabled": 0, "is_reserved": 0, "fusion_lat": 0.0, "lat": 38.87565416666666, "fusion_lon": 0.0, "rental_uris": {"ios": "https://dc.lft.to/lastmile_qr_scan", "android": "https://dc.lft.to/lastmile_qr_scan"}, "lon": -77.04707866666666, "bike_id": "07fd57c5ca38c9ac51c8a28c60efe191", "type": "electric_bike", "name": "07fd57c5ca38c9ac51c8a28c60efe191"}, {"is_disabled": 0, "is_reserved": 0, "fusion_lat": 0.0, "lat": 38.916756166666666, "fusion_lon": 0.0, "rental_uris": {"ios": "https://dc.lft.to/lastmile_qr_scan", "android": "https://dc.lft.to/lastmile_qr_scan"}, "lon": -77.02971116666667, "bike_id": "91b525513d9ef07d6127abf27b240bcb", "type": "electric_scooter", "name": "91b525513d9ef07d6127abf27b240bcb"}, {"is_disabled": 0, "is_reserved": 0, "fusion_lat": 0.0, "lat": 38.90759966666667, "fusion_lon": 0.0, "rental_uris": {"ios": "https://dc.lft.to/lastmile_qr_scan", "android": "https://dc.lft.to/lastmile_qr_scan"}, "lon": -77.00026266666667, "bike_id": "543264f0a96dad4f90d5172321ba48ba", "type": "electric_scooter", "name": "543264f0a96dad4f90d5172321ba48ba"}, {"is_disabled": 0, "is_reserved": 0, "fusion_lat": 0.0, "lat": 38.908922, "fusion_lon": 0.0, "rental_uris": {"ios": "https://dc.lft.to/lastmile_qr_scan", "android": "https://dc.lft.to/lastmile_qr_scan"}, "lon": -77.04666216666666, "bike_id": "485f95c9a3070fb050b82aad3894be05", "type": "electric_scooter", "name": "485f95c9a3070fb050b82aad3894be05"}, {"is_disabled": 0, "is_reserved": 0, "fusion_lat": 0.0, "lat": 39.0423765, "fusion_lon": 0.0, "rental_uris": {"ios": "https://dc.lft.to/lastmile_qr_scan", "android": "https://dc.lft.to/lastmile_qr_scan"}, "lon": -76.9973775, "bike_id": "5fac20617720a7621e15135cbd28dc69", "type": "electric_bike", "name": "5fac20617720a7621e15135cbd28dc69"}, {"is_disabled": 0, "is_reserved": 0, "fusion_lat": 0.0, "lat": 38.94315733333333, "fusion_lon": 0.0, "rental_uris": {"ios": "https://dc.lft.to/lastmile_qr_scan", "android": "https://dc.lft.to/lastmile_qr_scan"}, "lon": -77.01730433333333, "bike_id": "e7e1bf3431933de018f41b99609e74c0", "type": "electric_scooter", "name": "e7e1bf3431933de018f41b99609e74c0"}, {"is_disabled": 0, "is_reserved": 0, "fusion_lat": 0.0, "lat": 38.92571566666667, "fusion_lon": 0.0, "rental_uris": {"ios": "https://dc.lft.to/lastmile_qr_scan", "android": "https://dc.lft.to/lastmile_qr_scan"}, "lon": -77.031388, "bike_id": "e94da508996b7b7c81b944278cc3358b", "type": "electric_scooter", "name": "e94da508996b7b7c81b944278cc3358b"}, {"is_disabled": 0, "is_reserved": 0, "fusion_lat": 0.0, "lat": 38.943335166666664, "fusion_lon": 0.0, "rental_uris": {"ios": "https://dc.lft.to/lastmile_qr_scan", "android": "https://dc.lft.to/lastmile_qr_scan"}, "lon": -77.01550366666666, "bike_id": "decc75606c45d7d025f5ca09ba98d4bd", "type": "electric_scooter", "name": "decc75606c45d7d025f5ca09ba98d4bd"}, {"is_disabled": 0, "is_reserved": 0, "fusion_lat": 0.0, "lat": 38.88301366666666, "fusion_lon": 0.0, "rental_uris": {"ios": "https://dc.lft.to/lastmile_qr_scan", "android": "https://dc.lft.to/lastmile_qr_scan"}, "lon": -76.934925, "bike_id": "c94bfc1401bbd55460a415d1ad8b2958", "type": "electric_scooter", "name": "c94bfc1401bbd55460a415d1ad8b2958"}, {"is_disabled": 0, "is_reserved": 0, "fusion_lat": 0.0, "lat": 38.84274666666666, "fusion_lon": 0.0, "rental_uris": {"ios": "https://dc.lft.to/lastmile_qr_scan", "android": "https://dc.lft.to/lastmile_qr_scan"}, "lon": -76.9884035, "bike_id": "710fcbe4f0e443ecb288231336832352", "type": "electric_scooter", "name": "710fcbe4f0e443ecb288231336832352"}, {"is_disabled": 0, "is_reserved": 0, "fusion_lat": 0.0, "lat": 39.00647216666667, "fusion_lon": 0.0, "rental_uris": {"ios": "https://dc.lft.to/lastmile_qr_scan", "android": "https://dc.lft.to/lastmile_qr_scan"}, "lon": -76.90022383333333, "bike_id": "de1fa18f33a1da23c1f5e24a65c3f7c5", "type": "electric_bike", "name": "de1fa18f33a1da23c1f5e24a65c3f7c5"}, {"is_disabled": 0, "is_reserved": 0, "fusion_lat": 0.0, "lat": 38.9110975, "fusion_lon": 0.0, "rental_uris": {"ios": "https://dc.lft.to/lastmile_qr_scan", "android": "https://dc.lft.to/lastmile_qr_scan"}, "lon": -77.02166566666666, "bike_id": "071c2a7e74d980e3734a491634d5438e", "type": "electric_scooter", "name": "071c2a7e74d980e3734a491634d5438e"}, {"is_disabled": 0, "is_reserved": 0, "fusion_lat": 0.0, "lat": 38.89689516666667, "fusion_lon": 0.0, "rental_uris": {"ios": "https://dc.lft.to/lastmile_qr_scan", "android": "https://dc.lft.to/lastmile_qr_scan"}, "lon": -77.04891716666667, "bike_id": "7a8a4adfa879275fa5702c5caecb5c24", "type": "electric_scooter", "name": "7a8a4adfa879275fa5702c5caecb5c24"}, {"is_disabled": 0, "is_reserved": 0, "fusion_lat": 0.0, "lat": 38.90683883333333, "fusion_lon": 0.0, "rental_uris": {"ios": "https://dc.lft.to/lastmile_qr_scan", "android": "https://dc.lft.to/lastmile_qr_scan"}, "lon": -77.0628675, "bike_id": "6139f06861f2df4714935dc55dcd21db", "type": "electric_scooter", "name": "6139f06861f2df4714935dc55dcd21db"}, {"is_disabled": 0, "is_reserved": 0, "fusion_lat": 0.0, "lat": 38.90651416666667, "fusion_lon": 0.0, "rental_uris": {"ios": "https://dc.lft.to/lastmile_qr_scan", "android": "https://dc.lft.to/lastmile_qr_scan"}, "lon": -77.04548, "bike_id": "49f8fd4a5fef5591b1c42f44857c13a5", "type": "electric_scooter", "name": "49f8fd4a5fef5591b1c42f44857c13a5"}, {"is_disabled": 0, "is_reserved": 0, "fusion_lat": 0.0, "lat": 38.90149566666667, "fusion_lon": 0.0, "rental_uris": {"ios": "https://dc.lft.to/lastmile_qr_scan", "android": "https://dc.lft.to/lastmile_qr_scan"}, "lon": -76.929828, "bike_id": "cbd1b1da99546bba3df4000ef85606ea", "type": "electric_scooter", "name": "cbd1b1da99546bba3df4000ef85606ea"}, {"is_disabled": 0, "is_reserved": 0, "fusion_lat": 0.0, "lat": 38.85249133333333, "fusion_lon": 0.0, "rental_uris": {"ios": "https://dc.lft.to/lastmile_qr_scan", "android": "https://dc.lft.to/lastmile_qr_scan"}, "lon": -77.11408716666666, "bike_id": "0afb9219609964f194657cf4b9df948a", "type": "electric_bike", "name": "0afb9219609964f194657cf4b9df948a"}, {"is_disabled": 0, "is_reserved": 0, "fusion_lat": 0.0, "lat": 38.914159166666664, "fusion_lon": 0.0, "rental_uris": {"ios": "https://dc.lft.to/lastmile_qr_scan", "android": "https://dc.lft.to/lastmile_qr_scan"}, "lon": -77.024235, "bike_id": "09512c3c26ea47509c3528d307c920a5", "type": "electric_scooter", "name": "09512c3c26ea47509c3528d307c920a5"}, {"is_disabled": 0, "is_reserved": 0, "fusion_lat": 0.0, "lat": 38.895138, "fusion_lon": 0.0, "rental_uris": {"ios": "https://dc.lft.to/lastmile_qr_scan", "android": "https://dc.lft.to/lastmile_qr_scan"}, "lon": -77.0229105, "bike_id": "3424da27cc3c598d87bb22f6e64dfaac", "type": "electric_scooter", "name": "3424da27cc3c598d87bb22f6e64dfaac"}, {"is_disabled": 0, "is_reserved": 0, "fusion_lat": 0.0, "lat": 38.91043416666667, "fusion_lon": 0.0, "rental_uris": {"ios": "https://dc.lft.to/lastmile_qr_scan", "android": "https://dc.lft.to/lastmile_qr_scan"}, "lon": -76.998052, "bike_id": "1a23a3e999a45afecb5633e035461f85", "type": "electric_scooter", "name": "1a23a3e999a45afecb5633e035461f85"}, {"is_disabled": 0, "is_reserved": 0, "fusion_lat": 0.0, "lat": 38.923266166666664, "fusion_lon": 0.0, "rental_uris": {"ios": "https://dc.lft.to/lastmile_qr_scan", "android": "https://dc.lft.to/lastmile_qr_scan"}, "lon": -77.02903733333333, "bike_id": "ec7fe4ab02ce27d6f1d9239dc0f584c7", "type": "electric_scooter", "name": "ec7fe4ab02ce27d6f1d9239dc0f584c7"}, {"is_disabled": 0, "is_reserved": 0, "fusion_lat": 0.0, "lat": 38.9521575, "fusion_lon": 0.0, "rental_uris": {"ios": "https://dc.lft.to/lastmile_qr_scan", "android": "https://dc.lft.to/lastmile_qr_scan"}, "lon": -77.08863933333333, "bike_id": "98538750f0e46b9e0377fabdfb664a59", "type": "electric_scooter", "name": "98538750f0e46b9e0377fabdfb664a59"}, {"is_disabled": 0, "is_reserved": 0, "fusion_lat": 0.0, "lat": 38.904622, "fusion_lon": 0.0, "rental_uris": {"ios": "https://dc.lft.to/lastmile_qr_scan", "android": "https://dc.lft.to/lastmile_qr_scan"}, "lon": -77.03880483333333, "bike_id": "0d13667349d30271ff9385886962e812", "type": "electric_scooter", "name": "0d13667349d30271ff9385886962e812"}, {"is_disabled": 0, "is_reserved": 0, "fusion_lat": 0.0, "lat": 38.880174833333335, "fusion_lon": 0.0, "rental_uris": {"ios": "https://dc.lft.to/lastmile_qr_scan", "android": "https://dc.lft.to/lastmile_qr_scan"}, "lon": -76.9973865, "bike_id": "04c58efc06c278b8911285a2d2f67b44", "type": "electric_scooter", "name": "04c58efc06c278b8911285a2d2f67b44"}, {"is_disabled": 0, "is_reserved": 0, "fusion_lat": 0.0, "lat": 38.9272675, "fusion_lon": 0.0, "rental_uris": {"ios": "https://dc.lft.to/lastmile_qr_scan", "android": "https://dc.lft.to/lastmile_qr_scan"}, "lon": -77.05141533333334, "bike_id": "1bc748bfb597fe795e3808792cb6c489", "type": "electric_scooter", "name": "1bc748bfb597fe795e3808792cb6c489"}, {"is_disabled": 0, "is_reserved": 0, "fusion_lat": 0.0, "lat": 38.86373183333333, "fusion_lon": 0.0, "rental_uris": {"ios": "https://dc.lft.to/lastmile_qr_scan", "android": "https://dc.lft.to/lastmile_qr_scan"}, "lon": -77.01365583333333, "bike_id": "6a6db773dd631b376957bfdebfbb299e", "type": "electric_scooter", "name": "6a6db773dd631b376957bfdebfbb299e"}, {"is_disabled": 0, "is_reserved": 0, "fusion_lat": 0.0, "lat": 38.911796333333335, "fusion_lon": 0.0, "rental_uris": {"ios": "https://dc.lft.to/lastmile_qr_scan", "android": "https://dc.lft.to/lastmile_qr_scan"}, "lon": -77.06862766666667, "bike_id": "0471d4eb3861c49d03e0d7df192a659f", "type": "electric_scooter", "name": "0471d4eb3861c49d03e0d7df192a659f"}, {"is_disabled": 0, "is_reserved": 0, "fusion_lat": 0.0, "lat": 38.959247500000004, "fusion_lon": 0.0, "rental_uris": {"ios": "https://dc.lft.to/lastmile_qr_scan", "android": "https://dc.lft.to/lastmile_qr_scan"}, "lon": -76.925344, "bike_id": "fe4cdc143037324c21ed9c1d931e7c4b", "type": "electric_bike", "name": "fe4cdc143037324c21ed9c1d931e7c4b"}, {"is_disabled": 0, "is_reserved": 0, "fusion_lat": 0.0, "lat": 38.918201333333336, "fusion_lon": 0.0, "rental_uris": {"ios": "https://dc.lft.to/lastmile_qr_scan", "android": "https://dc.lft.to/lastmile_qr_scan"}, "lon": -77.01215116666667, "bike_id": "fc30f9214b31b7156cc03c58fa073266", "type": "electric_scooter", "name": "fc30f9214b31b7156cc03c58fa073266"}, {"is_disabled": 0, "is_reserved": 0, "fusion_lat": 0.0, "lat": 38.91050383333334, "fusion_lon": 0.0, "rental_uris": {"ios": "https://dc.lft.to/lastmile_qr_scan", "android": "https://dc.lft.to/lastmile_qr_scan"}, "lon": -77.0608895, "bike_id": "4d5cab4e789b890414fe1dc041973a0e", "type": "electric_scooter", "name": "4d5cab4e789b890414fe1dc041973a0e"}, {"is_disabled": 0, "is_reserved": 0, "fusion_lat": 0.0, "lat": 38.892478, "fusion_lon": 0.0, "rental_uris": {"ios": "https://dc.lft.to/lastmile_qr_scan", "android": "https://dc.lft.to/lastmile_qr_scan"}, "lon": -77.03960616666667, "bike_id": "0f9500f65e6378a10c2f7589ee40974b", "type": "electric_scooter", "name": "0f9500f65e6378a10c2f7589ee40974b"}, {"is_disabled": 0, "is_reserved": 0, "fusion_lat": 0.0, "lat": 38.90030433333333, "fusion_lon": 0.0, "rental_uris": {"ios": "https://dc.lft.to/lastmile_qr_scan", "android": "https://dc.lft.to/lastmile_qr_scan"}, "lon": -76.992316, "bike_id": "b174872aa9ddeab2d531792528f4e54f", "type": "electric_scooter", "name": "b174872aa9ddeab2d531792528f4e54f"}, {"is_disabled": 0, "is_reserved": 0, "fusion_lat": 0.0, "lat": 38.926582333333336, "fusion_lon": 0.0, "rental_uris": {"ios": "https://dc.lft.to/lastmile_qr_scan", "android": "https://dc.lft.to/lastmile_qr_scan"}, "lon": -77.03310066666667, "bike_id": "9803ff99a037d2aa4a82e7d9d276a4c2", "type": "electric_scooter", "name": "9803ff99a037d2aa4a82e7d9d276a4c2"}, {"is_disabled": 0, "is_reserved": 0, "fusion_lat": 0.0, "lat": 38.927060833333336, "fusion_lon": 0.0, "rental_uris": {"ios": "https://dc.lft.to/lastmile_qr_scan", "android": "https://dc.lft.to/lastmile_qr_scan"}, "lon": -77.03732166666667, "bike_id": "8eeed0ab4e2547feb7f2a2e4a8dc05f5", "type": "electric_scooter", "name": "8eeed0ab4e2547feb7f2a2e4a8dc05f5"}, {"is_disabled": 0, "is_reserved": 0, "fusion_lat": 0.0, "lat": 38.89957833333333, "fusion_lon": 0.0, "rental_uris": {"ios": "https://dc.lft.to/lastmile_qr_scan", "android": "https://dc.lft.to/lastmile_qr_scan"}, "lon": -77.0477015, "bike_id": "e421dae526390b51aca7522f2356de3a", "type": "electric_scooter", "name": "e421dae526390b51aca7522f2356de3a"}, {"is_disabled": 0, "is_reserved": 0, "fusion_lat": 0.0, "lat": 38.8988395, "fusion_lon": 0.0, "rental_uris": {"ios": "https://dc.lft.to/lastmile_qr_scan", "android": "https://dc.lft.to/lastmile_qr_scan"}, "lon": -76.93177383333334, "bike_id": "31d33525b75a7b28be0f5e9a0db71c1c", "type": "electric_scooter", "name": "31d33525b75a7b28be0f5e9a0db71c1c"}, {"is_disabled": 0, "is_reserved": 0, "fusion_lat": 0.0, "lat": 38.943706, "fusion_lon": 0.0, "rental_uris": {"ios": "https://dc.lft.to/lastmile_qr_scan", "android": "https://dc.lft.to/lastmile_qr_scan"}, "lon": -77.06104416666666, "bike_id": "253c2c12172ee2f7f21edc2213eeb1f3", "type": "electric_scooter", "name": "253c2c12172ee2f7f21edc2213eeb1f3"}, {"is_disabled": 0, "is_reserved": 0, "fusion_lat": 0.0, "lat": 38.93526633333333, "fusion_lon": 0.0, "rental_uris": {"ios": "https://dc.lft.to/lastmile_qr_scan", "android": "https://dc.lft.to/lastmile_qr_scan"}, "lon": -77.03818433333333, "bike_id": "b6fde6cb4d484525d049ab60dedc1396", "type": "electric_scooter", "name": "b6fde6cb4d484525d049ab60dedc1396"}, {"is_disabled": 0, "is_reserved": 0, "fusion_lat": 0.0, "lat": 38.914966166666666, "fusion_lon": 0.0, "rental_uris": {"ios": "https://dc.lft.to/lastmile_qr_scan", "android": "https://dc.lft.to/lastmile_qr_scan"}, "lon": -77.04945483333333, "bike_id": "d5aaa55791691fa035cdcac65f5c6ea0", "type": "electric_scooter", "name": "d5aaa55791691fa035cdcac65f5c6ea0"}, {"is_disabled": 0, "is_reserved": 0, "fusion_lat": 0.0, "lat": 38.911335333333334, "fusion_lon": 0.0, "rental_uris": {"ios": "https://dc.lft.to/lastmile_qr_scan", "android": "https://dc.lft.to/lastmile_qr_scan"}, "lon": -77.065772, "bike_id": "098fccde29b5c410ede3b12bd15f4525", "type": "electric_bike", "name": "098fccde29b5c410ede3b12bd15f4525"}, {"is_disabled": 0, "is_reserved": 0, "fusion_lat": 0.0, "lat": 38.89423933333333, "fusion_lon": 0.0, "rental_uris": {"ios": "https://dc.lft.to/lastmile_qr_scan", "android": "https://dc.lft.to/lastmile_qr_scan"}, "lon": -77.02132466666667, "bike_id": "8afaeef19363f76c16488a8be4b258c1", "type": "electric_scooter", "name": "8afaeef19363f76c16488a8be4b258c1"}, {"is_disabled": 0, "is_reserved": 0, "fusion_lat": 0.0, "lat": 38.937051333333336, "fusion_lon": 0.0, "rental_uris": {"ios": "https://dc.lft.to/lastmile_qr_scan", "android": "https://dc.lft.to/lastmile_qr_scan"}, "lon": -77.056855, "bike_id": "3b86ba1f1ce9ec0a5f89014fe35b6a5b", "type": "electric_scooter", "name": "3b86ba1f1ce9ec0a5f89014fe35b6a5b"}, {"is_disabled": 0, "is_reserved": 0, "fusion_lat": 0.0, "lat": 38.961736333333334, "fusion_lon": 0.0, "rental_uris": {"ios": "https://dc.lft.to/lastmile_qr_scan", "android": "https://dc.lft.to/lastmile_qr_scan"}, "lon": -77.0322875, "bike_id": "cec7c913e82c9c1f16b46b519fd0aa7b", "type": "electric_scooter", "name": "cec7c913e82c9c1f16b46b519fd0aa7b"}, {"is_disabled": 0, "is_reserved": 0, "fusion_lat": 0.0, "lat": 38.9246345, "fusion_lon": 0.0, "rental_uris": {"ios": "https://dc.lft.to/lastmile_qr_scan", "android": "https://dc.lft.to/lastmile_qr_scan"}, "lon": -77.03296133333333, "bike_id": "e6b401b4ee04c4566a75a1d9cf5997ce", "type": "electric_scooter", "name": "e6b401b4ee04c4566a75a1d9cf5997ce"}, {"is_disabled": 0, "is_reserved": 0, "fusion_lat": 0.0, "lat": 38.949778333333335, "fusion_lon": 0.0, "rental_uris": {"ios": "https://dc.lft.to/lastmile_qr_scan", "android": "https://dc.lft.to/lastmile_qr_scan"}, "lon": -77.02447116666667, "bike_id": "95db1353ad4a89ab3a4a81b72d8054d4", "type": "electric_scooter", "name": "95db1353ad4a89ab3a4a81b72d8054d4"}, {"is_disabled": 0, "is_reserved": 0, "fusion_lat": 0.0, "lat": 38.92450383333333, "fusion_lon": 0.0, "rental_uris": {"ios": "https://dc.lft.to/lastmile_qr_scan", "android": "https://dc.lft.to/lastmile_qr_scan"}, "lon": -77.03302383333333, "bike_id": "5654a839d9acb58eccd7994431bedc2a", "type": "electric_scooter", "name": "5654a839d9acb58eccd7994431bedc2a"}, {"is_disabled": 0, "is_reserved": 0, "fusion_lat": 0.0, "lat": 38.8953265, "fusion_lon": 0.0, "rental_uris": {"ios": "https://dc.lft.to/lastmile_qr_scan", "android": "https://dc.lft.to/lastmile_qr_scan"}, "lon": -76.948942, "bike_id": "01f84ef31cc359ec341792881ce513f2", "type": "electric_scooter", "name": "01f84ef31cc359ec341792881ce513f2"}, {"is_disabled": 0, "is_reserved": 0, "fusion_lat": 0.0, "lat": 38.906508333333335, "fusion_lon": 0.0, "rental_uris": {"ios": "https://dc.lft.to/lastmile_qr_scan", "android": "https://dc.lft.to/lastmile_qr_scan"}, "lon": -77.011729, "bike_id": "63728bb3ac68f2a8ebd61ae1c0149489", "type": "electric_scooter", "name": "63728bb3ac68f2a8ebd61ae1c0149489"}, {"is_disabled": 0, "is_reserved": 0, "fusion_lat": 0.0, "lat": 38.895035, "fusion_lon": 0.0, "rental_uris": {"ios": "https://dc.lft.to/lastmile_qr_scan", "android": "https://dc.lft.to/lastmile_qr_scan"}, "lon": -77.03961266666667, "bike_id": "eeba481525ba29d0d3a00e5d86189e4f", "type": "electric_scooter", "name": "eeba481525ba29d0d3a00e5d86189e4f"}, {"is_disabled": 0, "is_reserved": 0, "fusion_lat": 0.0, "lat": 38.91713033333333, "fusion_lon": 0.0, "rental_uris": {"ios": "https://dc.lft.to/lastmile_qr_scan", "android": "https://dc.lft.to/lastmile_qr_scan"}, "lon": -77.02301233333333, "bike_id": "b8a02979c705ac98fa7faa19b56aac9d", "type": "electric_scooter", "name": "b8a02979c705ac98fa7faa19b56aac9d"}, {"is_disabled": 0, "is_reserved": 0, "fusion_lat": 0.0, "lat": 38.93351966666667, "fusion_lon": 0.0, "rental_uris": {"ios": "https://dc.lft.to/lastmile_qr_scan", "android": "https://dc.lft.to/lastmile_qr_scan"}, "lon": -77.02564616666666, "bike_id": "3615d7072f139d6caf53003bfa107607", "type": "electric_scooter", "name": "3615d7072f139d6caf53003bfa107607"}, {"is_disabled": 0, "is_reserved": 0, "fusion_lat": 0.0, "lat": 38.89200266666667, "fusion_lon": 0.0, "rental_uris": {"ios": "https://dc.lft.to/lastmile_qr_scan", "android": "https://dc.lft.to/lastmile_qr_scan"}, "lon": -77.00295966666667, "bike_id": "a6e0010f1f2ed1563d246a4bfad5eb2e", "type": "electric_scooter", "name": "a6e0010f1f2ed1563d246a4bfad5eb2e"}, {"is_disabled": 0, "is_reserved": 0, "fusion_lat": 0.0, "lat": 38.80732033333334, "fusion_lon": 0.0, "rental_uris": {"ios": "https://dc.lft.to/lastmile_qr_scan", "android": "https://dc.lft.to/lastmile_qr_scan"}, "lon": -76.99265366666667, "bike_id": "e36ce7951b5d4292ebc75906de194e86", "type": "electric_bike", "name": "e36ce7951b5d4292ebc75906de194e86"}, {"is_disabled": 0, "is_reserved": 0, "fusion_lat": 0.0, "lat": 38.92447766666667, "fusion_lon": 0.0, "rental_uris": {"ios": "https://dc.lft.to/lastmile_qr_scan", "android": "https://dc.lft.to/lastmile_qr_scan"}, "lon": -77.02036033333333, "bike_id": "4498d207e1a6f745caf2da648e1b6431", "type": "electric_scooter", "name": "4498d207e1a6f745caf2da648e1b6431"}, {"is_disabled": 0, "is_reserved": 0, "fusion_lat": 0.0, "lat": 38.89197766666667, "fusion_lon": 0.0, "rental_uris": {"ios": "https://dc.lft.to/lastmile_qr_scan", "android": "https://dc.lft.to/lastmile_qr_scan"}, "lon": -76.99862783333333, "bike_id": "41e73b505f59d6d4fe685a0b4a82a109", "type": "electric_scooter", "name": "41e73b505f59d6d4fe685a0b4a82a109"}, {"is_disabled": 0, "is_reserved": 0, "fusion_lat": 0.0, "lat": 38.92169583333333, "fusion_lon": 0.0, "rental_uris": {"ios": "https://dc.lft.to/lastmile_qr_scan", "android": "https://dc.lft.to/lastmile_qr_scan"}, "lon": -76.99855583333333, "bike_id": "e80bca9a4cf19ba1d78d4146ef46d046", "type": "electric_scooter", "name": "e80bca9a4cf19ba1d78d4146ef46d046"}, {"is_disabled": 0, "is_reserved": 0, "fusion_lat": 0.0, "lat": 38.909207333333335, "fusion_lon": 0.0, "rental_uris": {"ios": "https://dc.lft.to/lastmile_qr_scan", "android": "https://dc.lft.to/lastmile_qr_scan"}, "lon": -77.04941883333333, "bike_id": "4104e6b5ef250dcfb0072baa4a3cbd19", "type": "electric_scooter", "name": "4104e6b5ef250dcfb0072baa4a3cbd19"}, {"is_disabled": 0, "is_reserved": 0, "fusion_lat": 0.0, "lat": 38.910312833333336, "fusion_lon": 0.0, "rental_uris": {"ios": "https://dc.lft.to/lastmile_qr_scan", "android": "https://dc.lft.to/lastmile_qr_scan"}, "lon": -76.92332183333333, "bike_id": "0b8f6ed6854cfd6d48584b50bfbb7fb8", "type": "electric_bike", "name": "0b8f6ed6854cfd6d48584b50bfbb7fb8"}, {"is_disabled": 0, "is_reserved": 0, "fusion_lat": 0.0, "lat": 38.925032333333334, "fusion_lon": 0.0, "rental_uris": {"ios": "https://dc.lft.to/lastmile_qr_scan", "android": "https://dc.lft.to/lastmile_qr_scan"}, "lon": -77.02357883333333, "bike_id": "6682925a60cf07075f10a96e3dfadacd", "type": "electric_scooter", "name": "6682925a60cf07075f10a96e3dfadacd"}, {"is_disabled": 0, "is_reserved": 0, "fusion_lat": 0.0, "lat": 38.932596833333335, "fusion_lon": 0.0, "rental_uris": {"ios": "https://dc.lft.to/lastmile_qr_scan", "android": "https://dc.lft.to/lastmile_qr_scan"}, "lon": -77.02939866666667, "bike_id": "a8ecfd2f51159a91250d02bf4aa8c792", "type": "electric_scooter", "name": "a8ecfd2f51159a91250d02bf4aa8c792"}, {"is_disabled": 0, "is_reserved": 0, "fusion_lat": 0.0, "lat": 38.91353183333333, "fusion_lon": 0.0, "rental_uris": {"ios": "https://dc.lft.to/lastmile_qr_scan", "android": "https://dc.lft.to/lastmile_qr_scan"}, "lon": -76.97140666666667, "bike_id": "09eb3ddd2caffd03c18cf50997785227", "type": "electric_scooter", "name": "09eb3ddd2caffd03c18cf50997785227"}, {"is_disabled": 0, "is_reserved": 0, "fusion_lat": 0.0, "lat": 38.929791333333334, "fusion_lon": 0.0, "rental_uris": {"ios": "https://dc.lft.to/lastmile_qr_scan", "android": "https://dc.lft.to/lastmile_qr_scan"}, "lon": -77.03891033333333, "bike_id": "98802f8b1c350ff870318293b8f3c7a0", "type": "electric_scooter", "name": "98802f8b1c350ff870318293b8f3c7a0"}, {"is_disabled": 0, "is_reserved": 0, "fusion_lat": 0.0, "lat": 38.899365833333334, "fusion_lon": 0.0, "rental_uris": {"ios": "https://dc.lft.to/lastmile_qr_scan", "android": "https://dc.lft.to/lastmile_qr_scan"}, "lon": -77.01508983333333, "bike_id": "dc0feb3182e8ac90e9e0817774518034", "type": "electric_scooter", "name": "dc0feb3182e8ac90e9e0817774518034"}, {"is_disabled": 0, "is_reserved": 0, "fusion_lat": 0.0, "lat": 38.9000405, "fusion_lon": 0.0, "rental_uris": {"ios": "https://dc.lft.to/lastmile_qr_scan", "android": "https://dc.lft.to/lastmile_qr_scan"}, "lon": -77.006734, "bike_id": "d821358d9583806090126633afc001f2", "type": "electric_scooter", "name": "d821358d9583806090126633afc001f2"}, {"is_disabled": 0, "is_reserved": 0, "fusion_lat": 0.0, "lat": 38.93365516666667, "fusion_lon": 0.0, "rental_uris": {"ios": "https://dc.lft.to/lastmile_qr_scan", "android": "https://dc.lft.to/lastmile_qr_scan"}, "lon": -77.0388755, "bike_id": "cf607f0bd9c7bf9695e152e46b6ac059", "type": "electric_scooter", "name": "cf607f0bd9c7bf9695e152e46b6ac059"}, {"is_disabled": 0, "is_reserved": 0, "fusion_lat": 0.0, "lat": 38.9167885, "fusion_lon": 0.0, "rental_uris": {"ios": "https://dc.lft.to/lastmile_qr_scan", "android": "https://dc.lft.to/lastmile_qr_scan"}, "lon": -77.02976066666666, "bike_id": "76de83802c4b0f81eb9da9734e8cb805", "type": "electric_scooter", "name": "76de83802c4b0f81eb9da9734e8cb805"}, {"is_disabled": 0, "is_reserved": 0, "fusion_lat": 0.0, "lat": 38.930018, "fusion_lon": 0.0, "rental_uris": {"ios": "https://dc.lft.to/lastmile_qr_scan", "android": "https://dc.lft.to/lastmile_qr_scan"}, "lon": -77.03806283333333, "bike_id": "601c4966b6874760fa89cdcb6e6def6b", "type": "electric_scooter", "name": "601c4966b6874760fa89cdcb6e6def6b"}, {"is_disabled": 0, "is_reserved": 0, "fusion_lat": 0.0, "lat": 38.9563325, "fusion_lon": 0.0, "rental_uris": {"ios": "https://dc.lft.to/lastmile_qr_scan", "android": "https://dc.lft.to/lastmile_qr_scan"}, "lon": -77.036323, "bike_id": "3dca90eb5f43d3d867c5a0b6cf170fc5", "type": "electric_scooter", "name": "3dca90eb5f43d3d867c5a0b6cf170fc5"}, {"is_disabled": 0, "is_reserved": 0, "fusion_lat": 0.0, "lat": 38.926565, "fusion_lon": 0.0, "rental_uris": {"ios": "https://dc.lft.to/lastmile_qr_scan", "android": "https://dc.lft.to/lastmile_qr_scan"}, "lon": -76.992995, "bike_id": "3b19458e63483fa4293691c2d722b382", "type": "electric_scooter", "name": "3b19458e63483fa4293691c2d722b382"}, {"is_disabled": 0, "is_reserved": 0, "fusion_lat": 0.0, "lat": 38.89338266666667, "fusion_lon": 0.0, "rental_uris": {"ios": "https://dc.lft.to/lastmile_qr_scan", "android": "https://dc.lft.to/lastmile_qr_scan"}, "lon": -76.92894016666666, "bike_id": "d6244bcd7566c50272c34eb299e28b26", "type": "electric_scooter", "name": "d6244bcd7566c50272c34eb299e28b26"}, {"is_disabled": 0, "is_reserved": 0, "fusion_lat": 0.0, "lat": 38.893408, "fusion_lon": 0.0, "rental_uris": {"ios": "https://dc.lft.to/lastmile_qr_scan", "android": "https://dc.lft.to/lastmile_qr_scan"}, "lon": -76.993829, "bike_id": "40aa3de6e9a22c0d1a227f77ca137ab5", "type": "electric_scooter", "name": "40aa3de6e9a22c0d1a227f77ca137ab5"}, {"is_disabled": 0, "is_reserved": 0, "fusion_lat": 0.0, "lat": 38.89279066666667, "fusion_lon": 0.0, "rental_uris": {"ios": "https://dc.lft.to/lastmile_qr_scan", "android": "https://dc.lft.to/lastmile_qr_scan"}, "lon": -77.0450505, "bike_id": "dc21d37a7ab4d92f5b2868b0e4d08fee", "type": "electric_scooter", "name": "dc21d37a7ab4d92f5b2868b0e4d08fee"}, {"is_disabled": 0, "is_reserved": 0, "fusion_lat": 0.0, "lat": 38.923593333333336, "fusion_lon": 0.0, "rental_uris": {"ios": "https://dc.lft.to/lastmile_qr_scan", "android": "https://dc.lft.to/lastmile_qr_scan"}, "lon": -77.052816, "bike_id": "1d5973e9a39cb81089f0a0d847ee200c", "type": "electric_scooter", "name": "1d5973e9a39cb81089f0a0d847ee200c"}, {"is_disabled": 0, "is_reserved": 0, "fusion_lat": 0.0, "lat": 38.91832083333333, "fusion_lon": 0.0, "rental_uris": {"ios": "https://dc.lft.to/lastmile_qr_scan", "android": "https://dc.lft.to/lastmile_qr_scan"}, "lon": -77.05316716666667, "bike_id": "292f8ff93759573350a8d918ff534588", "type": "electric_scooter", "name": "292f8ff93759573350a8d918ff534588"}, {"is_disabled": 0, "is_reserved": 0, "fusion_lat": 0.0, "lat": 38.9104175, "fusion_lon": 0.0, "rental_uris": {"ios": "https://dc.lft.to/lastmile_qr_scan", "android": "https://dc.lft.to/lastmile_qr_scan"}, "lon": -76.99800933333333, "bike_id": "903370ad80def5056aa281f9552e827e", "type": "electric_scooter", "name": "903370ad80def5056aa281f9552e827e"}, {"is_disabled": 0, "is_reserved": 0, "fusion_lat": 0.0, "lat": 38.924229833333335, "fusion_lon": 0.0, "rental_uris": {"ios": "https://dc.lft.to/lastmile_qr_scan", "android": "https://dc.lft.to/lastmile_qr_scan"}, "lon": -77.05753916666667, "bike_id": "d7dad848e97d6d815cd3234ce26df1d4", "type": "electric_scooter", "name": "d7dad848e97d6d815cd3234ce26df1d4"}, {"is_disabled": 0, "is_reserved": 0, "fusion_lat": 0.0, "lat": 38.840959, "fusion_lon": 0.0, "rental_uris": {"ios": "https://dc.lft.to/lastmile_qr_scan", "android": "https://dc.lft.to/lastmile_qr_scan"}, "lon": -76.98719383333334, "bike_id": "5b6980ffc1f589070f496a269ac38fe3", "type": "electric_bike", "name": "5b6980ffc1f589070f496a269ac38fe3"}, {"is_disabled": 0, "is_reserved": 0, "fusion_lat": 0.0, "lat": 38.905538, "fusion_lon": 0.0, "rental_uris": {"ios": "https://dc.lft.to/lastmile_qr_scan", "android": "https://dc.lft.to/lastmile_qr_scan"}, "lon": -77.00430866666666, "bike_id": "75c81daad33f924df925f2df54e2fd80", "type": "electric_scooter", "name": "75c81daad33f924df925f2df54e2fd80"}, {"is_disabled": 0, "is_reserved": 0, "fusion_lat": 0.0, "lat": 38.901845333333334, "fusion_lon": 0.0, "rental_uris": {"ios": "https://dc.lft.to/lastmile_qr_scan", "android": "https://dc.lft.to/lastmile_qr_scan"}, "lon": -77.0021465, "bike_id": "df83264e3e738f51ef780fa56333a225", "type": "electric_scooter", "name": "df83264e3e738f51ef780fa56333a225"}, {"is_disabled": 0, "is_reserved": 0, "fusion_lat": 0.0, "lat": 38.92155133333333, "fusion_lon": 0.0, "rental_uris": {"ios": "https://dc.lft.to/lastmile_qr_scan", "android": "https://dc.lft.to/lastmile_qr_scan"}, "lon": -77.0366315, "bike_id": "00bd05f23bf1d7e9e2301b0130e5055a", "type": "electric_scooter", "name": "00bd05f23bf1d7e9e2301b0130e5055a"}, {"is_disabled": 0, "is_reserved": 0, "fusion_lat": 0.0, "lat": 38.9066635, "fusion_lon": 0.0, "rental_uris": {"ios": "https://dc.lft.to/lastmile_qr_scan", "android": "https://dc.lft.to/lastmile_qr_scan"}, "lon": -77.0295545, "bike_id": "6773bbc192ec76b391403d1abb64b652", "type": "electric_scooter", "name": "6773bbc192ec76b391403d1abb64b652"}, {"is_disabled": 0, "is_reserved": 0, "fusion_lat": 0.0, "lat": 38.908651166666665, "fusion_lon": 0.0, "rental_uris": {"ios": "https://dc.lft.to/lastmile_qr_scan", "android": "https://dc.lft.to/lastmile_qr_scan"}, "lon": -77.04708166666667, "bike_id": "27ac903b50f76ee0b7c33327d3ed6561", "type": "electric_scooter", "name": "27ac903b50f76ee0b7c33327d3ed6561"}, {"is_disabled": 0, "is_reserved": 0, "fusion_lat": 0.0, "lat": 38.904528166666665, "fusion_lon": 0.0, "rental_uris": {"ios": "https://dc.lft.to/lastmile_qr_scan", "android": "https://dc.lft.to/lastmile_qr_scan"}, "lon": -76.93280316666667, "bike_id": "570dad185912fd4c362d3376516aa8d1", "type": "electric_scooter", "name": "570dad185912fd4c362d3376516aa8d1"}, {"is_disabled": 0, "is_reserved": 0, "fusion_lat": 0.0, "lat": 38.90649333333333, "fusion_lon": 0.0, "rental_uris": {"ios": "https://dc.lft.to/lastmile_qr_scan", "android": "https://dc.lft.to/lastmile_qr_scan"}, "lon": -77.03469816666667, "bike_id": "bd1a6ad75996c4800cfcff81788cdcd0", "type": "electric_scooter", "name": "bd1a6ad75996c4800cfcff81788cdcd0"}, {"is_disabled": 0, "is_reserved": 0, "fusion_lat": 0.0, "lat": 38.92867016666667, "fusion_lon": 0.0, "rental_uris": {"ios": "https://dc.lft.to/lastmile_qr_scan", "android": "https://dc.lft.to/lastmile_qr_scan"}, "lon": -77.02965883333333, "bike_id": "6d183a4dac2aa01eef2150c9fb61138d", "type": "electric_scooter", "name": "6d183a4dac2aa01eef2150c9fb61138d"}, {"is_disabled": 0, "is_reserved": 0, "fusion_lat": 0.0, "lat": 38.939871833333335, "fusion_lon": 0.0, "rental_uris": {"ios": "https://dc.lft.to/lastmile_qr_scan", "android": "https://dc.lft.to/lastmile_qr_scan"}, "lon": -77.0288645, "bike_id": "8c5f40632c3a7f5fe7fd20768dbf8602", "type": "electric_scooter", "name": "8c5f40632c3a7f5fe7fd20768dbf8602"}, {"is_disabled": 0, "is_reserved": 0, "fusion_lat": 0.0, "lat": 38.898312, "fusion_lon": 0.0, "rental_uris": {"ios": "https://dc.lft.to/lastmile_qr_scan", "android": "https://dc.lft.to/lastmile_qr_scan"}, "lon": -76.990182, "bike_id": "c2cf170a37e07608168f6cde7df410bd", "type": "electric_scooter", "name": "c2cf170a37e07608168f6cde7df410bd"}, {"is_disabled": 0, "is_reserved": 0, "fusion_lat": 0.0, "lat": 38.921999666666665, "fusion_lon": 0.0, "rental_uris": {"ios": "https://dc.lft.to/lastmile_qr_scan", "android": "https://dc.lft.to/lastmile_qr_scan"}, "lon": -77.01839516666666, "bike_id": "5965251cb80830b4bccc213b092688db", "type": "electric_scooter", "name": "5965251cb80830b4bccc213b092688db"}, {"is_disabled": 0, "is_reserved": 0, "fusion_lat": 0.0, "lat": 38.9278235, "fusion_lon": 0.0, "rental_uris": {"ios": "https://dc.lft.to/lastmile_qr_scan", "android": "https://dc.lft.to/lastmile_qr_scan"}, "lon": -77.02963833333334, "bike_id": "7a5697e3ae8df418e6644222d535b06c", "type": "electric_bike", "name": "7a5697e3ae8df418e6644222d535b06c"}, {"is_disabled": 0, "is_reserved": 0, "fusion_lat": 0.0, "lat": 38.91497866666667, "fusion_lon": 0.0, "rental_uris": {"ios": "https://dc.lft.to/lastmile_qr_scan", "android": "https://dc.lft.to/lastmile_qr_scan"}, "lon": -77.021224, "bike_id": "82173cf4aa4cee20ae45770af2aa0cf4", "type": "electric_scooter", "name": "82173cf4aa4cee20ae45770af2aa0cf4"}, {"is_disabled": 0, "is_reserved": 0, "fusion_lat": 0.0, "lat": 38.8985135, "fusion_lon": 0.0, "rental_uris": {"ios": "https://dc.lft.to/lastmile_qr_scan", "android": "https://dc.lft.to/lastmile_qr_scan"}, "lon": -77.00196133333333, "bike_id": "53b751365341ac8aa2b7bbd6d67b3d55", "type": "electric_scooter", "name": "53b751365341ac8aa2b7bbd6d67b3d55"}, {"is_disabled": 0, "is_reserved": 0, "fusion_lat": 0.0, "lat": 38.8463135, "fusion_lon": 0.0, "rental_uris": {"ios": "https://dc.lft.to/lastmile_qr_scan", "android": "https://dc.lft.to/lastmile_qr_scan"}, "lon": -76.96901783333334, "bike_id": "03c4116c548334d0be7032b200be7762", "type": "electric_bike", "name": "03c4116c548334d0be7032b200be7762"}, {"is_disabled": 0, "is_reserved": 0, "fusion_lat": 0.0, "lat": 38.920605333333334, "fusion_lon": 0.0, "rental_uris": {"ios": "https://dc.lft.to/lastmile_qr_scan", "android": "https://dc.lft.to/lastmile_qr_scan"}, "lon": -77.04542166666667, "bike_id": "32e24b6483c2bd89d2eadd6dd33321d0", "type": "electric_scooter", "name": "32e24b6483c2bd89d2eadd6dd33321d0"}, {"is_disabled": 0, "is_reserved": 0, "fusion_lat": 0.0, "lat": 38.904996, "fusion_lon": 0.0, "rental_uris": {"ios": "https://dc.lft.to/lastmile_qr_scan", "android": "https://dc.lft.to/lastmile_qr_scan"}, "lon": -77.02586533333333, "bike_id": "1d7bee272c3f21f8194ae958bd85c850", "type": "electric_scooter", "name": "1d7bee272c3f21f8194ae958bd85c850"}, {"is_disabled": 0, "is_reserved": 0, "fusion_lat": 0.0, "lat": 38.97474116666667, "fusion_lon": 0.0, "rental_uris": {"ios": "https://dc.lft.to/lastmile_qr_scan", "android": "https://dc.lft.to/lastmile_qr_scan"}, "lon": -76.98673266666667, "bike_id": "4fcbc8cffa5b7323393bbf12194a40cc", "type": "electric_bike", "name": "4fcbc8cffa5b7323393bbf12194a40cc"}, {"is_disabled": 0, "is_reserved": 0, "fusion_lat": 0.0, "lat": 38.83488966666667, "fusion_lon": 0.0, "rental_uris": {"ios": "https://dc.lft.to/lastmile_qr_scan", "android": "https://dc.lft.to/lastmile_qr_scan"}, "lon": -77.00433333333334, "bike_id": "216d904f22a913a1d4383102958f34bd", "type": "electric_bike", "name": "216d904f22a913a1d4383102958f34bd"}, {"is_disabled": 0, "is_reserved": 0, "fusion_lat": 0.0, "lat": 39.022957, "fusion_lon": 0.0, "rental_uris": {"ios": "https://dc.lft.to/lastmile_qr_scan", "android": "https://dc.lft.to/lastmile_qr_scan"}, "lon": -77.02108716666666, "bike_id": "146e92f0cbfe9b49a6160ecf352471ce", "type": "electric_bike", "name": "146e92f0cbfe9b49a6160ecf352471ce"}, {"is_disabled": 0, "is_reserved": 0, "fusion_lat": 0.0, "lat": 38.91923933333333, "fusion_lon": 0.0, "rental_uris": {"ios": "https://dc.lft.to/lastmile_qr_scan", "android": "https://dc.lft.to/lastmile_qr_scan"}, "lon": -77.02444283333334, "bike_id": "69f4e3c03c850f3bdf0d292a964931de", "type": "electric_scooter", "name": "69f4e3c03c850f3bdf0d292a964931de"}, {"is_disabled": 0, "is_reserved": 0, "fusion_lat": 0.0, "lat": 38.9273565, "fusion_lon": 0.0, "rental_uris": {"ios": "https://dc.lft.to/lastmile_qr_scan", "android": "https://dc.lft.to/lastmile_qr_scan"}, "lon": -77.02277766666667, "bike_id": "1bec6458d66d589876a46eeca7740875", "type": "electric_scooter", "name": "1bec6458d66d589876a46eeca7740875"}, {"is_disabled": 0, "is_reserved": 0, "fusion_lat": 0.0, "lat": 38.90601733333333, "fusion_lon": 0.0, "rental_uris": {"ios": "https://dc.lft.to/lastmile_qr_scan", "android": "https://dc.lft.to/lastmile_qr_scan"}, "lon": -77.02115166666667, "bike_id": "12f934cab3219381a3afc49ac0de4118", "type": "electric_scooter", "name": "12f934cab3219381a3afc49ac0de4118"}, {"is_disabled": 0, "is_reserved": 0, "fusion_lat": 0.0, "lat": 38.917384166666665, "fusion_lon": 0.0, "rental_uris": {"ios": "https://dc.lft.to/lastmile_qr_scan", "android": "https://dc.lft.to/lastmile_qr_scan"}, "lon": -77.02602883333333, "bike_id": "9d8684048d83506e8bf230f22d3f6c5a", "type": "electric_scooter", "name": "9d8684048d83506e8bf230f22d3f6c5a"}, {"is_disabled": 0, "is_reserved": 0, "fusion_lat": 0.0, "lat": 38.9259585, "fusion_lon": 0.0, "rental_uris": {"ios": "https://dc.lft.to/lastmile_qr_scan", "android": "https://dc.lft.to/lastmile_qr_scan"}, "lon": -77.024998, "bike_id": "742536f5b7ac0f1f63cfd3bf92cb23ed", "type": "electric_scooter", "name": "742536f5b7ac0f1f63cfd3bf92cb23ed"}, {"is_disabled": 0, "is_reserved": 0, "fusion_lat": 0.0, "lat": 38.890842166666665, "fusion_lon": 0.0, "rental_uris": {"ios": "https://dc.lft.to/lastmile_qr_scan", "android": "https://dc.lft.to/lastmile_qr_scan"}, "lon": -76.95466216666667, "bike_id": "eb51c7f291b5121c84b6731a7cafc177", "type": "electric_bike", "name": "eb51c7f291b5121c84b6731a7cafc177"}, {"is_disabled": 0, "is_reserved": 0, "fusion_lat": 0.0, "lat": 38.930617, "fusion_lon": 0.0, "rental_uris": {"ios": "https://dc.lft.to/lastmile_qr_scan", "android": "https://dc.lft.to/lastmile_qr_scan"}, "lon": -76.9732895, "bike_id": "b2b85d3fafa8542d352d23539f604940", "type": "electric_scooter", "name": "b2b85d3fafa8542d352d23539f604940"}, {"is_disabled": 0, "is_reserved": 0, "fusion_lat": 0.0, "lat": 38.956374333333336, "fusion_lon": 0.0, "rental_uris": {"ios": "https://dc.lft.to/lastmile_qr_scan", "android": "https://dc.lft.to/lastmile_qr_scan"}, "lon": -77.036307, "bike_id": "d569ff489749b8bdbcb9a1f362436909", "type": "electric_scooter", "name": "d569ff489749b8bdbcb9a1f362436909"}, {"is_disabled": 0, "is_reserved": 0, "fusion_lat": 0.0, "lat": 38.93340233333333, "fusion_lon": 0.0, "rental_uris": {"ios": "https://dc.lft.to/lastmile_qr_scan", "android": "https://dc.lft.to/lastmile_qr_scan"}, "lon": -77.01936833333333, "bike_id": "57d092cc460849a5446b140b6c3b4a22", "type": "electric_scooter", "name": "57d092cc460849a5446b140b6c3b4a22"}, {"is_disabled": 0, "is_reserved": 0, "fusion_lat": 0.0, "lat": 38.93525233333333, "fusion_lon": 0.0, "rental_uris": {"ios": "https://dc.lft.to/lastmile_qr_scan", "android": "https://dc.lft.to/lastmile_qr_scan"}, "lon": -77.02849283333333, "bike_id": "46634dcf561cf3798b9fdc60104e7d35", "type": "electric_scooter", "name": "46634dcf561cf3798b9fdc60104e7d35"}, {"is_disabled": 0, "is_reserved": 0, "fusion_lat": 0.0, "lat": 38.9193895, "fusion_lon": 0.0, "rental_uris": {"ios": "https://dc.lft.to/lastmile_qr_scan", "android": "https://dc.lft.to/lastmile_qr_scan"}, "lon": -77.02319466666667, "bike_id": "a629270a2b348792edcc11e341fb1411", "type": "electric_scooter", "name": "a629270a2b348792edcc11e341fb1411"}, {"is_disabled": 0, "is_reserved": 0, "fusion_lat": 0.0, "lat": 38.90038033333333, "fusion_lon": 0.0, "rental_uris": {"ios": "https://dc.lft.to/lastmile_qr_scan", "android": "https://dc.lft.to/lastmile_qr_scan"}, "lon": -77.003704, "bike_id": "8eea629f365e1c89afd974a761868e63", "type": "electric_scooter", "name": "8eea629f365e1c89afd974a761868e63"}, {"is_disabled": 0, "is_reserved": 0, "fusion_lat": 0.0, "lat": 38.904643666666665, "fusion_lon": 0.0, "rental_uris": {"ios": "https://dc.lft.to/lastmile_qr_scan", "android": "https://dc.lft.to/lastmile_qr_scan"}, "lon": -77.03034633333333, "bike_id": "456690da48ef56d5a85c3e21b497fd2c", "type": "electric_scooter", "name": "456690da48ef56d5a85c3e21b497fd2c"}, {"is_disabled": 0, "is_reserved": 0, "fusion_lat": 0.0, "lat": 38.87291666666667, "fusion_lon": 0.0, "rental_uris": {"ios": "https://dc.lft.to/lastmile_qr_scan", "android": "https://dc.lft.to/lastmile_qr_scan"}, "lon": -77.00980916666667, "bike_id": "620167e6520f58472796e5dc2406603d", "type": "electric_scooter", "name": "620167e6520f58472796e5dc2406603d"}, {"is_disabled": 0, "is_reserved": 0, "fusion_lat": 0.0, "lat": 38.9266855, "fusion_lon": 0.0, "rental_uris": {"ios": "https://dc.lft.to/lastmile_qr_scan", "android": "https://dc.lft.to/lastmile_qr_scan"}, "lon": -77.03021966666667, "bike_id": "efaa64c4a2b0617a6ad685115eaeed6d", "type": "electric_scooter", "name": "efaa64c4a2b0617a6ad685115eaeed6d"}, {"is_disabled": 0, "is_reserved": 0, "fusion_lat": 0.0, "lat": 38.90540716666667, "fusion_lon": 0.0, "rental_uris": {"ios": "https://dc.lft.to/lastmile_qr_scan", "android": "https://dc.lft.to/lastmile_qr_scan"}, "lon": -77.05709466666667, "bike_id": "ffa45d38635aae543524c3824a0a2705", "type": "electric_scooter", "name": "ffa45d38635aae543524c3824a0a2705"}, {"is_disabled": 0, "is_reserved": 0, "fusion_lat": 0.0, "lat": 38.9509685, "fusion_lon": 0.0, "rental_uris": {"ios": "https://dc.lft.to/lastmile_qr_scan", "android": "https://dc.lft.to/lastmile_qr_scan"}, "lon": -77.01913166666667, "bike_id": "46e42ec45b85322013ba28fe5fa4dbe3", "type": "electric_scooter", "name": "46e42ec45b85322013ba28fe5fa4dbe3"}, {"is_disabled": 0, "is_reserved": 0, "fusion_lat": 0.0, "lat": 38.91353933333333, "fusion_lon": 0.0, "rental_uris": {"ios": "https://dc.lft.to/lastmile_qr_scan", "android": "https://dc.lft.to/lastmile_qr_scan"}, "lon": -77.044247, "bike_id": "5f72879395f0b9b3b052899658f2e0b0", "type": "electric_scooter", "name": "5f72879395f0b9b3b052899658f2e0b0"}, {"is_disabled": 0, "is_reserved": 0, "fusion_lat": 0.0, "lat": 38.94039, "fusion_lon": 0.0, "rental_uris": {"ios": "https://dc.lft.to/lastmile_qr_scan", "android": "https://dc.lft.to/lastmile_qr_scan"}, "lon": -77.02505833333333, "bike_id": "23d915bd41dd8881096d13fd19fac7c8", "type": "electric_scooter", "name": "23d915bd41dd8881096d13fd19fac7c8"}, {"is_disabled": 0, "is_reserved": 0, "fusion_lat": 0.0, "lat": 38.92379716666667, "fusion_lon": 0.0, "rental_uris": {"ios": "https://dc.lft.to/lastmile_qr_scan", "android": "https://dc.lft.to/lastmile_qr_scan"}, "lon": -77.0203195, "bike_id": "cb7801c5c9170a664c6667e4ebfc6dab", "type": "electric_scooter", "name": "cb7801c5c9170a664c6667e4ebfc6dab"}, {"is_disabled": 0, "is_reserved": 0, "fusion_lat": 0.0, "lat": 38.91676416666667, "fusion_lon": 0.0, "rental_uris": {"ios": "https://dc.lft.to/lastmile_qr_scan", "android": "https://dc.lft.to/lastmile_qr_scan"}, "lon": -77.0363715, "bike_id": "73cfafafdf631cef3ce3bf829bb5858a", "type": "electric_scooter", "name": "73cfafafdf631cef3ce3bf829bb5858a"}, {"is_disabled": 0, "is_reserved": 0, "fusion_lat": 0.0, "lat": 38.90720816666666, "fusion_lon": 0.0, "rental_uris": {"ios": "https://dc.lft.to/lastmile_qr_scan", "android": "https://dc.lft.to/lastmile_qr_scan"}, "lon": -77.04810166666667, "bike_id": "8b75afbcbe69a1b13021715e8ff5a80e", "type": "electric_scooter", "name": "8b75afbcbe69a1b13021715e8ff5a80e"}, {"is_disabled": 0, "is_reserved": 0, "fusion_lat": 0.0, "lat": 38.90659933333333, "fusion_lon": 0.0, "rental_uris": {"ios": "https://dc.lft.to/lastmile_qr_scan", "android": "https://dc.lft.to/lastmile_qr_scan"}, "lon": -76.98600233333333, "bike_id": "d3e8b62bedccb1fa46dfee3e0efc9dcc", "type": "electric_scooter", "name": "d3e8b62bedccb1fa46dfee3e0efc9dcc"}, {"is_disabled": 0, "is_reserved": 0, "fusion_lat": 0.0, "lat": 38.930626333333336, "fusion_lon": 0.0, "rental_uris": {"ios": "https://dc.lft.to/lastmile_qr_scan", "android": "https://dc.lft.to/lastmile_qr_scan"}, "lon": -77.0421865, "bike_id": "7a90805ad3ace761540d4aa77f1bd135", "type": "electric_scooter", "name": "7a90805ad3ace761540d4aa77f1bd135"}, {"is_disabled": 0, "is_reserved": 0, "fusion_lat": 0.0, "lat": 38.91923333333333, "fusion_lon": 0.0, "rental_uris": {"ios": "https://dc.lft.to/lastmile_qr_scan", "android": "https://dc.lft.to/lastmile_qr_scan"}, "lon": -77.00977166666667, "bike_id": "863098e28125305ab0e190bb3ca6181c", "type": "electric_scooter", "name": "863098e28125305ab0e190bb3ca6181c"}, {"is_disabled": 0, "is_reserved": 0, "fusion_lat": 0.0, "lat": 38.89732333333333, "fusion_lon": 0.0, "rental_uris": {"ios": "https://dc.lft.to/lastmile_qr_scan", "android": "https://dc.lft.to/lastmile_qr_scan"}, "lon": -77.04854933333333, "bike_id": "94b7b2412e670ae9ebd0332f4d88cae4", "type": "electric_scooter", "name": "94b7b2412e670ae9ebd0332f4d88cae4"}, {"is_disabled": 0, "is_reserved": 0, "fusion_lat": 0.0, "lat": 38.924853666666664, "fusion_lon": 0.0, "rental_uris": {"ios": "https://dc.lft.to/lastmile_qr_scan", "android": "https://dc.lft.to/lastmile_qr_scan"}, "lon": -77.02838683333333, "bike_id": "a0d984a4458769505d57ed114616b5b4", "type": "electric_scooter", "name": "a0d984a4458769505d57ed114616b5b4"}, {"is_disabled": 0, "is_reserved": 0, "fusion_lat": 0.0, "lat": 38.932458833333335, "fusion_lon": 0.0, "rental_uris": {"ios": "https://dc.lft.to/lastmile_qr_scan", "android": "https://dc.lft.to/lastmile_qr_scan"}, "lon": -77.034132, "bike_id": "6aff103e34e18fb202d4f32feb509d62", "type": "electric_scooter", "name": "6aff103e34e18fb202d4f32feb509d62"}, {"is_disabled": 0, "is_reserved": 0, "fusion_lat": 0.0, "lat": 38.97442366666667, "fusion_lon": 0.0, "rental_uris": {"ios": "https://dc.lft.to/lastmile_qr_scan", "android": "https://dc.lft.to/lastmile_qr_scan"}, "lon": -77.09618016666667, "bike_id": "5232b72375f6a1c054babec85115e8ca", "type": "electric_bike", "name": "5232b72375f6a1c054babec85115e8ca"}, {"is_disabled": 0, "is_reserved": 0, "fusion_lat": 0.0, "lat": 38.87660116666667, "fusion_lon": 0.0, "rental_uris": {"ios": "https://dc.lft.to/lastmile_qr_scan", "android": "https://dc.lft.to/lastmile_qr_scan"}, "lon": -77.00885016666666, "bike_id": "563ad0fe6dac859e38a3a8554c43b3f2", "type": "electric_scooter", "name": "563ad0fe6dac859e38a3a8554c43b3f2"}, {"is_disabled": 0, "is_reserved": 0, "fusion_lat": 0.0, "lat": 38.8945615, "fusion_lon": 0.0, "rental_uris": {"ios": "https://dc.lft.to/lastmile_qr_scan", "android": "https://dc.lft.to/lastmile_qr_scan"}, "lon": -76.936806, "bike_id": "631fdaca33bfac0c4b9a12503dc39afd", "type": "electric_bike", "name": "631fdaca33bfac0c4b9a12503dc39afd"}, {"is_disabled": 0, "is_reserved": 0, "fusion_lat": 0.0, "lat": 38.923047333333336, "fusion_lon": 0.0, "rental_uris": {"ios": "https://dc.lft.to/lastmile_qr_scan", "android": "https://dc.lft.to/lastmile_qr_scan"}, "lon": -77.034147, "bike_id": "c5d4a8d0d14019bcfe2cafec97ec435f", "type": "electric_scooter", "name": "c5d4a8d0d14019bcfe2cafec97ec435f"}, {"is_disabled": 0, "is_reserved": 0, "fusion_lat": 0.0, "lat": 38.898499666666666, "fusion_lon": 0.0, "rental_uris": {"ios": "https://dc.lft.to/lastmile_qr_scan", "android": "https://dc.lft.to/lastmile_qr_scan"}, "lon": -77.00217783333333, "bike_id": "a55a56b04bccc439f3597b2f8af1b521", "type": "electric_scooter", "name": "a55a56b04bccc439f3597b2f8af1b521"}, {"is_disabled": 0, "is_reserved": 0, "fusion_lat": 0.0, "lat": 38.91821633333333, "fusion_lon": 0.0, "rental_uris": {"ios": "https://dc.lft.to/lastmile_qr_scan", "android": "https://dc.lft.to/lastmile_qr_scan"}, "lon": -77.02706916666666, "bike_id": "5e8bdf7e458b4faa535e9463647b492d", "type": "electric_scooter", "name": "5e8bdf7e458b4faa535e9463647b492d"}, {"is_disabled": 0, "is_reserved": 0, "fusion_lat": 0.0, "lat": 38.89605733333333, "fusion_lon": 0.0, "rental_uris": {"ios": "https://dc.lft.to/lastmile_qr_scan", "android": "https://dc.lft.to/lastmile_qr_scan"}, "lon": -77.0033455, "bike_id": "01c9092bcf9c1311ef2207aa9bdea13d", "type": "electric_scooter", "name": "01c9092bcf9c1311ef2207aa9bdea13d"}, {"is_disabled": 0, "is_reserved": 0, "fusion_lat": 0.0, "lat": 38.922569, "fusion_lon": 0.0, "rental_uris": {"ios": "https://dc.lft.to/lastmile_qr_scan", "android": "https://dc.lft.to/lastmile_qr_scan"}, "lon": -77.07277316666666, "bike_id": "a1bd4faf3f55636e6d18ff4badb73b2e", "type": "electric_scooter", "name": "a1bd4faf3f55636e6d18ff4badb73b2e"}, {"is_disabled": 0, "is_reserved": 0, "fusion_lat": 0.0, "lat": 38.912681166666665, "fusion_lon": 0.0, "rental_uris": {"ios": "https://dc.lft.to/lastmile_qr_scan", "android": "https://dc.lft.to/lastmile_qr_scan"}, "lon": -77.01608033333333, "bike_id": "172f29989afe0ef08cbfb0da282c5768", "type": "electric_scooter", "name": "172f29989afe0ef08cbfb0da282c5768"}, {"is_disabled": 0, "is_reserved": 0, "fusion_lat": 0.0, "lat": 38.92760333333333, "fusion_lon": 0.0, "rental_uris": {"ios": "https://dc.lft.to/lastmile_qr_scan", "android": "https://dc.lft.to/lastmile_qr_scan"}, "lon": -77.02949766666667, "bike_id": "aa0128e13c4067a4390069294a5fb062", "type": "electric_scooter", "name": "aa0128e13c4067a4390069294a5fb062"}, {"is_disabled": 0, "is_reserved": 0, "fusion_lat": 0.0, "lat": 38.880403, "fusion_lon": 0.0, "rental_uris": {"ios": "https://dc.lft.to/lastmile_qr_scan", "android": "https://dc.lft.to/lastmile_qr_scan"}, "lon": -76.9272555, "bike_id": "3cec353b32421038d46bf2da2b0d7b88", "type": "electric_scooter", "name": "3cec353b32421038d46bf2da2b0d7b88"}, {"is_disabled": 0, "is_reserved": 0, "fusion_lat": 0.0, "lat": 38.829254666666664, "fusion_lon": 0.0, "rental_uris": {"ios": "https://dc.lft.to/lastmile_qr_scan", "android": "https://dc.lft.to/lastmile_qr_scan"}, "lon": -77.0687795, "bike_id": "733f05875ed3bddab8bc53e5c03a49bd", "type": "electric_bike", "name": "733f05875ed3bddab8bc53e5c03a49bd"}, {"is_disabled": 0, "is_reserved": 0, "fusion_lat": 0.0, "lat": 38.89915, "fusion_lon": 0.0, "rental_uris": {"ios": "https://dc.lft.to/lastmile_qr_scan", "android": "https://dc.lft.to/lastmile_qr_scan"}, "lon": -76.93377316666667, "bike_id": "31c21f451c7f86a6858dcb542a9d4b94", "type": "electric_scooter", "name": "31c21f451c7f86a6858dcb542a9d4b94"}, {"is_disabled": 0, "is_reserved": 0, "fusion_lat": 0.0, "lat": 38.9337075, "fusion_lon": 0.0, "rental_uris": {"ios": "https://dc.lft.to/lastmile_qr_scan", "android": "https://dc.lft.to/lastmile_qr_scan"}, "lon": -77.05726783333333, "bike_id": "8d0f125bd029892bcaebfb0d7d6063e9", "type": "electric_scooter", "name": "8d0f125bd029892bcaebfb0d7d6063e9"}, {"is_disabled": 0, "is_reserved": 0, "fusion_lat": 0.0, "lat": 38.89804016666667, "fusion_lon": 0.0, "rental_uris": {"ios": "https://dc.lft.to/lastmile_qr_scan", "android": "https://dc.lft.to/lastmile_qr_scan"}, "lon": -77.03361766666667, "bike_id": "bb62202f9f325ed44e6b28b181ddc53e", "type": "electric_scooter", "name": "bb62202f9f325ed44e6b28b181ddc53e"}, {"is_disabled": 0, "is_reserved": 0, "fusion_lat": 0.0, "lat": 38.9309985, "fusion_lon": 0.0, "rental_uris": {"ios": "https://dc.lft.to/lastmile_qr_scan", "android": "https://dc.lft.to/lastmile_qr_scan"}, "lon": -77.03037183333333, "bike_id": "cb6efcad3cee6468117d3e70dae2d0a2", "type": "electric_scooter", "name": "cb6efcad3cee6468117d3e70dae2d0a2"}, {"is_disabled": 0, "is_reserved": 0, "fusion_lat": 0.0, "lat": 38.91815416666667, "fusion_lon": 0.0, "rental_uris": {"ios": "https://dc.lft.to/lastmile_qr_scan", "android": "https://dc.lft.to/lastmile_qr_scan"}, "lon": -77.0320695, "bike_id": "9a5eaacc8b0ce60820a19aa4ec58a095", "type": "electric_scooter", "name": "9a5eaacc8b0ce60820a19aa4ec58a095"}, {"is_disabled": 0, "is_reserved": 0, "fusion_lat": 0.0, "lat": 38.915548333333334, "fusion_lon": 0.0, "rental_uris": {"ios": "https://dc.lft.to/lastmile_qr_scan", "android": "https://dc.lft.to/lastmile_qr_scan"}, "lon": -77.02351716666666, "bike_id": "158231c0bb97b83436e2b4bf3d168487", "type": "electric_scooter", "name": "158231c0bb97b83436e2b4bf3d168487"}, {"is_disabled": 0, "is_reserved": 0, "fusion_lat": 0.0, "lat": 38.91225033333333, "fusion_lon": 0.0, "rental_uris": {"ios": "https://dc.lft.to/lastmile_qr_scan", "android": "https://dc.lft.to/lastmile_qr_scan"}, "lon": -77.032005, "bike_id": "e6eeb077e854c9b870cd618656e76352", "type": "electric_scooter", "name": "e6eeb077e854c9b870cd618656e76352"}, {"is_disabled": 0, "is_reserved": 0, "fusion_lat": 0.0, "lat": 38.930788166666666, "fusion_lon": 0.0, "rental_uris": {"ios": "https://dc.lft.to/lastmile_qr_scan", "android": "https://dc.lft.to/lastmile_qr_scan"}, "lon": -77.03208316666667, "bike_id": "5abeae4050c481a8f6214665dac82906", "type": "electric_scooter", "name": "5abeae4050c481a8f6214665dac82906"}, {"is_disabled": 0, "is_reserved": 0, "fusion_lat": 0.0, "lat": 38.920184166666665, "fusion_lon": 0.0, "rental_uris": {"ios": "https://dc.lft.to/lastmile_qr_scan", "android": "https://dc.lft.to/lastmile_qr_scan"}, "lon": -77.03640816666666, "bike_id": "5e0e1b7a1fc0a16da53c131ba9ab5ce0", "type": "electric_scooter", "name": "5e0e1b7a1fc0a16da53c131ba9ab5ce0"}, {"is_disabled": 0, "is_reserved": 0, "fusion_lat": 0.0, "lat": 38.91198266666667, "fusion_lon": 0.0, "rental_uris": {"ios": "https://dc.lft.to/lastmile_qr_scan", "android": "https://dc.lft.to/lastmile_qr_scan"}, "lon": -77.00181883333333, "bike_id": "9bd19f97332aaf92671eecd1d88c4293", "type": "electric_scooter", "name": "9bd19f97332aaf92671eecd1d88c4293"}, {"is_disabled": 0, "is_reserved": 0, "fusion_lat": 0.0, "lat": 38.949140166666666, "fusion_lon": 0.0, "rental_uris": {"ios": "https://dc.lft.to/lastmile_qr_scan", "android": "https://dc.lft.to/lastmile_qr_scan"}, "lon": -77.008012, "bike_id": "6f51dea505b6311021ef8841eb7072f7", "type": "electric_bike", "name": "6f51dea505b6311021ef8841eb7072f7"}, {"is_disabled": 0, "is_reserved": 0, "fusion_lat": 0.0, "lat": 38.81329133333333, "fusion_lon": 0.0, "rental_uris": {"ios": "https://dc.lft.to/lastmile_qr_scan", "android": "https://dc.lft.to/lastmile_qr_scan"}, "lon": -77.05082066666667, "bike_id": "4409c25fd7f5f02b5bb9b58e72483648", "type": "electric_bike", "name": "4409c25fd7f5f02b5bb9b58e72483648"}, {"is_disabled": 0, "is_reserved": 0, "fusion_lat": 0.0, "lat": 38.881355666666664, "fusion_lon": 0.0, "rental_uris": {"ios": "https://dc.lft.to/lastmile_qr_scan", "android": "https://dc.lft.to/lastmile_qr_scan"}, "lon": -77.02270316666667, "bike_id": "aed9319b1879787b6a9e07a638178169", "type": "electric_scooter", "name": "aed9319b1879787b6a9e07a638178169"}, {"is_disabled": 0, "is_reserved": 0, "fusion_lat": 0.0, "lat": 38.884497, "fusion_lon": 0.0, "rental_uris": {"ios": "https://dc.lft.to/lastmile_qr_scan", "android": "https://dc.lft.to/lastmile_qr_scan"}, "lon": -76.95098083333333, "bike_id": "241816baf461ee38258423bf262e6803", "type": "electric_scooter", "name": "241816baf461ee38258423bf262e6803"}, {"is_disabled": 0, "is_reserved": 0, "fusion_lat": 0.0, "lat": 38.9286965, "fusion_lon": 0.0, "rental_uris": {"ios": "https://dc.lft.to/lastmile_qr_scan", "android": "https://dc.lft.to/lastmile_qr_scan"}, "lon": -77.0340655, "bike_id": "690bd344331af4e33f3d75d557f3e9e4", "type": "electric_scooter", "name": "690bd344331af4e33f3d75d557f3e9e4"}, {"is_disabled": 0, "is_reserved": 0, "fusion_lat": 0.0, "lat": 38.898301000000004, "fusion_lon": 0.0, "rental_uris": {"ios": "https://dc.lft.to/lastmile_qr_scan", "android": "https://dc.lft.to/lastmile_qr_scan"}, "lon": -77.0285935, "bike_id": "92b11dfa14b3ceb98530b3885b790a4a", "type": "electric_scooter", "name": "92b11dfa14b3ceb98530b3885b790a4a"}, {"is_disabled": 0, "is_reserved": 0, "fusion_lat": 0.0, "lat": 38.916776666666664, "fusion_lon": 0.0, "rental_uris": {"ios": "https://dc.lft.to/lastmile_qr_scan", "android": "https://dc.lft.to/lastmile_qr_scan"}, "lon": -77.04613433333333, "bike_id": "0766776250472a606a44bd815b19df34", "type": "electric_scooter", "name": "0766776250472a606a44bd815b19df34"}, {"is_disabled": 0, "is_reserved": 0, "fusion_lat": 0.0, "lat": 38.929022833333335, "fusion_lon": 0.0, "rental_uris": {"ios": "https://dc.lft.to/lastmile_qr_scan", "android": "https://dc.lft.to/lastmile_qr_scan"}, "lon": -77.03754716666667, "bike_id": "564fd7cd77c04086d746f9b7d3fe51d3", "type": "electric_scooter", "name": "564fd7cd77c04086d746f9b7d3fe51d3"}, {"is_disabled": 0, "is_reserved": 0, "fusion_lat": 0.0, "lat": 38.94978183333333, "fusion_lon": 0.0, "rental_uris": {"ios": "https://dc.lft.to/lastmile_qr_scan", "android": "https://dc.lft.to/lastmile_qr_scan"}, "lon": -77.02447466666666, "bike_id": "b820c33e64e7ebef793ab6d3dc657202", "type": "electric_scooter", "name": "b820c33e64e7ebef793ab6d3dc657202"}, {"is_disabled": 0, "is_reserved": 0, "fusion_lat": 0.0, "lat": 38.9217165, "fusion_lon": 0.0, "rental_uris": {"ios": "https://dc.lft.to/lastmile_qr_scan", "android": "https://dc.lft.to/lastmile_qr_scan"}, "lon": -77.01802866666667, "bike_id": "08c987a2f420a35228d280b552bde3ba", "type": "electric_scooter", "name": "08c987a2f420a35228d280b552bde3ba"}, {"is_disabled": 0, "is_reserved": 0, "fusion_lat": 0.0, "lat": 38.9418005, "fusion_lon": 0.0, "rental_uris": {"ios": "https://dc.lft.to/lastmile_qr_scan", "android": "https://dc.lft.to/lastmile_qr_scan"}, "lon": -77.03393283333334, "bike_id": "0692b8cbb4a042dce7d20cb5bf8c9f8f", "type": "electric_scooter", "name": "0692b8cbb4a042dce7d20cb5bf8c9f8f"}, {"is_disabled": 0, "is_reserved": 0, "fusion_lat": 0.0, "lat": 38.91523766666667, "fusion_lon": 0.0, "rental_uris": {"ios": "https://dc.lft.to/lastmile_qr_scan", "android": "https://dc.lft.to/lastmile_qr_scan"}, "lon": -76.983485, "bike_id": "8318c7044f3f4b98da92a94bb9178a90", "type": "electric_scooter", "name": "8318c7044f3f4b98da92a94bb9178a90"}, {"is_disabled": 0, "is_reserved": 0, "fusion_lat": 0.0, "lat": 38.92342133333333, "fusion_lon": 0.0, "rental_uris": {"ios": "https://dc.lft.to/lastmile_qr_scan", "android": "https://dc.lft.to/lastmile_qr_scan"}, "lon": -76.99875866666666, "bike_id": "f7f0a4f46d3c504185b997f345d01bd8", "type": "electric_scooter", "name": "f7f0a4f46d3c504185b997f345d01bd8"}, {"is_disabled": 0, "is_reserved": 0, "fusion_lat": 0.0, "lat": 38.88178383333333, "fusion_lon": 0.0, "rental_uris": {"ios": "https://dc.lft.to/lastmile_qr_scan", "android": "https://dc.lft.to/lastmile_qr_scan"}, "lon": -77.00890016666666, "bike_id": "8b2c6984f9bb0424eec7b809943dceb6", "type": "electric_scooter", "name": "8b2c6984f9bb0424eec7b809943dceb6"}, {"is_disabled": 0, "is_reserved": 0, "fusion_lat": 0.0, "lat": 38.862664333333335, "fusion_lon": 0.0, "rental_uris": {"ios": "https://dc.lft.to/lastmile_qr_scan", "android": "https://dc.lft.to/lastmile_qr_scan"}, "lon": -76.98350383333333, "bike_id": "a953e8ed267e12152b6ac7106e861c28", "type": "electric_bike", "name": "a953e8ed267e12152b6ac7106e861c28"}, {"is_disabled": 0, "is_reserved": 0, "fusion_lat": 0.0, "lat": 38.919072, "fusion_lon": 0.0, "rental_uris": {"ios": "https://dc.lft.to/lastmile_qr_scan", "android": "https://dc.lft.to/lastmile_qr_scan"}, "lon": -77.060024, "bike_id": "e3adbac93c5b61a912cb8db6376997a9", "type": "electric_bike", "name": "e3adbac93c5b61a912cb8db6376997a9"}, {"is_disabled": 0, "is_reserved": 0, "fusion_lat": 0.0, "lat": 38.855419166666664, "fusion_lon": 0.0, "rental_uris": {"ios": "https://dc.lft.to/lastmile_qr_scan", "android": "https://dc.lft.to/lastmile_qr_scan"}, "lon": -77.12059566666667, "bike_id": "677126f43d6b8d7723d15589278e54d1", "type": "electric_bike", "name": "677126f43d6b8d7723d15589278e54d1"}, {"is_disabled": 0, "is_reserved": 0, "fusion_lat": 0.0, "lat": 38.87461283333333, "fusion_lon": 0.0, "rental_uris": {"ios": "https://dc.lft.to/lastmile_qr_scan", "android": "https://dc.lft.to/lastmile_qr_scan"}, "lon": -77.0052075, "bike_id": "9e35eed34a4516d56b41fd96020517e9", "type": "electric_scooter", "name": "9e35eed34a4516d56b41fd96020517e9"}, {"is_disabled": 0, "is_reserved": 0, "fusion_lat": 0.0, "lat": 38.892331666666664, "fusion_lon": 0.0, "rental_uris": {"ios": "https://dc.lft.to/lastmile_qr_scan", "android": "https://dc.lft.to/lastmile_qr_scan"}, "lon": -77.02386183333333, "bike_id": "2992cd522157712a3112b425382dd7f7", "type": "electric_scooter", "name": "2992cd522157712a3112b425382dd7f7"}, {"is_disabled": 0, "is_reserved": 0, "fusion_lat": 0.0, "lat": 38.889548, "fusion_lon": 0.0, "rental_uris": {"ios": "https://dc.lft.to/lastmile_qr_scan", "android": "https://dc.lft.to/lastmile_qr_scan"}, "lon": -77.07606416666667, "bike_id": "5a9f721ff0c499012f819f3f87f28fdb", "type": "electric_bike", "name": "5a9f721ff0c499012f819f3f87f28fdb"}, {"is_disabled": 0, "is_reserved": 0, "fusion_lat": 0.0, "lat": 38.955904833333335, "fusion_lon": 0.0, "rental_uris": {"ios": "https://dc.lft.to/lastmile_qr_scan", "android": "https://dc.lft.to/lastmile_qr_scan"}, "lon": -77.02808466666667, "bike_id": "6b0016c759136a238eff41ee7c473d5b", "type": "electric_scooter", "name": "6b0016c759136a238eff41ee7c473d5b"}, {"is_disabled": 0, "is_reserved": 0, "fusion_lat": 0.0, "lat": 38.92015516666667, "fusion_lon": 0.0, "rental_uris": {"ios": "https://dc.lft.to/lastmile_qr_scan", "android": "https://dc.lft.to/lastmile_qr_scan"}, "lon": -77.071349, "bike_id": "6aef594426864255c177cc619765cf54", "type": "electric_scooter", "name": "6aef594426864255c177cc619765cf54"}, {"is_disabled": 0, "is_reserved": 0, "fusion_lat": 0.0, "lat": 38.897491333333335, "fusion_lon": 0.0, "rental_uris": {"ios": "https://dc.lft.to/lastmile_qr_scan", "android": "https://dc.lft.to/lastmile_qr_scan"}, "lon": -77.033383, "bike_id": "7806252b960416d38a434d6442606567", "type": "electric_scooter", "name": "7806252b960416d38a434d6442606567"}, {"is_disabled": 0, "is_reserved": 0, "fusion_lat": 0.0, "lat": 38.96482966666667, "fusion_lon": 0.0, "rental_uris": {"ios": "https://dc.lft.to/lastmile_qr_scan", "android": "https://dc.lft.to/lastmile_qr_scan"}, "lon": -77.0317345, "bike_id": "a44cd74e9719207bde85594388c89195", "type": "electric_bike", "name": "a44cd74e9719207bde85594388c89195"}, {"is_disabled": 0, "is_reserved": 0, "fusion_lat": 0.0, "lat": 38.902216833333334, "fusion_lon": 0.0, "rental_uris": {"ios": "https://dc.lft.to/lastmile_qr_scan", "android": "https://dc.lft.to/lastmile_qr_scan"}, "lon": -76.93177866666667, "bike_id": "35eb84fea3e975a750334047d86beb98", "type": "electric_bike", "name": "35eb84fea3e975a750334047d86beb98"}, {"is_disabled": 0, "is_reserved": 0, "fusion_lat": 0.0, "lat": 38.9017255, "fusion_lon": 0.0, "rental_uris": {"ios": "https://dc.lft.to/lastmile_qr_scan", "android": "https://dc.lft.to/lastmile_qr_scan"}, "lon": -77.0489455, "bike_id": "1b3f609705b7f4342bb957a8f643a10f", "type": "electric_scooter", "name": "1b3f609705b7f4342bb957a8f643a10f"}, {"is_disabled": 0, "is_reserved": 0, "fusion_lat": 0.0, "lat": 38.88724766666667, "fusion_lon": 0.0, "rental_uris": {"ios": "https://dc.lft.to/lastmile_qr_scan", "android": "https://dc.lft.to/lastmile_qr_scan"}, "lon": -77.03247583333334, "bike_id": "227bbb403948fb27e6a1942429ba7317", "type": "electric_scooter", "name": "227bbb403948fb27e6a1942429ba7317"}, {"is_disabled": 0, "is_reserved": 0, "fusion_lat": 0.0, "lat": 38.897952333333336, "fusion_lon": 0.0, "rental_uris": {"ios": "https://dc.lft.to/lastmile_qr_scan", "android": "https://dc.lft.to/lastmile_qr_scan"}, "lon": -76.9716845, "bike_id": "2536ab7b4fd42aaeb0ccea78e18ca7ac", "type": "electric_scooter", "name": "2536ab7b4fd42aaeb0ccea78e18ca7ac"}, {"is_disabled": 0, "is_reserved": 0, "fusion_lat": 0.0, "lat": 38.83869, "fusion_lon": 0.0, "rental_uris": {"ios": "https://dc.lft.to/lastmile_qr_scan", "android": "https://dc.lft.to/lastmile_qr_scan"}, "lon": -76.99708033333333, "bike_id": "034309b4350abf59131f027d836e9008", "type": "electric_bike", "name": "034309b4350abf59131f027d836e9008"}, {"is_disabled": 0, "is_reserved": 0, "fusion_lat": 0.0, "lat": 38.924599, "fusion_lon": 0.0, "rental_uris": {"ios": "https://dc.lft.to/lastmile_qr_scan", "android": "https://dc.lft.to/lastmile_qr_scan"}, "lon": -77.05757433333333, "bike_id": "29ca2ad59a02f9a666325b1294095666", "type": "electric_scooter", "name": "29ca2ad59a02f9a666325b1294095666"}, {"is_disabled": 0, "is_reserved": 0, "fusion_lat": 0.0, "lat": 38.91190016666667, "fusion_lon": 0.0, "rental_uris": {"ios": "https://dc.lft.to/lastmile_qr_scan", "android": "https://dc.lft.to/lastmile_qr_scan"}, "lon": -77.01076, "bike_id": "26218b0ee971fb67e417722363cb8135", "type": "electric_scooter", "name": "26218b0ee971fb67e417722363cb8135"}, {"is_disabled": 0, "is_reserved": 0, "fusion_lat": 0.0, "lat": 38.928617333333335, "fusion_lon": 0.0, "rental_uris": {"ios": "https://dc.lft.to/lastmile_qr_scan", "android": "https://dc.lft.to/lastmile_qr_scan"}, "lon": -77.03048066666666, "bike_id": "0a8741c88a029210f5ce5b0a5312c5f3", "type": "electric_scooter", "name": "0a8741c88a029210f5ce5b0a5312c5f3"}, {"is_disabled": 0, "is_reserved": 0, "fusion_lat": 0.0, "lat": 38.90276683333333, "fusion_lon": 0.0, "rental_uris": {"ios": "https://dc.lft.to/lastmile_qr_scan", "android": "https://dc.lft.to/lastmile_qr_scan"}, "lon": -77.04941366666667, "bike_id": "a9d2056efbddb6c7e0305d1bf685b2d3", "type": "electric_scooter", "name": "a9d2056efbddb6c7e0305d1bf685b2d3"}, {"is_disabled": 0, "is_reserved": 0, "fusion_lat": 0.0, "lat": 38.92146133333333, "fusion_lon": 0.0, "rental_uris": {"ios": "https://dc.lft.to/lastmile_qr_scan", "android": "https://dc.lft.to/lastmile_qr_scan"}, "lon": -77.0469065, "bike_id": "e4c7ff03448a23094f9c81acc273cfcc", "type": "electric_scooter", "name": "e4c7ff03448a23094f9c81acc273cfcc"}, {"is_disabled": 0, "is_reserved": 0, "fusion_lat": 0.0, "lat": 38.914009166666666, "fusion_lon": 0.0, "rental_uris": {"ios": "https://dc.lft.to/lastmile_qr_scan", "android": "https://dc.lft.to/lastmile_qr_scan"}, "lon": -77.01227383333334, "bike_id": "28fed29f66256fc8bb277b6a448ae600", "type": "electric_scooter", "name": "28fed29f66256fc8bb277b6a448ae600"}, {"is_disabled": 0, "is_reserved": 0, "fusion_lat": 0.0, "lat": 38.89832466666667, "fusion_lon": 0.0, "rental_uris": {"ios": "https://dc.lft.to/lastmile_qr_scan", "android": "https://dc.lft.to/lastmile_qr_scan"}, "lon": -76.94634366666666, "bike_id": "65b9ae7a3a4f40d18c3136a56db5935b", "type": "electric_scooter", "name": "65b9ae7a3a4f40d18c3136a56db5935b"}, {"is_disabled": 0, "is_reserved": 0, "fusion_lat": 0.0, "lat": 38.93871333333333, "fusion_lon": 0.0, "rental_uris": {"ios": "https://dc.lft.to/lastmile_qr_scan", "android": "https://dc.lft.to/lastmile_qr_scan"}, "lon": -77.03040733333333, "bike_id": "24db7dd4ebe9b39eaa0406a7bc2e62f8", "type": "electric_scooter", "name": "24db7dd4ebe9b39eaa0406a7bc2e62f8"}, {"is_disabled": 0, "is_reserved": 0, "fusion_lat": 0.0, "lat": 38.8706935, "fusion_lon": 0.0, "rental_uris": {"ios": "https://dc.lft.to/lastmile_qr_scan", "android": "https://dc.lft.to/lastmile_qr_scan"}, "lon": -76.97940166666666, "bike_id": "1db1251222e36f10a55195df1aa300fc", "type": "electric_scooter", "name": "1db1251222e36f10a55195df1aa300fc"}, {"is_disabled": 0, "is_reserved": 0, "fusion_lat": 0.0, "lat": 38.951833666666666, "fusion_lon": 0.0, "rental_uris": {"ios": "https://dc.lft.to/lastmile_qr_scan", "android": "https://dc.lft.to/lastmile_qr_scan"}, "lon": -77.02614916666667, "bike_id": "1d4a9f38bd1eecf66b5a7e5f7ff7fcad", "type": "electric_scooter", "name": "1d4a9f38bd1eecf66b5a7e5f7ff7fcad"}, {"is_disabled": 0, "is_reserved": 0, "fusion_lat": 0.0, "lat": 38.9154045, "fusion_lon": 0.0, "rental_uris": {"ios": "https://dc.lft.to/lastmile_qr_scan", "android": "https://dc.lft.to/lastmile_qr_scan"}, "lon": -76.9836695, "bike_id": "0e84152c4de34b55a098316e898245ce", "type": "electric_scooter", "name": "0e84152c4de34b55a098316e898245ce"}, {"is_disabled": 0, "is_reserved": 0, "fusion_lat": 0.0, "lat": 38.924729166666665, "fusion_lon": 0.0, "rental_uris": {"ios": "https://dc.lft.to/lastmile_qr_scan", "android": "https://dc.lft.to/lastmile_qr_scan"}, "lon": -77.05112233333334, "bike_id": "6955d4bffc36e4be253f3bcd43ee40b3", "type": "electric_scooter", "name": "6955d4bffc36e4be253f3bcd43ee40b3"}, {"is_disabled": 0, "is_reserved": 0, "fusion_lat": 0.0, "lat": 38.9213685, "fusion_lon": 0.0, "rental_uris": {"ios": "https://dc.lft.to/lastmile_qr_scan", "android": "https://dc.lft.to/lastmile_qr_scan"}, "lon": -77.04561983333333, "bike_id": "67b4ec60ac36362551d363906719afff", "type": "electric_scooter", "name": "67b4ec60ac36362551d363906719afff"}, {"is_disabled": 0, "is_reserved": 0, "fusion_lat": 0.0, "lat": 38.9175825, "fusion_lon": 0.0, "rental_uris": {"ios": "https://dc.lft.to/lastmile_qr_scan", "android": "https://dc.lft.to/lastmile_qr_scan"}, "lon": -77.04764233333333, "bike_id": "48585dedf2091d2afa76a6e0c469fb06", "type": "electric_scooter", "name": "48585dedf2091d2afa76a6e0c469fb06"}, {"is_disabled": 0, "is_reserved": 0, "fusion_lat": 0.0, "lat": 38.904435166666666, "fusion_lon": 0.0, "rental_uris": {"ios": "https://dc.lft.to/lastmile_qr_scan", "android": "https://dc.lft.to/lastmile_qr_scan"}, "lon": -77.03102783333334, "bike_id": "92614ae82884e4e3db8bfea74289201c", "type": "electric_scooter", "name": "92614ae82884e4e3db8bfea74289201c"}, {"is_disabled": 0, "is_reserved": 0, "fusion_lat": 0.0, "lat": 38.967977166666664, "fusion_lon": 0.0, "rental_uris": {"ios": "https://dc.lft.to/lastmile_qr_scan", "android": "https://dc.lft.to/lastmile_qr_scan"}, "lon": -77.02560733333334, "bike_id": "fc177d6ed49118d97f6733664c565c9a", "type": "electric_scooter", "name": "fc177d6ed49118d97f6733664c565c9a"}, {"is_disabled": 0, "is_reserved": 0, "fusion_lat": 0.0, "lat": 38.88433083333334, "fusion_lon": 0.0, "rental_uris": {"ios": "https://dc.lft.to/lastmile_qr_scan", "android": "https://dc.lft.to/lastmile_qr_scan"}, "lon": -77.02512683333333, "bike_id": "1adb34afd9926d36afbf8a7e74422ba4", "type": "electric_scooter", "name": "1adb34afd9926d36afbf8a7e74422ba4"}, {"is_disabled": 0, "is_reserved": 0, "fusion_lat": 0.0, "lat": 38.9222065, "fusion_lon": 0.0, "rental_uris": {"ios": "https://dc.lft.to/lastmile_qr_scan", "android": "https://dc.lft.to/lastmile_qr_scan"}, "lon": -77.07438283333333, "bike_id": "a3739650344c47d44f407b6aca3c3496", "type": "electric_scooter", "name": "a3739650344c47d44f407b6aca3c3496"}, {"is_disabled": 0, "is_reserved": 0, "fusion_lat": 0.0, "lat": 38.905931, "fusion_lon": 0.0, "rental_uris": {"ios": "https://dc.lft.to/lastmile_qr_scan", "android": "https://dc.lft.to/lastmile_qr_scan"}, "lon": -77.01610516666666, "bike_id": "eb09a4739ade6eff3bd445548f8f15b8", "type": "electric_scooter", "name": "eb09a4739ade6eff3bd445548f8f15b8"}, {"is_disabled": 0, "is_reserved": 0, "fusion_lat": 0.0, "lat": 38.91742516666667, "fusion_lon": 0.0, "rental_uris": {"ios": "https://dc.lft.to/lastmile_qr_scan", "android": "https://dc.lft.to/lastmile_qr_scan"}, "lon": -77.02688983333333, "bike_id": "a05547f8e50e1d86aae181186c4a7cfe", "type": "electric_scooter", "name": "a05547f8e50e1d86aae181186c4a7cfe"}, {"is_disabled": 0, "is_reserved": 0, "fusion_lat": 0.0, "lat": 38.919001333333334, "fusion_lon": 0.0, "rental_uris": {"ios": "https://dc.lft.to/lastmile_qr_scan", "android": "https://dc.lft.to/lastmile_qr_scan"}, "lon": -77.00045183333333, "bike_id": "d18dd4d2ed996066ba934e431970af75", "type": "electric_scooter", "name": "d18dd4d2ed996066ba934e431970af75"}, {"is_disabled": 0, "is_reserved": 0, "fusion_lat": 0.0, "lat": 38.93950983333333, "fusion_lon": 0.0, "rental_uris": {"ios": "https://dc.lft.to/lastmile_qr_scan", "android": "https://dc.lft.to/lastmile_qr_scan"}, "lon": -77.02183133333334, "bike_id": "cc4f502d9c2d92e53e543ac3d86c3dad", "type": "electric_scooter", "name": "cc4f502d9c2d92e53e543ac3d86c3dad"}, {"is_disabled": 0, "is_reserved": 0, "fusion_lat": 0.0, "lat": 38.87523683333333, "fusion_lon": 0.0, "rental_uris": {"ios": "https://dc.lft.to/lastmile_qr_scan", "android": "https://dc.lft.to/lastmile_qr_scan"}, "lon": -77.01229416666666, "bike_id": "11e5fe546686498dde7142db88dff425", "type": "electric_scooter", "name": "11e5fe546686498dde7142db88dff425"}, {"is_disabled": 0, "is_reserved": 0, "fusion_lat": 0.0, "lat": 38.925008, "fusion_lon": 0.0, "rental_uris": {"ios": "https://dc.lft.to/lastmile_qr_scan", "android": "https://dc.lft.to/lastmile_qr_scan"}, "lon": -77.04339433333334, "bike_id": "b37a315669a54631c4efe6c2aa02693a", "type": "electric_scooter", "name": "b37a315669a54631c4efe6c2aa02693a"}, {"is_disabled": 0, "is_reserved": 0, "fusion_lat": 0.0, "lat": 38.911809166666664, "fusion_lon": 0.0, "rental_uris": {"ios": "https://dc.lft.to/lastmile_qr_scan", "android": "https://dc.lft.to/lastmile_qr_scan"}, "lon": -77.04035316666666, "bike_id": "91adc890fdda1f6dc963d6d59a3d482d", "type": "electric_scooter", "name": "91adc890fdda1f6dc963d6d59a3d482d"}, {"is_disabled": 0, "is_reserved": 0, "fusion_lat": 0.0, "lat": 38.927019666666666, "fusion_lon": 0.0, "rental_uris": {"ios": "https://dc.lft.to/lastmile_qr_scan", "android": "https://dc.lft.to/lastmile_qr_scan"}, "lon": -76.9608105, "bike_id": "a3582048ffca7e2607d6530f3cafc9c8", "type": "electric_scooter", "name": "a3582048ffca7e2607d6530f3cafc9c8"}, {"is_disabled": 0, "is_reserved": 0, "fusion_lat": 0.0, "lat": 38.925742, "fusion_lon": 0.0, "rental_uris": {"ios": "https://dc.lft.to/lastmile_qr_scan", "android": "https://dc.lft.to/lastmile_qr_scan"}, "lon": -76.99492883333333, "bike_id": "e8d83cc60ff5c996fbf56f38635f5f9e", "type": "electric_scooter", "name": "e8d83cc60ff5c996fbf56f38635f5f9e"}, {"is_disabled": 0, "is_reserved": 0, "fusion_lat": 0.0, "lat": 38.9081875, "fusion_lon": 0.0, "rental_uris": {"ios": "https://dc.lft.to/lastmile_qr_scan", "android": "https://dc.lft.to/lastmile_qr_scan"}, "lon": -77.04497066666667, "bike_id": "2587c7d5694392809544b5f12c339693", "type": "electric_scooter", "name": "2587c7d5694392809544b5f12c339693"}, {"is_disabled": 0, "is_reserved": 0, "fusion_lat": 0.0, "lat": 38.8726485, "fusion_lon": 0.0, "rental_uris": {"ios": "https://dc.lft.to/lastmile_qr_scan", "android": "https://dc.lft.to/lastmile_qr_scan"}, "lon": -77.01692233333333, "bike_id": "fd38532e7fb019fca6791c3eb697d4c6", "type": "electric_scooter", "name": "fd38532e7fb019fca6791c3eb697d4c6"}, {"is_disabled": 0, "is_reserved": 0, "fusion_lat": 0.0, "lat": 38.932463, "fusion_lon": 0.0, "rental_uris": {"ios": "https://dc.lft.to/lastmile_qr_scan", "android": "https://dc.lft.to/lastmile_qr_scan"}, "lon": -77.028517, "bike_id": "5090c18b741892f097d165003aefe783", "type": "electric_scooter", "name": "5090c18b741892f097d165003aefe783"}, {"is_disabled": 0, "is_reserved": 0, "fusion_lat": 0.0, "lat": 38.909015, "fusion_lon": 0.0, "rental_uris": {"ios": "https://dc.lft.to/lastmile_qr_scan", "android": "https://dc.lft.to/lastmile_qr_scan"}, "lon": -76.99892016666666, "bike_id": "13219deaef03e5551267078d59434536", "type": "electric_scooter", "name": "13219deaef03e5551267078d59434536"}, {"is_disabled": 0, "is_reserved": 0, "fusion_lat": 0.0, "lat": 38.90261866666667, "fusion_lon": 0.0, "rental_uris": {"ios": "https://dc.lft.to/lastmile_qr_scan", "android": "https://dc.lft.to/lastmile_qr_scan"}, "lon": -77.00900883333334, "bike_id": "dccfe6c9b825e84c9209bccd1d64e333", "type": "electric_scooter", "name": "dccfe6c9b825e84c9209bccd1d64e333"}, {"is_disabled": 0, "is_reserved": 0, "fusion_lat": 0.0, "lat": 38.901919666666664, "fusion_lon": 0.0, "rental_uris": {"ios": "https://dc.lft.to/lastmile_qr_scan", "android": "https://dc.lft.to/lastmile_qr_scan"}, "lon": -77.00214216666667, "bike_id": "0da176579c41f19e11b2dca5b9b3e036", "type": "electric_scooter", "name": "0da176579c41f19e11b2dca5b9b3e036"}, {"is_disabled": 0, "is_reserved": 0, "fusion_lat": 0.0, "lat": 38.88870133333333, "fusion_lon": 0.0, "rental_uris": {"ios": "https://dc.lft.to/lastmile_qr_scan", "android": "https://dc.lft.to/lastmile_qr_scan"}, "lon": -76.957047, "bike_id": "18278f26522b67faad375e21de4f0b92", "type": "electric_bike", "name": "18278f26522b67faad375e21de4f0b92"}, {"is_disabled": 0, "is_reserved": 0, "fusion_lat": 0.0, "lat": 38.9032365, "fusion_lon": 0.0, "rental_uris": {"ios": "https://dc.lft.to/lastmile_qr_scan", "android": "https://dc.lft.to/lastmile_qr_scan"}, "lon": -77.03991166666667, "bike_id": "59691bf86db2c8ec47ce88e088e7612b", "type": "electric_scooter", "name": "59691bf86db2c8ec47ce88e088e7612b"}, {"is_disabled": 0, "is_reserved": 0, "fusion_lat": 0.0, "lat": 38.87956416666667, "fusion_lon": 0.0, "rental_uris": {"ios": "https://dc.lft.to/lastmile_qr_scan", "android": "https://dc.lft.to/lastmile_qr_scan"}, "lon": -76.9318525, "bike_id": "277318229914bfe274cecffa1b9ba419", "type": "electric_bike", "name": "277318229914bfe274cecffa1b9ba419"}, {"is_disabled": 0, "is_reserved": 0, "fusion_lat": 0.0, "lat": 38.87358866666667, "fusion_lon": 0.0, "rental_uris": {"ios": "https://dc.lft.to/lastmile_qr_scan", "android": "https://dc.lft.to/lastmile_qr_scan"}, "lon": -77.11870816666666, "bike_id": "2c9b28c26cc04283af13c6057172e192", "type": "electric_bike", "name": "2c9b28c26cc04283af13c6057172e192"}, {"is_disabled": 0, "is_reserved": 0, "fusion_lat": 0.0, "lat": 38.87843766666667, "fusion_lon": 0.0, "rental_uris": {"ios": "https://dc.lft.to/lastmile_qr_scan", "android": "https://dc.lft.to/lastmile_qr_scan"}, "lon": -76.93131566666666, "bike_id": "59441594ffdf9f7cc8e0e96ba66c81c3", "type": "electric_scooter", "name": "59441594ffdf9f7cc8e0e96ba66c81c3"}, {"is_disabled": 0, "is_reserved": 0, "fusion_lat": 0.0, "lat": 38.912664166666666, "fusion_lon": 0.0, "rental_uris": {"ios": "https://dc.lft.to/lastmile_qr_scan", "android": "https://dc.lft.to/lastmile_qr_scan"}, "lon": -77.00507633333334, "bike_id": "aa9923d3d760a46c66ff213a1b22e523", "type": "electric_scooter", "name": "aa9923d3d760a46c66ff213a1b22e523"}, {"is_disabled": 0, "is_reserved": 0, "fusion_lat": 0.0, "lat": 38.883018666666665, "fusion_lon": 0.0, "rental_uris": {"ios": "https://dc.lft.to/lastmile_qr_scan", "android": "https://dc.lft.to/lastmile_qr_scan"}, "lon": -77.02558933333333, "bike_id": "44d73e42d95466cb05f1692899b9cf7d", "type": "electric_scooter", "name": "44d73e42d95466cb05f1692899b9cf7d"}, {"is_disabled": 0, "is_reserved": 0, "fusion_lat": 0.0, "lat": 39.01067466666667, "fusion_lon": 0.0, "rental_uris": {"ios": "https://dc.lft.to/lastmile_qr_scan", "android": "https://dc.lft.to/lastmile_qr_scan"}, "lon": -76.92242633333333, "bike_id": "a59864b0c0cc21465c02987ebe9b3fcf", "type": "electric_bike", "name": "a59864b0c0cc21465c02987ebe9b3fcf"}, {"is_disabled": 0, "is_reserved": 0, "fusion_lat": 0.0, "lat": 38.917774, "fusion_lon": 0.0, "rental_uris": {"ios": "https://dc.lft.to/lastmile_qr_scan", "android": "https://dc.lft.to/lastmile_qr_scan"}, "lon": -77.0321755, "bike_id": "1e0713b860b3553a8451646ad0ccf148", "type": "electric_scooter", "name": "1e0713b860b3553a8451646ad0ccf148"}, {"is_disabled": 0, "is_reserved": 0, "fusion_lat": 0.0, "lat": 38.923119666666665, "fusion_lon": 0.0, "rental_uris": {"ios": "https://dc.lft.to/lastmile_qr_scan", "android": "https://dc.lft.to/lastmile_qr_scan"}, "lon": -77.03911966666666, "bike_id": "2cf1c12dfba1e338a16c2ca56fce2512", "type": "electric_scooter", "name": "2cf1c12dfba1e338a16c2ca56fce2512"}, {"is_disabled": 0, "is_reserved": 0, "fusion_lat": 0.0, "lat": 38.981489, "fusion_lon": 0.0, "rental_uris": {"ios": "https://dc.lft.to/lastmile_qr_scan", "android": "https://dc.lft.to/lastmile_qr_scan"}, "lon": -77.00774116666666, "bike_id": "4cee960267e9ed4888d6e620ebced957", "type": "electric_bike", "name": "4cee960267e9ed4888d6e620ebced957"}, {"is_disabled": 0, "is_reserved": 0, "fusion_lat": 0.0, "lat": 38.91712166666667, "fusion_lon": 0.0, "rental_uris": {"ios": "https://dc.lft.to/lastmile_qr_scan", "android": "https://dc.lft.to/lastmile_qr_scan"}, "lon": -77.0241695, "bike_id": "9e166182ae819e8121c43982f9290bb3", "type": "electric_scooter", "name": "9e166182ae819e8121c43982f9290bb3"}, {"is_disabled": 0, "is_reserved": 0, "fusion_lat": 0.0, "lat": 38.882746833333336, "fusion_lon": 0.0, "rental_uris": {"ios": "https://dc.lft.to/lastmile_qr_scan", "android": "https://dc.lft.to/lastmile_qr_scan"}, "lon": -77.006527, "bike_id": "31e63e36e1ed93156a928fe9b9e8ee2e", "type": "electric_scooter", "name": "31e63e36e1ed93156a928fe9b9e8ee2e"}, {"is_disabled": 0, "is_reserved": 0, "fusion_lat": 0.0, "lat": 38.901512333333336, "fusion_lon": 0.0, "rental_uris": {"ios": "https://dc.lft.to/lastmile_qr_scan", "android": "https://dc.lft.to/lastmile_qr_scan"}, "lon": -76.98563066666667, "bike_id": "5fbd002cc844952edeedf7f36ff3210a", "type": "electric_scooter", "name": "5fbd002cc844952edeedf7f36ff3210a"}, {"is_disabled": 0, "is_reserved": 0, "fusion_lat": 0.0, "lat": 38.9444725, "fusion_lon": 0.0, "rental_uris": {"ios": "https://dc.lft.to/lastmile_qr_scan", "android": "https://dc.lft.to/lastmile_qr_scan"}, "lon": -77.03288783333333, "bike_id": "33b0ebc6f6932c1b8e15c6bfed34c71e", "type": "electric_scooter", "name": "33b0ebc6f6932c1b8e15c6bfed34c71e"}, {"is_disabled": 0, "is_reserved": 0, "fusion_lat": 0.0, "lat": 38.922201666666666, "fusion_lon": 0.0, "rental_uris": {"ios": "https://dc.lft.to/lastmile_qr_scan", "android": "https://dc.lft.to/lastmile_qr_scan"}, "lon": -77.035121, "bike_id": "16fb771b621fb0b7af0d2daeecda3fcc", "type": "electric_scooter", "name": "16fb771b621fb0b7af0d2daeecda3fcc"}, {"is_disabled": 0, "is_reserved": 0, "fusion_lat": 0.0, "lat": 38.905854, "fusion_lon": 0.0, "rental_uris": {"ios": "https://dc.lft.to/lastmile_qr_scan", "android": "https://dc.lft.to/lastmile_qr_scan"}, "lon": -77.0331355, "bike_id": "6f27c3f22eb9436e91dacae274a5a49e", "type": "electric_scooter", "name": "6f27c3f22eb9436e91dacae274a5a49e"}, {"is_disabled": 0, "is_reserved": 0, "fusion_lat": 0.0, "lat": 38.916501333333336, "fusion_lon": 0.0, "rental_uris": {"ios": "https://dc.lft.to/lastmile_qr_scan", "android": "https://dc.lft.to/lastmile_qr_scan"}, "lon": -77.02405483333334, "bike_id": "a105babdc402a2ce63de704f62060bc8", "type": "electric_scooter", "name": "a105babdc402a2ce63de704f62060bc8"}, {"is_disabled": 0, "is_reserved": 0, "fusion_lat": 0.0, "lat": 38.916035666666666, "fusion_lon": 0.0, "rental_uris": {"ios": "https://dc.lft.to/lastmile_qr_scan", "android": "https://dc.lft.to/lastmile_qr_scan"}, "lon": -77.022935, "bike_id": "f982155c76cc79b618bd66e1d3352b02", "type": "electric_scooter", "name": "f982155c76cc79b618bd66e1d3352b02"}, {"is_disabled": 0, "is_reserved": 0, "fusion_lat": 0.0, "lat": 38.9287345, "fusion_lon": 0.0, "rental_uris": {"ios": "https://dc.lft.to/lastmile_qr_scan", "android": "https://dc.lft.to/lastmile_qr_scan"}, "lon": -77.03994116666667, "bike_id": "25c96d8411855f00216493fc43cff7d3", "type": "electric_scooter", "name": "25c96d8411855f00216493fc43cff7d3"}, {"is_disabled": 0, "is_reserved": 0, "fusion_lat": 0.0, "lat": 38.9042545, "fusion_lon": 0.0, "rental_uris": {"ios": "https://dc.lft.to/lastmile_qr_scan", "android": "https://dc.lft.to/lastmile_qr_scan"}, "lon": -77.061277, "bike_id": "e82889c7ef60fcd87d8802031a25d338", "type": "electric_scooter", "name": "e82889c7ef60fcd87d8802031a25d338"}, {"is_disabled": 0, "is_reserved": 0, "fusion_lat": 0.0, "lat": 38.9073215, "fusion_lon": 0.0, "rental_uris": {"ios": "https://dc.lft.to/lastmile_qr_scan", "android": "https://dc.lft.to/lastmile_qr_scan"}, "lon": -77.040107, "bike_id": "6e73040bcc9617adae02e60ec3c23614", "type": "electric_scooter", "name": "6e73040bcc9617adae02e60ec3c23614"}, {"is_disabled": 0, "is_reserved": 0, "fusion_lat": 0.0, "lat": 38.900265166666664, "fusion_lon": 0.0, "rental_uris": {"ios": "https://dc.lft.to/lastmile_qr_scan", "android": "https://dc.lft.to/lastmile_qr_scan"}, "lon": -77.02621466666666, "bike_id": "660a67ae7699b531b1489c4000b72fd9", "type": "electric_scooter", "name": "660a67ae7699b531b1489c4000b72fd9"}, {"is_disabled": 0, "is_reserved": 0, "fusion_lat": 0.0, "lat": 38.919518833333335, "fusion_lon": 0.0, "rental_uris": {"ios": "https://dc.lft.to/lastmile_qr_scan", "android": "https://dc.lft.to/lastmile_qr_scan"}, "lon": -77.022992, "bike_id": "76c0a62a8f5083c29794b41d991436ff", "type": "electric_scooter", "name": "76c0a62a8f5083c29794b41d991436ff"}, {"is_disabled": 0, "is_reserved": 0, "fusion_lat": 0.0, "lat": 38.91453166666667, "fusion_lon": 0.0, "rental_uris": {"ios": "https://dc.lft.to/lastmile_qr_scan", "android": "https://dc.lft.to/lastmile_qr_scan"}, "lon": -77.04589833333333, "bike_id": "09d1418a746d19bd8c89e7b790934083", "type": "electric_scooter", "name": "09d1418a746d19bd8c89e7b790934083"}, {"is_disabled": 0, "is_reserved": 0, "fusion_lat": 0.0, "lat": 38.90814483333333, "fusion_lon": 0.0, "rental_uris": {"ios": "https://dc.lft.to/lastmile_qr_scan", "android": "https://dc.lft.to/lastmile_qr_scan"}, "lon": -77.02530166666666, "bike_id": "1f9979b4baa6f5e80fd7304f6960ab96", "type": "electric_scooter", "name": "1f9979b4baa6f5e80fd7304f6960ab96"}, {"is_disabled": 0, "is_reserved": 0, "fusion_lat": 0.0, "lat": 38.925351166666665, "fusion_lon": 0.0, "rental_uris": {"ios": "https://dc.lft.to/lastmile_qr_scan", "android": "https://dc.lft.to/lastmile_qr_scan"}, "lon": -77.02562483333334, "bike_id": "dff185869042b2647101615bdd70f101", "type": "electric_scooter", "name": "dff185869042b2647101615bdd70f101"}, {"is_disabled": 0, "is_reserved": 0, "fusion_lat": 0.0, "lat": 38.957339833333336, "fusion_lon": 0.0, "rental_uris": {"ios": "https://dc.lft.to/lastmile_qr_scan", "android": "https://dc.lft.to/lastmile_qr_scan"}, "lon": -77.02424833333333, "bike_id": "9904faab1ba6918846b856a6b3746204", "type": "electric_bike", "name": "9904faab1ba6918846b856a6b3746204"}, {"is_disabled": 0, "is_reserved": 0, "fusion_lat": 0.0, "lat": 38.87921983333333, "fusion_lon": 0.0, "rental_uris": {"ios": "https://dc.lft.to/lastmile_qr_scan", "android": "https://dc.lft.to/lastmile_qr_scan"}, "lon": -77.00403033333333, "bike_id": "2b5aa1d580e1e8a1fddd98c0823968ff", "type": "electric_scooter", "name": "2b5aa1d580e1e8a1fddd98c0823968ff"}, {"is_disabled": 0, "is_reserved": 0, "fusion_lat": 0.0, "lat": 38.930650166666666, "fusion_lon": 0.0, "rental_uris": {"ios": "https://dc.lft.to/lastmile_qr_scan", "android": "https://dc.lft.to/lastmile_qr_scan"}, "lon": -77.03361816666667, "bike_id": "1d9931bae963814e7af25ce8508652eb", "type": "electric_scooter", "name": "1d9931bae963814e7af25ce8508652eb"}, {"is_disabled": 0, "is_reserved": 0, "fusion_lat": 0.0, "lat": 38.947915, "fusion_lon": 0.0, "rental_uris": {"ios": "https://dc.lft.to/lastmile_qr_scan", "android": "https://dc.lft.to/lastmile_qr_scan"}, "lon": -77.07899533333334, "bike_id": "208ed751c9b00eaa82a6a913ec11f1ae", "type": "electric_scooter", "name": "208ed751c9b00eaa82a6a913ec11f1ae"}, {"is_disabled": 0, "is_reserved": 0, "fusion_lat": 0.0, "lat": 38.884812833333335, "fusion_lon": 0.0, "rental_uris": {"ios": "https://dc.lft.to/lastmile_qr_scan", "android": "https://dc.lft.to/lastmile_qr_scan"}, "lon": -77.03174916666667, "bike_id": "b499c8f93e5fbabdc8f6b6a06634f654", "type": "electric_bike", "name": "b499c8f93e5fbabdc8f6b6a06634f654"}, {"is_disabled": 0, "is_reserved": 0, "fusion_lat": 0.0, "lat": 38.96383083333333, "fusion_lon": 0.0, "rental_uris": {"ios": "https://dc.lft.to/lastmile_qr_scan", "android": "https://dc.lft.to/lastmile_qr_scan"}, "lon": -77.01978033333333, "bike_id": "0a0c1ebcff75038899d6ede37e0e1554", "type": "electric_bike", "name": "0a0c1ebcff75038899d6ede37e0e1554"}, {"is_disabled": 0, "is_reserved": 0, "fusion_lat": 0.0, "lat": 38.9509865, "fusion_lon": 0.0, "rental_uris": {"ios": "https://dc.lft.to/lastmile_qr_scan", "android": "https://dc.lft.to/lastmile_qr_scan"}, "lon": -77.021985, "bike_id": "5538d8dd817a39989fa34a20f715c428", "type": "electric_scooter", "name": "5538d8dd817a39989fa34a20f715c428"}, {"is_disabled": 0, "is_reserved": 0, "fusion_lat": 0.0, "lat": 38.90033616666667, "fusion_lon": 0.0, "rental_uris": {"ios": "https://dc.lft.to/lastmile_qr_scan", "android": "https://dc.lft.to/lastmile_qr_scan"}, "lon": -77.00375216666667, "bike_id": "fa75b0acd0a9eba216009f821c0d970b", "type": "electric_scooter", "name": "fa75b0acd0a9eba216009f821c0d970b"}, {"is_disabled": 0, "is_reserved": 0, "fusion_lat": 0.0, "lat": 38.902776, "fusion_lon": 0.0, "rental_uris": {"ios": "https://dc.lft.to/lastmile_qr_scan", "android": "https://dc.lft.to/lastmile_qr_scan"}, "lon": -77.01162083333334, "bike_id": "0db86ecf9a1b30f42904211393766c69", "type": "electric_scooter", "name": "0db86ecf9a1b30f42904211393766c69"}, {"is_disabled": 0, "is_reserved": 0, "fusion_lat": 0.0, "lat": 38.933651833333336, "fusion_lon": 0.0, "rental_uris": {"ios": "https://dc.lft.to/lastmile_qr_scan", "android": "https://dc.lft.to/lastmile_qr_scan"}, "lon": -77.02646633333333, "bike_id": "0531125f0eee8e10e4c02e5f4dd2a394", "type": "electric_scooter", "name": "0531125f0eee8e10e4c02e5f4dd2a394"}, {"is_disabled": 0, "is_reserved": 0, "fusion_lat": 0.0, "lat": 38.919703, "fusion_lon": 0.0, "rental_uris": {"ios": "https://dc.lft.to/lastmile_qr_scan", "android": "https://dc.lft.to/lastmile_qr_scan"}, "lon": -77.00214383333334, "bike_id": "c642fef15b06fff04fbdf8f8c6f30a62", "type": "electric_scooter", "name": "c642fef15b06fff04fbdf8f8c6f30a62"}, {"is_disabled": 0, "is_reserved": 0, "fusion_lat": 0.0, "lat": 38.9110885, "fusion_lon": 0.0, "rental_uris": {"ios": "https://dc.lft.to/lastmile_qr_scan", "android": "https://dc.lft.to/lastmile_qr_scan"}, "lon": -77.040431, "bike_id": "b489c585c09fb7aa1059b252c35b8d82", "type": "electric_scooter", "name": "b489c585c09fb7aa1059b252c35b8d82"}, {"is_disabled": 0, "is_reserved": 0, "fusion_lat": 0.0, "lat": 38.933793333333334, "fusion_lon": 0.0, "rental_uris": {"ios": "https://dc.lft.to/lastmile_qr_scan", "android": "https://dc.lft.to/lastmile_qr_scan"}, "lon": -77.02729083333334, "bike_id": "f69009f8eae232be5bb73931a34f1140", "type": "electric_scooter", "name": "f69009f8eae232be5bb73931a34f1140"}, {"is_disabled": 0, "is_reserved": 0, "fusion_lat": 0.0, "lat": 38.90606983333333, "fusion_lon": 0.0, "rental_uris": {"ios": "https://dc.lft.to/lastmile_qr_scan", "android": "https://dc.lft.to/lastmile_qr_scan"}, "lon": -77.05650416666667, "bike_id": "faefe03bffc28ce33c4f817418065862", "type": "electric_scooter", "name": "faefe03bffc28ce33c4f817418065862"}, {"is_disabled": 0, "is_reserved": 0, "fusion_lat": 0.0, "lat": 38.940864833333336, "fusion_lon": 0.0, "rental_uris": {"ios": "https://dc.lft.to/lastmile_qr_scan", "android": "https://dc.lft.to/lastmile_qr_scan"}, "lon": -77.001584, "bike_id": "ac4f5a40732e586c8cd491b9064038db", "type": "electric_bike", "name": "ac4f5a40732e586c8cd491b9064038db"}, {"is_disabled": 0, "is_reserved": 0, "fusion_lat": 0.0, "lat": 38.906076166666665, "fusion_lon": 0.0, "rental_uris": {"ios": "https://dc.lft.to/lastmile_qr_scan", "android": "https://dc.lft.to/lastmile_qr_scan"}, "lon": -77.12891883333333, "bike_id": "f909f480b980df121b77817179a5cda4", "type": "electric_bike", "name": "f909f480b980df121b77817179a5cda4"}, {"is_disabled": 0, "is_reserved": 0, "fusion_lat": 0.0, "lat": 38.934426333333334, "fusion_lon": 0.0, "rental_uris": {"ios": "https://dc.lft.to/lastmile_qr_scan", "android": "https://dc.lft.to/lastmile_qr_scan"}, "lon": -77.02985066666666, "bike_id": "af82623ff85f041d37b624f080551bff", "type": "electric_scooter", "name": "af82623ff85f041d37b624f080551bff"}, {"is_disabled": 0, "is_reserved": 0, "fusion_lat": 0.0, "lat": 38.877599333333336, "fusion_lon": 0.0, "rental_uris": {"ios": "https://dc.lft.to/lastmile_qr_scan", "android": "https://dc.lft.to/lastmile_qr_scan"}, "lon": -77.00446383333333, "bike_id": "5a79ceb5dd86e722434299d8529aad55", "type": "electric_scooter", "name": "5a79ceb5dd86e722434299d8529aad55"},