{"data": {"bikes": [{"lat": 38.91620416666667, "is_disabled": 0, "type": "electric_scooter", "lon": -77.02170216666667, "bike_id": "0b785daf96f7287b0170d7e582cc7b66", "fusion_lat": 0.0, "name": "0b785daf96f7287b0170d7e582cc7b66", "is_reserved": 0, "rental_uris": {"android": "https://dc.lft.to/lastmile_qr_scan", "ios": "https://dc.lft.to/lastmile_qr_scan"}, "fusion_lon": 0.0}, {"lat": 38.89204, "is_disabled": 0, "type": "electric_scooter", "lon": -76.985625, "bike_id": "f95de82690b31722cf70fb94989ed8fd", "fusion_lat": 0.0, "name": "f95de82690b31722cf70fb94989ed8fd", "is_reserved": 0, "rental_uris": {"android": "https://dc.lft.to/lastmile_qr_scan", "ios": "https://dc.lft.to/lastmile_qr_scan"}, "fusion_lon": 0.0}, {"lat": 38.938627, "is_disabled": 0, "type": "electric_scooter", "lon": -77.03095283333333, "bike_id": "0b1cfbf4baf1fcda4d93bacd21b25d06", "fusion_lat": 0.0, "name": "0b1cfbf4baf1fcda4d93bacd21b25d06", "is_reserved": 0, "rental_uris": {"android": "https://dc.lft.to/lastmile_qr_scan", "ios": "https://dc.lft.to/lastmile_qr_scan"}, "fusion_lon": 0.0}, {"lat": 39.030399833333334, "is_disabled": 0, "type": "electric_bike", "lon": -77.094821, "bike_id": "341e1ca1b2904e0b724780f874b597d1", "fusion_lat": 0.0, "name": "341e1ca1b2904e0b724780f874b597d1", "is_reserved": 0, "rental_uris": {"android": "https://dc.lft.to/lastmile_qr_scan", "ios": "https://dc.lft.to/lastmile_qr_scan"}, "fusion_lon": 0.0}, {"lat": 38.913166333333336, "is_disabled": 0, "type": "electric_scooter", "lon": -76.98645133333333, "bike_id": "4ba149d670b93f8b05e6e85b078d9b0d", "fusion_lat": 0.0, "name": "4ba149d670b93f8b05e6e85b078d9b0d", "is_reserved": 0, "rental_uris": {"android": "https://dc.lft.to/lastmile_qr_scan", "ios": "https://dc.lft.to/lastmile_qr_scan"}, "fusion_lon": 0.0}, {"lat": 38.917004666666664, "is_disabled": 0, "type": "electric_scooter", "lon": -77.02734883333333, "bike_id": "d8d4a4942c1dced38279e3f56e9ec5f0", "fusion_lat": 0.0, "name": "d8d4a4942c1dced38279e3f56e9ec5f0", "is_reserved": 0, "rental_uris": {"android": "https://dc.lft.to/lastmile_qr_scan", "ios": "https://dc.lft.to/lastmile_qr_scan"}, "fusion_lon": 0.0}, {"lat": 38.91736983333333, "is_disabled": 0, "type": "electric_scooter", "lon": -77.03203816666667, "bike_id": "fd667cd599e757e6c36befb982422563", "fusion_lat": 0.0, "name": "fd667cd599e757e6c36befb982422563", "is_reserved": 0, "rental_uris": {"android": "https://dc.lft.to/lastmile_qr_scan", "ios": "https://dc.lft.to/lastmile_qr_scan"}, "fusion_lon": 0.0}, {"lat": 38.89979483333333, "is_disabled": 0, "type": "electric_scooter", "lon": -77.02072616666666, "bike_id": "1be15cd401522213daf6bdde3dcd8f3b", "fusion_lat": 0.0, "name": "1be15cd401522213daf6bdde3dcd8f3b", "is_reserved": 0, "rental_uris": {"android": "https://dc.lft.to/lastmile_qr_scan", "ios": "https://dc.lft.to/lastmile_qr_scan"}, "fusion_lon": 0.0}, {"lat": 38.99818466666667, "is_disabled": 0, "type": "electric_bike", "lon": -76.88378866666666, "bike_id": "b69c7af81f78ee79d6af7fb1f127f538", "fusion_lat": 0.0, "name": "b69c7af81f78ee79d6af7fb1f127f538", "is_reserved": 0, "rental_uris": {"android": "https://dc.lft.to/lastmile_qr_scan", "ios": "https://dc.lft.to/lastmile_qr_scan"}, "fusion_lon": 0.0}, {"lat": 38.949743833333336, "is_disabled": 0, "type": "electric_scooter", "lon": -77.06561483333333, "bike_id": "31409c5ad4d6a07eca79618d42b61bcb", "fusion_lat": 0.0, "name": "31409c5ad4d6a07eca79618d42b61bcb", "is_reserved": 0, "rental_uris": {"android": "https://dc.lft.to/lastmile_qr_scan", "ios": "https://dc.lft.to/lastmile_qr_scan"}, "fusion_lon": 0.0}, {"lat": 39.02429433333333, "is_disabled": 0, "type": "electric_bike", "lon": -77.13100716666666, "bike_id": "027b0709264673fad2b9d756363efe1a", "fusion_lat": 0.0, "name": "027b0709264673fad2b9d756363efe1a", "is_reserved": 0, "rental_uris": {"android": "https://dc.lft.to/lastmile_qr_scan", "ios": "https://dc.lft.to/lastmile_qr_scan"}, "fusion_lon": 0.0}, {"lat": 38.944366333333335, "is_disabled": 0, "type": "electric_scooter", "lon": -77.02343166666667, "bike_id": "7ff28ad8083890e52caa7a9566704148", "fusion_lat": 0.0, "name": "7ff28ad8083890e52caa7a9566704148", "is_reserved": 0, "rental_uris": {"android": "https://dc.lft.to/lastmile_qr_scan", "ios": "https://dc.lft.to/lastmile_qr_scan"}, "fusion_lon": 0.0}, {"lat": 38.90456266666666, "is_disabled": 0, "type": "electric_scooter", "lon": -77.0629245, "bike_id": "c9e154112cf003004ac87156f9f8fea7", "fusion_lat": 0.0, "name": "c9e154112cf003004ac87156f9f8fea7", "is_reserved": 0, "rental_uris": {"android": "https://dc.lft.to/lastmile_qr_scan", "ios": "https://dc.lft.to/lastmile_qr_scan"}, "fusion_lon": 0.0}, {"lat": 38.929186, "is_disabled": 0, "type": "electric_scooter", "lon": -77.03270883333333, "bike_id": "ecf5ecbbf0236ddf4ccedaea3c8a4f5f", "fusion_lat": 0.0, "name": "ecf5ecbbf0236ddf4ccedaea3c8a4f5f", "is_reserved": 0, "rental_uris": {"android": "https://dc.lft.to/lastmile_qr_scan", "ios": "https://dc.lft.to/lastmile_qr_scan"}, "fusion_lon": 0.0}, {"lat": 38.92762483333333, "is_disabled": 0, "type": "electric_scooter", "lon": -77.02625566666667, "bike_id": "ce36f4eff371205c732760ea7fdc1e6c", "fusion_lat": 0.0, "name": "ce36f4eff371205c732760ea7fdc1e6c", "is_reserved": 0, "rental_uris": {"android": "https://dc.lft.to/lastmile_qr_scan", "ios": "https://dc.lft.to/lastmile_qr_scan"}, "fusion_lon": 0.0}, {"lat": 38.922814833333334, "is_disabled": 0, "type": "electric_scooter", "lon": -77.0320295, "bike_id": "2f001c97d855c08d9d63234fd9d8918f", "fusion_lat": 0.0, "name": "2f001c97d855c08d9d63234fd9d8918f", "is_reserved": 0, "rental_uris": {"android": "https://dc.lft.to/lastmile_qr_scan", "ios": "https://dc.lft.to/lastmile_qr_scan"}, "fusion_lon": 0.0}, {"lat": 38.90399266666667, "is_disabled": 0, "type": "electric_scooter", "lon": -77.04807033333333, "bike_id": "8a924dde5b34b6f7ebebabfe0b60b188", "fusion_lat": 0.0, "name": "8a924dde5b34b6f7ebebabfe0b60b188", "is_reserved": 0, "rental_uris": {"android": "https://dc.lft.to/lastmile_qr_scan", "ios": "https://dc.lft.to/lastmile_qr_scan"}, "fusion_lon": 0.0}, {"lat": 38.9813575, "is_disabled": 0, "type": "electric_bike", "lon": -77.00773983333333, "bike_id": "c95f81fb88c14c929d86b8780ee32930", "fusion_lat": 0.0, "name": "c95f81fb88c14c929d86b8780ee32930", "is_reserved": 0, "rental_uris": {"android": "https://dc.lft.to/lastmile_qr_scan", "ios": "https://dc.lft.to/lastmile_qr_scan"}, "fusion_lon": 0.0}, {"lat": 38.91719633333334, "is_disabled": 0, "type": "electric_scooter", "lon": -77.03660333333333, "bike_id": "9ff9010e69ac143e690245089cc529e7", "fusion_lat": 0.0, "name": "9ff9010e69ac143e690245089cc529e7", "is_reserved": 0, "rental_uris": {"android": "https://dc.lft.to/lastmile_qr_scan", "ios": "https://dc.lft.to/lastmile_qr_scan"}, "fusion_lon": 0.0}, {"lat": 38.85728783333333, "is_disabled": 0, "type": "electric_scooter", "lon": -76.994411, "bike_id": "cf6a41c45fa209ed077b37fc4d5b49ab", "fusion_lat": 0.0, "name": "cf6a41c45fa209ed077b37fc4d5b49ab", "is_reserved": 0, "rental_uris": {"android": "https://dc.lft.to/lastmile_qr_scan", "ios": "https://dc.lft.to/lastmile_qr_scan"}, "fusion_lon": 0.0}, {"lat": 38.911196, "is_disabled": 0, "type": "electric_scooter", "lon": -77.04359083333334, "bike_id": "ffe5403dd43189a7d0e817e6ba7c23d5", "fusion_lat": 0.0, "name": "ffe5403dd43189a7d0e817e6ba7c23d5", "is_reserved": 0, "rental_uris": {"android": "https://dc.lft.to/lastmile_qr_scan", "ios": "https://dc.lft.to/lastmile_qr_scan"}, "fusion_lon": 0.0}, {"lat": 38.851885833333334, "is_disabled": 0, "type": "electric_scooter", "lon": -76.97620183333333, "bike_id": "a7f373c28ddd2a9615978251e4530799", "fusion_lat": 0.0, "name": "a7f373c28ddd2a9615978251e4530799", "is_reserved": 0, "rental_uris": {"android": "https://dc.lft.to/lastmile_qr_scan", "ios": "https://dc.lft.to/lastmile_qr_scan"}, "fusion_lon": 0.0}, {"lat": 38.84429316666667, "is_disabled": 0, "type": "electric_scooter", "lon": -76.9965855, "bike_id": "bdcec9260dd0432ef5554556ab7dc74c", "fusion_lat": 0.0, "name": "bdcec9260dd0432ef5554556ab7dc74c", "is_reserved": 0, "rental_uris": {"android": "https://dc.lft.to/lastmile_qr_scan", "ios": "https://dc.lft.to/lastmile_qr_scan"}, "fusion_lon": 0.0}, {"lat": 38.890678666666666, "is_disabled": 0, "type": "electric_scooter", "lon": -76.98838516666666, "bike_id": "92d117cbc48fb40d81282c0f994bd1e3", "fusion_lat": 0.0, "name": "92d117cbc48fb40d81282c0f994bd1e3", "is_reserved": 0, "rental_uris": {"android": "https://dc.lft.to/lastmile_qr_scan", "ios": "https://dc.lft.to/lastmile_qr_scan"}, "fusion_lon": 0.0}, {"lat": 38.9011505, "is_disabled": 0, "type": "electric_scooter", "lon": -77.04357483333334, "bike_id": "d4f3cfd9d05b808f9c0b6d5d63d32efb", "fusion_lat": 0.0, "name": "d4f3cfd9d05b808f9c0b6d5d63d32efb", "is_reserved": 0, "rental_uris": {"android": "https://dc.lft.to/lastmile_qr_scan", "ios": "https://dc.lft.to/lastmile_qr_scan"}, "fusion_lon": 0.0}, {"lat": 38.936549166666666, "is_disabled": 0, "type": "electric_bike", "lon": -76.95221633333334, "bike_id": "0f03a6c8bab353a4b00552c6dbd35727", "fusion_lat": 0.0, "name": "0f03a6c8bab353a4b00552c6dbd35727", "is_reserved": 0, "rental_uris": {"android": "https://dc.lft.to/lastmile_qr_scan", "ios": "https://dc.lft.to/lastmile_qr_scan"}, "fusion_lon": 0.0}, {"lat": 38.900629, "is_disabled": 0, "type": "electric_scooter", "lon": -77.048923, "bike_id": "491d700fc45f3f7315c3461850d598d4", "fusion_lat": 0.0, "name": "491d700fc45f3f7315c3461850d598d4", "is_reserved": 0, "rental_uris": {"android": "https://dc.lft.to/lastmile_qr_scan", "ios": "https://dc.lft.to/lastmile_qr_scan"}, "fusion_lon": 0.0}, {"lat": 38.94548016666667, "is_disabled": 0, "type": "electric_bike", "lon": -76.895336, "bike_id": "51e7cd5b96c72ecb2d675f442b329e5e", "fusion_lat": 0.0, "name": "51e7cd5b96c72ecb2d675f442b329e5e", "is_reserved": 0, "rental_uris": {"android": "https://dc.lft.to/lastmile_qr_scan", "ios": "https://dc.lft.to/lastmile_qr_scan"}, "fusion_lon": 0.0}, {"lat": 38.9925415, "is_disabled": 0, "type": "electric_scooter", "lon": -77.0365455, "bike_id": "c7a7544b68e75ed6613a7d7b15ddfe92", "fusion_lat": 0.0, "name": "c7a7544b68e75ed6613a7d7b15ddfe92", "is_reserved": 0, "rental_uris": {"android": "https://dc.lft.to/lastmile_qr_scan", "ios": "https://dc.lft.to/lastmile_qr_scan"}, "fusion_lon": 0.0}, {"lat": 38.85713466666667, "is_disabled": 0, "type": "electric_scooter", "lon": -76.9867525, "bike_id": "37fadf1e0812869c9527a0f1929b0874", "fusion_lat": 0.0, "name": "37fadf1e0812869c9527a0f1929b0874", "is_reserved": 0, "rental_uris": {"android": "https://dc.lft.to/lastmile_qr_scan", "ios": "https://dc.lft.to/lastmile_qr_scan"}, "fusion_lon": 0.0}, {"lat": 39.034330833333335, "is_disabled": 0, "type": "electric_bike", "lon": -77.04315633333333, "bike_id": "e0462f5ac108a6f0873c2fd5eaf606aa", "fusion_lat": 0.0, "name": "e0462f5ac108a6f0873c2fd5eaf606aa", "is_reserved": 0, "rental_uris": {"android": "https://dc.lft.to/lastmile_qr_scan", "ios": "https://dc.lft.to/lastmile_qr_scan"}, "fusion_lon": 0.0}, {"lat": 38.893524166666666, "is_disabled": 0, "type": "electric_scooter", "lon": -77.04146566666667, "bike_id": "54701a83ac88a35c62535e612f039fff", "fusion_lat": 0.0, "name": "54701a83ac88a35c62535e612f039fff", "is_reserved": 0, "rental_uris": {"android": "https://dc.lft.to/lastmile_qr_scan", "ios": "https://dc.lft.to/lastmile_qr_scan"}, "fusion_lon": 0.0}, {"lat": 38.9258085, "is_disabled": 0, "type": "electric_scooter", "lon": -77.04412383333333, "bike_id": "2d324eaceffa699f0238df9fbae76ebb", "fusion_lat": 0.0, "name": "2d324eaceffa699f0238df9fbae76ebb", "is_reserved": 0, "rental_uris": {"android": "https://dc.lft.to/lastmile_qr_scan", "ios": "https://dc.lft.to/lastmile_qr_scan"}, "fusion_lon": 0.0}, {"lat": 38.90967583333333, "is_disabled": 0, "type": "electric_scooter", "lon": -77.04619233333334, "bike_id": "fbf64872030f5ac249ee4a35bbd1b0bc", "fusion_lat": 0.0, "name": "fbf64872030f5ac249ee4a35bbd1b0bc", "is_reserved": 0, "rental_uris": {"android": "https://dc.lft.to/lastmile_qr_scan", "ios": "https://dc.lft.to/lastmile_qr_scan"}, "fusion_lon": 0.0}, {"lat": 38.9051305, "is_disabled": 0, "type": "electric_scooter", "lon": -77.06180283333333, "bike_id": "ecc984bd46378b3ce9907db062e4924f", "fusion_lat": 0.0, "name": "ecc984bd46378b3ce9907db062e4924f", "is_reserved": 0, "rental_uris": {"android": "https://dc.lft.to/lastmile_qr_scan", "ios": "https://dc.lft.to/lastmile_qr_scan"}, "fusion_lon": 0.0}, {"lat": 38.93099383333333, "is_disabled": 0, "type": "electric_scooter", "lon": -77.02477433333334, "bike_id": "16527cc03719656082df7367388cca7a", "fusion_lat": 0.0, "name": "16527cc03719656082df7367388cca7a", "is_reserved": 0, "rental_uris": {"android": "https://dc.lft.to/lastmile_qr_scan", "ios": "https://dc.lft.to/lastmile_qr_scan"}, "fusion_lon": 0.0}, {"lat": 38.93732766666667, "is_disabled": 0, "type": "electric_scooter", "lon": -77.03618966666667, "bike_id": "37ede39d783013018734175161131e5a", "fusion_lat": 0.0, "name": "37ede39d783013018734175161131e5a", "is_reserved": 0, "rental_uris": {"android": "https://dc.lft.to/lastmile_qr_scan", "ios": "https://dc.lft.to/lastmile_qr_scan"}, "fusion_lon": 0.0}, {"lat": 38.999936166666664, "is_disabled": 0, "type": "electric_bike", "lon": -76.9249795, "bike_id": "df1858fd4557ae098dedbf93ad028a11", "fusion_lat": 0.0, "name": "df1858fd4557ae098dedbf93ad028a11", "is_reserved": 0, "rental_uris": {"android": "https://dc.lft.to/lastmile_qr_scan", "ios": "https://dc.lft.to/lastmile_qr_scan"}, "fusion_lon": 0.0}, {"lat": 38.89090616666667, "is_disabled": 0, "type": "electric_scooter", "lon": -76.95270333333333, "bike_id": "1c52f7d3220d0bd1091d46f1de839e62", "fusion_lat": 0.0, "name": "1c52f7d3220d0bd1091d46f1de839e62", "is_reserved": 0, "rental_uris": {"android": "https://dc.lft.to/lastmile_qr_scan", "ios": "https://dc.lft.to/lastmile_qr_scan"}, "fusion_lon": 0.0}, {"lat": 38.938627333333336, "is_disabled": 0, "type": "electric_scooter", "lon": -77.02740383333334, "bike_id": "81230d99be5f6db891182d82cfa9e9a6", "fusion_lat": 0.0, "name": "81230d99be5f6db891182d82cfa9e9a6", "is_reserved": 0, "rental_uris": {"android": "https://dc.lft.to/lastmile_qr_scan", "ios": "https://dc.lft.to/lastmile_qr_scan"}, "fusion_lon": 0.0}, {"lat": 38.9111295, "is_disabled": 0, "type": "electric_scooter", "lon": -77.03721133333333, "bike_id": "047df9e5990853fa7de8283b46ba6eb0", "fusion_lat": 0.0, "name": "047df9e5990853fa7de8283b46ba6eb0", "is_reserved": 0, "rental_uris": {"android": "https://dc.lft.to/lastmile_qr_scan", "ios": "https://dc.lft.to/lastmile_qr_scan"}, "fusion_lon": 0.0}, {"lat": 38.91638583333334, "is_disabled": 0, "type": "electric_scooter", "lon": -77.02239433333334, "bike_id": "748274a0fc54a2fb52f8654617ae795d", "fusion_lat": 0.0, "name": "748274a0fc54a2fb52f8654617ae795d", "is_reserved": 0, "rental_uris": {"android": "https://dc.lft.to/lastmile_qr_scan", "ios": "https://dc.lft.to/lastmile_qr_scan"}, "fusion_lon": 0.0}, {"lat": 38.92133366666667, "is_disabled": 0, "type": "electric_scooter", "lon": -77.04479516666666, "bike_id": "26a91b02d0d258e63e6c127ef8f5b22a", "fusion_lat": 0.0, "name": "26a91b02d0d258e63e6c127ef8f5b22a", "is_reserved": 0, "rental_uris": {"android": "https://dc.lft.to/lastmile_qr_scan", "ios": "https://dc.lft.to/lastmile_qr_scan"}, "fusion_lon": 0.0}, {"lat": 38.9521035, "is_disabled": 0, "type": "electric_scooter", "lon": -77.0859915, "bike_id": "372a78051ec8176a076280da48391617", "fusion_lat": 0.0, "name": "372a78051ec8176a076280da48391617", "is_reserved": 0, "rental_uris": {"android": "https://dc.lft.to/lastmile_qr_scan", "ios": "https://dc.lft.to/lastmile_qr_scan"}, "fusion_lon": 0.0}, {"lat": 38.913086666666665, "is_disabled": 0, "type": "electric_scooter", "lon": -77.031971, "bike_id": "9842442c60604772d1e61d12385f6520", "fusion_lat": 0.0, "name": "9842442c60604772d1e61d12385f6520", "is_reserved": 0, "rental_uris": {"android": "https://dc.lft.to/lastmile_qr_scan", "ios": "https://dc.lft.to/lastmile_qr_scan"}, "fusion_lon": 0.0}, {"lat": 38.859530166666666, "is_disabled": 0, "type": "electric_scooter", "lon": -76.99138916666666, "bike_id": "854f43f81486a72be28ba646941e37fe", "fusion_lat": 0.0, "name": "854f43f81486a72be28ba646941e37fe", "is_reserved": 0, "rental_uris": {"android": "https://dc.lft.to/lastmile_qr_scan", "ios": "https://dc.lft.to/lastmile_qr_scan"}, "fusion_lon": 0.0}, {"lat": 39.00377683333333, "is_disabled": 0, "type": "electric_bike", "lon": -77.01300083333334, "bike_id": "41ed45b2ca4dc45ccca688c83a8cc95e", "fusion_lat": 0.0, "name": "41ed45b2ca4dc45ccca688c83a8cc95e", "is_reserved": 0, "rental_uris": {"android": "https://dc.lft.to/lastmile_qr_scan", "ios": "https://dc.lft.to/lastmile_qr_scan"}, "fusion_lon": 0.0}, {"lat": 38.802670166666665, "is_disabled": 0, "type": "electric_bike", "lon": -77.081127, "bike_id": "6036f1448e59e12525cc6478e29792d8", "fusion_lat": 0.0, "name": "6036f1448e59e12525cc6478e29792d8", "is_reserved": 0, "rental_uris": {"android": "https://dc.lft.to/lastmile_qr_scan", "ios": "https://dc.lft.to/lastmile_qr_scan"}, "fusion_lon": 0.0}, {"lat": 38.9001715, "is_disabled": 0, "type": "electric_scooter", "lon": -76.9989635, "bike_id": "47b5b85cf3a1e6532597f3c06d92ced0", "fusion_lat": 0.0, "name": "47b5b85cf3a1e6532597f3c06d92ced0", "is_reserved": 0, "rental_uris": {"android": "https://dc.lft.to/lastmile_qr_scan", "ios": "https://dc.lft.to/lastmile_qr_scan"}, "fusion_lon": 0.0}, {"lat": 38.92339333333334, "is_disabled": 0, "type": "electric_scooter", "lon": -77.02454116666667, "bike_id": "edd4dbef5c09653987f2e6525f9f624f", "fusion_lat": 0.0, "name": "edd4dbef5c09653987f2e6525f9f624f", "is_reserved": 0, "rental_uris": {"android": "https://dc.lft.to/lastmile_qr_scan", "ios": "https://dc.lft.to/lastmile_qr_scan"}, "fusion_lon": 0.0}, {"lat": 38.933479, "is_disabled": 0, "type": "electric_scooter", "lon": -77.02491166666667, "bike_id": "a9831175ecfcaf98d7ac492bc2b6cc86", "fusion_lat": 0.0, "name": "a9831175ecfcaf98d7ac492bc2b6cc86", "is_reserved": 0, "rental_uris": {"android": "https://dc.lft.to/lastmile_qr_scan", "ios": "https://dc.lft.to/lastmile_qr_scan"}, "fusion_lon": 0.0}, {"lat": 38.91962066666667, "is_disabled": 0, "type": "electric_scooter", "lon": -77.01224766666667, "bike_id": "9be7cd0921601657b50e7b5697e478ff", "fusion_lat": 0.0, "name": "9be7cd0921601657b50e7b5697e478ff", "is_reserved": 0, "rental_uris": {"android": "https://dc.lft.to/lastmile_qr_scan", "ios": "https://dc.lft.to/lastmile_qr_scan"}, "fusion_lon": 0.0}, {"lat": 38.89040883333333, "is_disabled": 0, "type": "electric_scooter", "lon": -76.95247633333334, "bike_id": "3d59d90cb18fcacbdd51902deb6ca46d", "fusion_lat": 0.0, "name": "3d59d90cb18fcacbdd51902deb6ca46d", "is_reserved": 0, "rental_uris": {"android": "https://dc.lft.to/lastmile_qr_scan", "ios": "https://dc.lft.to/lastmile_qr_scan"}, "fusion_lon": 0.0}, {"lat": 38.9028625, "is_disabled": 0, "type": "electric_scooter", "lon": -77.04372083333334, "bike_id": "0d2f1e2aac818189704482c8558c1d50", "fusion_lat": 0.0, "name": "0d2f1e2aac818189704482c8558c1d50", "is_reserved": 0, "rental_uris": {"android": "https://dc.lft.to/lastmile_qr_scan", "ios": "https://dc.lft.to/lastmile_qr_scan"}, "fusion_lon": 0.0}, {"lat": 39.0563195, "is_disabled": 0, "type": "electric_bike", "lon": -77.12528066666667, "bike_id": "3a4d8e4f38ed67b659da5ce626070200", "fusion_lat": 0.0, "name": "3a4d8e4f38ed67b659da5ce626070200", "is_reserved": 0, "rental_uris": {"android": "https://dc.lft.to/lastmile_qr_scan", "ios": "https://dc.lft.to/lastmile_qr_scan"}, "fusion_lon": 0.0}, {"lat": 38.898135333333336, "is_disabled": 0, "type": "electric_scooter", "lon": -77.0310045, "bike_id": "04eb774bb68aac6ccab3cee10fec1be0", "fusion_lat": 0.0, "name": "04eb774bb68aac6ccab3cee10fec1be0", "is_reserved": 0, "rental_uris": {"android": "https://dc.lft.to/lastmile_qr_scan", "ios": "https://dc.lft.to/lastmile_qr_scan"}, "fusion_lon": 0.0}, {"lat": 38.91180216666667, "is_disabled": 0, "type": "electric_scooter", "lon": -77.042922, "bike_id": "44b7ad6f07d7979bedcc6d3383d50da3", "fusion_lat": 0.0, "name": "44b7ad6f07d7979bedcc6d3383d50da3", "is_reserved": 0, "rental_uris": {"android": "https://dc.lft.to/lastmile_qr_scan", "ios": "https://dc.lft.to/lastmile_qr_scan"}, "fusion_lon": 0.0}, {"lat": 38.884167833333336, "is_disabled": 0, "type": "electric_bike", "lon": -76.95412416666667, "bike_id": "72db432e7ab8a30c820f65dab98d0d29", "fusion_lat": 0.0, "name": "72db432e7ab8a30c820f65dab98d0d29", "is_reserved": 0, "rental_uris": {"android": "https://dc.lft.to/lastmile_qr_scan", "ios": "https://dc.lft.to/lastmile_qr_scan"}, "fusion_lon": 0.0}, {"lat": 38.91870633333333, "is_disabled": 0, "type": "electric_scooter", "lon": -77.03188616666667, "bike_id": "e0e3c013a1637fba6c55231b263bdc0f", "fusion_lat": 0.0, "name": "e0e3c013a1637fba6c55231b263bdc0f", "is_reserved": 0, "rental_uris": {"android": "https://dc.lft.to/lastmile_qr_scan", "ios": "https://dc.lft.to/lastmile_qr_scan"}, "fusion_lon": 0.0}, {"lat": 38.93208683333334, "is_disabled": 0, "type": "electric_scooter", "lon": -77.02244083333333, "bike_id": "f76281e8b138079efaf7ad12ef424227", "fusion_lat": 0.0, "name": "f76281e8b138079efaf7ad12ef424227", "is_reserved": 0, "rental_uris": {"android": "https://dc.lft.to/lastmile_qr_scan", "ios": "https://dc.lft.to/lastmile_qr_scan"}, "fusion_lon": 0.0}, {"lat": 38.911192666666665, "is_disabled": 0, "type": "electric_scooter", "lon": -77.03785533333334, "bike_id": "a91cef3ead46cf4e67f9a8ad79f089a6", "fusion_lat": 0.0, "name": "a91cef3ead46cf4e67f9a8ad79f089a6", "is_reserved": 0, "rental_uris": {"android": "https://dc.lft.to/lastmile_qr_scan", "ios": "https://dc.lft.to/lastmile_qr_scan"}, "fusion_lon": 0.0}, {"lat": 38.88736883333333, "is_disabled": 0, "type": "electric_scooter", "lon": -77.01533716666667, "bike_id": "d73dcfd10254e9b5c144fb32dea3ef4d", "fusion_lat": 0.0, "name": "d73dcfd10254e9b5c144fb32dea3ef4d", "is_reserved": 0, "rental_uris": {"android": "https://dc.lft.to/lastmile_qr_scan", "ios": "https://dc.lft.to/lastmile_qr_scan"}, "fusion_lon": 0.0}, {"lat": 38.90217833333333, "is_disabled": 0, "type": "electric_scooter", "lon": -77.04863183333333, "bike_id": "34f995cbccd1bced29e3a99bd7a44f4e", "fusion_lat": 0.0, "name": "34f995cbccd1bced29e3a99bd7a44f4e", "is_reserved": 0, "rental_uris": {"android": "https://dc.lft.to/lastmile_qr_scan", "ios": "https://dc.lft.to/lastmile_qr_scan"}, "fusion_lon": 0.0}, {"lat": 38.9013625, "is_disabled": 0, "type": "electric_scooter", "lon": -77.0007095, "bike_id": "4e6e2dd1610b916688c541d404260a41", "fusion_lat": 0.0, "name": "4e6e2dd1610b916688c541d404260a41", "is_reserved": 0, "rental_uris": {"android": "https://dc.lft.to/lastmile_qr_scan", "ios": "https://dc.lft.to/lastmile_qr_scan"}, "fusion_lon": 0.0}, {"lat": 38.96093283333333, "is_disabled": 0, "type": "electric_scooter", "lon": -77.08283033333333, "bike_id": "ace4bb2cd819d65bc44cbabd981aa956", "fusion_lat": 0.0, "name": "ace4bb2cd819d65bc44cbabd981aa956", "is_reserved": 0, "rental_uris": {"android": "https://dc.lft.to/lastmile_qr_scan", "ios": "https://dc.lft.to/lastmile_qr_scan"}, "fusion_lon": 0.0}, {"lat": 38.92212283333333, "is_disabled": 0, "type": "electric_scooter", "lon": -77.032904, "bike_id": "20748d2e16adbb8149945959f96dc998", "fusion_lat": 0.0, "name": "20748d2e16adbb8149945959f96dc998", "is_reserved": 0, "rental_uris": {"android": "https://dc.lft.to/lastmile_qr_scan", "ios": "https://dc.lft.to/lastmile_qr_scan"}, "fusion_lon": 0.0}, {"lat": 38.91636283333333, "is_disabled": 0, "type": "electric_scooter", "lon": -77.04784166666667, "bike_id": "988e80a5250590332c079b91150ac8d0", "fusion_lat": 0.0, "name": "988e80a5250590332c079b91150ac8d0", "is_reserved": 0, "rental_uris": {"android": "https://dc.lft.to/lastmile_qr_scan", "ios": "https://dc.lft.to/lastmile_qr_scan"}, "fusion_lon": 0.0}, {"lat": 38.91481366666667, "is_disabled": 0, "type": "electric_scooter", "lon": -77.0325835, "bike_id": "c6f84d1c9e3952a5a0981a887896829f", "fusion_lat": 0.0, "name": "c6f84d1c9e3952a5a0981a887896829f", "is_reserved": 0, "rental_uris": {"android": "https://dc.lft.to/lastmile_qr_scan", "ios": "https://dc.lft.to/lastmile_qr_scan"}, "fusion_lon": 0.0}, {"lat": 38.90863266666667, "is_disabled": 0, "type": "electric_bike", "lon": -77.08704966666667, "bike_id": "134e98007c7d696c185f4c9c2b5ae258", "fusion_lat": 0.0, "name": "134e98007c7d696c185f4c9c2b5ae258", "is_reserved": 0, "rental_uris": {"android": "https://dc.lft.to/lastmile_qr_scan", "ios": "https://dc.lft.to/lastmile_qr_scan"}, "fusion_lon": 0.0}, {"lat": 38.916830833333336, "is_disabled": 0, "type": "electric_scooter", "lon": -77.02555133333334, "bike_id": "19d1f790f30652e5557445a69437e435", "fusion_lat": 0.0, "name": "19d1f790f30652e5557445a69437e435", "is_reserved": 0, "rental_uris": {"android": "https://dc.lft.to/lastmile_qr_scan", "ios": "https://dc.lft.to/lastmile_qr_scan"}, "fusion_lon": 0.0}, {"lat": 38.93083816666667, "is_disabled": 0, "type": "electric_scooter", "lon": -77.03735883333333, "bike_id": "a54c617a93b94041b4d5e64e73ec94e3", "fusion_lat": 0.0, "name": "a54c617a93b94041b4d5e64e73ec94e3", "is_reserved": 0, "rental_uris": {"android": "https://dc.lft.to/lastmile_qr_scan", "ios": "https://dc.lft.to/lastmile_qr_scan"}, "fusion_lon": 0.0}, {"lat": 38.8934765, "is_disabled": 0, "type": "electric_scooter", "lon": -77.0413875, "bike_id": "4cb808f8988371145e8ee7e8b5d07e2b", "fusion_lat": 0.0, "name": "4cb808f8988371145e8ee7e8b5d07e2b", "is_reserved": 0, "rental_uris": {"android": "https://dc.lft.to/lastmile_qr_scan", "ios": "https://dc.lft.to/lastmile_qr_scan"}, "fusion_lon": 0.0}, {"lat": 38.92534033333333, "is_disabled": 0, "type": "electric_scooter", "lon": -77.04420516666667, "bike_id": "ee921821e32219260d7469a31c33559d", "fusion_lat": 0.0, "name": "ee921821e32219260d7469a31c33559d", "is_reserved": 0, "rental_uris": {"android": "https://dc.lft.to/lastmile_qr_scan", "ios": "https://dc.lft.to/lastmile_qr_scan"}, "fusion_lon": 0.0}, {"lat": 38.90038416666667, "is_disabled": 0, "type": "electric_scooter", "lon": -76.99384283333333, "bike_id": "b199372e0133de86877ce5770793cca8", "fusion_lat": 0.0, "name": "b199372e0133de86877ce5770793cca8", "is_reserved": 0, "rental_uris": {"android": "https://dc.lft.to/lastmile_qr_scan", "ios": "https://dc.lft.to/lastmile_qr_scan"}, "fusion_lon": 0.0}, {"lat": 38.90068183333333, "is_disabled": 0, "type": "electric_scooter", "lon": -77.01823666666667, "bike_id": "c8754ccadd20bddf9c6fe4aeee2a725d", "fusion_lat": 0.0, "name": "c8754ccadd20bddf9c6fe4aeee2a725d", "is_reserved": 0, "rental_uris": {"android": "https://dc.lft.to/lastmile_qr_scan", "ios": "https://dc.lft.to/lastmile_qr_scan"}, "fusion_lon": 0.0}, {"lat": 38.92253816666667, "is_disabled": 0, "type": "electric_scooter", "lon": -77.04305333333333, "bike_id": "3f98f0bfb7347d938ff406a909f9d3c8", "fusion_lat": 0.0, "name": "3f98f0bfb7347d938ff406a909f9d3c8", "is_reserved": 0, "rental_uris": {"android": "https://dc.lft.to/lastmile_qr_scan", "ios": "https://dc.lft.to/lastmile_qr_scan"}, "fusion_lon": 0.0}, {"lat": 38.936399, "is_disabled": 0, "type": "electric_scooter", "lon": -77.02484633333333, "bike_id": "3e543cbdd2858db9404fd980144ac3bb", "fusion_lat": 0.0, "name": "3e543cbdd2858db9404fd980144ac3bb", "is_reserved": 0, "rental_uris": {"android": "https://dc.lft.to/lastmile_qr_scan", "ios": "https://dc.lft.to/lastmile_qr_scan"}, "fusion_lon": 0.0}, {"lat": 38.92165683333333, "is_disabled": 0, "type": "electric_scooter", "lon": -77.0321195, "bike_id": "1016d9264d34a688a0aefae26668c1d7", "fusion_lat": 0.0, "name": "1016d9264d34a688a0aefae26668c1d7", "is_reserved": 0, "rental_uris": {"android": "https://dc.lft.to/lastmile_qr_scan", "ios": "https://dc.lft.to/lastmile_qr_scan"}, "fusion_lon": 0.0}, {"lat": 38.897288, "is_disabled": 0, "type": "electric_scooter", "lon": -77.04908416666666, "bike_id": "240203d45aacc939ad75a43795ad3c70", "fusion_lat": 0.0, "name": "240203d45aacc939ad75a43795ad3c70", "is_reserved": 0, "rental_uris": {"android": "https://dc.lft.to/lastmile_qr_scan", "ios": "https://dc.lft.to/lastmile_qr_scan"}, "fusion_lon": 0.0}, {"lat": 38.9217615, "is_disabled": 0, "type": "electric_scooter", "lon": -77.0471895, "bike_id": "80d221471c86f0e5cefed1f049c66132", "fusion_lat": 0.0, "name": "80d221471c86f0e5cefed1f049c66132", "is_reserved": 0, "rental_uris": {"android": "https://dc.lft.to/lastmile_qr_scan", "ios": "https://dc.lft.to/lastmile_qr_scan"}, "fusion_lon": 0.0}, {"lat": 38.926035, "is_disabled": 0, "type": "electric_scooter", "lon": -77.05692883333333, "bike_id": "83f13a51be06bda4038833f6d3907c30", "fusion_lat": 0.0, "name": "83f13a51be06bda4038833f6d3907c30", "is_reserved": 0, "rental_uris": {"android": "https://dc.lft.to/lastmile_qr_scan", "ios": "https://dc.lft.to/lastmile_qr_scan"}, "fusion_lon": 0.0}, {"lat": 38.947882666666665, "is_disabled": 0, "type": "electric_scooter", "lon": -77.02171833333334, "bike_id": "73a4483b71a1ef779436b582bae592ba", "fusion_lat": 0.0, "name": "73a4483b71a1ef779436b582bae592ba", "is_reserved": 0, "rental_uris": {"android": "https://dc.lft.to/lastmile_qr_scan", "ios": "https://dc.lft.to/lastmile_qr_scan"}, "fusion_lon": 0.0}, {"lat": 38.937396, "is_disabled": 0, "type": "electric_scooter", "lon": -77.03472216666667, "bike_id": "517e5857ca5db6e371b77b44e34a1fa1", "fusion_lat": 0.0, "name": "517e5857ca5db6e371b77b44e34a1fa1", "is_reserved": 0, "rental_uris": {"android": "https://dc.lft.to/lastmile_qr_scan", "ios": "https://dc.lft.to/lastmile_qr_scan"}, "fusion_lon": 0.0}, {"lat": 38.916457333333334, "is_disabled": 0, "type": "electric_scooter", "lon": -77.02181233333333, "bike_id": "3c8673b233c73d49d7ee121bde07dde1", "fusion_lat": 0.0, "name": "3c8673b233c73d49d7ee121bde07dde1", "is_reserved": 0, "rental_uris": {"android": "https://dc.lft.to/lastmile_qr_scan", "ios": "https://dc.lft.to/lastmile_qr_scan"}, "fusion_lon": 0.0}, {"lat": 38.901105333333334, "is_disabled": 0, "type": "electric_scooter", "lon": -76.99625833333333, "bike_id": "5d23fc2fa582a4cb7973c67fbc8a32c3", "fusion_lat": 0.0, "name": "5d23fc2fa582a4cb7973c67fbc8a32c3", "is_reserved": 0, "rental_uris": {"android": "https://dc.lft.to/lastmile_qr_scan", "ios": "https://dc.lft.to/lastmile_qr_scan"}, "fusion_lon": 0.0}, {"lat": 38.885715833333336, "is_disabled": 0, "type": "electric_scooter", "lon": -76.91910966666667, "bike_id": "b832d2c72b3d77db747dde3a45e258b4", "fusion_lat": 0.0, "name": "b832d2c72b3d77db747dde3a45e258b4", "is_reserved": 0, "rental_uris": {"android": "https://dc.lft.to/lastmile_qr_scan", "ios": "https://dc.lft.to/lastmile_qr_scan"}, "fusion_lon": 0.0}, {"lat": 38.90519466666667, "is_disabled": 0, "type": "electric_scooter", "lon": -77.0515545, "bike_id": "8cc764970077d06649449057f4132487", "fusion_lat": 0.0, "name": "8cc764970077d06649449057f4132487", "is_reserved": 0, "rental_uris": {"android": "https://dc.lft.to/lastmile_qr_scan", "ios": "https://dc.lft.to/lastmile_qr_scan"}, "fusion_lon": 0.0}, {"lat": 38.92742166666667, "is_disabled": 0, "type": "electric_scooter", "lon": -77.02414233333333, "bike_id": "0033c2de8b5d7628f2ee004a37fd53e8", "fusion_lat": 0.0, "name": "0033c2de8b5d7628f2ee004a37fd53e8", "is_reserved": 0, "rental_uris": {"android": "https://dc.lft.to/lastmile_qr_scan", "ios": "https://dc.lft.to/lastmile_qr_scan"}, "fusion_lon": 0.0}, {"lat": 38.935613833333335, "is_disabled": 0, "type": "electric_bike", "lon": -77.03692983333333, "bike_id": "cd88087760a3ab40e805eb2bde345e60", "fusion_lat": 0.0, "name": "cd88087760a3ab40e805eb2bde345e60", "is_reserved": 0, "rental_uris": {"android": "https://dc.lft.to/lastmile_qr_scan", "ios": "https://dc.lft.to/lastmile_qr_scan"}, "fusion_lon": 0.0}, {"lat": 38.91680083333333, "is_disabled": 0, "type": "electric_scooter", "lon": -77.02974783333333, "bike_id": "d3af4d6de853af3a51fe8978022fea74", "fusion_lat": 0.0, "name": "d3af4d6de853af3a51fe8978022fea74", "is_reserved": 0, "rental_uris": {"android": "https://dc.lft.to/lastmile_qr_scan", "ios": "https://dc.lft.to/lastmile_qr_scan"}, "fusion_lon": 0.0}, {"lat": 38.91536383333333, "is_disabled": 0, "type": "electric_scooter", "lon": -77.0220075, "bike_id": "c60c7777583cfb2cbc98518a86861bb4", "fusion_lat": 0.0, "name": "c60c7777583cfb2cbc98518a86861bb4", "is_reserved": 0, "rental_uris": {"android": "https://dc.lft.to/lastmile_qr_scan", "ios": "https://dc.lft.to/lastmile_qr_scan"}, "fusion_lon": 0.0}, {"lat": 38.870635166666666, "is_disabled": 0, "type": "electric_scooter", "lon": -77.00840383333333, "bike_id": "527aeb15e4970c2ec2a091654618c4c3", "fusion_lat": 0.0, "name": "527aeb15e4970c2ec2a091654618c4c3", "is_reserved": 0, "rental_uris": {"android": "https://dc.lft.to/lastmile_qr_scan", "ios": "https://dc.lft.to/lastmile_qr_scan"}, "fusion_lon": 0.0}, {"lat": 38.919285, "is_disabled": 0, "type": "electric_scooter", "lon": -77.03426466666667, "bike_id": "87757abf2526783281cf1466af47af16", "fusion_lat": 0.0, "name": "87757abf2526783281cf1466af47af16", "is_reserved": 0, "rental_uris": {"android": "https://dc.lft.to/lastmile_qr_scan", "ios": "https://dc.lft.to/lastmile_qr_scan"}, "fusion_lon": 0.0}, {"lat": 38.86675483333333, "is_disabled": 0, "type": "electric_scooter", "lon": -76.98541733333333, "bike_id": "e695e6c8fa1554692dd74878499d8e7b", "fusion_lat": 0.0, "name": "e695e6c8fa1554692dd74878499d8e7b", "is_reserved": 0, "rental_uris": {"android": "https://dc.lft.to/lastmile_qr_scan", "ios": "https://dc.lft.to/lastmile_qr_scan"}, "fusion_lon": 0.0}, {"lat": 38.8620795, "is_disabled": 0, "type": "electric_bike", "lon": -76.99776616666666, "bike_id": "12125ee1f2ae2e80e43b812e33fe557c", "fusion_lat": 0.0, "name": "12125ee1f2ae2e80e43b812e33fe557c", "is_reserved": 0, "rental_uris": {"android": "https://dc.lft.to/lastmile_qr_scan", "ios": "https://dc.lft.to/lastmile_qr_scan"}, "fusion_lon": 0.0}, {"lat": 38.89705516666667, "is_disabled": 0, "type": "electric_scooter", "lon": -77.007174, "bike_id": "a8f401fb73f80a295b677aa3dc4ea1a4", "fusion_lat": 0.0, "name": "a8f401fb73f80a295b677aa3dc4ea1a4", "is_reserved": 0, "rental_uris": {"android": "https://dc.lft.to/lastmile_qr_scan", "ios": "https://dc.lft.to/lastmile_qr_scan"}, "fusion_lon": 0.0}, {"lat": 38.91996366666667, "is_disabled": 0, "type": "electric_scooter", "lon": -77.03239883333333, "bike_id": "51711fdaf38650ee2b6e71820b0c8fc4", "fusion_lat": 0.0, "name": "51711fdaf38650ee2b6e71820b0c8fc4", "is_reserved": 0, "rental_uris": {"android": "https://dc.lft.to/lastmile_qr_scan", "ios": "https://dc.lft.to/lastmile_qr_scan"}, "fusion_lon": 0.0}, {"lat": 38.90415083333333, "is_disabled": 0, "type": "electric_scooter", "lon": -77.05348666666667, "bike_id": "efea4f4ab30ffdfe2f7b2bc6908521ca", "fusion_lat": 0.0, "name": "efea4f4ab30ffdfe2f7b2bc6908521ca", "is_reserved": 0, "rental_uris": {"android": "https://dc.lft.to/lastmile_qr_scan", "ios": "https://dc.lft.to/lastmile_qr_scan"}, "fusion_lon": 0.0}, {"lat": 38.91770666666667, "is_disabled": 0, "type": "electric_scooter", "lon": -77.02414, "bike_id": "23d239cb59c379458890be2294ccceca", "fusion_lat": 0.0, "name": "23d239cb59c379458890be2294ccceca", "is_reserved": 0, "rental_uris": {"android": "https://dc.lft.to/lastmile_qr_scan", "ios": "https://dc.lft.to/lastmile_qr_scan"}, "fusion_lon": 0.0}, {"lat": 38.836758333333336, "is_disabled": 0, "type": "electric_scooter", "lon": -77.00570016666667, "bike_id": "947cde8cc6e6b1e8c9cdbfa61cd1d2e8", "fusion_lat": 0.0, "name": "947cde8cc6e6b1e8c9cdbfa61cd1d2e8", "is_reserved": 0, "rental_uris": {"android": "https://dc.lft.to/lastmile_qr_scan", "ios": "https://dc.lft.to/lastmile_qr_scan"}, "fusion_lon": 0.0}, {"lat": 38.90824933333333, "is_disabled": 0, "type": "electric_scooter", "lon": -77.01794083333333, "bike_id": "9356ce9e43bcd2c7b4977af2a624e4e1", "fusion_lat": 0.0, "name": "9356ce9e43bcd2c7b4977af2a624e4e1", "is_reserved": 0, "rental_uris": {"android": "https://dc.lft.to/lastmile_qr_scan", "ios": "https://dc.lft.to/lastmile_qr_scan"}, "fusion_lon": 0.0}, {"lat": 38.90852566666667, "is_disabled": 0, "type": "electric_scooter", "lon": -77.04770783333333, "bike_id": "63c451aa24a90adcfee2e377bf6218f0", "fusion_lat": 0.0, "name": "63c451aa24a90adcfee2e377bf6218f0", "is_reserved": 0, "rental_uris": {"android": "https://dc.lft.to/lastmile_qr_scan", "ios": "https://dc.lft.to/lastmile_qr_scan"}, "fusion_lon": 0.0}, {"lat": 38.899878, "is_disabled": 0, "type": "electric_scooter", "lon": -76.99477216666666, "bike_id": "6133f296abd64ea548757ae7a47c50dd", "fusion_lat": 0.0, "name": "6133f296abd64ea548757ae7a47c50dd", "is_reserved": 0, "rental_uris": {"android": "https://dc.lft.to/lastmile_qr_scan", "ios": "https://dc.lft.to/lastmile_qr_scan"}, "fusion_lon": 0.0}, {"lat": 38.912514, "is_disabled": 0, "type": "electric_scooter", "lon": -77.02213233333333, "bike_id": "a5ebbdfae785a1e13658f96bf2b3500a", "fusion_lat": 0.0, "name": "a5ebbdfae785a1e13658f96bf2b3500a", "is_reserved": 0, "rental_uris": {"android": "https://dc.lft.to/lastmile_qr_scan", "ios": "https://dc.lft.to/lastmile_qr_scan"}, "fusion_lon": 0.0}, {"lat": 38.90049366666667, "is_disabled": 0, "type": "electric_scooter", "lon": -77.0022115, "bike_id": "3e6a99201a38b68afc0830a60ad107e1", "fusion_lat": 0.0, "name": "3e6a99201a38b68afc0830a60ad107e1", "is_reserved": 0, "rental_uris": {"android": "https://dc.lft.to/lastmile_qr_scan", "ios": "https://dc.lft.to/lastmile_qr_scan"}, "fusion_lon": 0.0}, {"lat": 38.908631166666666, "is_disabled": 0, "type": "electric_scooter", "lon": -77.04589016666667, "bike_id": "f3b3893691d76bb0dd9ea7814b86d570", "fusion_lat": 0.0, "name": "f3b3893691d76bb0dd9ea7814b86d570", "is_reserved": 0, "rental_uris": {"android": "https://dc.lft.to/lastmile_qr_scan", "ios": "https://dc.lft.to/lastmile_qr_scan"}, "fusion_lon": 0.0}, {"lat": 38.850312, "is_disabled": 0, "type": "electric_bike", "lon": -76.972939, "bike_id": "82baaaa162f2199bd63c0cf9daa551cf", "fusion_lat": 0.0, "name": "82baaaa162f2199bd63c0cf9daa551cf", "is_reserved": 0, "rental_uris": {"android": "https://dc.lft.to/lastmile_qr_scan", "ios": "https://dc.lft.to/lastmile_qr_scan"}, "fusion_lon": 0.0}, {"lat": 38.902531, "is_disabled": 0, "type": "electric_scooter", "lon": -77.052581, "bike_id": "70e43de63dbbd8e53c17a06a704f5c83", "fusion_lat": 0.0, "name": "70e43de63dbbd8e53c17a06a704f5c83", "is_reserved": 0, "rental_uris": {"android": "https://dc.lft.to/lastmile_qr_scan", "ios": "https://dc.lft.to/lastmile_qr_scan"}, "fusion_lon": 0.0}, {"lat": 38.9224105, "is_disabled": 0, "type": "electric_scooter", "lon": -77.04573233333333, "bike_id": "497775aacc24e15f0fa16f207c4ff720", "fusion_lat": 0.0, "name": "497775aacc24e15f0fa16f207c4ff720", "is_reserved": 0, "rental_uris": {"android": "https://dc.lft.to/lastmile_qr_scan", "ios": "https://dc.lft.to/lastmile_qr_scan"}, "fusion_lon": 0.0}, {"lat": 38.908244, "is_disabled": 0, "type": "electric_scooter", "lon": -77.06396133333334, "bike_id": "20ee12cd9e96376e10531a4fef5cfe2d", "fusion_lat": 0.0, "name": "20ee12cd9e96376e10531a4fef5cfe2d", "is_reserved": 0, "rental_uris": {"android": "https://dc.lft.to/lastmile_qr_scan", "ios": "https://dc.lft.to/lastmile_qr_scan"}, "fusion_lon": 0.0}, {"lat": 38.917770166666664, "is_disabled": 0, "type": "electric_scooter", "lon": -77.041502, "bike_id": "193f0648827af01cf340f518484db27b", "fusion_lat": 0.0, "name": "193f0648827af01cf340f518484db27b", "is_reserved": 0, "rental_uris": {"android": "https://dc.lft.to/lastmile_qr_scan", "ios": "https://dc.lft.to/lastmile_qr_scan"}, "fusion_lon": 0.0}, {"lat": 38.90442, "is_disabled": 0, "type": "electric_scooter", "lon": -77.0346155, "bike_id": "931bd703dda97303907e48b1e97d4d5d", "fusion_lat": 0.0, "name": "931bd703dda97303907e48b1e97d4d5d", "is_reserved": 0, "rental_uris": {"android": "https://dc.lft.to/lastmile_qr_scan", "ios": "https://dc.lft.to/lastmile_qr_scan"}, "fusion_lon": 0.0}, {"lat": 38.91929616666667, "is_disabled": 0, "type": "electric_scooter", "lon": -77.02301816666666, "bike_id": "62c93d6c156a544384206680030938a7", "fusion_lat": 0.0, "name": "62c93d6c156a544384206680030938a7", "is_reserved": 0, "rental_uris": {"android": "https://dc.lft.to/lastmile_qr_scan", "ios": "https://dc.lft.to/lastmile_qr_scan"}, "fusion_lon": 0.0}, {"lat": 38.897166666666664, "is_disabled": 0, "type": "electric_scooter", "lon": -77.00799833333333, "bike_id": "cbaaf7e38117ad3d7409809086c669e1", "fusion_lat": 0.0, "name": "cbaaf7e38117ad3d7409809086c669e1", "is_reserved": 0, "rental_uris": {"android": "https://dc.lft.to/lastmile_qr_scan", "ios": "https://dc.lft.to/lastmile_qr_scan"}, "fusion_lon": 0.0}, {"lat": 38.897346, "is_disabled": 0, "type": "electric_scooter", "lon": -77.04762283333334, "bike_id": "b7bd87c6723cd34a0c841bfc1f696dc7", "fusion_lat": 0.0, "name": "b7bd87c6723cd34a0c841bfc1f696dc7", "is_reserved": 0, "rental_uris": {"android": "https://dc.lft.to/lastmile_qr_scan", "ios": "https://dc.lft.to/lastmile_qr_scan"}, "fusion_lon": 0.0}, {"lat": 38.93719733333333, "is_disabled": 0, "type": "electric_scooter", "lon": -77.03268133333333, "bike_id": "1928d8e481a1e4fe325996d629edd0e0", "fusion_lat": 0.0, "name": "1928d8e481a1e4fe325996d629edd0e0", "is_reserved": 0, "rental_uris": {"android": "https://dc.lft.to/lastmile_qr_scan", "ios": "https://dc.lft.to/lastmile_qr_scan"}, "fusion_lon": 0.0}, {"lat": 38.884101666666666, "is_disabled": 0, "type": "electric_bike", "lon": -76.96058233333333, "bike_id": "92dd75b0dc95ffe967457d1bf8c84a1b", "fusion_lat": 0.0, "name": "92dd75b0dc95ffe967457d1bf8c84a1b", "is_reserved": 0, "rental_uris": {"android": "https://dc.lft.to/lastmile_qr_scan", "ios": "https://dc.lft.to/lastmile_qr_scan"}, "fusion_lon": 0.0}, {"lat": 38.91189333333333, "is_disabled": 0, "type": "electric_scooter", "lon": -77.04022133333333, "bike_id": "0eb8cd95af1a880d71211e3a376ade21", "fusion_lat": 0.0, "name": "0eb8cd95af1a880d71211e3a376ade21", "is_reserved": 0, "rental_uris": {"android": "https://dc.lft.to/lastmile_qr_scan", "ios": "https://dc.lft.to/lastmile_qr_scan"}, "fusion_lon": 0.0}, {"lat": 38.921038, "is_disabled": 0, "type": "electric_scooter", "lon": -77.01812283333334, "bike_id": "60a4daef011bf03681283d7ca0cc9d6e", "fusion_lat": 0.0, "name": "60a4daef011bf03681283d7ca0cc9d6e", "is_reserved": 0, "rental_uris": {"android": "https://dc.lft.to/lastmile_qr_scan", "ios": "https://dc.lft.to/lastmile_qr_scan"}, "fusion_lon": 0.0}, {"lat": 38.919295166666664, "is_disabled": 0, "type": "electric_scooter", "lon": -77.0342935, "bike_id": "378bc234d9049f7bb42fb02215071e65", "fusion_lat": 0.0, "name": "378bc234d9049f7bb42fb02215071e65", "is_reserved": 0, "rental_uris": {"android": "https://dc.lft.to/lastmile_qr_scan", "ios": "https://dc.lft.to/lastmile_qr_scan"}, "fusion_lon": 0.0}, {"lat": 38.852071333333335, "is_disabled": 0, "type": "electric_bike", "lon": -77.10129033333334, "bike_id": "f068e42304d5617c31913e61adabb70a", "fusion_lat": 0.0, "name": "f068e42304d5617c31913e61adabb70a", "is_reserved": 0, "rental_uris": {"android": "https://dc.lft.to/lastmile_qr_scan", "ios": "https://dc.lft.to/lastmile_qr_scan"}, "fusion_lon": 0.0}, {"lat": 38.9027765, "is_disabled": 0, "type": "electric_scooter", "lon": -77.0386545, "bike_id": "af23e1b5745a5cf85ce13ab3570cf2f1", "fusion_lat": 0.0, "name": "af23e1b5745a5cf85ce13ab3570cf2f1", "is_reserved": 0, "rental_uris": {"android": "https://dc.lft.to/lastmile_qr_scan", "ios": "https://dc.lft.to/lastmile_qr_scan"}, "fusion_lon": 0.0}, {"lat": 38.879197833333336, "is_disabled": 0, "type": "electric_scooter", "lon": -77.0309315, "bike_id": "e63b707edb2040774607a5ca454742a4", "fusion_lat": 0.0, "name": "e63b707edb2040774607a5ca454742a4", "is_reserved": 0, "rental_uris": {"android": "https://dc.lft.to/lastmile_qr_scan", "ios": "https://dc.lft.to/lastmile_qr_scan"}, "fusion_lon": 0.0}, {"lat": 38.970853166666664, "is_disabled": 0, "type": "electric_bike", "lon": -77.06967283333333, "bike_id": "42af431a300ce8eb4a8f0fcace06831d", "fusion_lat": 0.0, "name": "42af431a300ce8eb4a8f0fcace06831d", "is_reserved": 0, "rental_uris": {"android": "https://dc.lft.to/lastmile_qr_scan", "ios": "https://dc.lft.to/lastmile_qr_scan"}, "fusion_lon": 0.0}, {"lat": 38.917956333333336, "is_disabled": 0, "type": "electric_bike", "lon": -77.22347933333333, "bike_id": "b38ab9aa8cf8f0d967c60ec33dcc6eb1", "fusion_lat": 0.0, "name": "b38ab9aa8cf8f0d967c60ec33dcc6eb1", "is_reserved": 0, "rental_uris": {"android": "https://dc.lft.to/lastmile_qr_scan", "ios": "https://dc.lft.to/lastmile_qr_scan"}, "fusion_lon": 0.0}, {"lat": 38.9085, "is_disabled": 0, "type": "electric_scooter", "lon": -77.0062545, "bike_id": "16e35c31afae5387803fe6cc9a4baa1e", "fusion_lat": 0.0, "name": "16e35c31afae5387803fe6cc9a4baa1e", "is_reserved": 0, "rental_uris": {"android": "https://dc.lft.to/lastmile_qr_scan", "ios": "https://dc.lft.to/lastmile_qr_scan"}, "fusion_lon": 0.0}, {"lat": 38.92018383333333, "is_disabled": 0, "type": "electric_scooter", "lon": -77.01434266666666, "bike_id": "72b2b03e028c4d55551aed4e64858926", "fusion_lat": 0.0, "name": "72b2b03e028c4d55551aed4e64858926", "is_reserved": 0, "rental_uris": {"android": "https://dc.lft.to/lastmile_qr_scan", "ios": "https://dc.lft.to/lastmile_qr_scan"}, "fusion_lon": 0.0}, {"lat": 38.937582, "is_disabled": 0, "type": "electric_scooter", "lon": -77.02135283333334, "bike_id": "227f01557d726c79da3ecbe35ea773a2", "fusion_lat": 0.0, "name": "227f01557d726c79da3ecbe35ea773a2", "is_reserved": 0, "rental_uris": {"android": "https://dc.lft.to/lastmile_qr_scan", "ios": "https://dc.lft.to/lastmile_qr_scan"}, "fusion_lon": 0.0}, {"lat": 38.92881666666667, "is_disabled": 0, "type": "electric_scooter", "lon": -77.03324433333333, "bike_id": "65da4dc3de265ef9b329d4c7f6192584", "fusion_lat": 0.0, "name": "65da4dc3de265ef9b329d4c7f6192584", "is_reserved": 0, "rental_uris": {"android": "https://dc.lft.to/lastmile_qr_scan", "ios": "https://dc.lft.to/lastmile_qr_scan"}, "fusion_lon": 0.0}, {"lat": 38.8967505, "is_disabled": 0, "type": "electric_scooter", "lon": -77.05127583333334, "bike_id": "f210744a1ff3a49a8f707d14a7c90b81", "fusion_lat": 0.0, "name": "f210744a1ff3a49a8f707d14a7c90b81", "is_reserved": 0, "rental_uris": {"android": "https://dc.lft.to/lastmile_qr_scan", "ios": "https://dc.lft.to/lastmile_qr_scan"}, "fusion_lon": 0.0}, {"lat": 38.958768, "is_disabled": 0, "type": "electric_bike", "lon": -77.01035583333334, "bike_id": "9b6f1f20bef9eae0cdf0f6684b17613e", "fusion_lat": 0.0, "name": "9b6f1f20bef9eae0cdf0f6684b17613e", "is_reserved": 0, "rental_uris": {"android": "https://dc.lft.to/lastmile_qr_scan", "ios": "https://dc.lft.to/lastmile_qr_scan"}, "fusion_lon": 0.0}, {"lat": 38.912608666666664, "is_disabled": 0, "type": "electric_bike", "lon": -77.04574116666667, "bike_id": "c46bf5fa5bcd86c506f22484ce1f6353", "fusion_lat": 0.0, "name": "c46bf5fa5bcd86c506f22484ce1f6353", "is_reserved": 0, "rental_uris": {"android": "https://dc.lft.to/lastmile_qr_scan", "ios": "https://dc.lft.to/lastmile_qr_scan"}, "fusion_lon": 0.0}, {"lat": 38.92065016666667, "is_disabled": 0, "type": "electric_scooter", "lon": -77.03204983333333, "bike_id": "fd4796b87bbf5d6d00257c95424fafd4", "fusion_lat": 0.0, "name": "fd4796b87bbf5d6d00257c95424fafd4", "is_reserved": 0, "rental_uris": {"android": "https://dc.lft.to/lastmile_qr_scan", "ios": "https://dc.lft.to/lastmile_qr_scan"}, "fusion_lon": 0.0}, {"lat": 38.954019333333335, "is_disabled": 0, "type": "electric_scooter", "lon": -77.03630466666667, "bike_id": "fc850dfa2a4ceb73e3d0ac6b5745c99c", "fusion_lat": 0.0, "name": "fc850dfa2a4ceb73e3d0ac6b5745c99c", "is_reserved": 0, "rental_uris": {"android": "https://dc.lft.to/lastmile_qr_scan", "ios": "https://dc.lft.to/lastmile_qr_scan"}, "fusion_lon": 0.0}, {"lat": 38.904971833333335, "is_disabled": 0, "type": "electric_scooter", "lon": -77.02814066666667, "bike_id": "d88b0e9c133fec92fefd2ea2b647443c", "fusion_lat": 0.0, "name": "d88b0e9c133fec92fefd2ea2b647443c", "is_reserved": 0, "rental_uris": {"android": "https://dc.lft.to/lastmile_qr_scan", "ios": "https://dc.lft.to/lastmile_qr_scan"}, "fusion_lon": 0.0}, {"lat": 38.92023866666667, "is_disabled": 0, "type": "electric_scooter", "lon": -77.01808833333334, "bike_id": "f31ed005804c46a0c71d8db462e9c3a2", "fusion_lat": 0.0, "name": "f31ed005804c46a0c71d8db462e9c3a2", "is_reserved": 0, "rental_uris": {"android": "https://dc.lft.to/lastmile_qr_scan", "ios": "https://dc.lft.to/lastmile_qr_scan"}, "fusion_lon": 0.0}, {"lat": 38.955705, "is_disabled": 0, "type": "electric_scooter", "lon": -77.07007516666667, "bike_id": "7245aab3108f7c9051e99e30f66b90d5", "fusion_lat": 0.0, "name": "7245aab3108f7c9051e99e30f66b90d5", "is_reserved": 0, "rental_uris": {"android": "https://dc.lft.to/lastmile_qr_scan", "ios": "https://dc.lft.to/lastmile_qr_scan"}, "fusion_lon": 0.0}, {"lat": 38.9208575, "is_disabled": 0, "type": "electric_scooter", "lon": -77.04220683333334, "bike_id": "d08ec73e90440c3cb35587f17dde0f48", "fusion_lat": 0.0, "name": "d08ec73e90440c3cb35587f17dde0f48", "is_reserved": 0, "rental_uris": {"android": "https://dc.lft.to/lastmile_qr_scan", "ios": "https://dc.lft.to/lastmile_qr_scan"}, "fusion_lon": 0.0}, {"lat": 38.9104345, "is_disabled": 0, "type": "electric_scooter", "lon": -77.01518083333333, "bike_id": "79f48bcaef6bfa0cf48badcab7ee2ea6", "fusion_lat": 0.0, "name": "79f48bcaef6bfa0cf48badcab7ee2ea6", "is_reserved": 0, "rental_uris": {"android": "https://dc.lft.to/lastmile_qr_scan", "ios": "https://dc.lft.to/lastmile_qr_scan"}, "fusion_lon": 0.0}, {"lat": 38.869029166666664, "is_disabled": 0, "type": "electric_bike", "lon": -77.13181966666667, "bike_id": "280b4fa536b5bf52b2f54f0de143627c", "fusion_lat": 0.0, "name": "280b4fa536b5bf52b2f54f0de143627c", "is_reserved": 0, "rental_uris": {"android": "https://dc.lft.to/lastmile_qr_scan", "ios": "https://dc.lft.to/lastmile_qr_scan"}, "fusion_lon": 0.0}, {"lat": 38.90752966666667, "is_disabled": 0, "type": "electric_scooter", "lon": -77.03602433333333, "bike_id": "8df31cb10e381347df30200aef717445", "fusion_lat": 0.0, "name": "8df31cb10e381347df30200aef717445", "is_reserved": 0, "rental_uris": {"android": "https://dc.lft.to/lastmile_qr_scan", "ios": "https://dc.lft.to/lastmile_qr_scan"}, "fusion_lon": 0.0}, {"lat": 38.80440383333333, "is_disabled": 0, "type": "electric_bike", "lon": -77.06087933333333, "bike_id": "839a6760f1244115268ae5612611b11a", "fusion_lat": 0.0, "name": "839a6760f1244115268ae5612611b11a", "is_reserved": 0, "rental_uris": {"android": "https://dc.lft.to/lastmile_qr_scan", "ios": "https://dc.lft.to/lastmile_qr_scan"}, "fusion_lon": 0.0}, {"lat": 38.90553033333333, "is_disabled": 0, "type": "electric_scooter", "lon": -77.057055, "bike_id": "5889836a4e3b53efdfb4a95b45924147", "fusion_lat": 0.0, "name": "5889836a4e3b53efdfb4a95b45924147", "is_reserved": 0, "rental_uris": {"android": "https://dc.lft.to/lastmile_qr_scan", "ios": "https://dc.lft.to/lastmile_qr_scan"}, "fusion_lon": 0.0}, {"lat": 39.015767333333336, "is_disabled": 0, "type": "electric_bike", "lon": -77.042387, "bike_id": "0a0954d120c3e6f3a9a0e63807d6021b", "fusion_lat": 0.0, "name": "0a0954d120c3e6f3a9a0e63807d6021b", "is_reserved": 0, "rental_uris": {"android": "https://dc.lft.to/lastmile_qr_scan", "ios": "https://dc.lft.to/lastmile_qr_scan"}, "fusion_lon": 0.0}, {"lat": 38.90142816666667, "is_disabled": 0, "type": "electric_scooter", "lon": -77.01907083333333, "bike_id": "d54d51b9e1bf2f480cdb57b1ee6437c4", "fusion_lat": 0.0, "name": "d54d51b9e1bf2f480cdb57b1ee6437c4", "is_reserved": 0, "rental_uris": {"android": "https://dc.lft.to/lastmile_qr_scan", "ios": "https://dc.lft.to/lastmile_qr_scan"}, "fusion_lon": 0.0}, {"lat": 38.907724, "is_disabled": 0, "type": "electric_scooter", "lon": -77.042552, "bike_id": "90d61f7e23051ed39d75d881eb091d95", "fusion_lat": 0.0, "name": "90d61f7e23051ed39d75d881eb091d95", "is_reserved": 0, "rental_uris": {"android": "https://dc.lft.to/lastmile_qr_scan", "ios": "https://dc.lft.to/lastmile_qr_scan"}, "fusion_lon": 0.0}, {"lat": 38.958746, "is_disabled": 0, "type": "electric_bike", "lon": -77.01033116666666, "bike_id": "ecd5a3f916f2af316dcc3369e422d8fd", "fusion_lat": 0.0, "name": "ecd5a3f916f2af316dcc3369e422d8fd", "is_reserved": 0, "rental_uris": {"android": "https://dc.lft.to/lastmile_qr_scan", "ios": "https://dc.lft.to/lastmile_qr_scan"}, "fusion_lon": 0.0}, {"lat": 38.92199266666667, "is_disabled": 0, "type": "electric_scooter", "lon": -77.04007383333334, "bike_id": "c110895cda3ebc240dffe7901faf558f", "fusion_lat": 0.0, "name": "c110895cda3ebc240dffe7901faf558f", "is_reserved": 0, "rental_uris": {"android": "https://dc.lft.to/lastmile_qr_scan", "ios": "https://dc.lft.to/lastmile_qr_scan"}, "fusion_lon": 0.0}, {"lat": 38.8903965, "is_disabled": 0, "type": "electric_scooter", "lon": -76.95140733333334, "bike_id": "bf45377eade6ecb34540711ff5207d63", "fusion_lat": 0.0, "name": "bf45377eade6ecb34540711ff5207d63", "is_reserved": 0, "rental_uris": {"android": "https://dc.lft.to/lastmile_qr_scan", "ios": "https://dc.lft.to/lastmile_qr_scan"}, "fusion_lon": 0.0}, {"lat": 38.880584999999996, "is_disabled": 0, "type": "electric_scooter", "lon": -77.02484933333334, "bike_id": "2a0baa79224aa89d21cb055524102fe9", "fusion_lat": 0.0, "name": "2a0baa79224aa89d21cb055524102fe9", "is_reserved": 0, "rental_uris": {"android": "https://dc.lft.to/lastmile_qr_scan", "ios": "https://dc.lft.to/lastmile_qr_scan"}, "fusion_lon": 0.0}, {"lat": 38.89713916666667, "is_disabled": 0, "type": "electric_scooter", "lon": -77.021433, "bike_id": "61159a3eb3cc239ab41e2071c91e893f", "fusion_lat": 0.0, "name": "61159a3eb3cc239ab41e2071c91e893f", "is_reserved": 0, "rental_uris": {"android": "https://dc.lft.to/lastmile_qr_scan", "ios": "https://dc.lft.to/lastmile_qr_scan"}, "fusion_lon": 0.0}, {"lat": 38.91206183333333, "is_disabled": 0, "type": "electric_scooter", "lon": -77.0447855, "bike_id": "31c7acb15c7a8343f1803b7f52149877", "fusion_lat": 0.0, "name": "31c7acb15c7a8343f1803b7f52149877", "is_reserved": 0, "rental_uris": {"android": "https://dc.lft.to/lastmile_qr_scan", "ios": "https://dc.lft.to/lastmile_qr_scan"}, "fusion_lon": 0.0}, {"lat": 38.899255833333335, "is_disabled": 0, "type": "electric_scooter", "lon": -77.03275666666667, "bike_id": "fed495502aeed4030091667fb63c0fde", "fusion_lat": 0.0, "name": "fed495502aeed4030091667fb63c0fde", "is_reserved": 0, "rental_uris": {"android": "https://dc.lft.to/lastmile_qr_scan", "ios": "https://dc.lft.to/lastmile_qr_scan"}, "fusion_lon": 0.0}, {"lat": 38.87233616666666, "is_disabled": 0, "type": "electric_bike", "lon": -77.01211166666667, "bike_id": "a2b7750f1434a8f5f279b9380cbbb088", "fusion_lat": 0.0, "name": "a2b7750f1434a8f5f279b9380cbbb088", "is_reserved": 0, "rental_uris": {"android": "https://dc.lft.to/lastmile_qr_scan", "ios": "https://dc.lft.to/lastmile_qr_scan"}, "fusion_lon": 0.0}, {"lat": 39.088567166666664, "is_disabled": 0, "type": "electric_bike", "lon": -77.17840483333333, "bike_id": "90c7bd6d15d91506d05e0acca538fcec", "fusion_lat": 0.0, "name": "90c7bd6d15d91506d05e0acca538fcec", "is_reserved": 0, "rental_uris": {"android": "https://dc.lft.to/lastmile_qr_scan", "ios": "https://dc.lft.to/lastmile_qr_scan"}, "fusion_lon": 0.0}, {"lat": 38.9076055, "is_disabled": 0, "type": "electric_bike", "lon": -77.06999266666666, "bike_id": "1b91fe07cd405ddf44be52d1940706f9", "fusion_lat": 0.0, "name": "1b91fe07cd405ddf44be52d1940706f9", "is_reserved": 0, "rental_uris": {"android": "https://dc.lft.to/lastmile_qr_scan", "ios": "https://dc.lft.to/lastmile_qr_scan"}, "fusion_lon": 0.0}, {"lat": 38.911389, "is_disabled": 0, "type": "electric_bike", "lon": -77.06576883333334, "bike_id": "26911172b8265e57550e54b4c0d1375a", "fusion_lat": 0.0, "name": "26911172b8265e57550e54b4c0d1375a", "is_reserved": 0, "rental_uris": {"android": "https://dc.lft.to/lastmile_qr_scan", "ios": "https://dc.lft.to/lastmile_qr_scan"}, "fusion_lon": 0.0}, {"lat": 38.906295666666665, "is_disabled": 0, "type": "electric_scooter", "lon": -77.03141783333334, "bike_id": "8e786df807f26c7a93d414bcdcaae5e1", "fusion_lat": 0.0, "name": "8e786df807f26c7a93d414bcdcaae5e1", "is_reserved": 0, "rental_uris": {"android": "https://dc.lft.to/lastmile_qr_scan", "ios": "https://dc.lft.to/lastmile_qr_scan"}, "fusion_lon": 0.0}, {"lat": 38.892752, "is_disabled": 0, "type": "electric_scooter", "lon": -77.05044366666667, "bike_id": "8c51cbbc3b7e3b910debb31c03f1764a", "fusion_lat": 0.0, "name": "8c51cbbc3b7e3b910debb31c03f1764a", "is_reserved": 0, "rental_uris": {"android": "https://dc.lft.to/lastmile_qr_scan", "ios": "https://dc.lft.to/lastmile_qr_scan"}, "fusion_lon": 0.0}, {"lat": 38.924801, "is_disabled": 0, "type": "electric_bike", "lon": -76.99031033333333, "bike_id": "3b0c9daeb8f42d2e0aa761a472a676c9", "fusion_lat": 0.0, "name": "3b0c9daeb8f42d2e0aa761a472a676c9", "is_reserved": 0, "rental_uris": {"android": "https://dc.lft.to/lastmile_qr_scan", "ios": "https://dc.lft.to/lastmile_qr_scan"}, "fusion_lon": 0.0}, {"lat": 38.917594, "is_disabled": 0, "type": "electric_scooter", "lon": -77.04772366666667, "bike_id": "f0bd7d70014335c4f5a07221c4f71dca", "fusion_lat": 0.0, "name": "f0bd7d70014335c4f5a07221c4f71dca", "is_reserved": 0, "rental_uris": {"android": "https://dc.lft.to/lastmile_qr_scan", "ios": "https://dc.lft.to/lastmile_qr_scan"}, "fusion_lon": 0.0}, {"lat": 38.928550333333334, "is_disabled": 0, "type": "electric_bike", "lon": -77.22226383333333, "bike_id": "d36c6d219e0f686df4309e4dc281c634", "fusion_lat": 0.0, "name": "d36c6d219e0f686df4309e4dc281c634", "is_reserved": 0, "rental_uris": {"android": "https://dc.lft.to/lastmile_qr_scan", "ios": "https://dc.lft.to/lastmile_qr_scan"}, "fusion_lon": 0.0}, {"lat": 38.903272666666666, "is_disabled": 0, "type": "electric_scooter", "lon": -77.02887233333334, "bike_id": "e0d5023f49d639663aea5bd9621ba02b", "fusion_lat": 0.0, "name": "e0d5023f49d639663aea5bd9621ba02b", "is_reserved": 0, "rental_uris": {"android": "https://dc.lft.to/lastmile_qr_scan", "ios": "https://dc.lft.to/lastmile_qr_scan"}, "fusion_lon": 0.0}, {"lat": 38.928671666666666, "is_disabled": 0, "type": "electric_bike", "lon": -77.03290066666666, "bike_id": "b6813d2a6d943f70e5d1a45613bd56e8", "fusion_lat": 0.0, "name": "b6813d2a6d943f70e5d1a45613bd56e8", "is_reserved": 0, "rental_uris": {"android": "https://dc.lft.to/lastmile_qr_scan", "ios": "https://dc.lft.to/lastmile_qr_scan"}, "fusion_lon": 0.0}, {"lat": 38.802262, "is_disabled": 0, "type": "electric_bike", "lon": -77.0791445, "bike_id": "bc8500d0f246aeef7d17621ec8f540cd", "fusion_lat": 0.0, "name": "bc8500d0f246aeef7d17621ec8f540cd", "is_reserved": 0, "rental_uris": {"android": "https://dc.lft.to/lastmile_qr_scan", "ios": "https://dc.lft.to/lastmile_qr_scan"}, "fusion_lon": 0.0}, {"lat": 38.922375, "is_disabled": 0, "type": "electric_scooter", "lon": -77.0435605, "bike_id": "1b9c56b6f52ee364815bd62e1178e102", "fusion_lat": 0.0, "name": "1b9c56b6f52ee364815bd62e1178e102", "is_reserved": 0, "rental_uris": {"android": "https://dc.lft.to/lastmile_qr_scan", "ios": "https://dc.lft.to/lastmile_qr_scan"}, "fusion_lon": 0.0}, {"lat": 38.9201605, "is_disabled": 0, "type": "electric_scooter", "lon": -77.02530883333333, "bike_id": "99f58449f0fc83dce1bdff206062c59b", "fusion_lat": 0.0, "name": "99f58449f0fc83dce1bdff206062c59b", "is_reserved": 0, "rental_uris": {"android": "https://dc.lft.to/lastmile_qr_scan", "ios": "https://dc.lft.to/lastmile_qr_scan"}, "fusion_lon": 0.0}, {"lat": 38.919313833333334, "is_disabled": 0, "type": "electric_scooter", "lon": -76.970157, "bike_id": "79368e4b63ee81053fd5e5c4e732fcd1", "fusion_lat": 0.0, "name": "79368e4b63ee81053fd5e5c4e732fcd1", "is_reserved": 0, "rental_uris": {"android": "https://dc.lft.to/lastmile_qr_scan", "ios": "https://dc.lft.to/lastmile_qr_scan"}, "fusion_lon": 0.0}, {"lat": 38.884837833333336, "is_disabled": 0, "type": "electric_scooter", "lon": -77.034712, "bike_id": "c741ca038eb437fc9b64cef6e7d60119", "fusion_lat": 0.0, "name": "c741ca038eb437fc9b64cef6e7d60119", "is_reserved": 0, "rental_uris": {"android": "https://dc.lft.to/lastmile_qr_scan", "ios": "https://dc.lft.to/lastmile_qr_scan"}, "fusion_lon": 0.0}, {"lat": 38.9254675, "is_disabled": 0, "type": "electric_scooter", "lon": -77.03221233333333, "bike_id": "97d89cc6f925445d44f2dc52ac380f8d", "fusion_lat": 0.0, "name": "97d89cc6f925445d44f2dc52ac380f8d", "is_reserved": 0, "rental_uris": {"android": "https://dc.lft.to/lastmile_qr_scan", "ios": "https://dc.lft.to/lastmile_qr_scan"}, "fusion_lon": 0.0}, {"lat": 38.90463716666667, "is_disabled": 0, "type": "electric_scooter", "lon": -77.03886033333333, "bike_id": "1175b119504efa5ef3c5ea07e37c628f", "fusion_lat": 0.0, "name": "1175b119504efa5ef3c5ea07e37c628f", "is_reserved": 0, "rental_uris": {"android": "https://dc.lft.to/lastmile_qr_scan", "ios": "https://dc.lft.to/lastmile_qr_scan"}, "fusion_lon": 0.0}, {"lat": 38.92826983333333, "is_disabled": 0, "type": "electric_scooter", "lon": -77.01416733333333, "bike_id": "d413e7de3177201b1942fc33c4680aa8", "fusion_lat": 0.0, "name": "d413e7de3177201b1942fc33c4680aa8", "is_reserved": 0, "rental_uris": {"android": "https://dc.lft.to/lastmile_qr_scan", "ios": "https://dc.lft.to/lastmile_qr_scan"}, "fusion_lon": 0.0}, {"lat": 38.906343, "is_disabled": 0, "type": "electric_scooter", "lon": -77.02505883333333, "bike_id": "67dc8defe6eb7e53fefaa51ef0cc6799", "fusion_lat": 0.0, "name": "67dc8defe6eb7e53fefaa51ef0cc6799", "is_reserved": 0, "rental_uris": {"android": "https://dc.lft.to/lastmile_qr_scan", "ios": "https://dc.lft.to/lastmile_qr_scan"}, "fusion_lon": 0.0}, {"lat": 38.9537785, "is_disabled": 0, "type": "electric_bike", "lon": -76.979628, "bike_id": "960b31fe5eec60e3181f3e4fe2177355", "fusion_lat": 0.0, "name": "960b31fe5eec60e3181f3e4fe2177355", "is_reserved": 0, "rental_uris": {"android": "https://dc.lft.to/lastmile_qr_scan", "ios": "https://dc.lft.to/lastmile_qr_scan"}, "fusion_lon": 0.0}, {"lat": 38.863655666666666, "is_disabled": 0, "type": "electric_scooter", "lon": -76.9903105, "bike_id": "b006036613db2bd7b7727ccad0ba05b0", "fusion_lat": 0.0, "name": "b006036613db2bd7b7727ccad0ba05b0", "is_reserved": 0, "rental_uris": {"android": "https://dc.lft.to/lastmile_qr_scan", "ios": "https://dc.lft.to/lastmile_qr_scan"}, "fusion_lon": 0.0}, {"lat": 38.87362133333333, "is_disabled": 0, "type": "electric_scooter", "lon": -77.00898916666667, "bike_id": "48a17a1bc738969619f8f69745368f04", "fusion_lat": 0.0, "name": "48a17a1bc738969619f8f69745368f04", "is_reserved": 0, "rental_uris": {"android": "https://dc.lft.to/lastmile_qr_scan", "ios": "https://dc.lft.to/lastmile_qr_scan"}, "fusion_lon": 0.0}, {"lat": 38.853798833333336, "is_disabled": 0, "type": "electric_bike", "lon": -77.12420266666666, "bike_id": "628105f4e29ed4cd0b2415d26cf5ffef", "fusion_lat": 0.0, "name": "628105f4e29ed4cd0b2415d26cf5ffef", "is_reserved": 0, "rental_uris": {"android": "https://dc.lft.to/lastmile_qr_scan", "ios": "https://dc.lft.to/lastmile_qr_scan"}, "fusion_lon": 0.0}, {"lat": 38.90071733333333, "is_disabled": 0, "type": "electric_scooter", "lon": -77.002058, "bike_id": "5dc4403c4bf9770720c6f2981289e29e", "fusion_lat": 0.0, "name": "5dc4403c4bf9770720c6f2981289e29e", "is_reserved": 0, "rental_uris": {"android": "https://dc.lft.to/lastmile_qr_scan", "ios": "https://dc.lft.to/lastmile_qr_scan"}, "fusion_lon": 0.0}, {"lat": 38.89995016666667, "is_disabled": 0, "type": "electric_scooter", "lon": -77.02659716666666, "bike_id": "56acf31bdb5e8747d58a09e7acfdb810", "fusion_lat": 0.0, "name": "56acf31bdb5e8747d58a09e7acfdb810", "is_reserved": 0, "rental_uris": {"android": "https://dc.lft.to/lastmile_qr_scan", "ios": "https://dc.lft.to/lastmile_qr_scan"}, "fusion_lon": 0.0}, {"lat": 38.899873666666664, "is_disabled": 0, "type": "electric_scooter", "lon": -77.0526175, "bike_id": "23731c4c507a86c88d02c35218610887", "fusion_lat": 0.0, "name": "23731c4c507a86c88d02c35218610887", "is_reserved": 0, "rental_uris": {"android": "https://dc.lft.to/lastmile_qr_scan", "ios": "https://dc.lft.to/lastmile_qr_scan"}, "fusion_lon": 0.0}, {"lat": 38.925341, "is_disabled": 0, "type": "electric_scooter", "lon": -77.04127883333334, "bike_id": "c029b28d68dab51bd4f0efe7dd34c21d", "fusion_lat": 0.0, "name": "c029b28d68dab51bd4f0efe7dd34c21d", "is_reserved": 0, "rental_uris": {"android": "https://dc.lft.to/lastmile_qr_scan", "ios": "https://dc.lft.to/lastmile_qr_scan"}, "fusion_lon": 0.0}, {"lat": 38.9947605, "is_disabled": 0, "type": "electric_bike", "lon": -77.02898266666666, "bike_id": "36901e3de89af80e5728387f440fa1a8", "fusion_lat": 0.0, "name": "36901e3de89af80e5728387f440fa1a8", "is_reserved": 0, "rental_uris": {"android": "https://dc.lft.to/lastmile_qr_scan", "ios": "https://dc.lft.to/lastmile_qr_scan"}, "fusion_lon": 0.0}, {"lat": 38.9175825, "is_disabled": 0, "type": "electric_scooter", "lon": -77.031923, "bike_id": "0e362babe1515903b276616f12704236", "fusion_lat": 0.0, "name": "0e362babe1515903b276616f12704236", "is_reserved": 0, "rental_uris": {"android": "https://dc.lft.to/lastmile_qr_scan", "ios": "https://dc.lft.to/lastmile_qr_scan"}, "fusion_lon": 0.0}, {"lat": 38.89518666666667, "is_disabled": 0, "type": "electric_scooter", "lon": -76.9773235, "bike_id": "59aab4e5fb567e99d6dc8ffc410881b4", "fusion_lat": 0.0, "name": "59aab4e5fb567e99d6dc8ffc410881b4", "is_reserved": 0, "rental_uris": {"android": "https://dc.lft.to/lastmile_qr_scan", "ios": "https://dc.lft.to/lastmile_qr_scan"}, "fusion_lon": 0.0}, {"lat": 38.894591166666665, "is_disabled": 0, "type": "electric_scooter", "lon": -77.026828, "bike_id": "719399215cc40fd792c17a2c727d173d", "fusion_lat": 0.0, "name": "719399215cc40fd792c17a2c727d173d", "is_reserved": 0, "rental_uris": {"android": "https://dc.lft.to/lastmile_qr_scan", "ios": "https://dc.lft.to/lastmile_qr_scan"}, "fusion_lon": 0.0}, {"lat": 38.91700383333333, "is_disabled": 0, "type": "electric_scooter", "lon": -77.02382116666666, "bike_id": "05f06b21e2b55b7d8aa190a8e576ab88", "fusion_lat": 0.0, "name": "05f06b21e2b55b7d8aa190a8e576ab88", "is_reserved": 0, "rental_uris": {"android": "https://dc.lft.to/lastmile_qr_scan", "ios": "https://dc.lft.to/lastmile_qr_scan"}, "fusion_lon": 0.0}, {"lat": 38.90637783333333, "is_disabled": 0, "type": "electric_scooter", "lon": -76.98569566666667, "bike_id": "66ed8731f20ab11d650d35224bf03e79", "fusion_lat": 0.0, "name": "66ed8731f20ab11d650d35224bf03e79", "is_reserved": 0, "rental_uris": {"android": "https://dc.lft.to/lastmile_qr_scan", "ios": "https://dc.lft.to/lastmile_qr_scan"}, "fusion_lon": 0.0}, {"lat": 38.832143333333335, "is_disabled": 0, "type": "electric_bike", "lon": -76.94626983333333, "bike_id": "8843b3dd2402c25f984c6aeb85cc3c49", "fusion_lat": 0.0, "name": "8843b3dd2402c25f984c6aeb85cc3c49", "is_reserved": 0, "rental_uris": {"android": "https://dc.lft.to/lastmile_qr_scan", "ios": "https://dc.lft.to/lastmile_qr_scan"}, "fusion_lon": 0.0}, {"lat": 38.91262033333334, "is_disabled": 0, "type": "electric_scooter", "lon": -77.0447375, "bike_id": "fd589bb8a63e592ec6c5e5dd9aed1a45", "fusion_lat": 0.0, "name": "fd589bb8a63e592ec6c5e5dd9aed1a45", "is_reserved": 0, "rental_uris": {"android": "https://dc.lft.to/lastmile_qr_scan", "ios": "https://dc.lft.to/lastmile_qr_scan"}, "fusion_lon": 0.0}, {"lat": 38.93109066666667, "is_disabled": 0, "type": "electric_scooter", "lon": -77.03400516666666, "bike_id": "53eeac6534546f20671765cefae82c4d", "fusion_lat": 0.0, "name": "53eeac6534546f20671765cefae82c4d", "is_reserved": 0, "rental_uris": {"android": "https://dc.lft.to/lastmile_qr_scan", "ios": "https://dc.lft.to/lastmile_qr_scan"}, "fusion_lon": 0.0}, {"lat": 38.91707483333333, "is_disabled": 0, "type": "electric_scooter", "lon": -77.0247055, "bike_id": "719e87334ce03b5828d90131fe63a85a", "fusion_lat": 0.0, "name": "719e87334ce03b5828d90131fe63a85a", "is_reserved": 0, "rental_uris": {"android": "https://dc.lft.to/lastmile_qr_scan", "ios": "https://dc.lft.to/lastmile_qr_scan"}, "fusion_lon": 0.0}, {"lat": 38.911791666666666, "is_disabled": 0, "type": "electric_scooter", "lon": -77.04319166666667, "bike_id": "f5fd9bbdd916f14fa50f7b957213c6ae", "fusion_lat": 0.0, "name": "f5fd9bbdd916f14fa50f7b957213c6ae", "is_reserved": 0, "rental_uris": {"android": "https://dc.lft.to/lastmile_qr_scan", "ios": "https://dc.lft.to/lastmile_qr_scan"}, "fusion_lon": 0.0}, {"lat": 38.909969, "is_disabled": 0, "type": "electric_scooter", "lon": -77.0401035, "bike_id": "85773be0809ba01731ee590afcbb7bde", "fusion_lat": 0.0, "name": "85773be0809ba01731ee590afcbb7bde", "is_reserved": 0, "rental_uris": {"android": "https://dc.lft.to/lastmile_qr_scan", "ios": "https://dc.lft.to/lastmile_qr_scan"}, "fusion_lon": 0.0}, {"lat": 38.934627166666665, "is_disabled": 0, "type": "electric_scooter", "lon": -77.024235, "bike_id": "f477750596eb5d2d2ed168a5897ecb2e", "fusion_lat": 0.0, "name": "f477750596eb5d2d2ed168a5897ecb2e", "is_reserved": 0, "rental_uris": {"android": "https://dc.lft.to/lastmile_qr_scan", "ios": "https://dc.lft.to/lastmile_qr_scan"}, "fusion_lon": 0.0}, {"lat": 38.84348966666667, "is_disabled": 0, "type": "electric_bike", "lon": -77.11484133333333, "bike_id": "dfefd55859e1b22cc26117d0ec1c270c", "fusion_lat": 0.0, "name": "dfefd55859e1b22cc26117d0ec1c270c", "is_reserved": 0, "rental_uris": {"android": "https://dc.lft.to/lastmile_qr_scan", "ios": "https://dc.lft.to/lastmile_qr_scan"}, "fusion_lon": 0.0}, {"lat": 38.89342216666667, "is_disabled": 0, "type": "electric_scooter", "lon": -77.0413325, "bike_id": "28e471e542d1f4748d44955144105323", "fusion_lat": 0.0, "name": "28e471e542d1f4748d44955144105323", "is_reserved": 0, "rental_uris": {"android": "https://dc.lft.to/lastmile_qr_scan", "ios": "https://dc.lft.to/lastmile_qr_scan"}, "fusion_lon": 0.0}, {"lat": 38.917132, "is_disabled": 0, "type": "electric_scooter", "lon": -77.02395166666666, "bike_id": "d16d9383a54d5684c28228d8a853d184", "fusion_lat": 0.0, "name": "d16d9383a54d5684c28228d8a853d184", "is_reserved": 0, "rental_uris": {"android": "https://dc.lft.to/lastmile_qr_scan", "ios": "https://dc.lft.to/lastmile_qr_scan"}, "fusion_lon": 0.0}, {"lat": 38.912851333333336, "is_disabled": 0, "type": "electric_scooter", "lon": -77.03201983333334, "bike_id": "4becbcff64bbfa03682daf1440d7ed14", "fusion_lat": 0.0, "name": "4becbcff64bbfa03682daf1440d7ed14", "is_reserved": 0, "rental_uris": {"android": "https://dc.lft.to/lastmile_qr_scan", "ios": "https://dc.lft.to/lastmile_qr_scan"}, "fusion_lon": 0.0}, {"lat": 38.91418133333333, "is_disabled": 0, "type": "electric_scooter", "lon": -77.03186583333333, "bike_id": "0ab064f9276c9e701ae092de8770ada5", "fusion_lat": 0.0, "name": "0ab064f9276c9e701ae092de8770ada5", "is_reserved": 0, "rental_uris": {"android": "https://dc.lft.to/lastmile_qr_scan", "ios": "https://dc.lft.to/lastmile_qr_scan"}, "fusion_lon": 0.0}, {"lat": 38.949177666666664, "is_disabled": 0, "type": "electric_bike", "lon": -77.00800366666667, "bike_id": "8e68178b0d8857eedc0fe8d4a2415c85", "fusion_lat": 0.0, "name": "8e68178b0d8857eedc0fe8d4a2415c85", "is_reserved": 0, "rental_uris": {"android": "https://dc.lft.to/lastmile_qr_scan", "ios": "https://dc.lft.to/lastmile_qr_scan"}, "fusion_lon": 0.0}, {"lat": 38.921113, "is_disabled": 0, "type": "electric_bike", "lon": -76.98575583333333, "bike_id": "c1f918721c59257bdc624edc44997c29", "fusion_lat": 0.0, "name": "c1f918721c59257bdc624edc44997c29", "is_reserved": 0, "rental_uris": {"android": "https://dc.lft.to/lastmile_qr_scan", "ios": "https://dc.lft.to/lastmile_qr_scan"}, "fusion_lon": 0.0}, {"lat": 38.958837, "is_disabled": 0, "type": "electric_bike", "lon": -76.92484866666666, "bike_id": "62d9c16f3a96669e72bb92245a3f1bf8", "fusion_lat": 0.0, "name": "62d9c16f3a96669e72bb92245a3f1bf8", "is_reserved": 0, "rental_uris": {"android": "https://dc.lft.to/lastmile_qr_scan", "ios": "https://dc.lft.to/lastmile_qr_scan"}, "fusion_lon": 0.0}, {"lat": 38.90287166666667, "is_disabled": 0, "type": "electric_scooter", "lon": -77.06355366666666, "bike_id": "80b597636a52606989d1917a380639ab", "fusion_lat": 0.0, "name": "80b597636a52606989d1917a380639ab", "is_reserved": 0, "rental_uris": {"android": "https://dc.lft.to/lastmile_qr_scan", "ios": "https://dc.lft.to/lastmile_qr_scan"}, "fusion_lon": 0.0}, {"lat": 38.90764, "is_disabled": 0, "type": "electric_scooter", "lon": -77.07026, "bike_id": "220864ea92af7bc51dcc9b94b9eabf4c", "fusion_lat": 0.0, "name": "220864ea92af7bc51dcc9b94b9eabf4c", "is_reserved": 0, "rental_uris": {"android": "https://dc.lft.to/lastmile_qr_scan", "ios": "https://dc.lft.to/lastmile_qr_scan"}, "fusion_lon": 0.0}, {"lat": 38.917773833333335, "is_disabled": 0, "type": "electric_scooter", "lon": -77.0434495, "bike_id": "b3a805b88af59d0707831a93d6134290", "fusion_lat": 0.0, "name": "b3a805b88af59d0707831a93d6134290", "is_reserved": 0, "rental_uris": {"android": "https://dc.lft.to/lastmile_qr_scan", "ios": "https://dc.lft.to/lastmile_qr_scan"}, "fusion_lon": 0.0}, {"lat": 38.907318333333336, "is_disabled": 0, "type": "electric_scooter", "lon": -76.9354455, "bike_id": "4338fe81eb780d77d91e0bd4822f45ec", "fusion_lat": 0.0, "name": "4338fe81eb780d77d91e0bd4822f45ec", "is_reserved": 0, "rental_uris": {"android": "https://dc.lft.to/lastmile_qr_scan", "ios": "https://dc.lft.to/lastmile_qr_scan"}, "fusion_lon": 0.0}, {"lat": 38.91185866666667, "is_disabled": 0, "type": "electric_scooter", "lon": -77.0325835, "bike_id": "f03c83ccefb2cfb0c7a4bc164bc25d56", "fusion_lat": 0.0, "name": "f03c83ccefb2cfb0c7a4bc164bc25d56", "is_reserved": 0, "rental_uris": {"android": "https://dc.lft.to/lastmile_qr_scan", "ios": "https://dc.lft.to/lastmile_qr_scan"}, "fusion_lon": 0.0}, {"lat": 38.92561883333333, "is_disabled": 0, "type": "electric_scooter", "lon": -77.05764116666667, "bike_id": "11d6aff93fda7cf14827d0c8cd09c309", "fusion_lat": 0.0, "name": "11d6aff93fda7cf14827d0c8cd09c309", "is_reserved": 0, "rental_uris": {"android": "https://dc.lft.to/lastmile_qr_scan", "ios": "https://dc.lft.to/lastmile_qr_scan"}, "fusion_lon": 0.0}, {"lat": 38.8665745, "is_disabled": 0, "type": "electric_scooter", "lon": -76.988816, "bike_id": "856aa104147c71568b9aa5baf9d508d0", "fusion_lat": 0.0, "name": "856aa104147c71568b9aa5baf9d508d0", "is_reserved": 0, "rental_uris": {"android": "https://dc.lft.to/lastmile_qr_scan", "ios": "https://dc.lft.to/lastmile_qr_scan"}, "fusion_lon": 0.0}, {"lat": 38.80676966666667, "is_disabled": 0, "type": "electric_bike", "lon": -77.08122066666667, "bike_id": "650e2f2af508ecf1474db49d5563ef92", "fusion_lat": 0.0, "name": "650e2f2af508ecf1474db49d5563ef92", "is_reserved": 0, "rental_uris": {"android": "https://dc.lft.to/lastmile_qr_scan", "ios": "https://dc.lft.to/lastmile_qr_scan"}, "fusion_lon": 0.0}, {"lat": 38.90331183333333, "is_disabled": 0, "type": "electric_scooter", "lon": -76.97598633333334, "bike_id": "8e623c89f54a517370eee49ddc057a0b", "fusion_lat": 0.0, "name": "8e623c89f54a517370eee49ddc057a0b", "is_reserved": 0, "rental_uris": {"android": "https://dc.lft.to/lastmile_qr_scan", "ios": "https://dc.lft.to/lastmile_qr_scan"}, "fusion_lon": 0.0}, {"lat": 38.90108, "is_disabled": 0, "type": "electric_scooter", "lon": -76.99551133333334, "bike_id": "fc9c9ea19c3213bf9885cfb40a03b403", "fusion_lat": 0.0, "name": "fc9c9ea19c3213bf9885cfb40a03b403", "is_reserved": 0, "rental_uris": {"android": "https://dc.lft.to/lastmile_qr_scan", "ios": "https://dc.lft.to/lastmile_qr_scan"}, "fusion_lon": 0.0}, {"lat": 38.918963166666664, "is_disabled": 0, "type": "electric_scooter", "lon": -77.000459, "bike_id": "0bdc1064284895ebf06faf1ef6587f58", "fusion_lat": 0.0, "name": "0bdc1064284895ebf06faf1ef6587f58", "is_reserved": 0, "rental_uris": {"android": "https://dc.lft.to/lastmile_qr_scan", "ios": "https://dc.lft.to/lastmile_qr_scan"}, "fusion_lon": 0.0}, {"lat": 38.9191605, "is_disabled": 0, "type": "electric_scooter", "lon": -77.02401666666667, "bike_id": "0942545f1882cebbe145f43b969c7091", "fusion_lat": 0.0, "name": "0942545f1882cebbe145f43b969c7091", "is_reserved": 0, "rental_uris": {"android": "https://dc.lft.to/lastmile_qr_scan", "ios": "https://dc.lft.to/lastmile_qr_scan"}, "fusion_lon": 0.0}, {"lat": 38.917578166666665, "is_disabled": 0, "type": "electric_scooter", "lon": -77.022003, "bike_id": "64e17c4e22e0925deccce08436512c8e", "fusion_lat": 0.0, "name": "64e17c4e22e0925deccce08436512c8e", "is_reserved": 0, "rental_uris": {"android": "https://dc.lft.to/lastmile_qr_scan", "ios": "https://dc.lft.to/lastmile_qr_scan"}, "fusion_lon": 0.0}, {"lat": 38.91724716666667, "is_disabled": 0, "type": "electric_scooter", "lon": -77.02293883333333, "bike_id": "10d30eeaf19289e9be0fe4c240a0b42a", "fusion_lat": 0.0, "name": "10d30eeaf19289e9be0fe4c240a0b42a", "is_reserved": 0, "rental_uris": {"android": "https://dc.lft.to/lastmile_qr_scan", "ios": "https://dc.lft.to/lastmile_qr_scan"}, "fusion_lon": 0.0}, {"lat": 38.91684516666667, "is_disabled": 0, "type": "electric_scooter", "lon": -77.02805383333333, "bike_id": "3b76c0922beeab440821d1021c51a0c3", "fusion_lat": 0.0, "name": "3b76c0922beeab440821d1021c51a0c3", "is_reserved": 0, "rental_uris": {"android": "https://dc.lft.to/lastmile_qr_scan", "ios": "https://dc.lft.to/lastmile_qr_scan"}, "fusion_lon": 0.0}, {"lat": 38.89893133333333, "is_disabled": 0, "type": "electric_scooter", "lon": -77.02167083333333, "bike_id": "8d1afa81c575b6daa7079893382d4ca3", "fusion_lat": 0.0, "name": "8d1afa81c575b6daa7079893382d4ca3", "is_reserved": 0, "rental_uris": {"android": "https://dc.lft.to/lastmile_qr_scan", "ios": "https://dc.lft.to/lastmile_qr_scan"}, "fusion_lon": 0.0}, {"lat": 38.904160833333336, "is_disabled": 0, "type": "electric_scooter", "lon": -77.06890466666667, "bike_id": "2dc5a546d3a88ee092bf3a7647f5db3a", "fusion_lat": 0.0, "name": "2dc5a546d3a88ee092bf3a7647f5db3a", "is_reserved": 0, "rental_uris": {"android": "https://dc.lft.to/lastmile_qr_scan", "ios": "https://dc.lft.to/lastmile_qr_scan"}, "fusion_lon": 0.0}, {"lat": 38.90971416666667, "is_disabled": 0, "type": "electric_scooter", "lon": -77.033779, "bike_id": "f6e43853f658116fe5a17938b82c8fdd", "fusion_lat": 0.0, "name": "f6e43853f658116fe5a17938b82c8fdd", "is_reserved": 0, "rental_uris": {"android": "https://dc.lft.to/lastmile_qr_scan", "ios": "https://dc.lft.to/lastmile_qr_scan"}, "fusion_lon": 0.0}, {"lat": 38.887358666666664, "is_disabled": 0, "type": "electric_scooter", "lon": -77.01537366666666, "bike_id": "587ae8131afe2bd99848b5f9c39767a5", "fusion_lat": 0.0, "name": "587ae8131afe2bd99848b5f9c39767a5", "is_reserved": 0, "rental_uris": {"android": "https://dc.lft.to/lastmile_qr_scan", "ios": "https://dc.lft.to/lastmile_qr_scan"}, "fusion_lon": 0.0}, {"lat": 38.912874, "is_disabled": 0, "type": "electric_scooter", "lon": -77.02383683333333, "bike_id": "908e3b0714139cf937e9109ae461c473", "fusion_lat": 0.0, "name": "908e3b0714139cf937e9109ae461c473", "is_reserved": 0, "rental_uris": {"android": "https://dc.lft.to/lastmile_qr_scan", "ios": "https://dc.lft.to/lastmile_qr_scan"}, "fusion_lon": 0.0}, {"lat": 38.90048733333333, "is_disabled": 0, "type": "electric_scooter", "lon": -77.00211166666666, "bike_id": "fe41d13be118e0e7a4bbe7f28e3346e6", "fusion_lat": 0.0, "name": "fe41d13be118e0e7a4bbe7f28e3346e6", "is_reserved": 0, "rental_uris": {"android": "https://dc.lft.to/lastmile_qr_scan", "ios": "https://dc.lft.to/lastmile_qr_scan"}, "fusion_lon": 0.0}, {"lat": 38.88656566666667, "is_disabled": 0, "type": "electric_bike", "lon": -77.16239666666667, "bike_id": "77220a257083921672c0a6119650acc5", "fusion_lat": 0.0, "name": "77220a257083921672c0a6119650acc5", "is_reserved": 0, "rental_uris": {"android": "https://dc.lft.to/lastmile_qr_scan", "ios": "https://dc.lft.to/lastmile_qr_scan"}, "fusion_lon": 0.0}, {"lat": 38.911348333333336, "is_disabled": 0, "type": "electric_scooter", "lon": -77.027002, "bike_id": "911b3f11ba8663896670b587f3998d3f", "fusion_lat": 0.0, "name": "911b3f11ba8663896670b587f3998d3f", "is_reserved": 0, "rental_uris": {"android": "https://dc.lft.to/lastmile_qr_scan", "ios": "https://dc.lft.to/lastmile_qr_scan"}, "fusion_lon": 0.0}, {"lat": 38.90037366666667, "is_disabled": 0, "type": "electric_scooter", "lon": -77.03302733333334, "bike_id": "ead796d2a07d94ead4fb402d5d7e108d", "fusion_lat": 0.0, "name": "ead796d2a07d94ead4fb402d5d7e108d", "is_reserved": 0, "rental_uris": {"android": "https://dc.lft.to/lastmile_qr_scan", "ios": "https://dc.lft.to/lastmile_qr_scan"}, "fusion_lon": 0.0}, {"lat": 38.91565266666667, "is_disabled": 0, "type": "electric_scooter", "lon": -77.0229325, "bike_id": "7f945dc85103b3cd7944ae7196c9a981", "fusion_lat": 0.0, "name": "7f945dc85103b3cd7944ae7196c9a981", "is_reserved": 0, "rental_uris": {"android": "https://dc.lft.to/lastmile_qr_scan", "ios": "https://dc.lft.to/lastmile_qr_scan"}, "fusion_lon": 0.0}, {"lat": 38.90092966666667, "is_disabled": 0, "type": "electric_scooter", "lon": -77.0559895, "bike_id": "48819549c0227dd2e8fd57310a5e23a8", "fusion_lat": 0.0, "name": "48819549c0227dd2e8fd57310a5e23a8", "is_reserved": 0, "rental_uris": {"android": "https://dc.lft.to/lastmile_qr_scan", "ios": "https://dc.lft.to/lastmile_qr_scan"}, "fusion_lon": 0.0}, {"lat": 38.91368083333333, "is_disabled": 0, "type": "electric_scooter", "lon": -77.03365766666667, "bike_id": "c93eda91b5364e0f19ba742f3bc84f8f", "fusion_lat": 0.0, "name": "c93eda91b5364e0f19ba742f3bc84f8f", "is_reserved": 0, "rental_uris": {"android": "https://dc.lft.to/lastmile_qr_scan", "ios": "https://dc.lft.to/lastmile_qr_scan"}, "fusion_lon": 0.0}, {"lat": 38.904869, "is_disabled": 0, "type": "electric_scooter", "lon": -77.04885683333333, "bike_id": "6e9b441c22a85fe1f25b1158b8b78c0d", "fusion_lat": 0.0, "name": "6e9b441c22a85fe1f25b1158b8b78c0d", "is_reserved": 0, "rental_uris": {"android": "https://dc.lft.to/lastmile_qr_scan", "ios": "https://dc.lft.to/lastmile_qr_scan"}, "fusion_lon": 0.0}, {"lat": 38.91432266666666, "is_disabled": 0, "type": "electric_scooter", "lon": -77.04501166666667, "bike_id": "484402b40d99ec8202397353d5aba396", "fusion_lat": 0.0, "name": "484402b40d99ec8202397353d5aba396", "is_reserved": 0, "rental_uris": {"android": "https://dc.lft.to/lastmile_qr_scan", "ios": "https://dc.lft.to/lastmile_qr_scan"}, "fusion_lon": 0.0}, {"lat": 38.9001615, "is_disabled": 0, "type": "electric_scooter", "lon": -77.00683966666666, "bike_id": "d02dd3f32dfecf7916e53d595a5a2f8c", "fusion_lat": 0.0, "name": "d02dd3f32dfecf7916e53d595a5a2f8c", "is_reserved": 0, "rental_uris": {"android": "https://dc.lft.to/lastmile_qr_scan", "ios": "https://dc.lft.to/lastmile_qr_scan"}, "fusion_lon": 0.0}, {"lat": 38.90219166666667, "is_disabled": 0, "type": "electric_scooter", "lon": -77.05915166666666, "bike_id": "628459a3414c75af35e814fcd9e51e5c", "fusion_lat": 0.0, "name": "628459a3414c75af35e814fcd9e51e5c", "is_reserved": 0, "rental_uris": {"android": "https://dc.lft.to/lastmile_qr_scan", "ios": "https://dc.lft.to/lastmile_qr_scan"}, "fusion_lon": 0.0}, {"lat": 38.917436, "is_disabled": 0, "type": "electric_scooter", "lon": -77.03602483333333, "bike_id": "3a03611d08bd2d76676e091717b770a1", "fusion_lat": 0.0, "name": "3a03611d08bd2d76676e091717b770a1", "is_reserved": 0, "rental_uris": {"android": "https://dc.lft.to/lastmile_qr_scan", "ios": "https://dc.lft.to/lastmile_qr_scan"}, "fusion_lon": 0.0}, {"lat": 38.86506383333333, "is_disabled": 0, "type": "electric_scooter", "lon": -76.99006366666667, "bike_id": "c52951b978498d1daff0cf5498fb0ae4", "fusion_lat": 0.0, "name": "c52951b978498d1daff0cf5498fb0ae4", "is_reserved": 0, "rental_uris": {"android": "https://dc.lft.to/lastmile_qr_scan", "ios": "https://dc.lft.to/lastmile_qr_scan"}, "fusion_lon": 0.0}, {"lat": 38.892212, "is_disabled": 0, "type": "electric_scooter", "lon": -76.9330055, "bike_id": "f9c5a9b70e00ab70fa834411cb4c063a", "fusion_lat": 0.0, "name": "f9c5a9b70e00ab70fa834411cb4c063a", "is_reserved": 0, "rental_uris": {"android": "https://dc.lft.to/lastmile_qr_scan", "ios": "https://dc.lft.to/lastmile_qr_scan"}, "fusion_lon": 0.0}, {"lat": 39.074983, "is_disabled": 0, "type": "electric_bike", "lon": -77.11897883333333, "bike_id": "a695ab9b548e4e162a4cd61b3a2a7f5d", "fusion_lat": 0.0, "name": "a695ab9b548e4e162a4cd61b3a2a7f5d", "is_reserved": 0, "rental_uris": {"android": "https://dc.lft.to/lastmile_qr_scan", "ios": "https://dc.lft.to/lastmile_qr_scan"}, "fusion_lon": 0.0}, {"lat": 38.886663166666665, "is_disabled": 0, "type": "electric_scooter", "lon": -76.99034133333333, "bike_id": "297e8bbe51a9febd1baffc08a0de04ce", "fusion_lat": 0.0, "name": "297e8bbe51a9febd1baffc08a0de04ce", "is_reserved": 0, "rental_uris": {"android": "https://dc.lft.to/lastmile_qr_scan", "ios": "https://dc.lft.to/lastmile_qr_scan"}, "fusion_lon": 0.0}, {"lat": 38.921046833333335, "is_disabled": 0, "type": "electric_scooter", "lon": -77.04571583333333, "bike_id": "51455a66c644bd4e106678b5a7fdaddb", "fusion_lat": 0.0, "name": "51455a66c644bd4e106678b5a7fdaddb", "is_reserved": 0, "rental_uris": {"android": "https://dc.lft.to/lastmile_qr_scan", "ios": "https://dc.lft.to/lastmile_qr_scan"}, "fusion_lon": 0.0}, {"lat": 38.906733333333335, "is_disabled": 0, "type": "electric_scooter", "lon": -77.023994, "bike_id": "eb6f9f4368d27af9a50b80c3860720ee", "fusion_lat": 0.0, "name": "eb6f9f4368d27af9a50b80c3860720ee", "is_reserved": 0, "rental_uris": {"android": "https://dc.lft.to/lastmile_qr_scan", "ios": "https://dc.lft.to/lastmile_qr_scan"}, "fusion_lon": 0.0}, {"lat": 38.9040025, "is_disabled": 0, "type": "electric_scooter", "lon": -77.04328633333333, "bike_id": "ff3494a2c4d2f435dc292e23d37b2186", "fusion_lat": 0.0, "name": "ff3494a2c4d2f435dc292e23d37b2186", "is_reserved": 0, "rental_uris": {"android": "https://dc.lft.to/lastmile_qr_scan", "ios": "https://dc.lft.to/lastmile_qr_scan"}, "fusion_lon": 0.0}, {"lat": 38.90010316666667, "is_disabled": 0, "type": "electric_bike", "lon": -77.05150266666666, "bike_id": "4293387402a125255fc1d9dbd660dc8a", "fusion_lat": 0.0, "name": "4293387402a125255fc1d9dbd660dc8a", "is_reserved": 0, "rental_uris": {"android": "https://dc.lft.to/lastmile_qr_scan", "ios": "https://dc.lft.to/lastmile_qr_scan"}, "fusion_lon": 0.0}, {"lat": 38.9126135, "is_disabled": 0, "type": "electric_scooter", "lon": -77.02255083333333, "bike_id": "8637949be98bb52d226a78001cf2fc5c", "fusion_lat": 0.0, "name": "8637949be98bb52d226a78001cf2fc5c", "is_reserved": 0, "rental_uris": {"android": "https://dc.lft.to/lastmile_qr_scan", "ios": "https://dc.lft.to/lastmile_qr_scan"}, "fusion_lon": 0.0}, {"lat": 38.90063833333333, "is_disabled": 0, "type": "electric_scooter", "lon": -77.002099, "bike_id": "cb3eff0637e9da77434a745a498d1c71", "fusion_lat": 0.0, "name": "cb3eff0637e9da77434a745a498d1c71", "is_reserved": 0, "rental_uris": {"android": "https://dc.lft.to/lastmile_qr_scan", "ios": "https://dc.lft.to/lastmile_qr_scan"}, "fusion_lon": 0.0}, {"lat": 38.872418, "is_disabled": 0, "type": "electric_scooter", "lon": -76.97731866666666, "bike_id": "38b0fa963be2fa36d2ae8ded0df2bd50", "fusion_lat": 0.0, "name": "38b0fa963be2fa36d2ae8ded0df2bd50", "is_reserved": 0, "rental_uris": {"android": "https://dc.lft.to/lastmile_qr_scan", "ios": "https://dc.lft.to/lastmile_qr_scan"}, "fusion_lon": 0.0}, {"lat": 38.91689266666667, "is_disabled": 0, "type": "electric_scooter", "lon": -77.0268955, "bike_id": "2fde05a39ffdabd61554d41b13fc03b7", "fusion_lat": 0.0, "name": "2fde05a39ffdabd61554d41b13fc03b7", "is_reserved": 0, "rental_uris": {"android": "https://dc.lft.to/lastmile_qr_scan", "ios": "https://dc.lft.to/lastmile_qr_scan"}, "fusion_lon": 0.0}, {"lat": 38.91708033333333, "is_disabled": 0, "type": "electric_scooter", "lon": -77.033548, "bike_id": "68ed598deab7b706d761321bb571b3b5", "fusion_lat": 0.0, "name": "68ed598deab7b706d761321bb571b3b5", "is_reserved": 0, "rental_uris": {"android": "https://dc.lft.to/lastmile_qr_scan", "ios": "https://dc.lft.to/lastmile_qr_scan"}, "fusion_lon": 0.0}, {"lat": 38.90851383333333, "is_disabled": 0, "type": "electric_scooter", "lon": -77.04770283333333, "bike_id": "d8c657f435a6d303eafc54a80ecf6e52", "fusion_lat": 0.0, "name": "d8c657f435a6d303eafc54a80ecf6e52", "is_reserved": 0, "rental_uris": {"android": "https://dc.lft.to/lastmile_qr_scan", "ios": "https://dc.lft.to/lastmile_qr_scan"}, "fusion_lon": 0.0}, {"lat": 38.94403, "is_disabled": 0, "type": "electric_scooter", "lon": -77.02643683333334, "bike_id": "0c85ff4e3edee341a91a8411447cd3b7", "fusion_lat": 0.0, "name": "0c85ff4e3edee341a91a8411447cd3b7", "is_reserved": 0, "rental_uris": {"android": "https://dc.lft.to/lastmile_qr_scan", "ios": "https://dc.lft.to/lastmile_qr_scan"}, "fusion_lon": 0.0}, {"lat": 38.889255, "is_disabled": 0, "type": "electric_scooter", "lon": -76.97374916666666, "bike_id": "260033a263c1c63b89bdacc520dd17a9", "fusion_lat": 0.0, "name": "260033a263c1c63b89bdacc520dd17a9", "is_reserved": 0, "rental_uris": {"android": "https://dc.lft.to/lastmile_qr_scan", "ios": "https://dc.lft.to/lastmile_qr_scan"}, "fusion_lon": 0.0}, {"lat": 38.85519983333333, "is_disabled": 0, "type": "electric_bike", "lon": -76.98438766666666, "bike_id": "92e55db3704b42ba3baa38134a0a197b", "fusion_lat": 0.0, "name": "92e55db3704b42ba3baa38134a0a197b", "is_reserved": 0, "rental_uris": {"android": "https://dc.lft.to/lastmile_qr_scan", "ios": "https://dc.lft.to/lastmile_qr_scan"}, "fusion_lon": 0.0}, {"lat": 38.91106583333333, "is_disabled": 0, "type": "electric_scooter", "lon": -77.048137, "bike_id": "159d603fb3fdff57f38dd57acb7d2734", "fusion_lat": 0.0, "name": "159d603fb3fdff57f38dd57acb7d2734", "is_reserved": 0, "rental_uris": {"android": "https://dc.lft.to/lastmile_qr_scan", "ios": "https://dc.lft.to/lastmile_qr_scan"}, "fusion_lon": 0.0}, {"lat": 38.897566, "is_disabled": 0, "type": "electric_scooter", "lon": -76.94185366666666, "bike_id": "4010798df0453484494bb85a4735a3e8", "fusion_lat": 0.0, "name": "4010798df0453484494bb85a4735a3e8", "is_reserved": 0, "rental_uris": {"android": "https://dc.lft.to/lastmile_qr_scan", "ios": "https://dc.lft.to/lastmile_qr_scan"}, "fusion_lon": 0.0}, {"lat": 38.903267, "is_disabled": 0, "type": "electric_scooter", "lon": -77.06297783333333, "bike_id": "d3bbaa2bb57157f312b89a2c98f9e17c", "fusion_lat": 0.0, "name": "d3bbaa2bb57157f312b89a2c98f9e17c", "is_reserved": 0, "rental_uris": {"android": "https://dc.lft.to/lastmile_qr_scan", "ios": "https://dc.lft.to/lastmile_qr_scan"}, "fusion_lon": 0.0}, {"lat": 38.91100983333333, "is_disabled": 0, "type": "electric_scooter", "lon": -77.02016283333333, "bike_id": "57001c18a65a421b0d749b0e910e2b0e", "fusion_lat": 0.0, "name": "57001c18a65a421b0d749b0e910e2b0e", "is_reserved": 0, "rental_uris": {"android": "https://dc.lft.to/lastmile_qr_scan", "ios": "https://dc.lft.to/lastmile_qr_scan"}, "fusion_lon": 0.0}, {"lat": 38.922247, "is_disabled": 0, "type": "electric_scooter", "lon": -77.04342216666667, "bike_id": "84636233d5c37a7cad818cd7531d459f", "fusion_lat": 0.0, "name": "84636233d5c37a7cad818cd7531d459f", "is_reserved": 0, "rental_uris": {"android": "https://dc.lft.to/lastmile_qr_scan", "ios": "https://dc.lft.to/lastmile_qr_scan"}, "fusion_lon": 0.0}, {"lat": 38.9341815, "is_disabled": 0, "type": "electric_scooter", "lon": -77.05551233333334, "bike_id": "247f151d0c245dd33e0f06621e96c478", "fusion_lat": 0.0, "name": "247f151d0c245dd33e0f06621e96c478", "is_reserved": 0, "rental_uris": {"android": "https://dc.lft.to/lastmile_qr_scan", "ios": "https://dc.lft.to/lastmile_qr_scan"}, "fusion_lon": 0.0}, {"lat": 38.91696983333333, "is_disabled": 0, "type": "electric_scooter", "lon": -77.03715716666666, "bike_id": "b438805f4d764e08241bf048b7dcd165", "fusion_lat": 0.0, "name": "b438805f4d764e08241bf048b7dcd165", "is_reserved": 0, "rental_uris": {"android": "https://dc.lft.to/lastmile_qr_scan", "ios": "https://dc.lft.to/lastmile_qr_scan"}, "fusion_lon": 0.0}, {"lat": 38.914767166666664, "is_disabled": 0, "type": "electric_scooter", "lon": -77.01378916666667, "bike_id": "2df00357cd011165c2a95955c0645337", "fusion_lat": 0.0, "name": "2df00357cd011165c2a95955c0645337", "is_reserved": 0, "rental_uris": {"android": "https://dc.lft.to/lastmile_qr_scan", "ios": "https://dc.lft.to/lastmile_qr_scan"}, "fusion_lon": 0.0}, {"lat": 38.90942916666667, "is_disabled": 0, "type": "electric_scooter", "lon": -77.04324366666667, "bike_id": "cec4d0015faeed18523fabc3bd327a52", "fusion_lat": 0.0, "name": "cec4d0015faeed18523fabc3bd327a52", "is_reserved": 0, "rental_uris": {"android": "https://dc.lft.to/lastmile_qr_scan", "ios": "https://dc.lft.to/lastmile_qr_scan"}, "fusion_lon": 0.0}, {"lat": 38.900301166666665, "is_disabled": 0, "type": "electric_scooter", "lon": -77.00200116666667, "bike_id": "2fba484caf57cf7a70f255dc354c81e7", "fusion_lat": 0.0, "name": "2fba484caf57cf7a70f255dc354c81e7", "is_reserved": 0, "rental_uris": {"android": "https://dc.lft.to/lastmile_qr_scan", "ios": "https://dc.lft.to/lastmile_qr_scan"}, "fusion_lon": 0.0}, {"lat": 38.917990833333334, "is_disabled": 0, "type": "electric_scooter", "lon": -77.04013433333333, "bike_id": "57f2a2b38f9fd9c93ca8ea4d7c73f492", "fusion_lat": 0.0, "name": "57f2a2b38f9fd9c93ca8ea4d7c73f492", "is_reserved": 0, "rental_uris": {"android": "https://dc.lft.to/lastmile_qr_scan", "ios": "https://dc.lft.to/lastmile_qr_scan"}, "fusion_lon": 0.0}, {"lat": 38.900216666666665, "is_disabled": 0, "type": "electric_scooter", "lon": -76.99898766666666, "bike_id": "ed492d8cb54c69d750eb8a289f0be4f7", "fusion_lat": 0.0, "name": "ed492d8cb54c69d750eb8a289f0be4f7", "is_reserved": 0, "rental_uris": {"android": "https://dc.lft.to/lastmile_qr_scan", "ios": "https://dc.lft.to/lastmile_qr_scan"}, "fusion_lon": 0.0}, {"lat": 38.931319333333334, "is_disabled": 0, "type": "electric_scooter", "lon": -77.03258866666667, "bike_id": "327d78aa6b412cc37daf03088ede7bcb", "fusion_lat": 0.0, "name": "327d78aa6b412cc37daf03088ede7bcb", "is_reserved": 0, "rental_uris": {"android": "https://dc.lft.to/lastmile_qr_scan", "ios": "https://dc.lft.to/lastmile_qr_scan"}, "fusion_lon": 0.0}, {"lat": 38.813475, "is_disabled": 0, "type": "electric_bike", "lon": -77.04924, "bike_id": "03e94fb10a690626c37ae39f6289a2ce", "fusion_lat": 0.0, "name": "03e94fb10a690626c37ae39f6289a2ce", "is_reserved": 0, "rental_uris": {"android": "https://dc.lft.to/lastmile_qr_scan", "ios": "https://dc.lft.to/lastmile_qr_scan"}, "fusion_lon": 0.0}, {"lat": 38.92572033333333, "is_disabled": 0, "type": "electric_scooter", "lon": -77.02830433333334, "bike_id": "c0b84b3bbea609a50e100d3d2eed6ebf", "fusion_lat": 0.0, "name": "c0b84b3bbea609a50e100d3d2eed6ebf", "is_reserved": 0, "rental_uris": {"android": "https://dc.lft.to/lastmile_qr_scan", "ios": "https://dc.lft.to/lastmile_qr_scan"}, "fusion_lon": 0.0}, {"lat": 38.897021333333335, "is_disabled": 0, "type": "electric_scooter", "lon": -77.0084505, "bike_id": "7aef1e242f61db91d0a4e08d093ddc09", "fusion_lat": 0.0, "name": "7aef1e242f61db91d0a4e08d093ddc09", "is_reserved": 0, "rental_uris": {"android": "https://dc.lft.to/lastmile_qr_scan", "ios": "https://dc.lft.to/lastmile_qr_scan"}, "fusion_lon": 0.0}, {"lat": 38.914042, "is_disabled": 0, "type": "electric_scooter", "lon": -77.0315745, "bike_id": "f55ded7f762d937f98d29bc6ad0f831c", "fusion_lat": 0.0, "name": "f55ded7f762d937f98d29bc6ad0f831c", "is_reserved": 0, "rental_uris": {"android": "https://dc.lft.to/lastmile_qr_scan", "ios": "https://dc.lft.to/lastmile_qr_scan"}, "fusion_lon": 0.0}, {"lat": 38.93015883333333, "is_disabled": 0, "type": "electric_scooter", "lon": -77.04451816666666, "bike_id": "345c2992b9c295a57f0f098e777136db", "fusion_lat": 0.0, "name": "345c2992b9c295a57f0f098e777136db", "is_reserved": 0, "rental_uris": {"android": "https://dc.lft.to/lastmile_qr_scan", "ios": "https://dc.lft.to/lastmile_qr_scan"}, "fusion_lon": 0.0}, {"lat": 38.896996, "is_disabled": 0, "type": "electric_scooter", "lon": -77.04889683333333, "bike_id": "e4cf1d46c023a55f4491688e482bf10c", "fusion_lat": 0.0, "name": "e4cf1d46c023a55f4491688e482bf10c", "is_reserved": 0, "rental_uris": {"android": "https://dc.lft.to/lastmile_qr_scan", "ios": "https://dc.lft.to/lastmile_qr_scan"}, "fusion_lon": 0.0}, {"lat": 38.94350016666667, "is_disabled": 0, "type": "electric_scooter", "lon": -77.0021715, "bike_id": "351caad1a2e08e5dc0992d4bebd06b34", "fusion_lat": 0.0, "name": "351caad1a2e08e5dc0992d4bebd06b34", "is_reserved": 0, "rental_uris": {"android": "https://dc.lft.to/lastmile_qr_scan", "ios": "https://dc.lft.to/lastmile_qr_scan"}, "fusion_lon": 0.0}, {"lat": 38.8954885, "is_disabled": 0, "type": "electric_scooter", "lon": -77.0093555, "bike_id": "d7841bcbe46a6ed007869596c1c10dcc", "fusion_lat": 0.0, "name": "d7841bcbe46a6ed007869596c1c10dcc", "is_reserved": 0, "rental_uris": {"android": "https://dc.lft.to/lastmile_qr_scan", "ios": "https://dc.lft.to/lastmile_qr_scan"}, "fusion_lon": 0.0}, {"lat": 38.915334, "is_disabled": 0, "type": "electric_scooter", "lon": -77.03197433333334, "bike_id": "9218d660028867bdd644c71a2ae5b23b", "fusion_lat": 0.0, "name": "9218d660028867bdd644c71a2ae5b23b", "is_reserved": 0, "rental_uris": {"android": "https://dc.lft.to/lastmile_qr_scan", "ios": "https://dc.lft.to/lastmile_qr_scan"}, "fusion_lon": 0.0}, {"lat": 38.911861333333334, "is_disabled": 0, "type": "electric_scooter", "lon": -77.01074983333334, "bike_id": "31cfb0e547061d464c124d59f5b234e3", "fusion_lat": 0.0, "name": "31cfb0e547061d464c124d59f5b234e3", "is_reserved": 0, "rental_uris": {"android": "https://dc.lft.to/lastmile_qr_scan", "ios": "https://dc.lft.to/lastmile_qr_scan"}, "fusion_lon": 0.0}, {"lat": 38.9356755, "is_disabled": 0, "type": "electric_scooter", "lon": -77.0326725, "bike_id": "659ab721f7150d1fca5947403b8dcd2f", "fusion_lat": 0.0, "name": "659ab721f7150d1fca5947403b8dcd2f", "is_reserved": 0, "rental_uris": {"android": "https://dc.lft.to/lastmile_qr_scan", "ios": "https://dc.lft.to/lastmile_qr_scan"}, "fusion_lon": 0.0}, {"lat": 38.93253833333333, "is_disabled": 0, "type": "electric_scooter", "lon": -77.03465166666666, "bike_id": "5190d92b9865bfc7ffe0934be7e194bf", "fusion_lat": 0.0, "name": "5190d92b9865bfc7ffe0934be7e194bf", "is_reserved": 0, "rental_uris": {"android": "https://dc.lft.to/lastmile_qr_scan", "ios": "https://dc.lft.to/lastmile_qr_scan"}, "fusion_lon": 0.0}, {"lat": 38.859255166666664, "is_disabled": 0, "type": "electric_scooter", "lon": -76.989801, "bike_id": "18dff2396860a0eb0965402107748669", "fusion_lat": 0.0, "name": "18dff2396860a0eb0965402107748669", "is_reserved": 0, "rental_uris": {"android": "https://dc.lft.to/lastmile_qr_scan", "ios": "https://dc.lft.to/lastmile_qr_scan"}, "fusion_lon": 0.0}, {"lat": 38.92397233333333, "is_disabled": 0, "type": "electric_scooter", "lon": -77.042714, "bike_id": "13c134eb916e1a72a535cffb561622a5", "fusion_lat": 0.0, "name": "13c134eb916e1a72a535cffb561622a5", "is_reserved": 0, "rental_uris": {"android": "https://dc.lft.to/lastmile_qr_scan", "ios": "https://dc.lft.to/lastmile_qr_scan"}, "fusion_lon": 0.0}, {"lat": 38.920539166666664, "is_disabled": 0, "type": "electric_scooter", "lon": -77.0319715, "bike_id": "a316f5bca4dcc6845d080a37cfa958d8", "fusion_lat": 0.0, "name": "a316f5bca4dcc6845d080a37cfa958d8", "is_reserved": 0, "rental_uris": {"android": "https://dc.lft.to/lastmile_qr_scan", "ios": "https://dc.lft.to/lastmile_qr_scan"}, "fusion_lon": 0.0}, {"lat": 38.930630666666666, "is_disabled": 0, "type": "electric_scooter", "lon": -77.04035516666667, "bike_id": "895609c92d86327fd4ae3ff5e2eedb2c", "fusion_lat": 0.0, "name": "895609c92d86327fd4ae3ff5e2eedb2c", "is_reserved": 0, "rental_uris": {"android": "https://dc.lft.to/lastmile_qr_scan", "ios": "https://dc.lft.to/lastmile_qr_scan"}, "fusion_lon": 0.0}, {"lat": 38.90565933333333, "is_disabled": 0, "type": "electric_scooter", "lon": -77.037882, "bike_id": "79b87c343eaa0b505f1620568e506846", "fusion_lat": 0.0, "name": "79b87c343eaa0b505f1620568e506846", "is_reserved": 0, "rental_uris": {"android": "https://dc.lft.to/lastmile_qr_scan", "ios": "https://dc.lft.to/lastmile_qr_scan"}, "fusion_lon": 0.0}, {"lat": 38.92250333333333, "is_disabled": 0, "type": "electric_scooter", "lon": -77.03387183333334, "bike_id": "0ceef6635803ae3b32487936a93bf401", "fusion_lat": 0.0, "name": "0ceef6635803ae3b32487936a93bf401", "is_reserved": 0, "rental_uris": {"android": "https://dc.lft.to/lastmile_qr_scan", "ios": "https://dc.lft.to/lastmile_qr_scan"}, "fusion_lon": 0.0},