{"data": {"bikes": [{"lat": 38.914784, "fusion_lon": 0.0, "lon": -77.02173333333333, "is_disabled": 0, "type": "electric_scooter", "name": "62127a1f8ddde486e30e4fc4db2a3de0", "fusion_lat": 0.0, "rental_uris": {"android": "https://dc.lft.to/lastmile_qr_scan", "ios": "https://dc.lft.to/lastmile_qr_scan"}, "bike_id": "62127a1f8ddde486e30e4fc4db2a3de0", "is_reserved": 0}, {"lat": 38.91564316666667, "fusion_lon": 0.0, "lon": -77.03943833333334, "is_disabled": 0, "type": "electric_scooter", "name": "ad99b1eeb7551b4f3f21b37a4ecd7334", "fusion_lat": 0.0, "rental_uris": {"android": "https://dc.lft.to/lastmile_qr_scan", "ios": "https://dc.lft.to/lastmile_qr_scan"}, "bike_id": "ad99b1eeb7551b4f3f21b37a4ecd7334", "is_reserved": 0}, {"lat": 38.8949345, "fusion_lon": 0.0, "lon": -77.02327133333333, "is_disabled": 0, "type": "electric_scooter", "name": "350d6842070460042b1675e83401492c", "fusion_lat": 0.0, "rental_uris": {"android": "https://dc.lft.to/lastmile_qr_scan", "ios": "https://dc.lft.to/lastmile_qr_scan"}, "bike_id": "350d6842070460042b1675e83401492c", "is_reserved": 0}, {"lat": 38.887310666666664, "fusion_lon": 0.0, "lon": -77.0259045, "is_disabled": 0, "type": "electric_scooter", "name": "fd43ce393d0fd26787db087af699d349", "fusion_lat": 0.0, "rental_uris": {"android": "https://dc.lft.to/lastmile_qr_scan", "ios": "https://dc.lft.to/lastmile_qr_scan"}, "bike_id": "fd43ce393d0fd26787db087af699d349", "is_reserved": 0}, {"lat": 38.95194633333333, "fusion_lon": 0.0, "lon": -77.02741416666667, "is_disabled": 0, "type": "electric_scooter", "name": "ed3084f0c64353352cb0e0f3a75817ae", "fusion_lat": 0.0, "rental_uris": {"android": "https://dc.lft.to/lastmile_qr_scan", "ios": "https://dc.lft.to/lastmile_qr_scan"}, "bike_id": "ed3084f0c64353352cb0e0f3a75817ae", "is_reserved": 0}, {"lat": 38.924835, "fusion_lon": 0.0, "lon": -77.021323, "is_disabled": 0, "type": "electric_scooter", "name": "98341c5c3efba01dd4390de7d877bc1d", "fusion_lat": 0.0, "rental_uris": {"android": "https://dc.lft.to/lastmile_qr_scan", "ios": "https://dc.lft.to/lastmile_qr_scan"}, "bike_id": "98341c5c3efba01dd4390de7d877bc1d", "is_reserved": 0}, {"lat": 38.89222683333333, "fusion_lon": 0.0, "lon": -77.03150933333333, "is_disabled": 0, "type": "electric_scooter", "name": "130c27ef777926717354d6162e143dcf", "fusion_lat": 0.0, "rental_uris": {"android": "https://dc.lft.to/lastmile_qr_scan", "ios": "https://dc.lft.to/lastmile_qr_scan"}, "bike_id": "130c27ef777926717354d6162e143dcf", "is_reserved": 0}, {"lat": 38.86411833333333, "fusion_lon": 0.0, "lon": -76.99124116666667, "is_disabled": 0, "type": "electric_scooter", "name": "6108c4ffda2ac0748915e7d3abdc6ec0", "fusion_lat": 0.0, "rental_uris": {"android": "https://dc.lft.to/lastmile_qr_scan", "ios": "https://dc.lft.to/lastmile_qr_scan"}, "bike_id": "6108c4ffda2ac0748915e7d3abdc6ec0", "is_reserved": 0}, {"lat": 38.912824666666666, "fusion_lon": 0.0, "lon": -77.032138, "is_disabled": 0, "type": "electric_scooter", "name": "8a9829704ced819d6921c2b0dbf64f8f", "fusion_lat": 0.0, "rental_uris": {"android": "https://dc.lft.to/lastmile_qr_scan", "ios": "https://dc.lft.to/lastmile_qr_scan"}, "bike_id": "8a9829704ced819d6921c2b0dbf64f8f", "is_reserved": 0}, {"lat": 38.9554285, "fusion_lon": 0.0, "lon": -77.06912783333334, "is_disabled": 0, "type": "electric_bike", "name": "957109de4befb2e2eed65571ff76d362", "fusion_lat": 0.0, "rental_uris": {"android": "https://dc.lft.to/lastmile_qr_scan", "ios": "https://dc.lft.to/lastmile_qr_scan"}, "bike_id": "957109de4befb2e2eed65571ff76d362", "is_reserved": 0}, {"lat": 38.937704833333335, "fusion_lon": 0.0, "lon": -77.032625, "is_disabled": 0, "type": "electric_scooter", "name": "ee3d05219c230c970fbcb6c240659d00", "fusion_lat": 0.0, "rental_uris": {"android": "https://dc.lft.to/lastmile_qr_scan", "ios": "https://dc.lft.to/lastmile_qr_scan"}, "bike_id": "ee3d05219c230c970fbcb6c240659d00", "is_reserved": 0}, {"lat": 38.918374666666665, "fusion_lon": 0.0, "lon": -77.05950983333334, "is_disabled": 0, "type": "electric_scooter", "name": "1d6fd1fbb58a41ae4ebea458aeca5943", "fusion_lat": 0.0, "rental_uris": {"android": "https://dc.lft.to/lastmile_qr_scan", "ios": "https://dc.lft.to/lastmile_qr_scan"}, "bike_id": "1d6fd1fbb58a41ae4ebea458aeca5943", "is_reserved": 0}, {"lat": 38.88960683333333, "fusion_lon": 0.0, "lon": -76.93707966666666, "is_disabled": 0, "type": "electric_scooter", "name": "e8e6e81c0e56d2f4ed27e75d4204fadf", "fusion_lat": 0.0, "rental_uris": {"android": "https://dc.lft.to/lastmile_qr_scan", "ios": "https://dc.lft.to/lastmile_qr_scan"}, "bike_id": "e8e6e81c0e56d2f4ed27e75d4204fadf", "is_reserved": 0}, {"lat": 38.917145, "fusion_lon": 0.0, "lon": -77.0366895, "is_disabled": 0, "type": "electric_scooter", "name": "c3e69f68f3b6407bd33d6797113a65f4", "fusion_lat": 0.0, "rental_uris": {"android": "https://dc.lft.to/lastmile_qr_scan", "ios": "https://dc.lft.to/lastmile_qr_scan"}, "bike_id": "c3e69f68f3b6407bd33d6797113a65f4", "is_reserved": 0}, {"lat": 38.927689666666666, "fusion_lon": 0.0, "lon": -77.02062, "is_disabled": 0, "type": "electric_scooter", "name": "2900cd3021db8038634c144db97caeab", "fusion_lat": 0.0, "rental_uris": {"android": "https://dc.lft.to/lastmile_qr_scan", "ios": "https://dc.lft.to/lastmile_qr_scan"}, "bike_id": "2900cd3021db8038634c144db97caeab", "is_reserved": 0}, {"lat": 38.90383083333333, "fusion_lon": 0.0, "lon": -77.03486816666667, "is_disabled": 0, "type": "electric_scooter", "name": "b75fc2bd4702e368ca52e70352b84343", "fusion_lat": 0.0, "rental_uris": {"android": "https://dc.lft.to/lastmile_qr_scan", "ios": "https://dc.lft.to/lastmile_qr_scan"}, "bike_id": "b75fc2bd4702e368ca52e70352b84343", "is_reserved": 0}, {"lat": 38.917461833333334, "fusion_lon": 0.0, "lon": -77.0318215, "is_disabled": 0, "type": "electric_scooter", "name": "c481f8dedc2d03afeb3d729f3f30bbf9", "fusion_lat": 0.0, "rental_uris": {"android": "https://dc.lft.to/lastmile_qr_scan", "ios": "https://dc.lft.to/lastmile_qr_scan"}, "bike_id": "c481f8dedc2d03afeb3d729f3f30bbf9", "is_reserved": 0}, {"lat": 38.93164016666667, "fusion_lon": 0.0, "lon": -77.034233, "is_disabled": 0, "type": "electric_scooter", "name": "d99e65e86f3fe389f28bda62be5caff7", "fusion_lat": 0.0, "rental_uris": {"android": "https://dc.lft.to/lastmile_qr_scan", "ios": "https://dc.lft.to/lastmile_qr_scan"}, "bike_id": "d99e65e86f3fe389f28bda62be5caff7", "is_reserved": 0}, {"lat": 38.912565666666666, "fusion_lon": 0.0, "lon": -77.03830533333333, "is_disabled": 0, "type": "electric_scooter", "name": "0dd62d4cf818b71426525225517ec963", "fusion_lat": 0.0, "rental_uris": {"android": "https://dc.lft.to/lastmile_qr_scan", "ios": "https://dc.lft.to/lastmile_qr_scan"}, "bike_id": "0dd62d4cf818b71426525225517ec963", "is_reserved": 0}, {"lat": 38.90596766666667, "fusion_lon": 0.0, "lon": -77.04020833333334, "is_disabled": 0, "type": "electric_scooter", "name": "86ee6b0f0a6613780079bb45bbef07ac", "fusion_lat": 0.0, "rental_uris": {"android": "https://dc.lft.to/lastmile_qr_scan", "ios": "https://dc.lft.to/lastmile_qr_scan"}, "bike_id": "86ee6b0f0a6613780079bb45bbef07ac", "is_reserved": 0}, {"lat": 38.92326633333333, "fusion_lon": 0.0, "lon": -77.0198675, "is_disabled": 0, "type": "electric_scooter", "name": "3ed41abccdee8debbb1ab0e2968722ed", "fusion_lat": 0.0, "rental_uris": {"android": "https://dc.lft.to/lastmile_qr_scan", "ios": "https://dc.lft.to/lastmile_qr_scan"}, "bike_id": "3ed41abccdee8debbb1ab0e2968722ed", "is_reserved": 0}, {"lat": 38.90929, "fusion_lon": 0.0, "lon": -77.04175116666667, "is_disabled": 0, "type": "electric_scooter", "name": "9177f8a95a83adf7b65d6884b8c43cb9", "fusion_lat": 0.0, "rental_uris": {"android": "https://dc.lft.to/lastmile_qr_scan", "ios": "https://dc.lft.to/lastmile_qr_scan"}, "bike_id": "9177f8a95a83adf7b65d6884b8c43cb9", "is_reserved": 0}, {"lat": 38.98877683333333, "fusion_lon": 0.0, "lon": -77.09573383333333, "is_disabled": 0, "type": "electric_bike", "name": "51a6f70fdbc84e45ad3aa96a23081d62", "fusion_lat": 0.0, "rental_uris": {"android": "https://dc.lft.to/lastmile_qr_scan", "ios": "https://dc.lft.to/lastmile_qr_scan"}, "bike_id": "51a6f70fdbc84e45ad3aa96a23081d62", "is_reserved": 0}, {"lat": 38.90729566666667, "fusion_lon": 0.0, "lon": -77.04568216666667, "is_disabled": 0, "type": "electric_scooter", "name": "ef497941af1dc81cafec825e5cb131bf", "fusion_lat": 0.0, "rental_uris": {"android": "https://dc.lft.to/lastmile_qr_scan", "ios": "https://dc.lft.to/lastmile_qr_scan"}, "bike_id": "ef497941af1dc81cafec825e5cb131bf", "is_reserved": 0}, {"lat": 38.9153815, "fusion_lon": 0.0, "lon": -77.01219716666667, "is_disabled": 0, "type": "electric_scooter", "name": "348f4c0af139ea993cf969d50c167ab5", "fusion_lat": 0.0, "rental_uris": {"android": "https://dc.lft.to/lastmile_qr_scan", "ios": "https://dc.lft.to/lastmile_qr_scan"}, "bike_id": "348f4c0af139ea993cf969d50c167ab5", "is_reserved": 0}, {"lat": 38.90235, "fusion_lon": 0.0, "lon": -77.01513283333334, "is_disabled": 0, "type": "electric_scooter", "name": "d3c5f2306e8fb61ab1013fee73e6a817", "fusion_lat": 0.0, "rental_uris": {"android": "https://dc.lft.to/lastmile_qr_scan", "ios": "https://dc.lft.to/lastmile_qr_scan"}, "bike_id": "d3c5f2306e8fb61ab1013fee73e6a817", "is_reserved": 0}, {"lat": 38.86256866666667, "fusion_lon": 0.0, "lon": -76.99608566666667, "is_disabled": 0, "type": "electric_scooter", "name": "40f0578eec9564fa6ce7d3e42f33aacc", "fusion_lat": 0.0, "rental_uris": {"android": "https://dc.lft.to/lastmile_qr_scan", "ios": "https://dc.lft.to/lastmile_qr_scan"}, "bike_id": "40f0578eec9564fa6ce7d3e42f33aacc", "is_reserved": 0}, {"lat": 38.902008, "fusion_lon": 0.0, "lon": -77.02329166666667, "is_disabled": 0, "type": "electric_scooter", "name": "7966e345c37603ce05d106acd1e71c14", "fusion_lat": 0.0, "rental_uris": {"android": "https://dc.lft.to/lastmile_qr_scan", "ios": "https://dc.lft.to/lastmile_qr_scan"}, "bike_id": "7966e345c37603ce05d106acd1e71c14", "is_reserved": 0}, {"lat": 38.894671, "fusion_lon": 0.0, "lon": -77.01729466666667, "is_disabled": 0, "type": "electric_scooter", "name": "16b91ab5c370b6e044baeb5c2ffecbf7", "fusion_lat": 0.0, "rental_uris": {"android": "https://dc.lft.to/lastmile_qr_scan", "ios": "https://dc.lft.to/lastmile_qr_scan"}, "bike_id": "16b91ab5c370b6e044baeb5c2ffecbf7", "is_reserved": 0}, {"lat": 38.9086095, "fusion_lon": 0.0, "lon": -77.07098133333334, "is_disabled": 0, "type": "electric_scooter", "name": "5a312fd50bbaf4ddf74a29f849c17d9c", "fusion_lat": 0.0, "rental_uris": {"android": "https://dc.lft.to/lastmile_qr_scan", "ios": "https://dc.lft.to/lastmile_qr_scan"}, "bike_id": "5a312fd50bbaf4ddf74a29f849c17d9c", "is_reserved": 0}, {"lat": 38.92867, "fusion_lon": 0.0, "lon": -77.01356933333334, "is_disabled": 0, "type": "electric_scooter", "name": "66d78b19adb4a4cf9ba27f37dcfa88d5", "fusion_lat": 0.0, "rental_uris": {"android": "https://dc.lft.to/lastmile_qr_scan", "ios": "https://dc.lft.to/lastmile_qr_scan"}, "bike_id": "66d78b19adb4a4cf9ba27f37dcfa88d5", "is_reserved": 0}, {"lat": 38.92323483333333, "fusion_lon": 0.0, "lon": -77.01968766666667, "is_disabled": 0, "type": "electric_scooter", "name": "2e8fac4743a3cfb9084700709e5f4631", "fusion_lat": 0.0, "rental_uris": {"android": "https://dc.lft.to/lastmile_qr_scan", "ios": "https://dc.lft.to/lastmile_qr_scan"}, "bike_id": "2e8fac4743a3cfb9084700709e5f4631", "is_reserved": 0}, {"lat": 38.921105, "fusion_lon": 0.0, "lon": -77.04209266666666, "is_disabled": 0, "type": "electric_scooter", "name": "189c14fc3cfb2d172034ae4138b8b939", "fusion_lat": 0.0, "rental_uris": {"android": "https://dc.lft.to/lastmile_qr_scan", "ios": "https://dc.lft.to/lastmile_qr_scan"}, "bike_id": "189c14fc3cfb2d172034ae4138b8b939", "is_reserved": 0}, {"lat": 38.88058, "fusion_lon": 0.0, "lon": -76.93211766666667, "is_disabled": 0, "type": "electric_scooter", "name": "75c13487b3e4e72319d42f0ba39156c4", "fusion_lat": 0.0, "rental_uris": {"android": "https://dc.lft.to/lastmile_qr_scan", "ios": "https://dc.lft.to/lastmile_qr_scan"}, "bike_id": "75c13487b3e4e72319d42f0ba39156c4", "is_reserved": 0}, {"lat": 38.9267795, "fusion_lon": 0.0, "lon": -77.02865816666667, "is_disabled": 0, "type": "electric_scooter", "name": "61f5d7bc359dc1384a72bbb501eb8d35", "fusion_lat": 0.0, "rental_uris": {"android": "https://dc.lft.to/lastmile_qr_scan", "ios": "https://dc.lft.to/lastmile_qr_scan"}, "bike_id": "61f5d7bc359dc1384a72bbb501eb8d35", "is_reserved": 0}, {"lat": 38.923691833333336, "fusion_lon": 0.0, "lon": -77.0309265, "is_disabled": 0, "type": "electric_scooter", "name": "aa6d77ec9f3a1e8a2d874303ea0ffd4e", "fusion_lat": 0.0, "rental_uris": {"android": "https://dc.lft.to/lastmile_qr_scan", "ios": "https://dc.lft.to/lastmile_qr_scan"}, "bike_id": "aa6d77ec9f3a1e8a2d874303ea0ffd4e", "is_reserved": 0}, {"lat": 38.89225616666667, "fusion_lon": 0.0, "lon": -77.02379733333333, "is_disabled": 0, "type": "electric_scooter", "name": "ae9f1586e8bb33a5a6805690afb7491b", "fusion_lat": 0.0, "rental_uris": {"android": "https://dc.lft.to/lastmile_qr_scan", "ios": "https://dc.lft.to/lastmile_qr_scan"}, "bike_id": "ae9f1586e8bb33a5a6805690afb7491b", "is_reserved": 0}, {"lat": 38.898839, "fusion_lon": 0.0, "lon": -77.0530195, "is_disabled": 0, "type": "electric_scooter", "name": "12d7936d715ae7c4e3e4fbe414e16332", "fusion_lat": 0.0, "rental_uris": {"android": "https://dc.lft.to/lastmile_qr_scan", "ios": "https://dc.lft.to/lastmile_qr_scan"}, "bike_id": "12d7936d715ae7c4e3e4fbe414e16332", "is_reserved": 0}, {"lat": 38.892228, "fusion_lon": 0.0, "lon": -77.04341316666667, "is_disabled": 0, "type": "electric_scooter", "name": "a637c1041fdda350f4a70efa553a80af", "fusion_lat": 0.0, "rental_uris": {"android": "https://dc.lft.to/lastmile_qr_scan", "ios": "https://dc.lft.to/lastmile_qr_scan"}, "bike_id": "a637c1041fdda350f4a70efa553a80af", "is_reserved": 0}, {"lat": 38.909823, "fusion_lon": 0.0, "lon": -77.04261016666666, "is_disabled": 0, "type": "electric_scooter", "name": "fa08f54b4d15a899f4f3058d31699760", "fusion_lat": 0.0, "rental_uris": {"android": "https://dc.lft.to/lastmile_qr_scan", "ios": "https://dc.lft.to/lastmile_qr_scan"}, "bike_id": "fa08f54b4d15a899f4f3058d31699760", "is_reserved": 0}, {"lat": 38.919686, "fusion_lon": 0.0, "lon": -77.06401516666666, "is_disabled": 0, "type": "electric_scooter", "name": "2c74ee69e77427bfaf1864f05f6cda48", "fusion_lat": 0.0, "rental_uris": {"android": "https://dc.lft.to/lastmile_qr_scan", "ios": "https://dc.lft.to/lastmile_qr_scan"}, "bike_id": "2c74ee69e77427bfaf1864f05f6cda48", "is_reserved": 0}, {"lat": 38.91485933333333, "fusion_lon": 0.0, "lon": -77.0258335, "is_disabled": 0, "type": "electric_scooter", "name": "41e5a27025c70673851c20f517350287", "fusion_lat": 0.0, "rental_uris": {"android": "https://dc.lft.to/lastmile_qr_scan", "ios": "https://dc.lft.to/lastmile_qr_scan"}, "bike_id": "41e5a27025c70673851c20f517350287", "is_reserved": 0}, {"lat": 38.908036333333335, "fusion_lon": 0.0, "lon": -76.98738833333333, "is_disabled": 0, "type": "electric_scooter", "name": "772952eaecb0ea7075008d126cd5a1dc", "fusion_lat": 0.0, "rental_uris": {"android": "https://dc.lft.to/lastmile_qr_scan", "ios": "https://dc.lft.to/lastmile_qr_scan"}, "bike_id": "772952eaecb0ea7075008d126cd5a1dc", "is_reserved": 0}, {"lat": 38.928391, "fusion_lon": 0.0, "lon": -77.01412966666666, "is_disabled": 0, "type": "electric_scooter", "name": "5f70237a38fc5d73e6d0456e3ac7370b", "fusion_lat": 0.0, "rental_uris": {"android": "https://dc.lft.to/lastmile_qr_scan", "ios": "https://dc.lft.to/lastmile_qr_scan"}, "bike_id": "5f70237a38fc5d73e6d0456e3ac7370b", "is_reserved": 0}, {"lat": 38.87669266666666, "fusion_lon": 0.0, "lon": -76.9945025, "is_disabled": 0, "type": "electric_scooter", "name": "bafe34f20b9222900badb3da65a2991c", "fusion_lat": 0.0, "rental_uris": {"android": "https://dc.lft.to/lastmile_qr_scan", "ios": "https://dc.lft.to/lastmile_qr_scan"}, "bike_id": "bafe34f20b9222900badb3da65a2991c", "is_reserved": 0}, {"lat": 38.90725583333333, "fusion_lon": 0.0, "lon": -76.93228166666667, "is_disabled": 0, "type": "electric_scooter", "name": "1d2da3a77abfcf532de82e4408ae0546", "fusion_lat": 0.0, "rental_uris": {"android": "https://dc.lft.to/lastmile_qr_scan", "ios": "https://dc.lft.to/lastmile_qr_scan"}, "bike_id": "1d2da3a77abfcf532de82e4408ae0546", "is_reserved": 0}, {"lat": 38.90338916666666, "fusion_lon": 0.0, "lon": -77.04646966666667, "is_disabled": 0, "type": "electric_scooter", "name": "6ea3fd5b2df29bd2fda9743ffca89274", "fusion_lat": 0.0, "rental_uris": {"android": "https://dc.lft.to/lastmile_qr_scan", "ios": "https://dc.lft.to/lastmile_qr_scan"}, "bike_id": "6ea3fd5b2df29bd2fda9743ffca89274", "is_reserved": 0}, {"lat": 38.9739455, "fusion_lon": 0.0, "lon": -77.06457016666667, "is_disabled": 0, "type": "electric_bike", "name": "7e71706826e31f5f7f544d274a89bf20", "fusion_lat": 0.0, "rental_uris": {"android": "https://dc.lft.to/lastmile_qr_scan", "ios": "https://dc.lft.to/lastmile_qr_scan"}, "bike_id": "7e71706826e31f5f7f544d274a89bf20", "is_reserved": 0}, {"lat": 38.91552016666667, "fusion_lon": 0.0, "lon": -77.05323866666667, "is_disabled": 0, "type": "electric_scooter", "name": "6882a576a0c95e6638e856bcc3ff966a", "fusion_lat": 0.0, "rental_uris": {"android": "https://dc.lft.to/lastmile_qr_scan", "ios": "https://dc.lft.to/lastmile_qr_scan"}, "bike_id": "6882a576a0c95e6638e856bcc3ff966a", "is_reserved": 0}, {"lat": 38.9142455, "fusion_lon": 0.0, "lon": -77.02809933333333, "is_disabled": 0, "type": "electric_scooter", "name": "0d5c99e590420df2655273d46667f71a", "fusion_lat": 0.0, "rental_uris": {"android": "https://dc.lft.to/lastmile_qr_scan", "ios": "https://dc.lft.to/lastmile_qr_scan"}, "bike_id": "0d5c99e590420df2655273d46667f71a", "is_reserved": 0}, {"lat": 38.921720666666666, "fusion_lon": 0.0, "lon": -77.04230066666666, "is_disabled": 0, "type": "electric_scooter", "name": "8134a019edc8ded2046a423cdecc138f", "fusion_lat": 0.0, "rental_uris": {"android": "https://dc.lft.to/lastmile_qr_scan", "ios": "https://dc.lft.to/lastmile_qr_scan"}, "bike_id": "8134a019edc8ded2046a423cdecc138f", "is_reserved": 0}, {"lat": 38.92884933333333, "fusion_lon": 0.0, "lon": -77.01419216666666, "is_disabled": 0, "type": "electric_scooter", "name": "d1ea61e7fcb41f6b8df3e6714c880b5f", "fusion_lat": 0.0, "rental_uris": {"android": "https://dc.lft.to/lastmile_qr_scan", "ios": "https://dc.lft.to/lastmile_qr_scan"}, "bike_id": "d1ea61e7fcb41f6b8df3e6714c880b5f", "is_reserved": 0}, {"lat": 38.899967333333336, "fusion_lon": 0.0, "lon": -77.03343516666666, "is_disabled": 0, "type": "electric_scooter", "name": "91fea973d516bab39150371311543e4c", "fusion_lat": 0.0, "rental_uris": {"android": "https://dc.lft.to/lastmile_qr_scan", "ios": "https://dc.lft.to/lastmile_qr_scan"}, "bike_id": "91fea973d516bab39150371311543e4c", "is_reserved": 0}, {"lat": 38.90083716666667, "fusion_lon": 0.0, "lon": -77.01298266666667, "is_disabled": 0, "type": "electric_scooter", "name": "0d0177883cd899032d50a09bab2fec9f", "fusion_lat": 0.0, "rental_uris": {"android": "https://dc.lft.to/lastmile_qr_scan", "ios": "https://dc.lft.to/lastmile_qr_scan"}, "bike_id": "0d0177883cd899032d50a09bab2fec9f", "is_reserved": 0}, {"lat": 38.91081883333333, "fusion_lon": 0.0, "lon": -77.0654675, "is_disabled": 0, "type": "electric_scooter", "name": "92946de6e97b1c67421eb9240abf3d4a", "fusion_lat": 0.0, "rental_uris": {"android": "https://dc.lft.to/lastmile_qr_scan", "ios": "https://dc.lft.to/lastmile_qr_scan"}, "bike_id": "92946de6e97b1c67421eb9240abf3d4a", "is_reserved": 0}, {"lat": 38.8669635, "fusion_lon": 0.0, "lon": -76.98594483333333, "is_disabled": 0, "type": "electric_scooter", "name": "242584c99919709aea04f76b405ac122", "fusion_lat": 0.0, "rental_uris": {"android": "https://dc.lft.to/lastmile_qr_scan", "ios": "https://dc.lft.to/lastmile_qr_scan"}, "bike_id": "242584c99919709aea04f76b405ac122", "is_reserved": 0}, {"lat": 38.89534, "fusion_lon": 0.0, "lon": -77.03268133333333, "is_disabled": 0, "type": "electric_scooter", "name": "31bfad6c204c18ccbd996104010efab0", "fusion_lat": 0.0, "rental_uris": {"android": "https://dc.lft.to/lastmile_qr_scan", "ios": "https://dc.lft.to/lastmile_qr_scan"}, "bike_id": "31bfad6c204c18ccbd996104010efab0", "is_reserved": 0}, {"lat": 38.905000666666666, "fusion_lon": 0.0, "lon": -77.0347395, "is_disabled": 0, "type": "electric_scooter", "name": "63deb15719aa44ba2a93f797cee9fa51", "fusion_lat": 0.0, "rental_uris": {"android": "https://dc.lft.to/lastmile_qr_scan", "ios": "https://dc.lft.to/lastmile_qr_scan"}, "bike_id": "63deb15719aa44ba2a93f797cee9fa51", "is_reserved": 0}, {"lat": 38.887261, "fusion_lon": 0.0, "lon": -77.02832166666667, "is_disabled": 0, "type": "electric_scooter", "name": "a5f7be8cdda64be9248f818d2e5f27bf", "fusion_lat": 0.0, "rental_uris": {"android": "https://dc.lft.to/lastmile_qr_scan", "ios": "https://dc.lft.to/lastmile_qr_scan"}, "bike_id": "a5f7be8cdda64be9248f818d2e5f27bf", "is_reserved": 0}, {"lat": 38.881784833333334, "fusion_lon": 0.0, "lon": -77.035787, "is_disabled": 0, "type": "electric_scooter", "name": "ef1122b8048b979703023da4c156fa78", "fusion_lat": 0.0, "rental_uris": {"android": "https://dc.lft.to/lastmile_qr_scan", "ios": "https://dc.lft.to/lastmile_qr_scan"}, "bike_id": "ef1122b8048b979703023da4c156fa78", "is_reserved": 0}, {"lat": 38.876577166666664, "fusion_lon": 0.0, "lon": -77.00876183333334, "is_disabled": 0, "type": "electric_scooter", "name": "27c18965205e2e38bcf823507a53433c", "fusion_lat": 0.0, "rental_uris": {"android": "https://dc.lft.to/lastmile_qr_scan", "ios": "https://dc.lft.to/lastmile_qr_scan"}, "bike_id": "27c18965205e2e38bcf823507a53433c", "is_reserved": 0}, {"lat": 38.80752666666667, "fusion_lon": 0.0, "lon": -77.09459166666667, "is_disabled": 0, "type": "electric_bike", "name": "bfa55d321034441ce13df534a9dada86", "fusion_lat": 0.0, "rental_uris": {"android": "https://dc.lft.to/lastmile_qr_scan", "ios": "https://dc.lft.to/lastmile_qr_scan"}, "bike_id": "bfa55d321034441ce13df534a9dada86", "is_reserved": 0}, {"lat": 38.89223333333333, "fusion_lon": 0.0, "lon": -77.0201585, "is_disabled": 0, "type": "electric_scooter", "name": "c18d6ea041fd3ec204af12d8d7540866", "fusion_lat": 0.0, "rental_uris": {"android": "https://dc.lft.to/lastmile_qr_scan", "ios": "https://dc.lft.to/lastmile_qr_scan"}, "bike_id": "c18d6ea041fd3ec204af12d8d7540866", "is_reserved": 0}, {"lat": 38.905216333333335, "fusion_lon": 0.0, "lon": -77.05006616666667, "is_disabled": 0, "type": "electric_scooter", "name": "bc44b777fee8e1e2eefc7c793773742e", "fusion_lat": 0.0, "rental_uris": {"android": "https://dc.lft.to/lastmile_qr_scan", "ios": "https://dc.lft.to/lastmile_qr_scan"}, "bike_id": "bc44b777fee8e1e2eefc7c793773742e", "is_reserved": 0}, {"lat": 38.9114465, "fusion_lon": 0.0, "lon": -77.00492466666667, "is_disabled": 0, "type": "electric_scooter", "name": "f09f546c0ab01d933acb2ce987d5216e", "fusion_lat": 0.0, "rental_uris": {"android": "https://dc.lft.to/lastmile_qr_scan", "ios": "https://dc.lft.to/lastmile_qr_scan"}, "bike_id": "f09f546c0ab01d933acb2ce987d5216e", "is_reserved": 0}, {"lat": 38.8532055, "fusion_lon": 0.0, "lon": -76.980181, "is_disabled": 0, "type": "electric_bike", "name": "7a577a0ab9a5408f8f4849869a368078", "fusion_lat": 0.0, "rental_uris": {"android": "https://dc.lft.to/lastmile_qr_scan", "ios": "https://dc.lft.to/lastmile_qr_scan"}, "bike_id": "7a577a0ab9a5408f8f4849869a368078", "is_reserved": 0}, {"lat": 38.886155, "fusion_lon": 0.0, "lon": -76.95577066666667, "is_disabled": 0, "type": "electric_scooter", "name": "0aad6008fe9505e2738f56b54e8fa7aa", "fusion_lat": 0.0, "rental_uris": {"android": "https://dc.lft.to/lastmile_qr_scan", "ios": "https://dc.lft.to/lastmile_qr_scan"}, "bike_id": "0aad6008fe9505e2738f56b54e8fa7aa", "is_reserved": 0}, {"lat": 38.94306783333333, "fusion_lon": 0.0, "lon": -77.05935233333334, "is_disabled": 0, "type": "electric_scooter", "name": "f99c45223b24399e621047960cfc9a8e", "fusion_lat": 0.0, "rental_uris": {"android": "https://dc.lft.to/lastmile_qr_scan", "ios": "https://dc.lft.to/lastmile_qr_scan"}, "bike_id": "f99c45223b24399e621047960cfc9a8e", "is_reserved": 0}, {"lat": 38.8830875, "fusion_lon": 0.0, "lon": -77.01684316666666, "is_disabled": 0, "type": "electric_scooter", "name": "b3580f856ebea6e58dc1f6f327c53cd7", "fusion_lat": 0.0, "rental_uris": {"android": "https://dc.lft.to/lastmile_qr_scan", "ios": "https://dc.lft.to/lastmile_qr_scan"}, "bike_id": "b3580f856ebea6e58dc1f6f327c53cd7", "is_reserved": 0}, {"lat": 38.8719715, "fusion_lon": 0.0, "lon": -77.00570616666667, "is_disabled": 0, "type": "electric_scooter", "name": "0b5db9c5339f1ec2e507c8574390413b", "fusion_lat": 0.0, "rental_uris": {"android": "https://dc.lft.to/lastmile_qr_scan", "ios": "https://dc.lft.to/lastmile_qr_scan"}, "bike_id": "0b5db9c5339f1ec2e507c8574390413b", "is_reserved": 0}, {"lat": 38.918221, "fusion_lon": 0.0, "lon": -77.0315345, "is_disabled": 0, "type": "electric_scooter", "name": "51971569ca65508ba0438b03a29d39a6", "fusion_lat": 0.0, "rental_uris": {"android": "https://dc.lft.to/lastmile_qr_scan", "ios": "https://dc.lft.to/lastmile_qr_scan"}, "bike_id": "51971569ca65508ba0438b03a29d39a6", "is_reserved": 0}, {"lat": 38.901487833333334, "fusion_lon": 0.0, "lon": -77.03209483333333, "is_disabled": 0, "type": "electric_scooter", "name": "df57be43f2bc051e689f9a1acac32cb1", "fusion_lat": 0.0, "rental_uris": {"android": "https://dc.lft.to/lastmile_qr_scan", "ios": "https://dc.lft.to/lastmile_qr_scan"}, "bike_id": "df57be43f2bc051e689f9a1acac32cb1", "is_reserved": 0}, {"lat": 38.9115435, "fusion_lon": 0.0, "lon": -77.07269966666667, "is_disabled": 0, "type": "electric_scooter", "name": "addd8673897b36582023ce8283b8ee29", "fusion_lat": 0.0, "rental_uris": {"android": "https://dc.lft.to/lastmile_qr_scan", "ios": "https://dc.lft.to/lastmile_qr_scan"}, "bike_id": "addd8673897b36582023ce8283b8ee29", "is_reserved": 0}, {"lat": 38.909232333333335, "fusion_lon": 0.0, "lon": -77.03121166666666, "is_disabled": 0, "type": "electric_scooter", "name": "6aa0d516be96ce8d089c14246a4d01a2", "fusion_lat": 0.0, "rental_uris": {"android": "https://dc.lft.to/lastmile_qr_scan", "ios": "https://dc.lft.to/lastmile_qr_scan"}, "bike_id": "6aa0d516be96ce8d089c14246a4d01a2", "is_reserved": 0}, {"lat": 38.924397166666665, "fusion_lon": 0.0, "lon": -77.02136533333334, "is_disabled": 0, "type": "electric_scooter", "name": "717146a745484cca4cc79631e339e126", "fusion_lat": 0.0, "rental_uris": {"android": "https://dc.lft.to/lastmile_qr_scan", "ios": "https://dc.lft.to/lastmile_qr_scan"}, "bike_id": "717146a745484cca4cc79631e339e126", "is_reserved": 0}, {"lat": 38.905221833333336, "fusion_lon": 0.0, "lon": -77.04997866666666, "is_disabled": 0, "type": "electric_scooter", "name": "1a7f1ff169d10b741b7bc81f5c7982e9", "fusion_lat": 0.0, "rental_uris": {"android": "https://dc.lft.to/lastmile_qr_scan", "ios": "https://dc.lft.to/lastmile_qr_scan"}, "bike_id": "1a7f1ff169d10b741b7bc81f5c7982e9", "is_reserved": 0}, {"lat": 38.893147666666664, "fusion_lon": 0.0, "lon": -77.0499785, "is_disabled": 0, "type": "electric_scooter", "name": "99a983a85274be47bba01708c6ffd615", "fusion_lat": 0.0, "rental_uris": {"android": "https://dc.lft.to/lastmile_qr_scan", "ios": "https://dc.lft.to/lastmile_qr_scan"}, "bike_id": "99a983a85274be47bba01708c6ffd615", "is_reserved": 0}, {"lat": 38.901356166666666, "fusion_lon": 0.0, "lon": -77.04449133333334, "is_disabled": 0, "type": "electric_scooter", "name": "138174fc71005bf60c8e043254343f68", "fusion_lat": 0.0, "rental_uris": {"android": "https://dc.lft.to/lastmile_qr_scan", "ios": "https://dc.lft.to/lastmile_qr_scan"}, "bike_id": "138174fc71005bf60c8e043254343f68", "is_reserved": 0}, {"lat": 38.890146666666666, "fusion_lon": 0.0, "lon": -76.93698433333333, "is_disabled": 0, "type": "electric_scooter", "name": "b55421b7a3cbf84c578734f609a81205", "fusion_lat": 0.0, "rental_uris": {"android": "https://dc.lft.to/lastmile_qr_scan", "ios": "https://dc.lft.to/lastmile_qr_scan"}, "bike_id": "b55421b7a3cbf84c578734f609a81205", "is_reserved": 0}, {"lat": 38.89218183333333, "fusion_lon": 0.0, "lon": -77.02351333333333, "is_disabled": 0, "type": "electric_scooter", "name": "6d8cd7ffa12ff34d4fcf4b0b21494080", "fusion_lat": 0.0, "rental_uris": {"android": "https://dc.lft.to/lastmile_qr_scan", "ios": "https://dc.lft.to/lastmile_qr_scan"}, "bike_id": "6d8cd7ffa12ff34d4fcf4b0b21494080", "is_reserved": 0}, {"lat": 38.90027516666667, "fusion_lon": 0.0, "lon": -77.002179, "is_disabled": 0, "type": "electric_scooter", "name": "2f143a9e3e796517d63a7711d97cb6d0", "fusion_lat": 0.0, "rental_uris": {"android": "https://dc.lft.to/lastmile_qr_scan", "ios": "https://dc.lft.to/lastmile_qr_scan"}, "bike_id": "2f143a9e3e796517d63a7711d97cb6d0", "is_reserved": 0}, {"lat": 38.89274183333333, "fusion_lon": 0.0, "lon": -77.03184066666667, "is_disabled": 0, "type": "electric_scooter", "name": "b5c827c7591e3a35500129217cb2534a", "fusion_lat": 0.0, "rental_uris": {"android": "https://dc.lft.to/lastmile_qr_scan", "ios": "https://dc.lft.to/lastmile_qr_scan"}, "bike_id": "b5c827c7591e3a35500129217cb2534a", "is_reserved": 0}, {"lat": 38.8693115, "fusion_lon": 0.0, "lon": -77.09470066666667, "is_disabled": 0, "type": "electric_bike", "name": "86af300b4ac5bc03bc8ad046ae40b9d7", "fusion_lat": 0.0, "rental_uris": {"android": "https://dc.lft.to/lastmile_qr_scan", "ios": "https://dc.lft.to/lastmile_qr_scan"}, "bike_id": "86af300b4ac5bc03bc8ad046ae40b9d7", "is_reserved": 0}, {"lat": 38.91067416666667, "fusion_lon": 0.0, "lon": -77.0197725, "is_disabled": 0, "type": "electric_bike", "name": "ab8db807e3ff5fa4ce9461bc4058fba9", "fusion_lat": 0.0, "rental_uris": {"android": "https://dc.lft.to/lastmile_qr_scan", "ios": "https://dc.lft.to/lastmile_qr_scan"}, "bike_id": "ab8db807e3ff5fa4ce9461bc4058fba9", "is_reserved": 0}, {"lat": 38.90361866666667, "fusion_lon": 0.0, "lon": -77.00732266666667, "is_disabled": 0, "type": "electric_scooter", "name": "6ac52330f9cd6e38e9705f3c95f6e4c6", "fusion_lat": 0.0, "rental_uris": {"android": "https://dc.lft.to/lastmile_qr_scan", "ios": "https://dc.lft.to/lastmile_qr_scan"}, "bike_id": "6ac52330f9cd6e38e9705f3c95f6e4c6", "is_reserved": 0}, {"lat": 38.93401316666667, "fusion_lon": 0.0, "lon": -77.0723985, "is_disabled": 0, "type": "electric_scooter", "name": "93355bea498317c923717af148d7b023", "fusion_lat": 0.0, "rental_uris": {"android": "https://dc.lft.to/lastmile_qr_scan", "ios": "https://dc.lft.to/lastmile_qr_scan"}, "bike_id": "93355bea498317c923717af148d7b023", "is_reserved": 0}, {"lat": 38.909848333333336, "fusion_lon": 0.0, "lon": -77.02180316666667, "is_disabled": 0, "type": "electric_scooter", "name": "20b1d4dcca5ad3a045f775ba367f4df4", "fusion_lat": 0.0, "rental_uris": {"android": "https://dc.lft.to/lastmile_qr_scan", "ios": "https://dc.lft.to/lastmile_qr_scan"}, "bike_id": "20b1d4dcca5ad3a045f775ba367f4df4", "is_reserved": 0}, {"lat": 38.925343, "fusion_lon": 0.0, "lon": -76.97226816666667, "is_disabled": 0, "type": "electric_scooter", "name": "61ee7198c56caa21ccc3a65107b3f7f6", "fusion_lat": 0.0, "rental_uris": {"android": "https://dc.lft.to/lastmile_qr_scan", "ios": "https://dc.lft.to/lastmile_qr_scan"}, "bike_id": "61ee7198c56caa21ccc3a65107b3f7f6", "is_reserved": 0}, {"lat": 38.91842666666667, "fusion_lon": 0.0, "lon": -77.03544833333333, "is_disabled": 0, "type": "electric_scooter", "name": "9094177e80ef7c614d37260e6c674a40", "fusion_lat": 0.0, "rental_uris": {"android": "https://dc.lft.to/lastmile_qr_scan", "ios": "https://dc.lft.to/lastmile_qr_scan"}, "bike_id": "9094177e80ef7c614d37260e6c674a40", "is_reserved": 0}, {"lat": 38.907368, "fusion_lon": 0.0, "lon": -77.045024, "is_disabled": 0, "type": "electric_scooter", "name": "819d7dc98a47e129272923e04e1f803e", "fusion_lat": 0.0, "rental_uris": {"android": "https://dc.lft.to/lastmile_qr_scan", "ios": "https://dc.lft.to/lastmile_qr_scan"}, "bike_id": "819d7dc98a47e129272923e04e1f803e", "is_reserved": 0}, {"lat": 38.866989, "fusion_lon": 0.0, "lon": -76.98597216666667, "is_disabled": 0, "type": "electric_scooter", "name": "0f4d4259f84266d4d54d24c5ec2f27fc", "fusion_lat": 0.0, "rental_uris": {"android": "https://dc.lft.to/lastmile_qr_scan", "ios": "https://dc.lft.to/lastmile_qr_scan"}, "bike_id": "0f4d4259f84266d4d54d24c5ec2f27fc", "is_reserved": 0}, {"lat": 38.89230466666667, "fusion_lon": 0.0, "lon": -77.023809, "is_disabled": 0, "type": "electric_scooter", "name": "e850d74758700b4d2ee34295a0863343", "fusion_lat": 0.0, "rental_uris": {"android": "https://dc.lft.to/lastmile_qr_scan", "ios": "https://dc.lft.to/lastmile_qr_scan"}, "bike_id": "e850d74758700b4d2ee34295a0863343", "is_reserved": 0}, {"lat": 38.8973935, "fusion_lon": 0.0, "lon": -77.00991783333333, "is_disabled": 0, "type": "electric_scooter", "name": "48eed87eeff7d631e1876da7e523b4d9", "fusion_lat": 0.0, "rental_uris": {"android": "https://dc.lft.to/lastmile_qr_scan", "ios": "https://dc.lft.to/lastmile_qr_scan"}, "bike_id": "48eed87eeff7d631e1876da7e523b4d9", "is_reserved": 0}, {"lat": 38.900131, "fusion_lon": 0.0, "lon": -76.93029933333334, "is_disabled": 0, "type": "electric_scooter", "name": "e2d623b39461d448db5f8f9f904c8cc7", "fusion_lat": 0.0, "rental_uris": {"android": "https://dc.lft.to/lastmile_qr_scan", "ios": "https://dc.lft.to/lastmile_qr_scan"}, "bike_id": "e2d623b39461d448db5f8f9f904c8cc7", "is_reserved": 0}, {"lat": 38.924392166666664, "fusion_lon": 0.0, "lon": -77.0340655, "is_disabled": 0, "type": "electric_scooter", "name": "2837c6aa422e5aa4b255122916169576", "fusion_lat": 0.0, "rental_uris": {"android": "https://dc.lft.to/lastmile_qr_scan", "ios": "https://dc.lft.to/lastmile_qr_scan"}, "bike_id": "2837c6aa422e5aa4b255122916169576", "is_reserved": 0}, {"lat": 38.892325, "fusion_lon": 0.0, "lon": -77.0131645, "is_disabled": 0, "type": "electric_scooter", "name": "62464ae195617c7867a732f347d1d93b", "fusion_lat": 0.0, "rental_uris": {"android": "https://dc.lft.to/lastmile_qr_scan", "ios": "https://dc.lft.to/lastmile_qr_scan"}, "bike_id": "62464ae195617c7867a732f347d1d93b", "is_reserved": 0}, {"lat": 38.917967166666664, "fusion_lon": 0.0, "lon": -77.0231865, "is_disabled": 0, "type": "electric_scooter", "name": "7034afbb68b78633fced5f4cd34bf09e", "fusion_lat": 0.0, "rental_uris": {"android": "https://dc.lft.to/lastmile_qr_scan", "ios": "https://dc.lft.to/lastmile_qr_scan"}, "bike_id": "7034afbb68b78633fced5f4cd34bf09e", "is_reserved": 0}, {"lat": 38.90661333333333, "fusion_lon": 0.0, "lon": -77.0414825, "is_disabled": 0, "type": "electric_scooter", "name": "73af30311943aa81c2fc25d3c5e4d4d3", "fusion_lat": 0.0, "rental_uris": {"android": "https://dc.lft.to/lastmile_qr_scan", "ios": "https://dc.lft.to/lastmile_qr_scan"}, "bike_id": "73af30311943aa81c2fc25d3c5e4d4d3", "is_reserved": 0}, {"lat": 38.8728585, "fusion_lon": 0.0, "lon": -76.9773545, "is_disabled": 0, "type": "electric_scooter", "name": "5b822fb2b09d632b42107515a3df4778", "fusion_lat": 0.0, "rental_uris": {"android": "https://dc.lft.to/lastmile_qr_scan", "ios": "https://dc.lft.to/lastmile_qr_scan"}, "bike_id": "5b822fb2b09d632b42107515a3df4778", "is_reserved": 0}, {"lat": 38.887683833333334, "fusion_lon": 0.0, "lon": -77.01773366666667, "is_disabled": 0, "type": "electric_scooter", "name": "5cceff36762f45d36d72c75ffc0872ec", "fusion_lat": 0.0, "rental_uris": {"android": "https://dc.lft.to/lastmile_qr_scan", "ios": "https://dc.lft.to/lastmile_qr_scan"}, "bike_id": "5cceff36762f45d36d72c75ffc0872ec", "is_reserved": 0}, {"lat": 38.9087005, "fusion_lon": 0.0, "lon": -77.04856516666666, "is_disabled": 0, "type": "electric_scooter", "name": "f33798721802acbc8648899f60e7d364", "fusion_lat": 0.0, "rental_uris": {"android": "https://dc.lft.to/lastmile_qr_scan", "ios": "https://dc.lft.to/lastmile_qr_scan"}, "bike_id": "f33798721802acbc8648899f60e7d364", "is_reserved": 0}, {"lat": 38.89220066666667, "fusion_lon": 0.0, "lon": -77.033404, "is_disabled": 0, "type": "electric_scooter", "name": "d807f2880602ea97b5feb1eac56bad92", "fusion_lat": 0.0, "rental_uris": {"android": "https://dc.lft.to/lastmile_qr_scan", "ios": "https://dc.lft.to/lastmile_qr_scan"}, "bike_id": "d807f2880602ea97b5feb1eac56bad92", "is_reserved": 0}, {"lat": 38.922571, "fusion_lon": 0.0, "lon": -77.07033433333334, "is_disabled": 0, "type": "electric_scooter", "name": "64a033278bfb633d026602f53a5cad1a", "fusion_lat": 0.0, "rental_uris": {"android": "https://dc.lft.to/lastmile_qr_scan", "ios": "https://dc.lft.to/lastmile_qr_scan"}, "bike_id": "64a033278bfb633d026602f53a5cad1a", "is_reserved": 0}, {"lat": 38.892179166666665, "fusion_lon": 0.0, "lon": -77.045067, "is_disabled": 0, "type": "electric_scooter", "name": "539f94508be8c2d61496e909033341d7", "fusion_lat": 0.0, "rental_uris": {"android": "https://dc.lft.to/lastmile_qr_scan", "ios": "https://dc.lft.to/lastmile_qr_scan"}, "bike_id": "539f94508be8c2d61496e909033341d7", "is_reserved": 0}, {"lat": 38.9490825, "fusion_lon": 0.0, "lon": -77.0788215, "is_disabled": 0, "type": "electric_scooter", "name": "0650aa29ded7fd39b4ce4f557cb82950", "fusion_lat": 0.0, "rental_uris": {"android": "https://dc.lft.to/lastmile_qr_scan", "ios": "https://dc.lft.to/lastmile_qr_scan"}, "bike_id": "0650aa29ded7fd39b4ce4f557cb82950", "is_reserved": 0}, {"lat": 38.906908, "fusion_lon": 0.0, "lon": -77.03585666666666, "is_disabled": 0, "type": "electric_scooter", "name": "2cd88590a53c8bb1bafdfc3bdde0a567", "fusion_lat": 0.0, "rental_uris": {"android": "https://dc.lft.to/lastmile_qr_scan", "ios": "https://dc.lft.to/lastmile_qr_scan"}, "bike_id": "2cd88590a53c8bb1bafdfc3bdde0a567", "is_reserved": 0}, {"lat": 38.9002955, "fusion_lon": 0.0, "lon": -77.03378783333334, "is_disabled": 0, "type": "electric_scooter", "name": "e5d6decef61b822911a3866dc38665a3", "fusion_lat": 0.0, "rental_uris": {"android": "https://dc.lft.to/lastmile_qr_scan", "ios": "https://dc.lft.to/lastmile_qr_scan"}, "bike_id": "e5d6decef61b822911a3866dc38665a3", "is_reserved": 0}, {"lat": 38.968114166666666, "fusion_lon": 0.0, "lon": -77.0722505, "is_disabled": 0, "type": "electric_bike", "name": "3a4ec6cd63d91b0c93817c6c8dbb6972", "fusion_lat": 0.0, "rental_uris": {"android": "https://dc.lft.to/lastmile_qr_scan", "ios": "https://dc.lft.to/lastmile_qr_scan"}, "bike_id": "3a4ec6cd63d91b0c93817c6c8dbb6972", "is_reserved": 0}, {"lat": 38.922229333333334, "fusion_lon": 0.0, "lon": -77.04250433333333, "is_disabled": 0, "type": "electric_scooter", "name": "a348350a82a30c2aba2eefd77cc78284", "fusion_lat": 0.0, "rental_uris": {"android": "https://dc.lft.to/lastmile_qr_scan", "ios": "https://dc.lft.to/lastmile_qr_scan"}, "bike_id": "a348350a82a30c2aba2eefd77cc78284", "is_reserved": 0}, {"lat": 38.922491666666666, "fusion_lon": 0.0, "lon": -77.03527133333333, "is_disabled": 0, "type": "electric_scooter", "name": "13245b1a1c51af4ad26eb2fb9f1508f8", "fusion_lat": 0.0, "rental_uris": {"android": "https://dc.lft.to/lastmile_qr_scan", "ios": "https://dc.lft.to/lastmile_qr_scan"}, "bike_id": "13245b1a1c51af4ad26eb2fb9f1508f8", "is_reserved": 0}, {"lat": 38.92505966666667, "fusion_lon": 0.0, "lon": -77.0365805, "is_disabled": 0, "type": "electric_scooter", "name": "4bc8a7c3537933ea1346582526879482", "fusion_lat": 0.0, "rental_uris": {"android": "https://dc.lft.to/lastmile_qr_scan", "ios": "https://dc.lft.to/lastmile_qr_scan"}, "bike_id": "4bc8a7c3537933ea1346582526879482", "is_reserved": 0}, {"lat": 38.92966066666666, "fusion_lon": 0.0, "lon": -77.032608, "is_disabled": 0, "type": "electric_scooter", "name": "1a26af3174395cec36547f7af158a8be", "fusion_lat": 0.0, "rental_uris": {"android": "https://dc.lft.to/lastmile_qr_scan", "ios": "https://dc.lft.to/lastmile_qr_scan"}, "bike_id": "1a26af3174395cec36547f7af158a8be", "is_reserved": 0}, {"lat": 38.90440133333333, "fusion_lon": 0.0, "lon": -76.98493133333334, "is_disabled": 0, "type": "electric_scooter", "name": "e983a6c912d3febd87f38b38f583552a", "fusion_lat": 0.0, "rental_uris": {"android": "https://dc.lft.to/lastmile_qr_scan", "ios": "https://dc.lft.to/lastmile_qr_scan"}, "bike_id": "e983a6c912d3febd87f38b38f583552a", "is_reserved": 0}, {"lat": 38.892351, "fusion_lon": 0.0, "lon": -77.03174133333333, "is_disabled": 0, "type": "electric_scooter", "name": "4de7ad3a7d7914ef00208bbd18e8152c", "fusion_lat": 0.0, "rental_uris": {"android": "https://dc.lft.to/lastmile_qr_scan", "ios": "https://dc.lft.to/lastmile_qr_scan"}, "bike_id": "4de7ad3a7d7914ef00208bbd18e8152c", "is_reserved": 0}, {"lat": 38.870058666666665, "fusion_lon": 0.0, "lon": -76.98079033333333, "is_disabled": 0, "type": "electric_scooter", "name": "b65bc2c95ce155a30cfcb9a5544e7893", "fusion_lat": 0.0, "rental_uris": {"android": "https://dc.lft.to/lastmile_qr_scan", "ios": "https://dc.lft.to/lastmile_qr_scan"}, "bike_id": "b65bc2c95ce155a30cfcb9a5544e7893", "is_reserved": 0}, {"lat": 38.914142, "fusion_lon": 0.0, "lon": -77.02216433333334, "is_disabled": 0, "type": "electric_scooter", "name": "13ae956ed8f4aeee0470779e6c58d9b1", "fusion_lat": 0.0, "rental_uris": {"android": "https://dc.lft.to/lastmile_qr_scan", "ios": "https://dc.lft.to/lastmile_qr_scan"}, "bike_id": "13ae956ed8f4aeee0470779e6c58d9b1", "is_reserved": 0}, {"lat": 38.897305833333334, "fusion_lon": 0.0, "lon": -77.04363166666667, "is_disabled": 0, "type": "electric_scooter", "name": "fa25c81f9df26dee2d005896588091ad", "fusion_lat": 0.0, "rental_uris": {"android": "https://dc.lft.to/lastmile_qr_scan", "ios": "https://dc.lft.to/lastmile_qr_scan"}, "bike_id": "fa25c81f9df26dee2d005896588091ad", "is_reserved": 0}, {"lat": 38.87938333333334, "fusion_lon": 0.0, "lon": -77.0051105, "is_disabled": 0, "type": "electric_scooter", "name": "72643c4fa05325e6213228f365dec6a9", "fusion_lat": 0.0, "rental_uris": {"android": "https://dc.lft.to/lastmile_qr_scan", "ios": "https://dc.lft.to/lastmile_qr_scan"}, "bike_id": "72643c4fa05325e6213228f365dec6a9", "is_reserved": 0}, {"lat": 38.8923455, "fusion_lon": 0.0, "lon": -77.03211416666667, "is_disabled": 0, "type": "electric_scooter", "name": "e7494c0abcc77ec45c90e880cab79aae", "fusion_lat": 0.0, "rental_uris": {"android": "https://dc.lft.to/lastmile_qr_scan", "ios": "https://dc.lft.to/lastmile_qr_scan"}, "bike_id": "e7494c0abcc77ec45c90e880cab79aae", "is_reserved": 0}, {"lat": 38.91986166666667, "fusion_lon": 0.0, "lon": -77.04154033333333, "is_disabled": 0, "type": "electric_scooter", "name": "5b22edee59daaa821c255ec9ce9aabb9", "fusion_lat": 0.0, "rental_uris": {"android": "https://dc.lft.to/lastmile_qr_scan", "ios": "https://dc.lft.to/lastmile_qr_scan"}, "bike_id": "5b22edee59daaa821c255ec9ce9aabb9", "is_reserved": 0}, {"lat": 38.90764383333333, "fusion_lon": 0.0, "lon": -77.0374805, "is_disabled": 0, "type": "electric_scooter", "name": "f1e807ee228191b4eb4972d433d29411", "fusion_lat": 0.0, "rental_uris": {"android": "https://dc.lft.to/lastmile_qr_scan", "ios": "https://dc.lft.to/lastmile_qr_scan"}, "bike_id": "f1e807ee228191b4eb4972d433d29411", "is_reserved": 0}, {"lat": 38.9845585, "fusion_lon": 0.0, "lon": -77.026845, "is_disabled": 0, "type": "electric_scooter", "name": "87a93ceea040bfe47cbc455f44a4c404", "fusion_lat": 0.0, "rental_uris": {"android": "https://dc.lft.to/lastmile_qr_scan", "ios": "https://dc.lft.to/lastmile_qr_scan"}, "bike_id": "87a93ceea040bfe47cbc455f44a4c404", "is_reserved": 0}, {"lat": 38.9181255, "fusion_lon": 0.0, "lon": -77.03147066666666, "is_disabled": 0, "type": "electric_scooter", "name": "cf40335c721ea450791dfcaa4a07299a", "fusion_lat": 0.0, "rental_uris": {"android": "https://dc.lft.to/lastmile_qr_scan", "ios": "https://dc.lft.to/lastmile_qr_scan"}, "bike_id": "cf40335c721ea450791dfcaa4a07299a", "is_reserved": 0}, {"lat": 38.89233383333333, "fusion_lon": 0.0, "lon": -77.01317833333333, "is_disabled": 0, "type": "electric_scooter", "name": "dacda0f0f4c2071bf8613b6d92dc01aa", "fusion_lat": 0.0, "rental_uris": {"android": "https://dc.lft.to/lastmile_qr_scan", "ios": "https://dc.lft.to/lastmile_qr_scan"}, "bike_id": "dacda0f0f4c2071bf8613b6d92dc01aa", "is_reserved": 0}, {"lat": 38.921255333333335, "fusion_lon": 0.0, "lon": -77.003368, "is_disabled": 0, "type": "electric_scooter", "name": "442398adf1c2a3014da81fd2a3984cea", "fusion_lat": 0.0, "rental_uris": {"android": "https://dc.lft.to/lastmile_qr_scan", "ios": "https://dc.lft.to/lastmile_qr_scan"}, "bike_id": "442398adf1c2a3014da81fd2a3984cea", "is_reserved": 0}, {"lat": 38.819118, "fusion_lon": 0.0, "lon": -76.9992455, "is_disabled": 0, "type": "electric_bike", "name": "fc1c2319fc864bc955b8d8714115a730", "fusion_lat": 0.0, "rental_uris": {"android": "https://dc.lft.to/lastmile_qr_scan", "ios": "https://dc.lft.to/lastmile_qr_scan"}, "bike_id": "fc1c2319fc864bc955b8d8714115a730", "is_reserved": 0}, {"lat": 38.9084115, "fusion_lon": 0.0, "lon": -77.02699233333334, "is_disabled": 0, "type": "electric_scooter", "name": "1444351c3d02312e8c06e7fe4d376ec9", "fusion_lat": 0.0, "rental_uris": {"android": "https://dc.lft.to/lastmile_qr_scan", "ios": "https://dc.lft.to/lastmile_qr_scan"}, "bike_id": "1444351c3d02312e8c06e7fe4d376ec9", "is_reserved": 0}, {"lat": 38.91453516666667, "fusion_lon": 0.0, "lon": -77.0219935, "is_disabled": 0, "type": "electric_scooter", "name": "de35638944d49d6ec57ce17b02537328", "fusion_lat": 0.0, "rental_uris": {"android": "https://dc.lft.to/lastmile_qr_scan", "ios": "https://dc.lft.to/lastmile_qr_scan"}, "bike_id": "de35638944d49d6ec57ce17b02537328", "is_reserved": 0}, {"lat": 38.906103333333334, "fusion_lon": 0.0, "lon": -77.041849, "is_disabled": 0, "type": "electric_scooter", "name": "3a0d8de67f9bbb1c587fe0e21a40b83f", "fusion_lat": 0.0, "rental_uris": {"android": "https://dc.lft.to/lastmile_qr_scan", "ios": "https://dc.lft.to/lastmile_qr_scan"}, "bike_id": "3a0d8de67f9bbb1c587fe0e21a40b83f", "is_reserved": 0}, {"lat": 38.873328666666666, "fusion_lon": 0.0, "lon": -76.96786216666666, "is_disabled": 0, "type": "electric_scooter", "name": "da987b3d8056ae48006bca07e9fb5a78", "fusion_lat": 0.0, "rental_uris": {"android": "https://dc.lft.to/lastmile_qr_scan", "ios": "https://dc.lft.to/lastmile_qr_scan"}, "bike_id": "da987b3d8056ae48006bca07e9fb5a78", "is_reserved": 0}, {"lat": 38.8861245, "fusion_lon": 0.0, "lon": -77.0006405, "is_disabled": 0, "type": "electric_scooter", "name": "b2c049b3534d0a29aa82341add0b96db", "fusion_lat": 0.0, "rental_uris": {"android": "https://dc.lft.to/lastmile_qr_scan", "ios": "https://dc.lft.to/lastmile_qr_scan"}, "bike_id": "b2c049b3534d0a29aa82341add0b96db", "is_reserved": 0}, {"lat": 38.88307016666667, "fusion_lon": 0.0, "lon": -77.01767233333334, "is_disabled": 0, "type": "electric_scooter", "name": "5dd0c7870b9e9f78bdf815aae7b8fdac", "fusion_lat": 0.0, "rental_uris": {"android": "https://dc.lft.to/lastmile_qr_scan", "ios": "https://dc.lft.to/lastmile_qr_scan"}, "bike_id": "5dd0c7870b9e9f78bdf815aae7b8fdac", "is_reserved": 0}, {"lat": 38.904115, "fusion_lon": 0.0, "lon": -77.0295545, "is_disabled": 0, "type": "electric_scooter", "name": "76c99f9b6d262cfe797b39a94eb8b968", "fusion_lat": 0.0, "rental_uris": {"android": "https://dc.lft.to/lastmile_qr_scan", "ios": "https://dc.lft.to/lastmile_qr_scan"}, "bike_id": "76c99f9b6d262cfe797b39a94eb8b968", "is_reserved": 0}, {"lat": 38.91888816666667, "fusion_lon": 0.0, "lon": -77.04827216666666, "is_disabled": 0, "type": "electric_scooter", "name": "8bbb2805f15f98dca19027467629289a", "fusion_lat": 0.0, "rental_uris": {"android": "https://dc.lft.to/lastmile_qr_scan", "ios": "https://dc.lft.to/lastmile_qr_scan"}, "bike_id": "8bbb2805f15f98dca19027467629289a", "is_reserved": 0}, {"lat": 38.900785666666664, "fusion_lon": 0.0, "lon": -77.0443815, "is_disabled": 0, "type": "electric_scooter", "name": "57dab5eeb4eea0926c7a3d18d4f46043", "fusion_lat": 0.0, "rental_uris": {"android": "https://dc.lft.to/lastmile_qr_scan", "ios": "https://dc.lft.to/lastmile_qr_scan"}, "bike_id": "57dab5eeb4eea0926c7a3d18d4f46043", "is_reserved": 0}, {"lat": 38.893042333333334, "fusion_lon": 0.0, "lon": -77.021682, "is_disabled": 0, "type": "electric_scooter", "name": "07522369a5ca4778293a00515d2a08ca", "fusion_lat": 0.0, "rental_uris": {"android": "https://dc.lft.to/lastmile_qr_scan", "ios": "https://dc.lft.to/lastmile_qr_scan"}, "bike_id": "07522369a5ca4778293a00515d2a08ca", "is_reserved": 0}, {"lat": 38.8922145, "fusion_lon": 0.0, "lon": -77.03337816666667, "is_disabled": 0, "type": "electric_scooter", "name": "00d2e6e0a34098bbc2dcd8f0bb50ed2f", "fusion_lat": 0.0, "rental_uris": {"android": "https://dc.lft.to/lastmile_qr_scan", "ios": "https://dc.lft.to/lastmile_qr_scan"}, "bike_id": "00d2e6e0a34098bbc2dcd8f0bb50ed2f", "is_reserved": 0}, {"lat": 38.9038465, "fusion_lon": 0.0, "lon": -77.04527616666667, "is_disabled": 0, "type": "electric_scooter", "name": "e332b66201d4aeb2c85502f76a0f1f0e", "fusion_lat": 0.0, "rental_uris": {"android": "https://dc.lft.to/lastmile_qr_scan", "ios": "https://dc.lft.to/lastmile_qr_scan"}, "bike_id": "e332b66201d4aeb2c85502f76a0f1f0e", "is_reserved": 0}, {"lat": 38.9026855, "fusion_lon": 0.0, "lon": -77.03855566666667, "is_disabled": 0, "type": "electric_scooter", "name": "69a14ff6427e2fcf5fae11e90bb2bbae", "fusion_lat": 0.0, "rental_uris": {"android": "https://dc.lft.to/lastmile_qr_scan", "ios": "https://dc.lft.to/lastmile_qr_scan"}, "bike_id": "69a14ff6427e2fcf5fae11e90bb2bbae", "is_reserved": 0}, {"lat": 38.92873566666667, "fusion_lon": 0.0, "lon": -77.01241783333333, "is_disabled": 0, "type": "electric_bike", "name": "3fa07b50bd08bf41be90c62c8d3ae644", "fusion_lat": 0.0, "rental_uris": {"android": "https://dc.lft.to/lastmile_qr_scan", "ios": "https://dc.lft.to/lastmile_qr_scan"}, "bike_id": "3fa07b50bd08bf41be90c62c8d3ae644", "is_reserved": 0}, {"lat": 38.900683666666666, "fusion_lon": 0.0, "lon": -77.04834933333333, "is_disabled": 0, "type": "electric_scooter", "name": "5a1e9d115faa07244f9190f013e3c67d", "fusion_lat": 0.0, "rental_uris": {"android": "https://dc.lft.to/lastmile_qr_scan", "ios": "https://dc.lft.to/lastmile_qr_scan"}, "bike_id": "5a1e9d115faa07244f9190f013e3c67d", "is_reserved": 0}, {"lat": 38.8794355, "fusion_lon": 0.0, "lon": -76.91622883333334, "is_disabled": 0, "type": "electric_bike", "name": "9674e0d8ed12d57834dc9395330b8f27", "fusion_lat": 0.0, "rental_uris": {"android": "https://dc.lft.to/lastmile_qr_scan", "ios": "https://dc.lft.to/lastmile_qr_scan"}, "bike_id": "9674e0d8ed12d57834dc9395330b8f27", "is_reserved": 0}, {"lat": 38.923122166666666, "fusion_lon": 0.0, "lon": -76.9990035, "is_disabled": 0, "type": "electric_scooter", "name": "fa96293882cca408e765662944dac797", "fusion_lat": 0.0, "rental_uris": {"android": "https://dc.lft.to/lastmile_qr_scan", "ios": "https://dc.lft.to/lastmile_qr_scan"}, "bike_id": "fa96293882cca408e765662944dac797", "is_reserved": 0}, {"lat": 38.961124833333336, "fusion_lon": 0.0, "lon": -77.00943133333334, "is_disabled": 0, "type": "electric_scooter", "name": "c720af7f2018802bb51655fc59ca03c8", "fusion_lat": 0.0, "rental_uris": {"android": "https://dc.lft.to/lastmile_qr_scan", "ios": "https://dc.lft.to/lastmile_qr_scan"}, "bike_id": "c720af7f2018802bb51655fc59ca03c8", "is_reserved": 0}, {"lat": 38.918821, "fusion_lon": 0.0, "lon": -77.03511666666667, "is_disabled": 0, "type": "electric_scooter", "name": "6d30d88daffe8224869d7de2c3bbd2de", "fusion_lat": 0.0, "rental_uris": {"android": "https://dc.lft.to/lastmile_qr_scan", "ios": "https://dc.lft.to/lastmile_qr_scan"}, "bike_id": "6d30d88daffe8224869d7de2c3bbd2de", "is_reserved": 0}, {"lat": 38.9054625, "fusion_lon": 0.0, "lon": -77.03258016666666, "is_disabled": 0, "type": "electric_scooter", "name": "e165bf6876f4fa517d4077bbcd3f02b6", "fusion_lat": 0.0, "rental_uris": {"android": "https://dc.lft.to/lastmile_qr_scan", "ios": "https://dc.lft.to/lastmile_qr_scan"}, "bike_id": "e165bf6876f4fa517d4077bbcd3f02b6", "is_reserved": 0}, {"lat": 38.914205333333335, "fusion_lon": 0.0, "lon": -77.026048, "is_disabled": 0, "type": "electric_scooter", "name": "7053b6ae72cec1d735830067b6f2bf20", "fusion_lat": 0.0, "rental_uris": {"android": "https://dc.lft.to/lastmile_qr_scan", "ios": "https://dc.lft.to/lastmile_qr_scan"}, "bike_id": "7053b6ae72cec1d735830067b6f2bf20", "is_reserved": 0}, {"lat": 38.88417583333333, "fusion_lon": 0.0, "lon": -76.95406816666667, "is_disabled": 0, "type": "electric_scooter", "name": "598b311ad29de5d5fa179f3eded57863", "fusion_lat": 0.0, "rental_uris": {"android": "https://dc.lft.to/lastmile_qr_scan", "ios": "https://dc.lft.to/lastmile_qr_scan"}, "bike_id": "598b311ad29de5d5fa179f3eded57863", "is_reserved": 0}, {"lat": 38.940773, "fusion_lon": 0.0, "lon": -77.03144116666667, "is_disabled": 0, "type": "electric_scooter", "name": "acb583b0927bde0c24fc45af7bb50918", "fusion_lat": 0.0, "rental_uris": {"android": "https://dc.lft.to/lastmile_qr_scan", "ios": "https://dc.lft.to/lastmile_qr_scan"}, "bike_id": "acb583b0927bde0c24fc45af7bb50918", "is_reserved": 0}, {"lat": 38.90510033333333, "fusion_lon": 0.0, "lon": -77.05191633333334, "is_disabled": 0, "type": "electric_scooter", "name": "989658384c0ec8d4f1b1c1a974cb1ca5", "fusion_lat": 0.0, "rental_uris": {"android": "https://dc.lft.to/lastmile_qr_scan", "ios": "https://dc.lft.to/lastmile_qr_scan"}, "bike_id": "989658384c0ec8d4f1b1c1a974cb1ca5", "is_reserved": 0}, {"lat": 38.8670015, "fusion_lon": 0.0, "lon": -76.9870585, "is_disabled": 0, "type": "electric_scooter", "name": "24967b03719d149d89d91615f1f4bc2a", "fusion_lat": 0.0, "rental_uris": {"android": "https://dc.lft.to/lastmile_qr_scan", "ios": "https://dc.lft.to/lastmile_qr_scan"}, "bike_id": "24967b03719d149d89d91615f1f4bc2a", "is_reserved": 0}, {"lat": 38.924371, "fusion_lon": 0.0, "lon": -77.0006745, "is_disabled": 0, "type": "electric_scooter", "name": "31d7860db7abb3a6ce8595deca39f2a3", "fusion_lat": 0.0, "rental_uris": {"android": "https://dc.lft.to/lastmile_qr_scan", "ios": "https://dc.lft.to/lastmile_qr_scan"}, "bike_id": "31d7860db7abb3a6ce8595deca39f2a3", "is_reserved": 0}, {"lat": 38.839383166666664, "fusion_lon": 0.0, "lon": -77.07906716666666, "is_disabled": 0, "type": "electric_bike", "name": "208c04d8a3c4405dfef00a7c4fc162ed", "fusion_lat": 0.0, "rental_uris": {"android": "https://dc.lft.to/lastmile_qr_scan", "ios": "https://dc.lft.to/lastmile_qr_scan"}, "bike_id": "208c04d8a3c4405dfef00a7c4fc162ed", "is_reserved": 0}, {"lat": 38.8646805, "fusion_lon": 0.0, "lon": -76.977446, "is_disabled": 0, "type": "electric_scooter", "name": "4fd7fa7f92dd692932d8aed8b93d8ecd", "fusion_lat": 0.0, "rental_uris": {"android": "https://dc.lft.to/lastmile_qr_scan", "ios": "https://dc.lft.to/lastmile_qr_scan"}, "bike_id": "4fd7fa7f92dd692932d8aed8b93d8ecd", "is_reserved": 0}, {"lat": 38.93982483333333, "fusion_lon": 0.0, "lon": -77.032645, "is_disabled": 0, "type": "electric_scooter", "name": "14cb811b5d952081f4ef05d676859b9f", "fusion_lat": 0.0, "rental_uris": {"android": "https://dc.lft.to/lastmile_qr_scan", "ios": "https://dc.lft.to/lastmile_qr_scan"}, "bike_id": "14cb811b5d952081f4ef05d676859b9f", "is_reserved": 0}, {"lat": 38.929013166666664, "fusion_lon": 0.0, "lon": -77.037477, "is_disabled": 0, "type": "electric_scooter", "name": "f66f7bae3c85054bc9d930cc2b3882af", "fusion_lat": 0.0, "rental_uris": {"android": "https://dc.lft.to/lastmile_qr_scan", "ios": "https://dc.lft.to/lastmile_qr_scan"}, "bike_id": "f66f7bae3c85054bc9d930cc2b3882af", "is_reserved": 0}, {"lat": 38.903108333333336, "fusion_lon": 0.0, "lon": -76.91218333333333, "is_disabled": 0, "type": "electric_bike", "name": "e73c1a534d58c3ea6f7d9bbfd016a5a7", "fusion_lat": 0.0, "rental_uris": {"android": "https://dc.lft.to/lastmile_qr_scan", "ios": "https://dc.lft.to/lastmile_qr_scan"}, "bike_id": "e73c1a534d58c3ea6f7d9bbfd016a5a7", "is_reserved": 0}, {"lat": 38.911143, "fusion_lon": 0.0, "lon": -77.06931433333334, "is_disabled": 0, "type": "electric_scooter", "name": "a1ce338adeda66f98959b1f56fceafc9", "fusion_lat": 0.0, "rental_uris": {"android": "https://dc.lft.to/lastmile_qr_scan", "ios": "https://dc.lft.to/lastmile_qr_scan"}, "bike_id": "a1ce338adeda66f98959b1f56fceafc9", "is_reserved": 0}, {"lat": 38.907221, "fusion_lon": 0.0, "lon": -77.05045116666666, "is_disabled": 0, "type": "electric_scooter", "name": "13c860770da4113abc2d90fe3c5aecfe", "fusion_lat": 0.0, "rental_uris": {"android": "https://dc.lft.to/lastmile_qr_scan", "ios": "https://dc.lft.to/lastmile_qr_scan"}, "bike_id": "13c860770da4113abc2d90fe3c5aecfe", "is_reserved": 0}, {"lat": 38.91563816666667, "fusion_lon": 0.0, "lon": -77.008725, "is_disabled": 0, "type": "electric_scooter", "name": "6803e6cb6bcbd505c841320b7f57b2d0", "fusion_lat": 0.0, "rental_uris": {"android": "https://dc.lft.to/lastmile_qr_scan", "ios": "https://dc.lft.to/lastmile_qr_scan"}, "bike_id": "6803e6cb6bcbd505c841320b7f57b2d0", "is_reserved": 0}, {"lat": 38.914388333333335, "fusion_lon": 0.0, "lon": -77.004612, "is_disabled": 0, "type": "electric_scooter", "name": "2de3661eecc1d3d52979b3aa1fa9ef62", "fusion_lat": 0.0, "rental_uris": {"android": "https://dc.lft.to/lastmile_qr_scan", "ios": "https://dc.lft.to/lastmile_qr_scan"}, "bike_id": "2de3661eecc1d3d52979b3aa1fa9ef62", "is_reserved": 0}, {"lat": 38.90254916666667, "fusion_lon": 0.0, "lon": -77.04525683333334, "is_disabled": 0, "type": "electric_scooter", "name": "32ad4f3e4d68ac73768543a82042e5cd", "fusion_lat": 0.0, "rental_uris": {"android": "https://dc.lft.to/lastmile_qr_scan", "ios": "https://dc.lft.to/lastmile_qr_scan"}, "bike_id": "32ad4f3e4d68ac73768543a82042e5cd", "is_reserved": 0}, {"lat": 38.9039745, "fusion_lon": 0.0, "lon": -77.00561233333333, "is_disabled": 0, "type": "electric_scooter", "name": "7b9f9acdc54047049326373a702a2be9", "fusion_lat": 0.0, "rental_uris": {"android": "https://dc.lft.to/lastmile_qr_scan", "ios": "https://dc.lft.to/lastmile_qr_scan"}, "bike_id": "7b9f9acdc54047049326373a702a2be9", "is_reserved": 0}, {"lat": 38.88361166666667, "fusion_lon": 0.0, "lon": -76.941545, "is_disabled": 0, "type": "electric_scooter", "name": "fb6531d771428e1769ba018d788a8868", "fusion_lat": 0.0, "rental_uris": {"android": "https://dc.lft.to/lastmile_qr_scan", "ios": "https://dc.lft.to/lastmile_qr_scan"}, "bike_id": "fb6531d771428e1769ba018d788a8868", "is_reserved": 0}, {"lat": 38.92214333333333, "fusion_lon": 0.0, "lon": -77.04335733333333, "is_disabled": 0, "type": "electric_scooter", "name": "e766be4637c9656e452bd1196a112abe", "fusion_lat": 0.0, "rental_uris": {"android": "https://dc.lft.to/lastmile_qr_scan", "ios": "https://dc.lft.to/lastmile_qr_scan"}, "bike_id": "e766be4637c9656e452bd1196a112abe", "is_reserved": 0}, {"lat": 38.893873, "fusion_lon": 0.0, "lon": -77.02250666666667, "is_disabled": 0, "type": "electric_scooter", "name": "8587457bf93a82cc8fc3545e78a48173", "fusion_lat": 0.0, "rental_uris": {"android": "https://dc.lft.to/lastmile_qr_scan", "ios": "https://dc.lft.to/lastmile_qr_scan"}, "bike_id": "8587457bf93a82cc8fc3545e78a48173", "is_reserved": 0}, {"lat": 38.911873666666665, "fusion_lon": 0.0, "lon": -77.0351815, "is_disabled": 0, "type": "electric_scooter", "name": "a2ad7e58aa0ed72061560a8c082dfd96", "fusion_lat": 0.0, "rental_uris": {"android": "https://dc.lft.to/lastmile_qr_scan", "ios": "https://dc.lft.to/lastmile_qr_scan"}, "bike_id": "a2ad7e58aa0ed72061560a8c082dfd96", "is_reserved": 0}, {"lat": 38.849931166666664, "fusion_lon": 0.0, "lon": -76.98347633333333, "is_disabled": 0, "type": "electric_scooter", "name": "f340994063929e248dcaaa520ecb10b2", "fusion_lat": 0.0, "rental_uris": {"android": "https://dc.lft.to/lastmile_qr_scan", "ios": "https://dc.lft.to/lastmile_qr_scan"}, "bike_id": "f340994063929e248dcaaa520ecb10b2", "is_reserved": 0}, {"lat": 38.907000833333335, "fusion_lon": 0.0, "lon": -77.07154016666667, "is_disabled": 0, "type": "electric_scooter", "name": "333b005583edf9e06f27254b8f4725a9", "fusion_lat": 0.0, "rental_uris": {"android": "https://dc.lft.to/lastmile_qr_scan", "ios": "https://dc.lft.to/lastmile_qr_scan"}, "bike_id": "333b005583edf9e06f27254b8f4725a9", "is_reserved": 0}, {"lat": 38.9087205, "fusion_lon": 0.0, "lon": -76.99861833333334, "is_disabled": 0, "type": "electric_scooter", "name": "712379b2bf7282b7d2a59a9f4d868d56", "fusion_lat": 0.0, "rental_uris": {"android": "https://dc.lft.to/lastmile_qr_scan", "ios": "https://dc.lft.to/lastmile_qr_scan"}, "bike_id": "712379b2bf7282b7d2a59a9f4d868d56", "is_reserved": 0}, {"lat": 38.90588983333333, "fusion_lon": 0.0, "lon": -77.022009, "is_disabled": 0, "type": "electric_scooter", "name": "362604cfeef5b576390da5af34e9ce6f", "fusion_lat": 0.0, "rental_uris": {"android": "https://dc.lft.to/lastmile_qr_scan", "ios": "https://dc.lft.to/lastmile_qr_scan"}, "bike_id": "362604cfeef5b576390da5af34e9ce6f", "is_reserved": 0}, {"lat": 38.901770166666665, "fusion_lon": 0.0, "lon": -76.92865166666667, "is_disabled": 0, "type": "electric_scooter", "name": "4348b8564dd1435caf2eef23a65a7567", "fusion_lat": 0.0, "rental_uris": {"android": "https://dc.lft.to/lastmile_qr_scan", "ios": "https://dc.lft.to/lastmile_qr_scan"}, "bike_id": "4348b8564dd1435caf2eef23a65a7567", "is_reserved": 0}, {"lat": 38.902488, "fusion_lon": 0.0, "lon": -77.0390325, "is_disabled": 0, "type": "electric_scooter", "name": "064f724e28fe4049a48527cff99460b3", "fusion_lat": 0.0, "rental_uris": {"android": "https://dc.lft.to/lastmile_qr_scan", "ios": "https://dc.lft.to/lastmile_qr_scan"}, "bike_id": "064f724e28fe4049a48527cff99460b3", "is_reserved": 0}, {"lat": 38.94075933333333, "fusion_lon": 0.0, "lon": -77.02547733333333, "is_disabled": 0, "type": "electric_scooter", "name": "e1c9a3ad13ef8c12d99106ff4692aa8e", "fusion_lat": 0.0, "rental_uris": {"android": "https://dc.lft.to/lastmile_qr_scan", "ios": "https://dc.lft.to/lastmile_qr_scan"}, "bike_id": "e1c9a3ad13ef8c12d99106ff4692aa8e", "is_reserved": 0}, {"lat": 38.905557, "fusion_lon": 0.0, "lon": -77.04716683333334, "is_disabled": 0, "type": "electric_scooter", "name": "96622efc26951f87db46b98f38e7d9c5", "fusion_lat": 0.0, "rental_uris": {"android": "https://dc.lft.to/lastmile_qr_scan", "ios": "https://dc.lft.to/lastmile_qr_scan"}, "bike_id": "96622efc26951f87db46b98f38e7d9c5", "is_reserved": 0}, {"lat": 38.92284383333333, "fusion_lon": 0.0, "lon": -77.07288933333334, "is_disabled": 0, "type": "electric_scooter", "name": "1eb488558aae35ad0099fefec757aaa0", "fusion_lat": 0.0, "rental_uris": {"android": "https://dc.lft.to/lastmile_qr_scan", "ios": "https://dc.lft.to/lastmile_qr_scan"}, "bike_id": "1eb488558aae35ad0099fefec757aaa0", "is_reserved": 0}, {"lat": 38.91480583333333, "fusion_lon": 0.0, "lon": -77.02172733333333, "is_disabled": 0, "type": "electric_scooter", "name": "d774bded8df62abe624c17da6eaff440", "fusion_lat": 0.0, "rental_uris": {"android": "https://dc.lft.to/lastmile_qr_scan", "ios": "https://dc.lft.to/lastmile_qr_scan"}, "bike_id": "d774bded8df62abe624c17da6eaff440", "is_reserved": 0}, {"lat": 38.892171166666664, "fusion_lon": 0.0, "lon": -77.0226115, "is_disabled": 0, "type": "electric_scooter", "name": "0f136bf57386a0596bb834b4b5ad0534", "fusion_lat": 0.0, "rental_uris": {"android": "https://dc.lft.to/lastmile_qr_scan", "ios": "https://dc.lft.to/lastmile_qr_scan"}, "bike_id": "0f136bf57386a0596bb834b4b5ad0534", "is_reserved": 0}, {"lat": 38.908896, "fusion_lon": 0.0, "lon": -76.98236483333334, "is_disabled": 0, "type": "electric_scooter", "name": "725d421c4d519eb1e10976e76bd735bd", "fusion_lat": 0.0, "rental_uris": {"android": "https://dc.lft.to/lastmile_qr_scan", "ios": "https://dc.lft.to/lastmile_qr_scan"}, "bike_id": "725d421c4d519eb1e10976e76bd735bd", "is_reserved": 0}, {"lat": 38.86337266666666, "fusion_lon": 0.0, "lon": -76.98271783333334, "is_disabled": 0, "type": "electric_scooter", "name": "15e2ffd77b1305b8c104b682944819d3", "fusion_lat": 0.0, "rental_uris": {"android": "https://dc.lft.to/lastmile_qr_scan", "ios": "https://dc.lft.to/lastmile_qr_scan"}, "bike_id": "15e2ffd77b1305b8c104b682944819d3", "is_reserved": 0}, {"lat": 38.84314283333333, "fusion_lon": 0.0, "lon": -76.99934133333333, "is_disabled": 0, "type": "electric_scooter", "name": "1661234e7a18a7cd4515a777e2760d52", "fusion_lat": 0.0, "rental_uris": {"android": "https://dc.lft.to/lastmile_qr_scan", "ios": "https://dc.lft.to/lastmile_qr_scan"}, "bike_id": "1661234e7a18a7cd4515a777e2760d52", "is_reserved": 0}, {"lat": 38.93119016666667, "fusion_lon": 0.0, "lon": -77.03812366666666, "is_disabled": 0, "type": "electric_scooter", "name": "011af4a9a16cc5fc99789450e49b16a5", "fusion_lat": 0.0, "rental_uris": {"android": "https://dc.lft.to/lastmile_qr_scan", "ios": "https://dc.lft.to/lastmile_qr_scan"}, "bike_id": "011af4a9a16cc5fc99789450e49b16a5", "is_reserved": 0}, {"lat": 38.910418166666666, "fusion_lon": 0.0, "lon": -77.04340083333334, "is_disabled": 0, "type": "electric_scooter", "name": "0756874230a5054a49edac3ea139af8e", "fusion_lat": 0.0, "rental_uris": {"android": "https://dc.lft.to/lastmile_qr_scan", "ios": "https://dc.lft.to/lastmile_qr_scan"}, "bike_id": "0756874230a5054a49edac3ea139af8e", "is_reserved": 0}, {"lat": 38.8669815, "fusion_lon": 0.0, "lon": -76.98709083333334, "is_disabled": 0, "type": "electric_scooter", "name": "4a6ca99131b2828445715fc42a87c974", "fusion_lat": 0.0, "rental_uris": {"android": "https://dc.lft.to/lastmile_qr_scan", "ios": "https://dc.lft.to/lastmile_qr_scan"}, "bike_id": "4a6ca99131b2828445715fc42a87c974", "is_reserved": 0}, {"lat": 38.88411116666666, "fusion_lon": 0.0, "lon": -77.00790666666667, "is_disabled": 0, "type": "electric_scooter", "name": "05a090a39f310b03f2ab1451f1df46f3", "fusion_lat": 0.0, "rental_uris": {"android": "https://dc.lft.to/lastmile_qr_scan", "ios": "https://dc.lft.to/lastmile_qr_scan"}, "bike_id": "05a090a39f310b03f2ab1451f1df46f3", "is_reserved": 0}, {"lat": 38.923943333333334, "fusion_lon": 0.0, "lon": -77.035405, "is_disabled": 0, "type": "electric_scooter", "name": "419d615cb9312de16ec68b8c6853a5a1", "fusion_lat": 0.0, "rental_uris": {"android": "https://dc.lft.to/lastmile_qr_scan", "ios": "https://dc.lft.to/lastmile_qr_scan"}, "bike_id": "419d615cb9312de16ec68b8c6853a5a1", "is_reserved": 0}, {"lat": 38.88775033333334, "fusion_lon": 0.0, "lon": -76.95537566666667, "is_disabled": 0, "type": "electric_scooter", "name": "824250a2f436cc46c4062b161112cb4a", "fusion_lat": 0.0, "rental_uris": {"android": "https://dc.lft.to/lastmile_qr_scan", "ios": "https://dc.lft.to/lastmile_qr_scan"}, "bike_id": "824250a2f436cc46c4062b161112cb4a", "is_reserved": 0}, {"lat": 38.89225783333333, "fusion_lon": 0.0, "lon": -77.04337, "is_disabled": 0, "type": "electric_scooter", "name": "0328726c0465ab723fb81cc3997ef4f0", "fusion_lat": 0.0, "rental_uris": {"android": "https://dc.lft.to/lastmile_qr_scan", "ios": "https://dc.lft.to/lastmile_qr_scan"}, "bike_id": "0328726c0465ab723fb81cc3997ef4f0", "is_reserved": 0}, {"lat": 38.935759833333336, "fusion_lon": 0.0, "lon": -77.02123833333333, "is_disabled": 0, "type": "electric_scooter", "name": "7a25e1f0d024c30c0735e4c5e51f7d04", "fusion_lat": 0.0, "rental_uris": {"android": "https://dc.lft.to/lastmile_qr_scan", "ios": "https://dc.lft.to/lastmile_qr_scan"}, "bike_id": "7a25e1f0d024c30c0735e4c5e51f7d04", "is_reserved": 0}, {"lat": 38.930715, "fusion_lon": 0.0, "lon": -77.03477533333333, "is_disabled": 0, "type": "electric_scooter", "name": "41f968b661815959b920c24030eeeca1", "fusion_lat": 0.0, "rental_uris": {"android": "https://dc.lft.to/lastmile_qr_scan", "ios": "https://dc.lft.to/lastmile_qr_scan"}, "bike_id": "41f968b661815959b920c24030eeeca1", "is_reserved": 0}, {"lat": 38.870411, "fusion_lon": 0.0, "lon": -77.00968983333334, "is_disabled": 0, "type": "electric_scooter", "name": "76857c8061652da780beb3dcd672fdd5", "fusion_lat": 0.0, "rental_uris": {"android": "https://dc.lft.to/lastmile_qr_scan", "ios": "https://dc.lft.to/lastmile_qr_scan"}, "bike_id": "76857c8061652da780beb3dcd672fdd5", "is_reserved": 0}, {"lat": 38.92671133333333, "fusion_lon": 0.0, "lon": -77.01472316666667, "is_disabled": 0, "type": "electric_scooter", "name": "2f034d7a5bacc76317d031706484cbad", "fusion_lat": 0.0, "rental_uris": {"android": "https://dc.lft.to/lastmile_qr_scan", "ios": "https://dc.lft.to/lastmile_qr_scan"}, "bike_id": "2f034d7a5bacc76317d031706484cbad", "is_reserved": 0}, {"lat": 38.881855333333334, "fusion_lon": 0.0, "lon": -77.11446933333333, "is_disabled": 0, "type": "electric_bike", "name": "ef2e90935cb87051260ab7b34d90ed2a", "fusion_lat": 0.0, "rental_uris": {"android": "https://dc.lft.to/lastmile_qr_scan", "ios": "https://dc.lft.to/lastmile_qr_scan"}, "bike_id": "ef2e90935cb87051260ab7b34d90ed2a", "is_reserved": 0}, {"lat": 38.887442166666666, "fusion_lon": 0.0, "lon": -77.0273675, "is_disabled": 0, "type": "electric_scooter", "name": "c4ebe08732a89dcca9db8b2aa08eb4fa", "fusion_lat": 0.0, "rental_uris": {"android": "https://dc.lft.to/lastmile_qr_scan", "ios": "https://dc.lft.to/lastmile_qr_scan"}, "bike_id": "c4ebe08732a89dcca9db8b2aa08eb4fa", "is_reserved": 0}, {"lat": 38.918615, "fusion_lon": 0.0, "lon": -77.04197983333333, "is_disabled": 0, "type": "electric_scooter", "name": "7d6c2dd94745808686d454e8ff94a6bd", "fusion_lat": 0.0, "rental_uris": {"android": "https://dc.lft.to/lastmile_qr_scan", "ios": "https://dc.lft.to/lastmile_qr_scan"}, "bike_id": "7d6c2dd94745808686d454e8ff94a6bd", "is_reserved": 0}, {"lat": 38.939575, "fusion_lon": 0.0, "lon": -77.0724725, "is_disabled": 0, "type": "electric_scooter", "name": "a0bc87634376f6c7c724244e64d729a0", "fusion_lat": 0.0, "rental_uris": {"android": "https://dc.lft.to/lastmile_qr_scan", "ios": "https://dc.lft.to/lastmile_qr_scan"}, "bike_id": "a0bc87634376f6c7c724244e64d729a0", "is_reserved": 0}, {"lat": 38.91264666666667, "fusion_lon": 0.0, "lon": -77.01845066666667, "is_disabled": 0, "type": "electric_scooter", "name": "93c5c607ffb0dff88ae8e57e828c2990", "fusion_lat": 0.0, "rental_uris": {"android": "https://dc.lft.to/lastmile_qr_scan", "ios": "https://dc.lft.to/lastmile_qr_scan"}, "bike_id": "93c5c607ffb0dff88ae8e57e828c2990", "is_reserved": 0}, {"lat": 38.93917033333334, "fusion_lon": 0.0, "lon": -77.02472133333333, "is_disabled": 0, "type": "electric_scooter", "name": "b92e042952abfe310368d80ad1400dd4", "fusion_lat": 0.0, "rental_uris": {"android": "https://dc.lft.to/lastmile_qr_scan", "ios": "https://dc.lft.to/lastmile_qr_scan"}, "bike_id": "b92e042952abfe310368d80ad1400dd4", "is_reserved": 0}, {"lat": 38.86505533333333, "fusion_lon": 0.0, "lon": -76.9899765, "is_disabled": 0, "type": "electric_scooter", "name": "fb391016a3799f4be7d89e6a0e7fbc96", "fusion_lat": 0.0, "rental_uris": {"android": "https://dc.lft.to/lastmile_qr_scan", "ios": "https://dc.lft.to/lastmile_qr_scan"}, "bike_id": "fb391016a3799f4be7d89e6a0e7fbc96", "is_reserved": 0}, {"lat": 38.9056325, "fusion_lon": 0.0, "lon": -77.04649133333334, "is_disabled": 0, "type": "electric_scooter", "name": "feabb6e074c10ed0a4a06f0d50a70f0a", "fusion_lat": 0.0, "rental_uris": {"android": "https://dc.lft.to/lastmile_qr_scan", "ios": "https://dc.lft.to/lastmile_qr_scan"}, "bike_id": "feabb6e074c10ed0a4a06f0d50a70f0a", "is_reserved": 0}, {"lat": 39.013710333333336, "fusion_lon": 0.0, "lon": -76.9213775, "is_disabled": 0, "type": "electric_bike", "name": "4c14525ea2ac2524d81a3d612d0c53a0", "fusion_lat": 0.0, "rental_uris": {"android": "https://dc.lft.to/lastmile_qr_scan", "ios": "https://dc.lft.to/lastmile_qr_scan"}, "bike_id": "4c14525ea2ac2524d81a3d612d0c53a0", "is_reserved": 0}, {"lat": 38.892208333333336, "fusion_lon": 0.0, "lon": -77.04379766666666, "is_disabled": 0, "type": "electric_scooter", "name": "a974ffd534df9a4e12a39ed2c77cde2c", "fusion_lat": 0.0, "rental_uris": {"android": "https://dc.lft.to/lastmile_qr_scan", "ios": "https://dc.lft.to/lastmile_qr_scan"}, "bike_id": "a974ffd534df9a4e12a39ed2c77cde2c", "is_reserved": 0}, {"lat": 38.86581666666667, "fusion_lon": 0.0, "lon": -77.04762483333333, "is_disabled": 0, "type": "electric_bike", "name": "0276351547daf566753575ab73804239", "fusion_lat": 0.0, "rental_uris": {"android": "https://dc.lft.to/lastmile_qr_scan", "ios": "https://dc.lft.to/lastmile_qr_scan"}, "bike_id": "0276351547daf566753575ab73804239", "is_reserved": 0}, {"lat": 38.919932333333335, "fusion_lon": 0.0, "lon": -77.0325195, "is_disabled": 0, "type": "electric_scooter", "name": "8e4048d2626b58060bcc3230f05b71a8", "fusion_lat": 0.0, "rental_uris": {"android": "https://dc.lft.to/lastmile_qr_scan", "ios": "https://dc.lft.to/lastmile_qr_scan"}, "bike_id": "8e4048d2626b58060bcc3230f05b71a8", "is_reserved": 0}, {"lat": 38.929171833333335, "fusion_lon": 0.0, "lon": -77.0374165, "is_disabled": 0, "type": "electric_scooter", "name": "6b4778a16e5a0bd7802dd27ff22467e7", "fusion_lat": 0.0, "rental_uris": {"android": "https://dc.lft.to/lastmile_qr_scan", "ios": "https://dc.lft.to/lastmile_qr_scan"}, "bike_id": "6b4778a16e5a0bd7802dd27ff22467e7", "is_reserved": 0}, {"lat": 38.8651195, "fusion_lon": 0.0, "lon": -76.9733365, "is_disabled": 0, "type": "electric_bike", "name": "ba3180d580aad8902e3926698dac45a9", "fusion_lat": 0.0, "rental_uris": {"android": "https://dc.lft.to/lastmile_qr_scan", "ios": "https://dc.lft.to/lastmile_qr_scan"}, "bike_id": "ba3180d580aad8902e3926698dac45a9", "is_reserved": 0}, {"lat": 38.942050333333334, "fusion_lon": 0.0, "lon": -77.025014, "is_disabled": 0, "type": "electric_scooter", "name": "910356a91d1724808d0b28a4e9e29d20", "fusion_lat": 0.0, "rental_uris": {"android": "https://dc.lft.to/lastmile_qr_scan", "ios": "https://dc.lft.to/lastmile_qr_scan"}, "bike_id": "910356a91d1724808d0b28a4e9e29d20", "is_reserved": 0}, {"lat": 38.9012295, "fusion_lon": 0.0, "lon": -77.0399365, "is_disabled": 0, "type": "electric_scooter", "name": "999fcd36ec79ee67092e4039ae0fa30f", "fusion_lat": 0.0, "rental_uris": {"android": "https://dc.lft.to/lastmile_qr_scan", "ios": "https://dc.lft.to/lastmile_qr_scan"}, "bike_id": "999fcd36ec79ee67092e4039ae0fa30f", "is_reserved": 0}, {"lat": 38.93859116666667, "fusion_lon": 0.0, "lon": -77.02654233333334, "is_disabled": 0, "type": "electric_scooter", "name": "854744e03714a30469357a65faa24ca5", "fusion_lat": 0.0, "rental_uris": {"android": "https://dc.lft.to/lastmile_qr_scan", "ios": "https://dc.lft.to/lastmile_qr_scan"}, "bike_id": "854744e03714a30469357a65faa24ca5", "is_reserved": 0}, {"lat": 38.92439433333333, "fusion_lon": 0.0, "lon": -77.0213835, "is_disabled": 0, "type": "electric_scooter", "name": "6dc8daa6d2eaed896301f09399504a3d", "fusion_lat": 0.0, "rental_uris": {"android": "https://dc.lft.to/lastmile_qr_scan", "ios": "https://dc.lft.to/lastmile_qr_scan"}, "bike_id": "6dc8daa6d2eaed896301f09399504a3d", "is_reserved": 0}, {"lat": 38.902633333333334, "fusion_lon": 0.0, "lon": -77.05327583333333, "is_disabled": 0, "type": "electric_scooter", "name": "ba9fb6d642049bef22ac43890ba2f3af", "fusion_lat": 0.0, "rental_uris": {"android": "https://dc.lft.to/lastmile_qr_scan", "ios": "https://dc.lft.to/lastmile_qr_scan"}, "bike_id": "ba9fb6d642049bef22ac43890ba2f3af", "is_reserved": 0}, {"lat": 38.965914166666664, "fusion_lon": 0.0, "lon": -77.06806033333334, "is_disabled": 0, "type": "electric_scooter", "name": "bad293afb0ce04b7dfb08ba3b548c8ba", "fusion_lat": 0.0, "rental_uris": {"android": "https://dc.lft.to/lastmile_qr_scan", "ios": "https://dc.lft.to/lastmile_qr_scan"}, "bike_id": "bad293afb0ce04b7dfb08ba3b548c8ba", "is_reserved": 0}, {"lat": 38.9225355, "fusion_lon": 0.0, "lon": -77.0429375, "is_disabled": 0, "type": "electric_scooter", "name": "b7a422101534fcda8d0f15e63ad6bf12", "fusion_lat": 0.0, "rental_uris": {"android": "https://dc.lft.to/lastmile_qr_scan", "ios": "https://dc.lft.to/lastmile_qr_scan"}, "bike_id": "b7a422101534fcda8d0f15e63ad6bf12", "is_reserved": 0}, {"lat": 38.923406666666665, "fusion_lon": 0.0, "lon": -77.03489866666666, "is_disabled": 0, "type": "electric_scooter", "name": "1239efc7ec574b56689f983bdcedcf37", "fusion_lat": 0.0, "rental_uris": {"android": "https://dc.lft.to/lastmile_qr_scan", "ios": "https://dc.lft.to/lastmile_qr_scan"}, "bike_id": "1239efc7ec574b56689f983bdcedcf37", "is_reserved": 0}, {"lat": 38.8576855, "fusion_lon": 0.0, "lon": -76.98766733333333, "is_disabled": 0, "type": "electric_bike", "name": "d3d4a9c05b78b4693e722f3083d7df56", "fusion_lat": 0.0, "rental_uris": {"android": "https://dc.lft.to/lastmile_qr_scan", "ios": "https://dc.lft.to/lastmile_qr_scan"}, "bike_id": "d3d4a9c05b78b4693e722f3083d7df56", "is_reserved": 0}, {"lat": 38.90444516666667, "fusion_lon": 0.0, "lon": -77.02880616666667, "is_disabled": 0, "type": "electric_scooter", "name": "e4c6dcab901cec471da6807a18f33afd", "fusion_lat": 0.0, "rental_uris": {"android": "https://dc.lft.to/lastmile_qr_scan", "ios": "https://dc.lft.to/lastmile_qr_scan"}, "bike_id": "e4c6dcab901cec471da6807a18f33afd", "is_reserved": 0}, {"lat": 38.88738716666667, "fusion_lon": 0.0, "lon": -77.02387483333334, "is_disabled": 0, "type": "electric_scooter", "name": "101f0d6764733c5f8b08ca8140728192", "fusion_lat": 0.0, "rental_uris": {"android": "https://dc.lft.to/lastmile_qr_scan", "ios": "https://dc.lft.to/lastmile_qr_scan"}, "bike_id": "101f0d6764733c5f8b08ca8140728192", "is_reserved": 0}, {"lat": 38.926358666666665, "fusion_lon": 0.0, "lon": -77.03468416666666, "is_disabled": 0, "type": "electric_scooter", "name": "7c145116d8b4aee5800608b9c7510c91", "fusion_lat": 0.0, "rental_uris": {"android": "https://dc.lft.to/lastmile_qr_scan", "ios": "https://dc.lft.to/lastmile_qr_scan"}, "bike_id": "7c145116d8b4aee5800608b9c7510c91", "is_reserved": 0}, {"lat": 38.9387795, "fusion_lon": 0.0, "lon": -77.02375633333334, "is_disabled": 0, "type": "electric_scooter", "name": "efc1056b4e1dc0f9b4a4c3081bc6d808", "fusion_lat": 0.0, "rental_uris": {"android": "https://dc.lft.to/lastmile_qr_scan", "ios": "https://dc.lft.to/lastmile_qr_scan"}, "bike_id": "efc1056b4e1dc0f9b4a4c3081bc6d808", "is_reserved": 0}, {"lat": 38.927905833333334, "fusion_lon": 0.0, "lon": -77.021241, "is_disabled": 0, "type": "electric_scooter", "name": "3fde8186fe887015a5bce1e1d17f5a66", "fusion_lat": 0.0, "rental_uris": {"android": "https://dc.lft.to/lastmile_qr_scan", "ios": "https://dc.lft.to/lastmile_qr_scan"}, "bike_id": "3fde8186fe887015a5bce1e1d17f5a66", "is_reserved": 0}, {"lat": 38.918868833333335, "fusion_lon": 0.0, "lon": -77.04824533333333, "is_disabled": 0, "type": "electric_scooter", "name": "057f600ed0d52c24b583ed1abd877d90", "fusion_lat": 0.0, "rental_uris": {"android": "https://dc.lft.to/lastmile_qr_scan", "ios": "https://dc.lft.to/lastmile_qr_scan"}, "bike_id": "057f600ed0d52c24b583ed1abd877d90", "is_reserved": 0}, {"lat": 38.90627033333333, "fusion_lon": 0.0, "lon": -77.00597466666666, "is_disabled": 0, "type": "electric_scooter", "name": "3c58f1dd8fc6ab754ea8e9e007740765", "fusion_lat": 0.0, "rental_uris": {"android": "https://dc.lft.to/lastmile_qr_scan", "ios": "https://dc.lft.to/lastmile_qr_scan"}, "bike_id": "3c58f1dd8fc6ab754ea8e9e007740765", "is_reserved": 0}, {"lat": 38.854387833333334, "fusion_lon": 0.0, "lon": -77.0832635, "is_disabled": 0, "type": "electric_bike", "name": "98d1f9d57cb32e0b94ede7e8ea343671", "fusion_lat": 0.0, "rental_uris": {"android": "https://dc.lft.to/lastmile_qr_scan", "ios": "https://dc.lft.to/lastmile_qr_scan"}, "bike_id": "98d1f9d57cb32e0b94ede7e8ea343671", "is_reserved": 0}, {"lat": 38.921653166666665, "fusion_lon": 0.0, "lon": -77.03380433333334, "is_disabled": 0, "type": "electric_scooter", "name": "6e9c1831f561ec601eb8ca0d4c56679a", "fusion_lat": 0.0, "rental_uris": {"android": "https://dc.lft.to/lastmile_qr_scan", "ios": "https://dc.lft.to/lastmile_qr_scan"}, "bike_id": "6e9c1831f561ec601eb8ca0d4c56679a", "is_reserved": 0}, {"lat": 38.8753725, "fusion_lon": 0.0, "lon": -77.0060525, "is_disabled": 0, "type": "electric_scooter", "name": "78a0ea2e8b1cec428bce12ea62b5d675", "fusion_lat": 0.0, "rental_uris": {"android": "https://dc.lft.to/lastmile_qr_scan", "ios": "https://dc.lft.to/lastmile_qr_scan"}, "bike_id": "78a0ea2e8b1cec428bce12ea62b5d675", "is_reserved": 0}, {"lat": 38.9001485, "fusion_lon": 0.0, "lon": -76.98697266666667, "is_disabled": 0, "type": "electric_scooter", "name": "d641c0fc02dba1a385cbba8300300803", "fusion_lat": 0.0, "rental_uris": {"android": "https://dc.lft.to/lastmile_qr_scan", "ios": "https://dc.lft.to/lastmile_qr_scan"}, "bike_id": "d641c0fc02dba1a385cbba8300300803", "is_reserved": 0}, {"lat": 38.937087166666664, "fusion_lon": 0.0, "lon": -77.06105166666667, "is_disabled": 0, "type": "electric_scooter", "name": "5d9bb14209d462ecb1f66c494db6f55a", "fusion_lat": 0.0, "rental_uris": {"android": "https://dc.lft.to/lastmile_qr_scan", "ios": "https://dc.lft.to/lastmile_qr_scan"}, "bike_id": "5d9bb14209d462ecb1f66c494db6f55a", "is_reserved": 0}, {"lat": 38.90256016666667, "fusion_lon": 0.0, "lon": -77.033469, "is_disabled": 0, "type": "electric_scooter", "name": "5c97a9480d67fe1120fcc98b86a2ce6d", "fusion_lat": 0.0, "rental_uris": {"android": "https://dc.lft.to/lastmile_qr_scan", "ios": "https://dc.lft.to/lastmile_qr_scan"}, "bike_id": "5c97a9480d67fe1120fcc98b86a2ce6d", "is_reserved": 0}, {"lat": 38.86692983333333, "fusion_lon": 0.0, "lon": -76.98607466666667, "is_disabled": 0, "type": "electric_scooter", "name": "c5776aca48b941b3be928c74f63383d8", "fusion_lat": 0.0, "rental_uris": {"android": "https://dc.lft.to/lastmile_qr_scan", "ios": "https://dc.lft.to/lastmile_qr_scan"}, "bike_id": "c5776aca48b941b3be928c74f63383d8", "is_reserved": 0}, {"lat": 38.897372, "fusion_lon": 0.0, "lon": -77.01310516666666, "is_disabled": 0, "type": "electric_scooter", "name": "59fbfb2ff9e949327d03576c92035ea3", "fusion_lat": 0.0, "rental_uris": {"android": "https://dc.lft.to/lastmile_qr_scan", "ios": "https://dc.lft.to/lastmile_qr_scan"}, "bike_id": "59fbfb2ff9e949327d03576c92035ea3", "is_reserved": 0}, {"lat": 38.92739616666667, "fusion_lon": 0.0, "lon": -77.03245116666666, "is_disabled": 0, "type": "electric_scooter", "name": "71bb86902833149dbe22af90e31c0d37", "fusion_lat": 0.0, "rental_uris": {"android": "https://dc.lft.to/lastmile_qr_scan", "ios": "https://dc.lft.to/lastmile_qr_scan"}, "bike_id": "71bb86902833149dbe22af90e31c0d37", "is_reserved": 0}, {"lat": 38.92746566666667, "fusion_lon": 0.0, "lon": -77.0253535, "is_disabled": 0, "type": "electric_scooter", "name": "57d3f7c83710266532a0c6d69f174db2", "fusion_lat": 0.0, "rental_uris": {"android": "https://dc.lft.to/lastmile_qr_scan", "ios": "https://dc.lft.to/lastmile_qr_scan"}, "bike_id": "57d3f7c83710266532a0c6d69f174db2", "is_reserved": 0}, {"lat": 38.8883045, "fusion_lon": 0.0, "lon": -76.9937105, "is_disabled": 0, "type": "electric_scooter", "name": "f3e133199301fb187741b20a31cd2160", "fusion_lat": 0.0, "rental_uris": {"android": "https://dc.lft.to/lastmile_qr_scan", "ios": "https://dc.lft.to/lastmile_qr_scan"}, "bike_id": "f3e133199301fb187741b20a31cd2160", "is_reserved": 0}, {"lat": 38.962232666666665, "fusion_lon": 0.0, "lon": -77.02633783333333, "is_disabled": 0, "type": "electric_bike", "name": "2e53a40005a85ed4505c1e23b47d70b6", "fusion_lat": 0.0, "rental_uris": {"android": "https://dc.lft.to/lastmile_qr_scan", "ios": "https://dc.lft.to/lastmile_qr_scan"}, "bike_id": "2e53a40005a85ed4505c1e23b47d70b6", "is_reserved": 0}, {"lat": 38.88711083333333, "fusion_lon": 0.0, "lon": -77.021859, "is_disabled": 0, "type": "electric_scooter", "name": "3c2927e0e6d2748fe2b76317dcd0701c", "fusion_lat": 0.0, "rental_uris": {"android": "https://dc.lft.to/lastmile_qr_scan", "ios": "https://dc.lft.to/lastmile_qr_scan"}, "bike_id": "3c2927e0e6d2748fe2b76317dcd0701c", "is_reserved": 0}, {"lat": 38.8991215, "fusion_lon": 0.0, "lon": -76.93374466666667, "is_disabled": 0, "type": "electric_scooter", "name": "377b93e60ee62d931ecf5f1229f820de", "fusion_lat": 0.0, "rental_uris": {"android": "https://dc.lft.to/lastmile_qr_scan", "ios": "https://dc.lft.to/lastmile_qr_scan"}, "bike_id": "377b93e60ee62d931ecf5f1229f820de", "is_reserved": 0}, {"lat": 38.9466805, "fusion_lon": 0.0, "lon": -76.98307166666666, "is_disabled": 0, "type": "electric_bike", "name": "1d773b10c532b67850290a589a2d65a0", "fusion_lat": 0.0, "rental_uris": {"android": "https://dc.lft.to/lastmile_qr_scan", "ios": "https://dc.lft.to/lastmile_qr_scan"}, "bike_id": "1d773b10c532b67850290a589a2d65a0", "is_reserved": 0}, {"lat": 38.9022145, "fusion_lon": 0.0, "lon": -77.04326066666667, "is_disabled": 0, "type": "electric_scooter", "name": "528b9a534c4d3188a6fe1401aebd694c", "fusion_lat": 0.0, "rental_uris": {"android": "https://dc.lft.to/lastmile_qr_scan", "ios": "https://dc.lft.to/lastmile_qr_scan"}, "bike_id": "528b9a534c4d3188a6fe1401aebd694c", "is_reserved": 0}, {"lat": 38.8936405, "fusion_lon": 0.0, "lon": -76.94986133333333, "is_disabled": 0, "type": "electric_scooter", "name": "06a857af0e73b0d2e69c6bf36f135cad", "fusion_lat": 0.0, "rental_uris": {"android": "https://dc.lft.to/lastmile_qr_scan", "ios": "https://dc.lft.to/lastmile_qr_scan"}, "bike_id": "06a857af0e73b0d2e69c6bf36f135cad", "is_reserved": 0}, {"lat": 38.85210216666667, "fusion_lon": 0.0, "lon": -77.10133016666667, "is_disabled": 0, "type": "electric_bike", "name": "82b4b0ea648f54128fa6586d4be8e5fb", "fusion_lat": 0.0, "rental_uris": {"android": "https://dc.lft.to/lastmile_qr_scan", "ios": "https://dc.lft.to/lastmile_qr_scan"}, "bike_id": "82b4b0ea648f54128fa6586d4be8e5fb", "is_reserved": 0}, {"lat": 38.9214855, "fusion_lon": 0.0, "lon": -77.03502616666667, "is_disabled": 0, "type": "electric_scooter", "name": "def5340c1fb1fab59b34b6ec5eeb023d", "fusion_lat": 0.0, "rental_uris": {"android": "https://dc.lft.to/lastmile_qr_scan", "ios": "https://dc.lft.to/lastmile_qr_scan"}, "bike_id": "def5340c1fb1fab59b34b6ec5eeb023d", "is_reserved": 0}, {"lat": 38.917795166666664, "fusion_lon": 0.0, "lon": -77.042804, "is_disabled": 0, "type": "electric_scooter", "name": "146ff5816628604519346997d547ec94", "fusion_lat": 0.0, "rental_uris": {"android": "https://dc.lft.to/lastmile_qr_scan", "ios": "https://dc.lft.to/lastmile_qr_scan"}, "bike_id": "146ff5816628604519346997d547ec94", "is_reserved": 0}, {"lat": 38.9562195, "fusion_lon": 0.0, "lon": -77.02463233333333, "is_disabled": 0, "type": "electric_scooter", "name": "692f49aa5a1f2753c7250f6795ca8761", "fusion_lat": 0.0, "rental_uris": {"android": "https://dc.lft.to/lastmile_qr_scan", "ios": "https://dc.lft.to/lastmile_qr_scan"}, "bike_id": "692f49aa5a1f2753c7250f6795ca8761", "is_reserved": 0}, {"lat": 38.897913, "fusion_lon": 0.0, "lon": -77.04488, "is_disabled": 0, "type": "electric_scooter", "name": "fb36028319a73cd109fd6524da6ca04e", "fusion_lat": 0.0, "rental_uris": {"android": "https://dc.lft.to/lastmile_qr_scan", "ios": "https://dc.lft.to/lastmile_qr_scan"}, "bike_id": "fb36028319a73cd109fd6524da6ca04e", "is_reserved": 0}, {"lat": 38.93567516666667, "fusion_lon": 0.0, "lon": -77.02121983333333, "is_disabled": 0, "type": "electric_scooter", "name": "7266dba75e0501e2562bc11f0df6e12b", "fusion_lat": 0.0, "rental_uris": {"android": "https://dc.lft.to/lastmile_qr_scan", "ios": "https://dc.lft.to/lastmile_qr_scan"}, "bike_id": "7266dba75e0501e2562bc11f0df6e12b", "is_reserved": 0}, {"lat": 38.90281, "fusion_lon": 0.0, "lon": -77.0363955, "is_disabled": 0, "type": "electric_scooter", "name": "545ded5307dab12ad104e1af34aa34c9", "fusion_lat": 0.0, "rental_uris": {"android": "https://dc.lft.to/lastmile_qr_scan", "ios": "https://dc.lft.to/lastmile_qr_scan"}, "bike_id": "545ded5307dab12ad104e1af34aa34c9", "is_reserved": 0}, {"lat": 38.871523833333335, "fusion_lon": 0.0, "lon": -76.9773415, "is_disabled": 0, "type": "electric_scooter", "name": "8b0a540f9608425d43d1092813390c2b", "fusion_lat": 0.0, "rental_uris": {"android": "https://dc.lft.to/lastmile_qr_scan", "ios": "https://dc.lft.to/lastmile_qr_scan"}, "bike_id": "8b0a540f9608425d43d1092813390c2b", "is_reserved": 0}, {"lat": 38.923496666666665, "fusion_lon": 0.0, "lon": -77.03536066666666, "is_disabled": 0, "type": "electric_scooter", "name": "39aa2cf69b4f6e8fd8ce5e395ca51b44", "fusion_lat": 0.0, "rental_uris": {"android": "https://dc.lft.to/lastmile_qr_scan", "ios": "https://dc.lft.to/lastmile_qr_scan"}, "bike_id": "39aa2cf69b4f6e8fd8ce5e395ca51b44", "is_reserved": 0}, {"lat": 38.907691166666666, "fusion_lon": 0.0, "lon": -77.03495966666667, "is_disabled": 0, "type": "electric_scooter", "name": "75d0b2e3ab4eecf78541b5ccab5262aa", "fusion_lat": 0.0, "rental_uris": {"android": "https://dc.lft.to/lastmile_qr_scan", "ios": "https://dc.lft.to/lastmile_qr_scan"}, "bike_id": "75d0b2e3ab4eecf78541b5ccab5262aa", "is_reserved": 0}, {"lat": 38.91104833333333, "fusion_lon": 0.0, "lon": -77.03219166666666, "is_disabled": 0, "type": "electric_scooter", "name": "ae3b37a8ee9e755338b80af9922275e2", "fusion_lat": 0.0, "rental_uris": {"android": "https://dc.lft.to/lastmile_qr_scan", "ios": "https://dc.lft.to/lastmile_qr_scan"}, "bike_id": "ae3b37a8ee9e755338b80af9922275e2", "is_reserved": 0}, {"lat": 38.891711, "fusion_lon": 0.0, "lon": -76.91195833333333, "is_disabled": 0, "type": "electric_scooter", "name": "ee093226b3f66b14567493939d148681", "fusion_lat": 0.0, "rental_uris": {"android": "https://dc.lft.to/lastmile_qr_scan", "ios": "https://dc.lft.to/lastmile_qr_scan"}, "bike_id": "ee093226b3f66b14567493939d148681", "is_reserved": 0}, {"lat": 38.917699666666664, "fusion_lon": 0.0, "lon": -77.0231205, "is_disabled": 0, "type": "electric_scooter", "name": "66cff4bb45d78e8e39dcb472926658cd", "fusion_lat": 0.0, "rental_uris": {"android": "https://dc.lft.to/lastmile_qr_scan", "ios": "https://dc.lft.to/lastmile_qr_scan"}, "bike_id": "66cff4bb45d78e8e39dcb472926658cd", "is_reserved": 0}, {"lat": 38.92172883333333, "fusion_lon": 0.0, "lon": -77.021141, "is_disabled": 0, "type": "electric_scooter", "name": "c4bbabbe5e6e7413e210d4cba5202f5f", "fusion_lat": 0.0, "rental_uris": {"android": "https://dc.lft.to/lastmile_qr_scan", "ios": "https://dc.lft.to/lastmile_qr_scan"}, "bike_id": "c4bbabbe5e6e7413e210d4cba5202f5f", "is_reserved": 0}, {"lat": 38.924102500000004, "fusion_lon": 0.0, "lon": -77.02249466666666, "is_disabled": 0, "type": "electric_scooter", "name": "3d3aaaf1b1c5a19824a1f4b7632d90f0", "fusion_lat": 0.0, "rental_uris": {"android": "https://dc.lft.to/lastmile_qr_scan", "ios": "https://dc.lft.to/lastmile_qr_scan"}, "bike_id": "3d3aaaf1b1c5a19824a1f4b7632d90f0", "is_reserved": 0}, {"lat": 38.89145033333333, "fusion_lon": 0.0, "lon": -76.9838685, "is_disabled": 0, "type": "electric_scooter", "name": "b7f6471f83dba3117a55a1ec99327f40", "fusion_lat": 0.0, "rental_uris": {"android": "https://dc.lft.to/lastmile_qr_scan", "ios": "https://dc.lft.to/lastmile_qr_scan"}, "bike_id": "b7f6471f83dba3117a55a1ec99327f40", "is_reserved": 0}, {"lat": 38.892204666666665, "fusion_lon": 0.0, "lon": -77.03222866666667, "is_disabled": 0, "type": "electric_scooter", "name": "3812e9398c9630957ce88b7034674dad", "fusion_lat": 0.0, "rental_uris": {"android": "https://dc.lft.to/lastmile_qr_scan", "ios": "https://dc.lft.to/lastmile_qr_scan"}, "bike_id": "3812e9398c9630957ce88b7034674dad", "is_reserved": 0}, {"lat": 38.82787966666667, "fusion_lon": 0.0, "lon": -77.00923233333333, "is_disabled": 0, "type": "electric_bike", "name": "31fb89f300ec984a6eb5b0a233867277", "fusion_lat": 0.0, "rental_uris": {"android": "https://dc.lft.to/lastmile_qr_scan", "ios": "https://dc.lft.to/lastmile_qr_scan"}, "bike_id": "31fb89f300ec984a6eb5b0a233867277", "is_reserved": 0}, {"lat": 38.902749166666666, "fusion_lon": 0.0, "lon": -77.04632516666666, "is_disabled": 0, "type": "electric_scooter", "name": "8c075d4cbb8e6378d64337734c0fff5e", "fusion_lat": 0.0, "rental_uris": {"android": "https://dc.lft.to/lastmile_qr_scan", "ios": "https://dc.lft.to/lastmile_qr_scan"}, "bike_id": "8c075d4cbb8e6378d64337734c0fff5e", "is_reserved": 0}, {"lat": 38.92363366666667, "fusion_lon": 0.0, "lon": -77.05049083333333, "is_disabled": 0, "type": "electric_scooter", "name": "3d14c7fdde3e20645071cfa7cefb5736", "fusion_lat": 0.0, "rental_uris": {"android": "https://dc.lft.to/lastmile_qr_scan", "ios": "https://dc.lft.to/lastmile_qr_scan"}, "bike_id": "3d14c7fdde3e20645071cfa7cefb5736", "is_reserved": 0}, {"lat": 38.90505916666667, "fusion_lon": 0.0, "lon": -76.98487183333333, "is_disabled": 0, "type": "electric_scooter", "name": "8e18b9dccc8971f41ec3cb2c4678db73", "fusion_lat": 0.0, "rental_uris": {"android": "https://dc.lft.to/lastmile_qr_scan", "ios": "https://dc.lft.to/lastmile_qr_scan"}, "bike_id": "8e18b9dccc8971f41ec3cb2c4678db73", "is_reserved": 0}, {"lat": 38.894935, "fusion_lon": 0.0, "lon": -77.02734383333333, "is_disabled": 0, "type": "electric_scooter", "name": "7d1ec9a2637a323206a90b822dcd36f6", "fusion_lat": 0.0, "rental_uris": {"android": "https://dc.lft.to/lastmile_qr_scan", "ios": "https://dc.lft.to/lastmile_qr_scan"}, "bike_id": "7d1ec9a2637a323206a90b822dcd36f6", "is_reserved": 0}, {"lat": 38.901223333333334, "fusion_lon": 0.0, "lon": -77.03994716666666, "is_disabled": 0, "type": "electric_scooter", "name": "2e7103c24735501084c761c608b60661", "fusion_lat": 0.0, "rental_uris": {"android": "https://dc.lft.to/lastmile_qr_scan", "ios": "https://dc.lft.to/lastmile_qr_scan"}, "bike_id": "2e7103c24735501084c761c608b60661", "is_reserved": 0}, {"lat": 38.884948333333334, "fusion_lon": 0.0, "lon": -77.01594533333333, "is_disabled": 0, "type": "electric_scooter", "name": "cd56d5b000ce21423e4606ebdb833742", "fusion_lat": 0.0, "rental_uris": {"android": "https://dc.lft.to/lastmile_qr_scan", "ios": "https://dc.lft.to/lastmile_qr_scan"}, "bike_id": "cd56d5b000ce21423e4606ebdb833742", "is_reserved": 0}, {"lat": 38.892343, "fusion_lon": 0.0, "lon": -77.03012683333333, "is_disabled": 0, "type": "electric_scooter", "name": "c9afb77b7ef55038ca2c9fb64cf2c558", "fusion_lat": 0.0, "rental_uris": {"android": "https://dc.lft.to/lastmile_qr_scan", "ios": "https://dc.lft.to/lastmile_qr_scan"}, "bike_id": "c9afb77b7ef55038ca2c9fb64cf2c558", "is_reserved": 0}, {"lat": 38.9093875, "fusion_lon": 0.0, "lon": -77.03204816666667, "is_disabled": 0, "type": "electric_scooter", "name": "6622a77ffd2eb10a6b4b2d16c4d0f513", "fusion_lat": 0.0, "rental_uris": {"android": "https://dc.lft.to/lastmile_qr_scan", "ios": "https://dc.lft.to/lastmile_qr_scan"}, "bike_id": "6622a77ffd2eb10a6b4b2d16c4d0f513", "is_reserved": 0}, {"lat": 38.917597666666666, "fusion_lon": 0.0, "lon": -77.01914666666667, "is_disabled": 0, "type": "electric_scooter", "name": "cf8cbfffdd089cb89a8a7d6823649b3a", "fusion_lat": 0.0, "rental_uris": {"android": "https://dc.lft.to/lastmile_qr_scan", "ios": "https://dc.lft.to/lastmile_qr_scan"}, "bike_id": "cf8cbfffdd089cb89a8a7d6823649b3a", "is_reserved": 0}, {"lat": 38.90956333333333, "fusion_lon": 0.0, "lon": -77.034225, "is_disabled": 0, "type": "electric_scooter", "name": "81a67c19d436888c8c70c89af6cd78ff", "fusion_lat": 0.0, "rental_uris": {"android": "https://dc.lft.to/lastmile_qr_scan", "ios": "https://dc.lft.to/lastmile_qr_scan"}, "bike_id": "81a67c19d436888c8c70c89af6cd78ff", "is_reserved": 0}, {"lat": 38.922821666666664, "fusion_lon": 0.0, "lon": -77.04237683333334, "is_disabled": 0, "type": "electric_scooter", "name": "ba8baef2c71a0da2b8a835af0bc8a826", "fusion_lat": 0.0, "rental_uris": {"android": "https://dc.lft.to/lastmile_qr_scan", "ios": "https://dc.lft.to/lastmile_qr_scan"}, "bike_id": "ba8baef2c71a0da2b8a835af0bc8a826", "is_reserved": 0}, {"lat": 38.892434333333334, "fusion_lon": 0.0, "lon": -77.01722416666667, "is_disabled": 0, "type": "electric_scooter", "name": "0b3ddf49a769f44edab5d8c4acdb202c", "fusion_lat": 0.0, "rental_uris": {"android": "https://dc.lft.to/lastmile_qr_scan", "ios": "https://dc.lft.to/lastmile_qr_scan"}, "bike_id": "0b3ddf49a769f44edab5d8c4acdb202c", "is_reserved": 0}, {"lat": 38.871842666666666, "fusion_lon": 0.0, "lon": -77.00595333333334, "is_disabled": 0, "type": "electric_scooter", "name": "e2ab583d69d1d8f6f8b110d82238ea75", "fusion_lat": 0.0, "rental_uris": {"android": "https://dc.lft.to/lastmile_qr_scan", "ios": "https://dc.lft.to/lastmile_qr_scan"}, "bike_id": "e2ab583d69d1d8f6f8b110d82238ea75", "is_reserved": 0}, {"lat": 38.924301666666665, "fusion_lon": 0.0, "lon": -77.0521345, "is_disabled": 0, "type": "electric_scooter", "name": "b2d42e6a8bd458daa713b9f0b60f5d7a", "fusion_lat": 0.0, "rental_uris": {"android": "https://dc.lft.to/lastmile_qr_scan", "ios": "https://dc.lft.to/lastmile_qr_scan"}, "bike_id": "b2d42e6a8bd458daa713b9f0b60f5d7a", "is_reserved": 0}, {"lat": 38.89845183333333, "fusion_lon": 0.0, "lon": -77.00750933333333, "is_disabled": 0, "type": "electric_scooter", "name": "10eac6ef0dcb291376d5d1bba99f5ca2", "fusion_lat": 0.0, "rental_uris": {"android": "https://dc.lft.to/lastmile_qr_scan", "ios": "https://dc.lft.to/lastmile_qr_scan"}, "bike_id": "10eac6ef0dcb291376d5d1bba99f5ca2", "is_reserved": 0}, {"lat": 38.903805, "fusion_lon": 0.0, "lon": -77.03852216666667, "is_disabled": 0, "type": "electric_scooter", "name": "32fa860474b5f780ac3ac187e86fc43d", "fusion_lat": 0.0, "rental_uris": {"android": "https://dc.lft.to/lastmile_qr_scan", "ios": "https://dc.lft.to/lastmile_qr_scan"}, "bike_id": "32fa860474b5f780ac3ac187e86fc43d", "is_reserved": 0}, {"lat": 38.8940015, "fusion_lon": 0.0, "lon": -77.044272, "is_disabled": 0, "type": "electric_scooter", "name": "46122bf645d1d023e34858505ec09a13", "fusion_lat": 0.0, "rental_uris": {"android": "https://dc.lft.to/lastmile_qr_scan", "ios": "https://dc.lft.to/lastmile_qr_scan"}, "bike_id": "46122bf645d1d023e34858505ec09a13", "is_reserved": 0}, {"lat": 38.89934683333333, "fusion_lon": 0.0, "lon": -77.01453683333334, "is_disabled": 0, "type": "electric_scooter", "name": "b3bd500c7ea5e784fab872c3a1a8331a", "fusion_lat": 0.0, "rental_uris": {"android": "https://dc.lft.to/lastmile_qr_scan", "ios": "https://dc.lft.to/lastmile_qr_scan"}, "bike_id": "b3bd500c7ea5e784fab872c3a1a8331a", "is_reserved": 0}, {"lat": 38.8997265, "fusion_lon": 0.0, "lon": -77.05562066666667, "is_disabled": 0, "type": "electric_scooter", "name": "e60c204d9e0bde0f0b21c636fde687fa", "fusion_lat": 0.0, "rental_uris": {"android": "https://dc.lft.to/lastmile_qr_scan", "ios": "https://dc.lft.to/lastmile_qr_scan"}, "bike_id": "e60c204d9e0bde0f0b21c636fde687fa", "is_reserved": 0}, {"lat": 38.937351666666665, "fusion_lon": 0.0, "lon": -77.03351283333333, "is_disabled": 0, "type": "electric_scooter", "name": "1730dd433a47317a50ee4f9fb05e2c36", "fusion_lat": 0.0, "rental_uris": {"android": "https://dc.lft.to/lastmile_qr_scan", "ios": "https://dc.lft.to/lastmile_qr_scan"}, "bike_id": "1730dd433a47317a50ee4f9fb05e2c36", "is_reserved": 0}, {"lat": 38.945168333333335, "fusion_lon": 0.0, "lon": -77.03322566666667, "is_disabled": 0, "type": "electric_scooter", "name": "0ef7dd50b48427b38d35e96cea818a51", "fusion_lat": 0.0, "rental_uris": {"android": "https://dc.lft.to/lastmile_qr_scan", "ios": "https://dc.lft.to/lastmile_qr_scan"}, "bike_id": "0ef7dd50b48427b38d35e96cea818a51", "is_reserved": 0}, {"lat": 38.905769666666664, "fusion_lon": 0.0, "lon": -77.0425165, "is_disabled": 0, "type": "electric_scooter", "name": "983200d95953d630ce88955d65cc9b33", "fusion_lat": 0.0, "rental_uris": {"android": "https://dc.lft.to/lastmile_qr_scan", "ios": "https://dc.lft.to/lastmile_qr_scan"}, "bike_id": "983200d95953d630ce88955d65cc9b33", "is_reserved": 0}, {"lat": 38.90207566666667, "fusion_lon": 0.0, "lon": -77.04661483333334, "is_disabled": 0, "type": "electric_scooter", "name": "c2617a6db11c6c31a9ef6df924f6cc39", "fusion_lat": 0.0, "rental_uris": {"android": "https://dc.lft.to/lastmile_qr_scan", "ios": "https://dc.lft.to/lastmile_qr_scan"}, "bike_id": "c2617a6db11c6c31a9ef6df924f6cc39", "is_reserved": 0}, {"lat": 38.908227833333335, "fusion_lon": 0.0, "lon": -76.992318, "is_disabled": 0, "type": "electric_scooter", "name": "57e7c4da05a8bf21e52141e362f2f710", "fusion_lat": 0.0, "rental_uris": {"android": "https://dc.lft.to/lastmile_qr_scan", "ios": "https://dc.lft.to/lastmile_qr_scan"}, "bike_id": "57e7c4da05a8bf21e52141e362f2f710", "is_reserved": 0}, {"lat": 38.921849, "fusion_lon": 0.0, "lon": -77.018693, "is_disabled": 0, "type": "electric_scooter", "name": "480c222a69de39a6cd6c88526ebd1eb8", "fusion_lat": 0.0, "rental_uris": {"android": "https://dc.lft.to/lastmile_qr_scan", "ios": "https://dc.lft.to/lastmile_qr_scan"}, "bike_id": "480c222a69de39a6cd6c88526ebd1eb8", "is_reserved": 0},