{"data": {"bikes": [{"fusion_lat": 0.0, "name": "b0e4e25918d924ee2b8bdb4a8d629d4b", "is_disabled": 0, "rental_uris": {"android": "https://dc.lft.to/lastmile_qr_scan", "ios": "https://dc.lft.to/lastmile_qr_scan"}, "fusion_lon": 0.0, "lat": 38.925935333333335, "bike_id": "b0e4e25918d924ee2b8bdb4a8d629d4b", "type": "electric_scooter", "is_reserved": 0, "lon": -77.0340005}, {"fusion_lat": 0.0, "name": "aa7a56ca0f4220fcf531a2138efb8def", "is_disabled": 0, "rental_uris": {"android": "https://dc.lft.to/lastmile_qr_scan", "ios": "https://dc.lft.to/lastmile_qr_scan"}, "fusion_lon": 0.0, "lat": 38.896569666666664, "bike_id": "aa7a56ca0f4220fcf531a2138efb8def", "type": "electric_scooter", "is_reserved": 0, "lon": -77.05091383333334}, {"fusion_lat": 0.0, "name": "29cad7137940157911a8633006691e07", "is_disabled": 0, "rental_uris": {"android": "https://dc.lft.to/lastmile_qr_scan", "ios": "https://dc.lft.to/lastmile_qr_scan"}, "fusion_lon": 0.0, "lat": 38.9154575, "bike_id": "29cad7137940157911a8633006691e07", "type": "electric_scooter", "is_reserved": 0, "lon": -77.03853716666667}, {"fusion_lat": 0.0, "name": "f4a799c9e9966fbbf37a751524da4080", "is_disabled": 0, "rental_uris": {"android": "https://dc.lft.to/lastmile_qr_scan", "ios": "https://dc.lft.to/lastmile_qr_scan"}, "fusion_lon": 0.0, "lat": 38.916624166666665, "bike_id": "f4a799c9e9966fbbf37a751524da4080", "type": "electric_scooter", "is_reserved": 0, "lon": -77.02816566666667}, {"fusion_lat": 0.0, "name": "440543e63cd1fee892520d78bffd0789", "is_disabled": 0, "rental_uris": {"android": "https://dc.lft.to/lastmile_qr_scan", "ios": "https://dc.lft.to/lastmile_qr_scan"}, "fusion_lon": 0.0, "lat": 38.879560166666664, "bike_id": "440543e63cd1fee892520d78bffd0789", "type": "electric_scooter", "is_reserved": 0, "lon": -76.9899315}, {"fusion_lat": 0.0, "name": "4935a6b0ead3c94b5d9c13b1b6b45f47", "is_disabled": 0, "rental_uris": {"android": "https://dc.lft.to/lastmile_qr_scan", "ios": "https://dc.lft.to/lastmile_qr_scan"}, "fusion_lon": 0.0, "lat": 38.91678683333333, "bike_id": "4935a6b0ead3c94b5d9c13b1b6b45f47", "type": "electric_scooter", "is_reserved": 0, "lon": -77.036901}, {"fusion_lat": 0.0, "name": "69228b1b7036cf0aa6a747f5ee687b67", "is_disabled": 0, "rental_uris": {"android": "https://dc.lft.to/lastmile_qr_scan", "ios": "https://dc.lft.to/lastmile_qr_scan"}, "fusion_lon": 0.0, "lat": 38.8774885, "bike_id": "69228b1b7036cf0aa6a747f5ee687b67", "type": "electric_scooter", "is_reserved": 0, "lon": -77.00345533333333}, {"fusion_lat": 0.0, "name": "cc33c398903c13028a0d9eea297aa06e", "is_disabled": 0, "rental_uris": {"android": "https://dc.lft.to/lastmile_qr_scan", "ios": "https://dc.lft.to/lastmile_qr_scan"}, "fusion_lon": 0.0, "lat": 38.8711615, "bike_id": "cc33c398903c13028a0d9eea297aa06e", "type": "electric_scooter", "is_reserved": 0, "lon": -77.00768383333333}, {"fusion_lat": 0.0, "name": "13a40190b1dcee60cd9f9b95755c30ec", "is_disabled": 0, "rental_uris": {"android": "https://dc.lft.to/lastmile_qr_scan", "ios": "https://dc.lft.to/lastmile_qr_scan"}, "fusion_lon": 0.0, "lat": 38.910517166666665, "bike_id": "13a40190b1dcee60cd9f9b95755c30ec", "type": "electric_scooter", "is_reserved": 0, "lon": -77.03843933333333}, {"fusion_lat": 0.0, "name": "ba595d147ce61a564ad0673efbd1218b", "is_disabled": 0, "rental_uris": {"android": "https://dc.lft.to/lastmile_qr_scan", "ios": "https://dc.lft.to/lastmile_qr_scan"}, "fusion_lon": 0.0, "lat": 38.90713133333333, "bike_id": "ba595d147ce61a564ad0673efbd1218b", "type": "electric_scooter", "is_reserved": 0, "lon": -77.05129016666666}, {"fusion_lat": 0.0, "name": "e4ffa785da95efb8d9a6cd53991c2172", "is_disabled": 0, "rental_uris": {"android": "https://dc.lft.to/lastmile_qr_scan", "ios": "https://dc.lft.to/lastmile_qr_scan"}, "fusion_lon": 0.0, "lat": 38.900715, "bike_id": "e4ffa785da95efb8d9a6cd53991c2172", "type": "electric_scooter", "is_reserved": 0, "lon": -76.92743216666666}, {"fusion_lat": 0.0, "name": "5b6505d5031b036155061179745383fd", "is_disabled": 0, "rental_uris": {"android": "https://dc.lft.to/lastmile_qr_scan", "ios": "https://dc.lft.to/lastmile_qr_scan"}, "fusion_lon": 0.0, "lat": 38.8774865, "bike_id": "5b6505d5031b036155061179745383fd", "type": "electric_scooter", "is_reserved": 0, "lon": -77.01424166666666}, {"fusion_lat": 0.0, "name": "223e7f7f630ca385ff37e88262f0b915", "is_disabled": 0, "rental_uris": {"android": "https://dc.lft.to/lastmile_qr_scan", "ios": "https://dc.lft.to/lastmile_qr_scan"}, "fusion_lon": 0.0, "lat": 38.8045015, "bike_id": "223e7f7f630ca385ff37e88262f0b915", "type": "electric_bike", "is_reserved": 0, "lon": -77.05386616666667}, {"fusion_lat": 0.0, "name": "4b270f9f5f82b396ea460a1f8975ee26", "is_disabled": 0, "rental_uris": {"android": "https://dc.lft.to/lastmile_qr_scan", "ios": "https://dc.lft.to/lastmile_qr_scan"}, "fusion_lon": 0.0, "lat": 38.88442883333333, "bike_id": "4b270f9f5f82b396ea460a1f8975ee26", "type": "electric_scooter", "is_reserved": 0, "lon": -77.003459}, {"fusion_lat": 0.0, "name": "7379e75d745102983ff769e0a7924d8d", "is_disabled": 0, "rental_uris": {"android": "https://dc.lft.to/lastmile_qr_scan", "ios": "https://dc.lft.to/lastmile_qr_scan"}, "fusion_lon": 0.0, "lat": 38.92452733333333, "bike_id": "7379e75d745102983ff769e0a7924d8d", "type": "electric_scooter", "is_reserved": 0, "lon": -77.04014783333334}, {"fusion_lat": 0.0, "name": "ba9b8e9ee3e48b93622dc6e53a467fad", "is_disabled": 0, "rental_uris": {"android": "https://dc.lft.to/lastmile_qr_scan", "ios": "https://dc.lft.to/lastmile_qr_scan"}, "fusion_lon": 0.0, "lat": 38.89545583333334, "bike_id": "ba9b8e9ee3e48b93622dc6e53a467fad", "type": "electric_scooter", "is_reserved": 0, "lon": -76.94951683333333}, {"fusion_lat": 0.0, "name": "9d713e3c73b1713dc17fbdd521e2daa7", "is_disabled": 0, "rental_uris": {"android": "https://dc.lft.to/lastmile_qr_scan", "ios": "https://dc.lft.to/lastmile_qr_scan"}, "fusion_lon": 0.0, "lat": 38.9299255, "bike_id": "9d713e3c73b1713dc17fbdd521e2daa7", "type": "electric_scooter", "is_reserved": 0, "lon": -77.03242566666667}, {"fusion_lat": 0.0, "name": "3e81787ef20fdeecb685052b664131e9", "is_disabled": 0, "rental_uris": {"android": "https://dc.lft.to/lastmile_qr_scan", "ios": "https://dc.lft.to/lastmile_qr_scan"}, "fusion_lon": 0.0, "lat": 38.90179416666667, "bike_id": "3e81787ef20fdeecb685052b664131e9", "type": "electric_scooter", "is_reserved": 0, "lon": -77.05904116666666}, {"fusion_lat": 0.0, "name": "5d1ba0897c3b8e2d76dd1b499ff196dc", "is_disabled": 0, "rental_uris": {"android": "https://dc.lft.to/lastmile_qr_scan", "ios": "https://dc.lft.to/lastmile_qr_scan"}, "fusion_lon": 0.0, "lat": 38.91221633333333, "bike_id": "5d1ba0897c3b8e2d76dd1b499ff196dc", "type": "electric_scooter", "is_reserved": 0, "lon": -77.044775}, {"fusion_lat": 0.0, "name": "92017a160549e3d80f994e3a6f91854d", "is_disabled": 0, "rental_uris": {"android": "https://dc.lft.to/lastmile_qr_scan", "ios": "https://dc.lft.to/lastmile_qr_scan"}, "fusion_lon": 0.0, "lat": 38.908682666666664, "bike_id": "92017a160549e3d80f994e3a6f91854d", "type": "electric_scooter", "is_reserved": 0, "lon": -76.99952383333333}, {"fusion_lat": 0.0, "name": "a8fdc729921d56b663ca9688d626cb49", "is_disabled": 0, "rental_uris": {"android": "https://dc.lft.to/lastmile_qr_scan", "ios": "https://dc.lft.to/lastmile_qr_scan"}, "fusion_lon": 0.0, "lat": 38.91557866666667, "bike_id": "a8fdc729921d56b663ca9688d626cb49", "type": "electric_scooter", "is_reserved": 0, "lon": -77.0324805}, {"fusion_lat": 0.0, "name": "4b9ae87e043090eda6ca5f44d9eb4061", "is_disabled": 0, "rental_uris": {"android": "https://dc.lft.to/lastmile_qr_scan", "ios": "https://dc.lft.to/lastmile_qr_scan"}, "fusion_lon": 0.0, "lat": 38.961341833333336, "bike_id": "4b9ae87e043090eda6ca5f44d9eb4061", "type": "electric_scooter", "is_reserved": 0, "lon": -77.02788583333333}, {"fusion_lat": 0.0, "name": "4d504c4c691dc098c315a0e216b7eba1", "is_disabled": 0, "rental_uris": {"android": "https://dc.lft.to/lastmile_qr_scan", "ios": "https://dc.lft.to/lastmile_qr_scan"}, "fusion_lon": 0.0, "lat": 38.90010683333333, "bike_id": "4d504c4c691dc098c315a0e216b7eba1", "type": "electric_scooter", "is_reserved": 0, "lon": -76.988525}, {"fusion_lat": 0.0, "name": "15dd70f292af3671ec3be10fdd99e603", "is_disabled": 0, "rental_uris": {"android": "https://dc.lft.to/lastmile_qr_scan", "ios": "https://dc.lft.to/lastmile_qr_scan"}, "fusion_lon": 0.0, "lat": 38.923711, "bike_id": "15dd70f292af3671ec3be10fdd99e603", "type": "electric_scooter", "is_reserved": 0, "lon": -77.0815595}, {"fusion_lat": 0.0, "name": "f862be67f88d409986f5b35b85ccb1f0", "is_disabled": 0, "rental_uris": {"android": "https://dc.lft.to/lastmile_qr_scan", "ios": "https://dc.lft.to/lastmile_qr_scan"}, "fusion_lon": 0.0, "lat": 38.8848005, "bike_id": "f862be67f88d409986f5b35b85ccb1f0", "type": "electric_scooter", "is_reserved": 0, "lon": -77.02432016666667}, {"fusion_lat": 0.0, "name": "ad7bc809efa39a07729f4d8118674137", "is_disabled": 0, "rental_uris": {"android": "https://dc.lft.to/lastmile_qr_scan", "ios": "https://dc.lft.to/lastmile_qr_scan"}, "fusion_lon": 0.0, "lat": 38.89002833333333, "bike_id": "ad7bc809efa39a07729f4d8118674137", "type": "electric_scooter", "is_reserved": 0, "lon": -76.93740266666667}, {"fusion_lat": 0.0, "name": "7eba1baf98dd9612e9101f83936c56ce", "is_disabled": 0, "rental_uris": {"android": "https://dc.lft.to/lastmile_qr_scan", "ios": "https://dc.lft.to/lastmile_qr_scan"}, "fusion_lon": 0.0, "lat": 38.88963966666667, "bike_id": "7eba1baf98dd9612e9101f83936c56ce", "type": "electric_scooter", "is_reserved": 0, "lon": -77.015017}, {"fusion_lat": 0.0, "name": "572581878ea90f5857b6d853df36a2bf", "is_disabled": 0, "rental_uris": {"android": "https://dc.lft.to/lastmile_qr_scan", "ios": "https://dc.lft.to/lastmile_qr_scan"}, "fusion_lon": 0.0, "lat": 38.924571, "bike_id": "572581878ea90f5857b6d853df36a2bf", "type": "electric_scooter", "is_reserved": 0, "lon": -77.024099}, {"fusion_lat": 0.0, "name": "449248367f286478e5e2db9247f44b6c", "is_disabled": 0, "rental_uris": {"android": "https://dc.lft.to/lastmile_qr_scan", "ios": "https://dc.lft.to/lastmile_qr_scan"}, "fusion_lon": 0.0, "lat": 38.9675335, "bike_id": "449248367f286478e5e2db9247f44b6c", "type": "electric_bike", "is_reserved": 0, "lon": -77.0280035}, {"fusion_lat": 0.0, "name": "5e29e6c8e7af8797fea8e681e28ea278", "is_disabled": 0, "rental_uris": {"android": "https://dc.lft.to/lastmile_qr_scan", "ios": "https://dc.lft.to/lastmile_qr_scan"}, "fusion_lon": 0.0, "lat": 38.914199833333335, "bike_id": "5e29e6c8e7af8797fea8e681e28ea278", "type": "electric_scooter", "is_reserved": 0, "lon": -77.03172233333333}, {"fusion_lat": 0.0, "name": "6872a69f2555fda34471be3dcb706d60", "is_disabled": 0, "rental_uris": {"android": "https://dc.lft.to/lastmile_qr_scan", "ios": "https://dc.lft.to/lastmile_qr_scan"}, "fusion_lon": 0.0, "lat": 38.905538, "bike_id": "6872a69f2555fda34471be3dcb706d60", "type": "electric_scooter", "is_reserved": 0, "lon": -77.06517883333333}, {"fusion_lat": 0.0, "name": "d7ea67f0f5378b50f4461f295dd2ead3", "is_disabled": 0, "rental_uris": {"android": "https://dc.lft.to/lastmile_qr_scan", "ios": "https://dc.lft.to/lastmile_qr_scan"}, "fusion_lon": 0.0, "lat": 38.950570166666665, "bike_id": "d7ea67f0f5378b50f4461f295dd2ead3", "type": "electric_scooter", "is_reserved": 0, "lon": -77.08024}, {"fusion_lat": 0.0, "name": "6fec80cd470a494024f7ace83ca6b29e", "is_disabled": 0, "rental_uris": {"android": "https://dc.lft.to/lastmile_qr_scan", "ios": "https://dc.lft.to/lastmile_qr_scan"}, "fusion_lon": 0.0, "lat": 38.93399633333333, "bike_id": "6fec80cd470a494024f7ace83ca6b29e", "type": "electric_scooter", "is_reserved": 0, "lon": -77.05741583333334}, {"fusion_lat": 0.0, "name": "8375efba13d779f8b415a8439b1c3cd7", "is_disabled": 0, "rental_uris": {"android": "https://dc.lft.to/lastmile_qr_scan", "ios": "https://dc.lft.to/lastmile_qr_scan"}, "fusion_lon": 0.0, "lat": 38.907917, "bike_id": "8375efba13d779f8b415a8439b1c3cd7", "type": "electric_scooter", "is_reserved": 0, "lon": -76.99430866666667}, {"fusion_lat": 0.0, "name": "08e4d3f41b9a97c3dbfa958f113c467a", "is_disabled": 0, "rental_uris": {"android": "https://dc.lft.to/lastmile_qr_scan", "ios": "https://dc.lft.to/lastmile_qr_scan"}, "fusion_lon": 0.0, "lat": 38.91611266666666, "bike_id": "08e4d3f41b9a97c3dbfa958f113c467a", "type": "electric_scooter", "is_reserved": 0, "lon": -77.02171066666666}, {"fusion_lat": 0.0, "name": "58131e5231e1478903ff50cbfee70dd9", "is_disabled": 0, "rental_uris": {"android": "https://dc.lft.to/lastmile_qr_scan", "ios": "https://dc.lft.to/lastmile_qr_scan"}, "fusion_lon": 0.0, "lat": 38.888273166666664, "bike_id": "58131e5231e1478903ff50cbfee70dd9", "type": "electric_scooter", "is_reserved": 0, "lon": -76.98665216666667}, {"fusion_lat": 0.0, "name": "bdaa4f5f365e8a1f164078c053a79d43", "is_disabled": 0, "rental_uris": {"android": "https://dc.lft.to/lastmile_qr_scan", "ios": "https://dc.lft.to/lastmile_qr_scan"}, "fusion_lon": 0.0, "lat": 38.9153685, "bike_id": "bdaa4f5f365e8a1f164078c053a79d43", "type": "electric_scooter", "is_reserved": 0, "lon": -77.02179533333333}, {"fusion_lat": 0.0, "name": "9dae414d493e75556490a587f915aece", "is_disabled": 0, "rental_uris": {"android": "https://dc.lft.to/lastmile_qr_scan", "ios": "https://dc.lft.to/lastmile_qr_scan"}, "fusion_lon": 0.0, "lat": 38.896084333333334, "bike_id": "9dae414d493e75556490a587f915aece", "type": "electric_scooter", "is_reserved": 0, "lon": -76.98108316666666}, {"fusion_lat": 0.0, "name": "038f18a1579e445dab28bde47802025a", "is_disabled": 0, "rental_uris": {"android": "https://dc.lft.to/lastmile_qr_scan", "ios": "https://dc.lft.to/lastmile_qr_scan"}, "fusion_lon": 0.0, "lat": 38.92480333333334, "bike_id": "038f18a1579e445dab28bde47802025a", "type": "electric_scooter", "is_reserved": 0, "lon": -77.02547383333334}, {"fusion_lat": 0.0, "name": "af7518e7dc3c0333bab0462d4c15f84c", "is_disabled": 0, "rental_uris": {"android": "https://dc.lft.to/lastmile_qr_scan", "ios": "https://dc.lft.to/lastmile_qr_scan"}, "fusion_lon": 0.0, "lat": 38.8873195, "bike_id": "af7518e7dc3c0333bab0462d4c15f84c", "type": "electric_bike", "is_reserved": 0, "lon": -77.01526166666666}, {"fusion_lat": 0.0, "name": "56d0788fbd9b02444d5fcae75288e014", "is_disabled": 0, "rental_uris": {"android": "https://dc.lft.to/lastmile_qr_scan", "ios": "https://dc.lft.to/lastmile_qr_scan"}, "fusion_lon": 0.0, "lat": 38.9004575, "bike_id": "56d0788fbd9b02444d5fcae75288e014", "type": "electric_scooter", "is_reserved": 0, "lon": -77.044848}, {"fusion_lat": 0.0, "name": "920ee5b8a44862e45486fd0b50cc5b2a", "is_disabled": 0, "rental_uris": {"android": "https://dc.lft.to/lastmile_qr_scan", "ios": "https://dc.lft.to/lastmile_qr_scan"}, "fusion_lon": 0.0, "lat": 38.93978716666667, "bike_id": "920ee5b8a44862e45486fd0b50cc5b2a", "type": "electric_scooter", "is_reserved": 0, "lon": -77.02872666666667}, {"fusion_lat": 0.0, "name": "ca871515771f59f39e3d97024a3a3948", "is_disabled": 0, "rental_uris": {"android": "https://dc.lft.to/lastmile_qr_scan", "ios": "https://dc.lft.to/lastmile_qr_scan"}, "fusion_lon": 0.0, "lat": 38.908432166666664, "bike_id": "ca871515771f59f39e3d97024a3a3948", "type": "electric_scooter", "is_reserved": 0, "lon": -77.00125366666667}, {"fusion_lat": 0.0, "name": "f8a296b35edc1979aab296ddd422ef73", "is_disabled": 0, "rental_uris": {"android": "https://dc.lft.to/lastmile_qr_scan", "ios": "https://dc.lft.to/lastmile_qr_scan"}, "fusion_lon": 0.0, "lat": 38.876634333333335, "bike_id": "f8a296b35edc1979aab296ddd422ef73", "type": "electric_bike", "is_reserved": 0, "lon": -77.00408166666666}, {"fusion_lat": 0.0, "name": "f8b10e75dea5f6a7952311d0d293bab5", "is_disabled": 0, "rental_uris": {"android": "https://dc.lft.to/lastmile_qr_scan", "ios": "https://dc.lft.to/lastmile_qr_scan"}, "fusion_lon": 0.0, "lat": 38.92097233333333, "bike_id": "f8b10e75dea5f6a7952311d0d293bab5", "type": "electric_scooter", "is_reserved": 0, "lon": -76.99495733333333}, {"fusion_lat": 0.0, "name": "b8a0423f379b61b3ef8b2405a9d1fd71", "is_disabled": 0, "rental_uris": {"android": "https://dc.lft.to/lastmile_qr_scan", "ios": "https://dc.lft.to/lastmile_qr_scan"}, "fusion_lon": 0.0, "lat": 38.90023433333333, "bike_id": "b8a0423f379b61b3ef8b2405a9d1fd71", "type": "electric_scooter", "is_reserved": 0, "lon": -76.9986605}, {"fusion_lat": 0.0, "name": "6cb3dff93d2508d7a28563d24dd99f4c", "is_disabled": 0, "rental_uris": {"android": "https://dc.lft.to/lastmile_qr_scan", "ios": "https://dc.lft.to/lastmile_qr_scan"}, "fusion_lon": 0.0, "lat": 38.90730216666667, "bike_id": "6cb3dff93d2508d7a28563d24dd99f4c", "type": "electric_scooter", "is_reserved": 0, "lon": -77.04777783333333}, {"fusion_lat": 0.0, "name": "9f8f14e2239bb69a07ec0a12f0a9bb71", "is_disabled": 0, "rental_uris": {"android": "https://dc.lft.to/lastmile_qr_scan", "ios": "https://dc.lft.to/lastmile_qr_scan"}, "fusion_lon": 0.0, "lat": 38.8901035, "bike_id": "9f8f14e2239bb69a07ec0a12f0a9bb71", "type": "electric_scooter", "is_reserved": 0, "lon": -76.9374105}, {"fusion_lat": 0.0, "name": "ac8b269512bf4bd25077888f5fa48b21", "is_disabled": 0, "rental_uris": {"android": "https://dc.lft.to/lastmile_qr_scan", "ios": "https://dc.lft.to/lastmile_qr_scan"}, "fusion_lon": 0.0, "lat": 38.8972955, "bike_id": "ac8b269512bf4bd25077888f5fa48b21", "type": "electric_scooter", "is_reserved": 0, "lon": -77.02758933333334}, {"fusion_lat": 0.0, "name": "770900569625eff45d91a608059d0a15", "is_disabled": 0, "rental_uris": {"android": "https://dc.lft.to/lastmile_qr_scan", "ios": "https://dc.lft.to/lastmile_qr_scan"}, "fusion_lon": 0.0, "lat": 38.92577033333333, "bike_id": "770900569625eff45d91a608059d0a15", "type": "electric_scooter", "is_reserved": 0, "lon": -76.99494716666666}, {"fusion_lat": 0.0, "name": "b84776c75d2aeaa00045b662db555a81", "is_disabled": 0, "rental_uris": {"android": "https://dc.lft.to/lastmile_qr_scan", "ios": "https://dc.lft.to/lastmile_qr_scan"}, "fusion_lon": 0.0, "lat": 38.9198995, "bike_id": "b84776c75d2aeaa00045b662db555a81", "type": "electric_scooter", "is_reserved": 0, "lon": -77.0181545}, {"fusion_lat": 0.0, "name": "278741967d1a2fe2979f01abe5e6bf9c", "is_disabled": 0, "rental_uris": {"android": "https://dc.lft.to/lastmile_qr_scan", "ios": "https://dc.lft.to/lastmile_qr_scan"}, "fusion_lon": 0.0, "lat": 38.899056, "bike_id": "278741967d1a2fe2979f01abe5e6bf9c", "type": "electric_scooter", "is_reserved": 0, "lon": -76.93361833333333}, {"fusion_lat": 0.0, "name": "5fdd96fe66d25921fc08a7e50f090301", "is_disabled": 0, "rental_uris": {"android": "https://dc.lft.to/lastmile_qr_scan", "ios": "https://dc.lft.to/lastmile_qr_scan"}, "fusion_lon": 0.0, "lat": 38.88734683333333, "bike_id": "5fdd96fe66d25921fc08a7e50f090301", "type": "electric_scooter", "is_reserved": 0, "lon": -76.99488533333333}, {"fusion_lat": 0.0, "name": "41922c7316677eb797edf6c93c62b23f", "is_disabled": 0, "rental_uris": {"android": "https://dc.lft.to/lastmile_qr_scan", "ios": "https://dc.lft.to/lastmile_qr_scan"}, "fusion_lon": 0.0, "lat": 38.8852385, "bike_id": "41922c7316677eb797edf6c93c62b23f", "type": "electric_scooter", "is_reserved": 0, "lon": -76.929137}, {"fusion_lat": 0.0, "name": "26f36a6c8a7de5468f4cf6a3ccc015b5", "is_disabled": 0, "rental_uris": {"android": "https://dc.lft.to/lastmile_qr_scan", "ios": "https://dc.lft.to/lastmile_qr_scan"}, "fusion_lon": 0.0, "lat": 38.95058433333333, "bike_id": "26f36a6c8a7de5468f4cf6a3ccc015b5", "type": "electric_scooter", "is_reserved": 0, "lon": -77.08027933333334}, {"fusion_lat": 0.0, "name": "2ecb8f2d53be39f90412fd9af6473917", "is_disabled": 0, "rental_uris": {"android": "https://dc.lft.to/lastmile_qr_scan", "ios": "https://dc.lft.to/lastmile_qr_scan"}, "fusion_lon": 0.0, "lat": 38.93085766666667, "bike_id": "2ecb8f2d53be39f90412fd9af6473917", "type": "electric_scooter", "is_reserved": 0, "lon": -77.02557816666666}, {"fusion_lat": 0.0, "name": "39568e369058ef99876602ca55c0ec90", "is_disabled": 0, "rental_uris": {"android": "https://dc.lft.to/lastmile_qr_scan", "ios": "https://dc.lft.to/lastmile_qr_scan"}, "fusion_lon": 0.0, "lat": 38.91398316666667, "bike_id": "39568e369058ef99876602ca55c0ec90", "type": "electric_scooter", "is_reserved": 0, "lon": -77.01670333333334}, {"fusion_lat": 0.0, "name": "0032641c4094edb383b11ed3938aa1e0", "is_disabled": 0, "rental_uris": {"android": "https://dc.lft.to/lastmile_qr_scan", "ios": "https://dc.lft.to/lastmile_qr_scan"}, "fusion_lon": 0.0, "lat": 38.875798333333336, "bike_id": "0032641c4094edb383b11ed3938aa1e0", "type": "electric_bike", "is_reserved": 0, "lon": -77.23407983333334}, {"fusion_lat": 0.0, "name": "689082bd283edc56684c83180bfadbaa", "is_disabled": 0, "rental_uris": {"android": "https://dc.lft.to/lastmile_qr_scan", "ios": "https://dc.lft.to/lastmile_qr_scan"}, "fusion_lon": 0.0, "lat": 38.89911, "bike_id": "689082bd283edc56684c83180bfadbaa", "type": "electric_scooter", "is_reserved": 0, "lon": -76.94588683333333}, {"fusion_lat": 0.0, "name": "0479b13bb035d221b16eaa7238f2ab2d", "is_disabled": 0, "rental_uris": {"android": "https://dc.lft.to/lastmile_qr_scan", "ios": "https://dc.lft.to/lastmile_qr_scan"}, "fusion_lon": 0.0, "lat": 38.9171095, "bike_id": "0479b13bb035d221b16eaa7238f2ab2d", "type": "electric_scooter", "is_reserved": 0, "lon": -77.02680016666666}, {"fusion_lat": 0.0, "name": "c55ef0ea4ac922acdaa5431f27e4bbb6", "is_disabled": 0, "rental_uris": {"android": "https://dc.lft.to/lastmile_qr_scan", "ios": "https://dc.lft.to/lastmile_qr_scan"}, "fusion_lon": 0.0, "lat": 38.927371666666666, "bike_id": "c55ef0ea4ac922acdaa5431f27e4bbb6", "type": "electric_scooter", "is_reserved": 0, "lon": -77.02319333333334}, {"fusion_lat": 0.0, "name": "19227a7faae7b7ae9d71b623ebd82d29", "is_disabled": 0, "rental_uris": {"android": "https://dc.lft.to/lastmile_qr_scan", "ios": "https://dc.lft.to/lastmile_qr_scan"}, "fusion_lon": 0.0, "lat": 38.88610033333333, "bike_id": "19227a7faae7b7ae9d71b623ebd82d29", "type": "electric_scooter", "is_reserved": 0, "lon": -77.012446}, {"fusion_lat": 0.0, "name": "cfcaff6e0ebe0c8d0417bfbe8b38b388", "is_disabled": 0, "rental_uris": {"android": "https://dc.lft.to/lastmile_qr_scan", "ios": "https://dc.lft.to/lastmile_qr_scan"}, "fusion_lon": 0.0, "lat": 38.90514566666667, "bike_id": "cfcaff6e0ebe0c8d0417bfbe8b38b388", "type": "electric_scooter", "is_reserved": 0, "lon": -77.06883883333333}, {"fusion_lat": 0.0, "name": "e07b75b919f7fefdd3fc888cf42cffee", "is_disabled": 0, "rental_uris": {"android": "https://dc.lft.to/lastmile_qr_scan", "ios": "https://dc.lft.to/lastmile_qr_scan"}, "fusion_lon": 0.0, "lat": 38.91650633333333, "bike_id": "e07b75b919f7fefdd3fc888cf42cffee", "type": "electric_scooter", "is_reserved": 0, "lon": -77.02795633333334}, {"fusion_lat": 0.0, "name": "0e93e11f84f65e5a9991ddc7adeddb00", "is_disabled": 0, "rental_uris": {"android": "https://dc.lft.to/lastmile_qr_scan", "ios": "https://dc.lft.to/lastmile_qr_scan"}, "fusion_lon": 0.0, "lat": 38.913273, "bike_id": "0e93e11f84f65e5a9991ddc7adeddb00", "type": "electric_scooter", "is_reserved": 0, "lon": -77.04535666666666}, {"fusion_lat": 0.0, "name": "4fde2f6ee36877d08624517100609c2f", "is_disabled": 0, "rental_uris": {"android": "https://dc.lft.to/lastmile_qr_scan", "ios": "https://dc.lft.to/lastmile_qr_scan"}, "fusion_lon": 0.0, "lat": 38.89610883333334, "bike_id": "4fde2f6ee36877d08624517100609c2f", "type": "electric_scooter", "is_reserved": 0, "lon": -77.009307}, {"fusion_lat": 0.0, "name": "77240de9092cfac6b97b9cced186dc1d", "is_disabled": 0, "rental_uris": {"android": "https://dc.lft.to/lastmile_qr_scan", "ios": "https://dc.lft.to/lastmile_qr_scan"}, "fusion_lon": 0.0, "lat": 38.91622133333333, "bike_id": "77240de9092cfac6b97b9cced186dc1d", "type": "electric_scooter", "is_reserved": 0, "lon": -77.0315285}, {"fusion_lat": 0.0, "name": "b429d1a6d25493ee9e24f555b36a456b", "is_disabled": 0, "rental_uris": {"android": "https://dc.lft.to/lastmile_qr_scan", "ios": "https://dc.lft.to/lastmile_qr_scan"}, "fusion_lon": 0.0, "lat": 38.901968333333336, "bike_id": "b429d1a6d25493ee9e24f555b36a456b", "type": "electric_scooter", "is_reserved": 0, "lon": -76.9785865}, {"fusion_lat": 0.0, "name": "bee259e421435187ccdc3c00f25e6419", "is_disabled": 0, "rental_uris": {"android": "https://dc.lft.to/lastmile_qr_scan", "ios": "https://dc.lft.to/lastmile_qr_scan"}, "fusion_lon": 0.0, "lat": 38.9332175, "bike_id": "bee259e421435187ccdc3c00f25e6419", "type": "electric_scooter", "is_reserved": 0, "lon": -77.02753683333333}, {"fusion_lat": 0.0, "name": "5786989401b5e150d0a2ecc159f120ed", "is_disabled": 0, "rental_uris": {"android": "https://dc.lft.to/lastmile_qr_scan", "ios": "https://dc.lft.to/lastmile_qr_scan"}, "fusion_lon": 0.0, "lat": 38.900656166666664, "bike_id": "5786989401b5e150d0a2ecc159f120ed", "type": "electric_scooter", "is_reserved": 0, "lon": -77.05424366666666}, {"fusion_lat": 0.0, "name": "469091f18b35e4d8821c7380871475ea", "is_disabled": 0, "rental_uris": {"android": "https://dc.lft.to/lastmile_qr_scan", "ios": "https://dc.lft.to/lastmile_qr_scan"}, "fusion_lon": 0.0, "lat": 38.913565, "bike_id": "469091f18b35e4d8821c7380871475ea", "type": "electric_scooter", "is_reserved": 0, "lon": -77.02206716666667}, {"fusion_lat": 0.0, "name": "5e9bf9e26c7ebac5f5d82548d81a62d9", "is_disabled": 0, "rental_uris": {"android": "https://dc.lft.to/lastmile_qr_scan", "ios": "https://dc.lft.to/lastmile_qr_scan"}, "fusion_lon": 0.0, "lat": 38.928734166666665, "bike_id": "5e9bf9e26c7ebac5f5d82548d81a62d9", "type": "electric_scooter", "is_reserved": 0, "lon": -77.0134665}, {"fusion_lat": 0.0, "name": "8a4cedc50cd466886d939a66035b4ae9", "is_disabled": 0, "rental_uris": {"android": "https://dc.lft.to/lastmile_qr_scan", "ios": "https://dc.lft.to/lastmile_qr_scan"}, "fusion_lon": 0.0, "lat": 38.886401666666664, "bike_id": "8a4cedc50cd466886d939a66035b4ae9", "type": "electric_scooter", "is_reserved": 0, "lon": -77.01950966666666}, {"fusion_lat": 0.0, "name": "44c56a14f1f81d2b85cdf49e45c1628e", "is_disabled": 0, "rental_uris": {"android": "https://dc.lft.to/lastmile_qr_scan", "ios": "https://dc.lft.to/lastmile_qr_scan"}, "fusion_lon": 0.0, "lat": 38.915472333333334, "bike_id": "44c56a14f1f81d2b85cdf49e45c1628e", "type": "electric_scooter", "is_reserved": 0, "lon": -76.98366266666666}, {"fusion_lat": 0.0, "name": "27af0dbe43e7132e8e86a20e5958a66a", "is_disabled": 0, "rental_uris": {"android": "https://dc.lft.to/lastmile_qr_scan", "ios": "https://dc.lft.to/lastmile_qr_scan"}, "fusion_lon": 0.0, "lat": 38.89230166666667, "bike_id": "27af0dbe43e7132e8e86a20e5958a66a", "type": "electric_scooter", "is_reserved": 0, "lon": -77.0465295}, {"fusion_lat": 0.0, "name": "e923fd202bee4a91fc080496074a746c", "is_disabled": 0, "rental_uris": {"android": "https://dc.lft.to/lastmile_qr_scan", "ios": "https://dc.lft.to/lastmile_qr_scan"}, "fusion_lon": 0.0, "lat": 38.89867533333334, "bike_id": "e923fd202bee4a91fc080496074a746c", "type": "electric_scooter", "is_reserved": 0, "lon": -77.02024183333333}, {"fusion_lat": 0.0, "name": "9cab9f92cacf84a0a7a531d20abfc325", "is_disabled": 0, "rental_uris": {"android": "https://dc.lft.to/lastmile_qr_scan", "ios": "https://dc.lft.to/lastmile_qr_scan"}, "fusion_lon": 0.0, "lat": 38.915037, "bike_id": "9cab9f92cacf84a0a7a531d20abfc325", "type": "electric_scooter", "is_reserved": 0, "lon": -77.00921566666666}, {"fusion_lat": 0.0, "name": "8196689a6d23450d7c24f9bdd0629640", "is_disabled": 0, "rental_uris": {"android": "https://dc.lft.to/lastmile_qr_scan", "ios": "https://dc.lft.to/lastmile_qr_scan"}, "fusion_lon": 0.0, "lat": 38.900579, "bike_id": "8196689a6d23450d7c24f9bdd0629640", "type": "electric_scooter", "is_reserved": 0, "lon": -77.00384033333333}, {"fusion_lat": 0.0, "name": "30a9014b065b1fe5c8a3d6af3f361a47", "is_disabled": 0, "rental_uris": {"android": "https://dc.lft.to/lastmile_qr_scan", "ios": "https://dc.lft.to/lastmile_qr_scan"}, "fusion_lon": 0.0, "lat": 38.92873616666667, "bike_id": "30a9014b065b1fe5c8a3d6af3f361a47", "type": "electric_scooter", "is_reserved": 0, "lon": -77.03483133333333}, {"fusion_lat": 0.0, "name": "f22f5135e621d313a11fc116e3d23825", "is_disabled": 0, "rental_uris": {"android": "https://dc.lft.to/lastmile_qr_scan", "ios": "https://dc.lft.to/lastmile_qr_scan"}, "fusion_lon": 0.0, "lat": 38.91120383333333, "bike_id": "f22f5135e621d313a11fc116e3d23825", "type": "electric_scooter", "is_reserved": 0, "lon": -77.038337}, {"fusion_lat": 0.0, "name": "5d0bfed3183977582499eb174467b37f", "is_disabled": 0, "rental_uris": {"android": "https://dc.lft.to/lastmile_qr_scan", "ios": "https://dc.lft.to/lastmile_qr_scan"}, "fusion_lon": 0.0, "lat": 38.9146845, "bike_id": "5d0bfed3183977582499eb174467b37f", "type": "electric_scooter", "is_reserved": 0, "lon": -77.03896116666667}, {"fusion_lat": 0.0, "name": "3e6e041327b8788ae0d4a32d291aad08", "is_disabled": 0, "rental_uris": {"android": "https://dc.lft.to/lastmile_qr_scan", "ios": "https://dc.lft.to/lastmile_qr_scan"}, "fusion_lon": 0.0, "lat": 38.92872, "bike_id": "3e6e041327b8788ae0d4a32d291aad08", "type": "electric_scooter", "is_reserved": 0, "lon": -77.03791366666667}, {"fusion_lat": 0.0, "name": "a8aec72ac48e70a0fe2675aa26f808cf", "is_disabled": 0, "rental_uris": {"android": "https://dc.lft.to/lastmile_qr_scan", "ios": "https://dc.lft.to/lastmile_qr_scan"}, "fusion_lon": 0.0, "lat": 38.8984825, "bike_id": "a8aec72ac48e70a0fe2675aa26f808cf", "type": "electric_scooter", "is_reserved": 0, "lon": -77.026091}, {"fusion_lat": 0.0, "name": "7e670ef871eb3646651fe32c9ff466cb", "is_disabled": 0, "rental_uris": {"android": "https://dc.lft.to/lastmile_qr_scan", "ios": "https://dc.lft.to/lastmile_qr_scan"}, "fusion_lon": 0.0, "lat": 38.92103616666667, "bike_id": "7e670ef871eb3646651fe32c9ff466cb", "type": "electric_scooter", "is_reserved": 0, "lon": -77.07467783333334}, {"fusion_lat": 0.0, "name": "c3700c76a90ea25d11402b00c846f8af", "is_disabled": 0, "rental_uris": {"android": "https://dc.lft.to/lastmile_qr_scan", "ios": "https://dc.lft.to/lastmile_qr_scan"}, "fusion_lon": 0.0, "lat": 38.8737895, "bike_id": "c3700c76a90ea25d11402b00c846f8af", "type": "electric_scooter", "is_reserved": 0, "lon": -77.00021716666667}, {"fusion_lat": 0.0, "name": "8cd3c82a7479521b3e412481d4ec43c4", "is_disabled": 0, "rental_uris": {"android": "https://dc.lft.to/lastmile_qr_scan", "ios": "https://dc.lft.to/lastmile_qr_scan"}, "fusion_lon": 0.0, "lat": 38.92254333333333, "bike_id": "8cd3c82a7479521b3e412481d4ec43c4", "type": "electric_scooter", "is_reserved": 0, "lon": -77.01840183333333}, {"fusion_lat": 0.0, "name": "0bec551d9026f205dd72a0c069b484ac", "is_disabled": 0, "rental_uris": {"android": "https://dc.lft.to/lastmile_qr_scan", "ios": "https://dc.lft.to/lastmile_qr_scan"}, "fusion_lon": 0.0, "lat": 38.91561766666667, "bike_id": "0bec551d9026f205dd72a0c069b484ac", "type": "electric_scooter", "is_reserved": 0, "lon": -77.03149533333334}, {"fusion_lat": 0.0, "name": "871b8fa4089dded2eb3bc28a0c6f8841", "is_disabled": 0, "rental_uris": {"android": "https://dc.lft.to/lastmile_qr_scan", "ios": "https://dc.lft.to/lastmile_qr_scan"}, "fusion_lon": 0.0, "lat": 38.8536175, "bike_id": "871b8fa4089dded2eb3bc28a0c6f8841", "type": "electric_bike", "is_reserved": 0, "lon": -77.11496633333333}, {"fusion_lat": 0.0, "name": "a72dc470fcc5d0b1b6f5c19123643133", "is_disabled": 0, "rental_uris": {"android": "https://dc.lft.to/lastmile_qr_scan", "ios": "https://dc.lft.to/lastmile_qr_scan"}, "fusion_lon": 0.0, "lat": 38.9004575, "bike_id": "a72dc470fcc5d0b1b6f5c19123643133", "type": "electric_scooter", "is_reserved": 0, "lon": -77.04477033333333}, {"fusion_lat": 0.0, "name": "dd3fb4342a0dbf5d4ccad60231049142", "is_disabled": 0, "rental_uris": {"android": "https://dc.lft.to/lastmile_qr_scan", "ios": "https://dc.lft.to/lastmile_qr_scan"}, "fusion_lon": 0.0, "lat": 38.916927, "bike_id": "dd3fb4342a0dbf5d4ccad60231049142", "type": "electric_scooter", "is_reserved": 0, "lon": -77.02690433333333}, {"fusion_lat": 0.0, "name": "f9c45ec680d1cb784c0fbeb1c269222c", "is_disabled": 0, "rental_uris": {"android": "https://dc.lft.to/lastmile_qr_scan", "ios": "https://dc.lft.to/lastmile_qr_scan"}, "fusion_lon": 0.0, "lat": 38.878296666666664, "bike_id": "f9c45ec680d1cb784c0fbeb1c269222c", "type": "electric_scooter", "is_reserved": 0, "lon": -76.990169}, {"fusion_lat": 0.0, "name": "e46bde20d921f3ffb3ebb36064520da6", "is_disabled": 0, "rental_uris": {"android": "https://dc.lft.to/lastmile_qr_scan", "ios": "https://dc.lft.to/lastmile_qr_scan"}, "fusion_lon": 0.0, "lat": 38.93012, "bike_id": "e46bde20d921f3ffb3ebb36064520da6", "type": "electric_scooter", "is_reserved": 0, "lon": -77.02077516666667}, {"fusion_lat": 0.0, "name": "79d7b30f1c65124ee1c69573785d84fd", "is_disabled": 0, "rental_uris": {"android": "https://dc.lft.to/lastmile_qr_scan", "ios": "https://dc.lft.to/lastmile_qr_scan"}, "fusion_lon": 0.0, "lat": 38.924859833333336, "bike_id": "79d7b30f1c65124ee1c69573785d84fd", "type": "electric_scooter", "is_reserved": 0, "lon": -77.02714733333333}, {"fusion_lat": 0.0, "name": "7ff447268d6b7a1a02b56f39c8c1e082", "is_disabled": 0, "rental_uris": {"android": "https://dc.lft.to/lastmile_qr_scan", "ios": "https://dc.lft.to/lastmile_qr_scan"}, "fusion_lon": 0.0, "lat": 38.9073035, "bike_id": "7ff447268d6b7a1a02b56f39c8c1e082", "type": "electric_scooter", "is_reserved": 0, "lon": -77.02815316666667}, {"fusion_lat": 0.0, "name": "7955e0fcf90ab09f33f23dfc54151a08", "is_disabled": 0, "rental_uris": {"android": "https://dc.lft.to/lastmile_qr_scan", "ios": "https://dc.lft.to/lastmile_qr_scan"}, "fusion_lon": 0.0, "lat": 38.92750366666667, "bike_id": "7955e0fcf90ab09f33f23dfc54151a08", "type": "electric_scooter", "is_reserved": 0, "lon": -77.0328955}, {"fusion_lat": 0.0, "name": "19e1e72da5b01433e2a3b11188cd3230", "is_disabled": 0, "rental_uris": {"android": "https://dc.lft.to/lastmile_qr_scan", "ios": "https://dc.lft.to/lastmile_qr_scan"}, "fusion_lon": 0.0, "lat": 39.041804166666665, "bike_id": "19e1e72da5b01433e2a3b11188cd3230", "type": "electric_bike", "is_reserved": 0, "lon": -77.0524105}, {"fusion_lat": 0.0, "name": "74f75f7e492f46b438c67acf1dfc8adc", "is_disabled": 0, "rental_uris": {"android": "https://dc.lft.to/lastmile_qr_scan", "ios": "https://dc.lft.to/lastmile_qr_scan"}, "fusion_lon": 0.0, "lat": 38.9073885, "bike_id": "74f75f7e492f46b438c67acf1dfc8adc", "type": "electric_scooter", "is_reserved": 0, "lon": -77.02606233333333}, {"fusion_lat": 0.0, "name": "62d76cee9fee61931f17286da8d0e267", "is_disabled": 0, "rental_uris": {"android": "https://dc.lft.to/lastmile_qr_scan", "ios": "https://dc.lft.to/lastmile_qr_scan"}, "fusion_lon": 0.0, "lat": 38.83858983333333, "bike_id": "62d76cee9fee61931f17286da8d0e267", "type": "electric_scooter", "is_reserved": 0, "lon": -76.99703916666667}, {"fusion_lat": 0.0, "name": "19900af45bc283cdbe6c471cd10f7eb9", "is_disabled": 0, "rental_uris": {"android": "https://dc.lft.to/lastmile_qr_scan", "ios": "https://dc.lft.to/lastmile_qr_scan"}, "fusion_lon": 0.0, "lat": 38.909869, "bike_id": "19900af45bc283cdbe6c471cd10f7eb9", "type": "electric_scooter", "is_reserved": 0, "lon": -77.04733933333333}, {"fusion_lat": 0.0, "name": "6ffd7616723c003673315b313249ab7b", "is_disabled": 0, "rental_uris": {"android": "https://dc.lft.to/lastmile_qr_scan", "ios": "https://dc.lft.to/lastmile_qr_scan"}, "fusion_lon": 0.0, "lat": 38.938677166666665, "bike_id": "6ffd7616723c003673315b313249ab7b", "type": "electric_scooter", "is_reserved": 0, "lon": -77.03205583333333}, {"fusion_lat": 0.0, "name": "76fb5a9f45dfed4f30333ceae43e5dc1", "is_disabled": 0, "rental_uris": {"android": "https://dc.lft.to/lastmile_qr_scan", "ios": "https://dc.lft.to/lastmile_qr_scan"}, "fusion_lon": 0.0, "lat": 38.914208, "bike_id": "76fb5a9f45dfed4f30333ceae43e5dc1", "type": "electric_scooter", "is_reserved": 0, "lon": -76.984474}, {"fusion_lat": 0.0, "name": "31e692e6f7eca96dae126acc8e07fc99", "is_disabled": 0, "rental_uris": {"android": "https://dc.lft.to/lastmile_qr_scan", "ios": "https://dc.lft.to/lastmile_qr_scan"}, "fusion_lon": 0.0, "lat": 38.919586333333335, "bike_id": "31e692e6f7eca96dae126acc8e07fc99", "type": "electric_bike", "is_reserved": 0, "lon": -77.101058}, {"fusion_lat": 0.0, "name": "f047a4720c1d8a748d30ad1a237fb047", "is_disabled": 0, "rental_uris": {"android": "https://dc.lft.to/lastmile_qr_scan", "ios": "https://dc.lft.to/lastmile_qr_scan"}, "fusion_lon": 0.0, "lat": 38.907942166666665, "bike_id": "f047a4720c1d8a748d30ad1a237fb047", "type": "electric_scooter", "is_reserved": 0, "lon": -77.04331133333334}, {"fusion_lat": 0.0, "name": "53e9f3a88b2783d4dc5c911048b10d3a", "is_disabled": 0, "rental_uris": {"android": "https://dc.lft.to/lastmile_qr_scan", "ios": "https://dc.lft.to/lastmile_qr_scan"}, "fusion_lon": 0.0, "lat": 38.91108333333333, "bike_id": "53e9f3a88b2783d4dc5c911048b10d3a", "type": "electric_scooter", "is_reserved": 0, "lon": -77.04396316666667}, {"fusion_lat": 0.0, "name": "ecdaa57d827f4b3b068aa02620b10c76", "is_disabled": 0, "rental_uris": {"android": "https://dc.lft.to/lastmile_qr_scan", "ios": "https://dc.lft.to/lastmile_qr_scan"}, "fusion_lon": 0.0, "lat": 38.9102705, "bike_id": "ecdaa57d827f4b3b068aa02620b10c76", "type": "electric_scooter", "is_reserved": 0, "lon": -77.01222066666666}, {"fusion_lat": 0.0, "name": "91ae533887009bca94b13c1852b2b6e5", "is_disabled": 0, "rental_uris": {"android": "https://dc.lft.to/lastmile_qr_scan", "ios": "https://dc.lft.to/lastmile_qr_scan"}, "fusion_lon": 0.0, "lat": 38.92248933333333, "bike_id": "91ae533887009bca94b13c1852b2b6e5", "type": "electric_scooter", "is_reserved": 0, "lon": -76.9840815}, {"fusion_lat": 0.0, "name": "2498f5050e011a1b5b16a3f4251db7af", "is_disabled": 0, "rental_uris": {"android": "https://dc.lft.to/lastmile_qr_scan", "ios": "https://dc.lft.to/lastmile_qr_scan"}, "fusion_lon": 0.0, "lat": 38.91488116666667, "bike_id": "2498f5050e011a1b5b16a3f4251db7af", "type": "electric_scooter", "is_reserved": 0, "lon": -77.01229483333333}, {"fusion_lat": 0.0, "name": "35e7cc3ebad29ccfd8926ca22c40fb16", "is_disabled": 0, "rental_uris": {"android": "https://dc.lft.to/lastmile_qr_scan", "ios": "https://dc.lft.to/lastmile_qr_scan"}, "fusion_lon": 0.0, "lat": 38.908690166666666, "bike_id": "35e7cc3ebad29ccfd8926ca22c40fb16", "type": "electric_scooter", "is_reserved": 0, "lon": -77.00934683333334}, {"fusion_lat": 0.0, "name": "a60545b6a2490d999557544428442662", "is_disabled": 0, "rental_uris": {"android": "https://dc.lft.to/lastmile_qr_scan", "ios": "https://dc.lft.to/lastmile_qr_scan"}, "fusion_lon": 0.0, "lat": 38.876364833333334, "bike_id": "a60545b6a2490d999557544428442662", "type": "electric_scooter", "is_reserved": 0, "lon": -77.001218}, {"fusion_lat": 0.0, "name": "9fd6282119830cb95e8e42ce5ec633b8", "is_disabled": 0, "rental_uris": {"android": "https://dc.lft.to/lastmile_qr_scan", "ios": "https://dc.lft.to/lastmile_qr_scan"}, "fusion_lon": 0.0, "lat": 38.92142916666667, "bike_id": "9fd6282119830cb95e8e42ce5ec633b8", "type": "electric_scooter", "is_reserved": 0, "lon": -77.01808566666666}, {"fusion_lat": 0.0, "name": "46fc631a2578a4a192e43451f1fb4560", "is_disabled": 0, "rental_uris": {"android": "https://dc.lft.to/lastmile_qr_scan", "ios": "https://dc.lft.to/lastmile_qr_scan"}, "fusion_lon": 0.0, "lat": 38.90678483333333, "bike_id": "46fc631a2578a4a192e43451f1fb4560", "type": "electric_scooter", "is_reserved": 0, "lon": -77.0416415}, {"fusion_lat": 0.0, "name": "5ef03156bbdc5feffb898421609cc8ab", "is_disabled": 0, "rental_uris": {"android": "https://dc.lft.to/lastmile_qr_scan", "ios": "https://dc.lft.to/lastmile_qr_scan"}, "fusion_lon": 0.0, "lat": 38.949084, "bike_id": "5ef03156bbdc5feffb898421609cc8ab", "type": "electric_bike", "is_reserved": 0, "lon": -77.03807716666667}, {"fusion_lat": 0.0, "name": "9a0681b0fb636f8477394aecedfe5562", "is_disabled": 0, "rental_uris": {"android": "https://dc.lft.to/lastmile_qr_scan", "ios": "https://dc.lft.to/lastmile_qr_scan"}, "fusion_lon": 0.0, "lat": 38.8957215, "bike_id": "9a0681b0fb636f8477394aecedfe5562", "type": "electric_scooter", "is_reserved": 0, "lon": -77.0271365}, {"fusion_lat": 0.0, "name": "a8592e029c71e1ee3c50ec1e14a9c8c1", "is_disabled": 0, "rental_uris": {"android": "https://dc.lft.to/lastmile_qr_scan", "ios": "https://dc.lft.to/lastmile_qr_scan"}, "fusion_lon": 0.0, "lat": 38.8987595, "bike_id": "a8592e029c71e1ee3c50ec1e14a9c8c1", "type": "electric_scooter", "is_reserved": 0, "lon": -76.94630066666667}, {"fusion_lat": 0.0, "name": "dd8797d13aa018a1a8a0c2e56a014f4e", "is_disabled": 0, "rental_uris": {"android": "https://dc.lft.to/lastmile_qr_scan", "ios": "https://dc.lft.to/lastmile_qr_scan"}, "fusion_lon": 0.0, "lat": 38.920847333333334, "bike_id": "dd8797d13aa018a1a8a0c2e56a014f4e", "type": "electric_scooter", "is_reserved": 0, "lon": -77.02404833333334}, {"fusion_lat": 0.0, "name": "aed071535032eaf4b2f77b7f4f92eade", "is_disabled": 0, "rental_uris": {"android": "https://dc.lft.to/lastmile_qr_scan", "ios": "https://dc.lft.to/lastmile_qr_scan"}, "fusion_lon": 0.0, "lat": 38.906469666666666, "bike_id": "aed071535032eaf4b2f77b7f4f92eade", "type": "electric_scooter", "is_reserved": 0, "lon": -77.0428735}, {"fusion_lat": 0.0, "name": "f0fca737192adf9aebf454f341d182f1", "is_disabled": 0, "rental_uris": {"android": "https://dc.lft.to/lastmile_qr_scan", "ios": "https://dc.lft.to/lastmile_qr_scan"}, "fusion_lon": 0.0, "lat": 38.903726166666665, "bike_id": "f0fca737192adf9aebf454f341d182f1", "type": "electric_scooter", "is_reserved": 0, "lon": -77.0379015}, {"fusion_lat": 0.0, "name": "08d79493b9c50a5f5e7d41616c277c3e", "is_disabled": 0, "rental_uris": {"android": "https://dc.lft.to/lastmile_qr_scan", "ios": "https://dc.lft.to/lastmile_qr_scan"}, "fusion_lon": 0.0, "lat": 38.912139833333335, "bike_id": "08d79493b9c50a5f5e7d41616c277c3e", "type": "electric_scooter", "is_reserved": 0, "lon": -77.0384465}, {"fusion_lat": 0.0, "name": "610f1318100265c265ae5dded08757d7", "is_disabled": 0, "rental_uris": {"android": "https://dc.lft.to/lastmile_qr_scan", "ios": "https://dc.lft.to/lastmile_qr_scan"}, "fusion_lon": 0.0, "lat": 38.913998, "bike_id": "610f1318100265c265ae5dded08757d7", "type": "electric_scooter", "is_reserved": 0, "lon": -77.01622533333334}, {"fusion_lat": 0.0, "name": "02e29e9d2c712f5c9576488761238b56", "is_disabled": 0, "rental_uris": {"android": "https://dc.lft.to/lastmile_qr_scan", "ios": "https://dc.lft.to/lastmile_qr_scan"}, "fusion_lon": 0.0, "lat": 38.937595333333334, "bike_id": "02e29e9d2c712f5c9576488761238b56", "type": "electric_scooter", "is_reserved": 0, "lon": -77.0758915}, {"fusion_lat": 0.0, "name": "135151c331a9c26619217b17fe05e81f", "is_disabled": 0, "rental_uris": {"android": "https://dc.lft.to/lastmile_qr_scan", "ios": "https://dc.lft.to/lastmile_qr_scan"}, "fusion_lon": 0.0, "lat": 38.90893483333333, "bike_id": "135151c331a9c26619217b17fe05e81f", "type": "electric_scooter", "is_reserved": 0, "lon": -77.06428933333333}, {"fusion_lat": 0.0, "name": "ebe8b18d0de27fe8aeb402066fcb7f97", "is_disabled": 0, "rental_uris": {"android": "https://dc.lft.to/lastmile_qr_scan", "ios": "https://dc.lft.to/lastmile_qr_scan"}, "fusion_lon": 0.0, "lat": 38.8997115, "bike_id": "ebe8b18d0de27fe8aeb402066fcb7f97", "type": "electric_scooter", "is_reserved": 0, "lon": -77.04528366666666}, {"fusion_lat": 0.0, "name": "ef92e40ba6d696960865194a022cc0f4", "is_disabled": 0, "rental_uris": {"android": "https://dc.lft.to/lastmile_qr_scan", "ios": "https://dc.lft.to/lastmile_qr_scan"}, "fusion_lon": 0.0, "lat": 38.907312166666664, "bike_id": "ef92e40ba6d696960865194a022cc0f4", "type": "electric_scooter", "is_reserved": 0, "lon": -76.99835316666666}, {"fusion_lat": 0.0, "name": "f9748b1afab500990f8d6306963cc0cb", "is_disabled": 0, "rental_uris": {"android": "https://dc.lft.to/lastmile_qr_scan", "ios": "https://dc.lft.to/lastmile_qr_scan"}, "fusion_lon": 0.0, "lat": 38.995310833333335, "bike_id": "f9748b1afab500990f8d6306963cc0cb", "type": "electric_bike", "is_reserved": 0, "lon": -77.02907116666667}, {"fusion_lat": 0.0, "name": "98d267bdabb71011ec2e6cb069f8c63d", "is_disabled": 0, "rental_uris": {"android": "https://dc.lft.to/lastmile_qr_scan", "ios": "https://dc.lft.to/lastmile_qr_scan"}, "fusion_lon": 0.0, "lat": 38.88114083333333, "bike_id": "98d267bdabb71011ec2e6cb069f8c63d", "type": "electric_bike", "is_reserved": 0, "lon": -77.016114}, {"fusion_lat": 0.0, "name": "6933a3d73a67f9bc79133d3aae7a6ae8", "is_disabled": 0, "rental_uris": {"android": "https://dc.lft.to/lastmile_qr_scan", "ios": "https://dc.lft.to/lastmile_qr_scan"}, "fusion_lon": 0.0, "lat": 38.86632133333333, "bike_id": "6933a3d73a67f9bc79133d3aae7a6ae8", "type": "electric_scooter", "is_reserved": 0, "lon": -76.9826465}, {"fusion_lat": 0.0, "name": "48a153d6cfc05575887ae2efff2f22ed", "is_disabled": 0, "rental_uris": {"android": "https://dc.lft.to/lastmile_qr_scan", "ios": "https://dc.lft.to/lastmile_qr_scan"}, "fusion_lon": 0.0, "lat": 38.91169883333333, "bike_id": "48a153d6cfc05575887ae2efff2f22ed", "type": "electric_scooter", "is_reserved": 0, "lon": -77.00184416666667}, {"fusion_lat": 0.0, "name": "c82923cd19cbee4c0a1da0346b94287a", "is_disabled": 0, "rental_uris": {"android": "https://dc.lft.to/lastmile_qr_scan", "ios": "https://dc.lft.to/lastmile_qr_scan"}, "fusion_lon": 0.0, "lat": 38.88813616666667, "bike_id": "c82923cd19cbee4c0a1da0346b94287a", "type": "electric_scooter", "is_reserved": 0, "lon": -76.983589}, {"fusion_lat": 0.0, "name": "395c9f5ff33d70cb8b647592bb4f1622", "is_disabled": 0, "rental_uris": {"android": "https://dc.lft.to/lastmile_qr_scan", "ios": "https://dc.lft.to/lastmile_qr_scan"}, "fusion_lon": 0.0, "lat": 38.92687766666667, "bike_id": "395c9f5ff33d70cb8b647592bb4f1622", "type": "electric_scooter", "is_reserved": 0, "lon": -77.031474}, {"fusion_lat": 0.0, "name": "06fec34dcc4b799ac02d9230c2d55f93", "is_disabled": 0, "rental_uris": {"android": "https://dc.lft.to/lastmile_qr_scan", "ios": "https://dc.lft.to/lastmile_qr_scan"}, "fusion_lon": 0.0, "lat": 38.91966766666667, "bike_id": "06fec34dcc4b799ac02d9230c2d55f93", "type": "electric_scooter", "is_reserved": 0, "lon": -77.0237335}, {"fusion_lat": 0.0, "name": "0b3e68072ffedfc82508a00d17dc3e68", "is_disabled": 0, "rental_uris": {"android": "https://dc.lft.to/lastmile_qr_scan", "ios": "https://dc.lft.to/lastmile_qr_scan"}, "fusion_lon": 0.0, "lat": 38.91698016666667, "bike_id": "0b3e68072ffedfc82508a00d17dc3e68", "type": "electric_scooter", "is_reserved": 0, "lon": -77.02846516666666}, {"fusion_lat": 0.0, "name": "a13833df0d27a130376dada384bbc7bf", "is_disabled": 0, "rental_uris": {"android": "https://dc.lft.to/lastmile_qr_scan", "ios": "https://dc.lft.to/lastmile_qr_scan"}, "fusion_lon": 0.0, "lat": 38.916991333333335, "bike_id": "a13833df0d27a130376dada384bbc7bf", "type": "electric_scooter", "is_reserved": 0, "lon": -77.0228675}, {"fusion_lat": 0.0, "name": "6837e70c0766f9fd9ae586f5fb7d2870", "is_disabled": 0, "rental_uris": {"android": "https://dc.lft.to/lastmile_qr_scan", "ios": "https://dc.lft.to/lastmile_qr_scan"}, "fusion_lon": 0.0, "lat": 38.905241333333336, "bike_id": "6837e70c0766f9fd9ae586f5fb7d2870", "type": "electric_scooter", "is_reserved": 0, "lon": -77.02971466666666}, {"fusion_lat": 0.0, "name": "c18ac7eb7a45cb326003829428c69262", "is_disabled": 0, "rental_uris": {"android": "https://dc.lft.to/lastmile_qr_scan", "ios": "https://dc.lft.to/lastmile_qr_scan"}, "fusion_lon": 0.0, "lat": 38.902987333333336, "bike_id": "c18ac7eb7a45cb326003829428c69262", "type": "electric_scooter", "is_reserved": 0, "lon": -76.9925535}, {"fusion_lat": 0.0, "name": "58be3fa31e86053aa388082f047da779", "is_disabled": 0, "rental_uris": {"android": "https://dc.lft.to/lastmile_qr_scan", "ios": "https://dc.lft.to/lastmile_qr_scan"}, "fusion_lon": 0.0, "lat": 38.913425, "bike_id": "58be3fa31e86053aa388082f047da779", "type": "electric_bike", "is_reserved": 0, "lon": -76.98891316666666}, {"fusion_lat": 0.0, "name": "1ee5c1286b1bcfb956e854ca2acfeec0", "is_disabled": 0, "rental_uris": {"android": "https://dc.lft.to/lastmile_qr_scan", "ios": "https://dc.lft.to/lastmile_qr_scan"}, "fusion_lon": 0.0, "lat": 38.94168283333333, "bike_id": "1ee5c1286b1bcfb956e854ca2acfeec0", "type": "electric_scooter", "is_reserved": 0, "lon": -77.02510533333333}, {"fusion_lat": 0.0, "name": "570f4d5d27574282e0fcff38d67541fd", "is_disabled": 0, "rental_uris": {"android": "https://dc.lft.to/lastmile_qr_scan", "ios": "https://dc.lft.to/lastmile_qr_scan"}, "fusion_lon": 0.0, "lat": 38.922530333333334, "bike_id": "570f4d5d27574282e0fcff38d67541fd", "type": "electric_scooter", "is_reserved": 0, "lon": -77.033834}, {"fusion_lat": 0.0, "name": "07eccc4dc4035aff92abe5ad46017d47", "is_disabled": 0, "rental_uris": {"android": "https://dc.lft.to/lastmile_qr_scan", "ios": "https://dc.lft.to/lastmile_qr_scan"}, "fusion_lon": 0.0, "lat": 38.9223865, "bike_id": "07eccc4dc4035aff92abe5ad46017d47", "type": "electric_scooter", "is_reserved": 0, "lon": -77.03511966666667}, {"fusion_lat": 0.0, "name": "70fbadd4a1ffc6679bb3224a43a8e6af", "is_disabled": 0, "rental_uris": {"android": "https://dc.lft.to/lastmile_qr_scan", "ios": "https://dc.lft.to/lastmile_qr_scan"}, "fusion_lon": 0.0, "lat": 38.83408, "bike_id": "70fbadd4a1ffc6679bb3224a43a8e6af", "type": "electric_bike", "is_reserved": 0, "lon": -77.0033315}, {"fusion_lat": 0.0, "name": "e4c2ede0e738beabd52fe0ca781c4cf1", "is_disabled": 0, "rental_uris": {"android": "https://dc.lft.to/lastmile_qr_scan", "ios": "https://dc.lft.to/lastmile_qr_scan"}, "fusion_lon": 0.0, "lat": 38.90852066666667, "bike_id": "e4c2ede0e738beabd52fe0ca781c4cf1", "type": "electric_scooter", "is_reserved": 0, "lon": -77.028292}, {"fusion_lat": 0.0, "name": "860838328dadb3c42e775d4a455bfe3f", "is_disabled": 0, "rental_uris": {"android": "https://dc.lft.to/lastmile_qr_scan", "ios": "https://dc.lft.to/lastmile_qr_scan"}, "fusion_lon": 0.0, "lat": 38.900213, "bike_id": "860838328dadb3c42e775d4a455bfe3f", "type": "electric_scooter", "is_reserved": 0, "lon": -77.0123835}, {"fusion_lat": 0.0, "name": "bfdbf1268d2fb66f2aa393dc44f13b7b", "is_disabled": 0, "rental_uris": {"android": "https://dc.lft.to/lastmile_qr_scan", "ios": "https://dc.lft.to/lastmile_qr_scan"}, "fusion_lon": 0.0, "lat": 38.9155415, "bike_id": "bfdbf1268d2fb66f2aa393dc44f13b7b", "type": "electric_scooter", "is_reserved": 0, "lon": -77.0350475}, {"fusion_lat": 0.0, "name": "3b3677ccdacb6a1fe2e025c2fc63196c", "is_disabled": 0, "rental_uris": {"android": "https://dc.lft.to/lastmile_qr_scan", "ios": "https://dc.lft.to/lastmile_qr_scan"}, "fusion_lon": 0.0, "lat": 38.8844025, "bike_id": "3b3677ccdacb6a1fe2e025c2fc63196c", "type": "electric_scooter", "is_reserved": 0, "lon": -77.00345383333334}, {"fusion_lat": 0.0, "name": "f66c34e6f749b71a5afaeec7ac44ba38", "is_disabled": 0, "rental_uris": {"android": "https://dc.lft.to/lastmile_qr_scan", "ios": "https://dc.lft.to/lastmile_qr_scan"}, "fusion_lon": 0.0, "lat": 38.923170166666665, "bike_id": "f66c34e6f749b71a5afaeec7ac44ba38", "type": "electric_scooter", "is_reserved": 0, "lon": -77.01993516666667}, {"fusion_lat": 0.0, "name": "91615ec41bba90805a7cc84779a27496", "is_disabled": 0, "rental_uris": {"android": "https://dc.lft.to/lastmile_qr_scan", "ios": "https://dc.lft.to/lastmile_qr_scan"}, "fusion_lon": 0.0, "lat": 38.90410416666667, "bike_id": "91615ec41bba90805a7cc84779a27496", "type": "electric_scooter", "is_reserved": 0, "lon": -76.9733035}, {"fusion_lat": 0.0, "name": "6f60e44ccd131e88aadf2948b88d6c80", "is_disabled": 0, "rental_uris": {"android": "https://dc.lft.to/lastmile_qr_scan", "ios": "https://dc.lft.to/lastmile_qr_scan"}, "fusion_lon": 0.0, "lat": 38.897503666666665, "bike_id": "6f60e44ccd131e88aadf2948b88d6c80", "type": "electric_scooter", "is_reserved": 0, "lon": -77.05145633333333}, {"fusion_lat": 0.0, "name": "2586ce4afcce8c7f6f6fd066323841bd", "is_disabled": 0, "rental_uris": {"android": "https://dc.lft.to/lastmile_qr_scan", "ios": "https://dc.lft.to/lastmile_qr_scan"}, "fusion_lon": 0.0, "lat": 38.9042435, "bike_id": "2586ce4afcce8c7f6f6fd066323841bd", "type": "electric_scooter", "is_reserved": 0, "lon": -77.04068466666666}, {"fusion_lat": 0.0, "name": "cf7c3541e0819708c73c35691f27f7a4", "is_disabled": 0, "rental_uris": {"android": "https://dc.lft.to/lastmile_qr_scan", "ios": "https://dc.lft.to/lastmile_qr_scan"}, "fusion_lon": 0.0, "lat": 38.87763133333333, "bike_id": "cf7c3541e0819708c73c35691f27f7a4", "type": "electric_scooter", "is_reserved": 0, "lon": -76.9938385}, {"fusion_lat": 0.0, "name": "dab0f59db5ea9ee1925c634e430a212c", "is_disabled": 0, "rental_uris": {"android": "https://dc.lft.to/lastmile_qr_scan", "ios": "https://dc.lft.to/lastmile_qr_scan"}, "fusion_lon": 0.0, "lat": 38.929725166666664, "bike_id": "dab0f59db5ea9ee1925c634e430a212c", "type": "electric_scooter", "is_reserved": 0, "lon": -77.02795383333333}, {"fusion_lat": 0.0, "name": "84ff12684310faebe8c5e566d589d34e", "is_disabled": 0, "rental_uris": {"android": "https://dc.lft.to/lastmile_qr_scan", "ios": "https://dc.lft.to/lastmile_qr_scan"}, "fusion_lon": 0.0, "lat": 38.902718166666666, "bike_id": "84ff12684310faebe8c5e566d589d34e", "type": "electric_scooter", "is_reserved": 0, "lon": -77.03973683333334}, {"fusion_lat": 0.0, "name": "82fc638a67b3eff0f0abacf56f79dc74", "is_disabled": 0, "rental_uris": {"android": "https://dc.lft.to/lastmile_qr_scan", "ios": "https://dc.lft.to/lastmile_qr_scan"}, "fusion_lon": 0.0, "lat": 38.8832505, "bike_id": "82fc638a67b3eff0f0abacf56f79dc74", "type": "electric_scooter", "is_reserved": 0, "lon": -77.019192}, {"fusion_lat": 0.0, "name": "42ccdd223a0b886102167958680e30d5", "is_disabled": 0, "rental_uris": {"android": "https://dc.lft.to/lastmile_qr_scan", "ios": "https://dc.lft.to/lastmile_qr_scan"}, "fusion_lon": 0.0, "lat": 38.8635605, "bike_id": "42ccdd223a0b886102167958680e30d5", "type": "electric_bike", "is_reserved": 0, "lon": -77.07721116666667}, {"fusion_lat": 0.0, "name": "979d786b0c5cc5c0f37581b910cf20f7", "is_disabled": 0, "rental_uris": {"android": "https://dc.lft.to/lastmile_qr_scan", "ios": "https://dc.lft.to/lastmile_qr_scan"}, "fusion_lon": 0.0, "lat": 38.90957566666667, "bike_id": "979d786b0c5cc5c0f37581b910cf20f7", "type": "electric_scooter", "is_reserved": 0, "lon": -76.98542016666667}, {"fusion_lat": 0.0, "name": "3793da62d09672232f8f2eec6d574f57", "is_disabled": 0, "rental_uris": {"android": "https://dc.lft.to/lastmile_qr_scan", "ios": "https://dc.lft.to/lastmile_qr_scan"}, "fusion_lon": 0.0, "lat": 38.95282616666667, "bike_id": "3793da62d09672232f8f2eec6d574f57", "type": "electric_bike", "is_reserved": 0, "lon": -76.999972}, {"fusion_lat": 0.0, "name": "d961874cc937f9cf80359d317e121dcb", "is_disabled": 0, "rental_uris": {"android": "https://dc.lft.to/lastmile_qr_scan", "ios": "https://dc.lft.to/lastmile_qr_scan"}, "fusion_lon": 0.0, "lat": 38.9073835, "bike_id": "d961874cc937f9cf80359d317e121dcb", "type": "electric_scooter", "is_reserved": 0, "lon": -77.02970433333333}, {"fusion_lat": 0.0, "name": "3b8c1895da2870686ec490dbfe6b3ad4", "is_disabled": 0, "rental_uris": {"android": "https://dc.lft.to/lastmile_qr_scan", "ios": "https://dc.lft.to/lastmile_qr_scan"}, "fusion_lon": 0.0, "lat": 38.900132166666666, "bike_id": "3b8c1895da2870686ec490dbfe6b3ad4", "type": "electric_scooter", "is_reserved": 0, "lon": -76.98673666666667}, {"fusion_lat": 0.0, "name": "3af0001dce78e36dd97954780a04c5f5", "is_disabled": 0, "rental_uris": {"android": "https://dc.lft.to/lastmile_qr_scan", "ios": "https://dc.lft.to/lastmile_qr_scan"}, "fusion_lon": 0.0, "lat": 38.937529166666664, "bike_id": "3af0001dce78e36dd97954780a04c5f5", "type": "electric_scooter", "is_reserved": 0, "lon": -77.02525433333334}, {"fusion_lat": 0.0, "name": "c285ebd5c8751b8d219e8610b84213e1", "is_disabled": 0, "rental_uris": {"android": "https://dc.lft.to/lastmile_qr_scan", "ios": "https://dc.lft.to/lastmile_qr_scan"}, "fusion_lon": 0.0, "lat": 38.841299, "bike_id": "c285ebd5c8751b8d219e8610b84213e1", "type": "electric_bike", "is_reserved": 0, "lon": -77.06310583333334}, {"fusion_lat": 0.0, "name": "80522e94f4ddd35221b51ebc42f41dc3", "is_disabled": 0, "rental_uris": {"android": "https://dc.lft.to/lastmile_qr_scan", "ios": "https://dc.lft.to/lastmile_qr_scan"}, "fusion_lon": 0.0, "lat": 38.89225916666667, "bike_id": "80522e94f4ddd35221b51ebc42f41dc3", "type": "electric_scooter", "is_reserved": 0, "lon": -77.00299833333334}, {"fusion_lat": 0.0, "name": "874a47442a57a319fdbcb8081496fde8", "is_disabled": 0, "rental_uris": {"android": "https://dc.lft.to/lastmile_qr_scan", "ios": "https://dc.lft.to/lastmile_qr_scan"}, "fusion_lon": 0.0, "lat": 38.819414, "bike_id": "874a47442a57a319fdbcb8081496fde8", "type": "electric_bike", "is_reserved": 0, "lon": -77.00202}, {"fusion_lat": 0.0, "name": "1c95e142943fe412d0431507f4691d56", "is_disabled": 0, "rental_uris": {"android": "https://dc.lft.to/lastmile_qr_scan", "ios": "https://dc.lft.to/lastmile_qr_scan"}, "fusion_lon": 0.0, "lat": 38.929947, "bike_id": "1c95e142943fe412d0431507f4691d56", "type": "electric_scooter", "is_reserved": 0, "lon": -77.03231983333333}, {"fusion_lat": 0.0, "name": "71e8a8edbe039ab98426986301c4eeeb", "is_disabled": 0, "rental_uris": {"android": "https://dc.lft.to/lastmile_qr_scan", "ios": "https://dc.lft.to/lastmile_qr_scan"}, "fusion_lon": 0.0, "lat": 38.938463, "bike_id": "71e8a8edbe039ab98426986301c4eeeb", "type": "electric_scooter", "is_reserved": 0, "lon": -77.06249333333334}, {"fusion_lat": 0.0, "name": "7592e0d9b9b7726a78087a4ad0f45a98", "is_disabled": 0, "rental_uris": {"android": "https://dc.lft.to/lastmile_qr_scan", "ios": "https://dc.lft.to/lastmile_qr_scan"}, "fusion_lon": 0.0, "lat": 38.91707266666667, "bike_id": "7592e0d9b9b7726a78087a4ad0f45a98", "type": "electric_scooter", "is_reserved": 0, "lon": -77.03104616666667}, {"fusion_lat": 0.0, "name": "6a98958ba709b19cf6a1739d80117fec", "is_disabled": 0, "rental_uris": {"android": "https://dc.lft.to/lastmile_qr_scan", "ios": "https://dc.lft.to/lastmile_qr_scan"}, "fusion_lon": 0.0, "lat": 38.9166885, "bike_id": "6a98958ba709b19cf6a1739d80117fec", "type": "electric_scooter", "is_reserved": 0, "lon": -77.0385255}, {"fusion_lat": 0.0, "name": "1864eba7849e0362f740fd5a2a0cc57d", "is_disabled": 0, "rental_uris": {"android": "https://dc.lft.to/lastmile_qr_scan", "ios": "https://dc.lft.to/lastmile_qr_scan"}, "fusion_lon": 0.0, "lat": 38.912599, "bike_id": "1864eba7849e0362f740fd5a2a0cc57d", "type": "electric_scooter", "is_reserved": 0, "lon": -77.03826566666666}, {"fusion_lat": 0.0, "name": "004712fba834fe8a580e2905e7d94735", "is_disabled": 0, "rental_uris": {"android": "https://dc.lft.to/lastmile_qr_scan", "ios": "https://dc.lft.to/lastmile_qr_scan"}, "fusion_lon": 0.0, "lat": 38.84088083333333, "bike_id": "004712fba834fe8a580e2905e7d94735", "type": "electric_bike", "is_reserved": 0, "lon": -76.9702835}, {"fusion_lat": 0.0, "name": "f48b7eb83794031edbdee3549ccfeb61", "is_disabled": 0, "rental_uris": {"android": "https://dc.lft.to/lastmile_qr_scan", "ios": "https://dc.lft.to/lastmile_qr_scan"}, "fusion_lon": 0.0, "lat": 38.920084333333335, "bike_id": "f48b7eb83794031edbdee3549ccfeb61", "type": "electric_scooter", "is_reserved": 0, "lon": -77.07128066666667}, {"fusion_lat": 0.0, "name": "77ece885495ef4678ec7ae5f4630b0ae", "is_disabled": 0, "rental_uris": {"android": "https://dc.lft.to/lastmile_qr_scan", "ios": "https://dc.lft.to/lastmile_qr_scan"}, "fusion_lon": 0.0, "lat": 38.93119016666667, "bike_id": "77ece885495ef4678ec7ae5f4630b0ae", "type": "electric_scooter", "is_reserved": 0, "lon": -77.020992}, {"fusion_lat": 0.0, "name": "525cb335a268fadbe1e7cb37cb5cf352", "is_disabled": 0, "rental_uris": {"android": "https://dc.lft.to/lastmile_qr_scan", "ios": "https://dc.lft.to/lastmile_qr_scan"}, "fusion_lon": 0.0, "lat": 38.900396666666666, "bike_id": "525cb335a268fadbe1e7cb37cb5cf352", "type": "electric_scooter", "is_reserved": 0, "lon": -77.00029283333333}, {"fusion_lat": 0.0, "name": "4f362869b97758e96347504c0b8b6a5e", "is_disabled": 0, "rental_uris": {"android": "https://dc.lft.to/lastmile_qr_scan", "ios": "https://dc.lft.to/lastmile_qr_scan"}, "fusion_lon": 0.0, "lat": 38.89643316666667, "bike_id": "4f362869b97758e96347504c0b8b6a5e", "type": "electric_bike", "is_reserved": 0, "lon": -77.087101}, {"fusion_lat": 0.0, "name": "38c11bc3c19110dd5f4c02eb82643497", "is_disabled": 0, "rental_uris": {"android": "https://dc.lft.to/lastmile_qr_scan", "ios": "https://dc.lft.to/lastmile_qr_scan"}, "fusion_lon": 0.0, "lat": 38.95531033333334, "bike_id": "38c11bc3c19110dd5f4c02eb82643497", "type": "electric_bike", "is_reserved": 0, "lon": -76.96819033333334}, {"fusion_lat": 0.0, "name": "09354e1240ffddbc98b3d7cdabd9e121", "is_disabled": 0, "rental_uris": {"android": "https://dc.lft.to/lastmile_qr_scan", "ios": "https://dc.lft.to/lastmile_qr_scan"}, "fusion_lon": 0.0, "lat": 38.90640533333333, "bike_id": "09354e1240ffddbc98b3d7cdabd9e121", "type": "electric_scooter", "is_reserved": 0, "lon": -77.0296435}, {"fusion_lat": 0.0, "name": "4deb5af8979d3b297faf7b6ca7ddc0c6", "is_disabled": 0, "rental_uris": {"android": "https://dc.lft.to/lastmile_qr_scan", "ios": "https://dc.lft.to/lastmile_qr_scan"}, "fusion_lon": 0.0, "lat": 38.86625183333334, "bike_id": "4deb5af8979d3b297faf7b6ca7ddc0c6", "type": "electric_scooter", "is_reserved": 0, "lon": -76.98713616666667}, {"fusion_lat": 0.0, "name": "d675cfdafafe4ee90f56d779b5ad2c28", "is_disabled": 0, "rental_uris": {"android": "https://dc.lft.to/lastmile_qr_scan", "ios": "https://dc.lft.to/lastmile_qr_scan"}, "fusion_lon": 0.0, "lat": 38.92409116666666, "bike_id": "d675cfdafafe4ee90f56d779b5ad2c28", "type": "electric_scooter", "is_reserved": 0, "lon": -77.02003133333334}, {"fusion_lat": 0.0, "name": "6b0ef4ccf82f8a7b09f913c45959ef2a", "is_disabled": 0, "rental_uris": {"android": "https://dc.lft.to/lastmile_qr_scan", "ios": "https://dc.lft.to/lastmile_qr_scan"}, "fusion_lon": 0.0, "lat": 38.9179745, "bike_id": "6b0ef4ccf82f8a7b09f913c45959ef2a", "type": "electric_scooter", "is_reserved": 0, "lon": -77.036398}, {"fusion_lat": 0.0, "name": "1b171769458d483e2dbd35cbd31786ce", "is_disabled": 0, "rental_uris": {"android": "https://dc.lft.to/lastmile_qr_scan", "ios": "https://dc.lft.to/lastmile_qr_scan"}, "fusion_lon": 0.0, "lat": 38.89183533333333, "bike_id": "1b171769458d483e2dbd35cbd31786ce", "type": "electric_scooter", "is_reserved": 0, "lon": -76.99936016666666}, {"fusion_lat": 0.0, "name": "c82a98d1188f27104185b2a54657810a", "is_disabled": 0, "rental_uris": {"android": "https://dc.lft.to/lastmile_qr_scan", "ios": "https://dc.lft.to/lastmile_qr_scan"}, "fusion_lon": 0.0, "lat": 38.93124533333334, "bike_id": "c82a98d1188f27104185b2a54657810a", "type": "electric_scooter", "is_reserved": 0, "lon": -77.07846916666666}, {"fusion_lat": 0.0, "name": "8ff7524c5d66c27efce532e16884b5fe", "is_disabled": 0, "rental_uris": {"android": "https://dc.lft.to/lastmile_qr_scan", "ios": "https://dc.lft.to/lastmile_qr_scan"}, "fusion_lon": 0.0, "lat": 38.92067383333333, "bike_id": "8ff7524c5d66c27efce532e16884b5fe", "type": "electric_scooter", "is_reserved": 0, "lon": -77.02363066666666}, {"fusion_lat": 0.0, "name": "a80fc848c857216267f0100e30caaf2e", "is_disabled": 0, "rental_uris": {"android": "https://dc.lft.to/lastmile_qr_scan", "ios": "https://dc.lft.to/lastmile_qr_scan"}, "fusion_lon": 0.0, "lat": 38.944494166666665, "bike_id": "a80fc848c857216267f0100e30caaf2e", "type": "electric_scooter", "is_reserved": 0, "lon": -77.02339516666666}, {"fusion_lat": 0.0, "name": "173cddfe5f8faba190b884882cd371b6", "is_disabled": 0, "rental_uris": {"android": "https://dc.lft.to/lastmile_qr_scan", "ios": "https://dc.lft.to/lastmile_qr_scan"}, "fusion_lon": 0.0, "lat": 38.90251216666667, "bike_id": "173cddfe5f8faba190b884882cd371b6", "type": "electric_scooter", "is_reserved": 0, "lon": -77.04367}, {"fusion_lat": 0.0, "name": "6d26db5882ffe8d860f2cfe2ac055063", "is_disabled": 0, "rental_uris": {"android": "https://dc.lft.to/lastmile_qr_scan", "ios": "https://dc.lft.to/lastmile_qr_scan"}, "fusion_lon": 0.0, "lat": 38.959534, "bike_id": "6d26db5882ffe8d860f2cfe2ac055063", "type": "electric_bike", "is_reserved": 0, "lon": -77.03061833333334}, {"fusion_lat": 0.0, "name": "0f643addc81df34adb47de56efbe43eb", "is_disabled": 0, "rental_uris": {"android": "https://dc.lft.to/lastmile_qr_scan", "ios": "https://dc.lft.to/lastmile_qr_scan"}, "fusion_lon": 0.0, "lat": 38.90719133333333, "bike_id": "0f643addc81df34adb47de56efbe43eb", "type": "electric_scooter", "is_reserved": 0, "lon": -77.04813416666667}, {"fusion_lat": 0.0, "name": "f2b810e17b4c69a53093ca9fc420b593", "is_disabled": 0, "rental_uris": {"android": "https://dc.lft.to/lastmile_qr_scan", "ios": "https://dc.lft.to/lastmile_qr_scan"}, "fusion_lon": 0.0, "lat": 38.904815166666666, "bike_id": "f2b810e17b4c69a53093ca9fc420b593", "type": "electric_scooter", "is_reserved": 0, "lon": -77.041763}, {"fusion_lat": 0.0, "name": "574d916378405981bf1dd04e7daa387d", "is_disabled": 0, "rental_uris": {"android": "https://dc.lft.to/lastmile_qr_scan", "ios": "https://dc.lft.to/lastmile_qr_scan"}, "fusion_lon": 0.0, "lat": 38.904739166666666, "bike_id": "574d916378405981bf1dd04e7daa387d", "type": "electric_scooter", "is_reserved": 0, "lon": -77.01702933333333}, {"fusion_lat": 0.0, "name": "81d86b8f194f22a50679c27a29a9d35a", "is_disabled": 0, "rental_uris": {"android": "https://dc.lft.to/lastmile_qr_scan", "ios": "https://dc.lft.to/lastmile_qr_scan"}, "fusion_lon": 0.0, "lat": 38.87801983333333, "bike_id": "81d86b8f194f22a50679c27a29a9d35a", "type": "electric_scooter", "is_reserved": 0, "lon": -77.001264}, {"fusion_lat": 0.0, "name": "decd7589a8e66785bd623ef3407327cb", "is_disabled": 0, "rental_uris": {"android": "https://dc.lft.to/lastmile_qr_scan", "ios": "https://dc.lft.to/lastmile_qr_scan"}, "fusion_lon": 0.0, "lat": 38.9028045, "bike_id": "decd7589a8e66785bd623ef3407327cb", "type": "electric_scooter", "is_reserved": 0, "lon": -77.03644133333333}, {"fusion_lat": 0.0, "name": "7f40d62342091747ae8187cb9811f93f", "is_disabled": 0, "rental_uris": {"android": "https://dc.lft.to/lastmile_qr_scan", "ios": "https://dc.lft.to/lastmile_qr_scan"}, "fusion_lon": 0.0, "lat": 38.91681416666667, "bike_id": "7f40d62342091747ae8187cb9811f93f", "type": "electric_scooter", "is_reserved": 0, "lon": -77.02399733333333}, {"fusion_lat": 0.0, "name": "158e0f2840de47fdecc2a5c0b29af864", "is_disabled": 0, "rental_uris": {"android": "https://dc.lft.to/lastmile_qr_scan", "ios": "https://dc.lft.to/lastmile_qr_scan"}, "fusion_lon": 0.0, "lat": 38.887063, "bike_id": "158e0f2840de47fdecc2a5c0b29af864", "type": "electric_scooter", "is_reserved": 0, "lon": -76.99674266666666}, {"fusion_lat": 0.0, "name": "36844612d65d14c055e03fb7bb24b8a5", "is_disabled": 0, "rental_uris": {"android": "https://dc.lft.to/lastmile_qr_scan", "ios": "https://dc.lft.to/lastmile_qr_scan"}, "fusion_lon": 0.0, "lat": 38.946067666666664, "bike_id": "36844612d65d14c055e03fb7bb24b8a5", "type": "electric_bike", "is_reserved": 0, "lon": -77.02874616666666}, {"fusion_lat": 0.0, "name": "c71e90467ba34deb7fd0d69de29b9b5f", "is_disabled": 0, "rental_uris": {"android": "https://dc.lft.to/lastmile_qr_scan", "ios": "https://dc.lft.to/lastmile_qr_scan"}, "fusion_lon": 0.0, "lat": 38.927529166666666, "bike_id": "c71e90467ba34deb7fd0d69de29b9b5f", "type": "electric_scooter", "is_reserved": 0, "lon": -77.03281683333333}, {"fusion_lat": 0.0, "name": "2b2b43e749fab77abd1fc37051991f36", "is_disabled": 0, "rental_uris": {"android": "https://dc.lft.to/lastmile_qr_scan", "ios": "https://dc.lft.to/lastmile_qr_scan"}, "fusion_lon": 0.0, "lat": 38.92238583333334, "bike_id": "2b2b43e749fab77abd1fc37051991f36", "type": "electric_scooter", "is_reserved": 0, "lon": -77.04249633333333}, {"fusion_lat": 0.0, "name": "8707e2403f94fe6bb5d55f3d848719fc", "is_disabled": 0, "rental_uris": {"android": "https://dc.lft.to/lastmile_qr_scan", "ios": "https://dc.lft.to/lastmile_qr_scan"}, "fusion_lon": 0.0, "lat": 38.8922415, "bike_id": "8707e2403f94fe6bb5d55f3d848719fc", "type": "electric_scooter", "is_reserved": 0, "lon": -77.05035933333333}, {"fusion_lat": 0.0, "name": "f5705ad421ad49cb8258c672c57bec2d", "is_disabled": 0, "rental_uris": {"android": "https://dc.lft.to/lastmile_qr_scan", "ios": "https://dc.lft.to/lastmile_qr_scan"}, "fusion_lon": 0.0, "lat": 38.86017283333334, "bike_id": "f5705ad421ad49cb8258c672c57bec2d", "type": "electric_bike", "is_reserved": 0, "lon": -77.1280705}, {"fusion_lat": 0.0, "name": "d7bc5d1dd67652178dbfb6865ffd73cc", "is_disabled": 0, "rental_uris": {"android": "https://dc.lft.to/lastmile_qr_scan", "ios": "https://dc.lft.to/lastmile_qr_scan"}, "fusion_lon": 0.0, "lat": 38.9039545, "bike_id": "d7bc5d1dd67652178dbfb6865ffd73cc", "type": "electric_scooter", "is_reserved": 0, "lon": -76.9900845}, {"fusion_lat": 0.0, "name": "57372678f717424a19ec01d4526a0348", "is_disabled": 0, "rental_uris": {"android": "https://dc.lft.to/lastmile_qr_scan", "ios": "https://dc.lft.to/lastmile_qr_scan"}, "fusion_lon": 0.0, "lat": 38.9073095, "bike_id": "57372678f717424a19ec01d4526a0348", "type": "electric_scooter", "is_reserved": 0, "lon": -77.01220933333333}, {"fusion_lat": 0.0, "name": "a5f30e343a0bad098c4517917af11b4a", "is_disabled": 0, "rental_uris": {"android": "https://dc.lft.to/lastmile_qr_scan", "ios": "https://dc.lft.to/lastmile_qr_scan"}, "fusion_lon": 0.0, "lat": 38.904102, "bike_id": "a5f30e343a0bad098c4517917af11b4a", "type": "electric_scooter", "is_reserved": 0, "lon": -76.9733065}, {"fusion_lat": 0.0, "name": "42ca8a062c8bd2e6608b8199eb33063b", "is_disabled": 0, "rental_uris": {"android": "https://dc.lft.to/lastmile_qr_scan", "ios": "https://dc.lft.to/lastmile_qr_scan"}, "fusion_lon": 0.0, "lat": 38.92319966666667, "bike_id": "42ca8a062c8bd2e6608b8199eb33063b", "type": "electric_scooter", "is_reserved": 0, "lon": -77.0199395}, {"fusion_lat": 0.0, "name": "9a12a0c456526fc0368cc347f16e4c93", "is_disabled": 0, "rental_uris": {"android": "https://dc.lft.to/lastmile_qr_scan", "ios": "https://dc.lft.to/lastmile_qr_scan"}, "fusion_lon": 0.0, "lat": 38.93019316666667, "bike_id": "9a12a0c456526fc0368cc347f16e4c93", "type": "electric_scooter", "is_reserved": 0, "lon": -77.0378855}, {"fusion_lat": 0.0, "name": "08524f4982efddcefa930ac1e7aa17a9", "is_disabled": 0, "rental_uris": {"android": "https://dc.lft.to/lastmile_qr_scan", "ios": "https://dc.lft.to/lastmile_qr_scan"}, "fusion_lon": 0.0, "lat": 38.90517466666667, "bike_id": "08524f4982efddcefa930ac1e7aa17a9", "type": "electric_scooter", "is_reserved": 0, "lon": -77.04125233333333}, {"fusion_lat": 0.0, "name": "11d331f12682b75144965c1a0036c1a9", "is_disabled": 0, "rental_uris": {"android": "https://dc.lft.to/lastmile_qr_scan", "ios": "https://dc.lft.to/lastmile_qr_scan"}, "fusion_lon": 0.0, "lat": 38.91647833333333, "bike_id": "11d331f12682b75144965c1a0036c1a9", "type": "electric_scooter", "is_reserved": 0, "lon": -77.02281866666667}, {"fusion_lat": 0.0, "name": "11ea4e3018ea02b8c8a0aa73edc65f84", "is_disabled": 0, "rental_uris": {"android": "https://dc.lft.to/lastmile_qr_scan", "ios": "https://dc.lft.to/lastmile_qr_scan"}, "fusion_lon": 0.0, "lat": 38.952346166666665, "bike_id": "11ea4e3018ea02b8c8a0aa73edc65f84", "type": "electric_scooter", "is_reserved": 0, "lon": -76.99006416666667}, {"fusion_lat": 0.0, "name": "554ed653d2d07f168a3e1db8b3c79821", "is_disabled": 0, "rental_uris": {"android": "https://dc.lft.to/lastmile_qr_scan", "ios": "https://dc.lft.to/lastmile_qr_scan"}, "fusion_lon": 0.0, "lat": 38.9025735, "bike_id": "554ed653d2d07f168a3e1db8b3c79821", "type": "electric_scooter", "is_reserved": 0, "lon": -76.9745065}, {"fusion_lat": 0.0, "name": "00fedb4a90da319559778078ebedca4c", "is_disabled": 0, "rental_uris": {"android": "https://dc.lft.to/lastmile_qr_scan", "ios": "https://dc.lft.to/lastmile_qr_scan"}, "fusion_lon": 0.0, "lat": 38.929304, "bike_id": "00fedb4a90da319559778078ebedca4c", "type": "electric_scooter", "is_reserved": 0, "lon": -77.02336}, {"fusion_lat": 0.0, "name": "54a00b3366b31b4a839ed444dfaf9d26", "is_disabled": 0, "rental_uris": {"android": "https://dc.lft.to/lastmile_qr_scan", "ios": "https://dc.lft.to/lastmile_qr_scan"}, "fusion_lon": 0.0, "lat": 38.93075316666667, "bike_id": "54a00b3366b31b4a839ed444dfaf9d26", "type": "electric_scooter", "is_reserved": 0, "lon": -77.07760016666667}, {"fusion_lat": 0.0, "name": "4ac0030fb58488ba2e1c2191e1900387", "is_disabled": 0, "rental_uris": {"android": "https://dc.lft.to/lastmile_qr_scan", "ios": "https://dc.lft.to/lastmile_qr_scan"}, "fusion_lon": 0.0, "lat": 38.92071083333333, "bike_id": "4ac0030fb58488ba2e1c2191e1900387", "type": "electric_scooter", "is_reserved": 0, "lon": -77.04192933333333}, {"fusion_lat": 0.0, "name": "0e49d3813feab70d2e1bc68e2c1ac7c2", "is_disabled": 0, "rental_uris": {"android": "https://dc.lft.to/lastmile_qr_scan", "ios": "https://dc.lft.to/lastmile_qr_scan"}, "fusion_lon": 0.0, "lat": 38.9418155, "bike_id": "0e49d3813feab70d2e1bc68e2c1ac7c2", "type": "electric_scooter", "is_reserved": 0, "lon": -77.0249105}, {"fusion_lat": 0.0, "name": "503789bd6ee32b230ed0c5b7aa81a88d", "is_disabled": 0, "rental_uris": {"android": "https://dc.lft.to/lastmile_qr_scan", "ios": "https://dc.lft.to/lastmile_qr_scan"}, "fusion_lon": 0.0, "lat": 38.900693833333335, "bike_id": "503789bd6ee32b230ed0c5b7aa81a88d", "type": "electric_scooter", "is_reserved": 0, "lon": -77.04789066666666}, {"fusion_lat": 0.0, "name": "638b08f2ee3a16e813395d1b6f8f5e00", "is_disabled": 0, "rental_uris": {"android": "https://dc.lft.to/lastmile_qr_scan", "ios": "https://dc.lft.to/lastmile_qr_scan"}, "fusion_lon": 0.0, "lat": 38.91625233333333, "bike_id": "638b08f2ee3a16e813395d1b6f8f5e00", "type": "electric_scooter", "is_reserved": 0, "lon": -77.03858466666667}, {"fusion_lat": 0.0, "name": "aae1c011d86e1cf38bdd65063abe42d5", "is_disabled": 0, "rental_uris": {"android": "https://dc.lft.to/lastmile_qr_scan", "ios": "https://dc.lft.to/lastmile_qr_scan"}, "fusion_lon": 0.0, "lat": 38.91739166666667, "bike_id": "aae1c011d86e1cf38bdd65063abe42d5", "type": "electric_scooter", "is_reserved": 0, "lon": -77.03202233333333}, {"fusion_lat": 0.0, "name": "c40f9707a2084bb8c7b3d15a1bfd7bee", "is_disabled": 0, "rental_uris": {"android": "https://dc.lft.to/lastmile_qr_scan", "ios": "https://dc.lft.to/lastmile_qr_scan"}, "fusion_lon": 0.0, "lat": 38.9345425, "bike_id": "c40f9707a2084bb8c7b3d15a1bfd7bee", "type": "electric_scooter", "is_reserved": 0, "lon": -77.02339333333333}, {"fusion_lat": 0.0, "name": "10fd2ae248cf8325bb924be15f790e90", "is_disabled": 0, "rental_uris": {"android": "https://dc.lft.to/lastmile_qr_scan", "ios": "https://dc.lft.to/lastmile_qr_scan"}, "fusion_lon": 0.0, "lat": 38.902023, "bike_id": "10fd2ae248cf8325bb924be15f790e90", "type": "electric_scooter", "is_reserved": 0, "lon": -77.0220615}, {"fusion_lat": 0.0, "name": "20c152c6e23ae02ba8c3aca6b5306414", "is_disabled": 0, "rental_uris": {"android": "https://dc.lft.to/lastmile_qr_scan", "ios": "https://dc.lft.to/lastmile_qr_scan"}, "fusion_lon": 0.0, "lat": 38.84633766666666, "bike_id": "20c152c6e23ae02ba8c3aca6b5306414", "type": "electric_scooter", "is_reserved": 0, "lon": -76.96920933333334}, {"fusion_lat": 0.0, "name": "e0da53171e76fd3b001e6cdfac1986d7", "is_disabled": 0, "rental_uris": {"android": "https://dc.lft.to/lastmile_qr_scan", "ios": "https://dc.lft.to/lastmile_qr_scan"}, "fusion_lon": 0.0, "lat": 38.922133333333335, "bike_id": "e0da53171e76fd3b001e6cdfac1986d7", "type": "electric_scooter", "is_reserved": 0, "lon": -77.01821016666666}, {"fusion_lat": 0.0, "name": "8a619c71b4c18ed3a49a260f0d5be1d9", "is_disabled": 0, "rental_uris": {"android": "https://dc.lft.to/lastmile_qr_scan", "ios": "https://dc.lft.to/lastmile_qr_scan"}, "fusion_lon": 0.0, "lat": 38.89568383333334, "bike_id": "8a619c71b4c18ed3a49a260f0d5be1d9", "type": "electric_bike", "is_reserved": 0, "lon": -77.127364}, {"fusion_lat": 0.0, "name": "527593a3cb6583f2c0058f79bc28e756", "is_disabled": 0, "rental_uris": {"android": "https://dc.lft.to/lastmile_qr_scan", "ios": "https://dc.lft.to/lastmile_qr_scan"}, "fusion_lon": 0.0, "lat": 38.96125333333333, "bike_id": "527593a3cb6583f2c0058f79bc28e756", "type": "electric_scooter", "is_reserved": 0, "lon": -77.02803966666667}, {"fusion_lat": 0.0, "name": "b6a28af272a8a821ddebb1a95c928d6c", "is_disabled": 0, "rental_uris": {"android": "https://dc.lft.to/lastmile_qr_scan", "ios": "https://dc.lft.to/lastmile_qr_scan"}, "fusion_lon": 0.0, "lat": 38.937489, "bike_id": "b6a28af272a8a821ddebb1a95c928d6c", "type": "electric_scooter", "is_reserved": 0, "lon": -77.02528783333334}, {"fusion_lat": 0.0, "name": "7bc90180fa04141db9bcecbf3b62fd3d", "is_disabled": 0, "rental_uris": {"android": "https://dc.lft.to/lastmile_qr_scan", "ios": "https://dc.lft.to/lastmile_qr_scan"}, "fusion_lon": 0.0, "lat": 38.900645, "bike_id": "7bc90180fa04141db9bcecbf3b62fd3d", "type": "electric_scooter", "is_reserved": 0, "lon": -76.9338875}, {"fusion_lat": 0.0, "name": "83cf37869f88b45ea1d628c96c1c1f25", "is_disabled": 0, "rental_uris": {"android": "https://dc.lft.to/lastmile_qr_scan", "ios": "https://dc.lft.to/lastmile_qr_scan"}, "fusion_lon": 0.0, "lat": 38.9295725, "bike_id": "83cf37869f88b45ea1d628c96c1c1f25", "type": "electric_scooter", "is_reserved": 0, "lon": -77.02338566666667}, {"fusion_lat": 0.0, "name": "d1be34849617952a1cefe291270a4c19", "is_disabled": 0, "rental_uris": {"android": "https://dc.lft.to/lastmile_qr_scan", "ios": "https://dc.lft.to/lastmile_qr_scan"}, "fusion_lon": 0.0, "lat": 38.900455, "bike_id": "d1be34849617952a1cefe291270a4c19", "type": "electric_scooter", "is_reserved": 0, "lon": -77.01735316666667}, {"fusion_lat": 0.0, "name": "9ef9ef2416383062f16b485df0f21e64", "is_disabled": 0, "rental_uris": {"android": "https://dc.lft.to/lastmile_qr_scan", "ios": "https://dc.lft.to/lastmile_qr_scan"}, "fusion_lon": 0.0, "lat": 38.903843333333334, "bike_id": "9ef9ef2416383062f16b485df0f21e64", "type": "electric_scooter", "is_reserved": 0, "lon": -77.06133816666667}, {"fusion_lat": 0.0, "name": "bb1bc4b6be9e3c167b856aea60eedaa8", "is_disabled": 0, "rental_uris": {"android": "https://dc.lft.to/lastmile_qr_scan", "ios": "https://dc.lft.to/lastmile_qr_scan"}, "fusion_lon": 0.0, "lat": 38.896081333333335, "bike_id": "bb1bc4b6be9e3c167b856aea60eedaa8", "type": "electric_scooter", "is_reserved": 0, "lon": -77.04979283333333}, {"fusion_lat": 0.0, "name": "1800616852ef2f1b9a2f51e5fba6e4a2", "is_disabled": 0, "rental_uris": {"android": "https://dc.lft.to/lastmile_qr_scan", "ios": "https://dc.lft.to/lastmile_qr_scan"}, "fusion_lon": 0.0, "lat": 38.921183666666664, "bike_id": "1800616852ef2f1b9a2f51e5fba6e4a2", "type": "electric_scooter", "is_reserved": 0, "lon": -77.0120695}, {"fusion_lat": 0.0, "name": "e45f53c4a237e60a58fb8cf8bc682312", "is_disabled": 0, "rental_uris": {"android": "https://dc.lft.to/lastmile_qr_scan", "ios": "https://dc.lft.to/lastmile_qr_scan"}, "fusion_lon": 0.0, "lat": 38.874770166666664, "bike_id": "e45f53c4a237e60a58fb8cf8bc682312", "type": "electric_scooter", "is_reserved": 0, "lon": -77.000475}, {"fusion_lat": 0.0, "name": "d7e57ecc63063a0c47667a43fea71c4c", "is_disabled": 0, "rental_uris": {"android": "https://dc.lft.to/lastmile_qr_scan", "ios": "https://dc.lft.to/lastmile_qr_scan"}, "fusion_lon": 0.0, "lat": 38.90392666666666, "bike_id": "d7e57ecc63063a0c47667a43fea71c4c", "type": "electric_scooter", "is_reserved": 0, "lon": -77.0461435}, {"fusion_lat": 0.0, "name": "943ef56c7b3cf3e8cb01d57ca903b6eb", "is_disabled": 0, "rental_uris": {"android": "https://dc.lft.to/lastmile_qr_scan", "ios": "https://dc.lft.to/lastmile_qr_scan"}, "fusion_lon": 0.0, "lat": 38.912584333333335, "bike_id": "943ef56c7b3cf3e8cb01d57ca903b6eb", "type": "electric_scooter", "is_reserved": 0, "lon": -77.0311065}, {"fusion_lat": 0.0, "name": "388e55b066a19fa56fcb88838ff7ff61", "is_disabled": 0, "rental_uris": {"android": "https://dc.lft.to/lastmile_qr_scan", "ios": "https://dc.lft.to/lastmile_qr_scan"}, "fusion_lon": 0.0, "lat": 38.8785045, "bike_id": "388e55b066a19fa56fcb88838ff7ff61", "type": "electric_bike", "is_reserved": 0, "lon": -77.0301875}, {"fusion_lat": 0.0, "name": "6804a71f5cf0b90c6f5bbd65d592647e", "is_disabled": 0, "rental_uris": {"android": "https://dc.lft.to/lastmile_qr_scan", "ios": "https://dc.lft.to/lastmile_qr_scan"}, "fusion_lon": 0.0, "lat": 38.927466, "bike_id": "6804a71f5cf0b90c6f5bbd65d592647e", "type": "electric_scooter", "is_reserved": 0, "lon": -77.02161616666666}, {"fusion_lat": 0.0, "name": "2f549e1713a6b5eff6eb3f40a2b2a756", "is_disabled": 0, "rental_uris": {"android": "https://dc.lft.to/lastmile_qr_scan", "ios": "https://dc.lft.to/lastmile_qr_scan"}, "fusion_lon": 0.0, "lat": 38.9366935, "bike_id": "2f549e1713a6b5eff6eb3f40a2b2a756", "type": "electric_scooter", "is_reserved": 0, "lon": -77.036959}, {"fusion_lat": 0.0, "name": "0e5eeab94ca9b14cab225fc5d7d3897b", "is_disabled": 0, "rental_uris": {"android": "https://dc.lft.to/lastmile_qr_scan", "ios": "https://dc.lft.to/lastmile_qr_scan"}, "fusion_lon": 0.0, "lat": 38.87814516666667, "bike_id": "0e5eeab94ca9b14cab225fc5d7d3897b", "type": "electric_scooter", "is_reserved": 0, "lon": -77.02186616666667}, {"fusion_lat": 0.0, "name": "5b1ab1c613de54129fdeafbddf360d1c", "is_disabled": 0, "rental_uris": {"android": "https://dc.lft.to/lastmile_qr_scan", "ios": "https://dc.lft.to/lastmile_qr_scan"}, "fusion_lon": 0.0, "lat": 38.900749166666664, "bike_id": "5b1ab1c613de54129fdeafbddf360d1c", "type": "electric_scooter", "is_reserved": 0, "lon": -77.04929816666667}, {"fusion_lat": 0.0, "name": "7c79184f35b54f849eea29f07c43391d", "is_disabled": 0, "rental_uris": {"android": "https://dc.lft.to/lastmile_qr_scan", "ios": "https://dc.lft.to/lastmile_qr_scan"}, "fusion_lon": 0.0, "lat": 38.928482833333334, "bike_id": "7c79184f35b54f849eea29f07c43391d", "type": "electric_scooter", "is_reserved": 0, "lon": -77.0327165}, {"fusion_lat": 0.0, "name": "774c1b6d5d9d733fd19479c579abc943", "is_disabled": 0, "rental_uris": {"android": "https://dc.lft.to/lastmile_qr_scan", "ios": "https://dc.lft.to/lastmile_qr_scan"}, "fusion_lon": 0.0, "lat": 38.91939966666666, "bike_id": "774c1b6d5d9d733fd19479c579abc943", "type": "electric_scooter", "is_reserved": 0, "lon": -77.0181375}, {"fusion_lat": 0.0, "name": "f11f1e63b07086aa03c7dd96edab09d6", "is_disabled": 0, "rental_uris": {"android": "https://dc.lft.to/lastmile_qr_scan", "ios": "https://dc.lft.to/lastmile_qr_scan"}, "fusion_lon": 0.0, "lat": 38.95872633333333, "bike_id": "f11f1e63b07086aa03c7dd96edab09d6", "type": "electric_bike", "is_reserved": 0, "lon": -76.97051633333334}, {"fusion_lat": 0.0, "name": "34e0f0087e1fd5009e733e4b1ced3f3e", "is_disabled": 0, "rental_uris": {"android": "https://dc.lft.to/lastmile_qr_scan", "ios": "https://dc.lft.to/lastmile_qr_scan"}, "fusion_lon": 0.0, "lat": 38.8995885, "bike_id": "34e0f0087e1fd5009e733e4b1ced3f3e", "type": "electric_scooter", "is_reserved": 0, "lon": -77.01506233333333}, {"fusion_lat": 0.0, "name": "6c1378befcb0a2c1ad5bb277530fdf55", "is_disabled": 0, "rental_uris": {"android": "https://dc.lft.to/lastmile_qr_scan", "ios": "https://dc.lft.to/lastmile_qr_scan"}, "fusion_lon": 0.0, "lat": 38.91987733333333, "bike_id": "6c1378befcb0a2c1ad5bb277530fdf55", "type": "electric_scooter", "is_reserved": 0, "lon": -77.03328366666666}, {"fusion_lat": 0.0, "name": "ee147eb81e71ff8e8ab211d89331aaa2", "is_disabled": 0, "rental_uris": {"android": "https://dc.lft.to/lastmile_qr_scan", "ios": "https://dc.lft.to/lastmile_qr_scan"}, "fusion_lon": 0.0, "lat": 38.9491865, "bike_id": "ee147eb81e71ff8e8ab211d89331aaa2", "type": "electric_bike", "is_reserved": 0, "lon": -77.0079045}, {"fusion_lat": 0.0, "name": "cc789c8ffd6a342656a5882998205326", "is_disabled": 0, "rental_uris": {"android": "https://dc.lft.to/lastmile_qr_scan", "ios": "https://dc.lft.to/lastmile_qr_scan"}, "fusion_lon": 0.0, "lat": 38.936025666666666, "bike_id": "cc789c8ffd6a342656a5882998205326", "type": "electric_scooter", "is_reserved": 0, "lon": -77.02294333333333}, {"fusion_lat": 0.0, "name": "cd0820954cc1cda699eb8970047652a2", "is_disabled": 0, "rental_uris": {"android": "https://dc.lft.to/lastmile_qr_scan", "ios": "https://dc.lft.to/lastmile_qr_scan"}, "fusion_lon": 0.0, "lat": 38.89984533333333, "bike_id": "cd0820954cc1cda699eb8970047652a2", "type": "electric_scooter", "is_reserved": 0, "lon": -77.0334045}, {"fusion_lat": 0.0, "name": "ead61998e3a974eb56d079037db4aa98", "is_disabled": 0, "rental_uris": {"android": "https://dc.lft.to/lastmile_qr_scan", "ios": "https://dc.lft.to/lastmile_qr_scan"}, "fusion_lon": 0.0, "lat": 38.923440166666666, "bike_id": "ead61998e3a974eb56d079037db4aa98", "type": "electric_scooter", "is_reserved": 0, "lon": -77.03540183333334}, {"fusion_lat": 0.0, "name": "f2d8dc6bb3427dc96d1b18a87e5e7892", "is_disabled": 0, "rental_uris": {"android": "https://dc.lft.to/lastmile_qr_scan", "ios": "https://dc.lft.to/lastmile_qr_scan"}, "fusion_lon": 0.0, "lat": 38.956364, "bike_id": "f2d8dc6bb3427dc96d1b18a87e5e7892", "type": "electric_scooter", "is_reserved": 0, "lon": -77.03302466666666}, {"fusion_lat": 0.0, "name": "9418fee19a697bb4f651a11c90986584", "is_disabled": 0, "rental_uris": {"android": "https://dc.lft.to/lastmile_qr_scan", "ios": "https://dc.lft.to/lastmile_qr_scan"}, "fusion_lon": 0.0, "lat": 38.906203, "bike_id": "9418fee19a697bb4f651a11c90986584", "type": "electric_scooter", "is_reserved": 0, "lon": -77.0297545}, {"fusion_lat": 0.0, "name": "5f95ec0c47f92791d77aedf863bf600c", "is_disabled": 0, "rental_uris": {"android": "https://dc.lft.to/lastmile_qr_scan", "ios": "https://dc.lft.to/lastmile_qr_scan"}, "fusion_lon": 0.0, "lat": 38.897518166666664, "bike_id": "5f95ec0c47f92791d77aedf863bf600c", "type": "electric_scooter", "is_reserved": 0, "lon": -77.05175183333333}, {"fusion_lat": 0.0, "name": "4ab3a29edfe41d1a85dd218d46172e19", "is_disabled": 0, "rental_uris": {"android": "https://dc.lft.to/lastmile_qr_scan", "ios": "https://dc.lft.to/lastmile_qr_scan"}, "fusion_lon": 0.0, "lat": 38.913053, "bike_id": "4ab3a29edfe41d1a85dd218d46172e19", "type": "electric_scooter", "is_reserved": 0, "lon": -77.04879666666666}, {"fusion_lat": 0.0, "name": "c2e75d0541e5b3576d4b9d4e7e1dce48", "is_disabled": 0, "rental_uris": {"android": "https://dc.lft.to/lastmile_qr_scan", "ios": "https://dc.lft.to/lastmile_qr_scan"}, "fusion_lon": 0.0, "lat": 38.909552166666664, "bike_id": "c2e75d0541e5b3576d4b9d4e7e1dce48", "type": "electric_scooter", "is_reserved": 0, "lon": -77.03829916666666}, {"fusion_lat": 0.0, "name": "289587d64c953d0eec488537e370231a", "is_disabled": 0, "rental_uris": {"android": "https://dc.lft.to/lastmile_qr_scan", "ios": "https://dc.lft.to/lastmile_qr_scan"}, "fusion_lon": 0.0, "lat": 38.819157833333335, "bike_id": "289587d64c953d0eec488537e370231a", "type": "electric_bike", "is_reserved": 0, "lon": -77.126636}, {"fusion_lat": 0.0, "name": "8fe36f39f8c47c90e68f68e282fe0508", "is_disabled": 0, "rental_uris": {"android": "https://dc.lft.to/lastmile_qr_scan", "ios": "https://dc.lft.to/lastmile_qr_scan"}, "fusion_lon": 0.0, "lat": 38.919604666666665, "bike_id": "8fe36f39f8c47c90e68f68e282fe0508", "type": "electric_scooter", "is_reserved": 0, "lon": -77.07088433333334}, {"fusion_lat": 0.0, "name": "cc97bc0586ddabe8ba55b7a997782163", "is_disabled": 0, "rental_uris": {"android": "https://dc.lft.to/lastmile_qr_scan", "ios": "https://dc.lft.to/lastmile_qr_scan"}, "fusion_lon": 0.0, "lat": 38.917652333333336, "bike_id": "cc97bc0586ddabe8ba55b7a997782163", "type": "electric_scooter", "is_reserved": 0, "lon": -77.036349}, {"fusion_lat": 0.0, "name": "6574219325df8e6aa1f63483a6b12fe0", "is_disabled": 0, "rental_uris": {"android": "https://dc.lft.to/lastmile_qr_scan", "ios": "https://dc.lft.to/lastmile_qr_scan"}, "fusion_lon": 0.0, "lat": 38.9090155, "bike_id": "6574219325df8e6aa1f63483a6b12fe0", "type": "electric_scooter", "is_reserved": 0, "lon": -77.03277016666667}, {"fusion_lat": 0.0, "name": "2582ef8781f292983efd3217a7fe6236", "is_disabled": 0, "rental_uris": {"android": "https://dc.lft.to/lastmile_qr_scan", "ios": "https://dc.lft.to/lastmile_qr_scan"}, "fusion_lon": 0.0, "lat": 38.93137216666667, "bike_id": "2582ef8781f292983efd3217a7fe6236", "type": "electric_scooter", "is_reserved": 0, "lon": -77.03254683333333}, {"fusion_lat": 0.0, "name": "6446968156efbffa7d8d4f5bb0048a41", "is_disabled": 0, "rental_uris": {"android": "https://dc.lft.to/lastmile_qr_scan", "ios": "https://dc.lft.to/lastmile_qr_scan"}, "fusion_lon": 0.0, "lat": 38.91812083333333, "bike_id": "6446968156efbffa7d8d4f5bb0048a41", "type": "electric_scooter", "is_reserved": 0, "lon": -77.01132183333333}, {"fusion_lat": 0.0, "name": "7b35d0f5302d3365aaf175a846b92cba", "is_disabled": 0, "rental_uris": {"android": "https://dc.lft.to/lastmile_qr_scan", "ios": "https://dc.lft.to/lastmile_qr_scan"}, "fusion_lon": 0.0, "lat": 38.892852166666664, "bike_id": "7b35d0f5302d3365aaf175a846b92cba", "type": "electric_scooter", "is_reserved": 0, "lon": -76.98308183333333}, {"fusion_lat": 0.0, "name": "d3b7baf14438d3cae6fe3fcd9a0edc7c", "is_disabled": 0, "rental_uris": {"android": "https://dc.lft.to/lastmile_qr_scan", "ios": "https://dc.lft.to/lastmile_qr_scan"}, "fusion_lon": 0.0, "lat": 38.9151975, "bike_id": "d3b7baf14438d3cae6fe3fcd9a0edc7c", "type": "electric_scooter", "is_reserved": 0, "lon": -77.03168616666666}, {"fusion_lat": 0.0, "name": "25462d5ca025a089a45abb9a0b16f220", "is_disabled": 0, "rental_uris": {"android": "https://dc.lft.to/lastmile_qr_scan", "ios": "https://dc.lft.to/lastmile_qr_scan"}, "fusion_lon": 0.0, "lat": 38.9490095, "bike_id": "25462d5ca025a089a45abb9a0b16f220", "type": "electric_bike", "is_reserved": 0, "lon": -76.96371816666667}, {"fusion_lat": 0.0, "name": "d08dc71ac97ceff6e32545807cca8b1d", "is_disabled": 0, "rental_uris": {"android": "https://dc.lft.to/lastmile_qr_scan", "ios": "https://dc.lft.to/lastmile_qr_scan"}, "fusion_lon": 0.0, "lat": 38.86196283333334, "bike_id": "d08dc71ac97ceff6e32545807cca8b1d", "type": "electric_scooter", "is_reserved": 0, "lon": -76.98376133333333}, {"fusion_lat": 0.0, "name": "df343ef03cb10c20aeaa0d4cde54c688", "is_disabled": 0, "rental_uris": {"android": "https://dc.lft.to/lastmile_qr_scan", "ios": "https://dc.lft.to/lastmile_qr_scan"}, "fusion_lon": 0.0, "lat": 38.9279715, "bike_id": "df343ef03cb10c20aeaa0d4cde54c688", "type": "electric_scooter", "is_reserved": 0, "lon": -77.03217183333334}, {"fusion_lat": 0.0, "name": "a4e1db96c510fdd20c45e4ce77d31420", "is_disabled": 0, "rental_uris": {"android": "https://dc.lft.to/lastmile_qr_scan", "ios": "https://dc.lft.to/lastmile_qr_scan"}, "fusion_lon": 0.0, "lat": 38.9111435, "bike_id": "a4e1db96c510fdd20c45e4ce77d31420", "type": "electric_scooter", "is_reserved": 0, "lon": -76.99765233333333}, {"fusion_lat": 0.0, "name": "15cd58fee46c9739cdf4e2beaf850e0b", "is_disabled": 0, "rental_uris": {"android": "https://dc.lft.to/lastmile_qr_scan", "ios": "https://dc.lft.to/lastmile_qr_scan"}, "fusion_lon": 0.0, "lat": 38.9053205, "bike_id": "15cd58fee46c9739cdf4e2beaf850e0b", "type": "electric_scooter", "is_reserved": 0, "lon": -77.05769116666667}, {"fusion_lat": 0.0, "name": "bb552bc90763e04889e44288defa3d49", "is_disabled": 0, "rental_uris": {"android": "https://dc.lft.to/lastmile_qr_scan", "ios": "https://dc.lft.to/lastmile_qr_scan"}, "fusion_lon": 0.0, "lat": 38.922410666666664, "bike_id": "bb552bc90763e04889e44288defa3d49", "type": "electric_scooter", "is_reserved": 0, "lon": -77.03897333333333}, {"fusion_lat": 0.0, "name": "df783e024c87b3249ff2594cf108ed46", "is_disabled": 0, "rental_uris": {"android": "https://dc.lft.to/lastmile_qr_scan", "ios": "https://dc.lft.to/lastmile_qr_scan"}, "fusion_lon": 0.0, "lat": 38.91663233333333, "bike_id": "df783e024c87b3249ff2594cf108ed46", "type": "electric_scooter", "is_reserved": 0, "lon": -77.0281215}, {"fusion_lat": 0.0, "name": "54f6948a4c5e3ee62bfb4dc1592aff0c", "is_disabled": 0, "rental_uris": {"android": "https://dc.lft.to/lastmile_qr_scan", "ios": "https://dc.lft.to/lastmile_qr_scan"}, "fusion_lon": 0.0, "lat": 38.9184605, "bike_id": "54f6948a4c5e3ee62bfb4dc1592aff0c", "type": "electric_scooter", "is_reserved": 0, "lon": -76.96538766666667}, {"fusion_lat": 0.0, "name": "a59d7785d95c17a8a3e847421472374f", "is_disabled": 0, "rental_uris": {"android": "https://dc.lft.to/lastmile_qr_scan", "ios": "https://dc.lft.to/lastmile_qr_scan"}, "fusion_lon": 0.0, "lat": 38.90371416666667, "bike_id": "a59d7785d95c17a8a3e847421472374f", "type": "electric_scooter", "is_reserved": 0, "lon": -77.03313233333333}, {"fusion_lat": 0.0, "name": "21fcd0f41a7af8a3132e849c95659926", "is_disabled": 0, "rental_uris": {"android": "https://dc.lft.to/lastmile_qr_scan", "ios": "https://dc.lft.to/lastmile_qr_scan"}, "fusion_lon": 0.0, "lat": 38.921471333333336, "bike_id": "21fcd0f41a7af8a3132e849c95659926", "type": "electric_scooter", "is_reserved": 0, "lon": -77.0180585}, {"fusion_lat": 0.0, "name": "faac2762d7cf3d16733c4ed25933c617", "is_disabled": 0, "rental_uris": {"android": "https://dc.lft.to/lastmile_qr_scan", "ios": "https://dc.lft.to/lastmile_qr_scan"}, "fusion_lon": 0.0, "lat": 38.98478333333333, "bike_id": "faac2762d7cf3d16733c4ed25933c617", "type": "electric_scooter", "is_reserved": 0, "lon": -77.02639733333334}, {"fusion_lat": 0.0, "name": "0cae2a95a5223cfca9ecefad2e3d8d7b", "is_disabled": 0, "rental_uris": {"android": "https://dc.lft.to/lastmile_qr_scan", "ios": "https://dc.lft.to/lastmile_qr_scan"}, "fusion_lon": 0.0, "lat": 38.921701166666665, "bike_id": "0cae2a95a5223cfca9ecefad2e3d8d7b", "type": "electric_scooter", "is_reserved": 0, "lon": -77.0363745}, {"fusion_lat": 0.0, "name": "7d558bedb3adb160fc14dce119799b1f", "is_disabled": 0, "rental_uris": {"android": "https://dc.lft.to/lastmile_qr_scan", "ios": "https://dc.lft.to/lastmile_qr_scan"}, "fusion_lon": 0.0, "lat": 38.913546333333336, "bike_id": "7d558bedb3adb160fc14dce119799b1f", "type": "electric_scooter", "is_reserved": 0, "lon": -77.033295}, {"fusion_lat": 0.0, "name": "4c3fd5765fcf95dbe57c15c4d37b4289", "is_disabled": 0, "rental_uris": {"android": "https://dc.lft.to/lastmile_qr_scan", "ios": "https://dc.lft.to/lastmile_qr_scan"}, "fusion_lon": 0.0, "lat": 38.88767333333333, "bike_id": "4c3fd5765fcf95dbe57c15c4d37b4289", "type": "electric_scooter", "is_reserved": 0, "lon": -76.9946885}, {"fusion_lat": 0.0, "name": "f671eed028b4dc4cc62da3a683280b02", "is_disabled": 0, "rental_uris": {"android": "https://dc.lft.to/lastmile_qr_scan", "ios": "https://dc.lft.to/lastmile_qr_scan"}, "fusion_lon": 0.0, "lat": 38.924831833333336, "bike_id": "f671eed028b4dc4cc62da3a683280b02", "type": "electric_scooter", "is_reserved": 0, "lon": -77.02836683333334}, {"fusion_lat": 0.0, "name": "3b8aeed00a46ffbe10b8666f71b094c6", "is_disabled": 0, "rental_uris": {"android": "https://dc.lft.to/lastmile_qr_scan", "ios": "https://dc.lft.to/lastmile_qr_scan"}, "fusion_lon": 0.0, "lat": 38.89591766666667, "bike_id": "3b8aeed00a46ffbe10b8666f71b094c6", "type": "electric_scooter", "is_reserved": 0, "lon": -77.02968066666666}, {"fusion_lat": 0.0, "name": "e9077b0c64cb06d3bc5b1185e6264f2e", "is_disabled": 0, "rental_uris": {"android": "https://dc.lft.to/lastmile_qr_scan", "ios": "https://dc.lft.to/lastmile_qr_scan"}, "fusion_lon": 0.0, "lat": 38.920712, "bike_id": "e9077b0c64cb06d3bc5b1185e6264f2e", "type": "electric_scooter", "is_reserved": 0, "lon": -77.04201233333333}, {"fusion_lat": 0.0, "name": "025838d3cbe42d0606680e9a78d6ffc8", "is_disabled": 0, "rental_uris": {"android": "https://dc.lft.to/lastmile_qr_scan", "ios": "https://dc.lft.to/lastmile_qr_scan"}, "fusion_lon": 0.0, "lat": 38.91360433333333, "bike_id": "025838d3cbe42d0606680e9a78d6ffc8", "type": "electric_scooter", "is_reserved": 0, "lon": -77.02054916666667}, {"fusion_lat": 0.0, "name": "a217ca4ff988ae78c4d7dca1bad0eb3b", "is_disabled": 0, "rental_uris": {"android": "https://dc.lft.to/lastmile_qr_scan", "ios": "https://dc.lft.to/lastmile_qr_scan"}, "fusion_lon": 0.0, "lat": 38.885021, "bike_id": "a217ca4ff988ae78c4d7dca1bad0eb3b", "type": "electric_scooter", "is_reserved": 0, "lon": -76.997546}, {"fusion_lat": 0.0, "name": "1e758ba2d99be682fabb44a96543781f", "is_disabled": 0, "rental_uris": {"android": "https://dc.lft.to/lastmile_qr_scan", "ios": "https://dc.lft.to/lastmile_qr_scan"}, "fusion_lon": 0.0, "lat": 38.8925775, "bike_id": "1e758ba2d99be682fabb44a96543781f", "type": "electric_bike", "is_reserved": 0, "lon": -76.95114983333333}, {"fusion_lat": 0.0, "name": "1c79e476ea2998d7fc54277a596f6eb4", "is_disabled": 0, "rental_uris": {"android": "https://dc.lft.to/lastmile_qr_scan", "ios": "https://dc.lft.to/lastmile_qr_scan"}, "fusion_lon": 0.0, "lat": 38.90730666666666, "bike_id": "1c79e476ea2998d7fc54277a596f6eb4", "type": "electric_scooter", "is_reserved": 0, "lon": -77.01090433333333}, {"fusion_lat": 0.0, "name": "94598aa43b0934cfaa68ada998e56ac8", "is_disabled": 0, "rental_uris": {"android": "https://dc.lft.to/lastmile_qr_scan", "ios": "https://dc.lft.to/lastmile_qr_scan"}, "fusion_lon": 0.0, "lat": 38.919138333333336, "bike_id": "94598aa43b0934cfaa68ada998e56ac8", "type": "electric_scooter", "is_reserved": 0, "lon": -77.02615866666666}, {"fusion_lat": 0.0, "name": "71bdf9c4397eb71cf768c5d09a4ab52e", "is_disabled": 0, "rental_uris": {"android": "https://dc.lft.to/lastmile_qr_scan", "ios": "https://dc.lft.to/lastmile_qr_scan"}, "fusion_lon": 0.0, "lat": 38.89350233333333, "bike_id": "71bdf9c4397eb71cf768c5d09a4ab52e", "type": "electric_scooter", "is_reserved": 0, "lon": -77.00068916666666}, {"fusion_lat": 0.0, "name": "a7c68072175e58e7a31c915798cf803c", "is_disabled": 0, "rental_uris": {"android": "https://dc.lft.to/lastmile_qr_scan", "ios": "https://dc.lft.to/lastmile_qr_scan"}, "fusion_lon": 0.0, "lat": 38.9142475, "bike_id": "a7c68072175e58e7a31c915798cf803c", "type": "electric_scooter", "is_reserved": 0, "lon": -77.03181816666667}, {"fusion_lat": 0.0, "name": "7588e26417ee6638df350f6b185f9586", "is_disabled": 0, "rental_uris": {"android": "https://dc.lft.to/lastmile_qr_scan", "ios": "https://dc.lft.to/lastmile_qr_scan"}, "fusion_lon": 0.0, "lat": 38.92975416666667, "bike_id": "7588e26417ee6638df350f6b185f9586", "type": "electric_scooter", "is_reserved": 0, "lon": -77.04188116666667}, {"fusion_lat": 0.0, "name": "d44fb1040732f56b2525fcb91a98a9b9", "is_disabled": 0, "rental_uris": {"android": "https://dc.lft.to/lastmile_qr_scan", "ios": "https://dc.lft.to/lastmile_qr_scan"}, "fusion_lon": 0.0, "lat": 38.967309666666665, "bike_id": "d44fb1040732f56b2525fcb91a98a9b9", "type": "electric_scooter", "is_reserved": 0, "lon": -77.00918133333333}, {"fusion_lat": 0.0, "name": "50137058ca0b7b876a02cb8192b700e5", "is_disabled": 0, "rental_uris": {"android": "https://dc.lft.to/lastmile_qr_scan", "ios": "https://dc.lft.to/lastmile_qr_scan"}, "fusion_lon": 0.0, "lat": 38.912030666666666, "bike_id": "50137058ca0b7b876a02cb8192b700e5", "type": "electric_scooter", "is_reserved": 0, "lon": -77.03208333333333}, {"fusion_lat": 0.0, "name": "a6db59dd3e5240a45aa93e0d2daafc5d", "is_disabled": 0, "rental_uris": {"android": "https://dc.lft.to/lastmile_qr_scan", "ios": "https://dc.lft.to/lastmile_qr_scan"}, "fusion_lon": 0.0, "lat": 38.924587333333335, "bike_id": "a6db59dd3e5240a45aa93e0d2daafc5d", "type": "electric_scooter", "is_reserved": 0, "lon": -77.08025066666667}, {"fusion_lat": 0.0, "name": "5b25c0c2f283de83a1eecd4fa13032bf", "is_disabled": 0, "rental_uris": {"android": "https://dc.lft.to/lastmile_qr_scan", "ios": "https://dc.lft.to/lastmile_qr_scan"}, "fusion_lon": 0.0, "lat": 38.90524283333333, "bike_id": "5b25c0c2f283de83a1eecd4fa13032bf", "type": "electric_scooter", "is_reserved": 0, "lon": -77.06110333333334}, {"fusion_lat": 0.0, "name": "e39769c66a0341e0a7cba2a2c227632e", "is_disabled": 0, "rental_uris": {"android": "https://dc.lft.to/lastmile_qr_scan", "ios": "https://dc.lft.to/lastmile_qr_scan"}, "fusion_lon": 0.0, "lat": 38.903552833333336, "bike_id": "e39769c66a0341e0a7cba2a2c227632e", "type": "electric_scooter", "is_reserved": 0, "lon": -77.00730016666667},