{"data": {"bikes": [{"is_disabled": 0, "fusion_lon": 0.0, "fusion_lat": 0.0, "lat": 38.90252683333333, "type": "electric_scooter", "lon": -77.02203066666667, "bike_id": "8598419a25fb49e89ccc15763f475956", "rental_uris": {"android": "https://dc.lft.to/lastmile_qr_scan", "ios": "https://dc.lft.to/lastmile_qr_scan"}, "name": "8598419a25fb49e89ccc15763f475956", "is_reserved": 0}, {"is_disabled": 0, "fusion_lon": 0.0, "fusion_lat": 0.0, "lat": 38.91878333333333, "type": "electric_scooter", "lon": -77.01604016666667, "bike_id": "cce096f1cfb2d1c3371fd15e6a983841", "rental_uris": {"android": "https://dc.lft.to/lastmile_qr_scan", "ios": "https://dc.lft.to/lastmile_qr_scan"}, "name": "cce096f1cfb2d1c3371fd15e6a983841", "is_reserved": 0}, {"is_disabled": 0, "fusion_lon": 0.0, "fusion_lat": 0.0, "lat": 38.91237516666666, "type": "electric_scooter", "lon": -77.04478283333333, "bike_id": "09e42ad0414136ca4bb29841ec6e2be1", "rental_uris": {"android": "https://dc.lft.to/lastmile_qr_scan", "ios": "https://dc.lft.to/lastmile_qr_scan"}, "name": "09e42ad0414136ca4bb29841ec6e2be1", "is_reserved": 0}, {"is_disabled": 0, "fusion_lon": 0.0, "fusion_lat": 0.0, "lat": 38.93190883333333, "type": "electric_bike", "lon": -77.229363, "bike_id": "004cdd408ca6767cbba577343d902350", "rental_uris": {"android": "https://dc.lft.to/lastmile_qr_scan", "ios": "https://dc.lft.to/lastmile_qr_scan"}, "name": "004cdd408ca6767cbba577343d902350", "is_reserved": 0}, {"is_disabled": 0, "fusion_lon": 0.0, "fusion_lat": 0.0, "lat": 39.006561166666664, "type": "electric_bike", "lon": -76.900277, "bike_id": "3fbe756fdb60d9828081e15138eb1cc6", "rental_uris": {"android": "https://dc.lft.to/lastmile_qr_scan", "ios": "https://dc.lft.to/lastmile_qr_scan"}, "name": "3fbe756fdb60d9828081e15138eb1cc6", "is_reserved": 0}, {"is_disabled": 0, "fusion_lon": 0.0, "fusion_lat": 0.0, "lat": 38.9215215, "type": "electric_scooter", "lon": -77.0428425, "bike_id": "90bb50b3bf3ec4f6c716ce51d57edf2b", "rental_uris": {"android": "https://dc.lft.to/lastmile_qr_scan", "ios": "https://dc.lft.to/lastmile_qr_scan"}, "name": "90bb50b3bf3ec4f6c716ce51d57edf2b", "is_reserved": 0}, {"is_disabled": 0, "fusion_lon": 0.0, "fusion_lat": 0.0, "lat": 38.992553, "type": "electric_bike", "lon": -77.04994366666666, "bike_id": "5fecffb5e65a3c813259e4c51e317396", "rental_uris": {"android": "https://dc.lft.to/lastmile_qr_scan", "ios": "https://dc.lft.to/lastmile_qr_scan"}, "name": "5fecffb5e65a3c813259e4c51e317396", "is_reserved": 0}, {"is_disabled": 0, "fusion_lon": 0.0, "fusion_lat": 0.0, "lat": 38.91262416666667, "type": "electric_scooter", "lon": -77.04098733333333, "bike_id": "a8075e8f672bc20abb5e410d48b6db4a", "rental_uris": {"android": "https://dc.lft.to/lastmile_qr_scan", "ios": "https://dc.lft.to/lastmile_qr_scan"}, "name": "a8075e8f672bc20abb5e410d48b6db4a", "is_reserved": 0}, {"is_disabled": 0, "fusion_lon": 0.0, "fusion_lat": 0.0, "lat": 38.896763166666666, "type": "electric_scooter", "lon": -77.02677, "bike_id": "68f2b896ab69ca17d6bd7da23a216776", "rental_uris": {"android": "https://dc.lft.to/lastmile_qr_scan", "ios": "https://dc.lft.to/lastmile_qr_scan"}, "name": "68f2b896ab69ca17d6bd7da23a216776", "is_reserved": 0}, {"is_disabled": 0, "fusion_lon": 0.0, "fusion_lat": 0.0, "lat": 38.950762833333336, "type": "electric_scooter", "lon": -77.02872983333333, "bike_id": "327c5ae02fe05df00ed05c4b0ab72ddc", "rental_uris": {"android": "https://dc.lft.to/lastmile_qr_scan", "ios": "https://dc.lft.to/lastmile_qr_scan"}, "name": "327c5ae02fe05df00ed05c4b0ab72ddc", "is_reserved": 0}, {"is_disabled": 0, "fusion_lon": 0.0, "fusion_lat": 0.0, "lat": 38.890188333333334, "type": "electric_scooter", "lon": -76.93730216666667, "bike_id": "dc7fd4bb94517871fddd7209bb316849", "rental_uris": {"android": "https://dc.lft.to/lastmile_qr_scan", "ios": "https://dc.lft.to/lastmile_qr_scan"}, "name": "dc7fd4bb94517871fddd7209bb316849", "is_reserved": 0}, {"is_disabled": 0, "fusion_lon": 0.0, "fusion_lat": 0.0, "lat": 38.956135, "type": "electric_scooter", "lon": -77.03629416666666, "bike_id": "0085e4dee3ef32b05d9a50920d7340bd", "rental_uris": {"android": "https://dc.lft.to/lastmile_qr_scan", "ios": "https://dc.lft.to/lastmile_qr_scan"}, "name": "0085e4dee3ef32b05d9a50920d7340bd", "is_reserved": 0}, {"is_disabled": 0, "fusion_lon": 0.0, "fusion_lat": 0.0, "lat": 38.92766483333333, "type": "electric_scooter", "lon": -77.02849716666667, "bike_id": "405923e94ada39bff5097eaf83848c60", "rental_uris": {"android": "https://dc.lft.to/lastmile_qr_scan", "ios": "https://dc.lft.to/lastmile_qr_scan"}, "name": "405923e94ada39bff5097eaf83848c60", "is_reserved": 0}, {"is_disabled": 0, "fusion_lon": 0.0, "fusion_lat": 0.0, "lat": 38.865233, "type": "electric_scooter", "lon": -76.98965616666666, "bike_id": "7979993dd0755ee6784b40804e8320fc", "rental_uris": {"android": "https://dc.lft.to/lastmile_qr_scan", "ios": "https://dc.lft.to/lastmile_qr_scan"}, "name": "7979993dd0755ee6784b40804e8320fc", "is_reserved": 0}, {"is_disabled": 0, "fusion_lon": 0.0, "fusion_lat": 0.0, "lat": 38.90569933333333, "type": "electric_scooter", "lon": -77.03278883333333, "bike_id": "9ef00ef6a3d76a773e4c6bdc573db763", "rental_uris": {"android": "https://dc.lft.to/lastmile_qr_scan", "ios": "https://dc.lft.to/lastmile_qr_scan"}, "name": "9ef00ef6a3d76a773e4c6bdc573db763", "is_reserved": 0}, {"is_disabled": 0, "fusion_lon": 0.0, "fusion_lat": 0.0, "lat": 38.858051, "type": "electric_scooter", "lon": -76.98652983333334, "bike_id": "1fa3e4f75f189b0b10fc734d756888e5", "rental_uris": {"android": "https://dc.lft.to/lastmile_qr_scan", "ios": "https://dc.lft.to/lastmile_qr_scan"}, "name": "1fa3e4f75f189b0b10fc734d756888e5", "is_reserved": 0}, {"is_disabled": 0, "fusion_lon": 0.0, "fusion_lat": 0.0, "lat": 38.926089166666664, "type": "electric_scooter", "lon": -77.05705583333334, "bike_id": "0f3be15fe300f42a9857319a8495e338", "rental_uris": {"android": "https://dc.lft.to/lastmile_qr_scan", "ios": "https://dc.lft.to/lastmile_qr_scan"}, "name": "0f3be15fe300f42a9857319a8495e338", "is_reserved": 0}, {"is_disabled": 0, "fusion_lon": 0.0, "fusion_lat": 0.0, "lat": 38.91183783333334, "type": "electric_scooter", "lon": -77.0349795, "bike_id": "4e96b0166343dcfe61857058a5baac0b", "rental_uris": {"android": "https://dc.lft.to/lastmile_qr_scan", "ios": "https://dc.lft.to/lastmile_qr_scan"}, "name": "4e96b0166343dcfe61857058a5baac0b", "is_reserved": 0}, {"is_disabled": 0, "fusion_lon": 0.0, "fusion_lat": 0.0, "lat": 38.897160166666666, "type": "electric_scooter", "lon": -77.0079675, "bike_id": "87315f6ab16368d8d6dab48ed55e8ded", "rental_uris": {"android": "https://dc.lft.to/lastmile_qr_scan", "ios": "https://dc.lft.to/lastmile_qr_scan"}, "name": "87315f6ab16368d8d6dab48ed55e8ded", "is_reserved": 0}, {"is_disabled": 0, "fusion_lon": 0.0, "fusion_lat": 0.0, "lat": 38.90683116666666, "type": "electric_scooter", "lon": -76.97999666666666, "bike_id": "cfadd32a2854c14ae76f400926acba56", "rental_uris": {"android": "https://dc.lft.to/lastmile_qr_scan", "ios": "https://dc.lft.to/lastmile_qr_scan"}, "name": "cfadd32a2854c14ae76f400926acba56", "is_reserved": 0}, {"is_disabled": 0, "fusion_lon": 0.0, "fusion_lat": 0.0, "lat": 38.916745666666664, "type": "electric_scooter", "lon": -77.02297416666667, "bike_id": "65dc320a2fa0ad7efafea6549060bf23", "rental_uris": {"android": "https://dc.lft.to/lastmile_qr_scan", "ios": "https://dc.lft.to/lastmile_qr_scan"}, "name": "65dc320a2fa0ad7efafea6549060bf23", "is_reserved": 0}, {"is_disabled": 0, "fusion_lon": 0.0, "fusion_lat": 0.0, "lat": 38.908717833333334, "type": "electric_scooter", "lon": -77.03542716666666, "bike_id": "6b958dd748e51eb37f0286ad28bfec4f", "rental_uris": {"android": "https://dc.lft.to/lastmile_qr_scan", "ios": "https://dc.lft.to/lastmile_qr_scan"}, "name": "6b958dd748e51eb37f0286ad28bfec4f", "is_reserved": 0}, {"is_disabled": 0, "fusion_lon": 0.0, "fusion_lat": 0.0, "lat": 38.9224675, "type": "electric_scooter", "lon": -77.039002, "bike_id": "944e1a77c9735d78fa76a780306a00e2", "rental_uris": {"android": "https://dc.lft.to/lastmile_qr_scan", "ios": "https://dc.lft.to/lastmile_qr_scan"}, "name": "944e1a77c9735d78fa76a780306a00e2", "is_reserved": 0}, {"is_disabled": 0, "fusion_lon": 0.0, "fusion_lat": 0.0, "lat": 38.9015905, "type": "electric_scooter", "lon": -77.02299233333333, "bike_id": "80eed5bdacd0b9e41a69a7b95a4b3c85", "rental_uris": {"android": "https://dc.lft.to/lastmile_qr_scan", "ios": "https://dc.lft.to/lastmile_qr_scan"}, "name": "80eed5bdacd0b9e41a69a7b95a4b3c85", "is_reserved": 0}, {"is_disabled": 0, "fusion_lon": 0.0, "fusion_lat": 0.0, "lat": 38.942017, "type": "electric_scooter", "lon": -77.02590383333333, "bike_id": "04ce48516e0e531680e596a82612a388", "rental_uris": {"android": "https://dc.lft.to/lastmile_qr_scan", "ios": "https://dc.lft.to/lastmile_qr_scan"}, "name": "04ce48516e0e531680e596a82612a388", "is_reserved": 0}, {"is_disabled": 0, "fusion_lon": 0.0, "fusion_lat": 0.0, "lat": 38.8960825, "type": "electric_scooter", "lon": -77.0093, "bike_id": "f911f44e8e99ce8cc5b0e2adddb0d9ea", "rental_uris": {"android": "https://dc.lft.to/lastmile_qr_scan", "ios": "https://dc.lft.to/lastmile_qr_scan"}, "name": "f911f44e8e99ce8cc5b0e2adddb0d9ea", "is_reserved": 0}, {"is_disabled": 0, "fusion_lon": 0.0, "fusion_lat": 0.0, "lat": 38.955615, "type": "electric_scooter", "lon": -77.07028133333333, "bike_id": "5ca2280237083d5531d75939395754d4", "rental_uris": {"android": "https://dc.lft.to/lastmile_qr_scan", "ios": "https://dc.lft.to/lastmile_qr_scan"}, "name": "5ca2280237083d5531d75939395754d4", "is_reserved": 0}, {"is_disabled": 0, "fusion_lon": 0.0, "fusion_lat": 0.0, "lat": 38.87686383333333, "type": "electric_scooter", "lon": -77.00063316666666, "bike_id": "1564ca8a9ab4d434fd1fec9700603ad6", "rental_uris": {"android": "https://dc.lft.to/lastmile_qr_scan", "ios": "https://dc.lft.to/lastmile_qr_scan"}, "name": "1564ca8a9ab4d434fd1fec9700603ad6", "is_reserved": 0}, {"is_disabled": 0, "fusion_lon": 0.0, "fusion_lat": 0.0, "lat": 38.916038666666665, "type": "electric_scooter", "lon": -77.03121916666667, "bike_id": "2c22b586542c59ab304a873412c67c2d", "rental_uris": {"android": "https://dc.lft.to/lastmile_qr_scan", "ios": "https://dc.lft.to/lastmile_qr_scan"}, "name": "2c22b586542c59ab304a873412c67c2d", "is_reserved": 0}, {"is_disabled": 0, "fusion_lon": 0.0, "fusion_lat": 0.0, "lat": 38.959558666666666, "type": "electric_bike", "lon": -77.02514633333334, "bike_id": "0fe745f1644f9d8f189c345b407c4b44", "rental_uris": {"android": "https://dc.lft.to/lastmile_qr_scan", "ios": "https://dc.lft.to/lastmile_qr_scan"}, "name": "0fe745f1644f9d8f189c345b407c4b44", "is_reserved": 0}, {"is_disabled": 0, "fusion_lon": 0.0, "fusion_lat": 0.0, "lat": 38.91796316666667, "type": "electric_scooter", "lon": -77.02711633333334, "bike_id": "5b04ab7c2fa25a1c5f9beb8088228702", "rental_uris": {"android": "https://dc.lft.to/lastmile_qr_scan", "ios": "https://dc.lft.to/lastmile_qr_scan"}, "name": "5b04ab7c2fa25a1c5f9beb8088228702", "is_reserved": 0}, {"is_disabled": 0, "fusion_lon": 0.0, "fusion_lat": 0.0, "lat": 38.912016333333334, "type": "electric_scooter", "lon": -77.037141, "bike_id": "4bb9d28f0c3ab6830c43e0d2408b3b38", "rental_uris": {"android": "https://dc.lft.to/lastmile_qr_scan", "ios": "https://dc.lft.to/lastmile_qr_scan"}, "name": "4bb9d28f0c3ab6830c43e0d2408b3b38", "is_reserved": 0}, {"is_disabled": 0, "fusion_lon": 0.0, "fusion_lat": 0.0, "lat": 38.9099375, "type": "electric_scooter", "lon": -77.04253583333333, "bike_id": "1d1072456df5ed87bee7b3f4c4d487d5", "rental_uris": {"android": "https://dc.lft.to/lastmile_qr_scan", "ios": "https://dc.lft.to/lastmile_qr_scan"}, "name": "1d1072456df5ed87bee7b3f4c4d487d5", "is_reserved": 0}, {"is_disabled": 0, "fusion_lon": 0.0, "fusion_lat": 0.0, "lat": 38.913625833333334, "type": "electric_scooter", "lon": -77.0258925, "bike_id": "ec3ee17dc72cfa285389936311c8edff", "rental_uris": {"android": "https://dc.lft.to/lastmile_qr_scan", "ios": "https://dc.lft.to/lastmile_qr_scan"}, "name": "ec3ee17dc72cfa285389936311c8edff", "is_reserved": 0}, {"is_disabled": 0, "fusion_lon": 0.0, "fusion_lat": 0.0, "lat": 38.89400116666667, "type": "electric_scooter", "lon": -76.94996166666667, "bike_id": "4069ced7d6f7003f0d22e63a2294cbab", "rental_uris": {"android": "https://dc.lft.to/lastmile_qr_scan", "ios": "https://dc.lft.to/lastmile_qr_scan"}, "name": "4069ced7d6f7003f0d22e63a2294cbab", "is_reserved": 0}, {"is_disabled": 0, "fusion_lon": 0.0, "fusion_lat": 0.0, "lat": 38.922158833333334, "type": "electric_scooter", "lon": -77.04238416666666, "bike_id": "577e62db4c722d3477b7a76f560bec74", "rental_uris": {"android": "https://dc.lft.to/lastmile_qr_scan", "ios": "https://dc.lft.to/lastmile_qr_scan"}, "name": "577e62db4c722d3477b7a76f560bec74", "is_reserved": 0}, {"is_disabled": 0, "fusion_lon": 0.0, "fusion_lat": 0.0, "lat": 38.9050415, "type": "electric_scooter", "lon": -76.99624166666666, "bike_id": "e2ff21e60d9f0248f178e4708db3a1ab", "rental_uris": {"android": "https://dc.lft.to/lastmile_qr_scan", "ios": "https://dc.lft.to/lastmile_qr_scan"}, "name": "e2ff21e60d9f0248f178e4708db3a1ab", "is_reserved": 0}, {"is_disabled": 0, "fusion_lon": 0.0, "fusion_lat": 0.0, "lat": 38.93781283333333, "type": "electric_scooter", "lon": -77.01878266666667, "bike_id": "ee515e83d0da2995f21a9dc6a77266d4", "rental_uris": {"android": "https://dc.lft.to/lastmile_qr_scan", "ios": "https://dc.lft.to/lastmile_qr_scan"}, "name": "ee515e83d0da2995f21a9dc6a77266d4", "is_reserved": 0}, {"is_disabled": 0, "fusion_lon": 0.0, "fusion_lat": 0.0, "lat": 38.887466, "type": "electric_scooter", "lon": -77.01537666666667, "bike_id": "60819f284c1825853812e54942782792", "rental_uris": {"android": "https://dc.lft.to/lastmile_qr_scan", "ios": "https://dc.lft.to/lastmile_qr_scan"}, "name": "60819f284c1825853812e54942782792", "is_reserved": 0}, {"is_disabled": 0, "fusion_lon": 0.0, "fusion_lat": 0.0, "lat": 38.887519, "type": "electric_scooter", "lon": -77.01606366666667, "bike_id": "2495b5283cd04a1972355012af7d4906", "rental_uris": {"android": "https://dc.lft.to/lastmile_qr_scan", "ios": "https://dc.lft.to/lastmile_qr_scan"}, "name": "2495b5283cd04a1972355012af7d4906", "is_reserved": 0}, {"is_disabled": 0, "fusion_lon": 0.0, "fusion_lat": 0.0, "lat": 38.902314, "type": "electric_scooter", "lon": -77.01917066666667, "bike_id": "15c99faa1e4c667db89edda5a3f58bd4", "rental_uris": {"android": "https://dc.lft.to/lastmile_qr_scan", "ios": "https://dc.lft.to/lastmile_qr_scan"}, "name": "15c99faa1e4c667db89edda5a3f58bd4", "is_reserved": 0}, {"is_disabled": 0, "fusion_lon": 0.0, "fusion_lat": 0.0, "lat": 38.9276775, "type": "electric_bike", "lon": -77.0325045, "bike_id": "8eb1e386b90619a436fe07d65d92ac34", "rental_uris": {"android": "https://dc.lft.to/lastmile_qr_scan", "ios": "https://dc.lft.to/lastmile_qr_scan"}, "name": "8eb1e386b90619a436fe07d65d92ac34", "is_reserved": 0}, {"is_disabled": 0, "fusion_lon": 0.0, "fusion_lat": 0.0, "lat": 38.9126935, "type": "electric_scooter", "lon": -77.0223525, "bike_id": "622173f1cf621141d1deb7d1f0b73bc8", "rental_uris": {"android": "https://dc.lft.to/lastmile_qr_scan", "ios": "https://dc.lft.to/lastmile_qr_scan"}, "name": "622173f1cf621141d1deb7d1f0b73bc8", "is_reserved": 0}, {"is_disabled": 0, "fusion_lon": 0.0, "fusion_lat": 0.0, "lat": 38.90633483333333, "type": "electric_scooter", "lon": -77.02463233333333, "bike_id": "b48a6a4576cf6a4157cd4067f607f858", "rental_uris": {"android": "https://dc.lft.to/lastmile_qr_scan", "ios": "https://dc.lft.to/lastmile_qr_scan"}, "name": "b48a6a4576cf6a4157cd4067f607f858", "is_reserved": 0}, {"is_disabled": 0, "fusion_lon": 0.0, "fusion_lat": 0.0, "lat": 38.94966733333333, "type": "electric_scooter", "lon": -77.06687283333333, "bike_id": "49bea34f6c0207072843a1d52a6ac0a3", "rental_uris": {"android": "https://dc.lft.to/lastmile_qr_scan", "ios": "https://dc.lft.to/lastmile_qr_scan"}, "name": "49bea34f6c0207072843a1d52a6ac0a3", "is_reserved": 0}, {"is_disabled": 0, "fusion_lon": 0.0, "fusion_lat": 0.0, "lat": 38.92372683333333, "type": "electric_scooter", "lon": -77.02814483333333, "bike_id": "0196ff5318fd0ea9ad9f092b45677bf5", "rental_uris": {"android": "https://dc.lft.to/lastmile_qr_scan", "ios": "https://dc.lft.to/lastmile_qr_scan"}, "name": "0196ff5318fd0ea9ad9f092b45677bf5", "is_reserved": 0}, {"is_disabled": 0, "fusion_lon": 0.0, "fusion_lat": 0.0, "lat": 38.961103666666666, "type": "electric_scooter", "lon": -77.08513866666667, "bike_id": "bdfab356e88ce19403e4c12cc9fb889e", "rental_uris": {"android": "https://dc.lft.to/lastmile_qr_scan", "ios": "https://dc.lft.to/lastmile_qr_scan"}, "name": "bdfab356e88ce19403e4c12cc9fb889e", "is_reserved": 0}, {"is_disabled": 0, "fusion_lon": 0.0, "fusion_lat": 0.0, "lat": 38.922696333333334, "type": "electric_scooter", "lon": -77.0412725, "bike_id": "899883b8b13211a3445364887c5aba2e", "rental_uris": {"android": "https://dc.lft.to/lastmile_qr_scan", "ios": "https://dc.lft.to/lastmile_qr_scan"}, "name": "899883b8b13211a3445364887c5aba2e", "is_reserved": 0}, {"is_disabled": 0, "fusion_lon": 0.0, "fusion_lat": 0.0, "lat": 38.926018, "type": "electric_scooter", "lon": -77.02309733333334, "bike_id": "df315f217c1d7ef203a953b1975188e2", "rental_uris": {"android": "https://dc.lft.to/lastmile_qr_scan", "ios": "https://dc.lft.to/lastmile_qr_scan"}, "name": "df315f217c1d7ef203a953b1975188e2", "is_reserved": 0}, {"is_disabled": 0, "fusion_lon": 0.0, "fusion_lat": 0.0, "lat": 38.96307933333333, "type": "electric_bike", "lon": -77.01104033333333, "bike_id": "e6f7514d7847ef7f90f7c1597f8d5f68", "rental_uris": {"android": "https://dc.lft.to/lastmile_qr_scan", "ios": "https://dc.lft.to/lastmile_qr_scan"}, "name": "e6f7514d7847ef7f90f7c1597f8d5f68", "is_reserved": 0}, {"is_disabled": 0, "fusion_lon": 0.0, "fusion_lat": 0.0, "lat": 38.898450833333335, "type": "electric_scooter", "lon": -76.94492333333334, "bike_id": "3ed3ecac74823f1bacd127f63ce023ff", "rental_uris": {"android": "https://dc.lft.to/lastmile_qr_scan", "ios": "https://dc.lft.to/lastmile_qr_scan"}, "name": "3ed3ecac74823f1bacd127f63ce023ff", "is_reserved": 0}, {"is_disabled": 0, "fusion_lon": 0.0, "fusion_lat": 0.0, "lat": 38.895004166666666, "type": "electric_scooter", "lon": -77.022883, "bike_id": "b2d5d29c7d9b99585b164cb3fd8450bc", "rental_uris": {"android": "https://dc.lft.to/lastmile_qr_scan", "ios": "https://dc.lft.to/lastmile_qr_scan"}, "name": "b2d5d29c7d9b99585b164cb3fd8450bc", "is_reserved": 0}, {"is_disabled": 0, "fusion_lon": 0.0, "fusion_lat": 0.0, "lat": 38.935568, "type": "electric_scooter", "lon": -77.05904216666667, "bike_id": "c96e8b5f5030e83b3eeccc8df385eeeb", "rental_uris": {"android": "https://dc.lft.to/lastmile_qr_scan", "ios": "https://dc.lft.to/lastmile_qr_scan"}, "name": "c96e8b5f5030e83b3eeccc8df385eeeb", "is_reserved": 0}, {"is_disabled": 0, "fusion_lon": 0.0, "fusion_lat": 0.0, "lat": 39.02296966666667, "type": "electric_bike", "lon": -77.02102366666666, "bike_id": "9037e92640f8bc723328da79d3c7565f", "rental_uris": {"android": "https://dc.lft.to/lastmile_qr_scan", "ios": "https://dc.lft.to/lastmile_qr_scan"}, "name": "9037e92640f8bc723328da79d3c7565f", "is_reserved": 0}, {"is_disabled": 0, "fusion_lon": 0.0, "fusion_lat": 0.0, "lat": 38.86526333333333, "type": "electric_scooter", "lon": -76.9896785, "bike_id": "bcc062eb109e2affbbc501c0c064c3df", "rental_uris": {"android": "https://dc.lft.to/lastmile_qr_scan", "ios": "https://dc.lft.to/lastmile_qr_scan"}, "name": "bcc062eb109e2affbbc501c0c064c3df", "is_reserved": 0}, {"is_disabled": 0, "fusion_lon": 0.0, "fusion_lat": 0.0, "lat": 38.900355833333336, "type": "electric_scooter", "lon": -77.0450075, "bike_id": "40d9069ff93293f19897582a1797c085", "rental_uris": {"android": "https://dc.lft.to/lastmile_qr_scan", "ios": "https://dc.lft.to/lastmile_qr_scan"}, "name": "40d9069ff93293f19897582a1797c085", "is_reserved": 0}, {"is_disabled": 0, "fusion_lon": 0.0, "fusion_lat": 0.0, "lat": 38.9023085, "type": "electric_scooter", "lon": -77.04717833333333, "bike_id": "08bb2696af9864eb664cf63ef294789c", "rental_uris": {"android": "https://dc.lft.to/lastmile_qr_scan", "ios": "https://dc.lft.to/lastmile_qr_scan"}, "name": "08bb2696af9864eb664cf63ef294789c", "is_reserved": 0}, {"is_disabled": 0, "fusion_lon": 0.0, "fusion_lat": 0.0, "lat": 38.89555516666667, "type": "electric_scooter", "lon": -76.94873133333333, "bike_id": "4ba56572d4aa58e5c5e93adcd7fff2ef", "rental_uris": {"android": "https://dc.lft.to/lastmile_qr_scan", "ios": "https://dc.lft.to/lastmile_qr_scan"}, "name": "4ba56572d4aa58e5c5e93adcd7fff2ef", "is_reserved": 0}, {"is_disabled": 0, "fusion_lon": 0.0, "fusion_lat": 0.0, "lat": 38.90438416666667, "type": "electric_scooter", "lon": -77.05136383333334, "bike_id": "d40e0c2831e1af24741ab00729e846c4", "rental_uris": {"android": "https://dc.lft.to/lastmile_qr_scan", "ios": "https://dc.lft.to/lastmile_qr_scan"}, "name": "d40e0c2831e1af24741ab00729e846c4", "is_reserved": 0}, {"is_disabled": 0, "fusion_lon": 0.0, "fusion_lat": 0.0, "lat": 38.879718833333335, "type": "electric_scooter", "lon": -77.02432066666667, "bike_id": "ed79bf073f1746ba587a0f3f3e53236f", "rental_uris": {"android": "https://dc.lft.to/lastmile_qr_scan", "ios": "https://dc.lft.to/lastmile_qr_scan"}, "name": "ed79bf073f1746ba587a0f3f3e53236f", "is_reserved": 0}, {"is_disabled": 0, "fusion_lon": 0.0, "fusion_lat": 0.0, "lat": 38.903905333333334, "type": "electric_scooter", "lon": -77.015888, "bike_id": "1b54a40a55549bc057febe6518c95654", "rental_uris": {"android": "https://dc.lft.to/lastmile_qr_scan", "ios": "https://dc.lft.to/lastmile_qr_scan"}, "name": "1b54a40a55549bc057febe6518c95654", "is_reserved": 0}, {"is_disabled": 0, "fusion_lon": 0.0, "fusion_lat": 0.0, "lat": 38.93184433333333, "type": "electric_scooter", "lon": -77.04135183333334, "bike_id": "98c55747dbb79047715963181905fff2", "rental_uris": {"android": "https://dc.lft.to/lastmile_qr_scan", "ios": "https://dc.lft.to/lastmile_qr_scan"}, "name": "98c55747dbb79047715963181905fff2", "is_reserved": 0}, {"is_disabled": 0, "fusion_lon": 0.0, "fusion_lat": 0.0, "lat": 38.919364, "type": "electric_scooter", "lon": -77.08130966666667, "bike_id": "f768dbda1d19810e2a35e1eccdbac67f", "rental_uris": {"android": "https://dc.lft.to/lastmile_qr_scan", "ios": "https://dc.lft.to/lastmile_qr_scan"}, "name": "f768dbda1d19810e2a35e1eccdbac67f", "is_reserved": 0}, {"is_disabled": 0, "fusion_lon": 0.0, "fusion_lat": 0.0, "lat": 38.91174916666667, "type": "electric_scooter", "lon": -77.0046505, "bike_id": "10af40181ff2dbc6eeb2d075ac0209a7", "rental_uris": {"android": "https://dc.lft.to/lastmile_qr_scan", "ios": "https://dc.lft.to/lastmile_qr_scan"}, "name": "10af40181ff2dbc6eeb2d075ac0209a7", "is_reserved": 0}, {"is_disabled": 0, "fusion_lon": 0.0, "fusion_lat": 0.0, "lat": 38.880218, "type": "electric_scooter", "lon": -76.9311995, "bike_id": "8faab40e791cc8b36ded7ceeccee0502", "rental_uris": {"android": "https://dc.lft.to/lastmile_qr_scan", "ios": "https://dc.lft.to/lastmile_qr_scan"}, "name": "8faab40e791cc8b36ded7ceeccee0502", "is_reserved": 0}, {"is_disabled": 0, "fusion_lon": 0.0, "fusion_lat": 0.0, "lat": 38.89502133333333, "type": "electric_scooter", "lon": -76.94877416666667, "bike_id": "7ce3a9d67815b123d615a76515653d6a", "rental_uris": {"android": "https://dc.lft.to/lastmile_qr_scan", "ios": "https://dc.lft.to/lastmile_qr_scan"}, "name": "7ce3a9d67815b123d615a76515653d6a", "is_reserved": 0}, {"is_disabled": 0, "fusion_lon": 0.0, "fusion_lat": 0.0, "lat": 38.863556833333334, "type": "electric_scooter", "lon": -76.99063933333333, "bike_id": "da4675e9c13bf0333b1213e72c952a3e", "rental_uris": {"android": "https://dc.lft.to/lastmile_qr_scan", "ios": "https://dc.lft.to/lastmile_qr_scan"}, "name": "da4675e9c13bf0333b1213e72c952a3e", "is_reserved": 0}, {"is_disabled": 0, "fusion_lon": 0.0, "fusion_lat": 0.0, "lat": 39.0959335, "type": "electric_bike", "lon": -77.14777283333333, "bike_id": "d84006749efbe6a9f96d5b0f13830f37", "rental_uris": {"android": "https://dc.lft.to/lastmile_qr_scan", "ios": "https://dc.lft.to/lastmile_qr_scan"}, "name": "d84006749efbe6a9f96d5b0f13830f37", "is_reserved": 0}, {"is_disabled": 0, "fusion_lon": 0.0, "fusion_lat": 0.0, "lat": 38.91405533333333, "type": "electric_scooter", "lon": -77.026688, "bike_id": "44ca2229dd11408b9d2b846129d5c323", "rental_uris": {"android": "https://dc.lft.to/lastmile_qr_scan", "ios": "https://dc.lft.to/lastmile_qr_scan"}, "name": "44ca2229dd11408b9d2b846129d5c323", "is_reserved": 0}, {"is_disabled": 0, "fusion_lon": 0.0, "fusion_lat": 0.0, "lat": 38.999327666666666, "type": "electric_bike", "lon": -77.00121016666667, "bike_id": "0a3d497c038921aa105dfa11d31daa4a", "rental_uris": {"android": "https://dc.lft.to/lastmile_qr_scan", "ios": "https://dc.lft.to/lastmile_qr_scan"}, "name": "0a3d497c038921aa105dfa11d31daa4a", "is_reserved": 0}, {"is_disabled": 0, "fusion_lon": 0.0, "fusion_lat": 0.0, "lat": 38.85563283333333, "type": "electric_bike", "lon": -77.107183, "bike_id": "10360be2bfbf4167bfcaf677a18be54c", "rental_uris": {"android": "https://dc.lft.to/lastmile_qr_scan", "ios": "https://dc.lft.to/lastmile_qr_scan"}, "name": "10360be2bfbf4167bfcaf677a18be54c", "is_reserved": 0}, {"is_disabled": 0, "fusion_lon": 0.0, "fusion_lat": 0.0, "lat": 38.931081166666665, "type": "electric_scooter", "lon": -77.03504166666667, "bike_id": "cfe509974c559a58fadfbd31c339e7ba", "rental_uris": {"android": "https://dc.lft.to/lastmile_qr_scan", "ios": "https://dc.lft.to/lastmile_qr_scan"}, "name": "cfe509974c559a58fadfbd31c339e7ba", "is_reserved": 0}, {"is_disabled": 0, "fusion_lon": 0.0, "fusion_lat": 0.0, "lat": 38.872879, "type": "electric_scooter", "lon": -76.97728516666666, "bike_id": "db96112e6f2fc1a8070f1a65a6ca9fc9", "rental_uris": {"android": "https://dc.lft.to/lastmile_qr_scan", "ios": "https://dc.lft.to/lastmile_qr_scan"}, "name": "db96112e6f2fc1a8070f1a65a6ca9fc9", "is_reserved": 0}, {"is_disabled": 0, "fusion_lon": 0.0, "fusion_lat": 0.0, "lat": 38.8246635, "type": "electric_bike", "lon": -77.07083416666667, "bike_id": "eea53f4d3d26deeb9c73a1eba9f39b9d", "rental_uris": {"android": "https://dc.lft.to/lastmile_qr_scan", "ios": "https://dc.lft.to/lastmile_qr_scan"}, "name": "eea53f4d3d26deeb9c73a1eba9f39b9d", "is_reserved": 0}, {"is_disabled": 0, "fusion_lon": 0.0, "fusion_lat": 0.0, "lat": 38.92592616666667, "type": "electric_bike", "lon": -76.88903516666667, "bike_id": "cfee01b02f8dc2f3cecb2f32954a2df0", "rental_uris": {"android": "https://dc.lft.to/lastmile_qr_scan", "ios": "https://dc.lft.to/lastmile_qr_scan"}, "name": "cfee01b02f8dc2f3cecb2f32954a2df0", "is_reserved": 0}, {"is_disabled": 0, "fusion_lon": 0.0, "fusion_lat": 0.0, "lat": 38.9386295, "type": "electric_scooter", "lon": -77.026498, "bike_id": "30267497634ba62f7caa29f5bdaf4a06", "rental_uris": {"android": "https://dc.lft.to/lastmile_qr_scan", "ios": "https://dc.lft.to/lastmile_qr_scan"}, "name": "30267497634ba62f7caa29f5bdaf4a06", "is_reserved": 0}, {"is_disabled": 0, "fusion_lon": 0.0, "fusion_lat": 0.0, "lat": 38.92075483333333, "type": "electric_scooter", "lon": -77.03171183333333, "bike_id": "c951e37ef23147b355fb4d6d4b2bbab8", "rental_uris": {"android": "https://dc.lft.to/lastmile_qr_scan", "ios": "https://dc.lft.to/lastmile_qr_scan"}, "name": "c951e37ef23147b355fb4d6d4b2bbab8", "is_reserved": 0}, {"is_disabled": 0, "fusion_lon": 0.0, "fusion_lat": 0.0, "lat": 38.8948185, "type": "electric_scooter", "lon": -77.02111833333333, "bike_id": "026d4783b6c654a39d970d19e34986e7", "rental_uris": {"android": "https://dc.lft.to/lastmile_qr_scan", "ios": "https://dc.lft.to/lastmile_qr_scan"}, "name": "026d4783b6c654a39d970d19e34986e7", "is_reserved": 0}, {"is_disabled": 0, "fusion_lon": 0.0, "fusion_lat": 0.0, "lat": 38.90853033333333, "type": "electric_scooter", "lon": -77.07157683333334, "bike_id": "adc092b1b053e707f0954f9a443e7c2d", "rental_uris": {"android": "https://dc.lft.to/lastmile_qr_scan", "ios": "https://dc.lft.to/lastmile_qr_scan"}, "name": "adc092b1b053e707f0954f9a443e7c2d", "is_reserved": 0}, {"is_disabled": 0, "fusion_lon": 0.0, "fusion_lat": 0.0, "lat": 38.892367, "type": "electric_bike", "lon": -76.95222216666667, "bike_id": "7a4aa6a6246f5e9f09387558e9da12f8", "rental_uris": {"android": "https://dc.lft.to/lastmile_qr_scan", "ios": "https://dc.lft.to/lastmile_qr_scan"}, "name": "7a4aa6a6246f5e9f09387558e9da12f8", "is_reserved": 0}, {"is_disabled": 0, "fusion_lon": 0.0, "fusion_lat": 0.0, "lat": 38.88745016666667, "type": "electric_scooter", "lon": -77.01537133333333, "bike_id": "c92289f197458479ad603547a946928d", "rental_uris": {"android": "https://dc.lft.to/lastmile_qr_scan", "ios": "https://dc.lft.to/lastmile_qr_scan"}, "name": "c92289f197458479ad603547a946928d", "is_reserved": 0}, {"is_disabled": 0, "fusion_lon": 0.0, "fusion_lat": 0.0, "lat": 38.920527166666666, "type": "electric_scooter", "lon": -77.0425755, "bike_id": "184f7e81080489acdb385a49bb0f8d1f", "rental_uris": {"android": "https://dc.lft.to/lastmile_qr_scan", "ios": "https://dc.lft.to/lastmile_qr_scan"}, "name": "184f7e81080489acdb385a49bb0f8d1f", "is_reserved": 0}, {"is_disabled": 0, "fusion_lon": 0.0, "fusion_lat": 0.0, "lat": 38.91417633333333, "type": "electric_scooter", "lon": -77.03098816666666, "bike_id": "5f6ea10ed64746c4824d4b0a6cc4e429", "rental_uris": {"android": "https://dc.lft.to/lastmile_qr_scan", "ios": "https://dc.lft.to/lastmile_qr_scan"}, "name": "5f6ea10ed64746c4824d4b0a6cc4e429", "is_reserved": 0}, {"is_disabled": 0, "fusion_lon": 0.0, "fusion_lat": 0.0, "lat": 38.911112333333335, "type": "electric_scooter", "lon": -77.02860583333333, "bike_id": "9cfe36ba92ab5b8ed27f226978956de5", "rental_uris": {"android": "https://dc.lft.to/lastmile_qr_scan", "ios": "https://dc.lft.to/lastmile_qr_scan"}, "name": "9cfe36ba92ab5b8ed27f226978956de5", "is_reserved": 0}, {"is_disabled": 0, "fusion_lon": 0.0, "fusion_lat": 0.0, "lat": 38.95043316666667, "type": "electric_scooter", "lon": -77.02291966666667, "bike_id": "f3b9fea309cde4a6173a74d9c43b00f6", "rental_uris": {"android": "https://dc.lft.to/lastmile_qr_scan", "ios": "https://dc.lft.to/lastmile_qr_scan"}, "name": "f3b9fea309cde4a6173a74d9c43b00f6", "is_reserved": 0}, {"is_disabled": 0, "fusion_lon": 0.0, "fusion_lat": 0.0, "lat": 38.88348883333333, "type": "electric_scooter", "lon": -76.92784216666666, "bike_id": "de270dd673a685506ce21dbbdeea74bd", "rental_uris": {"android": "https://dc.lft.to/lastmile_qr_scan", "ios": "https://dc.lft.to/lastmile_qr_scan"}, "name": "de270dd673a685506ce21dbbdeea74bd", "is_reserved": 0}, {"is_disabled": 0, "fusion_lon": 0.0, "fusion_lat": 0.0, "lat": 38.90569266666667, "type": "electric_scooter", "lon": -77.01009916666666, "bike_id": "59e0d811076686eff938e102068e5342", "rental_uris": {"android": "https://dc.lft.to/lastmile_qr_scan", "ios": "https://dc.lft.to/lastmile_qr_scan"}, "name": "59e0d811076686eff938e102068e5342", "is_reserved": 0}, {"is_disabled": 0, "fusion_lon": 0.0, "fusion_lat": 0.0, "lat": 38.90136416666667, "type": "electric_scooter", "lon": -77.04077233333334, "bike_id": "808b5e16debc89060a0f83e73ec02108", "rental_uris": {"android": "https://dc.lft.to/lastmile_qr_scan", "ios": "https://dc.lft.to/lastmile_qr_scan"}, "name": "808b5e16debc89060a0f83e73ec02108", "is_reserved": 0}, {"is_disabled": 0, "fusion_lon": 0.0, "fusion_lat": 0.0, "lat": 38.9270655, "type": "electric_scooter", "lon": -76.97210233333334, "bike_id": "b112cadaf354c8f48a6a203e6815abbd", "rental_uris": {"android": "https://dc.lft.to/lastmile_qr_scan", "ios": "https://dc.lft.to/lastmile_qr_scan"}, "name": "b112cadaf354c8f48a6a203e6815abbd", "is_reserved": 0}, {"is_disabled": 0, "fusion_lon": 0.0, "fusion_lat": 0.0, "lat": 38.913835166666665, "type": "electric_scooter", "lon": -77.02967983333333, "bike_id": "5acbb31f8ec70518f87e37e8686eb487", "rental_uris": {"android": "https://dc.lft.to/lastmile_qr_scan", "ios": "https://dc.lft.to/lastmile_qr_scan"}, "name": "5acbb31f8ec70518f87e37e8686eb487", "is_reserved": 0}, {"is_disabled": 0, "fusion_lon": 0.0, "fusion_lat": 0.0, "lat": 38.898365, "type": "electric_scooter", "lon": -77.02815066666666, "bike_id": "011b46c787ab914da1b488c5e4465fd9", "rental_uris": {"android": "https://dc.lft.to/lastmile_qr_scan", "ios": "https://dc.lft.to/lastmile_qr_scan"}, "name": "011b46c787ab914da1b488c5e4465fd9", "is_reserved": 0}, {"is_disabled": 0, "fusion_lon": 0.0, "fusion_lat": 0.0, "lat": 38.9294435, "type": "electric_scooter", "lon": -77.03289683333334, "bike_id": "3012a653810d3142348ef1e839438d49", "rental_uris": {"android": "https://dc.lft.to/lastmile_qr_scan", "ios": "https://dc.lft.to/lastmile_qr_scan"}, "name": "3012a653810d3142348ef1e839438d49", "is_reserved": 0}, {"is_disabled": 0, "fusion_lon": 0.0, "fusion_lat": 0.0, "lat": 38.908223, "type": "electric_scooter", "lon": -77.03345183333333, "bike_id": "7cf8f33aa49c34d735b689c8dc65ba48", "rental_uris": {"android": "https://dc.lft.to/lastmile_qr_scan", "ios": "https://dc.lft.to/lastmile_qr_scan"}, "name": "7cf8f33aa49c34d735b689c8dc65ba48", "is_reserved": 0}, {"is_disabled": 0, "fusion_lon": 0.0, "fusion_lat": 0.0, "lat": 38.89258516666666, "type": "electric_scooter", "lon": -76.94155333333333, "bike_id": "d6252620e46b38a4938298a6854bb4dd", "rental_uris": {"android": "https://dc.lft.to/lastmile_qr_scan", "ios": "https://dc.lft.to/lastmile_qr_scan"}, "name": "d6252620e46b38a4938298a6854bb4dd", "is_reserved": 0}, {"is_disabled": 0, "fusion_lon": 0.0, "fusion_lat": 0.0, "lat": 38.90652216666667, "type": "electric_scooter", "lon": -77.02524483333333, "bike_id": "fdd8d2e1485c3ab6b7279d6e57a02fd1", "rental_uris": {"android": "https://dc.lft.to/lastmile_qr_scan", "ios": "https://dc.lft.to/lastmile_qr_scan"}, "name": "fdd8d2e1485c3ab6b7279d6e57a02fd1", "is_reserved": 0}, {"is_disabled": 0, "fusion_lon": 0.0, "fusion_lat": 0.0, "lat": 38.92611933333333, "type": "electric_scooter", "lon": -77.02161116666667, "bike_id": "e7162313ee9135c6ce9027265cd77eea", "rental_uris": {"android": "https://dc.lft.to/lastmile_qr_scan", "ios": "https://dc.lft.to/lastmile_qr_scan"}, "name": "e7162313ee9135c6ce9027265cd77eea", "is_reserved": 0}, {"is_disabled": 0, "fusion_lon": 0.0, "fusion_lat": 0.0, "lat": 38.8923125, "type": "electric_scooter", "lon": -77.04999416666666, "bike_id": "1328d76e2492e0e59fab8c8ecec44d2e", "rental_uris": {"android": "https://dc.lft.to/lastmile_qr_scan", "ios": "https://dc.lft.to/lastmile_qr_scan"}, "name": "1328d76e2492e0e59fab8c8ecec44d2e", "is_reserved": 0}, {"is_disabled": 0, "fusion_lon": 0.0, "fusion_lat": 0.0, "lat": 38.917052166666664, "type": "electric_scooter", "lon": -77.03056266666667, "bike_id": "c13685acd44be36fd3250d03b5929f3f", "rental_uris": {"android": "https://dc.lft.to/lastmile_qr_scan", "ios": "https://dc.lft.to/lastmile_qr_scan"}, "name": "c13685acd44be36fd3250d03b5929f3f", "is_reserved": 0}, {"is_disabled": 0, "fusion_lon": 0.0, "fusion_lat": 0.0, "lat": 38.87758066666667, "type": "electric_bike", "lon": -76.97993383333333, "bike_id": "fd9a97e2a907d639fbf5ce882dc89931", "rental_uris": {"android": "https://dc.lft.to/lastmile_qr_scan", "ios": "https://dc.lft.to/lastmile_qr_scan"}, "name": "fd9a97e2a907d639fbf5ce882dc89931", "is_reserved": 0}, {"is_disabled": 0, "fusion_lon": 0.0, "fusion_lat": 0.0, "lat": 38.9248235, "type": "electric_scooter", "lon": -77.031772, "bike_id": "48ae65aefcd4c14bfa193962be6c5a4d", "rental_uris": {"android": "https://dc.lft.to/lastmile_qr_scan", "ios": "https://dc.lft.to/lastmile_qr_scan"}, "name": "48ae65aefcd4c14bfa193962be6c5a4d", "is_reserved": 0}, {"is_disabled": 0, "fusion_lon": 0.0, "fusion_lat": 0.0, "lat": 38.93483633333334, "type": "electric_scooter", "lon": -77.072691, "bike_id": "df805f81065cd52237e0b2bd6ac487f2", "rental_uris": {"android": "https://dc.lft.to/lastmile_qr_scan", "ios": "https://dc.lft.to/lastmile_qr_scan"}, "name": "df805f81065cd52237e0b2bd6ac487f2", "is_reserved": 0}, {"is_disabled": 0, "fusion_lon": 0.0, "fusion_lat": 0.0, "lat": 38.922871666666666, "type": "electric_scooter", "lon": -77.044625, "bike_id": "6757bd82b05856e2a44d9ce9a9d2fdaf", "rental_uris": {"android": "https://dc.lft.to/lastmile_qr_scan", "ios": "https://dc.lft.to/lastmile_qr_scan"}, "name": "6757bd82b05856e2a44d9ce9a9d2fdaf", "is_reserved": 0}, {"is_disabled": 0, "fusion_lon": 0.0, "fusion_lat": 0.0, "lat": 38.87583716666666, "type": "electric_scooter", "lon": -77.004146, "bike_id": "a51e88953cfc3d9b76621f9426e7affc", "rental_uris": {"android": "https://dc.lft.to/lastmile_qr_scan", "ios": "https://dc.lft.to/lastmile_qr_scan"}, "name": "a51e88953cfc3d9b76621f9426e7affc", "is_reserved": 0}, {"is_disabled": 0, "fusion_lon": 0.0, "fusion_lat": 0.0, "lat": 38.939664666666665, "type": "electric_bike", "lon": -77.36093483333333, "bike_id": "a22424a06b9aeaf96476e89eb1773695", "rental_uris": {"android": "https://dc.lft.to/lastmile_qr_scan", "ios": "https://dc.lft.to/lastmile_qr_scan"}, "name": "a22424a06b9aeaf96476e89eb1773695", "is_reserved": 0}, {"is_disabled": 0, "fusion_lon": 0.0, "fusion_lat": 0.0, "lat": 38.931884333333336, "type": "electric_scooter", "lon": -77.04141683333333, "bike_id": "a17b01233fb98b8fe7e476ae73797e43", "rental_uris": {"android": "https://dc.lft.to/lastmile_qr_scan", "ios": "https://dc.lft.to/lastmile_qr_scan"}, "name": "a17b01233fb98b8fe7e476ae73797e43", "is_reserved": 0}, {"is_disabled": 0, "fusion_lon": 0.0, "fusion_lat": 0.0, "lat": 38.924753333333335, "type": "electric_scooter", "lon": -77.07297933333334, "bike_id": "be7ceb9039ac596404d06f1c0e9e8b3c", "rental_uris": {"android": "https://dc.lft.to/lastmile_qr_scan", "ios": "https://dc.lft.to/lastmile_qr_scan"}, "name": "be7ceb9039ac596404d06f1c0e9e8b3c", "is_reserved": 0}, {"is_disabled": 0, "fusion_lon": 0.0, "fusion_lat": 0.0, "lat": 38.89520666666667, "type": "electric_scooter", "lon": -77.048484, "bike_id": "168cbbdece3d67bdbe5b2458675ae6f1", "rental_uris": {"android": "https://dc.lft.to/lastmile_qr_scan", "ios": "https://dc.lft.to/lastmile_qr_scan"}, "name": "168cbbdece3d67bdbe5b2458675ae6f1", "is_reserved": 0}, {"is_disabled": 0, "fusion_lon": 0.0, "fusion_lat": 0.0, "lat": 38.90943516666667, "type": "electric_scooter", "lon": -77.04664633333333, "bike_id": "b851c7eeb19a8afb405845bb4859e620", "rental_uris": {"android": "https://dc.lft.to/lastmile_qr_scan", "ios": "https://dc.lft.to/lastmile_qr_scan"}, "name": "b851c7eeb19a8afb405845bb4859e620", "is_reserved": 0}, {"is_disabled": 0, "fusion_lon": 0.0, "fusion_lat": 0.0, "lat": 38.990905, "type": "electric_bike", "lon": -76.8749435, "bike_id": "0490037ab20ea022fcccec1abc6caaba", "rental_uris": {"android": "https://dc.lft.to/lastmile_qr_scan", "ios": "https://dc.lft.to/lastmile_qr_scan"}, "name": "0490037ab20ea022fcccec1abc6caaba", "is_reserved": 0}, {"is_disabled": 0, "fusion_lon": 0.0, "fusion_lat": 0.0, "lat": 38.90143, "type": "electric_scooter", "lon": -77.00074916666667, "bike_id": "a719a79ef377c1f7b2dd64474510d2b9", "rental_uris": {"android": "https://dc.lft.to/lastmile_qr_scan", "ios": "https://dc.lft.to/lastmile_qr_scan"}, "name": "a719a79ef377c1f7b2dd64474510d2b9", "is_reserved": 0}, {"is_disabled": 0, "fusion_lon": 0.0, "fusion_lat": 0.0, "lat": 38.91032333333333, "type": "electric_scooter", "lon": -77.00766266666666, "bike_id": "b4259023602637b77ff1e19dfbace1a4", "rental_uris": {"android": "https://dc.lft.to/lastmile_qr_scan", "ios": "https://dc.lft.to/lastmile_qr_scan"}, "name": "b4259023602637b77ff1e19dfbace1a4", "is_reserved": 0}, {"is_disabled": 0, "fusion_lon": 0.0, "fusion_lat": 0.0, "lat": 38.8967695, "type": "electric_scooter", "lon": -77.05133466666666, "bike_id": "40cc5bb95dcad94e9e85dd57236affa2", "rental_uris": {"android": "https://dc.lft.to/lastmile_qr_scan", "ios": "https://dc.lft.to/lastmile_qr_scan"}, "name": "40cc5bb95dcad94e9e85dd57236affa2", "is_reserved": 0}, {"is_disabled": 0, "fusion_lon": 0.0, "fusion_lat": 0.0, "lat": 38.876242166666664, "type": "electric_scooter", "lon": -76.965355, "bike_id": "7f1a53721b4809e87a1b1cc69f48d506", "rental_uris": {"android": "https://dc.lft.to/lastmile_qr_scan", "ios": "https://dc.lft.to/lastmile_qr_scan"}, "name": "7f1a53721b4809e87a1b1cc69f48d506", "is_reserved": 0}, {"is_disabled": 0, "fusion_lon": 0.0, "fusion_lat": 0.0, "lat": 38.901667833333335, "type": "electric_scooter", "lon": -77.0259815, "bike_id": "0bf5e4ed05ae6e4a34f0390682006985", "rental_uris": {"android": "https://dc.lft.to/lastmile_qr_scan", "ios": "https://dc.lft.to/lastmile_qr_scan"}, "name": "0bf5e4ed05ae6e4a34f0390682006985", "is_reserved": 0}, {"is_disabled": 0, "fusion_lon": 0.0, "fusion_lat": 0.0, "lat": 38.90596766666667, "type": "electric_scooter", "lon": -77.041052, "bike_id": "216dfe31a1a28d885a2013d8fd107efd", "rental_uris": {"android": "https://dc.lft.to/lastmile_qr_scan", "ios": "https://dc.lft.to/lastmile_qr_scan"}, "name": "216dfe31a1a28d885a2013d8fd107efd", "is_reserved": 0}, {"is_disabled": 0, "fusion_lon": 0.0, "fusion_lat": 0.0, "lat": 38.926435833333336, "type": "electric_scooter", "lon": -77.03724283333334, "bike_id": "76dc6f9cd46a38a5ce4b8a6a511dff83", "rental_uris": {"android": "https://dc.lft.to/lastmile_qr_scan", "ios": "https://dc.lft.to/lastmile_qr_scan"}, "name": "76dc6f9cd46a38a5ce4b8a6a511dff83", "is_reserved": 0}, {"is_disabled": 0, "fusion_lon": 0.0, "fusion_lat": 0.0, "lat": 38.88606466666667, "type": "electric_scooter", "lon": -77.01984316666666, "bike_id": "ea86ceaa484f6dbe8ef97854a5d11c88", "rental_uris": {"android": "https://dc.lft.to/lastmile_qr_scan", "ios": "https://dc.lft.to/lastmile_qr_scan"}, "name": "ea86ceaa484f6dbe8ef97854a5d11c88", "is_reserved": 0}, {"is_disabled": 0, "fusion_lon": 0.0, "fusion_lat": 0.0, "lat": 38.90972683333333, "type": "electric_scooter", "lon": -77.06767183333334, "bike_id": "b1eee936ce093bf95b535c9c2d485165", "rental_uris": {"android": "https://dc.lft.to/lastmile_qr_scan", "ios": "https://dc.lft.to/lastmile_qr_scan"}, "name": "b1eee936ce093bf95b535c9c2d485165", "is_reserved": 0}, {"is_disabled": 0, "fusion_lon": 0.0, "fusion_lat": 0.0, "lat": 38.896432, "type": "electric_scooter", "lon": -77.03213766666667, "bike_id": "d415714361e64a402ad35f31caf956d4", "rental_uris": {"android": "https://dc.lft.to/lastmile_qr_scan", "ios": "https://dc.lft.to/lastmile_qr_scan"}, "name": "d415714361e64a402ad35f31caf956d4", "is_reserved": 0}, {"is_disabled": 0, "fusion_lon": 0.0, "fusion_lat": 0.0, "lat": 38.9132845, "type": "electric_scooter", "lon": -77.04157666666667, "bike_id": "09f87db0da18abadaaaeae3bd5a72fe1", "rental_uris": {"android": "https://dc.lft.to/lastmile_qr_scan", "ios": "https://dc.lft.to/lastmile_qr_scan"}, "name": "09f87db0da18abadaaaeae3bd5a72fe1", "is_reserved": 0}, {"is_disabled": 0, "fusion_lon": 0.0, "fusion_lat": 0.0, "lat": 38.92480416666667, "type": "electric_scooter", "lon": -77.03483766666666, "bike_id": "75a54b81bd159ef127c321139709e94b", "rental_uris": {"android": "https://dc.lft.to/lastmile_qr_scan", "ios": "https://dc.lft.to/lastmile_qr_scan"}, "name": "75a54b81bd159ef127c321139709e94b", "is_reserved": 0}, {"is_disabled": 0, "fusion_lon": 0.0, "fusion_lat": 0.0, "lat": 38.92600316666667, "type": "electric_scooter", "lon": -77.02147866666667, "bike_id": "83a2db80050711bcef0945e02d3753e0", "rental_uris": {"android": "https://dc.lft.to/lastmile_qr_scan", "ios": "https://dc.lft.to/lastmile_qr_scan"}, "name": "83a2db80050711bcef0945e02d3753e0", "is_reserved": 0}, {"is_disabled": 0, "fusion_lon": 0.0, "fusion_lat": 0.0, "lat": 38.91971733333333, "type": "electric_scooter", "lon": -76.980545, "bike_id": "b6b37c92475be8acc1479ed9d62d7d54", "rental_uris": {"android": "https://dc.lft.to/lastmile_qr_scan", "ios": "https://dc.lft.to/lastmile_qr_scan"}, "name": "b6b37c92475be8acc1479ed9d62d7d54", "is_reserved": 0}, {"is_disabled": 0, "fusion_lon": 0.0, "fusion_lat": 0.0, "lat": 38.87654116666667, "type": "electric_scooter", "lon": -77.002932, "bike_id": "d1abd51df9ff6f1369c397de93624491", "rental_uris": {"android": "https://dc.lft.to/lastmile_qr_scan", "ios": "https://dc.lft.to/lastmile_qr_scan"}, "name": "d1abd51df9ff6f1369c397de93624491", "is_reserved": 0}, {"is_disabled": 0, "fusion_lon": 0.0, "fusion_lat": 0.0, "lat": 38.92227283333333, "type": "electric_scooter", "lon": -77.03433866666667, "bike_id": "2702bddd0f17b481bf1d28a4c8785ca4", "rental_uris": {"android": "https://dc.lft.to/lastmile_qr_scan", "ios": "https://dc.lft.to/lastmile_qr_scan"}, "name": "2702bddd0f17b481bf1d28a4c8785ca4", "is_reserved": 0}, {"is_disabled": 0, "fusion_lon": 0.0, "fusion_lat": 0.0, "lat": 38.89738033333333, "type": "electric_scooter", "lon": -77.0097995, "bike_id": "10830048f3d0d3b2ea477d9818803100", "rental_uris": {"android": "https://dc.lft.to/lastmile_qr_scan", "ios": "https://dc.lft.to/lastmile_qr_scan"}, "name": "10830048f3d0d3b2ea477d9818803100", "is_reserved": 0}, {"is_disabled": 0, "fusion_lon": 0.0, "fusion_lat": 0.0, "lat": 38.93967833333333, "type": "electric_scooter", "lon": -77.0328165, "bike_id": "3aca3b170a10be470cb313210810b3c5", "rental_uris": {"android": "https://dc.lft.to/lastmile_qr_scan", "ios": "https://dc.lft.to/lastmile_qr_scan"}, "name": "3aca3b170a10be470cb313210810b3c5", "is_reserved": 0}, {"is_disabled": 0, "fusion_lon": 0.0, "fusion_lat": 0.0, "lat": 38.9275585, "type": "electric_scooter", "lon": -77.0059075, "bike_id": "1c5b6cd57bb6710732c30fc4641c3a34", "rental_uris": {"android": "https://dc.lft.to/lastmile_qr_scan", "ios": "https://dc.lft.to/lastmile_qr_scan"}, "name": "1c5b6cd57bb6710732c30fc4641c3a34", "is_reserved": 0}, {"is_disabled": 0, "fusion_lon": 0.0, "fusion_lat": 0.0, "lat": 38.942181, "type": "electric_scooter", "lon": -77.0249925, "bike_id": "f74f263e04b9b1562e46fd635c3158b7", "rental_uris": {"android": "https://dc.lft.to/lastmile_qr_scan", "ios": "https://dc.lft.to/lastmile_qr_scan"}, "name": "f74f263e04b9b1562e46fd635c3158b7", "is_reserved": 0}, {"is_disabled": 0, "fusion_lon": 0.0, "fusion_lat": 0.0, "lat": 38.90388883333333, "type": "electric_scooter", "lon": -76.99005766666667, "bike_id": "9a50103723b92ea93dbeba26a63be6fc", "rental_uris": {"android": "https://dc.lft.to/lastmile_qr_scan", "ios": "https://dc.lft.to/lastmile_qr_scan"}, "name": "9a50103723b92ea93dbeba26a63be6fc", "is_reserved": 0}, {"is_disabled": 0, "fusion_lon": 0.0, "fusion_lat": 0.0, "lat": 38.92602183333333, "type": "electric_scooter", "lon": -77.02153733333333, "bike_id": "1af0cde22c62bc97bbb389b272e4d796", "rental_uris": {"android": "https://dc.lft.to/lastmile_qr_scan", "ios": "https://dc.lft.to/lastmile_qr_scan"}, "name": "1af0cde22c62bc97bbb389b272e4d796", "is_reserved": 0}, {"is_disabled": 0, "fusion_lon": 0.0, "fusion_lat": 0.0, "lat": 38.884860333333336, "type": "electric_scooter", "lon": -77.0198515, "bike_id": "20e6d442587d57cfee55c22036f35c3c", "rental_uris": {"android": "https://dc.lft.to/lastmile_qr_scan", "ios": "https://dc.lft.to/lastmile_qr_scan"}, "name": "20e6d442587d57cfee55c22036f35c3c", "is_reserved": 0}, {"is_disabled": 0, "fusion_lon": 0.0, "fusion_lat": 0.0, "lat": 38.93664783333333, "type": "electric_scooter", "lon": -77.03263866666667, "bike_id": "17cce8008532b62328855be181ab65e2", "rental_uris": {"android": "https://dc.lft.to/lastmile_qr_scan", "ios": "https://dc.lft.to/lastmile_qr_scan"}, "name": "17cce8008532b62328855be181ab65e2", "is_reserved": 0}, {"is_disabled": 0, "fusion_lon": 0.0, "fusion_lat": 0.0, "lat": 38.921847166666666, "type": "electric_scooter", "lon": -76.99755116666667, "bike_id": "e99ec75206a7ce132afea9c0122ead02", "rental_uris": {"android": "https://dc.lft.to/lastmile_qr_scan", "ios": "https://dc.lft.to/lastmile_qr_scan"}, "name": "e99ec75206a7ce132afea9c0122ead02", "is_reserved": 0}, {"is_disabled": 0, "fusion_lon": 0.0, "fusion_lat": 0.0, "lat": 38.931783833333334, "type": "electric_scooter", "lon": -77.07252383333334, "bike_id": "cfeb2216c2e81113ec86a7de493f4ab5", "rental_uris": {"android": "https://dc.lft.to/lastmile_qr_scan", "ios": "https://dc.lft.to/lastmile_qr_scan"}, "name": "cfeb2216c2e81113ec86a7de493f4ab5", "is_reserved": 0}, {"is_disabled": 0, "fusion_lon": 0.0, "fusion_lat": 0.0, "lat": 38.89967933333333, "type": "electric_bike", "lon": -76.98675816666666, "bike_id": "a0e778b61465e6bcfcb3053e0fe6ecd9", "rental_uris": {"android": "https://dc.lft.to/lastmile_qr_scan", "ios": "https://dc.lft.to/lastmile_qr_scan"}, "name": "a0e778b61465e6bcfcb3053e0fe6ecd9", "is_reserved": 0}, {"is_disabled": 0, "fusion_lon": 0.0, "fusion_lat": 0.0, "lat": 38.898954, "type": "electric_scooter", "lon": -77.0529325, "bike_id": "f481dacbe670aea4ac4375b1ddb7f9ab", "rental_uris": {"android": "https://dc.lft.to/lastmile_qr_scan", "ios": "https://dc.lft.to/lastmile_qr_scan"}, "name": "f481dacbe670aea4ac4375b1ddb7f9ab", "is_reserved": 0}, {"is_disabled": 0, "fusion_lon": 0.0, "fusion_lat": 0.0, "lat": 38.89842, "type": "electric_scooter", "lon": -76.94631216666667, "bike_id": "9256b4936af07b5f2e1eeee18a1bc351", "rental_uris": {"android": "https://dc.lft.to/lastmile_qr_scan", "ios": "https://dc.lft.to/lastmile_qr_scan"}, "name": "9256b4936af07b5f2e1eeee18a1bc351", "is_reserved": 0}, {"is_disabled": 0, "fusion_lon": 0.0, "fusion_lat": 0.0, "lat": 38.90309766666667, "type": "electric_scooter", "lon": -76.98240933333334, "bike_id": "77fc9299fd4e5f5fa176443e8c142be7", "rental_uris": {"android": "https://dc.lft.to/lastmile_qr_scan", "ios": "https://dc.lft.to/lastmile_qr_scan"}, "name": "77fc9299fd4e5f5fa176443e8c142be7", "is_reserved": 0}, {"is_disabled": 0, "fusion_lon": 0.0, "fusion_lat": 0.0, "lat": 38.8953935, "type": "electric_scooter", "lon": -77.03283, "bike_id": "a2eb581d0f6cfe7ccdaf7d418b334740", "rental_uris": {"android": "https://dc.lft.to/lastmile_qr_scan", "ios": "https://dc.lft.to/lastmile_qr_scan"}, "name": "a2eb581d0f6cfe7ccdaf7d418b334740", "is_reserved": 0}, {"is_disabled": 0, "fusion_lon": 0.0, "fusion_lat": 0.0, "lat": 38.901832666666664, "type": "electric_scooter", "lon": -77.0526925, "bike_id": "1d19b556862ad737aad12c467d65c214", "rental_uris": {"android": "https://dc.lft.to/lastmile_qr_scan", "ios": "https://dc.lft.to/lastmile_qr_scan"}, "name": "1d19b556862ad737aad12c467d65c214", "is_reserved": 0}, {"is_disabled": 0, "fusion_lon": 0.0, "fusion_lat": 0.0, "lat": 38.924584333333335, "type": "electric_bike", "lon": -76.99946766666666, "bike_id": "833348d91ceff20687f86305a275882f", "rental_uris": {"android": "https://dc.lft.to/lastmile_qr_scan", "ios": "https://dc.lft.to/lastmile_qr_scan"}, "name": "833348d91ceff20687f86305a275882f", "is_reserved": 0}, {"is_disabled": 0, "fusion_lon": 0.0, "fusion_lat": 0.0, "lat": 38.90232316666667, "type": "electric_scooter", "lon": -77.05343966666666, "bike_id": "8b7fbe1a8c04a601101f1851485e4453", "rental_uris": {"android": "https://dc.lft.to/lastmile_qr_scan", "ios": "https://dc.lft.to/lastmile_qr_scan"}, "name": "8b7fbe1a8c04a601101f1851485e4453", "is_reserved": 0}, {"is_disabled": 0, "fusion_lon": 0.0, "fusion_lat": 0.0, "lat": 38.892498, "type": "electric_scooter", "lon": -77.04891933333333, "bike_id": "f560e7a2cfb619edbf1c4938badea0dc", "rental_uris": {"android": "https://dc.lft.to/lastmile_qr_scan", "ios": "https://dc.lft.to/lastmile_qr_scan"}, "name": "f560e7a2cfb619edbf1c4938badea0dc", "is_reserved": 0}, {"is_disabled": 0, "fusion_lon": 0.0, "fusion_lat": 0.0, "lat": 38.910495, "type": "electric_scooter", "lon": -77.0424215, "bike_id": "f32b237c2e7952058c9671bbcdc148d0", "rental_uris": {"android": "https://dc.lft.to/lastmile_qr_scan", "ios": "https://dc.lft.to/lastmile_qr_scan"}, "name": "f32b237c2e7952058c9671bbcdc148d0", "is_reserved": 0}, {"is_disabled": 0, "fusion_lon": 0.0, "fusion_lat": 0.0, "lat": 38.936394166666666, "type": "electric_scooter", "lon": -77.0269815, "bike_id": "bf1614b9ac7a6d6d0f4d14572b9adbc4", "rental_uris": {"android": "https://dc.lft.to/lastmile_qr_scan", "ios": "https://dc.lft.to/lastmile_qr_scan"}, "name": "bf1614b9ac7a6d6d0f4d14572b9adbc4", "is_reserved": 0}, {"is_disabled": 0, "fusion_lon": 0.0, "fusion_lat": 0.0, "lat": 38.908523833333334, "type": "electric_scooter", "lon": -77.06077983333333, "bike_id": "08b1f4ffc6fa6538d34dff214e4b2e01", "rental_uris": {"android": "https://dc.lft.to/lastmile_qr_scan", "ios": "https://dc.lft.to/lastmile_qr_scan"}, "name": "08b1f4ffc6fa6538d34dff214e4b2e01", "is_reserved": 0}, {"is_disabled": 0, "fusion_lon": 0.0, "fusion_lat": 0.0, "lat": 38.909748666666665, "type": "electric_scooter", "lon": -77.0314225, "bike_id": "54c2d0309b236e4d79124fe3fd170ee3", "rental_uris": {"android": "https://dc.lft.to/lastmile_qr_scan", "ios": "https://dc.lft.to/lastmile_qr_scan"}, "name": "54c2d0309b236e4d79124fe3fd170ee3", "is_reserved": 0}, {"is_disabled": 0, "fusion_lon": 0.0, "fusion_lat": 0.0, "lat": 38.8953755, "type": "electric_scooter", "lon": -76.94914316666667, "bike_id": "9e4538c53f87a452a4bdac9fc5374229", "rental_uris": {"android": "https://dc.lft.to/lastmile_qr_scan", "ios": "https://dc.lft.to/lastmile_qr_scan"}, "name": "9e4538c53f87a452a4bdac9fc5374229", "is_reserved": 0}, {"is_disabled": 0, "fusion_lon": 0.0, "fusion_lat": 0.0, "lat": 38.932557, "type": "electric_scooter", "lon": -77.04010616666666, "bike_id": "7f9b99ba403cd05c1a0ad3b3c404d6b9", "rental_uris": {"android": "https://dc.lft.to/lastmile_qr_scan", "ios": "https://dc.lft.to/lastmile_qr_scan"}, "name": "7f9b99ba403cd05c1a0ad3b3c404d6b9", "is_reserved": 0}, {"is_disabled": 0, "fusion_lon": 0.0, "fusion_lat": 0.0, "lat": 38.880109833333336, "type": "electric_bike", "lon": -76.91591916666667, "bike_id": "8ec5a138ba0092417850d83e978c6e75", "rental_uris": {"android": "https://dc.lft.to/lastmile_qr_scan", "ios": "https://dc.lft.to/lastmile_qr_scan"}, "name": "8ec5a138ba0092417850d83e978c6e75", "is_reserved": 0}, {"is_disabled": 0, "fusion_lon": 0.0, "fusion_lat": 0.0, "lat": 38.925612, "type": "electric_scooter", "lon": -77.02283516666667, "bike_id": "943c00a0e878e5a622b07a34f4bdc8eb", "rental_uris": {"android": "https://dc.lft.to/lastmile_qr_scan", "ios": "https://dc.lft.to/lastmile_qr_scan"}, "name": "943c00a0e878e5a622b07a34f4bdc8eb", "is_reserved": 0}, {"is_disabled": 0, "fusion_lon": 0.0, "fusion_lat": 0.0, "lat": 38.862458833333335, "type": "electric_scooter", "lon": -76.9950025, "bike_id": "d62633d14ab9b6b79966b6390991aea8", "rental_uris": {"android": "https://dc.lft.to/lastmile_qr_scan", "ios": "https://dc.lft.to/lastmile_qr_scan"}, "name": "d62633d14ab9b6b79966b6390991aea8", "is_reserved": 0}, {"is_disabled": 0, "fusion_lon": 0.0, "fusion_lat": 0.0, "lat": 38.88598416666667, "type": "electric_scooter", "lon": -76.99719833333333, "bike_id": "897850f1859c863b6cef59bed7b70bb6", "rental_uris": {"android": "https://dc.lft.to/lastmile_qr_scan", "ios": "https://dc.lft.to/lastmile_qr_scan"}, "name": "897850f1859c863b6cef59bed7b70bb6", "is_reserved": 0}, {"is_disabled": 0, "fusion_lon": 0.0, "fusion_lat": 0.0, "lat": 38.994550333333336, "type": "electric_bike", "lon": -76.9081535, "bike_id": "7608340960f58a51998ee93f7e1e8fe5", "rental_uris": {"android": "https://dc.lft.to/lastmile_qr_scan", "ios": "https://dc.lft.to/lastmile_qr_scan"}, "name": "7608340960f58a51998ee93f7e1e8fe5", "is_reserved": 0}, {"is_disabled": 0, "fusion_lon": 0.0, "fusion_lat": 0.0, "lat": 38.859894, "type": "electric_bike", "lon": -76.97050866666666, "bike_id": "af906b136b5d43628229c3f622f64ed3", "rental_uris": {"android": "https://dc.lft.to/lastmile_qr_scan", "ios": "https://dc.lft.to/lastmile_qr_scan"}, "name": "af906b136b5d43628229c3f622f64ed3", "is_reserved": 0}, {"is_disabled": 0, "fusion_lon": 0.0, "fusion_lat": 0.0, "lat": 38.9006655, "type": "electric_scooter", "lon": -77.04889, "bike_id": "8239ff31b5080c57b7194d51d59bbea9", "rental_uris": {"android": "https://dc.lft.to/lastmile_qr_scan", "ios": "https://dc.lft.to/lastmile_qr_scan"}, "name": "8239ff31b5080c57b7194d51d59bbea9", "is_reserved": 0}, {"is_disabled": 0, "fusion_lon": 0.0, "fusion_lat": 0.0, "lat": 38.933262, "type": "electric_scooter", "lon": -77.02924933333334, "bike_id": "23a835838356a7c7d2634e49bcde790f", "rental_uris": {"android": "https://dc.lft.to/lastmile_qr_scan", "ios": "https://dc.lft.to/lastmile_qr_scan"}, "name": "23a835838356a7c7d2634e49bcde790f", "is_reserved": 0}, {"is_disabled": 0, "fusion_lon": 0.0, "fusion_lat": 0.0, "lat": 38.9289475, "type": "electric_scooter", "lon": -77.03252016666667, "bike_id": "8d22efb79df3de255f573faafb1cf263", "rental_uris": {"android": "https://dc.lft.to/lastmile_qr_scan", "ios": "https://dc.lft.to/lastmile_qr_scan"}, "name": "8d22efb79df3de255f573faafb1cf263", "is_reserved": 0}, {"is_disabled": 0, "fusion_lon": 0.0, "fusion_lat": 0.0, "lat": 38.91392583333333, "type": "electric_scooter", "lon": -77.0005025, "bike_id": "159f99bb8e97355fb5747884bb617a4c", "rental_uris": {"android": "https://dc.lft.to/lastmile_qr_scan", "ios": "https://dc.lft.to/lastmile_qr_scan"}, "name": "159f99bb8e97355fb5747884bb617a4c", "is_reserved": 0}, {"is_disabled": 0, "fusion_lon": 0.0, "fusion_lat": 0.0, "lat": 38.897192, "type": "electric_scooter", "lon": -77.02710533333334, "bike_id": "457c89f59fc45674327e63db286ff350", "rental_uris": {"android": "https://dc.lft.to/lastmile_qr_scan", "ios": "https://dc.lft.to/lastmile_qr_scan"}, "name": "457c89f59fc45674327e63db286ff350", "is_reserved": 0}, {"is_disabled": 0, "fusion_lon": 0.0, "fusion_lat": 0.0, "lat": 38.93532583333333, "type": "electric_scooter", "lon": -77.02070583333334, "bike_id": "8eda9bcc4770064372b47c8e000933d4", "rental_uris": {"android": "https://dc.lft.to/lastmile_qr_scan", "ios": "https://dc.lft.to/lastmile_qr_scan"}, "name": "8eda9bcc4770064372b47c8e000933d4", "is_reserved": 0}, {"is_disabled": 0, "fusion_lon": 0.0, "fusion_lat": 0.0, "lat": 38.91415966666667, "type": "electric_scooter", "lon": -77.03072166666666, "bike_id": "bfdeac38cc0ce172abe7cfeb85c88f91", "rental_uris": {"android": "https://dc.lft.to/lastmile_qr_scan", "ios": "https://dc.lft.to/lastmile_qr_scan"}, "name": "bfdeac38cc0ce172abe7cfeb85c88f91", "is_reserved": 0}, {"is_disabled": 0, "fusion_lon": 0.0, "fusion_lat": 0.0, "lat": 38.9420115, "type": "electric_scooter", "lon": -77.0257735, "bike_id": "66564ca852eb69740bb8549be3daf86d", "rental_uris": {"android": "https://dc.lft.to/lastmile_qr_scan", "ios": "https://dc.lft.to/lastmile_qr_scan"}, "name": "66564ca852eb69740bb8549be3daf86d", "is_reserved": 0}, {"is_disabled": 0, "fusion_lon": 0.0, "fusion_lat": 0.0, "lat": 38.90965083333333, "type": "electric_scooter", "lon": -77.04455983333334, "bike_id": "eef9c733ba542b4be4550561db3f87ef", "rental_uris": {"android": "https://dc.lft.to/lastmile_qr_scan", "ios": "https://dc.lft.to/lastmile_qr_scan"}, "name": "eef9c733ba542b4be4550561db3f87ef", "is_reserved": 0}, {"is_disabled": 0, "fusion_lon": 0.0, "fusion_lat": 0.0, "lat": 38.952141, "type": "electric_scooter", "lon": -77.00342083333334, "bike_id": "8dc41daf385bbab759ac0e96c775c2f1", "rental_uris": {"android": "https://dc.lft.to/lastmile_qr_scan", "ios": "https://dc.lft.to/lastmile_qr_scan"}, "name": "8dc41daf385bbab759ac0e96c775c2f1", "is_reserved": 0}, {"is_disabled": 0, "fusion_lon": 0.0, "fusion_lat": 0.0, "lat": 38.968318833333335, "type": "electric_scooter", "lon": -77.0151155, "bike_id": "5853cf5ff68f7893b8f577b82ada0541", "rental_uris": {"android": "https://dc.lft.to/lastmile_qr_scan", "ios": "https://dc.lft.to/lastmile_qr_scan"}, "name": "5853cf5ff68f7893b8f577b82ada0541", "is_reserved": 0}, {"is_disabled": 0, "fusion_lon": 0.0, "fusion_lat": 0.0, "lat": 38.92172866666667, "type": "electric_scooter", "lon": -77.03840116666667, "bike_id": "65833f3c6289336ae30812dd0ffd31a8", "rental_uris": {"android": "https://dc.lft.to/lastmile_qr_scan", "ios": "https://dc.lft.to/lastmile_qr_scan"}, "name": "65833f3c6289336ae30812dd0ffd31a8", "is_reserved": 0}, {"is_disabled": 0, "fusion_lon": 0.0, "fusion_lat": 0.0, "lat": 38.879735, "type": "electric_scooter", "lon": -76.9936765, "bike_id": "1f4506c87c7f2feb6fe2f677c023f122", "rental_uris": {"android": "https://dc.lft.to/lastmile_qr_scan", "ios": "https://dc.lft.to/lastmile_qr_scan"}, "name": "1f4506c87c7f2feb6fe2f677c023f122", "is_reserved": 0}, {"is_disabled": 0, "fusion_lon": 0.0, "fusion_lat": 0.0, "lat": 38.9850565, "type": "electric_bike", "lon": -76.98200433333334, "bike_id": "9e9bf0ce8f039ca3124587c5d6e74223", "rental_uris": {"android": "https://dc.lft.to/lastmile_qr_scan", "ios": "https://dc.lft.to/lastmile_qr_scan"}, "name": "9e9bf0ce8f039ca3124587c5d6e74223", "is_reserved": 0}, {"is_disabled": 0, "fusion_lon": 0.0, "fusion_lat": 0.0, "lat": 38.9255725, "type": "electric_scooter", "lon": -77.03783516666667, "bike_id": "50f0089b05b6b8964852693a0fdb33f6", "rental_uris": {"android": "https://dc.lft.to/lastmile_qr_scan", "ios": "https://dc.lft.to/lastmile_qr_scan"}, "name": "50f0089b05b6b8964852693a0fdb33f6", "is_reserved": 0}, {"is_disabled": 0, "fusion_lon": 0.0, "fusion_lat": 0.0, "lat": 38.90852983333333, "type": "electric_scooter", "lon": -77.03256116666667, "bike_id": "5dba5cb6d29e7026fc7a1f01c930bbbf", "rental_uris": {"android": "https://dc.lft.to/lastmile_qr_scan", "ios": "https://dc.lft.to/lastmile_qr_scan"}, "name": "5dba5cb6d29e7026fc7a1f01c930bbbf", "is_reserved": 0}, {"is_disabled": 0, "fusion_lon": 0.0, "fusion_lat": 0.0, "lat": 38.9146225, "type": "electric_scooter", "lon": -77.03187166666666, "bike_id": "f48518bfe9521e690b53a9f6b8cf69c4", "rental_uris": {"android": "https://dc.lft.to/lastmile_qr_scan", "ios": "https://dc.lft.to/lastmile_qr_scan"}, "name": "f48518bfe9521e690b53a9f6b8cf69c4", "is_reserved": 0}, {"is_disabled": 0, "fusion_lon": 0.0, "fusion_lat": 0.0, "lat": 38.8991015, "type": "electric_scooter", "lon": -76.933913, "bike_id": "50f33be890ea977c75ffe443c12853d7", "rental_uris": {"android": "https://dc.lft.to/lastmile_qr_scan", "ios": "https://dc.lft.to/lastmile_qr_scan"}, "name": "50f33be890ea977c75ffe443c12853d7", "is_reserved": 0}, {"is_disabled": 0, "fusion_lon": 0.0, "fusion_lat": 0.0, "lat": 38.9596535, "type": "electric_scooter", "lon": -77.02110783333333, "bike_id": "812c82d9e5034c725d516fa510ff5613", "rental_uris": {"android": "https://dc.lft.to/lastmile_qr_scan", "ios": "https://dc.lft.to/lastmile_qr_scan"}, "name": "812c82d9e5034c725d516fa510ff5613", "is_reserved": 0}, {"is_disabled": 0, "fusion_lon": 0.0, "fusion_lat": 0.0, "lat": 38.88072183333333, "type": "electric_scooter", "lon": -76.9950725, "bike_id": "9c1ebb165faabfbfb938ecfebe25f463", "rental_uris": {"android": "https://dc.lft.to/lastmile_qr_scan", "ios": "https://dc.lft.to/lastmile_qr_scan"}, "name": "9c1ebb165faabfbfb938ecfebe25f463", "is_reserved": 0}, {"is_disabled": 0, "fusion_lon": 0.0, "fusion_lat": 0.0, "lat": 38.95404716666667, "type": "electric_scooter", "lon": -77.02748416666667, "bike_id": "ed7ad809b4f89726d3de6ce4d8ef56f3", "rental_uris": {"android": "https://dc.lft.to/lastmile_qr_scan", "ios": "https://dc.lft.to/lastmile_qr_scan"}, "name": "ed7ad809b4f89726d3de6ce4d8ef56f3", "is_reserved": 0}, {"is_disabled": 0, "fusion_lon": 0.0, "fusion_lat": 0.0, "lat": 38.8987615, "type": "electric_scooter", "lon": -77.0272185, "bike_id": "2518a92aa00d5f6a3f3e2712a9dc5fed", "rental_uris": {"android": "https://dc.lft.to/lastmile_qr_scan", "ios": "https://dc.lft.to/lastmile_qr_scan"}, "name": "2518a92aa00d5f6a3f3e2712a9dc5fed", "is_reserved": 0}, {"is_disabled": 0, "fusion_lon": 0.0, "fusion_lat": 0.0, "lat": 38.84597733333333, "type": "electric_bike", "lon": -76.96877633333334, "bike_id": "760d8735c225a1d3f259a8ce7df0ab5e", "rental_uris": {"android": "https://dc.lft.to/lastmile_qr_scan", "ios": "https://dc.lft.to/lastmile_qr_scan"}, "name": "760d8735c225a1d3f259a8ce7df0ab5e", "is_reserved": 0}, {"is_disabled": 0, "fusion_lon": 0.0, "fusion_lat": 0.0, "lat": 38.9293685, "type": "electric_scooter", "lon": -77.03293533333333, "bike_id": "4bd5cf56ee98878e5a9d8899e0d99858", "rental_uris": {"android": "https://dc.lft.to/lastmile_qr_scan", "ios": "https://dc.lft.to/lastmile_qr_scan"}, "name": "4bd5cf56ee98878e5a9d8899e0d99858", "is_reserved": 0}, {"is_disabled": 0, "fusion_lon": 0.0, "fusion_lat": 0.0, "lat": 38.88404116666667, "type": "electric_bike", "lon": -77.0307905, "bike_id": "23ed386a1882103177e8b3db5ca19c71", "rental_uris": {"android": "https://dc.lft.to/lastmile_qr_scan", "ios": "https://dc.lft.to/lastmile_qr_scan"}, "name": "23ed386a1882103177e8b3db5ca19c71", "is_reserved": 0}, {"is_disabled": 0, "fusion_lon": 0.0, "fusion_lat": 0.0, "lat": 38.93555383333333, "type": "electric_scooter", "lon": -77.07347483333334, "bike_id": "359ba2c247479de1b585d3f1afc02c32", "rental_uris": {"android": "https://dc.lft.to/lastmile_qr_scan", "ios": "https://dc.lft.to/lastmile_qr_scan"}, "name": "359ba2c247479de1b585d3f1afc02c32", "is_reserved": 0}, {"is_disabled": 0, "fusion_lon": 0.0, "fusion_lat": 0.0, "lat": 38.88753533333333, "type": "electric_scooter", "lon": -77.00224866666667, "bike_id": "ee6a35ac4d52a4efd202461a1e96c913", "rental_uris": {"android": "https://dc.lft.to/lastmile_qr_scan", "ios": "https://dc.lft.to/lastmile_qr_scan"}, "name": "ee6a35ac4d52a4efd202461a1e96c913", "is_reserved": 0}, {"is_disabled": 0, "fusion_lon": 0.0, "fusion_lat": 0.0, "lat": 38.917342, "type": "electric_scooter", "lon": -76.99179266666667, "bike_id": "22873425770f7647ae448f5da249858b", "rental_uris": {"android": "https://dc.lft.to/lastmile_qr_scan", "ios": "https://dc.lft.to/lastmile_qr_scan"}, "name": "22873425770f7647ae448f5da249858b", "is_reserved": 0}, {"is_disabled": 0, "fusion_lon": 0.0, "fusion_lat": 0.0, "lat": 38.92615283333333, "type": "electric_scooter", "lon": -76.98199, "bike_id": "3f5eb61ac1db53b4222d77483281b791", "rental_uris": {"android": "https://dc.lft.to/lastmile_qr_scan", "ios": "https://dc.lft.to/lastmile_qr_scan"}, "name": "3f5eb61ac1db53b4222d77483281b791", "is_reserved": 0}, {"is_disabled": 0, "fusion_lon": 0.0, "fusion_lat": 0.0, "lat": 38.899224833333335, "type": "electric_scooter", "lon": -76.99159216666666, "bike_id": "6326b57870f4563e426e01f84cf29dd5", "rental_uris": {"android": "https://dc.lft.to/lastmile_qr_scan", "ios": "https://dc.lft.to/lastmile_qr_scan"}, "name": "6326b57870f4563e426e01f84cf29dd5", "is_reserved": 0}, {"is_disabled": 0, "fusion_lon": 0.0, "fusion_lat": 0.0, "lat": 38.87551666666667, "type": "electric_scooter", "lon": -77.00462516666667, "bike_id": "3a5508df7bc828d68f2947c4fbd09720", "rental_uris": {"android": "https://dc.lft.to/lastmile_qr_scan", "ios": "https://dc.lft.to/lastmile_qr_scan"}, "name": "3a5508df7bc828d68f2947c4fbd09720", "is_reserved": 0}, {"is_disabled": 0, "fusion_lon": 0.0, "fusion_lat": 0.0, "lat": 38.887632333333336, "type": "electric_scooter", "lon": -76.9891215, "bike_id": "aabd0f7f7c06c021200e8d7729e29245", "rental_uris": {"android": "https://dc.lft.to/lastmile_qr_scan", "ios": "https://dc.lft.to/lastmile_qr_scan"}, "name": "aabd0f7f7c06c021200e8d7729e29245", "is_reserved": 0}, {"is_disabled": 0, "fusion_lon": 0.0, "fusion_lat": 0.0, "lat": 38.90130333333333, "type": "electric_scooter", "lon": -77.03981733333333, "bike_id": "338187400fb145fb2af84a7c0d938216", "rental_uris": {"android": "https://dc.lft.to/lastmile_qr_scan", "ios": "https://dc.lft.to/lastmile_qr_scan"}, "name": "338187400fb145fb2af84a7c0d938216", "is_reserved": 0}, {"is_disabled": 0, "fusion_lon": 0.0, "fusion_lat": 0.0, "lat": 38.9705565, "type": "electric_bike", "lon": -76.96061816666666, "bike_id": "28810a9111711d37a34ecd75350adae1", "rental_uris": {"android": "https://dc.lft.to/lastmile_qr_scan", "ios": "https://dc.lft.to/lastmile_qr_scan"}, "name": "28810a9111711d37a34ecd75350adae1", "is_reserved": 0}, {"is_disabled": 0, "fusion_lon": 0.0, "fusion_lat": 0.0, "lat": 38.90549333333333, "type": "electric_scooter", "lon": -77.043296, "bike_id": "6ccbacf6b0296740701dfdf2953be7d1", "rental_uris": {"android": "https://dc.lft.to/lastmile_qr_scan", "ios": "https://dc.lft.to/lastmile_qr_scan"}, "name": "6ccbacf6b0296740701dfdf2953be7d1", "is_reserved": 0}, {"is_disabled": 0, "fusion_lon": 0.0, "fusion_lat": 0.0, "lat": 38.902413, "type": "electric_scooter", "lon": -77.05274283333334, "bike_id": "a731cc44336e2381f8c787549aada730", "rental_uris": {"android": "https://dc.lft.to/lastmile_qr_scan", "ios": "https://dc.lft.to/lastmile_qr_scan"}, "name": "a731cc44336e2381f8c787549aada730", "is_reserved": 0}, {"is_disabled": 0, "fusion_lon": 0.0, "fusion_lat": 0.0, "lat": 38.94778733333333, "type": "electric_bike", "lon": -76.97222616666667, "bike_id": "0ca762a5c10e424e74a2bcb2093d7278", "rental_uris": {"android": "https://dc.lft.to/lastmile_qr_scan", "ios": "https://dc.lft.to/lastmile_qr_scan"}, "name": "0ca762a5c10e424e74a2bcb2093d7278", "is_reserved": 0}, {"is_disabled": 0, "fusion_lon": 0.0, "fusion_lat": 0.0, "lat": 38.92375083333334, "type": "electric_scooter", "lon": -77.05027733333333, "bike_id": "4da9481617af558791682795b4acacc1", "rental_uris": {"android": "https://dc.lft.to/lastmile_qr_scan", "ios": "https://dc.lft.to/lastmile_qr_scan"}, "name": "4da9481617af558791682795b4acacc1", "is_reserved": 0}, {"is_disabled": 0, "fusion_lon": 0.0, "fusion_lat": 0.0, "lat": 38.903225166666665, "type": "electric_scooter", "lon": -77.0288165, "bike_id": "7b9aaa07956126360839ef7e989c7f55", "rental_uris": {"android": "https://dc.lft.to/lastmile_qr_scan", "ios": "https://dc.lft.to/lastmile_qr_scan"}, "name": "7b9aaa07956126360839ef7e989c7f55", "is_reserved": 0}, {"is_disabled": 0, "fusion_lon": 0.0, "fusion_lat": 0.0, "lat": 38.89403316666667, "type": "electric_scooter", "lon": -77.02149366666667, "bike_id": "d8f1eded591a81336acbfeb92703f144", "rental_uris": {"android": "https://dc.lft.to/lastmile_qr_scan", "ios": "https://dc.lft.to/lastmile_qr_scan"}, "name": "d8f1eded591a81336acbfeb92703f144", "is_reserved": 0}, {"is_disabled": 0, "fusion_lon": 0.0, "fusion_lat": 0.0, "lat": 38.90749183333333, "type": "electric_scooter", "lon": -77.00293933333333, "bike_id": "9af42a45f976485430dc6b2db9392a27", "rental_uris": {"android": "https://dc.lft.to/lastmile_qr_scan", "ios": "https://dc.lft.to/lastmile_qr_scan"}, "name": "9af42a45f976485430dc6b2db9392a27", "is_reserved": 0}, {"is_disabled": 0, "fusion_lon": 0.0, "fusion_lat": 0.0, "lat": 38.90165416666667, "type": "electric_scooter", "lon": -77.05906166666666, "bike_id": "cc766fe4000afeac2ef19f77884bb128", "rental_uris": {"android": "https://dc.lft.to/lastmile_qr_scan", "ios": "https://dc.lft.to/lastmile_qr_scan"}, "name": "cc766fe4000afeac2ef19f77884bb128", "is_reserved": 0}, {"is_disabled": 0, "fusion_lon": 0.0, "fusion_lat": 0.0, "lat": 38.91895383333333, "type": "electric_scooter", "lon": -77.04471266666667, "bike_id": "0a7734f3c1677da0f64f3ebfc444b4d9", "rental_uris": {"android": "https://dc.lft.to/lastmile_qr_scan", "ios": "https://dc.lft.to/lastmile_qr_scan"}, "name": "0a7734f3c1677da0f64f3ebfc444b4d9", "is_reserved": 0}, {"is_disabled": 0, "fusion_lon": 0.0, "fusion_lat": 0.0, "lat": 38.923071, "type": "electric_scooter", "lon": -77.03104266666666, "bike_id": "ed8d1a4fe1f2028313f7274966eeff8c", "rental_uris": {"android": "https://dc.lft.to/lastmile_qr_scan", "ios": "https://dc.lft.to/lastmile_qr_scan"}, "name": "ed8d1a4fe1f2028313f7274966eeff8c", "is_reserved": 0}, {"is_disabled": 0, "fusion_lon": 0.0, "fusion_lat": 0.0, "lat": 38.923753166666664, "type": "electric_scooter", "lon": -77.03059833333333, "bike_id": "7f40cf23786a2909fa33472de120cc84", "rental_uris": {"android": "https://dc.lft.to/lastmile_qr_scan", "ios": "https://dc.lft.to/lastmile_qr_scan"}, "name": "7f40cf23786a2909fa33472de120cc84", "is_reserved": 0}, {"is_disabled": 0, "fusion_lon": 0.0, "fusion_lat": 0.0, "lat": 38.90361083333333, "type": "electric_scooter", "lon": -77.02515916666667, "bike_id": "9a12271af69b23551788d347d39c783b", "rental_uris": {"android": "https://dc.lft.to/lastmile_qr_scan", "ios": "https://dc.lft.to/lastmile_qr_scan"}, "name": "9a12271af69b23551788d347d39c783b", "is_reserved": 0}, {"is_disabled": 0, "fusion_lon": 0.0, "fusion_lat": 0.0, "lat": 38.90438483333333, "type": "electric_scooter", "lon": -77.061162, "bike_id": "8cbbdeef4e283e7e3a9c733226c87f9a", "rental_uris": {"android": "https://dc.lft.to/lastmile_qr_scan", "ios": "https://dc.lft.to/lastmile_qr_scan"}, "name": "8cbbdeef4e283e7e3a9c733226c87f9a", "is_reserved": 0}, {"is_disabled": 0, "fusion_lon": 0.0, "fusion_lat": 0.0, "lat": 38.96559, "type": "electric_bike", "lon": -77.02298583333334, "bike_id": "8ad2b7262d6cf17ae9c7060acc8aeeca", "rental_uris": {"android": "https://dc.lft.to/lastmile_qr_scan", "ios": "https://dc.lft.to/lastmile_qr_scan"}, "name": "8ad2b7262d6cf17ae9c7060acc8aeeca", "is_reserved": 0}, {"is_disabled": 0, "fusion_lon": 0.0, "fusion_lat": 0.0, "lat": 38.9099635, "type": "electric_scooter", "lon": -77.03721866666666, "bike_id": "7332383bf46c73bc8263be999146cc8c", "rental_uris": {"android": "https://dc.lft.to/lastmile_qr_scan", "ios": "https://dc.lft.to/lastmile_qr_scan"}, "name": "7332383bf46c73bc8263be999146cc8c", "is_reserved": 0}, {"is_disabled": 0, "fusion_lon": 0.0, "fusion_lat": 0.0, "lat": 38.941864333333335, "type": "electric_scooter", "lon": -77.02486016666667, "bike_id": "afb984c9fe0c8d148d760b8ffeb9a15e", "rental_uris": {"android": "https://dc.lft.to/lastmile_qr_scan", "ios": "https://dc.lft.to/lastmile_qr_scan"}, "name": "afb984c9fe0c8d148d760b8ffeb9a15e", "is_reserved": 0}, {"is_disabled": 0, "fusion_lon": 0.0, "fusion_lat": 0.0, "lat": 38.94322316666667, "type": "electric_scooter", "lon": -77.08576183333334, "bike_id": "6dcdfb10d266da09625f515253105648", "rental_uris": {"android": "https://dc.lft.to/lastmile_qr_scan", "ios": "https://dc.lft.to/lastmile_qr_scan"}, "name": "6dcdfb10d266da09625f515253105648", "is_reserved": 0}, {"is_disabled": 0, "fusion_lon": 0.0, "fusion_lat": 0.0, "lat": 38.872919333333336, "type": "electric_scooter", "lon": -77.00989283333334, "bike_id": "79c3b1add85974a348259f7621262f3b", "rental_uris": {"android": "https://dc.lft.to/lastmile_qr_scan", "ios": "https://dc.lft.to/lastmile_qr_scan"}, "name": "79c3b1add85974a348259f7621262f3b", "is_reserved": 0}, {"is_disabled": 0, "fusion_lon": 0.0, "fusion_lat": 0.0, "lat": 38.93098, "type": "electric_scooter", "lon": -77.0326305, "bike_id": "98da963b2348e80edc8a6e7a3806f40d", "rental_uris": {"android": "https://dc.lft.to/lastmile_qr_scan", "ios": "https://dc.lft.to/lastmile_qr_scan"}, "name": "98da963b2348e80edc8a6e7a3806f40d", "is_reserved": 0}, {"is_disabled": 0, "fusion_lon": 0.0, "fusion_lat": 0.0, "lat": 38.89274866666667, "type": "electric_scooter", "lon": -76.93722933333333, "bike_id": "aca094b734b3073f5f091e9932b999f9", "rental_uris": {"android": "https://dc.lft.to/lastmile_qr_scan", "ios": "https://dc.lft.to/lastmile_qr_scan"}, "name": "aca094b734b3073f5f091e9932b999f9", "is_reserved": 0}, {"is_disabled": 0, "fusion_lon": 0.0, "fusion_lat": 0.0, "lat": 38.90815333333333, "type": "electric_scooter", "lon": -77.0433075, "bike_id": "43b59105742d1b3df63a05f0a5283429", "rental_uris": {"android": "https://dc.lft.to/lastmile_qr_scan", "ios": "https://dc.lft.to/lastmile_qr_scan"}, "name": "43b59105742d1b3df63a05f0a5283429", "is_reserved": 0}, {"is_disabled": 0, "fusion_lon": 0.0, "fusion_lat": 0.0, "lat": 38.912511333333335, "type": "electric_scooter", "lon": -77.041602, "bike_id": "0bedc57704e3c5a6ff5e9a541c99e528", "rental_uris": {"android": "https://dc.lft.to/lastmile_qr_scan", "ios": "https://dc.lft.to/lastmile_qr_scan"}, "name": "0bedc57704e3c5a6ff5e9a541c99e528", "is_reserved": 0}, {"is_disabled": 0, "fusion_lon": 0.0, "fusion_lat": 0.0, "lat": 38.882274, "type": "electric_scooter", "lon": -76.99502633333333, "bike_id": "2393f707fd7fcfe0307db8fb998087ea", "rental_uris": {"android": "https://dc.lft.to/lastmile_qr_scan", "ios": "https://dc.lft.to/lastmile_qr_scan"}, "name": "2393f707fd7fcfe0307db8fb998087ea", "is_reserved": 0}, {"is_disabled": 0, "fusion_lon": 0.0, "fusion_lat": 0.0, "lat": 38.906454333333336, "type": "electric_scooter", "lon": -77.04523766666667, "bike_id": "d63768b5d9780010c7d43bee53d1480d", "rental_uris": {"android": "https://dc.lft.to/lastmile_qr_scan", "ios": "https://dc.lft.to/lastmile_qr_scan"}, "name": "d63768b5d9780010c7d43bee53d1480d", "is_reserved": 0}, {"is_disabled": 0, "fusion_lon": 0.0, "fusion_lat": 0.0, "lat": 38.90904466666667, "type": "electric_scooter", "lon": -77.04476416666667, "bike_id": "f9a3a884aaa88dc36cf0025703df57c5", "rental_uris": {"android": "https://dc.lft.to/lastmile_qr_scan", "ios": "https://dc.lft.to/lastmile_qr_scan"}, "name": "f9a3a884aaa88dc36cf0025703df57c5", "is_reserved": 0}, {"is_disabled": 0, "fusion_lon": 0.0, "fusion_lat": 0.0, "lat": 38.91693316666667, "type": "electric_bike", "lon": -77.09164266666667, "bike_id": "d0d7d10d6f7ced3809560db7dbb37aaf", "rental_uris": {"android": "https://dc.lft.to/lastmile_qr_scan", "ios": "https://dc.lft.to/lastmile_qr_scan"}, "name": "d0d7d10d6f7ced3809560db7dbb37aaf", "is_reserved": 0}, {"is_disabled": 0, "fusion_lon": 0.0, "fusion_lat": 0.0, "lat": 38.87376116666667, "type": "electric_scooter", "lon": -77.00095266666666, "bike_id": "b19bff24cf2c836965afb99eb7f99829", "rental_uris": {"android": "https://dc.lft.to/lastmile_qr_scan", "ios": "https://dc.lft.to/lastmile_qr_scan"}, "name": "b19bff24cf2c836965afb99eb7f99829", "is_reserved": 0}, {"is_disabled": 0, "fusion_lon": 0.0, "fusion_lat": 0.0, "lat": 38.80565083333333, "type": "electric_bike", "lon": -77.05157733333333, "bike_id": "d40cf8e28a21e9e5261268a3fd20afcc", "rental_uris": {"android": "https://dc.lft.to/lastmile_qr_scan", "ios": "https://dc.lft.to/lastmile_qr_scan"}, "name": "d40cf8e28a21e9e5261268a3fd20afcc", "is_reserved": 0}, {"is_disabled": 0, "fusion_lon": 0.0, "fusion_lat": 0.0, "lat": 38.919684, "type": "electric_scooter", "lon": -77.02367683333334, "bike_id": "bc4760fed07af4b0e6c5fdab0d4efb67", "rental_uris": {"android": "https://dc.lft.to/lastmile_qr_scan", "ios": "https://dc.lft.to/lastmile_qr_scan"}, "name": "bc4760fed07af4b0e6c5fdab0d4efb67", "is_reserved": 0}, {"is_disabled": 0, "fusion_lon": 0.0, "fusion_lat": 0.0, "lat": 38.90516316666667, "type": "electric_scooter", "lon": -76.98248, "bike_id": "a52002b0568cea6cb067d65ae82310bd", "rental_uris": {"android": "https://dc.lft.to/lastmile_qr_scan", "ios": "https://dc.lft.to/lastmile_qr_scan"}, "name": "a52002b0568cea6cb067d65ae82310bd", "is_reserved": 0}, {"is_disabled": 0, "fusion_lon": 0.0, "fusion_lat": 0.0, "lat": 39.0078585, "type": "electric_bike", "lon": -76.99566466666667, "bike_id": "4beffb5fae2ff0e6ff4e8d4577789518", "rental_uris": {"android": "https://dc.lft.to/lastmile_qr_scan", "ios": "https://dc.lft.to/lastmile_qr_scan"}, "name": "4beffb5fae2ff0e6ff4e8d4577789518", "is_reserved": 0}, {"is_disabled": 0, "fusion_lon": 0.0, "fusion_lat": 0.0, "lat": 38.92403383333333, "type": "electric_scooter", "lon": -77.02559316666667, "bike_id": "a8ce751e03e643691371bd6bdc06cc60", "rental_uris": {"android": "https://dc.lft.to/lastmile_qr_scan", "ios": "https://dc.lft.to/lastmile_qr_scan"}, "name": "a8ce751e03e643691371bd6bdc06cc60", "is_reserved": 0}, {"is_disabled": 0, "fusion_lon": 0.0, "fusion_lat": 0.0, "lat": 38.96817433333333, "type": "electric_scooter", "lon": -77.0089, "bike_id": "199217ad2f9760a77c8d44a9756f0658", "rental_uris": {"android": "https://dc.lft.to/lastmile_qr_scan", "ios": "https://dc.lft.to/lastmile_qr_scan"}, "name": "199217ad2f9760a77c8d44a9756f0658", "is_reserved": 0}, {"is_disabled": 0, "fusion_lon": 0.0, "fusion_lat": 0.0, "lat": 38.914567166666664, "type": "electric_scooter", "lon": -77.01997666666666, "bike_id": "e6152493324cfd4d22acf273abbbef5d", "rental_uris": {"android": "https://dc.lft.to/lastmile_qr_scan", "ios": "https://dc.lft.to/lastmile_qr_scan"}, "name": "e6152493324cfd4d22acf273abbbef5d", "is_reserved": 0}, {"is_disabled": 0, "fusion_lon": 0.0, "fusion_lat": 0.0, "lat": 38.9097325, "type": "electric_scooter", "lon": -77.039371, "bike_id": "a8bb678e2ed1260906fad5deb3cc2ee3", "rental_uris": {"android": "https://dc.lft.to/lastmile_qr_scan", "ios": "https://dc.lft.to/lastmile_qr_scan"}, "name": "a8bb678e2ed1260906fad5deb3cc2ee3", "is_reserved": 0}, {"is_disabled": 0, "fusion_lon": 0.0, "fusion_lat": 0.0, "lat": 38.903916333333335, "type": "electric_scooter", "lon": -77.00477583333333, "bike_id": "1484d33d221a9bfcc8b6f227fb85596c", "rental_uris": {"android": "https://dc.lft.to/lastmile_qr_scan", "ios": "https://dc.lft.to/lastmile_qr_scan"}, "name": "1484d33d221a9bfcc8b6f227fb85596c", "is_reserved": 0}, {"is_disabled": 0, "fusion_lon": 0.0, "fusion_lat": 0.0, "lat": 39.052052333333336, "type": "electric_bike", "lon": -77.04408716666667, "bike_id": "4614d60832859490f7f83ac5235fff88", "rental_uris": {"android": "https://dc.lft.to/lastmile_qr_scan", "ios": "https://dc.lft.to/lastmile_qr_scan"}, "name": "4614d60832859490f7f83ac5235fff88", "is_reserved": 0}, {"is_disabled": 0, "fusion_lon": 0.0, "fusion_lat": 0.0, "lat": 38.889957833333334, "type": "electric_scooter", "lon": -77.000516, "bike_id": "bc5583d04f6bc2b4a6caaf7296f2c8ea", "rental_uris": {"android": "https://dc.lft.to/lastmile_qr_scan", "ios": "https://dc.lft.to/lastmile_qr_scan"}, "name": "bc5583d04f6bc2b4a6caaf7296f2c8ea", "is_reserved": 0}, {"is_disabled": 0, "fusion_lon": 0.0, "fusion_lat": 0.0, "lat": 38.94097216666667, "type": "electric_scooter", "lon": -77.0772475, "bike_id": "9428b950d23b6f7dd96699dc371a46eb", "rental_uris": {"android": "https://dc.lft.to/lastmile_qr_scan", "ios": "https://dc.lft.to/lastmile_qr_scan"}, "name": "9428b950d23b6f7dd96699dc371a46eb", "is_reserved": 0}, {"is_disabled": 0, "fusion_lon": 0.0, "fusion_lat": 0.0, "lat": 38.886320166666664, "type": "electric_bike", "lon": -77.09240116666666, "bike_id": "f1fbfa92f23e6450b7911f16882f8d4f", "rental_uris": {"android": "https://dc.lft.to/lastmile_qr_scan", "ios": "https://dc.lft.to/lastmile_qr_scan"}, "name": "f1fbfa92f23e6450b7911f16882f8d4f", "is_reserved": 0}, {"is_disabled": 0, "fusion_lon": 0.0, "fusion_lat": 0.0, "lat": 38.89730433333333, "type": "electric_bike", "lon": -76.90541183333333, "bike_id": "7ee8103272a74836f0150f9a2b2e64c9", "rental_uris": {"android": "https://dc.lft.to/lastmile_qr_scan", "ios": "https://dc.lft.to/lastmile_qr_scan"}, "name": "7ee8103272a74836f0150f9a2b2e64c9", "is_reserved": 0}, {"is_disabled": 0, "fusion_lon": 0.0, "fusion_lat": 0.0, "lat": 38.92068183333333, "type": "electric_scooter", "lon": -77.04357716666667, "bike_id": "978bc350f2b17028c033dda61be229ff", "rental_uris": {"android": "https://dc.lft.to/lastmile_qr_scan", "ios": "https://dc.lft.to/lastmile_qr_scan"}, "name": "978bc350f2b17028c033dda61be229ff", "is_reserved": 0}, {"is_disabled": 0, "fusion_lon": 0.0, "fusion_lat": 0.0, "lat": 38.852134, "type": "electric_bike", "lon": -77.10126066666666, "bike_id": "6b3cb722af0d832325bc39d4ba50ec01", "rental_uris": {"android": "https://dc.lft.to/lastmile_qr_scan", "ios": "https://dc.lft.to/lastmile_qr_scan"}, "name": "6b3cb722af0d832325bc39d4ba50ec01", "is_reserved": 0}, {"is_disabled": 0, "fusion_lon": 0.0, "fusion_lat": 0.0, "lat": 38.925997833333334, "type": "electric_scooter", "lon": -77.02348883333333, "bike_id": "e389e5db9045807e6f84f3f881012bd1", "rental_uris": {"android": "https://dc.lft.to/lastmile_qr_scan", "ios": "https://dc.lft.to/lastmile_qr_scan"}, "name": "e389e5db9045807e6f84f3f881012bd1", "is_reserved": 0}, {"is_disabled": 0, "fusion_lon": 0.0, "fusion_lat": 0.0, "lat": 38.89598483333333, "type": "electric_scooter", "lon": -77.00910433333334, "bike_id": "dabe4ab3c31fbc4a7cd86b411d9db015", "rental_uris": {"android": "https://dc.lft.to/lastmile_qr_scan", "ios": "https://dc.lft.to/lastmile_qr_scan"}, "name": "dabe4ab3c31fbc4a7cd86b411d9db015", "is_reserved": 0}, {"is_disabled": 0, "fusion_lon": 0.0, "fusion_lat": 0.0, "lat": 38.9463825, "type": "electric_scooter", "lon": -77.01927783333333, "bike_id": "81c9eb3326b6a36bef0eabc8697c4b7d", "rental_uris": {"android": "https://dc.lft.to/lastmile_qr_scan", "ios": "https://dc.lft.to/lastmile_qr_scan"}, "name": "81c9eb3326b6a36bef0eabc8697c4b7d", "is_reserved": 0}, {"is_disabled": 0, "fusion_lon": 0.0, "fusion_lat": 0.0, "lat": 38.92756, "type": "electric_scooter", "lon": -77.005943, "bike_id": "b8f79ac3aeb58cce3568ece4daae978d", "rental_uris": {"android": "https://dc.lft.to/lastmile_qr_scan", "ios": "https://dc.lft.to/lastmile_qr_scan"}, "name": "b8f79ac3aeb58cce3568ece4daae978d", "is_reserved": 0}, {"is_disabled": 0, "fusion_lon": 0.0, "fusion_lat": 0.0, "lat": 38.907668, "type": "electric_scooter", "lon": -77.06279183333334, "bike_id": "56ae361c03d4384770a9951125a6956e", "rental_uris": {"android": "https://dc.lft.to/lastmile_qr_scan", "ios": "https://dc.lft.to/lastmile_qr_scan"}, "name": "56ae361c03d4384770a9951125a6956e", "is_reserved": 0}, {"is_disabled": 0, "fusion_lon": 0.0, "fusion_lat": 0.0, "lat": 38.96031583333333, "type": "electric_bike", "lon": -76.92706816666667, "bike_id": "14d862bcdd0e3df6ef2e7e51c25fc0ba", "rental_uris": {"android": "https://dc.lft.to/lastmile_qr_scan", "ios": "https://dc.lft.to/lastmile_qr_scan"}, "name": "14d862bcdd0e3df6ef2e7e51c25fc0ba", "is_reserved": 0}, {"is_disabled": 0, "fusion_lon": 0.0, "fusion_lat": 0.0, "lat": 38.91686083333333, "type": "electric_scooter", "lon": -77.0377705, "bike_id": "05ca176f91d9a508421e7d2c762b7369", "rental_uris": {"android": "https://dc.lft.to/lastmile_qr_scan", "ios": "https://dc.lft.to/lastmile_qr_scan"}, "name": "05ca176f91d9a508421e7d2c762b7369", "is_reserved": 0}, {"is_disabled": 0, "fusion_lon": 0.0, "fusion_lat": 0.0, "lat": 38.90847866666667, "type": "electric_scooter", "lon": -77.063428, "bike_id": "4dc33e2ff5415f7060792cc43eb45182", "rental_uris": {"android": "https://dc.lft.to/lastmile_qr_scan", "ios": "https://dc.lft.to/lastmile_qr_scan"}, "name": "4dc33e2ff5415f7060792cc43eb45182", "is_reserved": 0}, {"is_disabled": 0, "fusion_lon": 0.0, "fusion_lat": 0.0, "lat": 38.90260583333333, "type": "electric_scooter", "lon": -77.03881383333334, "bike_id": "59c27e9893502290144b8fb2edb7799f", "rental_uris": {"android": "https://dc.lft.to/lastmile_qr_scan", "ios": "https://dc.lft.to/lastmile_qr_scan"}, "name": "59c27e9893502290144b8fb2edb7799f", "is_reserved": 0}, {"is_disabled": 0, "fusion_lon": 0.0, "fusion_lat": 0.0, "lat": 38.90545, "type": "electric_scooter", "lon": -77.05698833333334, "bike_id": "0072629abd29f7b231f8b662fadcf394", "rental_uris": {"android": "https://dc.lft.to/lastmile_qr_scan", "ios": "https://dc.lft.to/lastmile_qr_scan"}, "name": "0072629abd29f7b231f8b662fadcf394", "is_reserved": 0}, {"is_disabled": 0, "fusion_lon": 0.0, "fusion_lat": 0.0, "lat": 38.8947305, "type": "electric_scooter", "lon": -77.0211695, "bike_id": "4374510058f5cdf4c599e993e5ebe738", "rental_uris": {"android": "https://dc.lft.to/lastmile_qr_scan", "ios": "https://dc.lft.to/lastmile_qr_scan"}, "name": "4374510058f5cdf4c599e993e5ebe738", "is_reserved": 0}, {"is_disabled": 0, "fusion_lon": 0.0, "fusion_lat": 0.0, "lat": 38.90968133333333, "type": "electric_scooter", "lon": -77.03368366666666, "bike_id": "2af1363c96b1f0d959d04e5994252c5b", "rental_uris": {"android": "https://dc.lft.to/lastmile_qr_scan", "ios": "https://dc.lft.to/lastmile_qr_scan"}, "name": "2af1363c96b1f0d959d04e5994252c5b", "is_reserved": 0}, {"is_disabled": 0, "fusion_lon": 0.0, "fusion_lat": 0.0, "lat": 38.92178966666667, "type": "electric_scooter", "lon": -77.042236, "bike_id": "07fc72ae6a1300eee4844b618f256fd9", "rental_uris": {"android": "https://dc.lft.to/lastmile_qr_scan", "ios": "https://dc.lft.to/lastmile_qr_scan"}, "name": "07fc72ae6a1300eee4844b618f256fd9", "is_reserved": 0}, {"is_disabled": 0, "fusion_lon": 0.0, "fusion_lat": 0.0, "lat": 38.9403945, "type": "electric_scooter", "lon": -77.02899633333334, "bike_id": "2349c8e0333fab4812397d65986435fe", "rental_uris": {"android": "https://dc.lft.to/lastmile_qr_scan", "ios": "https://dc.lft.to/lastmile_qr_scan"}, "name": "2349c8e0333fab4812397d65986435fe", "is_reserved": 0}, {"is_disabled": 0, "fusion_lon": 0.0, "fusion_lat": 0.0, "lat": 38.9261325, "type": "electric_scooter", "lon": -77.0216285, "bike_id": "1e41bf9f1c12daa7989d6f77145d9429", "rental_uris": {"android": "https://dc.lft.to/lastmile_qr_scan", "ios": "https://dc.lft.to/lastmile_qr_scan"}, "name": "1e41bf9f1c12daa7989d6f77145d9429", "is_reserved": 0}, {"is_disabled": 0, "fusion_lon": 0.0, "fusion_lat": 0.0, "lat": 38.90134116666667, "type": "electric_scooter", "lon": -77.000675, "bike_id": "adeff2894a94ac662b7f352dbb637b10", "rental_uris": {"android": "https://dc.lft.to/lastmile_qr_scan", "ios": "https://dc.lft.to/lastmile_qr_scan"}, "name": "adeff2894a94ac662b7f352dbb637b10", "is_reserved": 0}, {"is_disabled": 0, "fusion_lon": 0.0, "fusion_lat": 0.0, "lat": 38.91818083333333, "type": "electric_scooter", "lon": -77.0252945, "bike_id": "f6de41f638f96ea29faac861418bb28f", "rental_uris": {"android": "https://dc.lft.to/lastmile_qr_scan", "ios": "https://dc.lft.to/lastmile_qr_scan"}, "name": "f6de41f638f96ea29faac861418bb28f", "is_reserved": 0}, {"is_disabled": 0, "fusion_lon": 0.0, "fusion_lat": 0.0, "lat": 38.9199935, "type": "electric_scooter", "lon": -76.9731195, "bike_id": "850f0d4750f175cffdb8ed1ba3a40cfc", "rental_uris": {"android": "https://dc.lft.to/lastmile_qr_scan", "ios": "https://dc.lft.to/lastmile_qr_scan"}, "name": "850f0d4750f175cffdb8ed1ba3a40cfc", "is_reserved": 0}, {"is_disabled": 0, "fusion_lon": 0.0, "fusion_lat": 0.0, "lat": 38.89373483333333, "type": "electric_scooter", "lon": -76.97816866666666, "bike_id": "8771d8edeba49b5be6e37d1f18507490", "rental_uris": {"android": "https://dc.lft.to/lastmile_qr_scan", "ios": "https://dc.lft.to/lastmile_qr_scan"}, "name": "8771d8edeba49b5be6e37d1f18507490", "is_reserved": 0}, {"is_disabled": 0, "fusion_lon": 0.0, "fusion_lat": 0.0, "lat": 38.8981825, "type": "electric_scooter", "lon": -77.02806633333333, "bike_id": "4b0a13fbc24f441bfd9a4041513fdbc4", "rental_uris": {"android": "https://dc.lft.to/lastmile_qr_scan", "ios": "https://dc.lft.to/lastmile_qr_scan"}, "name": "4b0a13fbc24f441bfd9a4041513fdbc4", "is_reserved": 0}, {"is_disabled": 0, "fusion_lon": 0.0, "fusion_lat": 0.0, "lat": 38.895253833333335, "type": "electric_scooter", "lon": -77.0020265, "bike_id": "4a9f12a058b0351e3b9af16f482b27f1", "rental_uris": {"android": "https://dc.lft.to/lastmile_qr_scan", "ios": "https://dc.lft.to/lastmile_qr_scan"}, "name": "4a9f12a058b0351e3b9af16f482b27f1", "is_reserved": 0}, {"is_disabled": 0, "fusion_lon": 0.0, "fusion_lat": 0.0, "lat": 38.8586815, "type": "electric_scooter", "lon": -76.99023266666667, "bike_id": "4246f7c8a7015439f0dcf1d96ed7be1e", "rental_uris": {"android": "https://dc.lft.to/lastmile_qr_scan", "ios": "https://dc.lft.to/lastmile_qr_scan"}, "name": "4246f7c8a7015439f0dcf1d96ed7be1e", "is_reserved": 0}, {"is_disabled": 0, "fusion_lon": 0.0, "fusion_lat": 0.0, "lat": 38.954223, "type": "electric_scooter", "lon": -77.02172966666667, "bike_id": "cefd8b439dcdb9f064b437acc8ebf42c", "rental_uris": {"android": "https://dc.lft.to/lastmile_qr_scan", "ios": "https://dc.lft.to/lastmile_qr_scan"}, "name": "cefd8b439dcdb9f064b437acc8ebf42c", "is_reserved": 0}, {"is_disabled": 0, "fusion_lon": 0.0, "fusion_lat": 0.0, "lat": 38.880174, "type": "electric_scooter", "lon": -76.98236183333333, "bike_id": "009e4f7c5370be45cbaa7970d655aabe", "rental_uris": {"android": "https://dc.lft.to/lastmile_qr_scan", "ios": "https://dc.lft.to/lastmile_qr_scan"}, "name": "009e4f7c5370be45cbaa7970d655aabe", "is_reserved": 0}, {"is_disabled": 0, "fusion_lon": 0.0, "fusion_lat": 0.0, "lat": 38.912742, "type": "electric_scooter", "lon": -77.04729466666667, "bike_id": "7c4c41c051b1a36b19981a96eff7e997", "rental_uris": {"android": "https://dc.lft.to/lastmile_qr_scan", "ios": "https://dc.lft.to/lastmile_qr_scan"}, "name": "7c4c41c051b1a36b19981a96eff7e997", "is_reserved": 0}, {"is_disabled": 0, "fusion_lon": 0.0, "fusion_lat": 0.0, "lat": 38.907208833333335, "type": "electric_scooter", "lon": -77.02544166666667, "bike_id": "4060c537bb2a120529c73bfc88c51876", "rental_uris": {"android": "https://dc.lft.to/lastmile_qr_scan", "ios": "https://dc.lft.to/lastmile_qr_scan"}, "name": "4060c537bb2a120529c73bfc88c51876", "is_reserved": 0}, {"is_disabled": 0, "fusion_lon": 0.0, "fusion_lat": 0.0, "lat": 38.87474566666667, "type": "electric_scooter", "lon": -77.00516266666666, "bike_id": "c483777b498f2de9b4c6e0da0029b699", "rental_uris": {"android": "https://dc.lft.to/lastmile_qr_scan", "ios": "https://dc.lft.to/lastmile_qr_scan"}, "name": "c483777b498f2de9b4c6e0da0029b699", "is_reserved": 0}, {"is_disabled": 0, "fusion_lon": 0.0, "fusion_lat": 0.0, "lat": 38.896291, "type": "electric_scooter", "lon": -77.0259215, "bike_id": "b5a9b0aa273e19ce869d819f22f90b6a", "rental_uris": {"android": "https://dc.lft.to/lastmile_qr_scan", "ios": "https://dc.lft.to/lastmile_qr_scan"}, "name": "b5a9b0aa273e19ce869d819f22f90b6a", "is_reserved": 0}, {"is_disabled": 0, "fusion_lon": 0.0, "fusion_lat": 0.0, "lat": 38.917094666666664, "type": "electric_scooter", "lon": -77.0376395, "bike_id": "1ffc5abcd4e3bbcf7f2446e5ae76a258", "rental_uris": {"android": "https://dc.lft.to/lastmile_qr_scan", "ios": "https://dc.lft.to/lastmile_qr_scan"}, "name": "1ffc5abcd4e3bbcf7f2446e5ae76a258", "is_reserved": 0}, {"is_disabled": 0, "fusion_lon": 0.0, "fusion_lat": 0.0, "lat": 38.94086566666667, "type": "electric_scooter", "lon": -77.03811166666667, "bike_id": "0197378e63cec188bcf41a183b64da9f", "rental_uris": {"android": "https://dc.lft.to/lastmile_qr_scan", "ios": "https://dc.lft.to/lastmile_qr_scan"}, "name": "0197378e63cec188bcf41a183b64da9f", "is_reserved": 0}, {"is_disabled": 0, "fusion_lon": 0.0, "fusion_lat": 0.0, "lat": 38.97167366666667, "type": "electric_bike", "lon": -76.98023533333334, "bike_id": "e8c10f0f66f81ba267d3480b3200af9c", "rental_uris": {"android": "https://dc.lft.to/lastmile_qr_scan", "ios": "https://dc.lft.to/lastmile_qr_scan"}, "name": "e8c10f0f66f81ba267d3480b3200af9c", "is_reserved": 0}, {"is_disabled": 0, "fusion_lon": 0.0, "fusion_lat": 0.0, "lat": 38.88030216666667, "type": "electric_scooter", "lon": -76.9950525, "bike_id": "98a3d14aeec2ad3de83a6a6cff52f1a1", "rental_uris": {"android": "https://dc.lft.to/lastmile_qr_scan", "ios": "https://dc.lft.to/lastmile_qr_scan"}, "name": "98a3d14aeec2ad3de83a6a6cff52f1a1", "is_reserved": 0}, {"is_disabled": 0, "fusion_lon": 0.0, "fusion_lat": 0.0, "lat": 38.9387595, "type": "electric_scooter", "lon": -77.02845466666666, "bike_id": "6ffc6061288c125a5f016f686c4c5c97", "rental_uris": {"android": "https://dc.lft.to/lastmile_qr_scan", "ios": "https://dc.lft.to/lastmile_qr_scan"}, "name": "6ffc6061288c125a5f016f686c4c5c97", "is_reserved": 0}, {"is_disabled": 0, "fusion_lon": 0.0, "fusion_lat": 0.0, "lat": 38.968056833333335, "type": "electric_scooter", "lon": -77.02121016666666, "bike_id": "05926f87310b4459718c72209a45fac1", "rental_uris": {"android": "https://dc.lft.to/lastmile_qr_scan", "ios": "https://dc.lft.to/lastmile_qr_scan"}, "name": "05926f87310b4459718c72209a45fac1", "is_reserved": 0}, {"is_disabled": 0, "fusion_lon": 0.0, "fusion_lat": 0.0, "lat": 38.916343166666664, "type": "electric_scooter", "lon": -77.026942, "bike_id": "bf5c81d2051a47506ae109dbe5c09f9b", "rental_uris": {"android": "https://dc.lft.to/lastmile_qr_scan", "ios": "https://dc.lft.to/lastmile_qr_scan"}, "name": "bf5c81d2051a47506ae109dbe5c09f9b", "is_reserved": 0}, {"is_disabled": 0, "fusion_lon": 0.0, "fusion_lat": 0.0, "lat": 38.9103565, "type": "electric_scooter", "lon": -77.0308825, "bike_id": "3218553ed47bc6e99a524285a23ac95e", "rental_uris": {"android": "https://dc.lft.to/lastmile_qr_scan", "ios": "https://dc.lft.to/lastmile_qr_scan"}, "name": "3218553ed47bc6e99a524285a23ac95e", "is_reserved": 0}, {"is_disabled": 0, "fusion_lon": 0.0, "fusion_lat": 0.0, "lat": 38.905444, "type": "electric_scooter", "lon": -77.0465725, "bike_id": "e9094c18a8a60a302854090537c52515", "rental_uris": {"android": "https://dc.lft.to/lastmile_qr_scan", "ios": "https://dc.lft.to/lastmile_qr_scan"}, "name": "e9094c18a8a60a302854090537c52515", "is_reserved": 0}, {"is_disabled": 0, "fusion_lon": 0.0, "fusion_lat": 0.0, "lat": 38.863360166666666, "type": "electric_bike", "lon": -76.98717666666667, "bike_id": "9722fc8772846b100dc95c675a6601c8", "rental_uris": {"android": "https://dc.lft.to/lastmile_qr_scan", "ios": "https://dc.lft.to/lastmile_qr_scan"}, "name": "9722fc8772846b100dc95c675a6601c8", "is_reserved": 0}, {"is_disabled": 0, "fusion_lon": 0.0, "fusion_lat": 0.0, "lat": 38.907635, "type": "electric_scooter", "lon": -76.99652616666667, "bike_id": "6ba80fb4a7763c1724c8fcf823677bb4", "rental_uris": {"android": "https://dc.lft.to/lastmile_qr_scan", "ios": "https://dc.lft.to/lastmile_qr_scan"}, "name": "6ba80fb4a7763c1724c8fcf823677bb4", "is_reserved": 0}, {"is_disabled": 0, "fusion_lon": 0.0, "fusion_lat": 0.0, "lat": 38.93644916666667, "type": "electric_scooter", "lon": -77.02087166666666, "bike_id": "67fd8b2e6287ee4abfb3790d090858e9", "rental_uris": {"android": "https://dc.lft.to/lastmile_qr_scan", "ios": "https://dc.lft.to/lastmile_qr_scan"}, "name": "67fd8b2e6287ee4abfb3790d090858e9", "is_reserved": 0}, {"is_disabled": 0, "fusion_lon": 0.0, "fusion_lat": 0.0, "lat": 38.9094665, "type": "electric_scooter", "lon": -77.05537816666667, "bike_id": "8a67984313806c628ec01990c81b568e", "rental_uris": {"android": "https://dc.lft.to/lastmile_qr_scan", "ios": "https://dc.lft.to/lastmile_qr_scan"}, "name": "8a67984313806c628ec01990c81b568e", "is_reserved": 0}, {"is_disabled": 0, "fusion_lon": 0.0, "fusion_lat": 0.0, "lat": 38.891404666666666, "type": "electric_scooter", "lon": -77.032086, "bike_id": "93591fadcd58ce09b386aef888d50588", "rental_uris": {"android": "https://dc.lft.to/lastmile_qr_scan", "ios": "https://dc.lft.to/lastmile_qr_scan"}, "name": "93591fadcd58ce09b386aef888d50588", "is_reserved": 0}, {"is_disabled": 0, "fusion_lon": 0.0, "fusion_lat": 0.0, "lat": 38.900635666666666, "type": "electric_scooter", "lon": -76.93470883333333, "bike_id": "e17f7e2253cde5c4dcdab93586763fc3", "rental_uris": {"android": "https://dc.lft.to/lastmile_qr_scan", "ios": "https://dc.lft.to/lastmile_qr_scan"}, "name": "e17f7e2253cde5c4dcdab93586763fc3", "is_reserved": 0}, {"is_disabled": 0, "fusion_lon": 0.0, "fusion_lat": 0.0, "lat": 38.914031333333334, "type": "electric_scooter", "lon": -77.03217433333333, "bike_id": "7fbe3f1fa334bdd0aff0caaed2221c30", "rental_uris": {"android": "https://dc.lft.to/lastmile_qr_scan", "ios": "https://dc.lft.to/lastmile_qr_scan"}, "name": "7fbe3f1fa334bdd0aff0caaed2221c30", "is_reserved": 0}, {"is_disabled": 0, "fusion_lon": 0.0, "fusion_lat": 0.0, "lat": 38.91709433333333, "type": "electric_scooter", "lon": -77.024873, "bike_id": "2a2e07d691ebe9450c7f8ee731348156", "rental_uris": {"android": "https://dc.lft.to/lastmile_qr_scan", "ios": "https://dc.lft.to/lastmile_qr_scan"}, "name": "2a2e07d691ebe9450c7f8ee731348156", "is_reserved": 0}, {"is_disabled": 0, "fusion_lon": 0.0, "fusion_lat": 0.0, "lat": 38.929637166666666, "type": "electric_scooter", "lon": -77.05493466666667, "bike_id": "3298f76c171236396ae7877cf633fb8b", "rental_uris": {"android": "https://dc.lft.to/lastmile_qr_scan", "ios": "https://dc.lft.to/lastmile_qr_scan"}, "name": "3298f76c171236396ae7877cf633fb8b", "is_reserved": 0}, {"is_disabled": 0, "fusion_lon": 0.0, "fusion_lat": 0.0, "lat": 38.922596, "type": "electric_scooter", "lon": -77.0414035, "bike_id": "e5a5f5ab919a8712e075d1f6f56779a1", "rental_uris": {"android": "https://dc.lft.to/lastmile_qr_scan", "ios": "https://dc.lft.to/lastmile_qr_scan"}, "name": "e5a5f5ab919a8712e075d1f6f56779a1", "is_reserved": 0}, {"is_disabled": 0, "fusion_lon": 0.0, "fusion_lat": 0.0, "lat": 38.91009283333333, "type": "electric_scooter", "lon": -77.04364233333334, "bike_id": "8e171556b5704dd1218eac0f3edc70d4", "rental_uris": {"android": "https://dc.lft.to/lastmile_qr_scan", "ios": "https://dc.lft.to/lastmile_qr_scan"}, "name": "8e171556b5704dd1218eac0f3edc70d4", "is_reserved": 0}, {"is_disabled": 0, "fusion_lon": 0.0, "fusion_lat": 0.0, "lat": 38.90445716666667, "type": "electric_scooter", "lon": -77.018031, "bike_id": "296eb99e5448e9233c648e2a885761f1", "rental_uris": {"android": "https://dc.lft.to/lastmile_qr_scan", "ios": "https://dc.lft.to/lastmile_qr_scan"}, "name": "296eb99e5448e9233c648e2a885761f1", "is_reserved": 0},