{"data": {"bikes": [{"lon": -77.03512933333333, "bike_id": "fa8747b8a6306d811b16303787fb2d05", "lat": 38.91886216666666, "fusion_lon": 0.0, "fusion_lat": 0.0, "type": "electric_scooter", "name": "fa8747b8a6306d811b16303787fb2d05", "is_disabled": 0, "rental_uris": {"ios": "https://dc.lft.to/lastmile_qr_scan", "android": "https://dc.lft.to/lastmile_qr_scan"}, "is_reserved": 0}, {"lon": -77.06403333333333, "bike_id": "d32157e1c36afdbed3711f5b1ab1236e", "lat": 38.840598666666665, "fusion_lon": 0.0, "fusion_lat": 0.0, "type": "electric_bike", "name": "d32157e1c36afdbed3711f5b1ab1236e", "is_disabled": 0, "rental_uris": {"ios": "https://dc.lft.to/lastmile_qr_scan", "android": "https://dc.lft.to/lastmile_qr_scan"}, "is_reserved": 0}, {"lon": -77.0506185, "bike_id": "33972a5ac4b306b688deb931f40002f5", "lat": 38.924102166666664, "fusion_lon": 0.0, "fusion_lat": 0.0, "type": "electric_scooter", "name": "33972a5ac4b306b688deb931f40002f5", "is_disabled": 0, "rental_uris": {"ios": "https://dc.lft.to/lastmile_qr_scan", "android": "https://dc.lft.to/lastmile_qr_scan"}, "is_reserved": 0}, {"lon": -77.05308316666667, "bike_id": "e1a2e62e847e320368656a5508153e53", "lat": 38.898493, "fusion_lon": 0.0, "fusion_lat": 0.0, "type": "electric_scooter", "name": "e1a2e62e847e320368656a5508153e53", "is_disabled": 0, "rental_uris": {"ios": "https://dc.lft.to/lastmile_qr_scan", "android": "https://dc.lft.to/lastmile_qr_scan"}, "is_reserved": 0}, {"lon": -76.98546216666666, "bike_id": "9405af97cf45a1a319bb02386bad5654", "lat": 38.89251316666667, "fusion_lon": 0.0, "fusion_lat": 0.0, "type": "electric_bike", "name": "9405af97cf45a1a319bb02386bad5654", "is_disabled": 0, "rental_uris": {"ios": "https://dc.lft.to/lastmile_qr_scan", "android": "https://dc.lft.to/lastmile_qr_scan"}, "is_reserved": 0}, {"lon": -76.973084, "bike_id": "a3985fd57be52f2a4b0e67db9b27de12", "lat": 38.91984216666667, "fusion_lon": 0.0, "fusion_lat": 0.0, "type": "electric_scooter", "name": "a3985fd57be52f2a4b0e67db9b27de12", "is_disabled": 0, "rental_uris": {"ios": "https://dc.lft.to/lastmile_qr_scan", "android": "https://dc.lft.to/lastmile_qr_scan"}, "is_reserved": 0}, {"lon": -77.03377916666666, "bike_id": "112beb3c680bb7e925cac8d675836ab4", "lat": 38.908435, "fusion_lon": 0.0, "fusion_lat": 0.0, "type": "electric_scooter", "name": "112beb3c680bb7e925cac8d675836ab4", "is_disabled": 0, "rental_uris": {"ios": "https://dc.lft.to/lastmile_qr_scan", "android": "https://dc.lft.to/lastmile_qr_scan"}, "is_reserved": 0}, {"lon": -77.02623966666667, "bike_id": "e08c2bd117ceb016a7f9d980fbeba190", "lat": 38.92823216666667, "fusion_lon": 0.0, "fusion_lat": 0.0, "type": "electric_scooter", "name": "e08c2bd117ceb016a7f9d980fbeba190", "is_disabled": 0, "rental_uris": {"ios": "https://dc.lft.to/lastmile_qr_scan", "android": "https://dc.lft.to/lastmile_qr_scan"}, "is_reserved": 0}, {"lon": -77.02147483333333, "bike_id": "795bb55a369f741ce069e8cc5a484122", "lat": 38.9250035, "fusion_lon": 0.0, "fusion_lat": 0.0, "type": "electric_scooter", "name": "795bb55a369f741ce069e8cc5a484122", "is_disabled": 0, "rental_uris": {"ios": "https://dc.lft.to/lastmile_qr_scan", "android": "https://dc.lft.to/lastmile_qr_scan"}, "is_reserved": 0}, {"lon": -77.04151833333333, "bike_id": "9353e2440328721dae8bf3c18264d7bf", "lat": 38.91694616666667, "fusion_lon": 0.0, "fusion_lat": 0.0, "type": "electric_scooter", "name": "9353e2440328721dae8bf3c18264d7bf", "is_disabled": 0, "rental_uris": {"ios": "https://dc.lft.to/lastmile_qr_scan", "android": "https://dc.lft.to/lastmile_qr_scan"}, "is_reserved": 0}, {"lon": -76.98575916666667, "bike_id": "cec9fc4310fd0f3e2080e1272455a98a", "lat": 38.9063575, "fusion_lon": 0.0, "fusion_lat": 0.0, "type": "electric_scooter", "name": "cec9fc4310fd0f3e2080e1272455a98a", "is_disabled": 0, "rental_uris": {"ios": "https://dc.lft.to/lastmile_qr_scan", "android": "https://dc.lft.to/lastmile_qr_scan"}, "is_reserved": 0}, {"lon": -77.0410485, "bike_id": "d6ed189b03ba45b8ace005d4bf623381", "lat": 38.91778516666667, "fusion_lon": 0.0, "fusion_lat": 0.0, "type": "electric_scooter", "name": "d6ed189b03ba45b8ace005d4bf623381", "is_disabled": 0, "rental_uris": {"ios": "https://dc.lft.to/lastmile_qr_scan", "android": "https://dc.lft.to/lastmile_qr_scan"}, "is_reserved": 0}, {"lon": -77.01559083333333, "bike_id": "152ba4c802b38bc7abfd3de6aa7991c7", "lat": 38.892186833333334, "fusion_lon": 0.0, "fusion_lat": 0.0, "type": "electric_scooter", "name": "152ba4c802b38bc7abfd3de6aa7991c7", "is_disabled": 0, "rental_uris": {"ios": "https://dc.lft.to/lastmile_qr_scan", "android": "https://dc.lft.to/lastmile_qr_scan"}, "is_reserved": 0}, {"lon": -77.02905266666667, "bike_id": "22849b118402198a52c04c54733c00d8", "lat": 38.9403205, "fusion_lon": 0.0, "fusion_lat": 0.0, "type": "electric_scooter", "name": "22849b118402198a52c04c54733c00d8", "is_disabled": 0, "rental_uris": {"ios": "https://dc.lft.to/lastmile_qr_scan", "android": "https://dc.lft.to/lastmile_qr_scan"}, "is_reserved": 0}, {"lon": -77.01354533333334, "bike_id": "6b7d203d7e67e37a9c9995950a741506", "lat": 38.892424166666665, "fusion_lon": 0.0, "fusion_lat": 0.0, "type": "electric_scooter", "name": "6b7d203d7e67e37a9c9995950a741506", "is_disabled": 0, "rental_uris": {"ios": "https://dc.lft.to/lastmile_qr_scan", "android": "https://dc.lft.to/lastmile_qr_scan"}, "is_reserved": 0}, {"lon": -77.0434855, "bike_id": "8bd760346c4f0c191d62a9bfd8c8ebbf", "lat": 38.90752283333333, "fusion_lon": 0.0, "fusion_lat": 0.0, "type": "electric_scooter", "name": "8bd760346c4f0c191d62a9bfd8c8ebbf", "is_disabled": 0, "rental_uris": {"ios": "https://dc.lft.to/lastmile_qr_scan", "android": "https://dc.lft.to/lastmile_qr_scan"}, "is_reserved": 0}, {"lon": -77.06788016666667, "bike_id": "348667b4841765c6d23662bfae486517", "lat": 38.90385333333333, "fusion_lon": 0.0, "fusion_lat": 0.0, "type": "electric_scooter", "name": "348667b4841765c6d23662bfae486517", "is_disabled": 0, "rental_uris": {"ios": "https://dc.lft.to/lastmile_qr_scan", "android": "https://dc.lft.to/lastmile_qr_scan"}, "is_reserved": 0}, {"lon": -77.03466833333333, "bike_id": "b3e41c8972ca1cdc77aa4e0e371507a4", "lat": 38.91869333333333, "fusion_lon": 0.0, "fusion_lat": 0.0, "type": "electric_scooter", "name": "b3e41c8972ca1cdc77aa4e0e371507a4", "is_disabled": 0, "rental_uris": {"ios": "https://dc.lft.to/lastmile_qr_scan", "android": "https://dc.lft.to/lastmile_qr_scan"}, "is_reserved": 0}, {"lon": -76.97864883333334, "bike_id": "ab6701fb142d8e550f1604c8e5aa37a9", "lat": 38.87068816666667, "fusion_lon": 0.0, "fusion_lat": 0.0, "type": "electric_scooter", "name": "ab6701fb142d8e550f1604c8e5aa37a9", "is_disabled": 0, "rental_uris": {"ios": "https://dc.lft.to/lastmile_qr_scan", "android": "https://dc.lft.to/lastmile_qr_scan"}, "is_reserved": 0}, {"lon": -77.02953533333333, "bike_id": "1b8f6856ced12f5f8f68c895d9e949d1", "lat": 38.92173783333333, "fusion_lon": 0.0, "fusion_lat": 0.0, "type": "electric_scooter", "name": "1b8f6856ced12f5f8f68c895d9e949d1", "is_disabled": 0, "rental_uris": {"ios": "https://dc.lft.to/lastmile_qr_scan", "android": "https://dc.lft.to/lastmile_qr_scan"}, "is_reserved": 0}, {"lon": -77.065228, "bike_id": "fccf61d29b01e4585e30c50c40d0b1f1", "lat": 38.947448333333334, "fusion_lon": 0.0, "fusion_lat": 0.0, "type": "electric_scooter", "name": "fccf61d29b01e4585e30c50c40d0b1f1", "is_disabled": 0, "rental_uris": {"ios": "https://dc.lft.to/lastmile_qr_scan", "android": "https://dc.lft.to/lastmile_qr_scan"}, "is_reserved": 0}, {"lon": -77.03494066666667, "bike_id": "07fd7f46eeeefa5d0a714a69e59b62e8", "lat": 38.919268, "fusion_lon": 0.0, "fusion_lat": 0.0, "type": "electric_scooter", "name": "07fd7f46eeeefa5d0a714a69e59b62e8", "is_disabled": 0, "rental_uris": {"ios": "https://dc.lft.to/lastmile_qr_scan", "android": "https://dc.lft.to/lastmile_qr_scan"}, "is_reserved": 0}, {"lon": -77.02442883333333, "bike_id": "08a9c7819c4fb25e7326174852cb4a3d", "lat": 38.897032333333335, "fusion_lon": 0.0, "fusion_lat": 0.0, "type": "electric_scooter", "name": "08a9c7819c4fb25e7326174852cb4a3d", "is_disabled": 0, "rental_uris": {"ios": "https://dc.lft.to/lastmile_qr_scan", "android": "https://dc.lft.to/lastmile_qr_scan"}, "is_reserved": 0}, {"lon": -76.9978215, "bike_id": "8305e0a94a668087cd911a416721de84", "lat": 38.84434916666667, "fusion_lon": 0.0, "fusion_lat": 0.0, "type": "electric_scooter", "name": "8305e0a94a668087cd911a416721de84", "is_disabled": 0, "rental_uris": {"ios": "https://dc.lft.to/lastmile_qr_scan", "android": "https://dc.lft.to/lastmile_qr_scan"}, "is_reserved": 0}, {"lon": -77.063329, "bike_id": "21eece6ce1e309e032c5df7a9672b2bd", "lat": 38.907675, "fusion_lon": 0.0, "fusion_lat": 0.0, "type": "electric_scooter", "name": "21eece6ce1e309e032c5df7a9672b2bd", "is_disabled": 0, "rental_uris": {"ios": "https://dc.lft.to/lastmile_qr_scan", "android": "https://dc.lft.to/lastmile_qr_scan"}, "is_reserved": 0}, {"lon": -77.00395683333333, "bike_id": "2a36f7a09ce47c4db81863fa6750d307", "lat": 38.90754, "fusion_lon": 0.0, "fusion_lat": 0.0, "type": "electric_scooter", "name": "2a36f7a09ce47c4db81863fa6750d307", "is_disabled": 0, "rental_uris": {"ios": "https://dc.lft.to/lastmile_qr_scan", "android": "https://dc.lft.to/lastmile_qr_scan"}, "is_reserved": 0}, {"lon": -77.027479, "bike_id": "593250db051c19be1529007aa7acf439", "lat": 38.8998345, "fusion_lon": 0.0, "fusion_lat": 0.0, "type": "electric_scooter", "name": "593250db051c19be1529007aa7acf439", "is_disabled": 0, "rental_uris": {"ios": "https://dc.lft.to/lastmile_qr_scan", "android": "https://dc.lft.to/lastmile_qr_scan"}, "is_reserved": 0}, {"lon": -76.99886666666667, "bike_id": "e22b8f3672343c4d0dd65701c02b501f", "lat": 38.92054, "fusion_lon": 0.0, "fusion_lat": 0.0, "type": "electric_scooter", "name": "e22b8f3672343c4d0dd65701c02b501f", "is_disabled": 0, "rental_uris": {"ios": "https://dc.lft.to/lastmile_qr_scan", "android": "https://dc.lft.to/lastmile_qr_scan"}, "is_reserved": 0}, {"lon": -77.04053016666667, "bike_id": "7cccc6e465c2f5fc9670eca29e2ef289", "lat": 38.9324855, "fusion_lon": 0.0, "fusion_lat": 0.0, "type": "electric_scooter", "name": "7cccc6e465c2f5fc9670eca29e2ef289", "is_disabled": 0, "rental_uris": {"ios": "https://dc.lft.to/lastmile_qr_scan", "android": "https://dc.lft.to/lastmile_qr_scan"}, "is_reserved": 0}, {"lon": -77.009533, "bike_id": "7c34557745104509d3b42ffa3ce09842", "lat": 38.8973025, "fusion_lon": 0.0, "fusion_lat": 0.0, "type": "electric_scooter", "name": "7c34557745104509d3b42ffa3ce09842", "is_disabled": 0, "rental_uris": {"ios": "https://dc.lft.to/lastmile_qr_scan", "android": "https://dc.lft.to/lastmile_qr_scan"}, "is_reserved": 0}, {"lon": -77.04150383333334, "bike_id": "594028f205da5d60cf0202d4e3f85f0d", "lat": 38.892238666666664, "fusion_lon": 0.0, "fusion_lat": 0.0, "type": "electric_scooter", "name": "594028f205da5d60cf0202d4e3f85f0d", "is_disabled": 0, "rental_uris": {"ios": "https://dc.lft.to/lastmile_qr_scan", "android": "https://dc.lft.to/lastmile_qr_scan"}, "is_reserved": 0}, {"lon": -77.05224816666667, "bike_id": "e2117d4cf9a41acfcddca1d74707ec88", "lat": 38.89999616666667, "fusion_lon": 0.0, "fusion_lat": 0.0, "type": "electric_scooter", "name": "e2117d4cf9a41acfcddca1d74707ec88", "is_disabled": 0, "rental_uris": {"ios": "https://dc.lft.to/lastmile_qr_scan", "android": "https://dc.lft.to/lastmile_qr_scan"}, "is_reserved": 0}, {"lon": -77.0029015, "bike_id": "c151304392692f65681af48053d68e8d", "lat": 38.95700883333333, "fusion_lon": 0.0, "fusion_lat": 0.0, "type": "electric_bike", "name": "c151304392692f65681af48053d68e8d", "is_disabled": 0, "rental_uris": {"ios": "https://dc.lft.to/lastmile_qr_scan", "android": "https://dc.lft.to/lastmile_qr_scan"}, "is_reserved": 0}, {"lon": -76.95185766666667, "bike_id": "a24133fbd3665134653def06053ccc7c", "lat": 38.9074035, "fusion_lon": 0.0, "fusion_lat": 0.0, "type": "electric_scooter", "name": "a24133fbd3665134653def06053ccc7c", "is_disabled": 0, "rental_uris": {"ios": "https://dc.lft.to/lastmile_qr_scan", "android": "https://dc.lft.to/lastmile_qr_scan"}, "is_reserved": 0}, {"lon": -77.0319455, "bike_id": "70eadc797e10f05e6fd81f65ce7346b6", "lat": 38.90846966666667, "fusion_lon": 0.0, "fusion_lat": 0.0, "type": "electric_scooter", "name": "70eadc797e10f05e6fd81f65ce7346b6", "is_disabled": 0, "rental_uris": {"ios": "https://dc.lft.to/lastmile_qr_scan", "android": "https://dc.lft.to/lastmile_qr_scan"}, "is_reserved": 0}, {"lon": -77.0166, "bike_id": "3fa277bed0424b97adce9d209bad92c6", "lat": 38.8811035, "fusion_lon": 0.0, "fusion_lat": 0.0, "type": "electric_bike", "name": "3fa277bed0424b97adce9d209bad92c6", "is_disabled": 0, "rental_uris": {"ios": "https://dc.lft.to/lastmile_qr_scan", "android": "https://dc.lft.to/lastmile_qr_scan"}, "is_reserved": 0}, {"lon": -77.02189, "bike_id": "b37884a2dc02cab659803180e8d4e0c6", "lat": 38.9193965, "fusion_lon": 0.0, "fusion_lat": 0.0, "type": "electric_scooter", "name": "b37884a2dc02cab659803180e8d4e0c6", "is_disabled": 0, "rental_uris": {"ios": "https://dc.lft.to/lastmile_qr_scan", "android": "https://dc.lft.to/lastmile_qr_scan"}, "is_reserved": 0}, {"lon": -77.02321366666666, "bike_id": "834e744fea98624af50fca0607c118e9", "lat": 38.902266166666664, "fusion_lon": 0.0, "fusion_lat": 0.0, "type": "electric_scooter", "name": "834e744fea98624af50fca0607c118e9", "is_disabled": 0, "rental_uris": {"ios": "https://dc.lft.to/lastmile_qr_scan", "android": "https://dc.lft.to/lastmile_qr_scan"}, "is_reserved": 0}, {"lon": -76.98375333333334, "bike_id": "f6b6adab09c5526ac9cc595052b4d84c", "lat": 38.906505833333334, "fusion_lon": 0.0, "fusion_lat": 0.0, "type": "electric_scooter", "name": "f6b6adab09c5526ac9cc595052b4d84c", "is_disabled": 0, "rental_uris": {"ios": "https://dc.lft.to/lastmile_qr_scan", "android": "https://dc.lft.to/lastmile_qr_scan"}, "is_reserved": 0}, {"lon": -77.04379766666666, "bike_id": "83dbfc1ed3c008a4172e15ac03b5350d", "lat": 38.8922035, "fusion_lon": 0.0, "fusion_lat": 0.0, "type": "electric_scooter", "name": "83dbfc1ed3c008a4172e15ac03b5350d", "is_disabled": 0, "rental_uris": {"ios": "https://dc.lft.to/lastmile_qr_scan", "android": "https://dc.lft.to/lastmile_qr_scan"}, "is_reserved": 0}, {"lon": -76.987164, "bike_id": "e92349685f127e7493cad2e159a828d1", "lat": 38.86629516666667, "fusion_lon": 0.0, "fusion_lat": 0.0, "type": "electric_scooter", "name": "e92349685f127e7493cad2e159a828d1", "is_disabled": 0, "rental_uris": {"ios": "https://dc.lft.to/lastmile_qr_scan", "android": "https://dc.lft.to/lastmile_qr_scan"}, "is_reserved": 0}, {"lon": -76.98966533333333, "bike_id": "ea4cb59e94d5f64c52ff978896ad2ca9", "lat": 38.8568225, "fusion_lon": 0.0, "fusion_lat": 0.0, "type": "electric_scooter", "name": "ea4cb59e94d5f64c52ff978896ad2ca9", "is_disabled": 0, "rental_uris": {"ios": "https://dc.lft.to/lastmile_qr_scan", "android": "https://dc.lft.to/lastmile_qr_scan"}, "is_reserved": 0}, {"lon": -76.99899016666667, "bike_id": "22ba5003d05ddb011900f21165c89d96", "lat": 38.9074015, "fusion_lon": 0.0, "fusion_lat": 0.0, "type": "electric_scooter", "name": "22ba5003d05ddb011900f21165c89d96", "is_disabled": 0, "rental_uris": {"ios": "https://dc.lft.to/lastmile_qr_scan", "android": "https://dc.lft.to/lastmile_qr_scan"}, "is_reserved": 0}, {"lon": -76.98197033333334, "bike_id": "ef3c00e50e29662762f97d08d5565597", "lat": 38.899443, "fusion_lon": 0.0, "fusion_lat": 0.0, "type": "electric_scooter", "name": "ef3c00e50e29662762f97d08d5565597", "is_disabled": 0, "rental_uris": {"ios": "https://dc.lft.to/lastmile_qr_scan", "android": "https://dc.lft.to/lastmile_qr_scan"}, "is_reserved": 0}, {"lon": -77.028368, "bike_id": "6bd16913bb00f87cb96a7c8055e30a31", "lat": 38.89223783333333, "fusion_lon": 0.0, "fusion_lat": 0.0, "type": "electric_scooter", "name": "6bd16913bb00f87cb96a7c8055e30a31", "is_disabled": 0, "rental_uris": {"ios": "https://dc.lft.to/lastmile_qr_scan", "android": "https://dc.lft.to/lastmile_qr_scan"}, "is_reserved": 0}, {"lon": -77.02421983333333, "bike_id": "5966571b2025aa9000a1c20b8f6be50d", "lat": 38.88001383333334, "fusion_lon": 0.0, "fusion_lat": 0.0, "type": "electric_scooter", "name": "5966571b2025aa9000a1c20b8f6be50d", "is_disabled": 0, "rental_uris": {"ios": "https://dc.lft.to/lastmile_qr_scan", "android": "https://dc.lft.to/lastmile_qr_scan"}, "is_reserved": 0}, {"lon": -76.99814266666667, "bike_id": "3223416e3b77657f2e47864f7d392524", "lat": 38.90029366666667, "fusion_lon": 0.0, "fusion_lat": 0.0, "type": "electric_scooter", "name": "3223416e3b77657f2e47864f7d392524", "is_disabled": 0, "rental_uris": {"ios": "https://dc.lft.to/lastmile_qr_scan", "android": "https://dc.lft.to/lastmile_qr_scan"}, "is_reserved": 0}, {"lon": -77.00486433333333, "bike_id": "7acc450e5081790a0980c41345bb45f6", "lat": 38.874727, "fusion_lon": 0.0, "fusion_lat": 0.0, "type": "electric_scooter", "name": "7acc450e5081790a0980c41345bb45f6", "is_disabled": 0, "rental_uris": {"ios": "https://dc.lft.to/lastmile_qr_scan", "android": "https://dc.lft.to/lastmile_qr_scan"}, "is_reserved": 0}, {"lon": -76.997953, "bike_id": "49e944a1c22c70fe7cc58bf9aec0c4e4", "lat": 38.956417333333334, "fusion_lon": 0.0, "fusion_lat": 0.0, "type": "electric_bike", "name": "49e944a1c22c70fe7cc58bf9aec0c4e4", "is_disabled": 0, "rental_uris": {"ios": "https://dc.lft.to/lastmile_qr_scan", "android": "https://dc.lft.to/lastmile_qr_scan"}, "is_reserved": 0}, {"lon": -77.034666, "bike_id": "d27c378f0f1fdae7f1d571775e4d2a7e", "lat": 38.918716833333335, "fusion_lon": 0.0, "fusion_lat": 0.0, "type": "electric_scooter", "name": "d27c378f0f1fdae7f1d571775e4d2a7e", "is_disabled": 0, "rental_uris": {"ios": "https://dc.lft.to/lastmile_qr_scan", "android": "https://dc.lft.to/lastmile_qr_scan"}, "is_reserved": 0}, {"lon": -77.001931, "bike_id": "c9e5ccc3f9612356ca4ded6cd864d5cc", "lat": 38.89466683333333, "fusion_lon": 0.0, "fusion_lat": 0.0, "type": "electric_scooter", "name": "c9e5ccc3f9612356ca4ded6cd864d5cc", "is_disabled": 0, "rental_uris": {"ios": "https://dc.lft.to/lastmile_qr_scan", "android": "https://dc.lft.to/lastmile_qr_scan"}, "is_reserved": 0}, {"lon": -77.00360183333333, "bike_id": "69d114480e92bd99aebb0eacef22e652", "lat": 38.886088666666666, "fusion_lon": 0.0, "fusion_lat": 0.0, "type": "electric_scooter", "name": "69d114480e92bd99aebb0eacef22e652", "is_disabled": 0, "rental_uris": {"ios": "https://dc.lft.to/lastmile_qr_scan", "android": "https://dc.lft.to/lastmile_qr_scan"}, "is_reserved": 0}, {"lon": -77.0301515, "bike_id": "c714685d56d4d58db1a2c4a6afe36d9f", "lat": 38.92862383333333, "fusion_lon": 0.0, "fusion_lat": 0.0, "type": "electric_scooter", "name": "c714685d56d4d58db1a2c4a6afe36d9f", "is_disabled": 0, "rental_uris": {"ios": "https://dc.lft.to/lastmile_qr_scan", "android": "https://dc.lft.to/lastmile_qr_scan"}, "is_reserved": 0}, {"lon": -77.05131533333333, "bike_id": "8dd14289ef2b1d3e27c625df51d6f403", "lat": 38.904212, "fusion_lon": 0.0, "fusion_lat": 0.0, "type": "electric_bike", "name": "8dd14289ef2b1d3e27c625df51d6f403", "is_disabled": 0, "rental_uris": {"ios": "https://dc.lft.to/lastmile_qr_scan", "android": "https://dc.lft.to/lastmile_qr_scan"}, "is_reserved": 0}, {"lon": -77.00571433333333, "bike_id": "40d6c2185730461d274591d2bad6e051", "lat": 38.9093165, "fusion_lon": 0.0, "fusion_lat": 0.0, "type": "electric_scooter", "name": "40d6c2185730461d274591d2bad6e051", "is_disabled": 0, "rental_uris": {"ios": "https://dc.lft.to/lastmile_qr_scan", "android": "https://dc.lft.to/lastmile_qr_scan"}, "is_reserved": 0}, {"lon": -76.98092783333334, "bike_id": "d9272cea1d924f600146c367e27ce4a7", "lat": 38.92106033333334, "fusion_lon": 0.0, "fusion_lat": 0.0, "type": "electric_bike", "name": "d9272cea1d924f600146c367e27ce4a7", "is_disabled": 0, "rental_uris": {"ios": "https://dc.lft.to/lastmile_qr_scan", "android": "https://dc.lft.to/lastmile_qr_scan"}, "is_reserved": 0}, {"lon": -77.043269, "bike_id": "145e98b592bad45176203ea40d6923f9", "lat": 38.89224733333333, "fusion_lon": 0.0, "fusion_lat": 0.0, "type": "electric_scooter", "name": "145e98b592bad45176203ea40d6923f9", "is_disabled": 0, "rental_uris": {"ios": "https://dc.lft.to/lastmile_qr_scan", "android": "https://dc.lft.to/lastmile_qr_scan"}, "is_reserved": 0}, {"lon": -77.02887433333333, "bike_id": "0a482c3592da67e78aaf8f6e4102ebff", "lat": 38.91709866666667, "fusion_lon": 0.0, "fusion_lat": 0.0, "type": "electric_scooter", "name": "0a482c3592da67e78aaf8f6e4102ebff", "is_disabled": 0, "rental_uris": {"ios": "https://dc.lft.to/lastmile_qr_scan", "android": "https://dc.lft.to/lastmile_qr_scan"}, "is_reserved": 0}, {"lon": -76.99792316666667, "bike_id": "b42d40b1dbcc8e17cfbe1c613f72df63", "lat": 38.92179133333333, "fusion_lon": 0.0, "fusion_lat": 0.0, "type": "electric_scooter", "name": "b42d40b1dbcc8e17cfbe1c613f72df63", "is_disabled": 0, "rental_uris": {"ios": "https://dc.lft.to/lastmile_qr_scan", "android": "https://dc.lft.to/lastmile_qr_scan"}, "is_reserved": 0}, {"lon": -77.0268105, "bike_id": "b6a341b7aeb4b5350ba43e83fba4263a", "lat": 38.8979425, "fusion_lon": 0.0, "fusion_lat": 0.0, "type": "electric_scooter", "name": "b6a341b7aeb4b5350ba43e83fba4263a", "is_disabled": 0, "rental_uris": {"ios": "https://dc.lft.to/lastmile_qr_scan", "android": "https://dc.lft.to/lastmile_qr_scan"}, "is_reserved": 0}, {"lon": -76.95532583333333, "bike_id": "d383d13c89c2db330429ba344a26b111", "lat": 38.88763216666667, "fusion_lon": 0.0, "fusion_lat": 0.0, "type": "electric_scooter", "name": "d383d13c89c2db330429ba344a26b111", "is_disabled": 0, "rental_uris": {"ios": "https://dc.lft.to/lastmile_qr_scan", "android": "https://dc.lft.to/lastmile_qr_scan"}, "is_reserved": 0}, {"lon": -77.037785, "bike_id": "0c6999fe96f22fb71810ded33e90c602", "lat": 38.916904333333335, "fusion_lon": 0.0, "fusion_lat": 0.0, "type": "electric_scooter", "name": "0c6999fe96f22fb71810ded33e90c602", "is_disabled": 0, "rental_uris": {"ios": "https://dc.lft.to/lastmile_qr_scan", "android": "https://dc.lft.to/lastmile_qr_scan"}, "is_reserved": 0}, {"lon": -76.99900733333334, "bike_id": "6cd0f03efc858f62fc95cba4ff1af875", "lat": 38.952861, "fusion_lon": 0.0, "fusion_lat": 0.0, "type": "electric_scooter", "name": "6cd0f03efc858f62fc95cba4ff1af875", "is_disabled": 0, "rental_uris": {"ios": "https://dc.lft.to/lastmile_qr_scan", "android": "https://dc.lft.to/lastmile_qr_scan"}, "is_reserved": 0}, {"lon": -77.03702816666667, "bike_id": "d82b4183807c30556811eb2208cb87cd", "lat": 38.926310666666666, "fusion_lon": 0.0, "fusion_lat": 0.0, "type": "electric_scooter", "name": "d82b4183807c30556811eb2208cb87cd", "is_disabled": 0, "rental_uris": {"ios": "https://dc.lft.to/lastmile_qr_scan", "android": "https://dc.lft.to/lastmile_qr_scan"}, "is_reserved": 0}, {"lon": -77.0319805, "bike_id": "4748a9319d64b741294e76ad0d0ad0ec", "lat": 38.93072883333333, "fusion_lon": 0.0, "fusion_lat": 0.0, "type": "electric_scooter", "name": "4748a9319d64b741294e76ad0d0ad0ec", "is_disabled": 0, "rental_uris": {"ios": "https://dc.lft.to/lastmile_qr_scan", "android": "https://dc.lft.to/lastmile_qr_scan"}, "is_reserved": 0}, {"lon": -77.02979516666667, "bike_id": "6080949befef9733329f3b536f155e1c", "lat": 38.896729, "fusion_lon": 0.0, "fusion_lat": 0.0, "type": "electric_scooter", "name": "6080949befef9733329f3b536f155e1c", "is_disabled": 0, "rental_uris": {"ios": "https://dc.lft.to/lastmile_qr_scan", "android": "https://dc.lft.to/lastmile_qr_scan"}, "is_reserved": 0}, {"lon": -77.01740583333333, "bike_id": "75e4b15b2f291f8aa8639325bcadc0a4", "lat": 38.9751755, "fusion_lon": 0.0, "fusion_lat": 0.0, "type": "electric_scooter", "name": "75e4b15b2f291f8aa8639325bcadc0a4", "is_disabled": 0, "rental_uris": {"ios": "https://dc.lft.to/lastmile_qr_scan", "android": "https://dc.lft.to/lastmile_qr_scan"}, "is_reserved": 0}, {"lon": -76.96059983333333, "bike_id": "74f833164d98a329e6f797d689b2cf79", "lat": 38.88398683333333, "fusion_lon": 0.0, "fusion_lat": 0.0, "type": "electric_bike", "name": "74f833164d98a329e6f797d689b2cf79", "is_disabled": 0, "rental_uris": {"ios": "https://dc.lft.to/lastmile_qr_scan", "android": "https://dc.lft.to/lastmile_qr_scan"}, "is_reserved": 0}, {"lon": -77.03455366666667, "bike_id": "8eb1327c8d5bcefdab970df10e066524", "lat": 38.92153416666667, "fusion_lon": 0.0, "fusion_lat": 0.0, "type": "electric_scooter", "name": "8eb1327c8d5bcefdab970df10e066524", "is_disabled": 0, "rental_uris": {"ios": "https://dc.lft.to/lastmile_qr_scan", "android": "https://dc.lft.to/lastmile_qr_scan"}, "is_reserved": 0}, {"lon": -77.026892, "bike_id": "1264d3fdb62dac2eb8ee92af211937e5", "lat": 38.8981115, "fusion_lon": 0.0, "fusion_lat": 0.0, "type": "electric_scooter", "name": "1264d3fdb62dac2eb8ee92af211937e5", "is_disabled": 0, "rental_uris": {"ios": "https://dc.lft.to/lastmile_qr_scan", "android": "https://dc.lft.to/lastmile_qr_scan"}, "is_reserved": 0}, {"lon": -77.03215816666666, "bike_id": "ddfa40e656851d0bd7d70fefe2b93272", "lat": 38.9075855, "fusion_lon": 0.0, "fusion_lat": 0.0, "type": "electric_scooter", "name": "ddfa40e656851d0bd7d70fefe2b93272", "is_disabled": 0, "rental_uris": {"ios": "https://dc.lft.to/lastmile_qr_scan", "android": "https://dc.lft.to/lastmile_qr_scan"}, "is_reserved": 0}, {"lon": -76.99548383333334, "bike_id": "233528f847eb37a31418f159ac50f245", "lat": 38.86260683333333, "fusion_lon": 0.0, "fusion_lat": 0.0, "type": "electric_scooter", "name": "233528f847eb37a31418f159ac50f245", "is_disabled": 0, "rental_uris": {"ios": "https://dc.lft.to/lastmile_qr_scan", "android": "https://dc.lft.to/lastmile_qr_scan"}, "is_reserved": 0}, {"lon": -77.02697316666666, "bike_id": "9333345af5d8a035f8927aeace9b5220", "lat": 38.91294, "fusion_lon": 0.0, "fusion_lat": 0.0, "type": "electric_scooter", "name": "9333345af5d8a035f8927aeace9b5220", "is_disabled": 0, "rental_uris": {"ios": "https://dc.lft.to/lastmile_qr_scan", "android": "https://dc.lft.to/lastmile_qr_scan"}, "is_reserved": 0}, {"lon": -77.02488166666667, "bike_id": "2dee5eec11a6bb9907aaba2fb53adb7f", "lat": 38.93859966666667, "fusion_lon": 0.0, "fusion_lat": 0.0, "type": "electric_scooter", "name": "2dee5eec11a6bb9907aaba2fb53adb7f", "is_disabled": 0, "rental_uris": {"ios": "https://dc.lft.to/lastmile_qr_scan", "android": "https://dc.lft.to/lastmile_qr_scan"}, "is_reserved": 0}, {"lon": -77.02979883333333, "bike_id": "b1c829d218ab0394acb43e8337b48b07", "lat": 38.921986, "fusion_lon": 0.0, "fusion_lat": 0.0, "type": "electric_scooter", "name": "b1c829d218ab0394acb43e8337b48b07", "is_disabled": 0, "rental_uris": {"ios": "https://dc.lft.to/lastmile_qr_scan", "android": "https://dc.lft.to/lastmile_qr_scan"}, "is_reserved": 0}, {"lon": -76.98825816666667, "bike_id": "bd61ce0dd2d8d5488f8d23737cfd4093", "lat": 38.8907665, "fusion_lon": 0.0, "fusion_lat": 0.0, "type": "electric_scooter", "name": "bd61ce0dd2d8d5488f8d23737cfd4093", "is_disabled": 0, "rental_uris": {"ios": "https://dc.lft.to/lastmile_qr_scan", "android": "https://dc.lft.to/lastmile_qr_scan"}, "is_reserved": 0}, {"lon": -77.03337516666667, "bike_id": "1bac048f03887de9951a267914caa9a5", "lat": 38.89990366666667, "fusion_lon": 0.0, "fusion_lat": 0.0, "type": "electric_scooter", "name": "1bac048f03887de9951a267914caa9a5", "is_disabled": 0, "rental_uris": {"ios": "https://dc.lft.to/lastmile_qr_scan", "android": "https://dc.lft.to/lastmile_qr_scan"}, "is_reserved": 0}, {"lon": -77.021566, "bike_id": "839767d70d3cf4d06815c5854d9dadc0", "lat": 38.9260195, "fusion_lon": 0.0, "fusion_lat": 0.0, "type": "electric_scooter", "name": "839767d70d3cf4d06815c5854d9dadc0", "is_disabled": 0, "rental_uris": {"ios": "https://dc.lft.to/lastmile_qr_scan", "android": "https://dc.lft.to/lastmile_qr_scan"}, "is_reserved": 0}, {"lon": -76.9609785, "bike_id": "3850bfd9961605540864857f37393b03", "lat": 38.949662833333335, "fusion_lon": 0.0, "fusion_lat": 0.0, "type": "electric_bike", "name": "3850bfd9961605540864857f37393b03", "is_disabled": 0, "rental_uris": {"ios": "https://dc.lft.to/lastmile_qr_scan", "android": "https://dc.lft.to/lastmile_qr_scan"}, "is_reserved": 0}, {"lon": -77.01881966666667, "bike_id": "5dcb8d8ece772770038e564b500122b1", "lat": 38.91417283333333, "fusion_lon": 0.0, "fusion_lat": 0.0, "type": "electric_scooter", "name": "5dcb8d8ece772770038e564b500122b1", "is_disabled": 0, "rental_uris": {"ios": "https://dc.lft.to/lastmile_qr_scan", "android": "https://dc.lft.to/lastmile_qr_scan"}, "is_reserved": 0}, {"lon": -77.03868233333333, "bike_id": "cb12a323b78f157fdf9af843c48da47d", "lat": 38.912758833333335, "fusion_lon": 0.0, "fusion_lat": 0.0, "type": "electric_scooter", "name": "cb12a323b78f157fdf9af843c48da47d", "is_disabled": 0, "rental_uris": {"ios": "https://dc.lft.to/lastmile_qr_scan", "android": "https://dc.lft.to/lastmile_qr_scan"}, "is_reserved": 0}, {"lon": -77.03558583333333, "bike_id": "55adb78d729415ac0ded1d557547aedc", "lat": 38.927018333333336, "fusion_lon": 0.0, "fusion_lat": 0.0, "type": "electric_scooter", "name": "55adb78d729415ac0ded1d557547aedc", "is_disabled": 0, "rental_uris": {"ios": "https://dc.lft.to/lastmile_qr_scan", "android": "https://dc.lft.to/lastmile_qr_scan"}, "is_reserved": 0}, {"lon": -77.02771683333333, "bike_id": "5aa2a60f4265478ed8778455e0d65f80", "lat": 38.95424916666666, "fusion_lon": 0.0, "fusion_lat": 0.0, "type": "electric_scooter", "name": "5aa2a60f4265478ed8778455e0d65f80", "is_disabled": 0, "rental_uris": {"ios": "https://dc.lft.to/lastmile_qr_scan", "android": "https://dc.lft.to/lastmile_qr_scan"}, "is_reserved": 0}, {"lon": -77.06491716666666, "bike_id": "a23c98e5e403ff76e47c1aca2d840f2d", "lat": 38.90978533333333, "fusion_lon": 0.0, "fusion_lat": 0.0, "type": "electric_scooter", "name": "a23c98e5e403ff76e47c1aca2d840f2d", "is_disabled": 0, "rental_uris": {"ios": "https://dc.lft.to/lastmile_qr_scan", "android": "https://dc.lft.to/lastmile_qr_scan"}, "is_reserved": 0}, {"lon": -77.04443733333333, "bike_id": "d52c3084d859ce1cf7dca7fecf989410", "lat": 38.905682166666665, "fusion_lon": 0.0, "fusion_lat": 0.0, "type": "electric_scooter", "name": "d52c3084d859ce1cf7dca7fecf989410", "is_disabled": 0, "rental_uris": {"ios": "https://dc.lft.to/lastmile_qr_scan", "android": "https://dc.lft.to/lastmile_qr_scan"}, "is_reserved": 0}, {"lon": -77.06830966666666, "bike_id": "5f1f4ee9fd4d9212aa64f83b756a1f08", "lat": 38.805651, "fusion_lon": 0.0, "fusion_lat": 0.0, "type": "electric_bike", "name": "5f1f4ee9fd4d9212aa64f83b756a1f08", "is_disabled": 0, "rental_uris": {"ios": "https://dc.lft.to/lastmile_qr_scan", "android": "https://dc.lft.to/lastmile_qr_scan"}, "is_reserved": 0}, {"lon": -77.016102, "bike_id": "881fa302b767a610dc933dc5e7bae4f5", "lat": 38.895043, "fusion_lon": 0.0, "fusion_lat": 0.0, "type": "electric_scooter", "name": "881fa302b767a610dc933dc5e7bae4f5", "is_disabled": 0, "rental_uris": {"ios": "https://dc.lft.to/lastmile_qr_scan", "android": "https://dc.lft.to/lastmile_qr_scan"}, "is_reserved": 0}, {"lon": -77.03303983333333, "bike_id": "cd63c0fef6ccfad693558b99dfea41fe", "lat": 38.9563935, "fusion_lon": 0.0, "fusion_lat": 0.0, "type": "electric_scooter", "name": "cd63c0fef6ccfad693558b99dfea41fe", "is_disabled": 0, "rental_uris": {"ios": "https://dc.lft.to/lastmile_qr_scan", "android": "https://dc.lft.to/lastmile_qr_scan"}, "is_reserved": 0}, {"lon": -77.02949016666666, "bike_id": "87d0142e533dcb815033233f0afb1f64", "lat": 38.896163333333334, "fusion_lon": 0.0, "fusion_lat": 0.0, "type": "electric_scooter", "name": "87d0142e533dcb815033233f0afb1f64", "is_disabled": 0, "rental_uris": {"ios": "https://dc.lft.to/lastmile_qr_scan", "android": "https://dc.lft.to/lastmile_qr_scan"}, "is_reserved": 0}, {"lon": -76.98086233333333, "bike_id": "acfa30507cfd739e25004d230434ab7c", "lat": 38.907064, "fusion_lon": 0.0, "fusion_lat": 0.0, "type": "electric_scooter", "name": "acfa30507cfd739e25004d230434ab7c", "is_disabled": 0, "rental_uris": {"ios": "https://dc.lft.to/lastmile_qr_scan", "android": "https://dc.lft.to/lastmile_qr_scan"}, "is_reserved": 0}, {"lon": -77.0343975, "bike_id": "09488c5b20d808c98271ac7e221fc986", "lat": 38.90337533333334, "fusion_lon": 0.0, "fusion_lat": 0.0, "type": "electric_scooter", "name": "09488c5b20d808c98271ac7e221fc986", "is_disabled": 0, "rental_uris": {"ios": "https://dc.lft.to/lastmile_qr_scan", "android": "https://dc.lft.to/lastmile_qr_scan"}, "is_reserved": 0}, {"lon": -77.02603566666667, "bike_id": "36dd965c9ed6addf3a1e466398d0815c", "lat": 38.91692316666666, "fusion_lon": 0.0, "fusion_lat": 0.0, "type": "electric_scooter", "name": "36dd965c9ed6addf3a1e466398d0815c", "is_disabled": 0, "rental_uris": {"ios": "https://dc.lft.to/lastmile_qr_scan", "android": "https://dc.lft.to/lastmile_qr_scan"}, "is_reserved": 0}, {"lon": -77.032645, "bike_id": "bb0b1b0474f1d8a6cfac804668d108bf", "lat": 38.937184333333335, "fusion_lon": 0.0, "fusion_lat": 0.0, "type": "electric_scooter", "name": "bb0b1b0474f1d8a6cfac804668d108bf", "is_disabled": 0, "rental_uris": {"ios": "https://dc.lft.to/lastmile_qr_scan", "android": "https://dc.lft.to/lastmile_qr_scan"}, "is_reserved": 0}, {"lon": -77.00770066666666, "bike_id": "6af0b8d6a7ee848b53d0b6f9d3e663ae", "lat": 38.926727666666665, "fusion_lon": 0.0, "fusion_lat": 0.0, "type": "electric_bike", "name": "6af0b8d6a7ee848b53d0b6f9d3e663ae", "is_disabled": 0, "rental_uris": {"ios": "https://dc.lft.to/lastmile_qr_scan", "android": "https://dc.lft.to/lastmile_qr_scan"}, "is_reserved": 0}, {"lon": -77.02334333333333, "bike_id": "ba1521bd4b90069b56d99ea0f5a851c9", "lat": 38.930489333333334, "fusion_lon": 0.0, "fusion_lat": 0.0, "type": "electric_scooter", "name": "ba1521bd4b90069b56d99ea0f5a851c9", "is_disabled": 0, "rental_uris": {"ios": "https://dc.lft.to/lastmile_qr_scan", "android": "https://dc.lft.to/lastmile_qr_scan"}, "is_reserved": 0}, {"lon": -77.03194133333334, "bike_id": "f3e661dd799ddd053f5ae1117e21db4f", "lat": 38.9159575, "fusion_lon": 0.0, "fusion_lat": 0.0, "type": "electric_scooter", "name": "f3e661dd799ddd053f5ae1117e21db4f", "is_disabled": 0, "rental_uris": {"ios": "https://dc.lft.to/lastmile_qr_scan", "android": "https://dc.lft.to/lastmile_qr_scan"}, "is_reserved": 0}, {"lon": -77.02580966666666, "bike_id": "6aedc2e2138841b83af23c412e6bd3bd", "lat": 38.942176, "fusion_lon": 0.0, "fusion_lat": 0.0, "type": "electric_scooter", "name": "6aedc2e2138841b83af23c412e6bd3bd", "is_disabled": 0, "rental_uris": {"ios": "https://dc.lft.to/lastmile_qr_scan", "android": "https://dc.lft.to/lastmile_qr_scan"}, "is_reserved": 0}, {"lon": -76.962199, "bike_id": "5806172d8b50ea01399314334e15ba2d", "lat": 38.877831, "fusion_lon": 0.0, "fusion_lat": 0.0, "type": "electric_scooter", "name": "5806172d8b50ea01399314334e15ba2d", "is_disabled": 0, "rental_uris": {"ios": "https://dc.lft.to/lastmile_qr_scan", "android": "https://dc.lft.to/lastmile_qr_scan"}, "is_reserved": 0}, {"lon": -77.038405, "bike_id": "86d8c00d7086d43b372082e241bc299a", "lat": 38.903806333333335, "fusion_lon": 0.0, "fusion_lat": 0.0, "type": "electric_scooter", "name": "86d8c00d7086d43b372082e241bc299a", "is_disabled": 0, "rental_uris": {"ios": "https://dc.lft.to/lastmile_qr_scan", "android": "https://dc.lft.to/lastmile_qr_scan"}, "is_reserved": 0}, {"lon": -77.0420605, "bike_id": "e4a378b6cffb2a55410485ab1b2e0d21", "lat": 38.92318266666667, "fusion_lon": 0.0, "fusion_lat": 0.0, "type": "electric_scooter", "name": "e4a378b6cffb2a55410485ab1b2e0d21", "is_disabled": 0, "rental_uris": {"ios": "https://dc.lft.to/lastmile_qr_scan", "android": "https://dc.lft.to/lastmile_qr_scan"}, "is_reserved": 0}, {"lon": -77.0417065, "bike_id": "aaea7a93c3edeae02f17364ac7f82c7f", "lat": 38.91981616666666, "fusion_lon": 0.0, "fusion_lat": 0.0, "type": "electric_scooter", "name": "aaea7a93c3edeae02f17364ac7f82c7f", "is_disabled": 0, "rental_uris": {"ios": "https://dc.lft.to/lastmile_qr_scan", "android": "https://dc.lft.to/lastmile_qr_scan"}, "is_reserved": 0}, {"lon": -77.04542583333334, "bike_id": "f9574179a8de3b136e6dfcbb7bad9e95", "lat": 38.934106166666666, "fusion_lon": 0.0, "fusion_lat": 0.0, "type": "electric_scooter", "name": "f9574179a8de3b136e6dfcbb7bad9e95", "is_disabled": 0, "rental_uris": {"ios": "https://dc.lft.to/lastmile_qr_scan", "android": "https://dc.lft.to/lastmile_qr_scan"}, "is_reserved": 0}, {"lon": -77.0393685, "bike_id": "3a2e2e23afc692bf1b89752ddc477a72", "lat": 38.91761133333333, "fusion_lon": 0.0, "fusion_lat": 0.0, "type": "electric_scooter", "name": "3a2e2e23afc692bf1b89752ddc477a72", "is_disabled": 0, "rental_uris": {"ios": "https://dc.lft.to/lastmile_qr_scan", "android": "https://dc.lft.to/lastmile_qr_scan"}, "is_reserved": 0}, {"lon": -77.07326783333333, "bike_id": "d7c21cfb743f80aadfc63c767c1b0792", "lat": 38.914018, "fusion_lon": 0.0, "fusion_lat": 0.0, "type": "electric_scooter", "name": "d7c21cfb743f80aadfc63c767c1b0792", "is_disabled": 0, "rental_uris": {"ios": "https://dc.lft.to/lastmile_qr_scan", "android": "https://dc.lft.to/lastmile_qr_scan"}, "is_reserved": 0}, {"lon": -77.041515, "bike_id": "6f9f775a32c109dd93e06f4c6bed43a7", "lat": 38.91697833333333, "fusion_lon": 0.0, "fusion_lat": 0.0, "type": "electric_scooter", "name": "6f9f775a32c109dd93e06f4c6bed43a7", "is_disabled": 0, "rental_uris": {"ios": "https://dc.lft.to/lastmile_qr_scan", "android": "https://dc.lft.to/lastmile_qr_scan"}, "is_reserved": 0}, {"lon": -77.03485166666667, "bike_id": "9f5e7b11abc983b5c3c05b68978cac82", "lat": 38.9204945, "fusion_lon": 0.0, "fusion_lat": 0.0, "type": "electric_scooter", "name": "9f5e7b11abc983b5c3c05b68978cac82", "is_disabled": 0, "rental_uris": {"ios": "https://dc.lft.to/lastmile_qr_scan", "android": "https://dc.lft.to/lastmile_qr_scan"}, "is_reserved": 0}, {"lon": -77.04273166666667, "bike_id": "78accb20b3de66cd4438c07e2e3a34b3", "lat": 38.91330633333333, "fusion_lon": 0.0, "fusion_lat": 0.0, "type": "electric_scooter", "name": "78accb20b3de66cd4438c07e2e3a34b3", "is_disabled": 0, "rental_uris": {"ios": "https://dc.lft.to/lastmile_qr_scan", "android": "https://dc.lft.to/lastmile_qr_scan"}, "is_reserved": 0}, {"lon": -77.0369385, "bike_id": "65d0116f7ba44ba800c5b19384725527", "lat": 38.918276666666664, "fusion_lon": 0.0, "fusion_lat": 0.0, "type": "electric_scooter", "name": "65d0116f7ba44ba800c5b19384725527", "is_disabled": 0, "rental_uris": {"ios": "https://dc.lft.to/lastmile_qr_scan", "android": "https://dc.lft.to/lastmile_qr_scan"}, "is_reserved": 0}, {"lon": -76.969933, "bike_id": "d7e974e8285c7a775de255128b8efd7a", "lat": 38.89729083333334, "fusion_lon": 0.0, "fusion_lat": 0.0, "type": "electric_scooter", "name": "d7e974e8285c7a775de255128b8efd7a", "is_disabled": 0, "rental_uris": {"ios": "https://dc.lft.to/lastmile_qr_scan", "android": "https://dc.lft.to/lastmile_qr_scan"}, "is_reserved": 0}, {"lon": -77.04605683333334, "bike_id": "42ee12767f8a1bf4e3243c28adb51924", "lat": 38.90209133333333, "fusion_lon": 0.0, "fusion_lat": 0.0, "type": "electric_scooter", "name": "42ee12767f8a1bf4e3243c28adb51924", "is_disabled": 0, "rental_uris": {"ios": "https://dc.lft.to/lastmile_qr_scan", "android": "https://dc.lft.to/lastmile_qr_scan"}, "is_reserved": 0}, {"lon": -77.00619183333333, "bike_id": "e3665b3d641b27e8f8f2f9766a2288b8", "lat": 38.90850316666667, "fusion_lon": 0.0, "fusion_lat": 0.0, "type": "electric_scooter", "name": "e3665b3d641b27e8f8f2f9766a2288b8", "is_disabled": 0, "rental_uris": {"ios": "https://dc.lft.to/lastmile_qr_scan", "android": "https://dc.lft.to/lastmile_qr_scan"}, "is_reserved": 0}, {"lon": -77.03221616666667, "bike_id": "f7891bc3b7a729f684a59beb6e5a6d90", "lat": 38.914089, "fusion_lon": 0.0, "fusion_lat": 0.0, "type": "electric_scooter", "name": "f7891bc3b7a729f684a59beb6e5a6d90", "is_disabled": 0, "rental_uris": {"ios": "https://dc.lft.to/lastmile_qr_scan", "android": "https://dc.lft.to/lastmile_qr_scan"}, "is_reserved": 0}, {"lon": -77.0435435, "bike_id": "36e99ea04833001940179827473024b5", "lat": 38.92125083333333, "fusion_lon": 0.0, "fusion_lat": 0.0, "type": "electric_scooter", "name": "36e99ea04833001940179827473024b5", "is_disabled": 0, "rental_uris": {"ios": "https://dc.lft.to/lastmile_qr_scan", "android": "https://dc.lft.to/lastmile_qr_scan"}, "is_reserved": 0}, {"lon": -77.01118816666667, "bike_id": "ad24161d8ee6dc1af2ca086439de9460", "lat": 38.885503666666665, "fusion_lon": 0.0, "fusion_lat": 0.0, "type": "electric_scooter", "name": "ad24161d8ee6dc1af2ca086439de9460", "is_disabled": 0, "rental_uris": {"ios": "https://dc.lft.to/lastmile_qr_scan", "android": "https://dc.lft.to/lastmile_qr_scan"}, "is_reserved": 0}, {"lon": -77.03937816666667, "bike_id": "633554ab7920aae7508e5325e8cc6796", "lat": 38.921185333333334, "fusion_lon": 0.0, "fusion_lat": 0.0, "type": "electric_scooter", "name": "633554ab7920aae7508e5325e8cc6796", "is_disabled": 0, "rental_uris": {"ios": "https://dc.lft.to/lastmile_qr_scan", "android": "https://dc.lft.to/lastmile_qr_scan"}, "is_reserved": 0}, {"lon": -77.0263995, "bike_id": "04134c36f304c63971ae025af16679ec", "lat": 38.926698333333334, "fusion_lon": 0.0, "fusion_lat": 0.0, "type": "electric_scooter", "name": "04134c36f304c63971ae025af16679ec", "is_disabled": 0, "rental_uris": {"ios": "https://dc.lft.to/lastmile_qr_scan", "android": "https://dc.lft.to/lastmile_qr_scan"}, "is_reserved": 0}, {"lon": -77.04653666666667, "bike_id": "456fb9bc0af192310e0fc041c99f6c8a", "lat": 38.90597666666667, "fusion_lon": 0.0, "fusion_lat": 0.0, "type": "electric_scooter", "name": "456fb9bc0af192310e0fc041c99f6c8a", "is_disabled": 0, "rental_uris": {"ios": "https://dc.lft.to/lastmile_qr_scan", "android": "https://dc.lft.to/lastmile_qr_scan"}, "is_reserved": 0}, {"lon": -77.039765, "bike_id": "b95e46cc2d5956f7b3a4be0bcc911dea", "lat": 38.8990975, "fusion_lon": 0.0, "fusion_lat": 0.0, "type": "electric_scooter", "name": "b95e46cc2d5956f7b3a4be0bcc911dea", "is_disabled": 0, "rental_uris": {"ios": "https://dc.lft.to/lastmile_qr_scan", "android": "https://dc.lft.to/lastmile_qr_scan"}, "is_reserved": 0}, {"lon": -77.01848566666666, "bike_id": "776f78ff93a2f060084755ce2c0e4f73", "lat": 38.949928166666666, "fusion_lon": 0.0, "fusion_lat": 0.0, "type": "electric_scooter", "name": "776f78ff93a2f060084755ce2c0e4f73", "is_disabled": 0, "rental_uris": {"ios": "https://dc.lft.to/lastmile_qr_scan", "android": "https://dc.lft.to/lastmile_qr_scan"}, "is_reserved": 0}, {"lon": -77.00622666666666, "bike_id": "c19ceb3da275b19b859be80752eb0aa4", "lat": 38.90820266666667, "fusion_lon": 0.0, "fusion_lat": 0.0, "type": "electric_scooter", "name": "c19ceb3da275b19b859be80752eb0aa4", "is_disabled": 0, "rental_uris": {"ios": "https://dc.lft.to/lastmile_qr_scan", "android": "https://dc.lft.to/lastmile_qr_scan"}, "is_reserved": 0}, {"lon": -77.09598133333333, "bike_id": "1d0bf8786245912aa40857da16113197", "lat": 39.028869666666665, "fusion_lon": 0.0, "fusion_lat": 0.0, "type": "electric_bike", "name": "1d0bf8786245912aa40857da16113197", "is_disabled": 0, "rental_uris": {"ios": "https://dc.lft.to/lastmile_qr_scan", "android": "https://dc.lft.to/lastmile_qr_scan"}, "is_reserved": 0}, {"lon": -77.05624216666666, "bike_id": "d3ddc3884173b83005a4640a33e989bb", "lat": 38.96074266666667, "fusion_lon": 0.0, "fusion_lat": 0.0, "type": "electric_scooter", "name": "d3ddc3884173b83005a4640a33e989bb", "is_disabled": 0, "rental_uris": {"ios": "https://dc.lft.to/lastmile_qr_scan", "android": "https://dc.lft.to/lastmile_qr_scan"}, "is_reserved": 0}, {"lon": -77.131059, "bike_id": "097fb7327c55bb178c47b44d45b6fe72", "lat": 39.024371333333335, "fusion_lon": 0.0, "fusion_lat": 0.0, "type": "electric_bike", "name": "097fb7327c55bb178c47b44d45b6fe72", "is_disabled": 0, "rental_uris": {"ios": "https://dc.lft.to/lastmile_qr_scan", "android": "https://dc.lft.to/lastmile_qr_scan"}, "is_reserved": 0}, {"lon": -77.02681233333334, "bike_id": "19bae9a9b13e2459e7e424afca88b589", "lat": 38.9483555, "fusion_lon": 0.0, "fusion_lat": 0.0, "type": "electric_scooter", "name": "19bae9a9b13e2459e7e424afca88b589", "is_disabled": 0, "rental_uris": {"ios": "https://dc.lft.to/lastmile_qr_scan", "android": "https://dc.lft.to/lastmile_qr_scan"}, "is_reserved": 0}, {"lon": -76.995332, "bike_id": "75a7942fceee9009fc87f0b8dd4a59b6", "lat": 38.877607, "fusion_lon": 0.0, "fusion_lat": 0.0, "type": "electric_scooter", "name": "75a7942fceee9009fc87f0b8dd4a59b6", "is_disabled": 0, "rental_uris": {"ios": "https://dc.lft.to/lastmile_qr_scan", "android": "https://dc.lft.to/lastmile_qr_scan"}, "is_reserved": 0}, {"lon": -77.033289, "bike_id": "f09be05224330a976783573291f570f0", "lat": 38.9171275, "fusion_lon": 0.0, "fusion_lat": 0.0, "type": "electric_scooter", "name": "f09be05224330a976783573291f570f0", "is_disabled": 0, "rental_uris": {"ios": "https://dc.lft.to/lastmile_qr_scan", "android": "https://dc.lft.to/lastmile_qr_scan"}, "is_reserved": 0}, {"lon": -77.02428283333333, "bike_id": "c2df8afe783b59d1e4b0a7484f5f2dfe", "lat": 38.914041, "fusion_lon": 0.0, "fusion_lat": 0.0, "type": "electric_scooter", "name": "c2df8afe783b59d1e4b0a7484f5f2dfe", "is_disabled": 0, "rental_uris": {"ios": "https://dc.lft.to/lastmile_qr_scan", "android": "https://dc.lft.to/lastmile_qr_scan"}, "is_reserved": 0}, {"lon": -76.98509966666667, "bike_id": "12351eaac91441d4d2b3ee3f3ad7f166", "lat": 38.866507666666664, "fusion_lon": 0.0, "fusion_lat": 0.0, "type": "electric_scooter", "name": "12351eaac91441d4d2b3ee3f3ad7f166", "is_disabled": 0, "rental_uris": {"ios": "https://dc.lft.to/lastmile_qr_scan", "android": "https://dc.lft.to/lastmile_qr_scan"}, "is_reserved": 0}, {"lon": -77.03845066666666, "bike_id": "021cd6ccae718326f754bd03bcce4a6b", "lat": 38.902700833333334, "fusion_lon": 0.0, "fusion_lat": 0.0, "type": "electric_scooter", "name": "021cd6ccae718326f754bd03bcce4a6b", "is_disabled": 0, "rental_uris": {"ios": "https://dc.lft.to/lastmile_qr_scan", "android": "https://dc.lft.to/lastmile_qr_scan"}, "is_reserved": 0}, {"lon": -77.05034933333333, "bike_id": "743d0112e32193bd08515c0525d1bd86", "lat": 39.03895116666666, "fusion_lon": 0.0, "fusion_lat": 0.0, "type": "electric_bike", "name": "743d0112e32193bd08515c0525d1bd86", "is_disabled": 0, "rental_uris": {"ios": "https://dc.lft.to/lastmile_qr_scan", "android": "https://dc.lft.to/lastmile_qr_scan"}, "is_reserved": 0}, {"lon": -77.02599083333334, "bike_id": "18e271278a7e847ea25776b793f8d431", "lat": 38.9169155, "fusion_lon": 0.0, "fusion_lat": 0.0, "type": "electric_scooter", "name": "18e271278a7e847ea25776b793f8d431", "is_disabled": 0, "rental_uris": {"ios": "https://dc.lft.to/lastmile_qr_scan", "android": "https://dc.lft.to/lastmile_qr_scan"}, "is_reserved": 0}, {"lon": -77.02507283333334, "bike_id": "062a64d9f8e690f3f771082d87605ded", "lat": 38.93965216666667, "fusion_lon": 0.0, "fusion_lat": 0.0, "type": "electric_scooter", "name": "062a64d9f8e690f3f771082d87605ded", "is_disabled": 0, "rental_uris": {"ios": "https://dc.lft.to/lastmile_qr_scan", "android": "https://dc.lft.to/lastmile_qr_scan"}, "is_reserved": 0}, {"lon": -77.02536683333334, "bike_id": "c790236666fc5f988d8a32a2543e0b1c", "lat": 38.90061216666667, "fusion_lon": 0.0, "fusion_lat": 0.0, "type": "electric_scooter", "name": "c790236666fc5f988d8a32a2543e0b1c", "is_disabled": 0, "rental_uris": {"ios": "https://dc.lft.to/lastmile_qr_scan", "android": "https://dc.lft.to/lastmile_qr_scan"}, "is_reserved": 0}, {"lon": -77.0280585, "bike_id": "92799bf92581747d7f1d4f7ff63762c2", "lat": 38.90979733333333, "fusion_lon": 0.0, "fusion_lat": 0.0, "type": "electric_scooter", "name": "92799bf92581747d7f1d4f7ff63762c2", "is_disabled": 0, "rental_uris": {"ios": "https://dc.lft.to/lastmile_qr_scan", "android": "https://dc.lft.to/lastmile_qr_scan"}, "is_reserved": 0}, {"lon": -77.048819, "bike_id": "da89ce99db89904bfeec4048538bde40", "lat": 38.90117266666667, "fusion_lon": 0.0, "fusion_lat": 0.0, "type": "electric_scooter", "name": "da89ce99db89904bfeec4048538bde40", "is_disabled": 0, "rental_uris": {"ios": "https://dc.lft.to/lastmile_qr_scan", "android": "https://dc.lft.to/lastmile_qr_scan"}, "is_reserved": 0}, {"lon": -77.04822, "bike_id": "1cdf001da8eb6798c9f5ba8e5aec363d", "lat": 38.91336, "fusion_lon": 0.0, "fusion_lat": 0.0, "type": "electric_scooter", "name": "1cdf001da8eb6798c9f5ba8e5aec363d", "is_disabled": 0, "rental_uris": {"ios": "https://dc.lft.to/lastmile_qr_scan", "android": "https://dc.lft.to/lastmile_qr_scan"}, "is_reserved": 0}, {"lon": -77.0465085, "bike_id": "f3779d1c09a502497ae7fa60b26ddcd6", "lat": 38.90331466666667, "fusion_lon": 0.0, "fusion_lat": 0.0, "type": "electric_scooter", "name": "f3779d1c09a502497ae7fa60b26ddcd6", "is_disabled": 0, "rental_uris": {"ios": "https://dc.lft.to/lastmile_qr_scan", "android": "https://dc.lft.to/lastmile_qr_scan"}, "is_reserved": 0}, {"lon": -77.04816816666667, "bike_id": "17aaf869428f0fb7339a05166f0781fd", "lat": 38.904772333333334, "fusion_lon": 0.0, "fusion_lat": 0.0, "type": "electric_scooter", "name": "17aaf869428f0fb7339a05166f0781fd", "is_disabled": 0, "rental_uris": {"ios": "https://dc.lft.to/lastmile_qr_scan", "android": "https://dc.lft.to/lastmile_qr_scan"}, "is_reserved": 0}, {"lon": -77.03773716666667, "bike_id": "f41fe51e4861449460d27db8bcded358", "lat": 38.916912833333335, "fusion_lon": 0.0, "fusion_lat": 0.0, "type": "electric_scooter", "name": "f41fe51e4861449460d27db8bcded358", "is_disabled": 0, "rental_uris": {"ios": "https://dc.lft.to/lastmile_qr_scan", "android": "https://dc.lft.to/lastmile_qr_scan"}, "is_reserved": 0}, {"lon": -77.04459683333333, "bike_id": "645ad703aca35f91326c8cbc678522f2", "lat": 38.909681, "fusion_lon": 0.0, "fusion_lat": 0.0, "type": "electric_scooter", "name": "645ad703aca35f91326c8cbc678522f2", "is_disabled": 0, "rental_uris": {"ios": "https://dc.lft.to/lastmile_qr_scan", "android": "https://dc.lft.to/lastmile_qr_scan"}, "is_reserved": 0}, {"lon": -77.00976766666666, "bike_id": "bbc2757f54425349332d80a4cc2ff201", "lat": 38.91183933333333, "fusion_lon": 0.0, "fusion_lat": 0.0, "type": "electric_scooter", "name": "bbc2757f54425349332d80a4cc2ff201", "is_disabled": 0, "rental_uris": {"ios": "https://dc.lft.to/lastmile_qr_scan", "android": "https://dc.lft.to/lastmile_qr_scan"}, "is_reserved": 0}, {"lon": -77.05461133333333, "bike_id": "11d767872dd5c80db977c4cf8b9c8a51", "lat": 38.89786016666667, "fusion_lon": 0.0, "fusion_lat": 0.0, "type": "electric_scooter", "name": "11d767872dd5c80db977c4cf8b9c8a51", "is_disabled": 0, "rental_uris": {"ios": "https://dc.lft.to/lastmile_qr_scan", "android": "https://dc.lft.to/lastmile_qr_scan"}, "is_reserved": 0}, {"lon": -77.0075165, "bike_id": "ef6cc91b795f041934f811e8e07d4927", "lat": 38.900594, "fusion_lon": 0.0, "fusion_lat": 0.0, "type": "electric_scooter", "name": "ef6cc91b795f041934f811e8e07d4927", "is_disabled": 0, "rental_uris": {"ios": "https://dc.lft.to/lastmile_qr_scan", "android": "https://dc.lft.to/lastmile_qr_scan"}, "is_reserved": 0}, {"lon": -77.03337116666667, "bike_id": "47b86d9546445ce603afc204b7ab0d82", "lat": 38.92874716666667, "fusion_lon": 0.0, "fusion_lat": 0.0, "type": "electric_scooter", "name": "47b86d9546445ce603afc204b7ab0d82", "is_disabled": 0, "rental_uris": {"ios": "https://dc.lft.to/lastmile_qr_scan", "android": "https://dc.lft.to/lastmile_qr_scan"}, "is_reserved": 0}, {"lon": -77.0499145, "bike_id": "f3648b96b3c36a53628fb2eb72e5a6ad", "lat": 38.8961, "fusion_lon": 0.0, "fusion_lat": 0.0, "type": "electric_scooter", "name": "f3648b96b3c36a53628fb2eb72e5a6ad", "is_disabled": 0, "rental_uris": {"ios": "https://dc.lft.to/lastmile_qr_scan", "android": "https://dc.lft.to/lastmile_qr_scan"}, "is_reserved": 0}, {"lon": -77.04174083333334, "bike_id": "530a854aafb3120e281526423d2e9f3b", "lat": 38.9165325, "fusion_lon": 0.0, "fusion_lat": 0.0, "type": "electric_scooter", "name": "530a854aafb3120e281526423d2e9f3b", "is_disabled": 0, "rental_uris": {"ios": "https://dc.lft.to/lastmile_qr_scan", "android": "https://dc.lft.to/lastmile_qr_scan"}, "is_reserved": 0}, {"lon": -76.9917545, "bike_id": "22f7356dba518100f6497c0450f1956a", "lat": 38.889923333333336, "fusion_lon": 0.0, "fusion_lat": 0.0, "type": "electric_scooter", "name": "22f7356dba518100f6497c0450f1956a", "is_disabled": 0, "rental_uris": {"ios": "https://dc.lft.to/lastmile_qr_scan", "android": "https://dc.lft.to/lastmile_qr_scan"}, "is_reserved": 0}, {"lon": -76.996512, "bike_id": "519a3e1412139ab6a2ab36286ac57647", "lat": 38.98820833333333, "fusion_lon": 0.0, "fusion_lat": 0.0, "type": "electric_bike", "name": "519a3e1412139ab6a2ab36286ac57647", "is_disabled": 0, "rental_uris": {"ios": "https://dc.lft.to/lastmile_qr_scan", "android": "https://dc.lft.to/lastmile_qr_scan"}, "is_reserved": 0}, {"lon": -77.02095466666667, "bike_id": "6928ad170966563f33c4ba73ca943805", "lat": 38.927091, "fusion_lon": 0.0, "fusion_lat": 0.0, "type": "electric_scooter", "name": "6928ad170966563f33c4ba73ca943805", "is_disabled": 0, "rental_uris": {"ios": "https://dc.lft.to/lastmile_qr_scan", "android": "https://dc.lft.to/lastmile_qr_scan"}, "is_reserved": 0}, {"lon": -77.07594333333333, "bike_id": "e48b3a329da255d381deceb982ecf177", "lat": 38.9121485, "fusion_lon": 0.0, "fusion_lat": 0.0, "type": "electric_scooter", "name": "e48b3a329da255d381deceb982ecf177", "is_disabled": 0, "rental_uris": {"ios": "https://dc.lft.to/lastmile_qr_scan", "android": "https://dc.lft.to/lastmile_qr_scan"}, "is_reserved": 0}, {"lon": -76.97098433333333, "bike_id": "57dc54e9c7ecef3e1bd5a515cc8f1890", "lat": 38.91808066666667, "fusion_lon": 0.0, "fusion_lat": 0.0, "type": "electric_bike", "name": "57dc54e9c7ecef3e1bd5a515cc8f1890", "is_disabled": 0, "rental_uris": {"ios": "https://dc.lft.to/lastmile_qr_scan", "android": "https://dc.lft.to/lastmile_qr_scan"}, "is_reserved": 0}, {"lon": -77.02731783333333, "bike_id": "e82d48266db3051be5d965909f6c566b", "lat": 38.95010166666667, "fusion_lon": 0.0, "fusion_lat": 0.0, "type": "electric_scooter", "name": "e82d48266db3051be5d965909f6c566b", "is_disabled": 0, "rental_uris": {"ios": "https://dc.lft.to/lastmile_qr_scan", "android": "https://dc.lft.to/lastmile_qr_scan"}, "is_reserved": 0}, {"lon": -77.03219283333334, "bike_id": "c88ebe8ff6f9e6c47710c382fb7c7919", "lat": 38.907290833333334, "fusion_lon": 0.0, "fusion_lat": 0.0, "type": "electric_scooter", "name": "c88ebe8ff6f9e6c47710c382fb7c7919", "is_disabled": 0, "rental_uris": {"ios": "https://dc.lft.to/lastmile_qr_scan", "android": "https://dc.lft.to/lastmile_qr_scan"}, "is_reserved": 0}, {"lon": -77.0215795, "bike_id": "a712682b45b5973e105bfd1145d70bf0", "lat": 38.9260295, "fusion_lon": 0.0, "fusion_lat": 0.0, "type": "electric_scooter", "name": "a712682b45b5973e105bfd1145d70bf0", "is_disabled": 0, "rental_uris": {"ios": "https://dc.lft.to/lastmile_qr_scan", "android": "https://dc.lft.to/lastmile_qr_scan"}, "is_reserved": 0}, {"lon": -77.02329016666667, "bike_id": "92e45ed67a28ff93146a27f98b0f8070", "lat": 38.9014685, "fusion_lon": 0.0, "fusion_lat": 0.0, "type": "electric_scooter", "name": "92e45ed67a28ff93146a27f98b0f8070", "is_disabled": 0, "rental_uris": {"ios": "https://dc.lft.to/lastmile_qr_scan", "android": "https://dc.lft.to/lastmile_qr_scan"}, "is_reserved": 0}, {"lon": -77.03560916666666, "bike_id": "0e773aa115cb1d60f9aa91d0667eb7f2", "lat": 38.917115833333334, "fusion_lon": 0.0, "fusion_lat": 0.0, "type": "electric_scooter", "name": "0e773aa115cb1d60f9aa91d0667eb7f2", "is_disabled": 0, "rental_uris": {"ios": "https://dc.lft.to/lastmile_qr_scan", "android": "https://dc.lft.to/lastmile_qr_scan"}, "is_reserved": 0}, {"lon": -77.02408566666666, "bike_id": "906f6de5c02c4b7db292be4921f8620e", "lat": 38.91420633333333, "fusion_lon": 0.0, "fusion_lat": 0.0, "type": "electric_scooter", "name": "906f6de5c02c4b7db292be4921f8620e", "is_disabled": 0, "rental_uris": {"ios": "https://dc.lft.to/lastmile_qr_scan", "android": "https://dc.lft.to/lastmile_qr_scan"}, "is_reserved": 0}, {"lon": -77.02011166666666, "bike_id": "3674eb4ca5a762925a9656fbdc49883b", "lat": 38.9388915, "fusion_lon": 0.0, "fusion_lat": 0.0, "type": "electric_scooter", "name": "3674eb4ca5a762925a9656fbdc49883b", "is_disabled": 0, "rental_uris": {"ios": "https://dc.lft.to/lastmile_qr_scan", "android": "https://dc.lft.to/lastmile_qr_scan"}, "is_reserved": 0}, {"lon": -77.05044233333334, "bike_id": "f7395ed1d91d9b6d21c0e992083a7d3f", "lat": 38.92408316666667, "fusion_lon": 0.0, "fusion_lat": 0.0, "type": "electric_bike", "name": "f7395ed1d91d9b6d21c0e992083a7d3f", "is_disabled": 0, "rental_uris": {"ios": "https://dc.lft.to/lastmile_qr_scan", "android": "https://dc.lft.to/lastmile_qr_scan"}, "is_reserved": 0}, {"lon": -77.04331116666667, "bike_id": "80099f51768c789e3d8e52586f9c83e3", "lat": 38.90688383333333, "fusion_lon": 0.0, "fusion_lat": 0.0, "type": "electric_scooter", "name": "80099f51768c789e3d8e52586f9c83e3", "is_disabled": 0, "rental_uris": {"ios": "https://dc.lft.to/lastmile_qr_scan", "android": "https://dc.lft.to/lastmile_qr_scan"}, "is_reserved": 0}, {"lon": -77.0821065, "bike_id": "e567fe6a2cad4dfd01925bfc5ac7c2c5", "lat": 38.873258, "fusion_lon": 0.0, "fusion_lat": 0.0, "type": "electric_bike", "name": "e567fe6a2cad4dfd01925bfc5ac7c2c5", "is_disabled": 0, "rental_uris": {"ios": "https://dc.lft.to/lastmile_qr_scan", "android": "https://dc.lft.to/lastmile_qr_scan"}, "is_reserved": 0}, {"lon": -76.97838366666667, "bike_id": "76ed1e08d0d9a8e9b5febfb0a30431cf", "lat": 38.89913833333333, "fusion_lon": 0.0, "fusion_lat": 0.0, "type": "electric_scooter", "name": "76ed1e08d0d9a8e9b5febfb0a30431cf", "is_disabled": 0, "rental_uris": {"ios": "https://dc.lft.to/lastmile_qr_scan", "android": "https://dc.lft.to/lastmile_qr_scan"}, "is_reserved": 0}, {"lon": -77.07269333333333, "bike_id": "63720b272cc947b1c56552feda97dfbf", "lat": 38.91154933333333, "fusion_lon": 0.0, "fusion_lat": 0.0, "type": "electric_scooter", "name": "63720b272cc947b1c56552feda97dfbf", "is_disabled": 0, "rental_uris": {"ios": "https://dc.lft.to/lastmile_qr_scan", "android": "https://dc.lft.to/lastmile_qr_scan"}, "is_reserved": 0}, {"lon": -77.0324085, "bike_id": "beda500906131aede3b05f469d736e6d", "lat": 38.925799, "fusion_lon": 0.0, "fusion_lat": 0.0, "type": "electric_scooter", "name": "beda500906131aede3b05f469d736e6d", "is_disabled": 0, "rental_uris": {"ios": "https://dc.lft.to/lastmile_qr_scan", "android": "https://dc.lft.to/lastmile_qr_scan"}, "is_reserved": 0}, {"lon": -77.00560866666666, "bike_id": "e388f27fa676d7dccc9e59ee76e76188", "lat": 38.88048083333334, "fusion_lon": 0.0, "fusion_lat": 0.0, "type": "electric_scooter", "name": "e388f27fa676d7dccc9e59ee76e76188", "is_disabled": 0, "rental_uris": {"ios": "https://dc.lft.to/lastmile_qr_scan", "android": "https://dc.lft.to/lastmile_qr_scan"}, "is_reserved": 0}, {"lon": -77.0385675, "bike_id": "c7740a9432485a7e3a75f10546bf7b50", "lat": 38.912204333333335, "fusion_lon": 0.0, "fusion_lat": 0.0, "type": "electric_scooter", "name": "c7740a9432485a7e3a75f10546bf7b50", "is_disabled": 0, "rental_uris": {"ios": "https://dc.lft.to/lastmile_qr_scan", "android": "https://dc.lft.to/lastmile_qr_scan"}, "is_reserved": 0}, {"lon": -76.895325, "bike_id": "19c7ee7955698fb16da23625e8778c25", "lat": 38.9454865, "fusion_lon": 0.0, "fusion_lat": 0.0, "type": "electric_bike", "name": "19c7ee7955698fb16da23625e8778c25", "is_disabled": 0, "rental_uris": {"ios": "https://dc.lft.to/lastmile_qr_scan", "android": "https://dc.lft.to/lastmile_qr_scan"}, "is_reserved": 0}, {"lon": -77.0273265, "bike_id": "519e302e76b6cfbe27833c7ea85c831a", "lat": 38.940912, "fusion_lon": 0.0, "fusion_lat": 0.0, "type": "electric_scooter", "name": "519e302e76b6cfbe27833c7ea85c831a", "is_disabled": 0, "rental_uris": {"ios": "https://dc.lft.to/lastmile_qr_scan", "android": "https://dc.lft.to/lastmile_qr_scan"}, "is_reserved": 0}, {"lon": -77.04643333333334, "bike_id": "1b9292da525d2a614ae80afe6e9c6a5c", "lat": 38.903149166666665, "fusion_lon": 0.0, "fusion_lat": 0.0, "type": "electric_scooter", "name": "1b9292da525d2a614ae80afe6e9c6a5c", "is_disabled": 0, "rental_uris": {"ios": "https://dc.lft.to/lastmile_qr_scan", "android": "https://dc.lft.to/lastmile_qr_scan"}, "is_reserved": 0}, {"lon": -77.05595383333333, "bike_id": "10fdbff874b8bc4bb203a949cf57d5b0", "lat": 38.916177166666664, "fusion_lon": 0.0, "fusion_lat": 0.0, "type": "electric_scooter", "name": "10fdbff874b8bc4bb203a949cf57d5b0", "is_disabled": 0, "rental_uris": {"ios": "https://dc.lft.to/lastmile_qr_scan", "android": "https://dc.lft.to/lastmile_qr_scan"}, "is_reserved": 0}, {"lon": -76.9176185, "bike_id": "4bd6a91def089072e11ea55af7cee71e", "lat": 38.88836166666667, "fusion_lon": 0.0, "fusion_lat": 0.0, "type": "electric_scooter", "name": "4bd6a91def089072e11ea55af7cee71e", "is_disabled": 0, "rental_uris": {"ios": "https://dc.lft.to/lastmile_qr_scan", "android": "https://dc.lft.to/lastmile_qr_scan"}, "is_reserved": 0}, {"lon": -77.074781, "bike_id": "06143b827d459e68f2c8db52851cf90a", "lat": 38.9631015, "fusion_lon": 0.0, "fusion_lat": 0.0, "type": "electric_scooter", "name": "06143b827d459e68f2c8db52851cf90a", "is_disabled": 0, "rental_uris": {"ios": "https://dc.lft.to/lastmile_qr_scan", "android": "https://dc.lft.to/lastmile_qr_scan"}, "is_reserved": 0}, {"lon": -77.06139916666666, "bike_id": "31d9e2d20f0d3b6e789d7bfb71d5bb4d", "lat": 38.90528416666667, "fusion_lon": 0.0, "fusion_lat": 0.0, "type": "electric_scooter", "name": "31d9e2d20f0d3b6e789d7bfb71d5bb4d", "is_disabled": 0, "rental_uris": {"ios": "https://dc.lft.to/lastmile_qr_scan", "android": "https://dc.lft.to/lastmile_qr_scan"}, "is_reserved": 0}, {"lon": -76.9742185, "bike_id": "dc5151d6351c17dce219bb3b5b69c521", "lat": 38.86413016666667, "fusion_lon": 0.0, "fusion_lat": 0.0, "type": "electric_bike", "name": "dc5151d6351c17dce219bb3b5b69c521", "is_disabled": 0, "rental_uris": {"ios": "https://dc.lft.to/lastmile_qr_scan", "android": "https://dc.lft.to/lastmile_qr_scan"}, "is_reserved": 0}, {"lon": -77.0946755, "bike_id": "24b0b06c6868cce04d5e6e8de4e39779", "lat": 38.80759033333333, "fusion_lon": 0.0, "fusion_lat": 0.0, "type": "electric_bike", "name": "24b0b06c6868cce04d5e6e8de4e39779", "is_disabled": 0, "rental_uris": {"ios": "https://dc.lft.to/lastmile_qr_scan", "android": "https://dc.lft.to/lastmile_qr_scan"}, "is_reserved": 0}, {"lon": -77.0232675, "bike_id": "428a10669c7b2ab489d4de6f22c1afac", "lat": 38.908665666666664, "fusion_lon": 0.0, "fusion_lat": 0.0, "type": "electric_scooter", "name": "428a10669c7b2ab489d4de6f22c1afac", "is_disabled": 0, "rental_uris": {"ios": "https://dc.lft.to/lastmile_qr_scan", "android": "https://dc.lft.to/lastmile_qr_scan"}, "is_reserved": 0}, {"lon": -77.02212333333334, "bike_id": "abae51b871e4706ff6e3da9c094c45c2", "lat": 38.8997525, "fusion_lon": 0.0, "fusion_lat": 0.0, "type": "electric_scooter", "name": "abae51b871e4706ff6e3da9c094c45c2", "is_disabled": 0, "rental_uris": {"ios": "https://dc.lft.to/lastmile_qr_scan", "android": "https://dc.lft.to/lastmile_qr_scan"}, "is_reserved": 0}, {"lon": -76.99473333333333, "bike_id": "b252e1d333444303337ccab30fecd811", "lat": 38.88433633333333, "fusion_lon": 0.0, "fusion_lat": 0.0, "type": "electric_scooter", "name": "b252e1d333444303337ccab30fecd811", "is_disabled": 0, "rental_uris": {"ios": "https://dc.lft.to/lastmile_qr_scan", "android": "https://dc.lft.to/lastmile_qr_scan"}, "is_reserved": 0}, {"lon": -77.036529, "bike_id": "4286e1af4f79ac460f55c9eef7805309", "lat": 38.922995666666665, "fusion_lon": 0.0, "fusion_lat": 0.0, "type": "electric_scooter", "name": "4286e1af4f79ac460f55c9eef7805309", "is_disabled": 0, "rental_uris": {"ios": "https://dc.lft.to/lastmile_qr_scan", "android": "https://dc.lft.to/lastmile_qr_scan"}, "is_reserved": 0}, {"lon": -77.05143516666666, "bike_id": "d40449a000aa8b0a2bfa7a97ff0d5a9d", "lat": 38.905151000000004, "fusion_lon": 0.0, "fusion_lat": 0.0, "type": "electric_scooter", "name": "d40449a000aa8b0a2bfa7a97ff0d5a9d", "is_disabled": 0, "rental_uris": {"ios": "https://dc.lft.to/lastmile_qr_scan", "android": "https://dc.lft.to/lastmile_qr_scan"}, "is_reserved": 0}, {"lon": -77.03547916666666, "bike_id": "351fcb740a8df8c20d5d85d73b146c7a", "lat": 38.9183425, "fusion_lon": 0.0, "fusion_lat": 0.0, "type": "electric_scooter", "name": "351fcb740a8df8c20d5d85d73b146c7a", "is_disabled": 0, "rental_uris": {"ios": "https://dc.lft.to/lastmile_qr_scan", "android": "https://dc.lft.to/lastmile_qr_scan"}, "is_reserved": 0}, {"lon": -77.00930816666667, "bike_id": "cfb49df6566ed34dddb912402ff51a40", "lat": 38.89604816666667, "fusion_lon": 0.0, "fusion_lat": 0.0, "type": "electric_scooter", "name": "cfb49df6566ed34dddb912402ff51a40", "is_disabled": 0, "rental_uris": {"ios": "https://dc.lft.to/lastmile_qr_scan", "android": "https://dc.lft.to/lastmile_qr_scan"}, "is_reserved": 0}, {"lon": -77.04159816666666, "bike_id": "82e69ddbf8dd44c2692faedd3250fb3d", "lat": 38.91486233333333, "fusion_lon": 0.0, "fusion_lat": 0.0, "type": "electric_scooter", "name": "82e69ddbf8dd44c2692faedd3250fb3d", "is_disabled": 0, "rental_uris": {"ios": "https://dc.lft.to/lastmile_qr_scan", "android": "https://dc.lft.to/lastmile_qr_scan"}, "is_reserved": 0}, {"lon": -77.02416766666667, "bike_id": "8dedc3fe6ee1f283694f2ccafd4c3fb2", "lat": 38.93510883333333, "fusion_lon": 0.0, "fusion_lat": 0.0, "type": "electric_scooter", "name": "8dedc3fe6ee1f283694f2ccafd4c3fb2", "is_disabled": 0, "rental_uris": {"ios": "https://dc.lft.to/lastmile_qr_scan", "android": "https://dc.lft.to/lastmile_qr_scan"}, "is_reserved": 0}, {"lon": -77.01400033333333, "bike_id": "db8b773901d3e501771872dd9779afaa", "lat": 38.928289166666666, "fusion_lon": 0.0, "fusion_lat": 0.0, "type": "electric_scooter", "name": "db8b773901d3e501771872dd9779afaa", "is_disabled": 0, "rental_uris": {"ios": "https://dc.lft.to/lastmile_qr_scan", "android": "https://dc.lft.to/lastmile_qr_scan"}, "is_reserved": 0}, {"lon": -77.0416775, "bike_id": "93bdf3b71b3f7f2e007b0c45e4ff71e9", "lat": 38.905225, "fusion_lon": 0.0, "fusion_lat": 0.0, "type": "electric_scooter", "name": "93bdf3b71b3f7f2e007b0c45e4ff71e9", "is_disabled": 0, "rental_uris": {"ios": "https://dc.lft.to/lastmile_qr_scan", "android": "https://dc.lft.to/lastmile_qr_scan"}, "is_reserved": 0}, {"lon": -77.0593715, "bike_id": "53a97790ec8b3f337ff6085057a369e0", "lat": 38.91240833333333, "fusion_lon": 0.0, "fusion_lat": 0.0, "type": "electric_scooter", "name": "53a97790ec8b3f337ff6085057a369e0", "is_disabled": 0, "rental_uris": {"ios": "https://dc.lft.to/lastmile_qr_scan", "android": "https://dc.lft.to/lastmile_qr_scan"}, "is_reserved": 0}, {"lon": -77.008272, "bike_id": "7a8d08b9e12b916ffb1a8494fff32e81", "lat": 38.91307416666667, "fusion_lon": 0.0, "fusion_lat": 0.0, "type": "electric_scooter", "name": "7a8d08b9e12b916ffb1a8494fff32e81", "is_disabled": 0, "rental_uris": {"ios": "https://dc.lft.to/lastmile_qr_scan", "android": "https://dc.lft.to/lastmile_qr_scan"}, "is_reserved": 0}, {"lon": -77.04691, "bike_id": "a4f218f94cf807e2ab9601c725866db3", "lat": 38.903697333333334, "fusion_lon": 0.0, "fusion_lat": 0.0, "type": "electric_scooter", "name": "a4f218f94cf807e2ab9601c725866db3", "is_disabled": 0, "rental_uris": {"ios": "https://dc.lft.to/lastmile_qr_scan", "android": "https://dc.lft.to/lastmile_qr_scan"}, "is_reserved": 0}, {"lon": -76.99714466666667, "bike_id": "c7eb7047161598a23533538848ea7234", "lat": 38.91101866666666, "fusion_lon": 0.0, "fusion_lat": 0.0, "type": "electric_scooter", "name": "c7eb7047161598a23533538848ea7234", "is_disabled": 0, "rental_uris": {"ios": "https://dc.lft.to/lastmile_qr_scan", "android": "https://dc.lft.to/lastmile_qr_scan"}, "is_reserved": 0}, {"lon": -77.10915316666667, "bike_id": "c519fa9876e32ebd2ee41f05bf606be8", "lat": 39.05198683333333, "fusion_lon": 0.0, "fusion_lat": 0.0, "type": "electric_bike", "name": "c519fa9876e32ebd2ee41f05bf606be8", "is_disabled": 0, "rental_uris": {"ios": "https://dc.lft.to/lastmile_qr_scan", "android": "https://dc.lft.to/lastmile_qr_scan"}, "is_reserved": 0}, {"lon": -76.93001416666667, "bike_id": "d9be54669875359e1e792ee08ae041f4", "lat": 38.90184716666667, "fusion_lon": 0.0, "fusion_lat": 0.0, "type": "electric_scooter", "name": "d9be54669875359e1e792ee08ae041f4", "is_disabled": 0, "rental_uris": {"ios": "https://dc.lft.to/lastmile_qr_scan", "android": "https://dc.lft.to/lastmile_qr_scan"}, "is_reserved": 0}, {"lon": -77.02690133333333, "bike_id": "1093294f075cb6db274a030955c159fc", "lat": 38.8980275, "fusion_lon": 0.0, "fusion_lat": 0.0, "type": "electric_scooter", "name": "1093294f075cb6db274a030955c159fc", "is_disabled": 0, "rental_uris": {"ios": "https://dc.lft.to/lastmile_qr_scan", "android": "https://dc.lft.to/lastmile_qr_scan"}, "is_reserved": 0}, {"lon": -77.03467516666667, "bike_id": "5234f5c975adc1c5696b34801a06170c", "lat": 38.9642955, "fusion_lon": 0.0, "fusion_lat": 0.0, "type": "electric_bike", "name": "5234f5c975adc1c5696b34801a06170c", "is_disabled": 0, "rental_uris": {"ios": "https://dc.lft.to/lastmile_qr_scan", "android": "https://dc.lft.to/lastmile_qr_scan"}, "is_reserved": 0}, {"lon": -77.04824016666667, "bike_id": "98cfbeb2416a2c1970e0a2e0b7ff4f35", "lat": 38.904907666666666, "fusion_lon": 0.0, "fusion_lat": 0.0, "type": "electric_scooter", "name": "98cfbeb2416a2c1970e0a2e0b7ff4f35", "is_disabled": 0, "rental_uris": {"ios": "https://dc.lft.to/lastmile_qr_scan", "android": "https://dc.lft.to/lastmile_qr_scan"}, "is_reserved": 0}, {"lon": -77.02117816666667, "bike_id": "253bd2b5a2570ce1ddcad256444423ee", "lat": 38.91739033333333, "fusion_lon": 0.0, "fusion_lat": 0.0, "type": "electric_scooter", "name": "253bd2b5a2570ce1ddcad256444423ee", "is_disabled": 0, "rental_uris": {"ios": "https://dc.lft.to/lastmile_qr_scan", "android": "https://dc.lft.to/lastmile_qr_scan"}, "is_reserved": 0}, {"lon": -77.04186133333333, "bike_id": "988d0c13369bb60881130eb3cddd6678", "lat": 38.903557666666664, "fusion_lon": 0.0, "fusion_lat": 0.0, "type": "electric_scooter", "name": "988d0c13369bb60881130eb3cddd6678", "is_disabled": 0, "rental_uris": {"ios": "https://dc.lft.to/lastmile_qr_scan", "android": "https://dc.lft.to/lastmile_qr_scan"}, "is_reserved": 0}, {"lon": -77.02816533333333, "bike_id": "11cabddf33c203e8be05d8a5ec9eeca2", "lat": 38.881776333333335, "fusion_lon": 0.0, "fusion_lat": 0.0, "type": "electric_scooter", "name": "11cabddf33c203e8be05d8a5ec9eeca2", "is_disabled": 0, "rental_uris": {"ios": "https://dc.lft.to/lastmile_qr_scan", "android": "https://dc.lft.to/lastmile_qr_scan"}, "is_reserved": 0}, {"lon": -77.01120766666666, "bike_id": "2f1b1ca238e814d2a6764b72f5519d60", "lat": 38.8855045, "fusion_lon": 0.0, "fusion_lat": 0.0, "type": "electric_scooter", "name": "2f1b1ca238e814d2a6764b72f5519d60", "is_disabled": 0, "rental_uris": {"ios": "https://dc.lft.to/lastmile_qr_scan", "android": "https://dc.lft.to/lastmile_qr_scan"}, "is_reserved": 0}, {"lon": -76.9900475, "bike_id": "c9d272ac7341cabe140d38afe34d1dec", "lat": 38.86437383333333, "fusion_lon": 0.0, "fusion_lat": 0.0, "type": "electric_scooter", "name": "c9d272ac7341cabe140d38afe34d1dec", "is_disabled": 0, "rental_uris": {"ios": "https://dc.lft.to/lastmile_qr_scan", "android": "https://dc.lft.to/lastmile_qr_scan"}, "is_reserved": 0}, {"lon": -77.012206, "bike_id": "f5a415a28aa73229635f1cbe2163938a", "lat": 38.91438083333333, "fusion_lon": 0.0, "fusion_lat": 0.0, "type": "electric_scooter", "name": "f5a415a28aa73229635f1cbe2163938a", "is_disabled": 0, "rental_uris": {"ios": "https://dc.lft.to/lastmile_qr_scan", "android": "https://dc.lft.to/lastmile_qr_scan"}, "is_reserved": 0}, {"lon": -77.032031, "bike_id": "3ecb43decfa18ff65336d983b34dc8de", "lat": 38.91799116666667, "fusion_lon": 0.0, "fusion_lat": 0.0, "type": "electric_scooter", "name": "3ecb43decfa18ff65336d983b34dc8de", "is_disabled": 0, "rental_uris": {"ios": "https://dc.lft.to/lastmile_qr_scan", "android": "https://dc.lft.to/lastmile_qr_scan"}, "is_reserved": 0}, {"lon": -77.02958933333333, "bike_id": "8904df620329e65b2b383069e970885d", "lat": 38.92381366666667, "fusion_lon": 0.0, "fusion_lat": 0.0, "type": "electric_scooter", "name": "8904df620329e65b2b383069e970885d", "is_disabled": 0, "rental_uris": {"ios": "https://dc.lft.to/lastmile_qr_scan", "android": "https://dc.lft.to/lastmile_qr_scan"}, "is_reserved": 0}, {"lon": -77.00337516666667, "bike_id": "b51c5c573e8c327a4f67419d82b441b4", "lat": 38.893542833333335, "fusion_lon": 0.0, "fusion_lat": 0.0, "type": "electric_scooter", "name": "b51c5c573e8c327a4f67419d82b441b4", "is_disabled": 0, "rental_uris": {"ios": "https://dc.lft.to/lastmile_qr_scan", "android": "https://dc.lft.to/lastmile_qr_scan"}, "is_reserved": 0}, {"lon": -77.027901, "bike_id": "b8e1946b229e3c99fa851cc8da2ea557", "lat": 38.91231716666667, "fusion_lon": 0.0, "fusion_lat": 0.0, "type": "electric_scooter", "name": "b8e1946b229e3c99fa851cc8da2ea557", "is_disabled": 0, "rental_uris": {"ios": "https://dc.lft.to/lastmile_qr_scan", "android": "https://dc.lft.to/lastmile_qr_scan"}, "is_reserved": 0}, {"lon": -76.97397133333334, "bike_id": "f82647ca72fedf8011d9ec80709ae500", "lat": 38.90299516666666, "fusion_lon": 0.0, "fusion_lat": 0.0, "type": "electric_scooter", "name": "f82647ca72fedf8011d9ec80709ae500", "is_disabled": 0, "rental_uris": {"ios": "https://dc.lft.to/lastmile_qr_scan", "android": "https://dc.lft.to/lastmile_qr_scan"}, "is_reserved": 0}, {"lon": -77.01816166666667, "bike_id": "db5afaafbeff4104183c889a86becfde", "lat": 38.930425666666665, "fusion_lon": 0.0, "fusion_lat": 0.0, "type": "electric_scooter", "name": "db5afaafbeff4104183c889a86becfde", "is_disabled": 0, "rental_uris": {"ios": "https://dc.lft.to/lastmile_qr_scan", "android": "https://dc.lft.to/lastmile_qr_scan"}, "is_reserved": 0}, {"lon": -77.02458916666667, "bike_id": "d9df090b49398972a097b675ea0f24f9", "lat": 38.937114333333334, "fusion_lon": 0.0, "fusion_lat": 0.0, "type": "electric_scooter", "name": "d9df090b49398972a097b675ea0f24f9", "is_disabled": 0, "rental_uris": {"ios": "https://dc.lft.to/lastmile_qr_scan", "android": "https://dc.lft.to/lastmile_qr_scan"}, "is_reserved": 0}, {"lon": -77.03909166666666, "bike_id": "ced24cead78c9f164bd461eadfee6511", "lat": 38.918695666666665, "fusion_lon": 0.0, "fusion_lat": 0.0, "type": "electric_scooter", "name": "ced24cead78c9f164bd461eadfee6511", "is_disabled": 0, "rental_uris": {"ios": "https://dc.lft.to/lastmile_qr_scan", "android": "https://dc.lft.to/lastmile_qr_scan"}, "is_reserved": 0}, {"lon": -77.05566133333333, "bike_id": "ef4f99ac1f6c55a7a54416759f6b2c2e", "lat": 38.908439666666666, "fusion_lon": 0.0, "fusion_lat": 0.0, "type": "electric_scooter", "name": "ef4f99ac1f6c55a7a54416759f6b2c2e", "is_disabled": 0, "rental_uris": {"ios": "https://dc.lft.to/lastmile_qr_scan", "android": "https://dc.lft.to/lastmile_qr_scan"}, "is_reserved": 0}, {"lon": -77.000575, "bike_id": "ef50b6ba6a1329af347fb4d3501ffe8f", "lat": 38.90010916666667, "fusion_lon": 0.0, "fusion_lat": 0.0, "type": "electric_scooter", "name": "ef50b6ba6a1329af347fb4d3501ffe8f", "is_disabled": 0, "rental_uris": {"ios": "https://dc.lft.to/lastmile_qr_scan", "android": "https://dc.lft.to/lastmile_qr_scan"}, "is_reserved": 0}, {"lon": -77.07418633333333, "bike_id": "21d27b96d9ec14111c89ae738e77cc44", "lat": 38.9289135, "fusion_lon": 0.0, "fusion_lat": 0.0, "type": "electric_scooter", "name": "21d27b96d9ec14111c89ae738e77cc44", "is_disabled": 0, "rental_uris": {"ios": "https://dc.lft.to/lastmile_qr_scan", "android": "https://dc.lft.to/lastmile_qr_scan"}, "is_reserved": 0}, {"lon": -77.0393865, "bike_id": "9d07d575f3b9b71d3461df685ed39206", "lat": 38.915674833333334, "fusion_lon": 0.0, "fusion_lat": 0.0, "type": "electric_scooter", "name": "9d07d575f3b9b71d3461df685ed39206", "is_disabled": 0, "rental_uris": {"ios": "https://dc.lft.to/lastmile_qr_scan", "android": "https://dc.lft.to/lastmile_qr_scan"}, "is_reserved": 0}, {"lon": -76.98924783333334, "bike_id": "64829df14589a192a9fb620c212986b2", "lat": 38.86479816666667, "fusion_lon": 0.0, "fusion_lat": 0.0, "type": "electric_scooter", "name": "64829df14589a192a9fb620c212986b2", "is_disabled": 0, "rental_uris": {"ios": "https://dc.lft.to/lastmile_qr_scan", "android": "https://dc.lft.to/lastmile_qr_scan"}, "is_reserved": 0}, {"lon": -76.93485033333333, "bike_id": "94f647df0202dfae4cd6e9c631512cf4", "lat": 38.905831166666665, "fusion_lon": 0.0, "fusion_lat": 0.0, "type": "electric_scooter", "name": "94f647df0202dfae4cd6e9c631512cf4", "is_disabled": 0, "rental_uris": {"ios": "https://dc.lft.to/lastmile_qr_scan", "android": "https://dc.lft.to/lastmile_qr_scan"}, "is_reserved": 0}, {"lon": -77.0228545, "bike_id": "532b466bd6ec7dbf8c8bdafe3ad4e047", "lat": 38.9162235, "fusion_lon": 0.0, "fusion_lat": 0.0, "type": "electric_scooter", "name": "532b466bd6ec7dbf8c8bdafe3ad4e047", "is_disabled": 0, "rental_uris": {"ios": "https://dc.lft.to/lastmile_qr_scan", "android": "https://dc.lft.to/lastmile_qr_scan"}, "is_reserved": 0}, {"lon": -77.03830216666667, "bike_id": "08bb7d7efcdcfc51a0f0121cbacc8c0f", "lat": 38.902776, "fusion_lon": 0.0, "fusion_lat": 0.0, "type": "electric_scooter", "name": "08bb7d7efcdcfc51a0f0121cbacc8c0f", "is_disabled": 0, "rental_uris": {"ios": "https://dc.lft.to/lastmile_qr_scan", "android": "https://dc.lft.to/lastmile_qr_scan"}, "is_reserved": 0}, {"lon": -76.94597633333333, "bike_id": "1c50cfe25a8fe1f47a0e62b5286b289e", "lat": 38.90150233333333, "fusion_lon": 0.0, "fusion_lat": 0.0, "type": "electric_scooter", "name": "1c50cfe25a8fe1f47a0e62b5286b289e", "is_disabled": 0, "rental_uris": {"ios": "https://dc.lft.to/lastmile_qr_scan", "android": "https://dc.lft.to/lastmile_qr_scan"}, "is_reserved": 0}, {"lon": -77.03992583333333, "bike_id": "5224f716a701c56d304815fe8f15a390", "lat": 38.934309, "fusion_lon": 0.0, "fusion_lat": 0.0, "type": "electric_scooter", "name": "5224f716a701c56d304815fe8f15a390", "is_disabled": 0, "rental_uris": {"ios": "https://dc.lft.to/lastmile_qr_scan", "android": "https://dc.lft.to/lastmile_qr_scan"}, "is_reserved": 0}, {"lon": -77.02616883333333, "bike_id": "7c133e7871df0836e65720690c01c2d8", "lat": 38.8981115, "fusion_lon": 0.0, "fusion_lat": 0.0, "type": "electric_scooter", "name": "7c133e7871df0836e65720690c01c2d8", "is_disabled": 0, "rental_uris": {"ios": "https://dc.lft.to/lastmile_qr_scan", "android": "https://dc.lft.to/lastmile_qr_scan"}, "is_reserved": 0}, {"lon": -77.09042216666667, "bike_id": "165e581962ac873a8c4a17bfb46f54af", "lat": 38.8497015, "fusion_lon": 0.0, "fusion_lat": 0.0, "type": "electric_bike", "name": "165e581962ac873a8c4a17bfb46f54af", "is_disabled": 0, "rental_uris": {"ios": "https://dc.lft.to/lastmile_qr_scan", "android": "https://dc.lft.to/lastmile_qr_scan"}, "is_reserved": 0}, {"lon": -76.98016933333334, "bike_id": "dd15943ee56cfc4e1af2ded93c78a6ed", "lat": 38.90077383333333, "fusion_lon": 0.0, "fusion_lat": 0.0, "type": "electric_scooter", "name": "dd15943ee56cfc4e1af2ded93c78a6ed", "is_disabled": 0, "rental_uris": {"ios": "https://dc.lft.to/lastmile_qr_scan", "android": "https://dc.lft.to/lastmile_qr_scan"}, "is_reserved": 0}, {"lon": -77.02828183333334, "bike_id": "21211f9b24290da3584dede87d2d7eda", "lat": 38.90256516666667, "fusion_lon": 0.0, "fusion_lat": 0.0, "type": "electric_scooter", "name": "21211f9b24290da3584dede87d2d7eda", "is_disabled": 0, "rental_uris": {"ios": "https://dc.lft.to/lastmile_qr_scan", "android": "https://dc.lft.to/lastmile_qr_scan"}, "is_reserved": 0}, {"lon": -77.02304033333333, "bike_id": "1ee29a5a72cc034bc97e99af4d935942", "lat": 38.928399666666664, "fusion_lon": 0.0, "fusion_lat": 0.0, "type": "electric_scooter", "name": "1ee29a5a72cc034bc97e99af4d935942", "is_disabled": 0, "rental_uris": {"ios": "https://dc.lft.to/lastmile_qr_scan", "android": "https://dc.lft.to/lastmile_qr_scan"}, "is_reserved": 0}, {"lon": -77.02496183333334, "bike_id": "4307543f2b6edb42d52d8b3b4a04bc75", "lat": 38.91802216666667, "fusion_lon": 0.0, "fusion_lat": 0.0, "type": "electric_scooter", "name": "4307543f2b6edb42d52d8b3b4a04bc75", "is_disabled": 0, "rental_uris": {"ios": "https://dc.lft.to/lastmile_qr_scan", "android": "https://dc.lft.to/lastmile_qr_scan"}, "is_reserved": 0}, {"lon": -77.03311183333334, "bike_id": "300f71a883f1efa3375ff6682cd00e51", "lat": 38.956177833333335, "fusion_lon": 0.0, "fusion_lat": 0.0, "type": "electric_scooter", "name": "300f71a883f1efa3375ff6682cd00e51", "is_disabled": 0, "rental_uris": {"ios": "https://dc.lft.to/lastmile_qr_scan", "android": "https://dc.lft.to/lastmile_qr_scan"}, "is_reserved": 0}, {"lon": -77.075032, "bike_id": "8d0c5e327b24d914cd6e42df09d45186", "lat": 38.8945745, "fusion_lon": 0.0, "fusion_lat": 0.0, "type": "electric_scooter", "name": "8d0c5e327b24d914cd6e42df09d45186", "is_disabled": 0, "rental_uris": {"ios": "https://dc.lft.to/lastmile_qr_scan", "android": "https://dc.lft.to/lastmile_qr_scan"}, "is_reserved": 0}, {"lon": -77.0240665, "bike_id": "dbcea041c73c0179c9bc0a3364939f10", "lat": 38.915236, "fusion_lon": 0.0, "fusion_lat": 0.0, "type": "electric_scooter", "name": "dbcea041c73c0179c9bc0a3364939f10", "is_disabled": 0, "rental_uris": {"ios": "https://dc.lft.to/lastmile_qr_scan", "android": "https://dc.lft.to/lastmile_qr_scan"}, "is_reserved": 0}, {"lon": -77.00028716666667, "bike_id": "64c063f51f1a005cb53e6d6fb83d3502", "lat": 38.873974833333335, "fusion_lon": 0.0, "fusion_lat": 0.0, "type": "electric_scooter", "name": "64c063f51f1a005cb53e6d6fb83d3502", "is_disabled": 0, "rental_uris": {"ios": "https://dc.lft.to/lastmile_qr_scan", "android": "https://dc.lft.to/lastmile_qr_scan"}, "is_reserved": 0}, {"lon": -77.125262, "bike_id": "b1c85bc9a8cfd63be61702765aa2337f", "lat": 39.056349833333336, "fusion_lon": 0.0, "fusion_lat": 0.0, "type": "electric_bike", "name": "b1c85bc9a8cfd63be61702765aa2337f", "is_disabled": 0, "rental_uris": {"ios": "https://dc.lft.to/lastmile_qr_scan", "android": "https://dc.lft.to/lastmile_qr_scan"}, "is_reserved": 0}, {"lon": -77.03176133333334, "bike_id": "4d0ce5e6822abf096cd13bdac5a9d5ed", "lat": 38.90961133333333, "fusion_lon": 0.0, "fusion_lat": 0.0, "type": "electric_scooter", "name": "4d0ce5e6822abf096cd13bdac5a9d5ed", "is_disabled": 0, "rental_uris": {"ios": "https://dc.lft.to/lastmile_qr_scan", "android": "https://dc.lft.to/lastmile_qr_scan"}, "is_reserved": 0}, {"lon": -77.03249016666666, "bike_id": "ede0489ac47ca404ce92d00e8370d52d", "lat": 38.9096785, "fusion_lon": 0.0, "fusion_lat": 0.0, "type": "electric_scooter", "name": "ede0489ac47ca404ce92d00e8370d52d", "is_disabled": 0, "rental_uris": {"ios": "https://dc.lft.to/lastmile_qr_scan", "android": "https://dc.lft.to/lastmile_qr_scan"}, "is_reserved": 0}, {"lon": -76.99142266666667, "bike_id": "23d65192aa8c61d8584a9f15fdb826a2", "lat": 38.9012195, "fusion_lon": 0.0, "fusion_lat": 0.0, "type": "electric_scooter", "name": "23d65192aa8c61d8584a9f15fdb826a2", "is_disabled": 0, "rental_uris": {"ios": "https://dc.lft.to/lastmile_qr_scan", "android": "https://dc.lft.to/lastmile_qr_scan"}, "is_reserved": 0}, {"lon": -77.02602683333333, "bike_id": "5ff92ec980e9e9115e898d590add6be3", "lat": 38.90744216666667, "fusion_lon": 0.0, "fusion_lat": 0.0, "type": "electric_scooter", "name": "5ff92ec980e9e9115e898d590add6be3", "is_disabled": 0, "rental_uris": {"ios": "https://dc.lft.to/lastmile_qr_scan", "android": "https://dc.lft.to/lastmile_qr_scan"}, "is_reserved": 0}, {"lon": -77.024319, "bike_id": "8c1df51ae0dab174fe5e66801dbab35a", "lat": 38.92061316666667, "fusion_lon": 0.0, "fusion_lat": 0.0, "type": "electric_scooter", "name": "8c1df51ae0dab174fe5e66801dbab35a", "is_disabled": 0, "rental_uris": {"ios": "https://dc.lft.to/lastmile_qr_scan", "android": "https://dc.lft.to/lastmile_qr_scan"}, "is_reserved": 0}, {"lon": -77.03256, "bike_id": "96b6c827081fd105304c28425633e3ac", "lat": 38.902437, "fusion_lon": 0.0, "fusion_lat": 0.0, "type": "electric_scooter", "name": "96b6c827081fd105304c28425633e3ac", "is_disabled": 0, "rental_uris": {"ios": "https://dc.lft.to/lastmile_qr_scan", "android": "https://dc.lft.to/lastmile_qr_scan"}, "is_reserved": 0}, {"lon": -77.04991916666667, "bike_id": "fd92c7c5c5159ecf83664a5e61377d63", "lat": 38.8973075, "fusion_lon": 0.0, "fusion_lat": 0.0, "type": "electric_scooter", "name": "fd92c7c5c5159ecf83664a5e61377d63", "is_disabled": 0, "rental_uris": {"ios": "https://dc.lft.to/lastmile_qr_scan", "android": "https://dc.lft.to/lastmile_qr_scan"}, "is_reserved": 0}, {"lon": -76.97629983333333, "bike_id": "9593083ab15eeaed65411d78e63110dc", "lat": 38.905660833333336, "fusion_lon": 0.0, "fusion_lat": 0.0, "type": "electric_scooter", "name": "9593083ab15eeaed65411d78e63110dc", "is_disabled": 0, "rental_uris": {"ios": "https://dc.lft.to/lastmile_qr_scan", "android": "https://dc.lft.to/lastmile_qr_scan"}, "is_reserved": 0}, {"lon": -77.00397166666667, "bike_id": "ebd389384cd6c6297cdf5f8cae749bb2", "lat": 38.87666216666667, "fusion_lon": 0.0, "fusion_lat": 0.0, "type": "electric_bike", "name": "ebd389384cd6c6297cdf5f8cae749bb2", "is_disabled": 0, "rental_uris": {"ios": "https://dc.lft.to/lastmile_qr_scan", "android": "https://dc.lft.to/lastmile_qr_scan"}, "is_reserved": 0}, {"lon": -77.03045, "bike_id": "0325762a7b2b6ddb8875bef644569896", "lat": 38.91335983333333, "fusion_lon": 0.0, "fusion_lat": 0.0, "type": "electric_scooter", "name": "0325762a7b2b6ddb8875bef644569896", "is_disabled": 0, "rental_uris": {"ios": "https://dc.lft.to/lastmile_qr_scan", "android": "https://dc.lft.to/lastmile_qr_scan"}, "is_reserved": 0}, {"lon": -76.99816583333333, "bike_id": "183a0500160237a2d6793c7cb5f6e0f5", "lat": 38.90726766666667, "fusion_lon": 0.0, "fusion_lat": 0.0, "type": "electric_scooter", "name": "183a0500160237a2d6793c7cb5f6e0f5", "is_disabled": 0, "rental_uris": {"ios": "https://dc.lft.to/lastmile_qr_scan", "android": "https://dc.lft.to/lastmile_qr_scan"}, "is_reserved": 0}, {"lon": -77.04391016666666, "bike_id": "fb5bf6cfa3eaac0903437316144a7d63", "lat": 38.90923983333333, "fusion_lon": 0.0, "fusion_lat": 0.0, "type": "electric_scooter", "name": "fb5bf6cfa3eaac0903437316144a7d63", "is_disabled": 0, "rental_uris": {"ios": "https://dc.lft.to/lastmile_qr_scan", "android": "https://dc.lft.to/lastmile_qr_scan"}, "is_reserved": 0}, {"lon": -76.967785, "bike_id": "1239534341ba741aba8330168bef4e59", "lat": 38.873403833333334, "fusion_lon": 0.0, "fusion_lat": 0.0, "type": "electric_scooter", "name": "1239534341ba741aba8330168bef4e59", "is_disabled": 0, "rental_uris": {"ios": "https://dc.lft.to/lastmile_qr_scan", "android": "https://dc.lft.to/lastmile_qr_scan"}, "is_reserved": 0}, {"lon": -77.012194, "bike_id": "15bda169f0d55b0d477c847c866957d3", "lat": 38.912726, "fusion_lon": 0.0, "fusion_lat": 0.0, "type": "electric_bike", "name": "15bda169f0d55b0d477c847c866957d3", "is_disabled": 0, "rental_uris": {"ios": "https://dc.lft.to/lastmile_qr_scan", "android": "https://dc.lft.to/lastmile_qr_scan"}, "is_reserved": 0}, {"lon": -77.0388225, "bike_id": "ccb06b745eaf2506c5064ce2cc7b1b98", "lat": 38.892034333333335, "fusion_lon": 0.0, "fusion_lat": 0.0, "type": "electric_scooter", "name": "ccb06b745eaf2506c5064ce2cc7b1b98", "is_disabled": 0, "rental_uris": {"ios": "https://dc.lft.to/lastmile_qr_scan", "android": "https://dc.lft.to/lastmile_qr_scan"}, "is_reserved": 0}, {"lon": -77.02321183333333, "bike_id": "d05836a6c6828fd0ba21c4de7cc489a2", "lat": 38.908634666666664, "fusion_lon": 0.0, "fusion_lat": 0.0, "type": "electric_scooter", "name": "d05836a6c6828fd0ba21c4de7cc489a2", "is_disabled": 0, "rental_uris": {"ios": "https://dc.lft.to/lastmile_qr_scan", "android": "https://dc.lft.to/lastmile_qr_scan"}, "is_reserved": 0}, {"lon": -77.04586066666667, "bike_id": "0e11d4eaae14339de48322ab0e5dc4fa", "lat": 38.9185595, "fusion_lon": 0.0, "fusion_lat": 0.0, "type": "electric_scooter", "name": "0e11d4eaae14339de48322ab0e5dc4fa", "is_disabled": 0, "rental_uris": {"ios": "https://dc.lft.to/lastmile_qr_scan", "android": "https://dc.lft.to/lastmile_qr_scan"}, "is_reserved": 0}, {"lon": -76.9911585, "bike_id": "253e05c1ee0f81f7327b2650bd08d069", "lat": 38.9335775, "fusion_lon": 0.0, "fusion_lat": 0.0, "type": "electric_scooter", "name": "253e05c1ee0f81f7327b2650bd08d069", "is_disabled": 0, "rental_uris": {"ios": "https://dc.lft.to/lastmile_qr_scan", "android": "https://dc.lft.to/lastmile_qr_scan"}, "is_reserved": 0}, {"lon": -77.05111333333333, "bike_id": "354eff0700867b2004aa7a2dd25db517", "lat": 39.036693, "fusion_lon": 0.0, "fusion_lat": 0.0, "type": "electric_bike", "name": "354eff0700867b2004aa7a2dd25db517", "is_disabled": 0, "rental_uris": {"ios": "https://dc.lft.to/lastmile_qr_scan", "android": "https://dc.lft.to/lastmile_qr_scan"}, "is_reserved": 0}, {"lon": -77.04868016666667, "bike_id": "3294368aa89af7d3a5b9ec2e7991975a", "lat": 38.892231, "fusion_lon": 0.0, "fusion_lat": 0.0, "type": "electric_scooter", "name": "3294368aa89af7d3a5b9ec2e7991975a", "is_disabled": 0, "rental_uris": {"ios": "https://dc.lft.to/lastmile_qr_scan", "android": "https://dc.lft.to/lastmile_qr_scan"}, "is_reserved": 0}, {"lon": -77.03294583333333, "bike_id": "51976b856f51a523db6820a8af107211", "lat": 38.90830733333333, "fusion_lon": 0.0, "fusion_lat": 0.0, "type": "electric_scooter", "name": "51976b856f51a523db6820a8af107211", "is_disabled": 0, "rental_uris": {"ios": "https://dc.lft.to/lastmile_qr_scan", "android": "https://dc.lft.to/lastmile_qr_scan"}, "is_reserved": 0}, {"lon": -76.99864633333334, "bike_id": "60c6a34a6e8a3c5f9110f02c3690dca2", "lat": 38.886317, "fusion_lon": 0.0, "fusion_lat": 0.0, "type": "electric_scooter", "name": "60c6a34a6e8a3c5f9110f02c3690dca2", "is_disabled": 0, "rental_uris": {"ios": "https://dc.lft.to/lastmile_qr_scan", "android": "https://dc.lft.to/lastmile_qr_scan"}, "is_reserved": 0}, {"lon": -77.06789133333334, "bike_id": "b19dc6b35063473bd2d7a88c8b46da92", "lat": 38.91315016666667, "fusion_lon": 0.0, "fusion_lat": 0.0, "type": "electric_scooter", "name": "b19dc6b35063473bd2d7a88c8b46da92", "is_disabled": 0, "rental_uris": {"ios": "https://dc.lft.to/lastmile_qr_scan", "android": "https://dc.lft.to/lastmile_qr_scan"}, "is_reserved": 0}, {"lon": -76.99956533333334, "bike_id": "2b105e0601075a4bf46cb42c7f46b018", "lat": 38.908616, "fusion_lon": 0.0, "fusion_lat": 0.0, "type": "electric_scooter", "name": "2b105e0601075a4bf46cb42c7f46b018", "is_disabled": 0, "rental_uris": {"ios": "https://dc.lft.to/lastmile_qr_scan", "android": "https://dc.lft.to/lastmile_qr_scan"}, "is_reserved": 0}, {"lon": -77.043237, "bike_id": "1e1cf25fc1877115629f42747b857cd4", "lat": 38.908743333333334, "fusion_lon": 0.0, "fusion_lat": 0.0, "type": "electric_scooter", "name": "1e1cf25fc1877115629f42747b857cd4", "is_disabled": 0, "rental_uris": {"ios": "https://dc.lft.to/lastmile_qr_scan", "android": "https://dc.lft.to/lastmile_qr_scan"}, "is_reserved": 0}, {"lon": -77.05400466666667, "bike_id": "c2948c058a1c286212e4c593a29f9c8f", "lat": 38.89888416666667, "fusion_lon": 0.0, "fusion_lat": 0.0, "type": "electric_scooter", "name": "c2948c058a1c286212e4c593a29f9c8f", "is_disabled": 0, "rental_uris": {"ios": "https://dc.lft.to/lastmile_qr_scan", "android": "https://dc.lft.to/lastmile_qr_scan"}, "is_reserved": 0}, {"lon": -77.00424866666667, "bike_id": "8a864f591c4bece871b5208897efe63e", "lat": 38.87663383333334, "fusion_lon": 0.0, "fusion_lat": 0.0, "type": "electric_scooter", "name": "8a864f591c4bece871b5208897efe63e", "is_disabled": 0, "rental_uris": {"ios": "https://dc.lft.to/lastmile_qr_scan", "android": "https://dc.lft.to/lastmile_qr_scan"}, "is_reserved": 0}, {"lon": -77.062911, "bike_id": "5a79b49e5523de68ac5aa7724c66dba5", "lat": 38.90685883333333, "fusion_lon": 0.0, "fusion_lat": 0.0, "type": "electric_scooter", "name": "5a79b49e5523de68ac5aa7724c66dba5", "is_disabled": 0, "rental_uris": {"ios": "https://dc.lft.to/lastmile_qr_scan", "android": "https://dc.lft.to/lastmile_qr_scan"}, "is_reserved": 0}, {"lon": -77.03331383333334, "bike_id": "89fc15a9908c36e335cf1037bd65ac6f", "lat": 38.9001625, "fusion_lon": 0.0, "fusion_lat": 0.0, "type": "electric_scooter", "name": "89fc15a9908c36e335cf1037bd65ac6f", "is_disabled": 0, "rental_uris": {"ios": "https://dc.lft.to/lastmile_qr_scan", "android": "https://dc.lft.to/lastmile_qr_scan"}, "is_reserved": 0}, {"lon": -77.031907, "bike_id": "9f68619b4f0a015d5422688947501494", "lat": 38.923755666666665, "fusion_lon": 0.0, "fusion_lat": 0.0, "type": "electric_scooter", "name": "9f68619b4f0a015d5422688947501494", "is_disabled": 0, "rental_uris": {"ios": "https://dc.lft.to/lastmile_qr_scan", "android": "https://dc.lft.to/lastmile_qr_scan"}, "is_reserved": 0}, {"lon": -77.02617366666666, "bike_id": "146735cb7473fd143b1e198c144bd8a2", "lat": 38.9298625, "fusion_lon": 0.0, "fusion_lat": 0.0, "type": "electric_scooter", "name": "146735cb7473fd143b1e198c144bd8a2", "is_disabled": 0, "rental_uris": {"ios": "https://dc.lft.to/lastmile_qr_scan", "android": "https://dc.lft.to/lastmile_qr_scan"}, "is_reserved": 0}, {"lon": -77.0418675, "bike_id": "030eb67a481201cff765530779a93061", "lat": 38.9071265, "fusion_lon": 0.0, "fusion_lat": 0.0, "type": "electric_scooter", "name": "030eb67a481201cff765530779a93061", "is_disabled": 0, "rental_uris": {"ios": "https://dc.lft.to/lastmile_qr_scan", "android": "https://dc.lft.to/lastmile_qr_scan"}, "is_reserved": 0}, {"lon": -77.02556733333333, "bike_id": "d23dfd35b51a9e327e295452b89d24d4", "lat": 38.941348833333336, "fusion_lon": 0.0, "fusion_lat": 0.0, "type": "electric_scooter", "name": "d23dfd35b51a9e327e295452b89d24d4", "is_disabled": 0, "rental_uris": {"ios": "https://dc.lft.to/lastmile_qr_scan", "android": "https://dc.lft.to/lastmile_qr_scan"}, "is_reserved": 0}, {"lon": -77.06335166666666, "bike_id": "13ed181cbf9e33071fcf5b979e91ba45", "lat": 38.920966, "fusion_lon": 0.0, "fusion_lat": 0.0, "type": "electric_bike", "name": "13ed181cbf9e33071fcf5b979e91ba45", "is_disabled": 0, "rental_uris": {"ios": "https://dc.lft.to/lastmile_qr_scan", "android": "https://dc.lft.to/lastmile_qr_scan"}, "is_reserved": 0}, {"lon": -77.0186435, "bike_id": "0ed0848a9ab3acb67c7a6bdec55a29d9", "lat": 38.973675, "fusion_lon": 0.0, "fusion_lat": 0.0, "type": "electric_scooter", "name": "0ed0848a9ab3acb67c7a6bdec55a29d9", "is_disabled": 0, "rental_uris": {"ios": "https://dc.lft.to/lastmile_qr_scan", "android": "https://dc.lft.to/lastmile_qr_scan"}, "is_reserved": 0}, {"lon": -76.99935883333333, "bike_id": "92a30ea9b1807a9b6f2b2ae4fdf0c29d", "lat": 38.843016166666665, "fusion_lon": 0.0, "fusion_lat": 0.0, "type": "electric_scooter", "name": "92a30ea9b1807a9b6f2b2ae4fdf0c29d", "is_disabled": 0, "rental_uris": {"ios": "https://dc.lft.to/lastmile_qr_scan", "android": "https://dc.lft.to/lastmile_qr_scan"}, "is_reserved": 0}, {"lon": -76.99751383333333, "bike_id": "654a783f463a9c0982e9d5000ec69b38", "lat": 38.8999995, "fusion_lon": 0.0, "fusion_lat": 0.0, "type": "electric_scooter", "name": "654a783f463a9c0982e9d5000ec69b38", "is_disabled": 0, "rental_uris": {"ios": "https://dc.lft.to/lastmile_qr_scan", "android": "https://dc.lft.to/lastmile_qr_scan"}, "is_reserved": 0}, {"lon": -77.0107715, "bike_id": "b041d0dc8fdcc6d1816ef159b97085ef", "lat": 38.917579, "fusion_lon": 0.0, "fusion_lat": 0.0, "type": "electric_scooter", "name": "b041d0dc8fdcc6d1816ef159b97085ef", "is_disabled": 0, "rental_uris": {"ios": "https://dc.lft.to/lastmile_qr_scan", "android": "https://dc.lft.to/lastmile_qr_scan"}, "is_reserved": 0}, {"lon": -77.0034115, "bike_id": "67ecb5570f45d850442e9d5df4247e43", "lat": 38.89524983333333, "fusion_lon": 0.0, "fusion_lat": 0.0, "type": "electric_scooter", "name": "67ecb5570f45d850442e9d5df4247e43", "is_disabled": 0, "rental_uris": {"ios": "https://dc.lft.to/lastmile_qr_scan", "android": "https://dc.lft.to/lastmile_qr_scan"}, "is_reserved": 0}, {"lon": -76.94873333333334, "bike_id": "512b68db2b7ca85b5ff54246db57694b", "lat": 38.89550633333333, "fusion_lon": 0.0, "fusion_lat": 0.0, "type": "electric_scooter", "name": "512b68db2b7ca85b5ff54246db57694b", "is_disabled": 0, "rental_uris": {"ios": "https://dc.lft.to/lastmile_qr_scan", "android": "https://dc.lft.to/lastmile_qr_scan"}, "is_reserved": 0}, {"lon": -77.07008766666667, "bike_id": "597cee7e33a9d08d3c047fb629468d05", "lat": 38.958455666666666, "fusion_lon": 0.0, "fusion_lat": 0.0, "type": "electric_scooter", "name": "597cee7e33a9d08d3c047fb629468d05", "is_disabled": 0, "rental_uris": {"ios": "https://dc.lft.to/lastmile_qr_scan", "android": "https://dc.lft.to/lastmile_qr_scan"}, "is_reserved": 0}, {"lon": -77.03830166666667, "bike_id": "e94d341f905d5843173d2743c9175bc4", "lat": 38.91115216666667, "fusion_lon": 0.0, "fusion_lat": 0.0, "type": "electric_scooter", "name": "e94d341f905d5843173d2743c9175bc4", "is_disabled": 0, "rental_uris": {"ios": "https://dc.lft.to/lastmile_qr_scan", "android": "https://dc.lft.to/lastmile_qr_scan"}, "is_reserved": 0}, {"lon": -76.99377933333334, "bike_id": "eb91f42bc79c7ace53ba162e2d6c2dcb", "lat": 38.971841166666664, "fusion_lon": 0.0, "fusion_lat": 0.0, "type": "electric_bike", "name": "eb91f42bc79c7ace53ba162e2d6c2dcb", "is_disabled": 0, "rental_uris": {"ios": "https://dc.lft.to/lastmile_qr_scan", "android": "https://dc.lft.to/lastmile_qr_scan"}, "is_reserved": 0}, {"lon": -77.04202083333334, "bike_id": "7564334665c6a8c20739e6608252cd5a", "lat": 38.919693333333335, "fusion_lon": 0.0, "fusion_lat": 0.0, "type": "electric_scooter", "name": "7564334665c6a8c20739e6608252cd5a", "is_disabled": 0, "rental_uris": {"ios": "https://dc.lft.to/lastmile_qr_scan", "android": "https://dc.lft.to/lastmile_qr_scan"}, "is_reserved": 0}, {"lon": -77.0316185, "bike_id": "bf04a75be50d16cf63f4cd310a90a11e", "lat": 38.93602683333334, "fusion_lon": 0.0, "fusion_lat": 0.0, "type": "electric_scooter", "name": "bf04a75be50d16cf63f4cd310a90a11e", "is_disabled": 0, "rental_uris": {"ios": "https://dc.lft.to/lastmile_qr_scan", "android": "https://dc.lft.to/lastmile_qr_scan"}, "is_reserved": 0}, {"lon": -77.0320755, "bike_id": "0fe805a16fa40d8e62263b410108ecc4", "lat": 38.90846166666667, "fusion_lon": 0.0, "fusion_lat": 0.0, "type": "electric_scooter", "name": "0fe805a16fa40d8e62263b410108ecc4", "is_disabled": 0, "rental_uris": {"ios": "https://dc.lft.to/lastmile_qr_scan", "android": "https://dc.lft.to/lastmile_qr_scan"}, "is_reserved": 0}, {"lon": -76.99640616666667, "bike_id": "cc55cdf0f2e113085d572f750b20117c", "lat": 38.90035, "fusion_lon": 0.0, "fusion_lat": 0.0, "type": "electric_scooter", "name": "cc55cdf0f2e113085d572f750b20117c", "is_disabled": 0, "rental_uris": {"ios": "https://dc.lft.to/lastmile_qr_scan", "android": "https://dc.lft.to/lastmile_qr_scan"}, "is_reserved": 0}, {"lon": -76.98233066666667, "bike_id": "8eb78817038efd57339eb80c296e929e", "lat": 38.8646995, "fusion_lon": 0.0, "fusion_lat": 0.0, "type": "electric_scooter", "name": "8eb78817038efd57339eb80c296e929e", "is_disabled": 0, "rental_uris": {"ios": "https://dc.lft.to/lastmile_qr_scan", "android": "https://dc.lft.to/lastmile_qr_scan"}, "is_reserved": 0}, {"lon": -76.99902716666666, "bike_id": "fbae9a0e4dde38e442f6281d7a861b36", "lat": 38.94818716666666, "fusion_lon": 0.0, "fusion_lat": 0.0, "type": "electric_scooter", "name": "fbae9a0e4dde38e442f6281d7a861b36", "is_disabled": 0, "rental_uris": {"ios": "https://dc.lft.to/lastmile_qr_scan", "android": "https://dc.lft.to/lastmile_qr_scan"}, "is_reserved": 0}, {"lon": -77.04243866666667, "bike_id": "db65c512f16662c5f83050e115d67e1e", "lat": 38.92181033333333, "fusion_lon": 0.0, "fusion_lat": 0.0, "type": "electric_scooter", "name": "db65c512f16662c5f83050e115d67e1e", "is_disabled": 0, "rental_uris": {"ios": "https://dc.lft.to/lastmile_qr_scan", "android": "https://dc.lft.to/lastmile_qr_scan"}, "is_reserved": 0}, {"lon": -77.01898333333334, "bike_id": "04c20b901a205d9097fc2bf704035b36", "lat": 38.8786905, "fusion_lon": 0.0, "fusion_lat": 0.0, "type": "electric_scooter", "name": "04c20b901a205d9097fc2bf704035b36", "is_disabled": 0, "rental_uris": {"ios": "https://dc.lft.to/lastmile_qr_scan", "android": "https://dc.lft.to/lastmile_qr_scan"}, "is_reserved": 0}, {"lon": -77.05579033333333, "bike_id": "1b57cf2a1e28d8351a04d1c3f08c3d69", "lat": 38.89721133333333, "fusion_lon": 0.0, "fusion_lat": 0.0, "type": "electric_scooter", "name": "1b57cf2a1e28d8351a04d1c3f08c3d69", "is_disabled": 0, "rental_uris": {"ios": "https://dc.lft.to/lastmile_qr_scan", "android": "https://dc.lft.to/lastmile_qr_scan"}, "is_reserved": 0},