{"data": {"bikes": [{"is_reserved": 0, "type": "electric_bike", "bike_id": "8a5e5c2bad650a69d1785b631a988db9", "lat": 38.83614466666667, "lon": -77.0038215, "rental_uris": {"android": "https://dc.lft.to/lastmile_qr_scan", "ios": "https://dc.lft.to/lastmile_qr_scan"}, "is_disabled": 0, "fusion_lat": 0.0, "name": "8a5e5c2bad650a69d1785b631a988db9", "fusion_lon": 0.0}, {"is_reserved": 0, "type": "electric_scooter", "bike_id": "d4e79090cf9c7d8c3993dfc7233f837d", "lat": 38.887306, "lon": -76.98379433333334, "rental_uris": {"android": "https://dc.lft.to/lastmile_qr_scan", "ios": "https://dc.lft.to/lastmile_qr_scan"}, "is_disabled": 0, "fusion_lat": 0.0, "name": "d4e79090cf9c7d8c3993dfc7233f837d", "fusion_lon": 0.0}, {"is_reserved": 0, "type": "electric_scooter", "bike_id": "6923e74fb9a404309d3e000e86bbc115", "lat": 38.905788, "lon": -77.03069983333333, "rental_uris": {"android": "https://dc.lft.to/lastmile_qr_scan", "ios": "https://dc.lft.to/lastmile_qr_scan"}, "is_disabled": 0, "fusion_lat": 0.0, "name": "6923e74fb9a404309d3e000e86bbc115", "fusion_lon": 0.0}, {"is_reserved": 0, "type": "electric_scooter", "bike_id": "56580c1c9cf564fee0f904564bd1c18e", "lat": 38.909275, "lon": -77.03197816666666, "rental_uris": {"android": "https://dc.lft.to/lastmile_qr_scan", "ios": "https://dc.lft.to/lastmile_qr_scan"}, "is_disabled": 0, "fusion_lat": 0.0, "name": "56580c1c9cf564fee0f904564bd1c18e", "fusion_lon": 0.0}, {"is_reserved": 0, "type": "electric_scooter", "bike_id": "593997b3838daba6b9a2ec4aca1503fc", "lat": 38.9040015, "lon": -77.06298933333333, "rental_uris": {"android": "https://dc.lft.to/lastmile_qr_scan", "ios": "https://dc.lft.to/lastmile_qr_scan"}, "is_disabled": 0, "fusion_lat": 0.0, "name": "593997b3838daba6b9a2ec4aca1503fc", "fusion_lon": 0.0}, {"is_reserved": 0, "type": "electric_scooter", "bike_id": "626512833421fc81ddec7abec2ed274b", "lat": 38.90543366666667, "lon": -77.00925283333333, "rental_uris": {"android": "https://dc.lft.to/lastmile_qr_scan", "ios": "https://dc.lft.to/lastmile_qr_scan"}, "is_disabled": 0, "fusion_lat": 0.0, "name": "626512833421fc81ddec7abec2ed274b", "fusion_lon": 0.0}, {"is_reserved": 0, "type": "electric_scooter", "bike_id": "5f7dbb5dff90950c1828a81cfcb6a7c0", "lat": 38.92053516666667, "lon": -77.03389583333333, "rental_uris": {"android": "https://dc.lft.to/lastmile_qr_scan", "ios": "https://dc.lft.to/lastmile_qr_scan"}, "is_disabled": 0, "fusion_lat": 0.0, "name": "5f7dbb5dff90950c1828a81cfcb6a7c0", "fusion_lon": 0.0}, {"is_reserved": 0, "type": "electric_scooter", "bike_id": "8dcc647e15f2799366cd9f9b546b18f6", "lat": 38.892369333333335, "lon": -77.01346483333333, "rental_uris": {"android": "https://dc.lft.to/lastmile_qr_scan", "ios": "https://dc.lft.to/lastmile_qr_scan"}, "is_disabled": 0, "fusion_lat": 0.0, "name": "8dcc647e15f2799366cd9f9b546b18f6", "fusion_lon": 0.0}, {"is_reserved": 0, "type": "electric_bike", "bike_id": "e7afd2050a9b6dedad68b1ffaa762553", "lat": 38.929139, "lon": -77.09741, "rental_uris": {"android": "https://dc.lft.to/lastmile_qr_scan", "ios": "https://dc.lft.to/lastmile_qr_scan"}, "is_disabled": 0, "fusion_lat": 0.0, "name": "e7afd2050a9b6dedad68b1ffaa762553", "fusion_lon": 0.0}, {"is_reserved": 0, "type": "electric_scooter", "bike_id": "aa19c3db8f4dfdfda161de7e1a9e024c", "lat": 38.8923025, "lon": -77.03117616666667, "rental_uris": {"android": "https://dc.lft.to/lastmile_qr_scan", "ios": "https://dc.lft.to/lastmile_qr_scan"}, "is_disabled": 0, "fusion_lat": 0.0, "name": "aa19c3db8f4dfdfda161de7e1a9e024c", "fusion_lon": 0.0}, {"is_reserved": 0, "type": "electric_scooter", "bike_id": "58dae46060b4fade2e0ede3671335561", "lat": 38.9166935, "lon": -77.02393033333334, "rental_uris": {"android": "https://dc.lft.to/lastmile_qr_scan", "ios": "https://dc.lft.to/lastmile_qr_scan"}, "is_disabled": 0, "fusion_lat": 0.0, "name": "58dae46060b4fade2e0ede3671335561", "fusion_lon": 0.0}, {"is_reserved": 0, "type": "electric_scooter", "bike_id": "186cfb09d735ebaedcc32c349854cde9", "lat": 38.88771583333333, "lon": -76.93267233333333, "rental_uris": {"android": "https://dc.lft.to/lastmile_qr_scan", "ios": "https://dc.lft.to/lastmile_qr_scan"}, "is_disabled": 0, "fusion_lat": 0.0, "name": "186cfb09d735ebaedcc32c349854cde9", "fusion_lon": 0.0}, {"is_reserved": 0, "type": "electric_scooter", "bike_id": "84f136bedc2e08307c1364b6b32630f0", "lat": 38.892256333333336, "lon": -77.04337166666667, "rental_uris": {"android": "https://dc.lft.to/lastmile_qr_scan", "ios": "https://dc.lft.to/lastmile_qr_scan"}, "is_disabled": 0, "fusion_lat": 0.0, "name": "84f136bedc2e08307c1364b6b32630f0", "fusion_lon": 0.0}, {"is_reserved": 0, "type": "electric_scooter", "bike_id": "9e1c7f9ae30237b301a7044589c0e070", "lat": 38.911154, "lon": -77.0428215, "rental_uris": {"android": "https://dc.lft.to/lastmile_qr_scan", "ios": "https://dc.lft.to/lastmile_qr_scan"}, "is_disabled": 0, "fusion_lat": 0.0, "name": "9e1c7f9ae30237b301a7044589c0e070", "fusion_lon": 0.0}, {"is_reserved": 0, "type": "electric_scooter", "bike_id": "2ec90970c85c33b5351d910a3d1f0ca5", "lat": 38.90572566666667, "lon": -77.00587433333334, "rental_uris": {"android": "https://dc.lft.to/lastmile_qr_scan", "ios": "https://dc.lft.to/lastmile_qr_scan"}, "is_disabled": 0, "fusion_lat": 0.0, "name": "2ec90970c85c33b5351d910a3d1f0ca5", "fusion_lon": 0.0}, {"is_reserved": 0, "type": "electric_scooter", "bike_id": "b1b21b7634fe44c48b0ff5ab7b608a22", "lat": 38.90457466666667, "lon": -77.00634683333334, "rental_uris": {"android": "https://dc.lft.to/lastmile_qr_scan", "ios": "https://dc.lft.to/lastmile_qr_scan"}, "is_disabled": 0, "fusion_lat": 0.0, "name": "b1b21b7634fe44c48b0ff5ab7b608a22", "fusion_lon": 0.0}, {"is_reserved": 0, "type": "electric_scooter", "bike_id": "b9c3d67e6b4af2b6f46fbf4579bb29cb", "lat": 38.916349333333336, "lon": -77.04622266666667, "rental_uris": {"android": "https://dc.lft.to/lastmile_qr_scan", "ios": "https://dc.lft.to/lastmile_qr_scan"}, "is_disabled": 0, "fusion_lat": 0.0, "name": "b9c3d67e6b4af2b6f46fbf4579bb29cb", "fusion_lon": 0.0}, {"is_reserved": 0, "type": "electric_scooter", "bike_id": "b311971ec2d642a9f85a93c6abbcce86", "lat": 38.89829116666667, "lon": -77.00755766666667, "rental_uris": {"android": "https://dc.lft.to/lastmile_qr_scan", "ios": "https://dc.lft.to/lastmile_qr_scan"}, "is_disabled": 0, "fusion_lat": 0.0, "name": "b311971ec2d642a9f85a93c6abbcce86", "fusion_lon": 0.0}, {"is_reserved": 0, "type": "electric_scooter", "bike_id": "ee52f0ecbe97550754bf8a1deafe9ef5", "lat": 38.9250445, "lon": -77.02456483333333, "rental_uris": {"android": "https://dc.lft.to/lastmile_qr_scan", "ios": "https://dc.lft.to/lastmile_qr_scan"}, "is_disabled": 0, "fusion_lat": 0.0, "name": "ee52f0ecbe97550754bf8a1deafe9ef5", "fusion_lon": 0.0}, {"is_reserved": 0, "type": "electric_scooter", "bike_id": "2b5aef7f34e74530dccf93d7467e71a1", "lat": 38.908976333333335, "lon": -77.002951, "rental_uris": {"android": "https://dc.lft.to/lastmile_qr_scan", "ios": "https://dc.lft.to/lastmile_qr_scan"}, "is_disabled": 0, "fusion_lat": 0.0, "name": "2b5aef7f34e74530dccf93d7467e71a1", "fusion_lon": 0.0}, {"is_reserved": 0, "type": "electric_scooter", "bike_id": "b21059cc7abb5129f9b2cdf666c43297", "lat": 38.894927333333335, "lon": -77.00194516666667, "rental_uris": {"android": "https://dc.lft.to/lastmile_qr_scan", "ios": "https://dc.lft.to/lastmile_qr_scan"}, "is_disabled": 0, "fusion_lat": 0.0, "name": "b21059cc7abb5129f9b2cdf666c43297", "fusion_lon": 0.0}, {"is_reserved": 0, "type": "electric_scooter", "bike_id": "e8bddef37b00da3d686c3bb6c178f3fd", "lat": 38.924564, "lon": -77.04021216666666, "rental_uris": {"android": "https://dc.lft.to/lastmile_qr_scan", "ios": "https://dc.lft.to/lastmile_qr_scan"}, "is_disabled": 0, "fusion_lat": 0.0, "name": "e8bddef37b00da3d686c3bb6c178f3fd", "fusion_lon": 0.0}, {"is_reserved": 0, "type": "electric_scooter", "bike_id": "446fed2fed008435a1faa173c4cdbf8a", "lat": 38.90067766666667, "lon": -77.0543645, "rental_uris": {"android": "https://dc.lft.to/lastmile_qr_scan", "ios": "https://dc.lft.to/lastmile_qr_scan"}, "is_disabled": 0, "fusion_lat": 0.0, "name": "446fed2fed008435a1faa173c4cdbf8a", "fusion_lon": 0.0}, {"is_reserved": 0, "type": "electric_scooter", "bike_id": "bc439236b01a3d269fe7c07e5810d8c3", "lat": 38.912643833333334, "lon": -77.02617383333333, "rental_uris": {"android": "https://dc.lft.to/lastmile_qr_scan", "ios": "https://dc.lft.to/lastmile_qr_scan"}, "is_disabled": 0, "fusion_lat": 0.0, "name": "bc439236b01a3d269fe7c07e5810d8c3", "fusion_lon": 0.0}, {"is_reserved": 0, "type": "electric_scooter", "bike_id": "afd64d8a4221170870b4d69d226795de", "lat": 38.926151, "lon": -77.0216445, "rental_uris": {"android": "https://dc.lft.to/lastmile_qr_scan", "ios": "https://dc.lft.to/lastmile_qr_scan"}, "is_disabled": 0, "fusion_lat": 0.0, "name": "afd64d8a4221170870b4d69d226795de", "fusion_lon": 0.0}, {"is_reserved": 0, "type": "electric_scooter", "bike_id": "3832ff83eec15815a6a134ad59237ea6", "lat": 38.913456833333335, "lon": -77.03182016666666, "rental_uris": {"android": "https://dc.lft.to/lastmile_qr_scan", "ios": "https://dc.lft.to/lastmile_qr_scan"}, "is_disabled": 0, "fusion_lat": 0.0, "name": "3832ff83eec15815a6a134ad59237ea6", "fusion_lon": 0.0}, {"is_reserved": 0, "type": "electric_scooter", "bike_id": "4d154a90d225fb7fdba23916ff7f5488", "lat": 38.92952616666667, "lon": -77.0040845, "rental_uris": {"android": "https://dc.lft.to/lastmile_qr_scan", "ios": "https://dc.lft.to/lastmile_qr_scan"}, "is_disabled": 0, "fusion_lat": 0.0, "name": "4d154a90d225fb7fdba23916ff7f5488", "fusion_lon": 0.0}, {"is_reserved": 0, "type": "electric_scooter", "bike_id": "89d8f596ac0a3f89372c1823e44efb61", "lat": 38.9181495, "lon": -77.030261, "rental_uris": {"android": "https://dc.lft.to/lastmile_qr_scan", "ios": "https://dc.lft.to/lastmile_qr_scan"}, "is_disabled": 0, "fusion_lat": 0.0, "name": "89d8f596ac0a3f89372c1823e44efb61", "fusion_lon": 0.0}, {"is_reserved": 0, "type": "electric_scooter", "bike_id": "9ae8e8c427b1143c4a560e48e93c4b1e", "lat": 38.90064116666667, "lon": -76.9274315, "rental_uris": {"android": "https://dc.lft.to/lastmile_qr_scan", "ios": "https://dc.lft.to/lastmile_qr_scan"}, "is_disabled": 0, "fusion_lat": 0.0, "name": "9ae8e8c427b1143c4a560e48e93c4b1e", "fusion_lon": 0.0}, {"is_reserved": 0, "type": "electric_scooter", "bike_id": "4b6ec4fa5f0d3fd7359711438e39c283", "lat": 38.93104233333333, "lon": -77.02420716666667, "rental_uris": {"android": "https://dc.lft.to/lastmile_qr_scan", "ios": "https://dc.lft.to/lastmile_qr_scan"}, "is_disabled": 0, "fusion_lat": 0.0, "name": "4b6ec4fa5f0d3fd7359711438e39c283", "fusion_lon": 0.0}, {"is_reserved": 0, "type": "electric_scooter", "bike_id": "60b1f74127d2a03a4369edd172e4995c", "lat": 38.914895, "lon": -77.002194, "rental_uris": {"android": "https://dc.lft.to/lastmile_qr_scan", "ios": "https://dc.lft.to/lastmile_qr_scan"}, "is_disabled": 0, "fusion_lat": 0.0, "name": "60b1f74127d2a03a4369edd172e4995c", "fusion_lon": 0.0}, {"is_reserved": 0, "type": "electric_scooter", "bike_id": "d1b7f628b5e478ca7c9a6e7179bd7cfa", "lat": 38.887291166666664, "lon": -76.98364, "rental_uris": {"android": "https://dc.lft.to/lastmile_qr_scan", "ios": "https://dc.lft.to/lastmile_qr_scan"}, "is_disabled": 0, "fusion_lat": 0.0, "name": "d1b7f628b5e478ca7c9a6e7179bd7cfa", "fusion_lon": 0.0}, {"is_reserved": 0, "type": "electric_scooter", "bike_id": "2fe4d486d7aa594ca80f39d1981aed0d", "lat": 38.94241916666667, "lon": -77.03586083333333, "rental_uris": {"android": "https://dc.lft.to/lastmile_qr_scan", "ios": "https://dc.lft.to/lastmile_qr_scan"}, "is_disabled": 0, "fusion_lat": 0.0, "name": "2fe4d486d7aa594ca80f39d1981aed0d", "fusion_lon": 0.0}, {"is_reserved": 0, "type": "electric_scooter", "bike_id": "458ed69eda9f86eb0d551ff117ca880a", "lat": 38.933381, "lon": -77.02396, "rental_uris": {"android": "https://dc.lft.to/lastmile_qr_scan", "ios": "https://dc.lft.to/lastmile_qr_scan"}, "is_disabled": 0, "fusion_lat": 0.0, "name": "458ed69eda9f86eb0d551ff117ca880a", "fusion_lon": 0.0}, {"is_reserved": 0, "type": "electric_scooter", "bike_id": "2f291bf299db667d1662a0ae2d146831", "lat": 38.93884966666667, "lon": -77.03285583333333, "rental_uris": {"android": "https://dc.lft.to/lastmile_qr_scan", "ios": "https://dc.lft.to/lastmile_qr_scan"}, "is_disabled": 0, "fusion_lat": 0.0, "name": "2f291bf299db667d1662a0ae2d146831", "fusion_lon": 0.0}, {"is_reserved": 0, "type": "electric_scooter", "bike_id": "ecb2163dae4524e8ff70e788e48dbf98", "lat": 38.918124, "lon": -77.009894, "rental_uris": {"android": "https://dc.lft.to/lastmile_qr_scan", "ios": "https://dc.lft.to/lastmile_qr_scan"}, "is_disabled": 0, "fusion_lat": 0.0, "name": "ecb2163dae4524e8ff70e788e48dbf98", "fusion_lon": 0.0}, {"is_reserved": 0, "type": "electric_scooter", "bike_id": "d2e5ce3a0e9e07ca3c53b8f6a2ce6f32", "lat": 38.89220616666667, "lon": -77.01558916666667, "rental_uris": {"android": "https://dc.lft.to/lastmile_qr_scan", "ios": "https://dc.lft.to/lastmile_qr_scan"}, "is_disabled": 0, "fusion_lat": 0.0, "name": "d2e5ce3a0e9e07ca3c53b8f6a2ce6f32", "fusion_lon": 0.0}, {"is_reserved": 0, "type": "electric_scooter", "bike_id": "4418a147a43e970acf2befccd408c5bb", "lat": 38.910051, "lon": -77.0400905, "rental_uris": {"android": "https://dc.lft.to/lastmile_qr_scan", "ios": "https://dc.lft.to/lastmile_qr_scan"}, "is_disabled": 0, "fusion_lat": 0.0, "name": "4418a147a43e970acf2befccd408c5bb", "fusion_lon": 0.0}, {"is_reserved": 0, "type": "electric_scooter", "bike_id": "190a6ab5b550aef5358c0723cbbfe611", "lat": 38.87811383333333, "lon": -76.99487466666666, "rental_uris": {"android": "https://dc.lft.to/lastmile_qr_scan", "ios": "https://dc.lft.to/lastmile_qr_scan"}, "is_disabled": 0, "fusion_lat": 0.0, "name": "190a6ab5b550aef5358c0723cbbfe611", "fusion_lon": 0.0}, {"is_reserved": 0, "type": "electric_bike", "bike_id": "6ef9600a5a73e72560562e8ab250928d", "lat": 38.86377366666667, "lon": -76.97011366666666, "rental_uris": {"android": "https://dc.lft.to/lastmile_qr_scan", "ios": "https://dc.lft.to/lastmile_qr_scan"}, "is_disabled": 0, "fusion_lat": 0.0, "name": "6ef9600a5a73e72560562e8ab250928d", "fusion_lon": 0.0}, {"is_reserved": 0, "type": "electric_scooter", "bike_id": "4583ca95c25d51a784459885e17ae77e", "lat": 38.9053825, "lon": -77.00210033333333, "rental_uris": {"android": "https://dc.lft.to/lastmile_qr_scan", "ios": "https://dc.lft.to/lastmile_qr_scan"}, "is_disabled": 0, "fusion_lat": 0.0, "name": "4583ca95c25d51a784459885e17ae77e", "fusion_lon": 0.0}, {"is_reserved": 0, "type": "electric_scooter", "bike_id": "c8dd5df7c3809b57f775997e2136642d", "lat": 38.898845666666666, "lon": -76.9317805, "rental_uris": {"android": "https://dc.lft.to/lastmile_qr_scan", "ios": "https://dc.lft.to/lastmile_qr_scan"}, "is_disabled": 0, "fusion_lat": 0.0, "name": "c8dd5df7c3809b57f775997e2136642d", "fusion_lon": 0.0}, {"is_reserved": 0, "type": "electric_scooter", "bike_id": "57c0cd45020318ed8bddda224eb6732c", "lat": 38.896091166666665, "lon": -77.04419383333334, "rental_uris": {"android": "https://dc.lft.to/lastmile_qr_scan", "ios": "https://dc.lft.to/lastmile_qr_scan"}, "is_disabled": 0, "fusion_lat": 0.0, "name": "57c0cd45020318ed8bddda224eb6732c", "fusion_lon": 0.0}, {"is_reserved": 0, "type": "electric_scooter", "bike_id": "c8d5d92a393ca06ca399ad63db5f9728", "lat": 38.90639383333333, "lon": -77.04649566666667, "rental_uris": {"android": "https://dc.lft.to/lastmile_qr_scan", "ios": "https://dc.lft.to/lastmile_qr_scan"}, "is_disabled": 0, "fusion_lat": 0.0, "name": "c8d5d92a393ca06ca399ad63db5f9728", "fusion_lon": 0.0}, {"is_reserved": 0, "type": "electric_scooter", "bike_id": "eca2275e78cced5e337390367d454d40", "lat": 38.907913666666666, "lon": -77.0020805, "rental_uris": {"android": "https://dc.lft.to/lastmile_qr_scan", "ios": "https://dc.lft.to/lastmile_qr_scan"}, "is_disabled": 0, "fusion_lat": 0.0, "name": "eca2275e78cced5e337390367d454d40", "fusion_lon": 0.0}, {"is_reserved": 0, "type": "electric_scooter", "bike_id": "f9c5026f6c1138552fe0d2dca29b1e92", "lat": 38.9085255, "lon": -77.026028, "rental_uris": {"android": "https://dc.lft.to/lastmile_qr_scan", "ios": "https://dc.lft.to/lastmile_qr_scan"}, "is_disabled": 0, "fusion_lat": 0.0, "name": "f9c5026f6c1138552fe0d2dca29b1e92", "fusion_lon": 0.0}, {"is_reserved": 0, "type": "electric_scooter", "bike_id": "c623589b5f3a85e6cb9f3cda6d8ff01d", "lat": 38.89620883333333, "lon": -76.97686733333333, "rental_uris": {"android": "https://dc.lft.to/lastmile_qr_scan", "ios": "https://dc.lft.to/lastmile_qr_scan"}, "is_disabled": 0, "fusion_lat": 0.0, "name": "c623589b5f3a85e6cb9f3cda6d8ff01d", "fusion_lon": 0.0}, {"is_reserved": 0, "type": "electric_scooter", "bike_id": "8a0b95fe694125c7c12a7f5dde4a1454", "lat": 38.9353835, "lon": -77.02355566666667, "rental_uris": {"android": "https://dc.lft.to/lastmile_qr_scan", "ios": "https://dc.lft.to/lastmile_qr_scan"}, "is_disabled": 0, "fusion_lat": 0.0, "name": "8a0b95fe694125c7c12a7f5dde4a1454", "fusion_lon": 0.0}, {"is_reserved": 0, "type": "electric_scooter", "bike_id": "d65c6573760b856a1dd471393b28fcfd", "lat": 38.89643783333333, "lon": -76.99032833333334, "rental_uris": {"android": "https://dc.lft.to/lastmile_qr_scan", "ios": "https://dc.lft.to/lastmile_qr_scan"}, "is_disabled": 0, "fusion_lat": 0.0, "name": "d65c6573760b856a1dd471393b28fcfd", "fusion_lon": 0.0}, {"is_reserved": 0, "type": "electric_scooter", "bike_id": "befc66ad22fba2e38163d53a5f9c218b", "lat": 38.8839775, "lon": -76.93044883333333, "rental_uris": {"android": "https://dc.lft.to/lastmile_qr_scan", "ios": "https://dc.lft.to/lastmile_qr_scan"}, "is_disabled": 0, "fusion_lat": 0.0, "name": "befc66ad22fba2e38163d53a5f9c218b", "fusion_lon": 0.0}, {"is_reserved": 0, "type": "electric_scooter", "bike_id": "cfe6d4c708e501b1b62173cdad291ee7", "lat": 38.9205685, "lon": -77.0250055, "rental_uris": {"android": "https://dc.lft.to/lastmile_qr_scan", "ios": "https://dc.lft.to/lastmile_qr_scan"}, "is_disabled": 0, "fusion_lat": 0.0, "name": "cfe6d4c708e501b1b62173cdad291ee7", "fusion_lon": 0.0}, {"is_reserved": 0, "type": "electric_scooter", "bike_id": "743d1015481e60a6d5db81dca3272cc2", "lat": 38.92313433333333, "lon": -77.0298315, "rental_uris": {"android": "https://dc.lft.to/lastmile_qr_scan", "ios": "https://dc.lft.to/lastmile_qr_scan"}, "is_disabled": 0, "fusion_lat": 0.0, "name": "743d1015481e60a6d5db81dca3272cc2", "fusion_lon": 0.0}, {"is_reserved": 0, "type": "electric_scooter", "bike_id": "27e8fb3f5036b675112f95c636676ecd", "lat": 38.8996965, "lon": -77.0201785, "rental_uris": {"android": "https://dc.lft.to/lastmile_qr_scan", "ios": "https://dc.lft.to/lastmile_qr_scan"}, "is_disabled": 0, "fusion_lat": 0.0, "name": "27e8fb3f5036b675112f95c636676ecd", "fusion_lon": 0.0}, {"is_reserved": 0, "type": "electric_scooter", "bike_id": "44c2fd4c1cd4113b37426f66c8a0332f", "lat": 38.917421, "lon": -77.00922633333333, "rental_uris": {"android": "https://dc.lft.to/lastmile_qr_scan", "ios": "https://dc.lft.to/lastmile_qr_scan"}, "is_disabled": 0, "fusion_lat": 0.0, "name": "44c2fd4c1cd4113b37426f66c8a0332f", "fusion_lon": 0.0}, {"is_reserved": 0, "type": "electric_scooter", "bike_id": "1ff8e69cc572702aee096c363ccf2e78", "lat": 38.906353, "lon": -77.07026683333333, "rental_uris": {"android": "https://dc.lft.to/lastmile_qr_scan", "ios": "https://dc.lft.to/lastmile_qr_scan"}, "is_disabled": 0, "fusion_lat": 0.0, "name": "1ff8e69cc572702aee096c363ccf2e78", "fusion_lon": 0.0}, {"is_reserved": 0, "type": "electric_scooter", "bike_id": "8d72ca8ba781498d38f8bdb7cce60d06", "lat": 38.89265133333333, "lon": -76.9299745, "rental_uris": {"android": "https://dc.lft.to/lastmile_qr_scan", "ios": "https://dc.lft.to/lastmile_qr_scan"}, "is_disabled": 0, "fusion_lat": 0.0, "name": "8d72ca8ba781498d38f8bdb7cce60d06", "fusion_lon": 0.0}, {"is_reserved": 0, "type": "electric_scooter", "bike_id": "a430b4deb67d21fc8d929b5a8a3ad94d", "lat": 38.91694483333333, "lon": -77.0260195, "rental_uris": {"android": "https://dc.lft.to/lastmile_qr_scan", "ios": "https://dc.lft.to/lastmile_qr_scan"}, "is_disabled": 0, "fusion_lat": 0.0, "name": "a430b4deb67d21fc8d929b5a8a3ad94d", "fusion_lon": 0.0}, {"is_reserved": 0, "type": "electric_bike", "bike_id": "67376ed24fdc5d4c5af538da02d6837b", "lat": 38.85419733333333, "lon": -77.08368833333333, "rental_uris": {"android": "https://dc.lft.to/lastmile_qr_scan", "ios": "https://dc.lft.to/lastmile_qr_scan"}, "is_disabled": 0, "fusion_lat": 0.0, "name": "67376ed24fdc5d4c5af538da02d6837b", "fusion_lon": 0.0}, {"is_reserved": 0, "type": "electric_scooter", "bike_id": "6e46ca61b929dc69181e4f33b679ef1c", "lat": 38.885321, "lon": -76.9812, "rental_uris": {"android": "https://dc.lft.to/lastmile_qr_scan", "ios": "https://dc.lft.to/lastmile_qr_scan"}, "is_disabled": 0, "fusion_lat": 0.0, "name": "6e46ca61b929dc69181e4f33b679ef1c", "fusion_lon": 0.0}, {"is_reserved": 0, "type": "electric_bike", "bike_id": "df628ae6c5da9f96e84b7911a20e50ba", "lat": 38.92719983333333, "lon": -76.9936745, "rental_uris": {"android": "https://dc.lft.to/lastmile_qr_scan", "ios": "https://dc.lft.to/lastmile_qr_scan"}, "is_disabled": 0, "fusion_lat": 0.0, "name": "df628ae6c5da9f96e84b7911a20e50ba", "fusion_lon": 0.0}, {"is_reserved": 0, "type": "electric_scooter", "bike_id": "df98930af1432bc9cecafda1ff557878", "lat": 38.925260333333334, "lon": -77.05061916666666, "rental_uris": {"android": "https://dc.lft.to/lastmile_qr_scan", "ios": "https://dc.lft.to/lastmile_qr_scan"}, "is_disabled": 0, "fusion_lat": 0.0, "name": "df98930af1432bc9cecafda1ff557878", "fusion_lon": 0.0}, {"is_reserved": 0, "type": "electric_scooter", "bike_id": "d678e686c00da7fd17d6852c427638e1", "lat": 38.89527483333333, "lon": -77.02827283333333, "rental_uris": {"android": "https://dc.lft.to/lastmile_qr_scan", "ios": "https://dc.lft.to/lastmile_qr_scan"}, "is_disabled": 0, "fusion_lat": 0.0, "name": "d678e686c00da7fd17d6852c427638e1", "fusion_lon": 0.0}, {"is_reserved": 0, "type": "electric_scooter", "bike_id": "657437e0573aba163cfb1c23ae19e0b7", "lat": 38.8935725, "lon": -77.00338083333334, "rental_uris": {"android": "https://dc.lft.to/lastmile_qr_scan", "ios": "https://dc.lft.to/lastmile_qr_scan"}, "is_disabled": 0, "fusion_lat": 0.0, "name": "657437e0573aba163cfb1c23ae19e0b7", "fusion_lon": 0.0}, {"is_reserved": 0, "type": "electric_bike", "bike_id": "b2127e187b5f13200558ec95ad7dcfc0", "lat": 38.870118, "lon": -77.23003216666666, "rental_uris": {"android": "https://dc.lft.to/lastmile_qr_scan", "ios": "https://dc.lft.to/lastmile_qr_scan"}, "is_disabled": 0, "fusion_lat": 0.0, "name": "b2127e187b5f13200558ec95ad7dcfc0", "fusion_lon": 0.0}, {"is_reserved": 0, "type": "electric_scooter", "bike_id": "6e67c443904b5ff0e469a4956aa54efa", "lat": 38.917475833333334, "lon": -77.03198483333334, "rental_uris": {"android": "https://dc.lft.to/lastmile_qr_scan", "ios": "https://dc.lft.to/lastmile_qr_scan"}, "is_disabled": 0, "fusion_lat": 0.0, "name": "6e67c443904b5ff0e469a4956aa54efa", "fusion_lon": 0.0}, {"is_reserved": 0, "type": "electric_scooter", "bike_id": "3ac1a2dccdff19c33c15420483e7dacc", "lat": 38.909040166666664, "lon": -77.00273366666667, "rental_uris": {"android": "https://dc.lft.to/lastmile_qr_scan", "ios": "https://dc.lft.to/lastmile_qr_scan"}, "is_disabled": 0, "fusion_lat": 0.0, "name": "3ac1a2dccdff19c33c15420483e7dacc", "fusion_lon": 0.0}, {"is_reserved": 0, "type": "electric_scooter", "bike_id": "ed32c09a029f13ff67d5e32d15013b11", "lat": 38.918166, "lon": -77.03447616666666, "rental_uris": {"android": "https://dc.lft.to/lastmile_qr_scan", "ios": "https://dc.lft.to/lastmile_qr_scan"}, "is_disabled": 0, "fusion_lat": 0.0, "name": "ed32c09a029f13ff67d5e32d15013b11", "fusion_lon": 0.0}, {"is_reserved": 0, "type": "electric_scooter", "bike_id": "bc3ec12639d4f4a2f611532a1913b51f", "lat": 38.93616816666667, "lon": -77.024166, "rental_uris": {"android": "https://dc.lft.to/lastmile_qr_scan", "ios": "https://dc.lft.to/lastmile_qr_scan"}, "is_disabled": 0, "fusion_lat": 0.0, "name": "bc3ec12639d4f4a2f611532a1913b51f", "fusion_lon": 0.0}, {"is_reserved": 0, "type": "electric_scooter", "bike_id": "d36c0a74a69e0fed6296821574de9603", "lat": 38.89911883333333, "lon": -77.033694, "rental_uris": {"android": "https://dc.lft.to/lastmile_qr_scan", "ios": "https://dc.lft.to/lastmile_qr_scan"}, "is_disabled": 0, "fusion_lat": 0.0, "name": "d36c0a74a69e0fed6296821574de9603", "fusion_lon": 0.0}, {"is_reserved": 0, "type": "electric_scooter", "bike_id": "b61666a6a15661b82c0db0cdf512c7d3", "lat": 38.86632866666667, "lon": -76.98288233333334, "rental_uris": {"android": "https://dc.lft.to/lastmile_qr_scan", "ios": "https://dc.lft.to/lastmile_qr_scan"}, "is_disabled": 0, "fusion_lat": 0.0, "name": "b61666a6a15661b82c0db0cdf512c7d3", "fusion_lon": 0.0}, {"is_reserved": 0, "type": "electric_scooter", "bike_id": "5b2c642ab7454ad785f1b02114962b74", "lat": 38.8863105, "lon": -77.02225933333334, "rental_uris": {"android": "https://dc.lft.to/lastmile_qr_scan", "ios": "https://dc.lft.to/lastmile_qr_scan"}, "is_disabled": 0, "fusion_lat": 0.0, "name": "5b2c642ab7454ad785f1b02114962b74", "fusion_lon": 0.0}, {"is_reserved": 0, "type": "electric_scooter", "bike_id": "b6139b3ec036918ad84ce5e45987e558", "lat": 38.909665833333335, "lon": -77.04536133333333, "rental_uris": {"android": "https://dc.lft.to/lastmile_qr_scan", "ios": "https://dc.lft.to/lastmile_qr_scan"}, "is_disabled": 0, "fusion_lat": 0.0, "name": "b6139b3ec036918ad84ce5e45987e558", "fusion_lon": 0.0}, {"is_reserved": 0, "type": "electric_scooter", "bike_id": "f2b3142335f11d7e81d98885878ecee1", "lat": 38.898679333333334, "lon": -76.94642716666667, "rental_uris": {"android": "https://dc.lft.to/lastmile_qr_scan", "ios": "https://dc.lft.to/lastmile_qr_scan"}, "is_disabled": 0, "fusion_lat": 0.0, "name": "f2b3142335f11d7e81d98885878ecee1", "fusion_lon": 0.0}, {"is_reserved": 0, "type": "electric_bike", "bike_id": "21729df082cedf0ae74e50d57ec2a30d", "lat": 38.981366666666666, "lon": -77.00765533333333, "rental_uris": {"android": "https://dc.lft.to/lastmile_qr_scan", "ios": "https://dc.lft.to/lastmile_qr_scan"}, "is_disabled": 0, "fusion_lat": 0.0, "name": "21729df082cedf0ae74e50d57ec2a30d", "fusion_lon": 0.0}, {"is_reserved": 0, "type": "electric_scooter", "bike_id": "c5b1dd846760886c4c88eb06e8e7e082", "lat": 38.89908966666667, "lon": -76.9336395, "rental_uris": {"android": "https://dc.lft.to/lastmile_qr_scan", "ios": "https://dc.lft.to/lastmile_qr_scan"}, "is_disabled": 0, "fusion_lat": 0.0, "name": "c5b1dd846760886c4c88eb06e8e7e082", "fusion_lon": 0.0}, {"is_reserved": 0, "type": "electric_scooter", "bike_id": "1cb11622228e611684039f907ec28117", "lat": 38.921170833333335, "lon": -77.04219666666667, "rental_uris": {"android": "https://dc.lft.to/lastmile_qr_scan", "ios": "https://dc.lft.to/lastmile_qr_scan"}, "is_disabled": 0, "fusion_lat": 0.0, "name": "1cb11622228e611684039f907ec28117", "fusion_lon": 0.0}, {"is_reserved": 0, "type": "electric_scooter", "bike_id": "18e1e6ce97db03bc17711265128def0e", "lat": 38.91822616666666, "lon": -77.0247645, "rental_uris": {"android": "https://dc.lft.to/lastmile_qr_scan", "ios": "https://dc.lft.to/lastmile_qr_scan"}, "is_disabled": 0, "fusion_lat": 0.0, "name": "18e1e6ce97db03bc17711265128def0e", "fusion_lon": 0.0}, {"is_reserved": 0, "type": "electric_scooter", "bike_id": "bca9dd3bb2cc674aad1cfec4a113a4f8", "lat": 38.89882266666667, "lon": -76.98839516666666, "rental_uris": {"android": "https://dc.lft.to/lastmile_qr_scan", "ios": "https://dc.lft.to/lastmile_qr_scan"}, "is_disabled": 0, "fusion_lat": 0.0, "name": "bca9dd3bb2cc674aad1cfec4a113a4f8", "fusion_lon": 0.0}, {"is_reserved": 0, "type": "electric_scooter", "bike_id": "ea969a0b62df3eda052e2bad277a19f1", "lat": 38.913810833333336, "lon": -77.04604983333333, "rental_uris": {"android": "https://dc.lft.to/lastmile_qr_scan", "ios": "https://dc.lft.to/lastmile_qr_scan"}, "is_disabled": 0, "fusion_lat": 0.0, "name": "ea969a0b62df3eda052e2bad277a19f1", "fusion_lon": 0.0}, {"is_reserved": 0, "type": "electric_scooter", "bike_id": "a9240e8238b3839b22a7ef9814d92470", "lat": 38.934990666666664, "lon": -77.044606, "rental_uris": {"android": "https://dc.lft.to/lastmile_qr_scan", "ios": "https://dc.lft.to/lastmile_qr_scan"}, "is_disabled": 0, "fusion_lat": 0.0, "name": "a9240e8238b3839b22a7ef9814d92470", "fusion_lon": 0.0}, {"is_reserved": 0, "type": "electric_scooter", "bike_id": "92888829d624c5af39662047c3736e10", "lat": 38.9264665, "lon": -77.0251055, "rental_uris": {"android": "https://dc.lft.to/lastmile_qr_scan", "ios": "https://dc.lft.to/lastmile_qr_scan"}, "is_disabled": 0, "fusion_lat": 0.0, "name": "92888829d624c5af39662047c3736e10", "fusion_lon": 0.0}, {"is_reserved": 0, "type": "electric_scooter", "bike_id": "1f53d840efbc689f5f3a7f5c43821596", "lat": 38.9274195, "lon": -77.02249916666666, "rental_uris": {"android": "https://dc.lft.to/lastmile_qr_scan", "ios": "https://dc.lft.to/lastmile_qr_scan"}, "is_disabled": 0, "fusion_lat": 0.0, "name": "1f53d840efbc689f5f3a7f5c43821596", "fusion_lon": 0.0}, {"is_reserved": 0, "type": "electric_scooter", "bike_id": "d4d1347a62261d1e9bc3ebe0948fdbdf", "lat": 38.925563333333336, "lon": -77.0531935, "rental_uris": {"android": "https://dc.lft.to/lastmile_qr_scan", "ios": "https://dc.lft.to/lastmile_qr_scan"}, "is_disabled": 0, "fusion_lat": 0.0, "name": "d4d1347a62261d1e9bc3ebe0948fdbdf", "fusion_lon": 0.0}, {"is_reserved": 0, "type": "electric_scooter", "bike_id": "51d29b442d1a78a3719b1e71eee0c154", "lat": 38.8861, "lon": -77.003468, "rental_uris": {"android": "https://dc.lft.to/lastmile_qr_scan", "ios": "https://dc.lft.to/lastmile_qr_scan"}, "is_disabled": 0, "fusion_lat": 0.0, "name": "51d29b442d1a78a3719b1e71eee0c154", "fusion_lon": 0.0}, {"is_reserved": 0, "type": "electric_scooter", "bike_id": "86dc51874cde05cc2049eea9d4945a22", "lat": 38.91063783333333, "lon": -77.00460383333333, "rental_uris": {"android": "https://dc.lft.to/lastmile_qr_scan", "ios": "https://dc.lft.to/lastmile_qr_scan"}, "is_disabled": 0, "fusion_lat": 0.0, "name": "86dc51874cde05cc2049eea9d4945a22", "fusion_lon": 0.0}, {"is_reserved": 0, "type": "electric_scooter", "bike_id": "590d2924a66cec3ad2a5e2097bb65f8e", "lat": 38.918155666666664, "lon": -77.04001133333334, "rental_uris": {"android": "https://dc.lft.to/lastmile_qr_scan", "ios": "https://dc.lft.to/lastmile_qr_scan"}, "is_disabled": 0, "fusion_lat": 0.0, "name": "590d2924a66cec3ad2a5e2097bb65f8e", "fusion_lon": 0.0}, {"is_reserved": 0, "type": "electric_scooter", "bike_id": "57916ba58322434b98d13a4958369e1a", "lat": 38.989917, "lon": -77.03364366666666, "rental_uris": {"android": "https://dc.lft.to/lastmile_qr_scan", "ios": "https://dc.lft.to/lastmile_qr_scan"}, "is_disabled": 0, "fusion_lat": 0.0, "name": "57916ba58322434b98d13a4958369e1a", "fusion_lon": 0.0}, {"is_reserved": 0, "type": "electric_scooter", "bike_id": "11d90132d2ded5f985cc500894695aba", "lat": 38.90639616666667, "lon": -77.02503266666666, "rental_uris": {"android": "https://dc.lft.to/lastmile_qr_scan", "ios": "https://dc.lft.to/lastmile_qr_scan"}, "is_disabled": 0, "fusion_lat": 0.0, "name": "11d90132d2ded5f985cc500894695aba", "fusion_lon": 0.0}, {"is_reserved": 0, "type": "electric_scooter", "bike_id": "57f9f3e8778cbc1242be2a87b4cd9e72", "lat": 38.90649616666666, "lon": -77.04867083333333, "rental_uris": {"android": "https://dc.lft.to/lastmile_qr_scan", "ios": "https://dc.lft.to/lastmile_qr_scan"}, "is_disabled": 0, "fusion_lat": 0.0, "name": "57f9f3e8778cbc1242be2a87b4cd9e72", "fusion_lon": 0.0}, {"is_reserved": 0, "type": "electric_scooter", "bike_id": "a00322c67c8fb9ac005586ae05f91057", "lat": 38.8838385, "lon": -76.9304405, "rental_uris": {"android": "https://dc.lft.to/lastmile_qr_scan", "ios": "https://dc.lft.to/lastmile_qr_scan"}, "is_disabled": 0, "fusion_lat": 0.0, "name": "a00322c67c8fb9ac005586ae05f91057", "fusion_lon": 0.0}, {"is_reserved": 0, "type": "electric_bike", "bike_id": "bd83fe03b15214c922e3cfded57d1754", "lat": 38.89460583333333, "lon": -77.1913685, "rental_uris": {"android": "https://dc.lft.to/lastmile_qr_scan", "ios": "https://dc.lft.to/lastmile_qr_scan"}, "is_disabled": 0, "fusion_lat": 0.0, "name": "bd83fe03b15214c922e3cfded57d1754", "fusion_lon": 0.0}, {"is_reserved": 0, "type": "electric_scooter", "bike_id": "90dad57ec0090d610d3819c06e3aff5c", "lat": 38.92330916666667, "lon": -77.03679766666667, "rental_uris": {"android": "https://dc.lft.to/lastmile_qr_scan", "ios": "https://dc.lft.to/lastmile_qr_scan"}, "is_disabled": 0, "fusion_lat": 0.0, "name": "90dad57ec0090d610d3819c06e3aff5c", "fusion_lon": 0.0}, {"is_reserved": 0, "type": "electric_scooter", "bike_id": "9bbac86410b2ed662bd9a2030c1cecaa", "lat": 38.906492166666666, "lon": -77.01143833333333, "rental_uris": {"android": "https://dc.lft.to/lastmile_qr_scan", "ios": "https://dc.lft.to/lastmile_qr_scan"}, "is_disabled": 0, "fusion_lat": 0.0, "name": "9bbac86410b2ed662bd9a2030c1cecaa", "fusion_lon": 0.0}, {"is_reserved": 0, "type": "electric_scooter", "bike_id": "2ea3a5c64255e9c3f2d9d53c0f468236", "lat": 38.944422833333334, "lon": -77.0635625, "rental_uris": {"android": "https://dc.lft.to/lastmile_qr_scan", "ios": "https://dc.lft.to/lastmile_qr_scan"}, "is_disabled": 0, "fusion_lat": 0.0, "name": "2ea3a5c64255e9c3f2d9d53c0f468236", "fusion_lon": 0.0}, {"is_reserved": 0, "type": "electric_scooter", "bike_id": "0c9d100496bc3e86c6b97f3a765b3073", "lat": 38.9141525, "lon": -77.02612316666666, "rental_uris": {"android": "https://dc.lft.to/lastmile_qr_scan", "ios": "https://dc.lft.to/lastmile_qr_scan"}, "is_disabled": 0, "fusion_lat": 0.0, "name": "0c9d100496bc3e86c6b97f3a765b3073", "fusion_lon": 0.0}, {"is_reserved": 0, "type": "electric_scooter", "bike_id": "f44fdbec3e78a0bb103c00f95b5cfd65", "lat": 38.932354833333335, "lon": -77.02964266666666, "rental_uris": {"android": "https://dc.lft.to/lastmile_qr_scan", "ios": "https://dc.lft.to/lastmile_qr_scan"}, "is_disabled": 0, "fusion_lat": 0.0, "name": "f44fdbec3e78a0bb103c00f95b5cfd65", "fusion_lon": 0.0}, {"is_reserved": 0, "type": "electric_scooter", "bike_id": "2297b9d2fda985428960689f09ee7b30", "lat": 38.9205235, "lon": -77.04197016666667, "rental_uris": {"android": "https://dc.lft.to/lastmile_qr_scan", "ios": "https://dc.lft.to/lastmile_qr_scan"}, "is_disabled": 0, "fusion_lat": 0.0, "name": "2297b9d2fda985428960689f09ee7b30", "fusion_lon": 0.0}, {"is_reserved": 0, "type": "electric_bike", "bike_id": "e989350556756e6d2b1d7b62eea52870", "lat": 39.086078666666666, "lon": -77.12284683333333, "rental_uris": {"android": "https://dc.lft.to/lastmile_qr_scan", "ios": "https://dc.lft.to/lastmile_qr_scan"}, "is_disabled": 0, "fusion_lat": 0.0, "name": "e989350556756e6d2b1d7b62eea52870", "fusion_lon": 0.0}, {"is_reserved": 0, "type": "electric_scooter", "bike_id": "3583e137b39b2d0ac2aa494c22335ec3", "lat": 38.933090166666666, "lon": -77.02137716666667, "rental_uris": {"android": "https://dc.lft.to/lastmile_qr_scan", "ios": "https://dc.lft.to/lastmile_qr_scan"}, "is_disabled": 0, "fusion_lat": 0.0, "name": "3583e137b39b2d0ac2aa494c22335ec3", "fusion_lon": 0.0}, {"is_reserved": 0, "type": "electric_scooter", "bike_id": "a30e8c8b378b3347578a893eb2354707", "lat": 38.90783316666667, "lon": -77.04517766666666, "rental_uris": {"android": "https://dc.lft.to/lastmile_qr_scan", "ios": "https://dc.lft.to/lastmile_qr_scan"}, "is_disabled": 0, "fusion_lat": 0.0, "name": "a30e8c8b378b3347578a893eb2354707", "fusion_lon": 0.0}, {"is_reserved": 0, "type": "electric_scooter", "bike_id": "dfd2ba7817292e8d9bc1612c16964584", "lat": 38.9231635, "lon": -77.035249, "rental_uris": {"android": "https://dc.lft.to/lastmile_qr_scan", "ios": "https://dc.lft.to/lastmile_qr_scan"}, "is_disabled": 0, "fusion_lat": 0.0, "name": "dfd2ba7817292e8d9bc1612c16964584", "fusion_lon": 0.0}, {"is_reserved": 0, "type": "electric_scooter", "bike_id": "45c8e6e51de432de944f92bced663579", "lat": 38.9155015, "lon": -77.01416233333333, "rental_uris": {"android": "https://dc.lft.to/lastmile_qr_scan", "ios": "https://dc.lft.to/lastmile_qr_scan"}, "is_disabled": 0, "fusion_lat": 0.0, "name": "45c8e6e51de432de944f92bced663579", "fusion_lon": 0.0}, {"is_reserved": 0, "type": "electric_scooter", "bike_id": "801f8394a37f1063d28785ad644ca14e", "lat": 38.926441, "lon": -77.02514733333334, "rental_uris": {"android": "https://dc.lft.to/lastmile_qr_scan", "ios": "https://dc.lft.to/lastmile_qr_scan"}, "is_disabled": 0, "fusion_lat": 0.0, "name": "801f8394a37f1063d28785ad644ca14e", "fusion_lon": 0.0}, {"is_reserved": 0, "type": "electric_scooter", "bike_id": "0cb2f6adb59ac7b6c4ac080c6453541b", "lat": 38.917582333333335, "lon": -77.014692, "rental_uris": {"android": "https://dc.lft.to/lastmile_qr_scan", "ios": "https://dc.lft.to/lastmile_qr_scan"}, "is_disabled": 0, "fusion_lat": 0.0, "name": "0cb2f6adb59ac7b6c4ac080c6453541b", "fusion_lon": 0.0}, {"is_reserved": 0, "type": "electric_scooter", "bike_id": "0fdc7e05811995110e88f5be6bd518a2", "lat": 38.91784583333333, "lon": -77.02315433333334, "rental_uris": {"android": "https://dc.lft.to/lastmile_qr_scan", "ios": "https://dc.lft.to/lastmile_qr_scan"}, "is_disabled": 0, "fusion_lat": 0.0, "name": "0fdc7e05811995110e88f5be6bd518a2", "fusion_lon": 0.0}, {"is_reserved": 0, "type": "electric_scooter", "bike_id": "71815821f879fa658105fa0544b14042", "lat": 38.838064, "lon": -76.998591, "rental_uris": {"android": "https://dc.lft.to/lastmile_qr_scan", "ios": "https://dc.lft.to/lastmile_qr_scan"}, "is_disabled": 0, "fusion_lat": 0.0, "name": "71815821f879fa658105fa0544b14042", "fusion_lon": 0.0}, {"is_reserved": 0, "type": "electric_scooter", "bike_id": "f50e8eeaf49d40df6506f686087c7d06", "lat": 38.89962333333333, "lon": -77.0448675, "rental_uris": {"android": "https://dc.lft.to/lastmile_qr_scan", "ios": "https://dc.lft.to/lastmile_qr_scan"}, "is_disabled": 0, "fusion_lat": 0.0, "name": "f50e8eeaf49d40df6506f686087c7d06", "fusion_lon": 0.0}, {"is_reserved": 0, "type": "electric_scooter", "bike_id": "583abd176e8c6c1488fd5d5c0b4587f8", "lat": 38.912693166666664, "lon": -77.02863333333333, "rental_uris": {"android": "https://dc.lft.to/lastmile_qr_scan", "ios": "https://dc.lft.to/lastmile_qr_scan"}, "is_disabled": 0, "fusion_lat": 0.0, "name": "583abd176e8c6c1488fd5d5c0b4587f8", "fusion_lon": 0.0}, {"is_reserved": 0, "type": "electric_scooter", "bike_id": "cf7b0be7a1a439919561a31e505f4163", "lat": 38.938566, "lon": -77.0247575, "rental_uris": {"android": "https://dc.lft.to/lastmile_qr_scan", "ios": "https://dc.lft.to/lastmile_qr_scan"}, "is_disabled": 0, "fusion_lat": 0.0, "name": "cf7b0be7a1a439919561a31e505f4163", "fusion_lon": 0.0}, {"is_reserved": 0, "type": "electric_scooter", "bike_id": "ce04f5ddd5dcef86cb0e9ded780a0d24", "lat": 38.93099866666667, "lon": -77.02483583333333, "rental_uris": {"android": "https://dc.lft.to/lastmile_qr_scan", "ios": "https://dc.lft.to/lastmile_qr_scan"}, "is_disabled": 0, "fusion_lat": 0.0, "name": "ce04f5ddd5dcef86cb0e9ded780a0d24", "fusion_lon": 0.0}, {"is_reserved": 0, "type": "electric_scooter", "bike_id": "f4b2d988fa15a9ffdffed338ed955c95", "lat": 38.898293, "lon": -76.946537, "rental_uris": {"android": "https://dc.lft.to/lastmile_qr_scan", "ios": "https://dc.lft.to/lastmile_qr_scan"}, "is_disabled": 0, "fusion_lat": 0.0, "name": "f4b2d988fa15a9ffdffed338ed955c95", "fusion_lon": 0.0}, {"is_reserved": 0, "type": "electric_scooter", "bike_id": "e53047da6805966bee7e5a888c6cd2a7", "lat": 38.96030533333333, "lon": -77.02431183333333, "rental_uris": {"android": "https://dc.lft.to/lastmile_qr_scan", "ios": "https://dc.lft.to/lastmile_qr_scan"}, "is_disabled": 0, "fusion_lat": 0.0, "name": "e53047da6805966bee7e5a888c6cd2a7", "fusion_lon": 0.0}, {"is_reserved": 0, "type": "electric_bike", "bike_id": "2f2ded2cc80db850180bbf7eaa750d3e", "lat": 38.900295166666666, "lon": -76.9803985, "rental_uris": {"android": "https://dc.lft.to/lastmile_qr_scan", "ios": "https://dc.lft.to/lastmile_qr_scan"}, "is_disabled": 0, "fusion_lat": 0.0, "name": "2f2ded2cc80db850180bbf7eaa750d3e", "fusion_lon": 0.0}, {"is_reserved": 0, "type": "electric_scooter", "bike_id": "aafbbbbbd7d37aa8732b71a897aa7695", "lat": 38.936296166666665, "lon": -77.07300883333333, "rental_uris": {"android": "https://dc.lft.to/lastmile_qr_scan", "ios": "https://dc.lft.to/lastmile_qr_scan"}, "is_disabled": 0, "fusion_lat": 0.0, "name": "aafbbbbbd7d37aa8732b71a897aa7695", "fusion_lon": 0.0}, {"is_reserved": 0, "type": "electric_scooter", "bike_id": "ac15d20b2b0928a6a5e8f7d3119a3732", "lat": 38.89460666666667, "lon": -77.01899983333334, "rental_uris": {"android": "https://dc.lft.to/lastmile_qr_scan", "ios": "https://dc.lft.to/lastmile_qr_scan"}, "is_disabled": 0, "fusion_lat": 0.0, "name": "ac15d20b2b0928a6a5e8f7d3119a3732", "fusion_lon": 0.0}, {"is_reserved": 0, "type": "electric_scooter", "bike_id": "690aa4ed8a23c2bb420a227c9dc64f83", "lat": 38.926574333333335, "lon": -77.0371855, "rental_uris": {"android": "https://dc.lft.to/lastmile_qr_scan", "ios": "https://dc.lft.to/lastmile_qr_scan"}, "is_disabled": 0, "fusion_lat": 0.0, "name": "690aa4ed8a23c2bb420a227c9dc64f83", "fusion_lon": 0.0}, {"is_reserved": 0, "type": "electric_bike", "bike_id": "95984f216038165fe244a50c54500c43", "lat": 38.8038605, "lon": -76.9881355, "rental_uris": {"android": "https://dc.lft.to/lastmile_qr_scan", "ios": "https://dc.lft.to/lastmile_qr_scan"}, "is_disabled": 0, "fusion_lat": 0.0, "name": "95984f216038165fe244a50c54500c43", "fusion_lon": 0.0}, {"is_reserved": 0, "type": "electric_scooter", "bike_id": "050040870b81942c464f80a843bb2be7", "lat": 38.92220566666667, "lon": -77.02291316666667, "rental_uris": {"android": "https://dc.lft.to/lastmile_qr_scan", "ios": "https://dc.lft.to/lastmile_qr_scan"}, "is_disabled": 0, "fusion_lat": 0.0, "name": "050040870b81942c464f80a843bb2be7", "fusion_lon": 0.0}, {"is_reserved": 0, "type": "electric_scooter", "bike_id": "27e4f6c07794606871f66c0f990cb530", "lat": 38.903745666666666, "lon": -77.032071, "rental_uris": {"android": "https://dc.lft.to/lastmile_qr_scan", "ios": "https://dc.lft.to/lastmile_qr_scan"}, "is_disabled": 0, "fusion_lat": 0.0, "name": "27e4f6c07794606871f66c0f990cb530", "fusion_lon": 0.0}, {"is_reserved": 0, "type": "electric_scooter", "bike_id": "b944d704d25c330fc31d3a6edfe6f101", "lat": 38.90269816666667, "lon": -77.03963383333334, "rental_uris": {"android": "https://dc.lft.to/lastmile_qr_scan", "ios": "https://dc.lft.to/lastmile_qr_scan"}, "is_disabled": 0, "fusion_lat": 0.0, "name": "b944d704d25c330fc31d3a6edfe6f101", "fusion_lon": 0.0}, {"is_reserved": 0, "type": "electric_scooter", "bike_id": "425a5fcdb6a8b1a45b4dbe3afd6a3945", "lat": 38.9027065, "lon": -77.039605, "rental_uris": {"android": "https://dc.lft.to/lastmile_qr_scan", "ios": "https://dc.lft.to/lastmile_qr_scan"}, "is_disabled": 0, "fusion_lat": 0.0, "name": "425a5fcdb6a8b1a45b4dbe3afd6a3945", "fusion_lon": 0.0}, {"is_reserved": 0, "type": "electric_scooter", "bike_id": "1508d9bb40c0c05196b35897b81bf320", "lat": 38.932505166666665, "lon": -77.03279566666667, "rental_uris": {"android": "https://dc.lft.to/lastmile_qr_scan", "ios": "https://dc.lft.to/lastmile_qr_scan"}, "is_disabled": 0, "fusion_lat": 0.0, "name": "1508d9bb40c0c05196b35897b81bf320", "fusion_lon": 0.0}, {"is_reserved": 0, "type": "electric_scooter", "bike_id": "2d75feafa6d83bd149dc3d9b569d96ed", "lat": 38.889369333333335, "lon": -76.99375316666666, "rental_uris": {"android": "https://dc.lft.to/lastmile_qr_scan", "ios": "https://dc.lft.to/lastmile_qr_scan"}, "is_disabled": 0, "fusion_lat": 0.0, "name": "2d75feafa6d83bd149dc3d9b569d96ed", "fusion_lon": 0.0}, {"is_reserved": 0, "type": "electric_scooter", "bike_id": "dbb3c36fa15308b4d6463e6639591238", "lat": 38.89420633333334, "lon": -77.05598416666666, "rental_uris": {"android": "https://dc.lft.to/lastmile_qr_scan", "ios": "https://dc.lft.to/lastmile_qr_scan"}, "is_disabled": 0, "fusion_lat": 0.0, "name": "dbb3c36fa15308b4d6463e6639591238", "fusion_lon": 0.0}, {"is_reserved": 0, "type": "electric_scooter", "bike_id": "ccfa58720274fb3ab80fe42afa5b8093", "lat": 38.8836585, "lon": -76.94154683333333, "rental_uris": {"android": "https://dc.lft.to/lastmile_qr_scan", "ios": "https://dc.lft.to/lastmile_qr_scan"}, "is_disabled": 0, "fusion_lat": 0.0, "name": "ccfa58720274fb3ab80fe42afa5b8093", "fusion_lon": 0.0}, {"is_reserved": 0, "type": "electric_scooter", "bike_id": "047654a19ab106483ed0db9ea018711c", "lat": 38.897969, "lon": -77.05013616666666, "rental_uris": {"android": "https://dc.lft.to/lastmile_qr_scan", "ios": "https://dc.lft.to/lastmile_qr_scan"}, "is_disabled": 0, "fusion_lat": 0.0, "name": "047654a19ab106483ed0db9ea018711c", "fusion_lon": 0.0}, {"is_reserved": 0, "type": "electric_scooter", "bike_id": "343a516b16b51b238ea8bc32f6fba1a4", "lat": 38.8950755, "lon": -76.9347715, "rental_uris": {"android": "https://dc.lft.to/lastmile_qr_scan", "ios": "https://dc.lft.to/lastmile_qr_scan"}, "is_disabled": 0, "fusion_lat": 0.0, "name": "343a516b16b51b238ea8bc32f6fba1a4", "fusion_lon": 0.0}, {"is_reserved": 0, "type": "electric_scooter", "bike_id": "3ab040add1d39f2c1c623151849f2de1", "lat": 38.866914, "lon": -76.97900616666666, "rental_uris": {"android": "https://dc.lft.to/lastmile_qr_scan", "ios": "https://dc.lft.to/lastmile_qr_scan"}, "is_disabled": 0, "fusion_lat": 0.0, "name": "3ab040add1d39f2c1c623151849f2de1", "fusion_lon": 0.0}, {"is_reserved": 0, "type": "electric_scooter", "bike_id": "85142ce8a70b10d784696abcb6168f97", "lat": 38.9038285, "lon": -77.04728966666667, "rental_uris": {"android": "https://dc.lft.to/lastmile_qr_scan", "ios": "https://dc.lft.to/lastmile_qr_scan"}, "is_disabled": 0, "fusion_lat": 0.0, "name": "85142ce8a70b10d784696abcb6168f97", "fusion_lon": 0.0}, {"is_reserved": 0, "type": "electric_scooter", "bike_id": "8cbb98129ed6c15b69e77aca9d8fd860", "lat": 38.892565, "lon": -76.92767783333333, "rental_uris": {"android": "https://dc.lft.to/lastmile_qr_scan", "ios": "https://dc.lft.to/lastmile_qr_scan"}, "is_disabled": 0, "fusion_lat": 0.0, "name": "8cbb98129ed6c15b69e77aca9d8fd860", "fusion_lon": 0.0}, {"is_reserved": 0, "type": "electric_scooter", "bike_id": "ea3e00b3429584d5aefd789e4d0f1e29", "lat": 38.876586, "lon": -77.0207855, "rental_uris": {"android": "https://dc.lft.to/lastmile_qr_scan", "ios": "https://dc.lft.to/lastmile_qr_scan"}, "is_disabled": 0, "fusion_lat": 0.0, "name": "ea3e00b3429584d5aefd789e4d0f1e29", "fusion_lon": 0.0}, {"is_reserved": 0, "type": "electric_scooter", "bike_id": "247e3d258ca2d446945772ea5f6d3570", "lat": 38.88531283333333, "lon": -76.9805795, "rental_uris": {"android": "https://dc.lft.to/lastmile_qr_scan", "ios": "https://dc.lft.to/lastmile_qr_scan"}, "is_disabled": 0, "fusion_lat": 0.0, "name": "247e3d258ca2d446945772ea5f6d3570", "fusion_lon": 0.0}, {"is_reserved": 0, "type": "electric_scooter", "bike_id": "9f660465f0358fbdfc2938180a5795e8", "lat": 38.924875166666666, "lon": -77.03056433333333, "rental_uris": {"android": "https://dc.lft.to/lastmile_qr_scan", "ios": "https://dc.lft.to/lastmile_qr_scan"}, "is_disabled": 0, "fusion_lat": 0.0, "name": "9f660465f0358fbdfc2938180a5795e8", "fusion_lon": 0.0}, {"is_reserved": 0, "type": "electric_scooter", "bike_id": "ce0be8eae0468437b7c10e95d9983930", "lat": 38.92464583333334, "lon": -77.05231383333333, "rental_uris": {"android": "https://dc.lft.to/lastmile_qr_scan", "ios": "https://dc.lft.to/lastmile_qr_scan"}, "is_disabled": 0, "fusion_lat": 0.0, "name": "ce0be8eae0468437b7c10e95d9983930", "fusion_lon": 0.0}, {"is_reserved": 0, "type": "electric_scooter", "bike_id": "f215ea45ac3bb5d8135c44ac46274480", "lat": 38.8867405, "lon": -77.00197783333333, "rental_uris": {"android": "https://dc.lft.to/lastmile_qr_scan", "ios": "https://dc.lft.to/lastmile_qr_scan"}, "is_disabled": 0, "fusion_lat": 0.0, "name": "f215ea45ac3bb5d8135c44ac46274480", "fusion_lon": 0.0}, {"is_reserved": 0, "type": "electric_scooter", "bike_id": "f4bec45ebe03f478dab71ed510119b64", "lat": 38.900399166666666, "lon": -77.00197083333333, "rental_uris": {"android": "https://dc.lft.to/lastmile_qr_scan", "ios": "https://dc.lft.to/lastmile_qr_scan"}, "is_disabled": 0, "fusion_lat": 0.0, "name": "f4bec45ebe03f478dab71ed510119b64", "fusion_lon": 0.0}, {"is_reserved": 0, "type": "electric_scooter", "bike_id": "b1586a48b364e4eda453b3ad90f1f933", "lat": 38.9057475, "lon": -77.0078325, "rental_uris": {"android": "https://dc.lft.to/lastmile_qr_scan", "ios": "https://dc.lft.to/lastmile_qr_scan"}, "is_disabled": 0, "fusion_lat": 0.0, "name": "b1586a48b364e4eda453b3ad90f1f933", "fusion_lon": 0.0}, {"is_reserved": 0, "type": "electric_scooter", "bike_id": "718aee7db26019b68036c88f35b7e4f5", "lat": 38.86592733333333, "lon": -76.9746095, "rental_uris": {"android": "https://dc.lft.to/lastmile_qr_scan", "ios": "https://dc.lft.to/lastmile_qr_scan"}, "is_disabled": 0, "fusion_lat": 0.0, "name": "718aee7db26019b68036c88f35b7e4f5", "fusion_lon": 0.0}, {"is_reserved": 0, "type": "electric_scooter", "bike_id": "65636e9458b1aa7ddec6419b9390823e", "lat": 38.9196605, "lon": -77.0436325, "rental_uris": {"android": "https://dc.lft.to/lastmile_qr_scan", "ios": "https://dc.lft.to/lastmile_qr_scan"}, "is_disabled": 0, "fusion_lat": 0.0, "name": "65636e9458b1aa7ddec6419b9390823e", "fusion_lon": 0.0}, {"is_reserved": 0, "type": "electric_scooter", "bike_id": "f7b6e3cbeff62bee273c1f8a5acc3e01", "lat": 38.905318, "lon": -77.00530416666666, "rental_uris": {"android": "https://dc.lft.to/lastmile_qr_scan", "ios": "https://dc.lft.to/lastmile_qr_scan"}, "is_disabled": 0, "fusion_lat": 0.0, "name": "f7b6e3cbeff62bee273c1f8a5acc3e01", "fusion_lon": 0.0}, {"is_reserved": 0, "type": "electric_scooter", "bike_id": "c782115d47fbb31a21d8272687c6201d", "lat": 38.9366145, "lon": -77.02127766666666, "rental_uris": {"android": "https://dc.lft.to/lastmile_qr_scan", "ios": "https://dc.lft.to/lastmile_qr_scan"}, "is_disabled": 0, "fusion_lat": 0.0, "name": "c782115d47fbb31a21d8272687c6201d", "fusion_lon": 0.0}, {"is_reserved": 0, "type": "electric_scooter", "bike_id": "38dd05c8a04df960e6d18a01549a88de", "lat": 38.9019865, "lon": -76.9819495, "rental_uris": {"android": "https://dc.lft.to/lastmile_qr_scan", "ios": "https://dc.lft.to/lastmile_qr_scan"}, "is_disabled": 0, "fusion_lat": 0.0, "name": "38dd05c8a04df960e6d18a01549a88de", "fusion_lon": 0.0}, {"is_reserved": 0, "type": "electric_scooter", "bike_id": "afadb787cb967ea820a32d7e858297c6", "lat": 38.91803483333333, "lon": -77.034382, "rental_uris": {"android": "https://dc.lft.to/lastmile_qr_scan", "ios": "https://dc.lft.to/lastmile_qr_scan"}, "is_disabled": 0, "fusion_lat": 0.0, "name": "afadb787cb967ea820a32d7e858297c6", "fusion_lon": 0.0}, {"is_reserved": 0, "type": "electric_scooter", "bike_id": "db78e95c95ef5921cb6cce6fec9fde95", "lat": 38.916575333333334, "lon": -77.0247855, "rental_uris": {"android": "https://dc.lft.to/lastmile_qr_scan", "ios": "https://dc.lft.to/lastmile_qr_scan"}, "is_disabled": 0, "fusion_lat": 0.0, "name": "db78e95c95ef5921cb6cce6fec9fde95", "fusion_lon": 0.0}, {"is_reserved": 0, "type": "electric_scooter", "bike_id": "800d5e30fc817a00a2111b1486df31b5", "lat": 38.915588166666666, "lon": -77.0325935, "rental_uris": {"android": "https://dc.lft.to/lastmile_qr_scan", "ios": "https://dc.lft.to/lastmile_qr_scan"}, "is_disabled": 0, "fusion_lat": 0.0, "name": "800d5e30fc817a00a2111b1486df31b5", "fusion_lon": 0.0}, {"is_reserved": 0, "type": "electric_scooter", "bike_id": "ff34e809f3f3292c65b4640e43cb9bbf", "lat": 38.89226216666667, "lon": -77.0499925, "rental_uris": {"android": "https://dc.lft.to/lastmile_qr_scan", "ios": "https://dc.lft.to/lastmile_qr_scan"}, "is_disabled": 0, "fusion_lat": 0.0, "name": "ff34e809f3f3292c65b4640e43cb9bbf", "fusion_lon": 0.0}, {"is_reserved": 0, "type": "electric_scooter", "bike_id": "8a2d44b7797b47942406c6ce719ab5c3", "lat": 38.91961416666667, "lon": -77.0179325, "rental_uris": {"android": "https://dc.lft.to/lastmile_qr_scan", "ios": "https://dc.lft.to/lastmile_qr_scan"}, "is_disabled": 0, "fusion_lat": 0.0, "name": "8a2d44b7797b47942406c6ce719ab5c3", "fusion_lon": 0.0}, {"is_reserved": 0, "type": "electric_scooter", "bike_id": "7e1740dc963eb77f0a2a2f826ac95229", "lat": 38.900251833333336, "lon": -77.00209483333333, "rental_uris": {"android": "https://dc.lft.to/lastmile_qr_scan", "ios": "https://dc.lft.to/lastmile_qr_scan"}, "is_disabled": 0, "fusion_lat": 0.0, "name": "7e1740dc963eb77f0a2a2f826ac95229", "fusion_lon": 0.0}, {"is_reserved": 0, "type": "electric_scooter", "bike_id": "6912f69fa64445c04388bf3776d1940f", "lat": 38.867181333333335, "lon": -76.98072533333334, "rental_uris": {"android": "https://dc.lft.to/lastmile_qr_scan", "ios": "https://dc.lft.to/lastmile_qr_scan"}, "is_disabled": 0, "fusion_lat": 0.0, "name": "6912f69fa64445c04388bf3776d1940f", "fusion_lon": 0.0}, {"is_reserved": 0, "type": "electric_scooter", "bike_id": "ca9b7a8c9e79e2408955fc5112ab16a9", "lat": 38.89231083333333, "lon": -77.0176815, "rental_uris": {"android": "https://dc.lft.to/lastmile_qr_scan", "ios": "https://dc.lft.to/lastmile_qr_scan"}, "is_disabled": 0, "fusion_lat": 0.0, "name": "ca9b7a8c9e79e2408955fc5112ab16a9", "fusion_lon": 0.0}, {"is_reserved": 0, "type": "electric_scooter", "bike_id": "05adeeaaeb7c0b25c7d3f919864f073a", "lat": 38.90655816666667, "lon": -77.0757205, "rental_uris": {"android": "https://dc.lft.to/lastmile_qr_scan", "ios": "https://dc.lft.to/lastmile_qr_scan"}, "is_disabled": 0, "fusion_lat": 0.0, "name": "05adeeaaeb7c0b25c7d3f919864f073a", "fusion_lon": 0.0}, {"is_reserved": 0, "type": "electric_scooter", "bike_id": "6499cc635cf3b37144aaf2b1b1d7ce74", "lat": 38.9518485, "lon": -77.02616366666666, "rental_uris": {"android": "https://dc.lft.to/lastmile_qr_scan", "ios": "https://dc.lft.to/lastmile_qr_scan"}, "is_disabled": 0, "fusion_lat": 0.0, "name": "6499cc635cf3b37144aaf2b1b1d7ce74", "fusion_lon": 0.0}, {"is_reserved": 0, "type": "electric_scooter", "bike_id": "672f76be0b0f1cbe0989ac87767ac946", "lat": 38.9242665, "lon": -77.03537633333333, "rental_uris": {"android": "https://dc.lft.to/lastmile_qr_scan", "ios": "https://dc.lft.to/lastmile_qr_scan"}, "is_disabled": 0, "fusion_lat": 0.0, "name": "672f76be0b0f1cbe0989ac87767ac946", "fusion_lon": 0.0}, {"is_reserved": 0, "type": "electric_bike", "bike_id": "dfcb99fa86c3a95982d1c987c5277d76", "lat": 38.89560316666667, "lon": -77.01102933333334, "rental_uris": {"android": "https://dc.lft.to/lastmile_qr_scan", "ios": "https://dc.lft.to/lastmile_qr_scan"}, "is_disabled": 0, "fusion_lat": 0.0, "name": "dfcb99fa86c3a95982d1c987c5277d76", "fusion_lon": 0.0}, {"is_reserved": 0, "type": "electric_scooter", "bike_id": "eb22d827a2878eaf76983eb057e44a4e", "lat": 38.937009, "lon": -77.05598166666667, "rental_uris": {"android": "https://dc.lft.to/lastmile_qr_scan", "ios": "https://dc.lft.to/lastmile_qr_scan"}, "is_disabled": 0, "fusion_lat": 0.0, "name": "eb22d827a2878eaf76983eb057e44a4e", "fusion_lon": 0.0}, {"is_reserved": 0, "type": "electric_scooter", "bike_id": "866b4ccb9b706bec5dd7f80e0f7b0f5c", "lat": 38.90580716666667, "lon": -76.98434833333333, "rental_uris": {"android": "https://dc.lft.to/lastmile_qr_scan", "ios": "https://dc.lft.to/lastmile_qr_scan"}, "is_disabled": 0, "fusion_lat": 0.0, "name": "866b4ccb9b706bec5dd7f80e0f7b0f5c", "fusion_lon": 0.0}, {"is_reserved": 0, "type": "electric_scooter", "bike_id": "7c1a062aa90dbfa3f01a9cd23b8ad968", "lat": 38.89980516666667, "lon": -77.02319716666666, "rental_uris": {"android": "https://dc.lft.to/lastmile_qr_scan", "ios": "https://dc.lft.to/lastmile_qr_scan"}, "is_disabled": 0, "fusion_lat": 0.0, "name": "7c1a062aa90dbfa3f01a9cd23b8ad968", "fusion_lon": 0.0}, {"is_reserved": 0, "type": "electric_scooter", "bike_id": "b791adca7f00e1575a4208199aa2044b", "lat": 38.887415, "lon": -76.98360766666667, "rental_uris": {"android": "https://dc.lft.to/lastmile_qr_scan", "ios": "https://dc.lft.to/lastmile_qr_scan"}, "is_disabled": 0, "fusion_lat": 0.0, "name": "b791adca7f00e1575a4208199aa2044b", "fusion_lon": 0.0}, {"is_reserved": 0, "type": "electric_scooter", "bike_id": "8f35bc1f5a761ebc2deda5ae5059a474", "lat": 38.900171666666665, "lon": -77.02598283333333, "rental_uris": {"android": "https://dc.lft.to/lastmile_qr_scan", "ios": "https://dc.lft.to/lastmile_qr_scan"}, "is_disabled": 0, "fusion_lat": 0.0, "name": "8f35bc1f5a761ebc2deda5ae5059a474", "fusion_lon": 0.0}, {"is_reserved": 0, "type": "electric_scooter", "bike_id": "50404545a36f42f356ed54d50bdfd40a", "lat": 38.895231, "lon": -76.9921565, "rental_uris": {"android": "https://dc.lft.to/lastmile_qr_scan", "ios": "https://dc.lft.to/lastmile_qr_scan"}, "is_disabled": 0, "fusion_lat": 0.0, "name": "50404545a36f42f356ed54d50bdfd40a", "fusion_lon": 0.0}, {"is_reserved": 0, "type": "electric_scooter", "bike_id": "0563011380485437fd9c36a2f8c93344", "lat": 38.92758333333333, "lon": -77.02441466666667, "rental_uris": {"android": "https://dc.lft.to/lastmile_qr_scan", "ios": "https://dc.lft.to/lastmile_qr_scan"}, "is_disabled": 0, "fusion_lat": 0.0, "name": "0563011380485437fd9c36a2f8c93344", "fusion_lon": 0.0}, {"is_reserved": 0, "type": "electric_scooter", "bike_id": "d47822da8596f7db067034cb48b66517", "lat": 38.89239583333333, "lon": -77.0503895, "rental_uris": {"android": "https://dc.lft.to/lastmile_qr_scan", "ios": "https://dc.lft.to/lastmile_qr_scan"}, "is_disabled": 0, "fusion_lat": 0.0, "name": "d47822da8596f7db067034cb48b66517", "fusion_lon": 0.0}, {"is_reserved": 0, "type": "electric_scooter", "bike_id": "5e8619bc86a7ed9f510dd7a326a814e1", "lat": 38.923684333333334, "lon": -77.0432255, "rental_uris": {"android": "https://dc.lft.to/lastmile_qr_scan", "ios": "https://dc.lft.to/lastmile_qr_scan"}, "is_disabled": 0, "fusion_lat": 0.0, "name": "5e8619bc86a7ed9f510dd7a326a814e1", "fusion_lon": 0.0}, {"is_reserved": 0, "type": "electric_scooter", "bike_id": "b814b6e0733e9699bbd7e5ae81d81e4b", "lat": 38.92568983333334, "lon": -77.02283066666666, "rental_uris": {"android": "https://dc.lft.to/lastmile_qr_scan", "ios": "https://dc.lft.to/lastmile_qr_scan"}, "is_disabled": 0, "fusion_lat": 0.0, "name": "b814b6e0733e9699bbd7e5ae81d81e4b", "fusion_lon": 0.0}, {"is_reserved": 0, "type": "electric_scooter", "bike_id": "66febcb8f8d5c97e15a839ea2ac47b45", "lat": 38.92608366666666, "lon": -77.02414333333333, "rental_uris": {"android": "https://dc.lft.to/lastmile_qr_scan", "ios": "https://dc.lft.to/lastmile_qr_scan"}, "is_disabled": 0, "fusion_lat": 0.0, "name": "66febcb8f8d5c97e15a839ea2ac47b45", "fusion_lon": 0.0}, {"is_reserved": 0, "type": "electric_scooter", "bike_id": "fada52a97d1c1883fa59d3a3e679981f", "lat": 38.91681666666667, "lon": -77.02389366666667, "rental_uris": {"android": "https://dc.lft.to/lastmile_qr_scan", "ios": "https://dc.lft.to/lastmile_qr_scan"}, "is_disabled": 0, "fusion_lat": 0.0, "name": "fada52a97d1c1883fa59d3a3e679981f", "fusion_lon": 0.0}, {"is_reserved": 0, "type": "electric_scooter", "bike_id": "c9978234cd28aee4cf8ddee919d91c82", "lat": 38.898255666666664, "lon": -77.029479, "rental_uris": {"android": "https://dc.lft.to/lastmile_qr_scan", "ios": "https://dc.lft.to/lastmile_qr_scan"}, "is_disabled": 0, "fusion_lat": 0.0, "name": "c9978234cd28aee4cf8ddee919d91c82", "fusion_lon": 0.0}, {"is_reserved": 0, "type": "electric_scooter", "bike_id": "98b0e936958304e70e77b30576d78fc2", "lat": 38.9078255, "lon": -77.04523, "rental_uris": {"android": "https://dc.lft.to/lastmile_qr_scan", "ios": "https://dc.lft.to/lastmile_qr_scan"}, "is_disabled": 0, "fusion_lat": 0.0, "name": "98b0e936958304e70e77b30576d78fc2", "fusion_lon": 0.0}, {"is_reserved": 0, "type": "electric_scooter", "bike_id": "6153361034ed2313963d83a3bcd511e9", "lat": 38.8802645, "lon": -77.024626, "rental_uris": {"android": "https://dc.lft.to/lastmile_qr_scan", "ios": "https://dc.lft.to/lastmile_qr_scan"}, "is_disabled": 0, "fusion_lat": 0.0, "name": "6153361034ed2313963d83a3bcd511e9", "fusion_lon": 0.0}, {"is_reserved": 0, "type": "electric_scooter", "bike_id": "714ce1be35101ab8b1d51bdf2fcdb6fb", "lat": 38.9141605, "lon": -77.01881983333334, "rental_uris": {"android": "https://dc.lft.to/lastmile_qr_scan", "ios": "https://dc.lft.to/lastmile_qr_scan"}, "is_disabled": 0, "fusion_lat": 0.0, "name": "714ce1be35101ab8b1d51bdf2fcdb6fb", "fusion_lon": 0.0}, {"is_reserved": 0, "type": "electric_scooter", "bike_id": "34c61117b48c6d869d0d67c277de1518", "lat": 38.876576166666666, "lon": -77.005862, "rental_uris": {"android": "https://dc.lft.to/lastmile_qr_scan", "ios": "https://dc.lft.to/lastmile_qr_scan"}, "is_disabled": 0, "fusion_lat": 0.0, "name": "34c61117b48c6d869d0d67c277de1518", "fusion_lon": 0.0}, {"is_reserved": 0, "type": "electric_scooter", "bike_id": "1c685bfd558afc106c4cc5188f5d8cb8", "lat": 38.95187166666667, "lon": -77.029297, "rental_uris": {"android": "https://dc.lft.to/lastmile_qr_scan", "ios": "https://dc.lft.to/lastmile_qr_scan"}, "is_disabled": 0, "fusion_lat": 0.0, "name": "1c685bfd558afc106c4cc5188f5d8cb8", "fusion_lon": 0.0}, {"is_reserved": 0, "type": "electric_scooter", "bike_id": "f85bc50536585c9c12a0cdaf307fe8ef", "lat": 38.93016566666667, "lon": -77.02338483333334, "rental_uris": {"android": "https://dc.lft.to/lastmile_qr_scan", "ios": "https://dc.lft.to/lastmile_qr_scan"}, "is_disabled": 0, "fusion_lat": 0.0, "name": "f85bc50536585c9c12a0cdaf307fe8ef", "fusion_lon": 0.0}, {"is_reserved": 0, "type": "electric_scooter", "bike_id": "22dac51f1bbf7babe15086c72b639cbf", "lat": 38.91187083333333, "lon": -77.02394533333333, "rental_uris": {"android": "https://dc.lft.to/lastmile_qr_scan", "ios": "https://dc.lft.to/lastmile_qr_scan"}, "is_disabled": 0, "fusion_lat": 0.0, "name": "22dac51f1bbf7babe15086c72b639cbf", "fusion_lon": 0.0}, {"is_reserved": 0, "type": "electric_scooter", "bike_id": "d8dbd1f709483e716402a583f57bc587", "lat": 38.895623, "lon": -77.03966683333333, "rental_uris": {"android": "https://dc.lft.to/lastmile_qr_scan", "ios": "https://dc.lft.to/lastmile_qr_scan"}, "is_disabled": 0, "fusion_lat": 0.0, "name": "d8dbd1f709483e716402a583f57bc587", "fusion_lon": 0.0}, {"is_reserved": 0, "type": "electric_scooter", "bike_id": "c0add9b791f78e1a4e796189fe425499", "lat": 38.87183183333333, "lon": -77.00615933333333, "rental_uris": {"android": "https://dc.lft.to/lastmile_qr_scan", "ios": "https://dc.lft.to/lastmile_qr_scan"}, "is_disabled": 0, "fusion_lat": 0.0, "name": "c0add9b791f78e1a4e796189fe425499", "fusion_lon": 0.0}, {"is_reserved": 0, "type": "electric_scooter", "bike_id": "8c8a03820204345a521fff7624d4b6fe", "lat": 38.9110555, "lon": -77.019079, "rental_uris": {"android": "https://dc.lft.to/lastmile_qr_scan", "ios": "https://dc.lft.to/lastmile_qr_scan"}, "is_disabled": 0, "fusion_lat": 0.0, "name": "8c8a03820204345a521fff7624d4b6fe", "fusion_lon": 0.0}, {"is_reserved": 0, "type": "electric_scooter", "bike_id": "d5f3e1e609179de2224a5586bab0d11a", "lat": 38.88727933333333, "lon": -76.98381983333333, "rental_uris": {"android": "https://dc.lft.to/lastmile_qr_scan", "ios": "https://dc.lft.to/lastmile_qr_scan"}, "is_disabled": 0, "fusion_lat": 0.0, "name": "d5f3e1e609179de2224a5586bab0d11a", "fusion_lon": 0.0}, {"is_reserved": 0, "type": "electric_scooter", "bike_id": "3a4b27a96c8ce5ef643975659abeb981", "lat": 38.92167633333333, "lon": -77.04004566666667, "rental_uris": {"android": "https://dc.lft.to/lastmile_qr_scan", "ios": "https://dc.lft.to/lastmile_qr_scan"}, "is_disabled": 0, "fusion_lat": 0.0, "name": "3a4b27a96c8ce5ef643975659abeb981", "fusion_lon": 0.0}, {"is_reserved": 0, "type": "electric_scooter", "bike_id": "ae156a5f8af097f7d353b281b149eca5", "lat": 38.894481166666665, "lon": -77.04535383333334, "rental_uris": {"android": "https://dc.lft.to/lastmile_qr_scan", "ios": "https://dc.lft.to/lastmile_qr_scan"}, "is_disabled": 0, "fusion_lat": 0.0, "name": "ae156a5f8af097f7d353b281b149eca5", "fusion_lon": 0.0}, {"is_reserved": 0, "type": "electric_scooter", "bike_id": "4ac281588e0a3dd5d3a27f5a83aeb9d7", "lat": 38.895743333333336, "lon": -77.041357, "rental_uris": {"android": "https://dc.lft.to/lastmile_qr_scan", "ios": "https://dc.lft.to/lastmile_qr_scan"}, "is_disabled": 0, "fusion_lat": 0.0, "name": "4ac281588e0a3dd5d3a27f5a83aeb9d7", "fusion_lon": 0.0}, {"is_reserved": 0, "type": "electric_scooter", "bike_id": "af7c963b4240550a924712a9ea2675e0", "lat": 38.918753333333335, "lon": -77.03588416666666, "rental_uris": {"android": "https://dc.lft.to/lastmile_qr_scan", "ios": "https://dc.lft.to/lastmile_qr_scan"}, "is_disabled": 0, "fusion_lat": 0.0, "name": "af7c963b4240550a924712a9ea2675e0", "fusion_lon": 0.0}, {"is_reserved": 0, "type": "electric_scooter", "bike_id": "bda3edc586b62dd500bb7ea63aab6073", "lat": 38.903867, "lon": -77.0163955, "rental_uris": {"android": "https://dc.lft.to/lastmile_qr_scan", "ios": "https://dc.lft.to/lastmile_qr_scan"}, "is_disabled": 0, "fusion_lat": 0.0, "name": "bda3edc586b62dd500bb7ea63aab6073", "fusion_lon": 0.0}, {"is_reserved": 0, "type": "electric_bike", "bike_id": "522b793c4ac3e105b8e1516727e91d24", "lat": 38.965639833333334, "lon": -77.02821833333333, "rental_uris": {"android": "https://dc.lft.to/lastmile_qr_scan", "ios": "https://dc.lft.to/lastmile_qr_scan"}, "is_disabled": 0, "fusion_lat": 0.0, "name": "522b793c4ac3e105b8e1516727e91d24", "fusion_lon": 0.0}, {"is_reserved": 0, "type": "electric_scooter", "bike_id": "26b2b05b14df6960150460c0a9a40e4b", "lat": 38.900922333333334, "lon": -76.98019066666667, "rental_uris": {"android": "https://dc.lft.to/lastmile_qr_scan", "ios": "https://dc.lft.to/lastmile_qr_scan"}, "is_disabled": 0, "fusion_lat": 0.0, "name": "26b2b05b14df6960150460c0a9a40e4b", "fusion_lon": 0.0}, {"is_reserved": 0, "type": "electric_scooter", "bike_id": "ec819bddcab9dbc04b05893fba4574a3", "lat": 38.9079715, "lon": -77.04784916666667, "rental_uris": {"android": "https://dc.lft.to/lastmile_qr_scan", "ios": "https://dc.lft.to/lastmile_qr_scan"}, "is_disabled": 0, "fusion_lat": 0.0, "name": "ec819bddcab9dbc04b05893fba4574a3", "fusion_lon": 0.0}, {"is_reserved": 0, "type": "electric_scooter", "bike_id": "be4d39b51914000da721bd2b1b1421ea", "lat": 38.90972566666667, "lon": -77.007712, "rental_uris": {"android": "https://dc.lft.to/lastmile_qr_scan", "ios": "https://dc.lft.to/lastmile_qr_scan"}, "is_disabled": 0, "fusion_lat": 0.0, "name": "be4d39b51914000da721bd2b1b1421ea", "fusion_lon": 0.0}, {"is_reserved": 0, "type": "electric_scooter", "bike_id": "3ced3518de796083100be2a1cf8ca2a7", "lat": 38.92574833333333, "lon": -77.03750616666666, "rental_uris": {"android": "https://dc.lft.to/lastmile_qr_scan", "ios": "https://dc.lft.to/lastmile_qr_scan"}, "is_disabled": 0, "fusion_lat": 0.0, "name": "3ced3518de796083100be2a1cf8ca2a7", "fusion_lon": 0.0}, {"is_reserved": 0, "type": "electric_scooter", "bike_id": "6a0f9ad3facedb71df8b50871d5d12f7", "lat": 38.8833875, "lon": -76.9428735, "rental_uris": {"android": "https://dc.lft.to/lastmile_qr_scan", "ios": "https://dc.lft.to/lastmile_qr_scan"}, "is_disabled": 0, "fusion_lat": 0.0, "name": "6a0f9ad3facedb71df8b50871d5d12f7", "fusion_lon": 0.0}, {"is_reserved": 0, "type": "electric_scooter", "bike_id": "b9c6b885832372a8cda1877da38384b7", "lat": 38.88426783333333, "lon": -77.02554633333334, "rental_uris": {"android": "https://dc.lft.to/lastmile_qr_scan", "ios": "https://dc.lft.to/lastmile_qr_scan"}, "is_disabled": 0, "fusion_lat": 0.0, "name": "b9c6b885832372a8cda1877da38384b7", "fusion_lon": 0.0}, {"is_reserved": 0, "type": "electric_scooter", "bike_id": "488095c57c452b8cd9a70461a6f7bead", "lat": 38.8924875, "lon": -76.99506583333333, "rental_uris": {"android": "https://dc.lft.to/lastmile_qr_scan", "ios": "https://dc.lft.to/lastmile_qr_scan"}, "is_disabled": 0, "fusion_lat": 0.0, "name": "488095c57c452b8cd9a70461a6f7bead", "fusion_lon": 0.0}, {"is_reserved": 0, "type": "electric_scooter", "bike_id": "9622c80d2a674c16411d1c13cb9fe163", "lat": 38.88736033333333, "lon": -77.02839116666667, "rental_uris": {"android": "https://dc.lft.to/lastmile_qr_scan", "ios": "https://dc.lft.to/lastmile_qr_scan"}, "is_disabled": 0, "fusion_lat": 0.0, "name": "9622c80d2a674c16411d1c13cb9fe163", "fusion_lon": 0.0}, {"is_reserved": 0, "type": "electric_scooter", "bike_id": "ae83dcc74c452335c42ebbb67d1cd976", "lat": 38.89676133333333, "lon": -77.005183, "rental_uris": {"android": "https://dc.lft.to/lastmile_qr_scan", "ios": "https://dc.lft.to/lastmile_qr_scan"}, "is_disabled": 0, "fusion_lat": 0.0, "name": "ae83dcc74c452335c42ebbb67d1cd976", "fusion_lon": 0.0}, {"is_reserved": 0, "type": "electric_bike", "bike_id": "98415c15d3cd9e30cc4beb459623f139", "lat": 38.8708015, "lon": -77.11056733333334, "rental_uris": {"android": "https://dc.lft.to/lastmile_qr_scan", "ios": "https://dc.lft.to/lastmile_qr_scan"}, "is_disabled": 0, "fusion_lat": 0.0, "name": "98415c15d3cd9e30cc4beb459623f139", "fusion_lon": 0.0}, {"is_reserved": 0, "type": "electric_scooter", "bike_id": "28834c5bcf45af9130a6666e87852880", "lat": 38.914713666666664, "lon": -77.03200666666666, "rental_uris": {"android": "https://dc.lft.to/lastmile_qr_scan", "ios": "https://dc.lft.to/lastmile_qr_scan"}, "is_disabled": 0, "fusion_lat": 0.0, "name": "28834c5bcf45af9130a6666e87852880", "fusion_lon": 0.0}, {"is_reserved": 0, "type": "electric_scooter", "bike_id": "0788e2da45aaeec99577e62b09a6ff4a", "lat": 38.89607133333333, "lon": -77.00894166666667, "rental_uris": {"android": "https://dc.lft.to/lastmile_qr_scan", "ios": "https://dc.lft.to/lastmile_qr_scan"}, "is_disabled": 0, "fusion_lat": 0.0, "name": "0788e2da45aaeec99577e62b09a6ff4a", "fusion_lon": 0.0}, {"is_reserved": 0, "type": "electric_scooter", "bike_id": "b8c083654db52dacfe17f569adc7e713", "lat": 38.924369666666664, "lon": -77.00073683333333, "rental_uris": {"android": "https://dc.lft.to/lastmile_qr_scan", "ios": "https://dc.lft.to/lastmile_qr_scan"}, "is_disabled": 0, "fusion_lat": 0.0, "name": "b8c083654db52dacfe17f569adc7e713", "fusion_lon": 0.0}, {"is_reserved": 0, "type": "electric_scooter", "bike_id": "763513800ff3592989abe6761cf4a66e", "lat": 38.90031666666667, "lon": -76.998676, "rental_uris": {"android": "https://dc.lft.to/lastmile_qr_scan", "ios": "https://dc.lft.to/lastmile_qr_scan"}, "is_disabled": 0, "fusion_lat": 0.0, "name": "763513800ff3592989abe6761cf4a66e", "fusion_lon": 0.0}, {"is_reserved": 0, "type": "electric_scooter", "bike_id": "74818ec2dcea29719a2c778e27836370", "lat": 38.91611783333333, "lon": -77.03741333333333, "rental_uris": {"android": "https://dc.lft.to/lastmile_qr_scan", "ios": "https://dc.lft.to/lastmile_qr_scan"}, "is_disabled": 0, "fusion_lat": 0.0, "name": "74818ec2dcea29719a2c778e27836370", "fusion_lon": 0.0}, {"is_reserved": 0, "type": "electric_scooter", "bike_id": "b0d9295fdadcab4eed8951ce09e4b0fa", "lat": 38.95050066666667, "lon": -77.0541805, "rental_uris": {"android": "https://dc.lft.to/lastmile_qr_scan", "ios": "https://dc.lft.to/lastmile_qr_scan"}, "is_disabled": 0, "fusion_lat": 0.0, "name": "b0d9295fdadcab4eed8951ce09e4b0fa", "fusion_lon": 0.0}, {"is_reserved": 0, "type": "electric_scooter", "bike_id": "75855e8051c77371df333363a7fee39a", "lat": 38.87795666666667, "lon": -77.01754583333333, "rental_uris": {"android": "https://dc.lft.to/lastmile_qr_scan", "ios": "https://dc.lft.to/lastmile_qr_scan"}, "is_disabled": 0, "fusion_lat": 0.0, "name": "75855e8051c77371df333363a7fee39a", "fusion_lon": 0.0}, {"is_reserved": 0, "type": "electric_bike", "bike_id": "6af4557bafc5eb09e83cf79992a08cb1", "lat": 38.944756, "lon": -76.9869325, "rental_uris": {"android": "https://dc.lft.to/lastmile_qr_scan", "ios": "https://dc.lft.to/lastmile_qr_scan"}, "is_disabled": 0, "fusion_lat": 0.0, "name": "6af4557bafc5eb09e83cf79992a08cb1", "fusion_lon": 0.0}, {"is_reserved": 0, "type": "electric_scooter", "bike_id": "3ea35836c11bc5dd577b5d20e04c0cba", "lat": 38.93192283333333, "lon": -77.023705, "rental_uris": {"android": "https://dc.lft.to/lastmile_qr_scan", "ios": "https://dc.lft.to/lastmile_qr_scan"}, "is_disabled": 0, "fusion_lat": 0.0, "name": "3ea35836c11bc5dd577b5d20e04c0cba", "fusion_lon": 0.0}, {"is_reserved": 0, "type": "electric_scooter", "bike_id": "b921f848d02974c3f5f5bf0ba5bcfc1a", "lat": 38.892480166666665, "lon": -77.013466, "rental_uris": {"android": "https://dc.lft.to/lastmile_qr_scan", "ios": "https://dc.lft.to/lastmile_qr_scan"}, "is_disabled": 0, "fusion_lat": 0.0, "name": "b921f848d02974c3f5f5bf0ba5bcfc1a", "fusion_lon": 0.0}, {"is_reserved": 0, "type": "electric_scooter", "bike_id": "d1e95961ba2622e4cd3795ff5abf3ab4", "lat": 38.9192265, "lon": -77.0481655, "rental_uris": {"android": "https://dc.lft.to/lastmile_qr_scan", "ios": "https://dc.lft.to/lastmile_qr_scan"}, "is_disabled": 0, "fusion_lat": 0.0, "name": "d1e95961ba2622e4cd3795ff5abf3ab4", "fusion_lon": 0.0}, {"is_reserved": 0, "type": "electric_scooter", "bike_id": "8b7569c51420ff72e8767659b9700289", "lat": 38.937627666666664, "lon": -77.02839616666667, "rental_uris": {"android": "https://dc.lft.to/lastmile_qr_scan", "ios": "https://dc.lft.to/lastmile_qr_scan"}, "is_disabled": 0, "fusion_lat": 0.0, "name": "8b7569c51420ff72e8767659b9700289", "fusion_lon": 0.0}, {"is_reserved": 0, "type": "electric_scooter", "bike_id": "fd78507ef944b1c99c0204e2ea5408e6", "lat": 38.89224766666667, "lon": -77.04684866666666, "rental_uris": {"android": "https://dc.lft.to/lastmile_qr_scan", "ios": "https://dc.lft.to/lastmile_qr_scan"}, "is_disabled": 0, "fusion_lat": 0.0, "name": "fd78507ef944b1c99c0204e2ea5408e6", "fusion_lon": 0.0}, {"is_reserved": 0, "type": "electric_scooter", "bike_id": "fe2553d954093c8a66fc978821e58d17", "lat": 38.926554333333335, "lon": -77.03714266666667, "rental_uris": {"android": "https://dc.lft.to/lastmile_qr_scan", "ios": "https://dc.lft.to/lastmile_qr_scan"}, "is_disabled": 0, "fusion_lat": 0.0, "name": "fe2553d954093c8a66fc978821e58d17", "fusion_lon": 0.0}, {"is_reserved": 0, "type": "electric_scooter", "bike_id": "0d0766d2e2500fc1fdc04ce2637e1fc2", "lat": 38.91460716666667, "lon": -76.9843655, "rental_uris": {"android": "https://dc.lft.to/lastmile_qr_scan", "ios": "https://dc.lft.to/lastmile_qr_scan"}, "is_disabled": 0, "fusion_lat": 0.0, "name": "0d0766d2e2500fc1fdc04ce2637e1fc2", "fusion_lon": 0.0}, {"is_reserved": 0, "type": "electric_scooter", "bike_id": "579f45d62fcf2f9d2acbb0327c47d739", "lat": 38.919891166666666, "lon": -77.03313583333333, "rental_uris": {"android": "https://dc.lft.to/lastmile_qr_scan", "ios": "https://dc.lft.to/lastmile_qr_scan"}, "is_disabled": 0, "fusion_lat": 0.0, "name": "579f45d62fcf2f9d2acbb0327c47d739", "fusion_lon": 0.0}, {"is_reserved": 0, "type": "electric_scooter", "bike_id": "ac2c685f2d479c0f1a7086b66b564595", "lat": 38.903716833333334, "lon": -76.9849525, "rental_uris": {"android": "https://dc.lft.to/lastmile_qr_scan", "ios": "https://dc.lft.to/lastmile_qr_scan"}, "is_disabled": 0, "fusion_lat": 0.0, "name": "ac2c685f2d479c0f1a7086b66b564595", "fusion_lon": 0.0}, {"is_reserved": 0, "type": "electric_scooter", "bike_id": "98c08e61cdb4d30b1e1a56fbd4c09880", "lat": 38.934212, "lon": -77.03381216666666, "rental_uris": {"android": "https://dc.lft.to/lastmile_qr_scan", "ios": "https://dc.lft.to/lastmile_qr_scan"}, "is_disabled": 0, "fusion_lat": 0.0, "name": "98c08e61cdb4d30b1e1a56fbd4c09880", "fusion_lon": 0.0}, {"is_reserved": 0, "type": "electric_scooter", "bike_id": "eb1f534067991dce3b9237fe6d742288", "lat": 38.92484416666667, "lon": -77.02721266666667, "rental_uris": {"android": "https://dc.lft.to/lastmile_qr_scan", "ios": "https://dc.lft.to/lastmile_qr_scan"}, "is_disabled": 0, "fusion_lat": 0.0, "name": "eb1f534067991dce3b9237fe6d742288", "fusion_lon": 0.0}, {"is_reserved": 0, "type": "electric_scooter", "bike_id": "b8386f24d5ccd465ea73102184b757bb", "lat": 38.899780666666665, "lon": -76.99482133333333, "rental_uris": {"android": "https://dc.lft.to/lastmile_qr_scan", "ios": "https://dc.lft.to/lastmile_qr_scan"}, "is_disabled": 0, "fusion_lat": 0.0, "name": "b8386f24d5ccd465ea73102184b757bb", "fusion_lon": 0.0}, {"is_reserved": 0, "type": "electric_scooter", "bike_id": "04220f4763b51b9bcad2aaa0835735b9", "lat": 38.894915833333336, "lon": -77.0216255, "rental_uris": {"android": "https://dc.lft.to/lastmile_qr_scan", "ios": "https://dc.lft.to/lastmile_qr_scan"}, "is_disabled": 0, "fusion_lat": 0.0, "name": "04220f4763b51b9bcad2aaa0835735b9", "fusion_lon": 0.0}, {"is_reserved": 0, "type": "electric_scooter", "bike_id": "da15b61615e44ac089204516d7f05778", "lat": 38.8775335, "lon": -77.0187575, "rental_uris": {"android": "https://dc.lft.to/lastmile_qr_scan", "ios": "https://dc.lft.to/lastmile_qr_scan"}, "is_disabled": 0, "fusion_lat": 0.0, "name": "da15b61615e44ac089204516d7f05778", "fusion_lon": 0.0}, {"is_reserved": 0, "type": "electric_scooter", "bike_id": "5ebe7d0bec5edf2297b210e0f1ba8450", "lat": 38.9057605, "lon": -77.007929, "rental_uris": {"android": "https://dc.lft.to/lastmile_qr_scan", "ios": "https://dc.lft.to/lastmile_qr_scan"}, "is_disabled": 0, "fusion_lat": 0.0, "name": "5ebe7d0bec5edf2297b210e0f1ba8450", "fusion_lon": 0.0}, {"is_reserved": 0, "type": "electric_scooter", "bike_id": "0165d88b45310006327588e98d8daf4f", "lat": 38.916512833333336, "lon": -77.0238385, "rental_uris": {"android": "https://dc.lft.to/lastmile_qr_scan", "ios": "https://dc.lft.to/lastmile_qr_scan"}, "is_disabled": 0, "fusion_lat": 0.0, "name": "0165d88b45310006327588e98d8daf4f", "fusion_lon": 0.0}, {"is_reserved": 0, "type": "electric_bike", "bike_id": "c6879dd12e9dbd481bdcf36d83cc547d", "lat": 38.88604933333333, "lon": -77.14234916666666, "rental_uris": {"android": "https://dc.lft.to/lastmile_qr_scan", "ios": "https://dc.lft.to/lastmile_qr_scan"}, "is_disabled": 0, "fusion_lat": 0.0, "name": "c6879dd12e9dbd481bdcf36d83cc547d", "fusion_lon": 0.0}, {"is_reserved": 0, "type": "electric_scooter", "bike_id": "3df942492a1205e862e724882c1bdae5", "lat": 38.915546, "lon": -77.03993133333333, "rental_uris": {"android": "https://dc.lft.to/lastmile_qr_scan", "ios": "https://dc.lft.to/lastmile_qr_scan"}, "is_disabled": 0, "fusion_lat": 0.0, "name": "3df942492a1205e862e724882c1bdae5", "fusion_lon": 0.0}, {"is_reserved": 0, "type": "electric_scooter", "bike_id": "84f136d17e2e9a1c62ccded30d0684dd", "lat": 38.89893133333333, "lon": -77.0327685, "rental_uris": {"android": "https://dc.lft.to/lastmile_qr_scan", "ios": "https://dc.lft.to/lastmile_qr_scan"}, "is_disabled": 0, "fusion_lat": 0.0, "name": "84f136d17e2e9a1c62ccded30d0684dd", "fusion_lon": 0.0}, {"is_reserved": 0, "type": "electric_scooter", "bike_id": "f77f2951b69664b4f5621f315c4a5607", "lat": 38.91876166666667, "lon": -77.03647783333334, "rental_uris": {"android": "https://dc.lft.to/lastmile_qr_scan", "ios": "https://dc.lft.to/lastmile_qr_scan"}, "is_disabled": 0, "fusion_lat": 0.0, "name": "f77f2951b69664b4f5621f315c4a5607", "fusion_lon": 0.0}, {"is_reserved": 0, "type": "electric_scooter", "bike_id": "9b7f8d83caf081139e8d7d48e5672de5", "lat": 38.91263, "lon": -77.00776566666667, "rental_uris": {"android": "https://dc.lft.to/lastmile_qr_scan", "ios": "https://dc.lft.to/lastmile_qr_scan"}, "is_disabled": 0, "fusion_lat": 0.0, "name": "9b7f8d83caf081139e8d7d48e5672de5", "fusion_lon": 0.0}, {"is_reserved": 0, "type": "electric_scooter", "bike_id": "b81ff90c011283831a24322e3d65622b", "lat": 38.897337666666665, "lon": -76.99770916666667, "rental_uris": {"android": "https://dc.lft.to/lastmile_qr_scan", "ios": "https://dc.lft.to/lastmile_qr_scan"}, "is_disabled": 0, "fusion_lat": 0.0, "name": "b81ff90c011283831a24322e3d65622b", "fusion_lon": 0.0}, {"is_reserved": 0, "type": "electric_bike", "bike_id": "48d8b754e4ada45a527bf8d1d9c6f7c1", "lat": 38.94671483333333, "lon": -76.99338333333333, "rental_uris": {"android": "https://dc.lft.to/lastmile_qr_scan", "ios": "https://dc.lft.to/lastmile_qr_scan"}, "is_disabled": 0, "fusion_lat": 0.0, "name": "48d8b754e4ada45a527bf8d1d9c6f7c1", "fusion_lon": 0.0}, {"is_reserved": 0, "type": "electric_bike", "bike_id": "0fe7419f3ead4ca620051229c67a5ec6", "lat": 38.92135483333333, "lon": -77.0040345, "rental_uris": {"android": "https://dc.lft.to/lastmile_qr_scan", "ios": "https://dc.lft.to/lastmile_qr_scan"}, "is_disabled": 0, "fusion_lat": 0.0, "name": "0fe7419f3ead4ca620051229c67a5ec6", "fusion_lon": 0.0}, {"is_reserved": 0, "type": "electric_scooter", "bike_id": "17b982f1244145edd8bcb732a98fd531", "lat": 38.900701833333336, "lon": -77.04877116666667, "rental_uris": {"android": "https://dc.lft.to/lastmile_qr_scan", "ios": "https://dc.lft.to/lastmile_qr_scan"}, "is_disabled": 0, "fusion_lat": 0.0, "name": "17b982f1244145edd8bcb732a98fd531", "fusion_lon": 0.0}, {"is_reserved": 0, "type": "electric_scooter", "bike_id": "6f51b333d3b5e60be3a9b2e3f01d38ae", "lat": 38.8985545, "lon": -77.03951433333333, "rental_uris": {"android": "https://dc.lft.to/lastmile_qr_scan", "ios": "https://dc.lft.to/lastmile_qr_scan"}, "is_disabled": 0, "fusion_lat": 0.0, "name": "6f51b333d3b5e60be3a9b2e3f01d38ae", "fusion_lon": 0.0}, {"is_reserved": 0, "type": "electric_scooter", "bike_id": "ed3cc29c1d536c7ff2e66acb1a8e5399", "lat": 38.9497815, "lon": -77.0244815, "rental_uris": {"android": "https://dc.lft.to/lastmile_qr_scan", "ios": "https://dc.lft.to/lastmile_qr_scan"}, "is_disabled": 0, "fusion_lat": 0.0, "name": "ed3cc29c1d536c7ff2e66acb1a8e5399", "fusion_lon": 0.0}, {"is_reserved": 0, "type": "electric_scooter", "bike_id": "62f5c4c0700d3f8a98028652deda6bbe", "lat": 38.91118, "lon": -77.03834633333334, "rental_uris": {"android": "https://dc.lft.to/lastmile_qr_scan", "ios": "https://dc.lft.to/lastmile_qr_scan"}, "is_disabled": 0, "fusion_lat": 0.0, "name": "62f5c4c0700d3f8a98028652deda6bbe", "fusion_lon": 0.0}, {"is_reserved": 0, "type": "electric_scooter", "bike_id": "f9e4f3af89809a93e5722a58f3d8a3e0", "lat": 38.89970016666667, "lon": -77.030829, "rental_uris": {"android": "https://dc.lft.to/lastmile_qr_scan", "ios": "https://dc.lft.to/lastmile_qr_scan"}, "is_disabled": 0, "fusion_lat": 0.0, "name": "f9e4f3af89809a93e5722a58f3d8a3e0", "fusion_lon": 0.0}, {"is_reserved": 0, "type": "electric_scooter", "bike_id": "1745116234e26851953c58cdf0e309c1", "lat": 38.93726866666667, "lon": -77.032617, "rental_uris": {"android": "https://dc.lft.to/lastmile_qr_scan", "ios": "https://dc.lft.to/lastmile_qr_scan"}, "is_disabled": 0, "fusion_lat": 0.0, "name": "1745116234e26851953c58cdf0e309c1", "fusion_lon": 0.0}, {"is_reserved": 0, "type": "electric_scooter", "bike_id": "fd3d37f05bf81063a3db7dd772b92d67", "lat": 38.95471166666667, "lon": -77.077687, "rental_uris": {"android": "https://dc.lft.to/lastmile_qr_scan", "ios": "https://dc.lft.to/lastmile_qr_scan"}, "is_disabled": 0, "fusion_lat": 0.0, "name": "fd3d37f05bf81063a3db7dd772b92d67", "fusion_lon": 0.0}, {"is_reserved": 0, "type": "electric_scooter", "bike_id": "79b7b0a0f6993f59a698eed57ed2dcf8", "lat": 38.917275833333335, "lon": -77.02983783333333, "rental_uris": {"android": "https://dc.lft.to/lastmile_qr_scan", "ios": "https://dc.lft.to/lastmile_qr_scan"}, "is_disabled": 0, "fusion_lat": 0.0, "name": "79b7b0a0f6993f59a698eed57ed2dcf8", "fusion_lon": 0.0}, {"is_reserved": 0, "type": "electric_scooter", "bike_id": "a3ebec7d55065ae3ff5c6defeb330168", "lat": 38.91467983333333, "lon": -77.02606166666666, "rental_uris": {"android": "https://dc.lft.to/lastmile_qr_scan", "ios": "https://dc.lft.to/lastmile_qr_scan"}, "is_disabled": 0, "fusion_lat": 0.0, "name": "a3ebec7d55065ae3ff5c6defeb330168", "fusion_lon": 0.0}, {"is_reserved": 0, "type": "electric_scooter", "bike_id": "e7cc632104e7b42272ad405c891051e1", "lat": 38.90791683333333, "lon": -77.0096985, "rental_uris": {"android": "https://dc.lft.to/lastmile_qr_scan", "ios": "https://dc.lft.to/lastmile_qr_scan"}, "is_disabled": 0, "fusion_lat": 0.0, "name": "e7cc632104e7b42272ad405c891051e1", "fusion_lon": 0.0}, {"is_reserved": 0, "type": "electric_bike", "bike_id": "100a9ca68be2ef0d8bc7410c222d387a", "lat": 38.98831666666667, "lon": -77.02662966666666, "rental_uris": {"android": "https://dc.lft.to/lastmile_qr_scan", "ios": "https://dc.lft.to/lastmile_qr_scan"}, "is_disabled": 0, "fusion_lat": 0.0, "name": "100a9ca68be2ef0d8bc7410c222d387a", "fusion_lon": 0.0}, {"is_reserved": 0, "type": "electric_scooter", "bike_id": "67f9c092fe6688a418486e17c717f94e", "lat": 38.899837, "lon": -77.02200483333333, "rental_uris": {"android": "https://dc.lft.to/lastmile_qr_scan", "ios": "https://dc.lft.to/lastmile_qr_scan"}, "is_disabled": 0, "fusion_lat": 0.0, "name": "67f9c092fe6688a418486e17c717f94e", "fusion_lon": 0.0}, {"is_reserved": 0, "type": "electric_scooter", "bike_id": "88a41d3cee1f6dc57e81420405f55eda", "lat": 38.919174166666664, "lon": -77.03184516666667, "rental_uris": {"android": "https://dc.lft.to/lastmile_qr_scan", "ios": "https://dc.lft.to/lastmile_qr_scan"}, "is_disabled": 0, "fusion_lat": 0.0, "name": "88a41d3cee1f6dc57e81420405f55eda", "fusion_lon": 0.0}, {"is_reserved": 0, "type": "electric_bike", "bike_id": "4223776b8189d3c6e7ded90d1bbfd172", "lat": 38.925957833333335, "lon": -77.02428983333333, "rental_uris": {"android": "https://dc.lft.to/lastmile_qr_scan", "ios": "https://dc.lft.to/lastmile_qr_scan"}, "is_disabled": 0, "fusion_lat": 0.0, "name": "4223776b8189d3c6e7ded90d1bbfd172", "fusion_lon": 0.0}, {"is_reserved": 0, "type": "electric_scooter", "bike_id": "21a3a3f643e81cb1e819ef7960466689", "lat": 38.923684, "lon": -77.05027316666667, "rental_uris": {"android": "https://dc.lft.to/lastmile_qr_scan", "ios": "https://dc.lft.to/lastmile_qr_scan"}, "is_disabled": 0, "fusion_lat": 0.0, "name": "21a3a3f643e81cb1e819ef7960466689", "fusion_lon": 0.0}, {"is_reserved": 0, "type": "electric_scooter", "bike_id": "594c7e65472747aa70725cd30110ecb1", "lat": 38.8994235, "lon": -76.978437, "rental_uris": {"android": "https://dc.lft.to/lastmile_qr_scan", "ios": "https://dc.lft.to/lastmile_qr_scan"}, "is_disabled": 0, "fusion_lat": 0.0, "name": "594c7e65472747aa70725cd30110ecb1", "fusion_lon": 0.0}, {"is_reserved": 0, "type": "electric_scooter", "bike_id": "c70f0c21e4ce262d612c39ae5bd75b29", "lat": 38.897063333333335, "lon": -77.02272633333334, "rental_uris": {"android": "https://dc.lft.to/lastmile_qr_scan", "ios": "https://dc.lft.to/lastmile_qr_scan"}, "is_disabled": 0, "fusion_lat": 0.0, "name": "c70f0c21e4ce262d612c39ae5bd75b29", "fusion_lon": 0.0}, {"is_reserved": 0, "type": "electric_scooter", "bike_id": "ba771c41347d93264f4caf5981417bc6", "lat": 38.88270116666666, "lon": -77.003608, "rental_uris": {"android": "https://dc.lft.to/lastmile_qr_scan", "ios": "https://dc.lft.to/lastmile_qr_scan"}, "is_disabled": 0, "fusion_lat": 0.0, "name": "ba771c41347d93264f4caf5981417bc6", "fusion_lon": 0.0}, {"is_reserved": 0, "type": "electric_scooter", "bike_id": "905cea149c477de1b1e905d308e6e3bb", "lat": 38.931314, "lon": -77.038535, "rental_uris": {"android": "https://dc.lft.to/lastmile_qr_scan", "ios": "https://dc.lft.to/lastmile_qr_scan"}, "is_disabled": 0, "fusion_lat": 0.0, "name": "905cea149c477de1b1e905d308e6e3bb", "fusion_lon": 0.0}, {"is_reserved": 0, "type": "electric_scooter", "bike_id": "baf4ea2203c144b9a3be321639041f3c", "lat": 38.91804333333333, "lon": -77.03437983333333, "rental_uris": {"android": "https://dc.lft.to/lastmile_qr_scan", "ios": "https://dc.lft.to/lastmile_qr_scan"}, "is_disabled": 0, "fusion_lat": 0.0, "name": "baf4ea2203c144b9a3be321639041f3c", "fusion_lon": 0.0}, {"is_reserved": 0, "type": "electric_scooter", "bike_id": "fb6529a6e41a61449c7c91bbf5d521a4", "lat": 38.90154066666667, "lon": -77.02867016666667, "rental_uris": {"android": "https://dc.lft.to/lastmile_qr_scan", "ios": "https://dc.lft.to/lastmile_qr_scan"}, "is_disabled": 0, "fusion_lat": 0.0, "name": "fb6529a6e41a61449c7c91bbf5d521a4", "fusion_lon": 0.0}, {"is_reserved": 0, "type": "electric_scooter", "bike_id": "18f319a4834906d57e71343a64fc6c6f", "lat": 38.93701016666667, "lon": -77.02120733333334, "rental_uris": {"android": "https://dc.lft.to/lastmile_qr_scan", "ios": "https://dc.lft.to/lastmile_qr_scan"}, "is_disabled": 0, "fusion_lat": 0.0, "name": "18f319a4834906d57e71343a64fc6c6f", "fusion_lon": 0.0}, {"is_reserved": 0, "type": "electric_scooter", "bike_id": "361f05f0eb2ce3ae78969c4f9b4a4ff6", "lat": 38.89538183333333, "lon": -77.0301415, "rental_uris": {"android": "https://dc.lft.to/lastmile_qr_scan", "ios": "https://dc.lft.to/lastmile_qr_scan"}, "is_disabled": 0, "fusion_lat": 0.0, "name": "361f05f0eb2ce3ae78969c4f9b4a4ff6", "fusion_lon": 0.0}, {"is_reserved": 0, "type": "electric_scooter", "bike_id": "27a1800115fa55ad1d4fa37c84781819", "lat": 38.89227066666667, "lon": -77.0262715, "rental_uris": {"android": "https://dc.lft.to/lastmile_qr_scan", "ios": "https://dc.lft.to/lastmile_qr_scan"}, "is_disabled": 0, "fusion_lat": 0.0, "name": "27a1800115fa55ad1d4fa37c84781819", "fusion_lon": 0.0}, {"is_reserved": 0, "type": "electric_bike", "bike_id": "804ac632f06980e4f391fc8238ca8d1f", "lat": 38.89400066666666, "lon": -76.86846566666667, "rental_uris": {"android": "https://dc.lft.to/lastmile_qr_scan", "ios": "https://dc.lft.to/lastmile_qr_scan"}, "is_disabled": 0, "fusion_lat": 0.0, "name": "804ac632f06980e4f391fc8238ca8d1f", "fusion_lon": 0.0}, {"is_reserved": 0, "type": "electric_scooter", "bike_id": "80b8dead4ddca085b5d318de0dc69283", "lat": 38.92334366666667, "lon": -77.00890566666666, "rental_uris": {"android": "https://dc.lft.to/lastmile_qr_scan", "ios": "https://dc.lft.to/lastmile_qr_scan"}, "is_disabled": 0, "fusion_lat": 0.0, "name": "80b8dead4ddca085b5d318de0dc69283", "fusion_lon": 0.0}, {"is_reserved": 0, "type": "electric_scooter", "bike_id": "e73df1fa9ec4c2160d72e9ccc3427efa", "lat": 38.9184595, "lon": -77.04115283333333, "rental_uris": {"android": "https://dc.lft.to/lastmile_qr_scan", "ios": "https://dc.lft.to/lastmile_qr_scan"}, "is_disabled": 0, "fusion_lat": 0.0, "name": "e73df1fa9ec4c2160d72e9ccc3427efa", "fusion_lon": 0.0}, {"is_reserved": 0, "type": "electric_scooter", "bike_id": "278bbbd1b53a98fa30357cadda0b8078", "lat": 38.90558766666667, "lon": -77.04161683333334, "rental_uris": {"android": "https://dc.lft.to/lastmile_qr_scan", "ios": "https://dc.lft.to/lastmile_qr_scan"}, "is_disabled": 0, "fusion_lat": 0.0, "name": "278bbbd1b53a98fa30357cadda0b8078", "fusion_lon": 0.0}, {"is_reserved": 0, "type": "electric_scooter", "bike_id": "4d64ff73891f4a165d66a0f43d5417ce", "lat": 38.90380733333333, "lon": -77.03204516666666, "rental_uris": {"android": "https://dc.lft.to/lastmile_qr_scan", "ios": "https://dc.lft.to/lastmile_qr_scan"}, "is_disabled": 0, "fusion_lat": 0.0, "name": "4d64ff73891f4a165d66a0f43d5417ce", "fusion_lon": 0.0}, {"is_reserved": 0, "type": "electric_scooter", "bike_id": "d4edc915f417e490f1d20154898a40ca", "lat": 38.91694283333333, "lon": -77.0260245, "rental_uris": {"android": "https://dc.lft.to/lastmile_qr_scan", "ios": "https://dc.lft.to/lastmile_qr_scan"}, "is_disabled": 0, "fusion_lat": 0.0, "name": "d4edc915f417e490f1d20154898a40ca", "fusion_lon": 0.0}, {"is_reserved": 0, "type": "electric_scooter", "bike_id": "a22674d537e34e103c7317ea5b8016bf", "lat": 38.8919385, "lon": -77.021764, "rental_uris": {"android": "https://dc.lft.to/lastmile_qr_scan", "ios": "https://dc.lft.to/lastmile_qr_scan"}, "is_disabled": 0, "fusion_lat": 0.0, "name": "a22674d537e34e103c7317ea5b8016bf", "fusion_lon": 0.0}, {"is_reserved": 0, "type": "electric_scooter", "bike_id": "b44e4d1970a9ed1c7c4acbb969dd0310", "lat": 38.8866085, "lon": -76.93676016666667, "rental_uris": {"android": "https://dc.lft.to/lastmile_qr_scan", "ios": "https://dc.lft.to/lastmile_qr_scan"}, "is_disabled": 0, "fusion_lat": 0.0, "name": "b44e4d1970a9ed1c7c4acbb969dd0310", "fusion_lon": 0.0}, {"is_reserved": 0, "type": "electric_scooter", "bike_id": "ed1ae27771e1b59aa29396cf7f1533fb", "lat": 38.892529333333336, "lon": -77.03962916666667, "rental_uris": {"android": "https://dc.lft.to/lastmile_qr_scan", "ios": "https://dc.lft.to/lastmile_qr_scan"}, "is_disabled": 0, "fusion_lat": 0.0, "name": "ed1ae27771e1b59aa29396cf7f1533fb", "fusion_lon": 0.0}, {"is_reserved": 0, "type": "electric_scooter", "bike_id": "abbeb5a99519b394eb08a0e730b3cd1c", "lat": 38.89996133333333, "lon": -76.99010616666666, "rental_uris": {"android": "https://dc.lft.to/lastmile_qr_scan", "ios": "https://dc.lft.to/lastmile_qr_scan"}, "is_disabled": 0, "fusion_lat": 0.0, "name": "abbeb5a99519b394eb08a0e730b3cd1c", "fusion_lon": 0.0}, {"is_reserved": 0, "type": "electric_scooter", "bike_id": "caa35cee1012eed6a730927fbecc4ea5", "lat": 38.924631166666664, "lon": -77.02166283333334, "rental_uris": {"android": "https://dc.lft.to/lastmile_qr_scan", "ios": "https://dc.lft.to/lastmile_qr_scan"}, "is_disabled": 0, "fusion_lat": 0.0, "name": "caa35cee1012eed6a730927fbecc4ea5", "fusion_lon": 0.0}, {"is_reserved": 0, "type": "electric_scooter", "bike_id": "38a7b778ec1ab27230f38752abf6548f", "lat": 38.925596166666665, "lon": -77.03369866666667, "rental_uris": {"android": "https://dc.lft.to/lastmile_qr_scan", "ios": "https://dc.lft.to/lastmile_qr_scan"}, "is_disabled": 0, "fusion_lat": 0.0, "name": "38a7b778ec1ab27230f38752abf6548f", "fusion_lon": 0.0}, {"is_reserved": 0, "type": "electric_scooter", "bike_id": "6fe1aadb5398f13516802b2697d97294", "lat": 38.861233, "lon": -76.98380266666666, "rental_uris": {"android": "https://dc.lft.to/lastmile_qr_scan", "ios": "https://dc.lft.to/lastmile_qr_scan"}, "is_disabled": 0, "fusion_lat": 0.0, "name": "6fe1aadb5398f13516802b2697d97294", "fusion_lon": 0.0}, {"is_reserved": 0, "type": "electric_bike", "bike_id": "1f6473127868a44d645df201c143e408", "lat": 39.084364, "lon": -76.9515155, "rental_uris": {"android": "https://dc.lft.to/lastmile_qr_scan", "ios": "https://dc.lft.to/lastmile_qr_scan"}, "is_disabled": 0, "fusion_lat": 0.0, "name": "1f6473127868a44d645df201c143e408", "fusion_lon": 0.0}, {"is_reserved": 0, "type": "electric_scooter", "bike_id": "e78b96d623a2b29e0bcb063bdf9cd53c", "lat": 38.9052095, "lon": -77.04028183333334, "rental_uris": {"android": "https://dc.lft.to/lastmile_qr_scan", "ios": "https://dc.lft.to/lastmile_qr_scan"}, "is_disabled": 0, "fusion_lat": 0.0, "name": "e78b96d623a2b29e0bcb063bdf9cd53c", "fusion_lon": 0.0}, {"is_reserved": 0, "type": "electric_bike", "bike_id": "f8292dc99df9c192c566b8c3f5933899", "lat": 38.8354855, "lon": -77.00755116666667, "rental_uris": {"android": "https://dc.lft.to/lastmile_qr_scan", "ios": "https://dc.lft.to/lastmile_qr_scan"}, "is_disabled": 0, "fusion_lat": 0.0, "name": "f8292dc99df9c192c566b8c3f5933899", "fusion_lon": 0.0}, {"is_reserved": 0, "type": "electric_scooter", "bike_id": "3d7ee4669936fb3c4b98915fbf0b1f35", "lat": 38.8747315, "lon": -77.005646, "rental_uris": {"android": "https://dc.lft.to/lastmile_qr_scan", "ios": "https://dc.lft.to/lastmile_qr_scan"}, "is_disabled": 0, "fusion_lat": 0.0, "name": "3d7ee4669936fb3c4b98915fbf0b1f35", "fusion_lon": 0.0}, {"is_reserved": 0, "type": "electric_scooter", "bike_id": "a2d05a92ca308905cbc0be94237dd6d1", "lat": 38.8960925, "lon": -77.0092655, "rental_uris": {"android": "https://dc.lft.to/lastmile_qr_scan", "ios": "https://dc.lft.to/lastmile_qr_scan"}, "is_disabled": 0, "fusion_lat": 0.0, "name": "a2d05a92ca308905cbc0be94237dd6d1", "fusion_lon": 0.0}, {"is_reserved": 0, "type": "electric_scooter", "bike_id": "d0cf626d633a8d4712f5839da3847e97", "lat": 38.911118333333334, "lon": -77.04820433333333, "rental_uris": {"android": "https://dc.lft.to/lastmile_qr_scan", "ios": "https://dc.lft.to/lastmile_qr_scan"}, "is_disabled": 0, "fusion_lat": 0.0, "name": "d0cf626d633a8d4712f5839da3847e97", "fusion_lon": 0.0}, {"is_reserved": 0, "type": "electric_bike", "bike_id": "4141110241fe615bb1c0d2b2d396a21b", "lat": 38.945433333333334, "lon": -77.34458016666666, "rental_uris": {"android": "https://dc.lft.to/lastmile_qr_scan", "ios": "https://dc.lft.to/lastmile_qr_scan"}, "is_disabled": 0, "fusion_lat": 0.0, "name": "4141110241fe615bb1c0d2b2d396a21b", "fusion_lon": 0.0}, {"is_reserved": 0, "type": "electric_scooter", "bike_id": "c063bf7ff41b3f9228abb48e77460efa", "lat": 38.9241875, "lon": -77.02225083333333, "rental_uris": {"android": "https://dc.lft.to/lastmile_qr_scan", "ios": "https://dc.lft.to/lastmile_qr_scan"}, "is_disabled": 0, "fusion_lat": 0.0, "name": "c063bf7ff41b3f9228abb48e77460efa", "fusion_lon": 0.0}, {"is_reserved": 0, "type": "electric_scooter", "bike_id": "a761eeb68a852a44600e3519f4618f14", "lat": 38.91943533333333, "lon": -77.02531316666666, "rental_uris": {"android": "https://dc.lft.to/lastmile_qr_scan", "ios": "https://dc.lft.to/lastmile_qr_scan"}, "is_disabled": 0, "fusion_lat": 0.0, "name": "a761eeb68a852a44600e3519f4618f14", "fusion_lon": 0.0}, {"is_reserved": 0, "type": "electric_scooter", "bike_id": "7d29f824b905529bfa04490dc84aabea", "lat": 38.91641383333334, "lon": -77.02100033333333, "rental_uris": {"android": "https://dc.lft.to/lastmile_qr_scan", "ios": "https://dc.lft.to/lastmile_qr_scan"}, "is_disabled": 0, "fusion_lat": 0.0, "name": "7d29f824b905529bfa04490dc84aabea", "fusion_lon": 0.0}, {"is_reserved": 0, "type": "electric_scooter", "bike_id": "30b73ff9a59611816fbe5429a38a9d22", "lat": 38.9260825, "lon": -77.02159, "rental_uris": {"android": "https://dc.lft.to/lastmile_qr_scan", "ios": "https://dc.lft.to/lastmile_qr_scan"}, "is_disabled": 0, "fusion_lat": 0.0, "name": "30b73ff9a59611816fbe5429a38a9d22", "fusion_lon": 0.0}, {"is_reserved": 0, "type": "electric_scooter", "bike_id": "6ccbbd253ff3b1331bf6c87030b3fd66", "lat": 38.9000955, "lon": -76.996958, "rental_uris": {"android": "https://dc.lft.to/lastmile_qr_scan", "ios": "https://dc.lft.to/lastmile_qr_scan"}, "is_disabled": 0, "fusion_lat": 0.0, "name": "6ccbbd253ff3b1331bf6c87030b3fd66", "fusion_lon": 0.0}, {"is_reserved": 0, "type": "electric_scooter", "bike_id": "5a424db51c23978307b5b7397cc1ea5e", "lat": 38.92609983333333, "lon": -77.057131, "rental_uris": {"android": "https://dc.lft.to/lastmile_qr_scan", "ios": "https://dc.lft.to/lastmile_qr_scan"}, "is_disabled": 0, "fusion_lat": 0.0, "name": "5a424db51c23978307b5b7397cc1ea5e", "fusion_lon": 0.0}, {"is_reserved": 0, "type": "electric_scooter", "bike_id": "76a471ef67aa671c278cf34291d158c8", "lat": 38.906223833333335, "lon": -77.05142816666667, "rental_uris": {"android": "https://dc.lft.to/lastmile_qr_scan", "ios": "https://dc.lft.to/lastmile_qr_scan"}, "is_disabled": 0, "fusion_lat": 0.0, "name": "76a471ef67aa671c278cf34291d158c8", "fusion_lon": 0.0}, {"is_reserved": 0, "type": "electric_bike", "bike_id": "70f726ced1f318102eb206ae23dc78b2", "lat": 38.80257616666667, "lon": -77.12173833333334, "rental_uris": {"android": "https://dc.lft.to/lastmile_qr_scan", "ios": "https://dc.lft.to/lastmile_qr_scan"}, "is_disabled": 0, "fusion_lat": 0.0, "name": "70f726ced1f318102eb206ae23dc78b2", "fusion_lon": 0.0}, {"is_reserved": 0, "type": "electric_bike", "bike_id": "798b63753fbc591a9b0fbbc53f6cf744", "lat": 38.887586166666665, "lon": -77.08925416666666, "rental_uris": {"android": "https://dc.lft.to/lastmile_qr_scan", "ios": "https://dc.lft.to/lastmile_qr_scan"}, "is_disabled": 0, "fusion_lat": 0.0, "name": "798b63753fbc591a9b0fbbc53f6cf744", "fusion_lon": 0.0}, {"is_reserved": 0, "type": "electric_scooter", "bike_id": "fd7c2e89c63e0b7b5e1f34282bc65435", "lat": 38.926716666666664, "lon": -77.03025933333333, "rental_uris": {"android": "https://dc.lft.to/lastmile_qr_scan", "ios": "https://dc.lft.to/lastmile_qr_scan"}, "is_disabled": 0, "fusion_lat": 0.0, "name": "fd7c2e89c63e0b7b5e1f34282bc65435", "fusion_lon": 0.0}, {"is_reserved": 0, "type": "electric_scooter", "bike_id": "1dc3b32d6dec0baef8bfa361a335291c", "lat": 38.92154, "lon": -77.03357416666667, "rental_uris": {"android": "https://dc.lft.to/lastmile_qr_scan", "ios": "https://dc.lft.to/lastmile_qr_scan"}, "is_disabled": 0, "fusion_lat": 0.0, "name": "1dc3b32d6dec0baef8bfa361a335291c", "fusion_lon": 0.0}, {"is_reserved": 0, "type": "electric_scooter", "bike_id": "fc4c0a6989909b2ee87c1d956cc1d14d", "lat": 38.912238333333335, "lon": -77.076003, "rental_uris": {"android": "https://dc.lft.to/lastmile_qr_scan", "ios": "https://dc.lft.to/lastmile_qr_scan"}, "is_disabled": 0, "fusion_lat": 0.0, "name": "fc4c0a6989909b2ee87c1d956cc1d14d", "fusion_lon": 0.0}, {"is_reserved": 0, "type": "electric_scooter", "bike_id": "e0025b6b2c9c904345681f71aec0e372", "lat": 38.900824666666665, "lon": -77.00750033333334, "rental_uris": {"android": "https://dc.lft.to/lastmile_qr_scan", "ios": "https://dc.lft.to/lastmile_qr_scan"},