{"data": {"bikes": [{"fusion_lat": 0.0, "name": "134b3a6d1acee699e8585f7689f70ef8", "is_disabled": 0, "rental_uris": {"android": "https://dc.lft.to/lastmile_qr_scan", "ios": "https://dc.lft.to/lastmile_qr_scan"}, "fusion_lon": 0.0, "lat": 38.908784, "bike_id": "134b3a6d1acee699e8585f7689f70ef8", "type": "electric_scooter", "is_reserved": 0, "lon": -77.02383333333333}, {"fusion_lat": 0.0, "name": "902106cde24a78b4fe7c1f3e2a5e388d", "is_disabled": 0, "rental_uris": {"android": "https://dc.lft.to/lastmile_qr_scan", "ios": "https://dc.lft.to/lastmile_qr_scan"}, "fusion_lon": 0.0, "lat": 38.87737, "bike_id": "902106cde24a78b4fe7c1f3e2a5e388d", "type": "electric_scooter", "is_reserved": 0, "lon": -76.99482716666667}, {"fusion_lat": 0.0, "name": "9cc1a5aa917388fed15eeda39bb7784f", "is_disabled": 0, "rental_uris": {"android": "https://dc.lft.to/lastmile_qr_scan", "ios": "https://dc.lft.to/lastmile_qr_scan"}, "fusion_lon": 0.0, "lat": 38.98788, "bike_id": "9cc1a5aa917388fed15eeda39bb7784f", "type": "electric_bike", "is_reserved": 0, "lon": -77.140981}, {"fusion_lat": 0.0, "name": "d582a038a11b816f43563066616c9f78", "is_disabled": 0, "rental_uris": {"android": "https://dc.lft.to/lastmile_qr_scan", "ios": "https://dc.lft.to/lastmile_qr_scan"}, "fusion_lon": 0.0, "lat": 38.88730316666667, "bike_id": "d582a038a11b816f43563066616c9f78", "type": "electric_scooter", "is_reserved": 0, "lon": -77.02577333333333}, {"fusion_lat": 0.0, "name": "2b745b9f79053fd8b5d7706eb18a43b5", "is_disabled": 0, "rental_uris": {"android": "https://dc.lft.to/lastmile_qr_scan", "ios": "https://dc.lft.to/lastmile_qr_scan"}, "fusion_lon": 0.0, "lat": 38.94156983333333, "bike_id": "2b745b9f79053fd8b5d7706eb18a43b5", "type": "electric_bike", "is_reserved": 0, "lon": -77.00191766666667}, {"fusion_lat": 0.0, "name": "8cc8d487d322ff742a604e731f16fab6", "is_disabled": 0, "rental_uris": {"android": "https://dc.lft.to/lastmile_qr_scan", "ios": "https://dc.lft.to/lastmile_qr_scan"}, "fusion_lon": 0.0, "lat": 38.8835925, "bike_id": "8cc8d487d322ff742a604e731f16fab6", "type": "electric_scooter", "is_reserved": 0, "lon": -77.0198665}, {"fusion_lat": 0.0, "name": "9c61bde92c55fa78277c12fa73c96f65", "is_disabled": 0, "rental_uris": {"android": "https://dc.lft.to/lastmile_qr_scan", "ios": "https://dc.lft.to/lastmile_qr_scan"}, "fusion_lon": 0.0, "lat": 38.90017866666667, "bike_id": "9c61bde92c55fa78277c12fa73c96f65", "type": "electric_scooter", "is_reserved": 0, "lon": -77.02401466666667}, {"fusion_lat": 0.0, "name": "ab19f346f8b8b6c69354fa7d23fd48cd", "is_disabled": 0, "rental_uris": {"android": "https://dc.lft.to/lastmile_qr_scan", "ios": "https://dc.lft.to/lastmile_qr_scan"}, "fusion_lon": 0.0, "lat": 38.90975066666667, "bike_id": "ab19f346f8b8b6c69354fa7d23fd48cd", "type": "electric_scooter", "is_reserved": 0, "lon": -77.0110425}, {"fusion_lat": 0.0, "name": "67ee2c7c0919b088230e67736455f7ee", "is_disabled": 0, "rental_uris": {"android": "https://dc.lft.to/lastmile_qr_scan", "ios": "https://dc.lft.to/lastmile_qr_scan"}, "fusion_lon": 0.0, "lat": 38.873748166666665, "bike_id": "67ee2c7c0919b088230e67736455f7ee", "type": "electric_scooter", "is_reserved": 0, "lon": -77.0012205}, {"fusion_lat": 0.0, "name": "c1edb41bba09bb36331fe2f37eb2bfb1", "is_disabled": 0, "rental_uris": {"android": "https://dc.lft.to/lastmile_qr_scan", "ios": "https://dc.lft.to/lastmile_qr_scan"}, "fusion_lon": 0.0, "lat": 38.94167916666667, "bike_id": "c1edb41bba09bb36331fe2f37eb2bfb1", "type": "electric_bike", "is_reserved": 0, "lon": -76.9664955}, {"fusion_lat": 0.0, "name": "7f341e07137fe4f4b71b54f873345225", "is_disabled": 0, "rental_uris": {"android": "https://dc.lft.to/lastmile_qr_scan", "ios": "https://dc.lft.to/lastmile_qr_scan"}, "fusion_lon": 0.0, "lat": 38.90451983333333, "bike_id": "7f341e07137fe4f4b71b54f873345225", "type": "electric_scooter", "is_reserved": 0, "lon": -77.05871483333334}, {"fusion_lat": 0.0, "name": "922ab08810d25691c2bf03157493c655", "is_disabled": 0, "rental_uris": {"android": "https://dc.lft.to/lastmile_qr_scan", "ios": "https://dc.lft.to/lastmile_qr_scan"}, "fusion_lon": 0.0, "lat": 38.8966185, "bike_id": "922ab08810d25691c2bf03157493c655", "type": "electric_scooter", "is_reserved": 0, "lon": -77.02470766666667}, {"fusion_lat": 0.0, "name": "0684642a7fbe878f96a7675c0cfa9be5", "is_disabled": 0, "rental_uris": {"android": "https://dc.lft.to/lastmile_qr_scan", "ios": "https://dc.lft.to/lastmile_qr_scan"}, "fusion_lon": 0.0, "lat": 38.911008333333335, "bike_id": "0684642a7fbe878f96a7675c0cfa9be5", "type": "electric_scooter", "is_reserved": 0, "lon": -77.07349533333333}, {"fusion_lat": 0.0, "name": "59cb6ca6e7c949850e5c34f20e371c77", "is_disabled": 0, "rental_uris": {"android": "https://dc.lft.to/lastmile_qr_scan", "ios": "https://dc.lft.to/lastmile_qr_scan"}, "fusion_lon": 0.0, "lat": 38.90830316666667, "bike_id": "59cb6ca6e7c949850e5c34f20e371c77", "type": "electric_scooter", "is_reserved": 0, "lon": -77.036659}, {"fusion_lat": 0.0, "name": "913cf36997008048284bdf369a0ce1f9", "is_disabled": 0, "rental_uris": {"android": "https://dc.lft.to/lastmile_qr_scan", "ios": "https://dc.lft.to/lastmile_qr_scan"}, "fusion_lon": 0.0, "lat": 38.87628983333333, "bike_id": "913cf36997008048284bdf369a0ce1f9", "type": "electric_scooter", "is_reserved": 0, "lon": -77.00828733333333}, {"fusion_lat": 0.0, "name": "7744a322892aece15ba96e2a29650078", "is_disabled": 0, "rental_uris": {"android": "https://dc.lft.to/lastmile_qr_scan", "ios": "https://dc.lft.to/lastmile_qr_scan"}, "fusion_lon": 0.0, "lat": 38.89956983333333, "bike_id": "7744a322892aece15ba96e2a29650078", "type": "electric_scooter", "is_reserved": 0, "lon": -77.05702183333334}, {"fusion_lat": 0.0, "name": "8be8bde2f2a6c24191dfe3accb9ae75c", "is_disabled": 0, "rental_uris": {"android": "https://dc.lft.to/lastmile_qr_scan", "ios": "https://dc.lft.to/lastmile_qr_scan"}, "fusion_lon": 0.0, "lat": 38.8899005, "bike_id": "8be8bde2f2a6c24191dfe3accb9ae75c", "type": "electric_scooter", "is_reserved": 0, "lon": -77.00331333333334}, {"fusion_lat": 0.0, "name": "82c24a0ed35b0e116824c71394a9c9fb", "is_disabled": 0, "rental_uris": {"android": "https://dc.lft.to/lastmile_qr_scan", "ios": "https://dc.lft.to/lastmile_qr_scan"}, "fusion_lon": 0.0, "lat": 38.905471166666665, "bike_id": "82c24a0ed35b0e116824c71394a9c9fb", "type": "electric_scooter", "is_reserved": 0, "lon": -77.03648133333333}, {"fusion_lat": 0.0, "name": "ba298666163cef99a49f684884fd2723", "is_disabled": 0, "rental_uris": {"android": "https://dc.lft.to/lastmile_qr_scan", "ios": "https://dc.lft.to/lastmile_qr_scan"}, "fusion_lon": 0.0, "lat": 38.9922905, "bike_id": "ba298666163cef99a49f684884fd2723", "type": "electric_bike", "is_reserved": 0, "lon": -76.94398166666667}, {"fusion_lat": 0.0, "name": "1d5adff73c48e4aedc7bebd34da6ce32", "is_disabled": 0, "rental_uris": {"android": "https://dc.lft.to/lastmile_qr_scan", "ios": "https://dc.lft.to/lastmile_qr_scan"}, "fusion_lon": 0.0, "lat": 38.98473666666667, "bike_id": "1d5adff73c48e4aedc7bebd34da6ce32", "type": "electric_scooter", "is_reserved": 0, "lon": -77.02637766666666}, {"fusion_lat": 0.0, "name": "12855b4e7abacee89d20ce72fadae0a4", "is_disabled": 0, "rental_uris": {"android": "https://dc.lft.to/lastmile_qr_scan", "ios": "https://dc.lft.to/lastmile_qr_scan"}, "fusion_lon": 0.0, "lat": 38.90963683333333, "bike_id": "12855b4e7abacee89d20ce72fadae0a4", "type": "electric_scooter", "is_reserved": 0, "lon": -77.04607}, {"fusion_lat": 0.0, "name": "6750b3eb83f398d3a74c762f751fca49", "is_disabled": 0, "rental_uris": {"android": "https://dc.lft.to/lastmile_qr_scan", "ios": "https://dc.lft.to/lastmile_qr_scan"}, "fusion_lon": 0.0, "lat": 38.91984016666667, "bike_id": "6750b3eb83f398d3a74c762f751fca49", "type": "electric_scooter", "is_reserved": 0, "lon": -77.0408945}, {"fusion_lat": 0.0, "name": "494262bba90818a6fa3ee8aa84f6f9c5", "is_disabled": 0, "rental_uris": {"android": "https://dc.lft.to/lastmile_qr_scan", "ios": "https://dc.lft.to/lastmile_qr_scan"}, "fusion_lon": 0.0, "lat": 38.921391, "bike_id": "494262bba90818a6fa3ee8aa84f6f9c5", "type": "electric_scooter", "is_reserved": 0, "lon": -77.00405016666667}, {"fusion_lat": 0.0, "name": "cd474ee2ad45c63b372d36f45044a6ac", "is_disabled": 0, "rental_uris": {"android": "https://dc.lft.to/lastmile_qr_scan", "ios": "https://dc.lft.to/lastmile_qr_scan"}, "fusion_lon": 0.0, "lat": 38.95315866666667, "bike_id": "cd474ee2ad45c63b372d36f45044a6ac", "type": "electric_scooter", "is_reserved": 0, "lon": -77.02248883333333}, {"fusion_lat": 0.0, "name": "308721ac086860a3b78262c9761a938b", "is_disabled": 0, "rental_uris": {"android": "https://dc.lft.to/lastmile_qr_scan", "ios": "https://dc.lft.to/lastmile_qr_scan"}, "fusion_lon": 0.0, "lat": 38.877415166666665, "bike_id": "308721ac086860a3b78262c9761a938b", "type": "electric_scooter", "is_reserved": 0, "lon": -76.97031916666667}, {"fusion_lat": 0.0, "name": "9348547ce61bb6b7b9962db864be5328", "is_disabled": 0, "rental_uris": {"android": "https://dc.lft.to/lastmile_qr_scan", "ios": "https://dc.lft.to/lastmile_qr_scan"}, "fusion_lon": 0.0, "lat": 38.878854, "bike_id": "9348547ce61bb6b7b9962db864be5328", "type": "electric_scooter", "is_reserved": 0, "lon": -76.96540933333333}, {"fusion_lat": 0.0, "name": "d46eb294c4b6d766ed927e77a10968bd", "is_disabled": 0, "rental_uris": {"android": "https://dc.lft.to/lastmile_qr_scan", "ios": "https://dc.lft.to/lastmile_qr_scan"}, "fusion_lon": 0.0, "lat": 38.9115745, "bike_id": "d46eb294c4b6d766ed927e77a10968bd", "type": "electric_scooter", "is_reserved": 0, "lon": -76.98720283333333}, {"fusion_lat": 0.0, "name": "01a36789ecbd539172680c5d4badb4be", "is_disabled": 0, "rental_uris": {"android": "https://dc.lft.to/lastmile_qr_scan", "ios": "https://dc.lft.to/lastmile_qr_scan"}, "fusion_lon": 0.0, "lat": 38.920269833333336, "bike_id": "01a36789ecbd539172680c5d4badb4be", "type": "electric_scooter", "is_reserved": 0, "lon": -77.03154166666667}, {"fusion_lat": 0.0, "name": "956c5ad6f9ccdc63105e0f3b65f3d1f2", "is_disabled": 0, "rental_uris": {"android": "https://dc.lft.to/lastmile_qr_scan", "ios": "https://dc.lft.to/lastmile_qr_scan"}, "fusion_lon": 0.0, "lat": 38.8985215, "bike_id": "956c5ad6f9ccdc63105e0f3b65f3d1f2", "type": "electric_scooter", "is_reserved": 0, "lon": -77.0221555}, {"fusion_lat": 0.0, "name": "1d05887e2e16ac9623ad996d3111000a", "is_disabled": 0, "rental_uris": {"android": "https://dc.lft.to/lastmile_qr_scan", "ios": "https://dc.lft.to/lastmile_qr_scan"}, "fusion_lon": 0.0, "lat": 38.90662433333333, "bike_id": "1d05887e2e16ac9623ad996d3111000a", "type": "electric_scooter", "is_reserved": 0, "lon": -77.048708}, {"fusion_lat": 0.0, "name": "73ee62a808772fa886062ea578a337ce", "is_disabled": 0, "rental_uris": {"android": "https://dc.lft.to/lastmile_qr_scan", "ios": "https://dc.lft.to/lastmile_qr_scan"}, "fusion_lon": 0.0, "lat": 38.904114666666665, "bike_id": "73ee62a808772fa886062ea578a337ce", "type": "electric_scooter", "is_reserved": 0, "lon": -77.03661083333333}, {"fusion_lat": 0.0, "name": "86007acc9061ad091e6cfd854e68ea2d", "is_disabled": 0, "rental_uris": {"android": "https://dc.lft.to/lastmile_qr_scan", "ios": "https://dc.lft.to/lastmile_qr_scan"}, "fusion_lon": 0.0, "lat": 38.91172233333333, "bike_id": "86007acc9061ad091e6cfd854e68ea2d", "type": "electric_scooter", "is_reserved": 0, "lon": -77.038611}, {"fusion_lat": 0.0, "name": "bd0f280f6cb56a13a43fa9121bd304dd", "is_disabled": 0, "rental_uris": {"android": "https://dc.lft.to/lastmile_qr_scan", "ios": "https://dc.lft.to/lastmile_qr_scan"}, "fusion_lon": 0.0, "lat": 38.89527433333333, "bike_id": "bd0f280f6cb56a13a43fa9121bd304dd", "type": "electric_scooter", "is_reserved": 0, "lon": -77.00922366666667}, {"fusion_lat": 0.0, "name": "e6b26364e2c987c946f10562b371f79d", "is_disabled": 0, "rental_uris": {"android": "https://dc.lft.to/lastmile_qr_scan", "ios": "https://dc.lft.to/lastmile_qr_scan"}, "fusion_lon": 0.0, "lat": 38.90163316666667, "bike_id": "e6b26364e2c987c946f10562b371f79d", "type": "electric_scooter", "is_reserved": 0, "lon": -77.03178566666666}, {"fusion_lat": 0.0, "name": "f11be7aa460a10c0841c5368779c6139", "is_disabled": 0, "rental_uris": {"android": "https://dc.lft.to/lastmile_qr_scan", "ios": "https://dc.lft.to/lastmile_qr_scan"}, "fusion_lon": 0.0, "lat": 38.90963466666667, "bike_id": "f11be7aa460a10c0841c5368779c6139", "type": "electric_scooter", "is_reserved": 0, "lon": -77.0237715}, {"fusion_lat": 0.0, "name": "15a9234774196e8db65f13538b23bb31", "is_disabled": 0, "rental_uris": {"android": "https://dc.lft.to/lastmile_qr_scan", "ios": "https://dc.lft.to/lastmile_qr_scan"}, "fusion_lon": 0.0, "lat": 38.85774383333333, "bike_id": "15a9234774196e8db65f13538b23bb31", "type": "electric_bike", "is_reserved": 0, "lon": -76.98767083333334}, {"fusion_lat": 0.0, "name": "ae3bf6d60fd13b07141acbf3bc06d182", "is_disabled": 0, "rental_uris": {"android": "https://dc.lft.to/lastmile_qr_scan", "ios": "https://dc.lft.to/lastmile_qr_scan"}, "fusion_lon": 0.0, "lat": 38.897883666666665, "bike_id": "ae3bf6d60fd13b07141acbf3bc06d182", "type": "electric_scooter", "is_reserved": 0, "lon": -77.02180933333334}, {"fusion_lat": 0.0, "name": "e011811ebabb9bf222c91f2d030a3657", "is_disabled": 0, "rental_uris": {"android": "https://dc.lft.to/lastmile_qr_scan", "ios": "https://dc.lft.to/lastmile_qr_scan"}, "fusion_lon": 0.0, "lat": 38.90974833333333, "bike_id": "e011811ebabb9bf222c91f2d030a3657", "type": "electric_scooter", "is_reserved": 0, "lon": -77.02077583333333}, {"fusion_lat": 0.0, "name": "3b90688d89288ae1cfbefc31a9b06b32", "is_disabled": 0, "rental_uris": {"android": "https://dc.lft.to/lastmile_qr_scan", "ios": "https://dc.lft.to/lastmile_qr_scan"}, "fusion_lon": 0.0, "lat": 38.89843366666667, "bike_id": "3b90688d89288ae1cfbefc31a9b06b32", "type": "electric_scooter", "is_reserved": 0, "lon": -77.026228}, {"fusion_lat": 0.0, "name": "fe6fc873821a2457638378d0cf8f8ca1", "is_disabled": 0, "rental_uris": {"android": "https://dc.lft.to/lastmile_qr_scan", "ios": "https://dc.lft.to/lastmile_qr_scan"}, "fusion_lon": 0.0, "lat": 38.9408525, "bike_id": "fe6fc873821a2457638378d0cf8f8ca1", "type": "electric_scooter", "is_reserved": 0, "lon": -77.061782}, {"fusion_lat": 0.0, "name": "72974b373698c981f7ed6ec31e6c6392", "is_disabled": 0, "rental_uris": {"android": "https://dc.lft.to/lastmile_qr_scan", "ios": "https://dc.lft.to/lastmile_qr_scan"}, "fusion_lon": 0.0, "lat": 38.89727833333333, "bike_id": "72974b373698c981f7ed6ec31e6c6392", "type": "electric_scooter", "is_reserved": 0, "lon": -77.05523816666667}, {"fusion_lat": 0.0, "name": "9e9ef04b2c4b805cd8dbbecdf34c7166", "is_disabled": 0, "rental_uris": {"android": "https://dc.lft.to/lastmile_qr_scan", "ios": "https://dc.lft.to/lastmile_qr_scan"}, "fusion_lon": 0.0, "lat": 38.89854783333333, "bike_id": "9e9ef04b2c4b805cd8dbbecdf34c7166", "type": "electric_bike", "is_reserved": 0, "lon": -76.93187533333334}, {"fusion_lat": 0.0, "name": "7ecf57a6c346544aa6d340e0a94b8eff", "is_disabled": 0, "rental_uris": {"android": "https://dc.lft.to/lastmile_qr_scan", "ios": "https://dc.lft.to/lastmile_qr_scan"}, "fusion_lon": 0.0, "lat": 38.93391483333333, "bike_id": "7ecf57a6c346544aa6d340e0a94b8eff", "type": "electric_scooter", "is_reserved": 0, "lon": -77.038831}, {"fusion_lat": 0.0, "name": "53d3676d4f09cc23c657bb8e56146e8f", "is_disabled": 0, "rental_uris": {"android": "https://dc.lft.to/lastmile_qr_scan", "ios": "https://dc.lft.to/lastmile_qr_scan"}, "fusion_lon": 0.0, "lat": 38.88380316666667, "bike_id": "53d3676d4f09cc23c657bb8e56146e8f", "type": "electric_scooter", "is_reserved": 0, "lon": -76.93045633333334}, {"fusion_lat": 0.0, "name": "f800fbf7f9f6aadc6765e9d355c95689", "is_disabled": 0, "rental_uris": {"android": "https://dc.lft.to/lastmile_qr_scan", "ios": "https://dc.lft.to/lastmile_qr_scan"}, "fusion_lon": 0.0, "lat": 38.90550016666667, "bike_id": "f800fbf7f9f6aadc6765e9d355c95689", "type": "electric_scooter", "is_reserved": 0, "lon": -76.98332883333333}, {"fusion_lat": 0.0, "name": "1194a6520d6191ae231f8eb7979d5f9d", "is_disabled": 0, "rental_uris": {"android": "https://dc.lft.to/lastmile_qr_scan", "ios": "https://dc.lft.to/lastmile_qr_scan"}, "fusion_lon": 0.0, "lat": 38.9190875, "bike_id": "1194a6520d6191ae231f8eb7979d5f9d", "type": "electric_scooter", "is_reserved": 0, "lon": -77.0136355}, {"fusion_lat": 0.0, "name": "6f5123b05f23955e00d3fb7dd49fc9fc", "is_disabled": 0, "rental_uris": {"android": "https://dc.lft.to/lastmile_qr_scan", "ios": "https://dc.lft.to/lastmile_qr_scan"}, "fusion_lon": 0.0, "lat": 38.91343216666667, "bike_id": "6f5123b05f23955e00d3fb7dd49fc9fc", "type": "electric_scooter", "is_reserved": 0, "lon": -77.04785916666667}, {"fusion_lat": 0.0, "name": "737276de6ab890d0881d71808e0edd8e", "is_disabled": 0, "rental_uris": {"android": "https://dc.lft.to/lastmile_qr_scan", "ios": "https://dc.lft.to/lastmile_qr_scan"}, "fusion_lon": 0.0, "lat": 38.9255475, "bike_id": "737276de6ab890d0881d71808e0edd8e", "type": "electric_scooter", "is_reserved": 0, "lon": -77.04290116666667}, {"fusion_lat": 0.0, "name": "fdc109ab7b5bb85e8f49a4ff2adbe2bf", "is_disabled": 0, "rental_uris": {"android": "https://dc.lft.to/lastmile_qr_scan", "ios": "https://dc.lft.to/lastmile_qr_scan"}, "fusion_lon": 0.0, "lat": 38.9538065, "bike_id": "fdc109ab7b5bb85e8f49a4ff2adbe2bf", "type": "electric_bike", "is_reserved": 0, "lon": -76.979623}, {"fusion_lat": 0.0, "name": "0fbc30b6633b454bb92de38c6869c7b5", "is_disabled": 0, "rental_uris": {"android": "https://dc.lft.to/lastmile_qr_scan", "ios": "https://dc.lft.to/lastmile_qr_scan"}, "fusion_lon": 0.0, "lat": 38.92003716666667, "bike_id": "0fbc30b6633b454bb92de38c6869c7b5", "type": "electric_scooter", "is_reserved": 0, "lon": -77.07138833333333}, {"fusion_lat": 0.0, "name": "d604df9d8209899a736ebc5387f69d75", "is_disabled": 0, "rental_uris": {"android": "https://dc.lft.to/lastmile_qr_scan", "ios": "https://dc.lft.to/lastmile_qr_scan"}, "fusion_lon": 0.0, "lat": 38.926221166666664, "bike_id": "d604df9d8209899a736ebc5387f69d75", "type": "electric_scooter", "is_reserved": 0, "lon": -77.0432725}, {"fusion_lat": 0.0, "name": "fb0e5560644dc4c156d8172e016685a1", "is_disabled": 0, "rental_uris": {"android": "https://dc.lft.to/lastmile_qr_scan", "ios": "https://dc.lft.to/lastmile_qr_scan"}, "fusion_lon": 0.0, "lat": 38.907382166666665, "bike_id": "fb0e5560644dc4c156d8172e016685a1", "type": "electric_scooter", "is_reserved": 0, "lon": -77.03452316666667}, {"fusion_lat": 0.0, "name": "20143c5fae57d63ebcb002a33057d78c", "is_disabled": 0, "rental_uris": {"android": "https://dc.lft.to/lastmile_qr_scan", "ios": "https://dc.lft.to/lastmile_qr_scan"}, "fusion_lon": 0.0, "lat": 38.92253733333333, "bike_id": "20143c5fae57d63ebcb002a33057d78c", "type": "electric_scooter", "is_reserved": 0, "lon": -77.01951116666666}, {"fusion_lat": 0.0, "name": "b916980a741e9876124b0051a81f3619", "is_disabled": 0, "rental_uris": {"android": "https://dc.lft.to/lastmile_qr_scan", "ios": "https://dc.lft.to/lastmile_qr_scan"}, "fusion_lon": 0.0, "lat": 38.9450235, "bike_id": "b916980a741e9876124b0051a81f3619", "type": "electric_scooter", "is_reserved": 0, "lon": -77.0314905}, {"fusion_lat": 0.0, "name": "7d167b3b48d550aee9d02233bc25eb74", "is_disabled": 0, "rental_uris": {"android": "https://dc.lft.to/lastmile_qr_scan", "ios": "https://dc.lft.to/lastmile_qr_scan"}, "fusion_lon": 0.0, "lat": 38.9076205, "bike_id": "7d167b3b48d550aee9d02233bc25eb74", "type": "electric_scooter", "is_reserved": 0, "lon": -77.02793366666667}, {"fusion_lat": 0.0, "name": "e0aecca04e4ea413c89a0829377fa16d", "is_disabled": 0, "rental_uris": {"android": "https://dc.lft.to/lastmile_qr_scan", "ios": "https://dc.lft.to/lastmile_qr_scan"}, "fusion_lon": 0.0, "lat": 38.91057883333333, "bike_id": "e0aecca04e4ea413c89a0829377fa16d", "type": "electric_scooter", "is_reserved": 0, "lon": -77.02661416666666}, {"fusion_lat": 0.0, "name": "0e2880fb4f3ee5f8ce939a07616d418a", "is_disabled": 0, "rental_uris": {"android": "https://dc.lft.to/lastmile_qr_scan", "ios": "https://dc.lft.to/lastmile_qr_scan"}, "fusion_lon": 0.0, "lat": 38.883694166666665, "bike_id": "0e2880fb4f3ee5f8ce939a07616d418a", "type": "electric_scooter", "is_reserved": 0, "lon": -76.94152266666667}, {"fusion_lat": 0.0, "name": "7c0562f99fb685f9b498dbf2a928c939", "is_disabled": 0, "rental_uris": {"android": "https://dc.lft.to/lastmile_qr_scan", "ios": "https://dc.lft.to/lastmile_qr_scan"}, "fusion_lon": 0.0, "lat": 38.84352883333333, "bike_id": "7c0562f99fb685f9b498dbf2a928c939", "type": "electric_bike", "is_reserved": 0, "lon": -76.97828266666667}, {"fusion_lat": 0.0, "name": "d2dce1828c28784cfbb98969c3e95e1b", "is_disabled": 0, "rental_uris": {"android": "https://dc.lft.to/lastmile_qr_scan", "ios": "https://dc.lft.to/lastmile_qr_scan"}, "fusion_lon": 0.0, "lat": 38.9001405, "bike_id": "d2dce1828c28784cfbb98969c3e95e1b", "type": "electric_scooter", "is_reserved": 0, "lon": -77.040359}, {"fusion_lat": 0.0, "name": "071abead482a9347510cc373f7fcd386", "is_disabled": 0, "rental_uris": {"android": "https://dc.lft.to/lastmile_qr_scan", "ios": "https://dc.lft.to/lastmile_qr_scan"}, "fusion_lon": 0.0, "lat": 38.931951833333336, "bike_id": "071abead482a9347510cc373f7fcd386", "type": "electric_scooter", "is_reserved": 0, "lon": -77.032625}, {"fusion_lat": 0.0, "name": "62458e15d916bcf00ba9b307f84063b8", "is_disabled": 0, "rental_uris": {"android": "https://dc.lft.to/lastmile_qr_scan", "ios": "https://dc.lft.to/lastmile_qr_scan"}, "fusion_lon": 0.0, "lat": 38.928876833333334, "bike_id": "62458e15d916bcf00ba9b307f84063b8", "type": "electric_scooter", "is_reserved": 0, "lon": -77.02303883333333}, {"fusion_lat": 0.0, "name": "3a58ce7a9000b01acdd94846b6bdf35c", "is_disabled": 0, "rental_uris": {"android": "https://dc.lft.to/lastmile_qr_scan", "ios": "https://dc.lft.to/lastmile_qr_scan"}, "fusion_lon": 0.0, "lat": 38.91337933333333, "bike_id": "3a58ce7a9000b01acdd94846b6bdf35c", "type": "electric_scooter", "is_reserved": 0, "lon": -77.042751}, {"fusion_lat": 0.0, "name": "fd3b56f94855e989ed4df39b3ac7819f", "is_disabled": 0, "rental_uris": {"android": "https://dc.lft.to/lastmile_qr_scan", "ios": "https://dc.lft.to/lastmile_qr_scan"}, "fusion_lon": 0.0, "lat": 38.922368166666665, "bike_id": "fd3b56f94855e989ed4df39b3ac7819f", "type": "electric_scooter", "is_reserved": 0, "lon": -77.04246116666667}, {"fusion_lat": 0.0, "name": "38f524f5a719abfaf9b79c0c7b56810b", "is_disabled": 0, "rental_uris": {"android": "https://dc.lft.to/lastmile_qr_scan", "ios": "https://dc.lft.to/lastmile_qr_scan"}, "fusion_lon": 0.0, "lat": 38.92813366666667, "bike_id": "38f524f5a719abfaf9b79c0c7b56810b", "type": "electric_scooter", "is_reserved": 0, "lon": -77.0436645}, {"fusion_lat": 0.0, "name": "dc31de4e161af35196a7d3543de357b3", "is_disabled": 0, "rental_uris": {"android": "https://dc.lft.to/lastmile_qr_scan", "ios": "https://dc.lft.to/lastmile_qr_scan"}, "fusion_lon": 0.0, "lat": 38.906864666666664, "bike_id": "dc31de4e161af35196a7d3543de357b3", "type": "electric_bike", "is_reserved": 0, "lon": -76.94493333333334}, {"fusion_lat": 0.0, "name": "4cd65944f729a8d72e91c95de5d8d67c", "is_disabled": 0, "rental_uris": {"android": "https://dc.lft.to/lastmile_qr_scan", "ios": "https://dc.lft.to/lastmile_qr_scan"}, "fusion_lon": 0.0, "lat": 38.90856216666667, "bike_id": "4cd65944f729a8d72e91c95de5d8d67c", "type": "electric_scooter", "is_reserved": 0, "lon": -76.99762883333334}, {"fusion_lat": 0.0, "name": "8fc57a30fe04602c76d4d5ce5fde328c", "is_disabled": 0, "rental_uris": {"android": "https://dc.lft.to/lastmile_qr_scan", "ios": "https://dc.lft.to/lastmile_qr_scan"}, "fusion_lon": 0.0, "lat": 38.901519, "bike_id": "8fc57a30fe04602c76d4d5ce5fde328c", "type": "electric_scooter", "is_reserved": 0, "lon": -76.9306915}, {"fusion_lat": 0.0, "name": "0804a8f26621f2e24b5141d5bb6841d7", "is_disabled": 0, "rental_uris": {"android": "https://dc.lft.to/lastmile_qr_scan", "ios": "https://dc.lft.to/lastmile_qr_scan"}, "fusion_lon": 0.0, "lat": 38.96128866666667, "bike_id": "0804a8f26621f2e24b5141d5bb6841d7", "type": "electric_bike", "is_reserved": 0, "lon": -77.0327505}, {"fusion_lat": 0.0, "name": "15f2f3a6be9ec515e92d09eb30191b0f", "is_disabled": 0, "rental_uris": {"android": "https://dc.lft.to/lastmile_qr_scan", "ios": "https://dc.lft.to/lastmile_qr_scan"}, "fusion_lon": 0.0, "lat": 38.923202, "bike_id": "15f2f3a6be9ec515e92d09eb30191b0f", "type": "electric_scooter", "is_reserved": 0, "lon": -77.04124616666667}, {"fusion_lat": 0.0, "name": "38c8ae928df37c11884ceac79a341746", "is_disabled": 0, "rental_uris": {"android": "https://dc.lft.to/lastmile_qr_scan", "ios": "https://dc.lft.to/lastmile_qr_scan"}, "fusion_lon": 0.0, "lat": 38.915529166666666, "bike_id": "38c8ae928df37c11884ceac79a341746", "type": "electric_scooter", "is_reserved": 0, "lon": -77.03172966666666}, {"fusion_lat": 0.0, "name": "f0fddb486652f1b3792bfa5ae8667209", "is_disabled": 0, "rental_uris": {"android": "https://dc.lft.to/lastmile_qr_scan", "ios": "https://dc.lft.to/lastmile_qr_scan"}, "fusion_lon": 0.0, "lat": 38.9327885, "bike_id": "f0fddb486652f1b3792bfa5ae8667209", "type": "electric_scooter", "is_reserved": 0, "lon": -77.04082333333334}, {"fusion_lat": 0.0, "name": "87fe9bcc4c559e8cbe0bf7d0d157e468", "is_disabled": 0, "rental_uris": {"android": "https://dc.lft.to/lastmile_qr_scan", "ios": "https://dc.lft.to/lastmile_qr_scan"}, "fusion_lon": 0.0, "lat": 38.92558916666667, "bike_id": "87fe9bcc4c559e8cbe0bf7d0d157e468", "type": "electric_scooter", "is_reserved": 0, "lon": -77.03556433333334}, {"fusion_lat": 0.0, "name": "6815092091caf902cb31644d5ca9f411", "is_disabled": 0, "rental_uris": {"android": "https://dc.lft.to/lastmile_qr_scan", "ios": "https://dc.lft.to/lastmile_qr_scan"}, "fusion_lon": 0.0, "lat": 38.93763933333334, "bike_id": "6815092091caf902cb31644d5ca9f411", "type": "electric_bike", "is_reserved": 0, "lon": -76.95823066666667}, {"fusion_lat": 0.0, "name": "433708f862e36e61b863d1fc7a772ad3", "is_disabled": 0, "rental_uris": {"android": "https://dc.lft.to/lastmile_qr_scan", "ios": "https://dc.lft.to/lastmile_qr_scan"}, "fusion_lon": 0.0, "lat": 38.919327, "bike_id": "433708f862e36e61b863d1fc7a772ad3", "type": "electric_scooter", "is_reserved": 0, "lon": -77.04154183333333}, {"fusion_lat": 0.0, "name": "2a55b210d610665d4ff0c9b2c11a4f3e", "is_disabled": 0, "rental_uris": {"android": "https://dc.lft.to/lastmile_qr_scan", "ios": "https://dc.lft.to/lastmile_qr_scan"}, "fusion_lon": 0.0, "lat": 38.94626816666667, "bike_id": "2a55b210d610665d4ff0c9b2c11a4f3e", "type": "electric_scooter", "is_reserved": 0, "lon": -77.032865}, {"fusion_lat": 0.0, "name": "22f4a11058d8e3ee079c084eb3336af7", "is_disabled": 0, "rental_uris": {"android": "https://dc.lft.to/lastmile_qr_scan", "ios": "https://dc.lft.to/lastmile_qr_scan"}, "fusion_lon": 0.0, "lat": 38.890179, "bike_id": "22f4a11058d8e3ee079c084eb3336af7", "type": "electric_scooter", "is_reserved": 0, "lon": -76.9373645}, {"fusion_lat": 0.0, "name": "82085897a1f92c5c2f993ba14e13d17f", "is_disabled": 0, "rental_uris": {"android": "https://dc.lft.to/lastmile_qr_scan", "ios": "https://dc.lft.to/lastmile_qr_scan"}, "fusion_lon": 0.0, "lat": 38.90520083333333, "bike_id": "82085897a1f92c5c2f993ba14e13d17f", "type": "electric_scooter", "is_reserved": 0, "lon": -77.03190916666667}, {"fusion_lat": 0.0, "name": "6ad5da0ab20ec2325fb1ea78885a51a8", "is_disabled": 0, "rental_uris": {"android": "https://dc.lft.to/lastmile_qr_scan", "ios": "https://dc.lft.to/lastmile_qr_scan"}, "fusion_lon": 0.0, "lat": 38.90735266666667, "bike_id": "6ad5da0ab20ec2325fb1ea78885a51a8", "type": "electric_scooter", "is_reserved": 0, "lon": -76.99953966666666}, {"fusion_lat": 0.0, "name": "3f646f00d4683c835713b696defb72f7", "is_disabled": 0, "rental_uris": {"android": "https://dc.lft.to/lastmile_qr_scan", "ios": "https://dc.lft.to/lastmile_qr_scan"}, "fusion_lon": 0.0, "lat": 38.92841883333333, "bike_id": "3f646f00d4683c835713b696defb72f7", "type": "electric_scooter", "is_reserved": 0, "lon": -76.99346766666666}, {"fusion_lat": 0.0, "name": "ef952a48fc1e5186266fd0941f6e5255", "is_disabled": 0, "rental_uris": {"android": "https://dc.lft.to/lastmile_qr_scan", "ios": "https://dc.lft.to/lastmile_qr_scan"}, "fusion_lon": 0.0, "lat": 38.911076, "bike_id": "ef952a48fc1e5186266fd0941f6e5255", "type": "electric_bike", "is_reserved": 0, "lon": -77.0026155}, {"fusion_lat": 0.0, "name": "13a089bba7037ff2bd198330ecf4b714", "is_disabled": 0, "rental_uris": {"android": "https://dc.lft.to/lastmile_qr_scan", "ios": "https://dc.lft.to/lastmile_qr_scan"}, "fusion_lon": 0.0, "lat": 38.91629116666667, "bike_id": "13a089bba7037ff2bd198330ecf4b714", "type": "electric_scooter", "is_reserved": 0, "lon": -77.01071033333334}, {"fusion_lat": 0.0, "name": "47b6d6031543b350350bf8ea6f4f4757", "is_disabled": 0, "rental_uris": {"android": "https://dc.lft.to/lastmile_qr_scan", "ios": "https://dc.lft.to/lastmile_qr_scan"}, "fusion_lon": 0.0, "lat": 38.940780333333336, "bike_id": "47b6d6031543b350350bf8ea6f4f4757", "type": "electric_scooter", "is_reserved": 0, "lon": -77.0299555}, {"fusion_lat": 0.0, "name": "2ef4470c36458bdad2c46cb65a5d2d5e", "is_disabled": 0, "rental_uris": {"android": "https://dc.lft.to/lastmile_qr_scan", "ios": "https://dc.lft.to/lastmile_qr_scan"}, "fusion_lon": 0.0, "lat": 38.91814433333333, "bike_id": "2ef4470c36458bdad2c46cb65a5d2d5e", "type": "electric_scooter", "is_reserved": 0, "lon": -77.0330065}, {"fusion_lat": 0.0, "name": "4d3ce6ded8ce5aba28dd0dbaf885562a", "is_disabled": 0, "rental_uris": {"android": "https://dc.lft.to/lastmile_qr_scan", "ios": "https://dc.lft.to/lastmile_qr_scan"}, "fusion_lon": 0.0, "lat": 38.913259333333336, "bike_id": "4d3ce6ded8ce5aba28dd0dbaf885562a", "type": "electric_scooter", "is_reserved": 0, "lon": -77.0212105}, {"fusion_lat": 0.0, "name": "adb4b49e6639a1e41733f9b15de0d677", "is_disabled": 0, "rental_uris": {"android": "https://dc.lft.to/lastmile_qr_scan", "ios": "https://dc.lft.to/lastmile_qr_scan"}, "fusion_lon": 0.0, "lat": 38.924239166666666, "bike_id": "adb4b49e6639a1e41733f9b15de0d677", "type": "electric_scooter", "is_reserved": 0, "lon": -77.01953883333333}, {"fusion_lat": 0.0, "name": "af5a69daf49783bccec4cc1bf6e08a7d", "is_disabled": 0, "rental_uris": {"android": "https://dc.lft.to/lastmile_qr_scan", "ios": "https://dc.lft.to/lastmile_qr_scan"}, "fusion_lon": 0.0, "lat": 38.915088833333336, "bike_id": "af5a69daf49783bccec4cc1bf6e08a7d", "type": "electric_scooter", "is_reserved": 0, "lon": -77.031823}, {"fusion_lat": 0.0, "name": "17ac226772ec162c1a7c0982a3c1cda3", "is_disabled": 0, "rental_uris": {"android": "https://dc.lft.to/lastmile_qr_scan", "ios": "https://dc.lft.to/lastmile_qr_scan"}, "fusion_lon": 0.0, "lat": 38.87970166666667, "bike_id": "17ac226772ec162c1a7c0982a3c1cda3", "type": "electric_bike", "is_reserved": 0, "lon": -76.91613583333333}, {"fusion_lat": 0.0, "name": "90d0958199e1fd82247d32ad67a91b34", "is_disabled": 0, "rental_uris": {"android": "https://dc.lft.to/lastmile_qr_scan", "ios": "https://dc.lft.to/lastmile_qr_scan"}, "fusion_lon": 0.0, "lat": 38.90095433333333, "bike_id": "90d0958199e1fd82247d32ad67a91b34", "type": "electric_scooter", "is_reserved": 0, "lon": -76.98324066666666}, {"fusion_lat": 0.0, "name": "cfb2e275bcb99a8cc3027e89d20d37fe", "is_disabled": 0, "rental_uris": {"android": "https://dc.lft.to/lastmile_qr_scan", "ios": "https://dc.lft.to/lastmile_qr_scan"}, "fusion_lon": 0.0, "lat": 38.916372, "bike_id": "cfb2e275bcb99a8cc3027e89d20d37fe", "type": "electric_scooter", "is_reserved": 0, "lon": -77.050569}, {"fusion_lat": 0.0, "name": "5c26dc30c0a7e7b682f944efee143f34", "is_disabled": 0, "rental_uris": {"android": "https://dc.lft.to/lastmile_qr_scan", "ios": "https://dc.lft.to/lastmile_qr_scan"}, "fusion_lon": 0.0, "lat": 39.0361505, "bike_id": "5c26dc30c0a7e7b682f944efee143f34", "type": "electric_bike", "is_reserved": 0, "lon": -77.05544566666667}, {"fusion_lat": 0.0, "name": "c7ccae8cd38ab9d97724545897058355", "is_disabled": 0, "rental_uris": {"android": "https://dc.lft.to/lastmile_qr_scan", "ios": "https://dc.lft.to/lastmile_qr_scan"}, "fusion_lon": 0.0, "lat": 38.929133666666665, "bike_id": "c7ccae8cd38ab9d97724545897058355", "type": "electric_scooter", "is_reserved": 0, "lon": -77.021809}, {"fusion_lat": 0.0, "name": "318982e43185e13dee7e931e271d6834", "is_disabled": 0, "rental_uris": {"android": "https://dc.lft.to/lastmile_qr_scan", "ios": "https://dc.lft.to/lastmile_qr_scan"}, "fusion_lon": 0.0, "lat": 38.88631216666667, "bike_id": "318982e43185e13dee7e931e271d6834", "type": "electric_scooter", "is_reserved": 0, "lon": -77.02829433333333}, {"fusion_lat": 0.0, "name": "2969fa52c677a6e991c84592a61ca689", "is_disabled": 0, "rental_uris": {"android": "https://dc.lft.to/lastmile_qr_scan", "ios": "https://dc.lft.to/lastmile_qr_scan"}, "fusion_lon": 0.0, "lat": 38.90520516666667, "bike_id": "2969fa52c677a6e991c84592a61ca689", "type": "electric_scooter", "is_reserved": 0, "lon": -77.02952083333334}, {"fusion_lat": 0.0, "name": "f216a9d1a90805729c09932e0ee7532a", "is_disabled": 0, "rental_uris": {"android": "https://dc.lft.to/lastmile_qr_scan", "ios": "https://dc.lft.to/lastmile_qr_scan"}, "fusion_lon": 0.0, "lat": 38.86573683333334, "bike_id": "f216a9d1a90805729c09932e0ee7532a", "type": "electric_scooter", "is_reserved": 0, "lon": -76.9784325}, {"fusion_lat": 0.0, "name": "be20e80dd69ab99b3718d5520acc87c4", "is_disabled": 0, "rental_uris": {"android": "https://dc.lft.to/lastmile_qr_scan", "ios": "https://dc.lft.to/lastmile_qr_scan"}, "fusion_lon": 0.0, "lat": 38.90758983333333, "bike_id": "be20e80dd69ab99b3718d5520acc87c4", "type": "electric_scooter", "is_reserved": 0, "lon": -77.03579066666667}, {"fusion_lat": 0.0, "name": "c9e523536e949f8b71131b948fb0b871", "is_disabled": 0, "rental_uris": {"android": "https://dc.lft.to/lastmile_qr_scan", "ios": "https://dc.lft.to/lastmile_qr_scan"}, "fusion_lon": 0.0, "lat": 38.90655116666667, "bike_id": "c9e523536e949f8b71131b948fb0b871", "type": "electric_scooter", "is_reserved": 0, "lon": -77.05328366666667}, {"fusion_lat": 0.0, "name": "69b559757ec6d3e6925f6a81d1a3c81f", "is_disabled": 0, "rental_uris": {"android": "https://dc.lft.to/lastmile_qr_scan", "ios": "https://dc.lft.to/lastmile_qr_scan"}, "fusion_lon": 0.0, "lat": 38.927359833333334, "bike_id": "69b559757ec6d3e6925f6a81d1a3c81f", "type": "electric_scooter", "is_reserved": 0, "lon": -77.05251766666666}, {"fusion_lat": 0.0, "name": "b7ad28e794717f78d14ba50223dba9b4", "is_disabled": 0, "rental_uris": {"android": "https://dc.lft.to/lastmile_qr_scan", "ios": "https://dc.lft.to/lastmile_qr_scan"}, "fusion_lon": 0.0, "lat": 38.90383816666667, "bike_id": "b7ad28e794717f78d14ba50223dba9b4", "type": "electric_scooter", "is_reserved": 0, "lon": -76.97618416666667}, {"fusion_lat": 0.0, "name": "ab8f38d30e5d9b4b2458f5ceea6de8de", "is_disabled": 0, "rental_uris": {"android": "https://dc.lft.to/lastmile_qr_scan", "ios": "https://dc.lft.to/lastmile_qr_scan"}, "fusion_lon": 0.0, "lat": 38.923825, "bike_id": "ab8f38d30e5d9b4b2458f5ceea6de8de", "type": "electric_scooter", "is_reserved": 0, "lon": -77.04466566666666}, {"fusion_lat": 0.0, "name": "5a7c2a03406526bc4a4901a9f7f57dcf", "is_disabled": 0, "rental_uris": {"android": "https://dc.lft.to/lastmile_qr_scan", "ios": "https://dc.lft.to/lastmile_qr_scan"}, "fusion_lon": 0.0, "lat": 38.904279, "bike_id": "5a7c2a03406526bc4a4901a9f7f57dcf", "type": "electric_scooter", "is_reserved": 0, "lon": -77.051454}, {"fusion_lat": 0.0, "name": "acb2cbd42d8900bfb66b24ab55657774", "is_disabled": 0, "rental_uris": {"android": "https://dc.lft.to/lastmile_qr_scan", "ios": "https://dc.lft.to/lastmile_qr_scan"}, "fusion_lon": 0.0, "lat": 38.89239883333333, "bike_id": "acb2cbd42d8900bfb66b24ab55657774", "type": "electric_scooter", "is_reserved": 0, "lon": -77.04359916666667}, {"fusion_lat": 0.0, "name": "b1f4828528f328f7ce817b486ebfef17", "is_disabled": 0, "rental_uris": {"android": "https://dc.lft.to/lastmile_qr_scan", "ios": "https://dc.lft.to/lastmile_qr_scan"}, "fusion_lon": 0.0, "lat": 38.96393166666667, "bike_id": "b1f4828528f328f7ce817b486ebfef17", "type": "electric_scooter", "is_reserved": 0, "lon": -77.025858}, {"fusion_lat": 0.0, "name": "a9f825a5ad535a2c0e095592ac4ae618", "is_disabled": 0, "rental_uris": {"android": "https://dc.lft.to/lastmile_qr_scan", "ios": "https://dc.lft.to/lastmile_qr_scan"}, "fusion_lon": 0.0, "lat": 38.88188233333333, "bike_id": "a9f825a5ad535a2c0e095592ac4ae618", "type": "electric_scooter", "is_reserved": 0, "lon": -77.00352233333334}, {"fusion_lat": 0.0, "name": "fcad44996a580df531dfea873215dcef", "is_disabled": 0, "rental_uris": {"android": "https://dc.lft.to/lastmile_qr_scan", "ios": "https://dc.lft.to/lastmile_qr_scan"}, "fusion_lon": 0.0, "lat": 38.87773166666667, "bike_id": "fcad44996a580df531dfea873215dcef", "type": "electric_scooter", "is_reserved": 0, "lon": -77.005273}, {"fusion_lat": 0.0, "name": "318e4c3405f565c01efde0ba75c35655", "is_disabled": 0, "rental_uris": {"android": "https://dc.lft.to/lastmile_qr_scan", "ios": "https://dc.lft.to/lastmile_qr_scan"}, "fusion_lon": 0.0, "lat": 38.91622383333333, "bike_id": "318e4c3405f565c01efde0ba75c35655", "type": "electric_scooter", "is_reserved": 0, "lon": -77.03207466666667}, {"fusion_lat": 0.0, "name": "e0beaecdfb20fd22bd186d4af8fd835d", "is_disabled": 0, "rental_uris": {"android": "https://dc.lft.to/lastmile_qr_scan", "ios": "https://dc.lft.to/lastmile_qr_scan"}, "fusion_lon": 0.0, "lat": 38.916969, "bike_id": "e0beaecdfb20fd22bd186d4af8fd835d", "type": "electric_scooter", "is_reserved": 0, "lon": -77.02593033333333}, {"fusion_lat": 0.0, "name": "c04fd79dea45d2e10d6741e5715b80bd", "is_disabled": 0, "rental_uris": {"android": "https://dc.lft.to/lastmile_qr_scan", "ios": "https://dc.lft.to/lastmile_qr_scan"}, "fusion_lon": 0.0, "lat": 38.90022283333333, "bike_id": "c04fd79dea45d2e10d6741e5715b80bd", "type": "electric_scooter", "is_reserved": 0, "lon": -77.01175216666667}, {"fusion_lat": 0.0, "name": "558565ff72f39dfd686752e1309a63de", "is_disabled": 0, "rental_uris": {"android": "https://dc.lft.to/lastmile_qr_scan", "ios": "https://dc.lft.to/lastmile_qr_scan"}, "fusion_lon": 0.0, "lat": 38.921104, "bike_id": "558565ff72f39dfd686752e1309a63de", "type": "electric_scooter", "is_reserved": 0, "lon": -77.03178683333333}, {"fusion_lat": 0.0, "name": "a8719b4427f6938c3a0d15cd198024eb", "is_disabled": 0, "rental_uris": {"android": "https://dc.lft.to/lastmile_qr_scan", "ios": "https://dc.lft.to/lastmile_qr_scan"}, "fusion_lon": 0.0, "lat": 38.8029895, "bike_id": "a8719b4427f6938c3a0d15cd198024eb", "type": "electric_bike", "is_reserved": 0, "lon": -77.0593965}, {"fusion_lat": 0.0, "name": "505b25d94b9b250e246bb897d6c3d1ec", "is_disabled": 0, "rental_uris": {"android": "https://dc.lft.to/lastmile_qr_scan", "ios": "https://dc.lft.to/lastmile_qr_scan"}, "fusion_lon": 0.0, "lat": 38.922903, "bike_id": "505b25d94b9b250e246bb897d6c3d1ec", "type": "electric_scooter", "is_reserved": 0, "lon": -77.03658616666667}, {"fusion_lat": 0.0, "name": "fd8587902a94f4ac8c05cd0c1f0f9cf0", "is_disabled": 0, "rental_uris": {"android": "https://dc.lft.to/lastmile_qr_scan", "ios": "https://dc.lft.to/lastmile_qr_scan"}, "fusion_lon": 0.0, "lat": 38.913463666666665, "bike_id": "fd8587902a94f4ac8c05cd0c1f0f9cf0", "type": "electric_bike", "is_reserved": 0, "lon": -76.9889945}, {"fusion_lat": 0.0, "name": "0a39e6cb75639e50b45403ef8ce40565", "is_disabled": 0, "rental_uris": {"android": "https://dc.lft.to/lastmile_qr_scan", "ios": "https://dc.lft.to/lastmile_qr_scan"}, "fusion_lon": 0.0, "lat": 38.92683816666667, "bike_id": "0a39e6cb75639e50b45403ef8ce40565", "type": "electric_scooter", "is_reserved": 0, "lon": -77.03131633333334}, {"fusion_lat": 0.0, "name": "0a2d7d5f4b4512ac7821c6914cdfbfef", "is_disabled": 0, "rental_uris": {"android": "https://dc.lft.to/lastmile_qr_scan", "ios": "https://dc.lft.to/lastmile_qr_scan"}, "fusion_lon": 0.0, "lat": 38.89957916666667, "bike_id": "0a2d7d5f4b4512ac7821c6914cdfbfef", "type": "electric_scooter", "is_reserved": 0, "lon": -77.05473216666667}, {"fusion_lat": 0.0, "name": "83c494441419dfb3711798bc6ef939fb", "is_disabled": 0, "rental_uris": {"android": "https://dc.lft.to/lastmile_qr_scan", "ios": "https://dc.lft.to/lastmile_qr_scan"}, "fusion_lon": 0.0, "lat": 38.90141216666667, "bike_id": "83c494441419dfb3711798bc6ef939fb", "type": "electric_scooter", "is_reserved": 0, "lon": -76.99122683333333}, {"fusion_lat": 0.0, "name": "280af9b64ff5a7aea32d94eeedeef4f4", "is_disabled": 0, "rental_uris": {"android": "https://dc.lft.to/lastmile_qr_scan", "ios": "https://dc.lft.to/lastmile_qr_scan"}, "fusion_lon": 0.0, "lat": 38.909604333333334, "bike_id": "280af9b64ff5a7aea32d94eeedeef4f4", "type": "electric_scooter", "is_reserved": 0, "lon": -77.02279183333333}, {"fusion_lat": 0.0, "name": "4ad7ce999b36002a0a77861fd6cad608", "is_disabled": 0, "rental_uris": {"android": "https://dc.lft.to/lastmile_qr_scan", "ios": "https://dc.lft.to/lastmile_qr_scan"}, "fusion_lon": 0.0, "lat": 38.9198305, "bike_id": "4ad7ce999b36002a0a77861fd6cad608", "type": "electric_scooter", "is_reserved": 0, "lon": -77.04089133333333}, {"fusion_lat": 0.0, "name": "9a01f6d8ac9b0129069ad196ca0c592f", "is_disabled": 0, "rental_uris": {"android": "https://dc.lft.to/lastmile_qr_scan", "ios": "https://dc.lft.to/lastmile_qr_scan"}, "fusion_lon": 0.0, "lat": 38.878161166666665, "bike_id": "9a01f6d8ac9b0129069ad196ca0c592f", "type": "electric_scooter", "is_reserved": 0, "lon": -77.0153195}, {"fusion_lat": 0.0, "name": "6de890e1a591b90cbc27bb78502b8071", "is_disabled": 0, "rental_uris": {"android": "https://dc.lft.to/lastmile_qr_scan", "ios": "https://dc.lft.to/lastmile_qr_scan"}, "fusion_lon": 0.0, "lat": 38.87387783333333, "bike_id": "6de890e1a591b90cbc27bb78502b8071", "type": "electric_scooter", "is_reserved": 0, "lon": -77.00058333333334}, {"fusion_lat": 0.0, "name": "4c54e0e992c467a92bb365dba1ade249", "is_disabled": 0, "rental_uris": {"android": "https://dc.lft.to/lastmile_qr_scan", "ios": "https://dc.lft.to/lastmile_qr_scan"}, "fusion_lon": 0.0, "lat": 38.88389733333333, "bike_id": "4c54e0e992c467a92bb365dba1ade249", "type": "electric_scooter", "is_reserved": 0, "lon": -76.98556633333334}, {"fusion_lat": 0.0, "name": "c49a449eac563fb5eaaabc755fba5ab9", "is_disabled": 0, "rental_uris": {"android": "https://dc.lft.to/lastmile_qr_scan", "ios": "https://dc.lft.to/lastmile_qr_scan"}, "fusion_lon": 0.0, "lat": 38.918453666666665, "bike_id": "c49a449eac563fb5eaaabc755fba5ab9", "type": "electric_scooter", "is_reserved": 0, "lon": -77.023064}, {"fusion_lat": 0.0, "name": "a1a056549004cdf62d50fe52f3619708", "is_disabled": 0, "rental_uris": {"android": "https://dc.lft.to/lastmile_qr_scan", "ios": "https://dc.lft.to/lastmile_qr_scan"}, "fusion_lon": 0.0, "lat": 38.917182333333336, "bike_id": "a1a056549004cdf62d50fe52f3619708", "type": "electric_scooter", "is_reserved": 0, "lon": -76.96868916666666}, {"fusion_lat": 0.0, "name": "1a699729c7713e71eeab955d6eddead2", "is_disabled": 0, "rental_uris": {"android": "https://dc.lft.to/lastmile_qr_scan", "ios": "https://dc.lft.to/lastmile_qr_scan"}, "fusion_lon": 0.0, "lat": 38.906602666666664, "bike_id": "1a699729c7713e71eeab955d6eddead2", "type": "electric_scooter", "is_reserved": 0, "lon": -77.07119533333334}, {"fusion_lat": 0.0, "name": "fd4b99d2ab8f45779e26b45293426a3f", "is_disabled": 0, "rental_uris": {"android": "https://dc.lft.to/lastmile_qr_scan", "ios": "https://dc.lft.to/lastmile_qr_scan"}, "fusion_lon": 0.0, "lat": 38.9049635, "bike_id": "fd4b99d2ab8f45779e26b45293426a3f", "type": "electric_scooter", "is_reserved": 0, "lon": -77.02959566666667}, {"fusion_lat": 0.0, "name": "ec1e5dbee0232b6e45e4253d53e5659e", "is_disabled": 0, "rental_uris": {"android": "https://dc.lft.to/lastmile_qr_scan", "ios": "https://dc.lft.to/lastmile_qr_scan"}, "fusion_lon": 0.0, "lat": 38.90175266666667, "bike_id": "ec1e5dbee0232b6e45e4253d53e5659e", "type": "electric_scooter", "is_reserved": 0, "lon": -77.036572}, {"fusion_lat": 0.0, "name": "0b771ad624cd7896504e23821ba88c0a", "is_disabled": 0, "rental_uris": {"android": "https://dc.lft.to/lastmile_qr_scan", "ios": "https://dc.lft.to/lastmile_qr_scan"}, "fusion_lon": 0.0, "lat": 38.900776, "bike_id": "0b771ad624cd7896504e23821ba88c0a", "type": "electric_scooter", "is_reserved": 0, "lon": -77.017098}, {"fusion_lat": 0.0, "name": "4ca05651d30c8e0ec2b94d62549b1f33", "is_disabled": 0, "rental_uris": {"android": "https://dc.lft.to/lastmile_qr_scan", "ios": "https://dc.lft.to/lastmile_qr_scan"}, "fusion_lon": 0.0, "lat": 38.92890716666667, "bike_id": "4ca05651d30c8e0ec2b94d62549b1f33", "type": "electric_scooter", "is_reserved": 0, "lon": -77.0373625}, {"fusion_lat": 0.0, "name": "ecb2172d60e974f9834f81401880050c", "is_disabled": 0, "rental_uris": {"android": "https://dc.lft.to/lastmile_qr_scan", "ios": "https://dc.lft.to/lastmile_qr_scan"}, "fusion_lon": 0.0, "lat": 38.91421033333334, "bike_id": "ecb2172d60e974f9834f81401880050c", "type": "electric_scooter", "is_reserved": 0, "lon": -77.03813633333333}, {"fusion_lat": 0.0, "name": "5a840d8d31151703a89dfec18235cc15", "is_disabled": 0, "rental_uris": {"android": "https://dc.lft.to/lastmile_qr_scan", "ios": "https://dc.lft.to/lastmile_qr_scan"}, "fusion_lon": 0.0, "lat": 38.918492666666666, "bike_id": "5a840d8d31151703a89dfec18235cc15", "type": "electric_scooter", "is_reserved": 0, "lon": -76.96528816666667}, {"fusion_lat": 0.0, "name": "e0d0dfae743c6065475e958bd5974d68", "is_disabled": 0, "rental_uris": {"android": "https://dc.lft.to/lastmile_qr_scan", "ios": "https://dc.lft.to/lastmile_qr_scan"}, "fusion_lon": 0.0, "lat": 38.91812983333333, "bike_id": "e0d0dfae743c6065475e958bd5974d68", "type": "electric_scooter", "is_reserved": 0, "lon": -77.0367075}, {"fusion_lat": 0.0, "name": "3ac897b89b774238adcde8756e52f3a7", "is_disabled": 0, "rental_uris": {"android": "https://dc.lft.to/lastmile_qr_scan", "ios": "https://dc.lft.to/lastmile_qr_scan"}, "fusion_lon": 0.0, "lat": 38.9147385, "bike_id": "3ac897b89b774238adcde8756e52f3a7", "type": "electric_scooter", "is_reserved": 0, "lon": -76.98392183333333}, {"fusion_lat": 0.0, "name": "7ac95a6886a6f014d86fe33b47df6838", "is_disabled": 0, "rental_uris": {"android": "https://dc.lft.to/lastmile_qr_scan", "ios": "https://dc.lft.to/lastmile_qr_scan"}, "fusion_lon": 0.0, "lat": 38.9500635, "bike_id": "7ac95a6886a6f014d86fe33b47df6838", "type": "electric_scooter", "is_reserved": 0, "lon": -77.0194745}, {"fusion_lat": 0.0, "name": "bc46f6b00a073dcc554582447414561c", "is_disabled": 0, "rental_uris": {"android": "https://dc.lft.to/lastmile_qr_scan", "ios": "https://dc.lft.to/lastmile_qr_scan"}, "fusion_lon": 0.0, "lat": 38.984781, "bike_id": "bc46f6b00a073dcc554582447414561c", "type": "electric_scooter", "is_reserved": 0, "lon": -77.026421}, {"fusion_lat": 0.0, "name": "f0bda8b780e2b5d41dc3dff5f31be392", "is_disabled": 0, "rental_uris": {"android": "https://dc.lft.to/lastmile_qr_scan", "ios": "https://dc.lft.to/lastmile_qr_scan"}, "fusion_lon": 0.0, "lat": 38.915683, "bike_id": "f0bda8b780e2b5d41dc3dff5f31be392", "type": "electric_scooter", "is_reserved": 0, "lon": -77.03208983333333}, {"fusion_lat": 0.0, "name": "b0b86a0dc331e74e358a248df5b366b0", "is_disabled": 0, "rental_uris": {"android": "https://dc.lft.to/lastmile_qr_scan", "ios": "https://dc.lft.to/lastmile_qr_scan"}, "fusion_lon": 0.0, "lat": 38.91352716666667, "bike_id": "b0b86a0dc331e74e358a248df5b366b0", "type": "electric_scooter", "is_reserved": 0, "lon": -77.03330016666666}, {"fusion_lat": 0.0, "name": "be817dcab772fc4b0b0a4f8a5201b07e", "is_disabled": 0, "rental_uris": {"android": "https://dc.lft.to/lastmile_qr_scan", "ios": "https://dc.lft.to/lastmile_qr_scan"}, "fusion_lon": 0.0, "lat": 38.906820833333335, "bike_id": "be817dcab772fc4b0b0a4f8a5201b07e", "type": "electric_scooter", "is_reserved": 0, "lon": -77.01098666666667}, {"fusion_lat": 0.0, "name": "39aad76ab7c73f18f81462fcc6f33ec6", "is_disabled": 0, "rental_uris": {"android": "https://dc.lft.to/lastmile_qr_scan", "ios": "https://dc.lft.to/lastmile_qr_scan"}, "fusion_lon": 0.0, "lat": 38.921957, "bike_id": "39aad76ab7c73f18f81462fcc6f33ec6", "type": "electric_scooter", "is_reserved": 0, "lon": -77.04030733333333}, {"fusion_lat": 0.0, "name": "0d0fccaa9dff926a8e2cf76a43cd387c", "is_disabled": 0, "rental_uris": {"android": "https://dc.lft.to/lastmile_qr_scan", "ios": "https://dc.lft.to/lastmile_qr_scan"}, "fusion_lon": 0.0, "lat": 38.87823233333334, "bike_id": "0d0fccaa9dff926a8e2cf76a43cd387c", "type": "electric_scooter", "is_reserved": 0, "lon": -77.00127733333333}, {"fusion_lat": 0.0, "name": "e3022dc5ac6be3b2e272b351646a83c7", "is_disabled": 0, "rental_uris": {"android": "https://dc.lft.to/lastmile_qr_scan", "ios": "https://dc.lft.to/lastmile_qr_scan"}, "fusion_lon": 0.0, "lat": 38.928116333333335, "bike_id": "e3022dc5ac6be3b2e272b351646a83c7", "type": "electric_scooter", "is_reserved": 0, "lon": -77.043644}, {"fusion_lat": 0.0, "name": "76adba932db5b2f556c1384e860925bb", "is_disabled": 0, "rental_uris": {"android": "https://dc.lft.to/lastmile_qr_scan", "ios": "https://dc.lft.to/lastmile_qr_scan"}, "fusion_lon": 0.0, "lat": 38.89103, "bike_id": "76adba932db5b2f556c1384e860925bb", "type": "electric_scooter", "is_reserved": 0, "lon": -76.98355616666667}, {"fusion_lat": 0.0, "name": "663475685a10f04cdf049e9923f28482", "is_disabled": 0, "rental_uris": {"android": "https://dc.lft.to/lastmile_qr_scan", "ios": "https://dc.lft.to/lastmile_qr_scan"}, "fusion_lon": 0.0, "lat": 38.865162, "bike_id": "663475685a10f04cdf049e9923f28482", "type": "electric_bike", "is_reserved": 0, "lon": -76.9732945}, {"fusion_lat": 0.0, "name": "6835054b8478de651e30eae63693cef4", "is_disabled": 0, "rental_uris": {"android": "https://dc.lft.to/lastmile_qr_scan", "ios": "https://dc.lft.to/lastmile_qr_scan"}, "fusion_lon": 0.0, "lat": 38.969313166666666, "bike_id": "6835054b8478de651e30eae63693cef4", "type": "electric_bike", "is_reserved": 0, "lon": -77.0261555}, {"fusion_lat": 0.0, "name": "38ea21a5ebbf8cd39020df821c1dccfd", "is_disabled": 0, "rental_uris": {"android": "https://dc.lft.to/lastmile_qr_scan", "ios": "https://dc.lft.to/lastmile_qr_scan"}, "fusion_lon": 0.0, "lat": 38.84917216666667, "bike_id": "38ea21a5ebbf8cd39020df821c1dccfd", "type": "electric_bike", "is_reserved": 0, "lon": -77.0998045}, {"fusion_lat": 0.0, "name": "e44608d35aa9d8c85a6aff78727b2ebb", "is_disabled": 0, "rental_uris": {"android": "https://dc.lft.to/lastmile_qr_scan", "ios": "https://dc.lft.to/lastmile_qr_scan"}, "fusion_lon": 0.0, "lat": 38.93967216666667, "bike_id": "e44608d35aa9d8c85a6aff78727b2ebb", "type": "electric_scooter", "is_reserved": 0, "lon": -77.0328}, {"fusion_lat": 0.0, "name": "2247d3325eb63fa5eb3d61dd0c9b1f29", "is_disabled": 0, "rental_uris": {"android": "https://dc.lft.to/lastmile_qr_scan", "ios": "https://dc.lft.to/lastmile_qr_scan"}, "fusion_lon": 0.0, "lat": 38.909373333333335, "bike_id": "2247d3325eb63fa5eb3d61dd0c9b1f29", "type": "electric_scooter", "is_reserved": 0, "lon": -77.06260316666666}, {"fusion_lat": 0.0, "name": "ffdd33c0665fad5839c1fed9d487593e", "is_disabled": 0, "rental_uris": {"android": "https://dc.lft.to/lastmile_qr_scan", "ios": "https://dc.lft.to/lastmile_qr_scan"}, "fusion_lon": 0.0, "lat": 38.905555, "bike_id": "ffdd33c0665fad5839c1fed9d487593e", "type": "electric_scooter", "is_reserved": 0, "lon": -76.98332583333334}, {"fusion_lat": 0.0, "name": "93705aae6dbd957b4e00865e65c0e34a", "is_disabled": 0, "rental_uris": {"android": "https://dc.lft.to/lastmile_qr_scan", "ios": "https://dc.lft.to/lastmile_qr_scan"}, "fusion_lon": 0.0, "lat": 38.8983405, "bike_id": "93705aae6dbd957b4e00865e65c0e34a", "type": "electric_scooter", "is_reserved": 0, "lon": -77.0280945}, {"fusion_lat": 0.0, "name": "797d118974c1fa13c212ed738d8e5c4f", "is_disabled": 0, "rental_uris": {"android": "https://dc.lft.to/lastmile_qr_scan", "ios": "https://dc.lft.to/lastmile_qr_scan"}, "fusion_lon": 0.0, "lat": 38.934907, "bike_id": "797d118974c1fa13c212ed738d8e5c4f", "type": "electric_scooter", "is_reserved": 0, "lon": -77.04536483333334}, {"fusion_lat": 0.0, "name": "005a938615fa5fcc5e1a83d34beb0364", "is_disabled": 0, "rental_uris": {"android": "https://dc.lft.to/lastmile_qr_scan", "ios": "https://dc.lft.to/lastmile_qr_scan"}, "fusion_lon": 0.0, "lat": 38.89688433333333, "bike_id": "005a938615fa5fcc5e1a83d34beb0364", "type": "electric_bike", "is_reserved": 0, "lon": -77.0241995}, {"fusion_lat": 0.0, "name": "86807cc39adf679834b15461f10cc86f", "is_disabled": 0, "rental_uris": {"android": "https://dc.lft.to/lastmile_qr_scan", "ios": "https://dc.lft.to/lastmile_qr_scan"}, "fusion_lon": 0.0, "lat": 38.896702, "bike_id": "86807cc39adf679834b15461f10cc86f", "type": "electric_scooter", "is_reserved": 0, "lon": -76.93207316666667}, {"fusion_lat": 0.0, "name": "80f644f17b5a97825e90288562aa6067", "is_disabled": 0, "rental_uris": {"android": "https://dc.lft.to/lastmile_qr_scan", "ios": "https://dc.lft.to/lastmile_qr_scan"}, "fusion_lon": 0.0, "lat": 38.905165, "bike_id": "80f644f17b5a97825e90288562aa6067", "type": "electric_scooter", "is_reserved": 0, "lon": -77.067734}, {"fusion_lat": 0.0, "name": "66c14936d315f66d3dfa2a34aad62361", "is_disabled": 0, "rental_uris": {"android": "https://dc.lft.to/lastmile_qr_scan", "ios": "https://dc.lft.to/lastmile_qr_scan"}, "fusion_lon": 0.0, "lat": 38.9326, "bike_id": "66c14936d315f66d3dfa2a34aad62361", "type": "electric_scooter", "is_reserved": 0, "lon": -77.01916816666666}, {"fusion_lat": 0.0, "name": "7445505af05ee12ddd2ceb04cc19df80", "is_disabled": 0, "rental_uris": {"android": "https://dc.lft.to/lastmile_qr_scan", "ios": "https://dc.lft.to/lastmile_qr_scan"}, "fusion_lon": 0.0, "lat": 38.924817166666664, "bike_id": "7445505af05ee12ddd2ceb04cc19df80", "type": "electric_bike", "is_reserved": 0, "lon": -77.23345133333333}, {"fusion_lat": 0.0, "name": "56eb30fbbe9c228f3b155867bcbbedba", "is_disabled": 0, "rental_uris": {"android": "https://dc.lft.to/lastmile_qr_scan", "ios": "https://dc.lft.to/lastmile_qr_scan"}, "fusion_lon": 0.0, "lat": 38.921377166666666, "bike_id": "56eb30fbbe9c228f3b155867bcbbedba", "type": "electric_scooter", "is_reserved": 0, "lon": -77.036651}, {"fusion_lat": 0.0, "name": "23a831e83cfb2bd303b20b65a329c42d", "is_disabled": 0, "rental_uris": {"android": "https://dc.lft.to/lastmile_qr_scan", "ios": "https://dc.lft.to/lastmile_qr_scan"}, "fusion_lon": 0.0, "lat": 38.916973166666665, "bike_id": "23a831e83cfb2bd303b20b65a329c42d", "type": "electric_scooter", "is_reserved": 0, "lon": -77.03123966666666}, {"fusion_lat": 0.0, "name": "906f431780d46bc0f72258bfbfd6dd73", "is_disabled": 0, "rental_uris": {"android": "https://dc.lft.to/lastmile_qr_scan", "ios": "https://dc.lft.to/lastmile_qr_scan"}, "fusion_lon": 0.0, "lat": 38.903550333333335, "bike_id": "906f431780d46bc0f72258bfbfd6dd73", "type": "electric_scooter", "is_reserved": 0, "lon": -76.974746}, {"fusion_lat": 0.0, "name": "3a21b726446dfc8b4fbdd030d89ab288", "is_disabled": 0, "rental_uris": {"android": "https://dc.lft.to/lastmile_qr_scan", "ios": "https://dc.lft.to/lastmile_qr_scan"}, "fusion_lon": 0.0, "lat": 38.908659, "bike_id": "3a21b726446dfc8b4fbdd030d89ab288", "type": "electric_scooter", "is_reserved": 0, "lon": -77.024307}, {"fusion_lat": 0.0, "name": "7c779c60494fa666428cf217cba4680d", "is_disabled": 0, "rental_uris": {"android": "https://dc.lft.to/lastmile_qr_scan", "ios": "https://dc.lft.to/lastmile_qr_scan"}, "fusion_lon": 0.0, "lat": 38.90087966666667, "bike_id": "7c779c60494fa666428cf217cba4680d", "type": "electric_scooter", "is_reserved": 0, "lon": -77.0505365}, {"fusion_lat": 0.0, "name": "c78be0bf505747f66d7879d8ef670a11", "is_disabled": 0, "rental_uris": {"android": "https://dc.lft.to/lastmile_qr_scan", "ios": "https://dc.lft.to/lastmile_qr_scan"}, "fusion_lon": 0.0, "lat": 38.89819716666667, "bike_id": "c78be0bf505747f66d7879d8ef670a11", "type": "electric_scooter", "is_reserved": 0, "lon": -77.04671983333333}, {"fusion_lat": 0.0, "name": "12cbc081126f374d5459db3c9d0bf2cc", "is_disabled": 0, "rental_uris": {"android": "https://dc.lft.to/lastmile_qr_scan", "ios": "https://dc.lft.to/lastmile_qr_scan"}, "fusion_lon": 0.0, "lat": 38.88405316666667, "bike_id": "12cbc081126f374d5459db3c9d0bf2cc", "type": "electric_scooter", "is_reserved": 0, "lon": -77.008317}, {"fusion_lat": 0.0, "name": "605e3b71ac97cea43f9dc015eb6d6acd", "is_disabled": 0, "rental_uris": {"android": "https://dc.lft.to/lastmile_qr_scan", "ios": "https://dc.lft.to/lastmile_qr_scan"}, "fusion_lon": 0.0, "lat": 38.90025633333333, "bike_id": "605e3b71ac97cea43f9dc015eb6d6acd", "type": "electric_scooter", "is_reserved": 0, "lon": -76.98814283333333}, {"fusion_lat": 0.0, "name": "ef607b67bcedaf7acc7c16ef82a77734", "is_disabled": 0, "rental_uris": {"android": "https://dc.lft.to/lastmile_qr_scan", "ios": "https://dc.lft.to/lastmile_qr_scan"}, "fusion_lon": 0.0, "lat": 38.912607333333334, "bike_id": "ef607b67bcedaf7acc7c16ef82a77734", "type": "electric_scooter", "is_reserved": 0, "lon": -77.03864333333334}, {"fusion_lat": 0.0, "name": "1fb9af51d088388d539033d20912e6e9", "is_disabled": 0, "rental_uris": {"android": "https://dc.lft.to/lastmile_qr_scan", "ios": "https://dc.lft.to/lastmile_qr_scan"}, "fusion_lon": 0.0, "lat": 38.91841733333333, "bike_id": "1fb9af51d088388d539033d20912e6e9", "type": "electric_scooter", "is_reserved": 0, "lon": -77.063717}, {"fusion_lat": 0.0, "name": "cfd4d45666e7a323879a7748bda57599", "is_disabled": 0, "rental_uris": {"android": "https://dc.lft.to/lastmile_qr_scan", "ios": "https://dc.lft.to/lastmile_qr_scan"}, "fusion_lon": 0.0, "lat": 38.9736725, "bike_id": "cfd4d45666e7a323879a7748bda57599", "type": "electric_scooter", "is_reserved": 0, "lon": -77.01291066666667}, {"fusion_lat": 0.0, "name": "4ef789f97a2774c7240b5adeb4defc43", "is_disabled": 0, "rental_uris": {"android": "https://dc.lft.to/lastmile_qr_scan", "ios": "https://dc.lft.to/lastmile_qr_scan"}, "fusion_lon": 0.0, "lat": 38.935323333333336, "bike_id": "4ef789f97a2774c7240b5adeb4defc43", "type": "electric_scooter", "is_reserved": 0, "lon": -77.04517816666667}, {"fusion_lat": 0.0, "name": "35eda8044da4db94cfc90b0a3c67840b", "is_disabled": 0, "rental_uris": {"android": "https://dc.lft.to/lastmile_qr_scan", "ios": "https://dc.lft.to/lastmile_qr_scan"}, "fusion_lon": 0.0, "lat": 38.9383105, "bike_id": "35eda8044da4db94cfc90b0a3c67840b", "type": "electric_scooter", "is_reserved": 0, "lon": -77.02648333333333}, {"fusion_lat": 0.0, "name": "015559750b4f76ba9e4f297313dbfbc9", "is_disabled": 0, "rental_uris": {"android": "https://dc.lft.to/lastmile_qr_scan", "ios": "https://dc.lft.to/lastmile_qr_scan"}, "fusion_lon": 0.0, "lat": 38.909313833333336, "bike_id": "015559750b4f76ba9e4f297313dbfbc9", "type": "electric_scooter", "is_reserved": 0, "lon": -77.06244483333333}, {"fusion_lat": 0.0, "name": "4420c7fab7dc10a6b2e05a76da7ed446", "is_disabled": 0, "rental_uris": {"android": "https://dc.lft.to/lastmile_qr_scan", "ios": "https://dc.lft.to/lastmile_qr_scan"}, "fusion_lon": 0.0, "lat": 38.93489433333333, "bike_id": "4420c7fab7dc10a6b2e05a76da7ed446", "type": "electric_scooter", "is_reserved": 0, "lon": -77.0302355}, {"fusion_lat": 0.0, "name": "261501a7a26bb6b79fe016f66a18da83", "is_disabled": 0, "rental_uris": {"android": "https://dc.lft.to/lastmile_qr_scan", "ios": "https://dc.lft.to/lastmile_qr_scan"}, "fusion_lon": 0.0, "lat": 38.97370566666667, "bike_id": "261501a7a26bb6b79fe016f66a18da83", "type": "electric_scooter", "is_reserved": 0, "lon": -77.01847983333333}, {"fusion_lat": 0.0, "name": "96d72c01a1ef335df3aa24ba4cbc24d9", "is_disabled": 0, "rental_uris": {"android": "https://dc.lft.to/lastmile_qr_scan", "ios": "https://dc.lft.to/lastmile_qr_scan"}, "fusion_lon": 0.0, "lat": 38.865502, "bike_id": "96d72c01a1ef335df3aa24ba4cbc24d9", "type": "electric_bike", "is_reserved": 0, "lon": -76.97320983333333}, {"fusion_lat": 0.0, "name": "070e52206774a7aeeab8c3a8f83f72b0", "is_disabled": 0, "rental_uris": {"android": "https://dc.lft.to/lastmile_qr_scan", "ios": "https://dc.lft.to/lastmile_qr_scan"}, "fusion_lon": 0.0, "lat": 38.87438866666667, "bike_id": "070e52206774a7aeeab8c3a8f83f72b0", "type": "electric_scooter", "is_reserved": 0, "lon": -77.00587233333333}, {"fusion_lat": 0.0, "name": "282dab2b225e25a76c45ba89f88565b3", "is_disabled": 0, "rental_uris": {"android": "https://dc.lft.to/lastmile_qr_scan", "ios": "https://dc.lft.to/lastmile_qr_scan"}, "fusion_lon": 0.0, "lat": 38.903147833333335, "bike_id": "282dab2b225e25a76c45ba89f88565b3", "type": "electric_scooter", "is_reserved": 0, "lon": -77.01881666666667}, {"fusion_lat": 0.0, "name": "038e29110ebc79e42f624ee3b085f2d5", "is_disabled": 0, "rental_uris": {"android": "https://dc.lft.to/lastmile_qr_scan", "ios": "https://dc.lft.to/lastmile_qr_scan"}, "fusion_lon": 0.0, "lat": 38.94540966666667, "bike_id": "038e29110ebc79e42f624ee3b085f2d5", "type": "electric_scooter", "is_reserved": 0, "lon": -77.0168395}, {"fusion_lat": 0.0, "name": "aee3f61fe5dffc9fd85eb54e29fa50f7", "is_disabled": 0, "rental_uris": {"android": "https://dc.lft.to/lastmile_qr_scan", "ios": "https://dc.lft.to/lastmile_qr_scan"}, "fusion_lon": 0.0, "lat": 38.897444166666666, "bike_id": "aee3f61fe5dffc9fd85eb54e29fa50f7", "type": "electric_scooter", "is_reserved": 0, "lon": -77.03355516666667}, {"fusion_lat": 0.0, "name": "46fe196a070745343607281d865347f2", "is_disabled": 0, "rental_uris": {"android": "https://dc.lft.to/lastmile_qr_scan", "ios": "https://dc.lft.to/lastmile_qr_scan"}, "fusion_lon": 0.0, "lat": 38.914873166666666, "bike_id": "46fe196a070745343607281d865347f2", "type": "electric_scooter", "is_reserved": 0, "lon": -77.03530233333333}, {"fusion_lat": 0.0, "name": "b1a57215cfec90e06aa551572ce1c5ff", "is_disabled": 0, "rental_uris": {"android": "https://dc.lft.to/lastmile_qr_scan", "ios": "https://dc.lft.to/lastmile_qr_scan"}, "fusion_lon": 0.0, "lat": 38.8331245, "bike_id": "b1a57215cfec90e06aa551572ce1c5ff", "type": "electric_bike", "is_reserved": 0, "lon": -77.04179883333333}, {"fusion_lat": 0.0, "name": "b0bd6c4ee0e4869b5d1a3185de60b1e7", "is_disabled": 0, "rental_uris": {"android": "https://dc.lft.to/lastmile_qr_scan", "ios": "https://dc.lft.to/lastmile_qr_scan"}, "fusion_lon": 0.0, "lat": 38.876449666666666, "bike_id": "b0bd6c4ee0e4869b5d1a3185de60b1e7", "type": "electric_scooter", "is_reserved": 0, "lon": -77.00810683333333}, {"fusion_lat": 0.0, "name": "2665cb059a778ede0aa6c81d571fdfd8", "is_disabled": 0, "rental_uris": {"android": "https://dc.lft.to/lastmile_qr_scan", "ios": "https://dc.lft.to/lastmile_qr_scan"}, "fusion_lon": 0.0, "lat": 38.91907833333333, "bike_id": "2665cb059a778ede0aa6c81d571fdfd8", "type": "electric_scooter", "is_reserved": 0, "lon": -77.0240265}, {"fusion_lat": 0.0, "name": "06e361bf853a6d46befeea17c940fd54", "is_disabled": 0, "rental_uris": {"android": "https://dc.lft.to/lastmile_qr_scan", "ios": "https://dc.lft.to/lastmile_qr_scan"}, "fusion_lon": 0.0, "lat": 38.92285966666667, "bike_id": "06e361bf853a6d46befeea17c940fd54", "type": "electric_scooter", "is_reserved": 0, "lon": -77.03658483333334}, {"fusion_lat": 0.0, "name": "65dcb7341526a34bbaab95cb58aaad9e", "is_disabled": 0, "rental_uris": {"android": "https://dc.lft.to/lastmile_qr_scan", "ios": "https://dc.lft.to/lastmile_qr_scan"}, "fusion_lon": 0.0, "lat": 38.902819, "bike_id": "65dcb7341526a34bbaab95cb58aaad9e", "type": "electric_scooter", "is_reserved": 0, "lon": -77.0364345}, {"fusion_lat": 0.0, "name": "20be9ddc92953411ca9b066dbecfb532", "is_disabled": 0, "rental_uris": {"android": "https://dc.lft.to/lastmile_qr_scan", "ios": "https://dc.lft.to/lastmile_qr_scan"}, "fusion_lon": 0.0, "lat": 38.9564435, "bike_id": "20be9ddc92953411ca9b066dbecfb532", "type": "electric_bike", "is_reserved": 0, "lon": -76.93872366666666}, {"fusion_lat": 0.0, "name": "d36dcd805e0e5fa975fbbe4412d1bf11", "is_disabled": 0, "rental_uris": {"android": "https://dc.lft.to/lastmile_qr_scan", "ios": "https://dc.lft.to/lastmile_qr_scan"}, "fusion_lon": 0.0, "lat": 38.9452795, "bike_id": "d36dcd805e0e5fa975fbbe4412d1bf11", "type": "electric_scooter", "is_reserved": 0, "lon": -77.02089233333334}, {"fusion_lat": 0.0, "name": "3dd8441ca9e6511ab669b8d8fac95996", "is_disabled": 0, "rental_uris": {"android": "https://dc.lft.to/lastmile_qr_scan", "ios": "https://dc.lft.to/lastmile_qr_scan"}, "fusion_lon": 0.0, "lat": 38.9156995, "bike_id": "3dd8441ca9e6511ab669b8d8fac95996", "type": "electric_scooter", "is_reserved": 0, "lon": -77.03631166666666}, {"fusion_lat": 0.0, "name": "49cfc41678b8831a376f5ae23723e386", "is_disabled": 0, "rental_uris": {"android": "https://dc.lft.to/lastmile_qr_scan", "ios": "https://dc.lft.to/lastmile_qr_scan"}, "fusion_lon": 0.0, "lat": 38.921197, "bike_id": "49cfc41678b8831a376f5ae23723e386", "type": "electric_scooter", "is_reserved": 0, "lon": -77.0121035}, {"fusion_lat": 0.0, "name": "e5a05417b66820ebd1741664d0cfea9a", "is_disabled": 0, "rental_uris": {"android": "https://dc.lft.to/lastmile_qr_scan", "ios": "https://dc.lft.to/lastmile_qr_scan"}, "fusion_lon": 0.0, "lat": 39.00309016666667, "bike_id": "e5a05417b66820ebd1741664d0cfea9a", "type": "electric_bike", "is_reserved": 0, "lon": -76.90330683333333}, {"fusion_lat": 0.0, "name": "0ce6ec5ac94999b0021d45fc2d369f3c", "is_disabled": 0, "rental_uris": {"android": "https://dc.lft.to/lastmile_qr_scan", "ios": "https://dc.lft.to/lastmile_qr_scan"}, "fusion_lon": 0.0, "lat": 38.91928683333333, "bike_id": "0ce6ec5ac94999b0021d45fc2d369f3c", "type": "electric_scooter", "is_reserved": 0, "lon": -77.01208033333333}, {"fusion_lat": 0.0, "name": "b10b1282560e9cdaa402bc993d33b292", "is_disabled": 0, "rental_uris": {"android": "https://dc.lft.to/lastmile_qr_scan", "ios": "https://dc.lft.to/lastmile_qr_scan"}, "fusion_lon": 0.0, "lat": 38.92335383333333, "bike_id": "b10b1282560e9cdaa402bc993d33b292", "type": "electric_scooter", "is_reserved": 0, "lon": -77.05350533333333}, {"fusion_lat": 0.0, "name": "8be239465c57f15dc2c7fb2c5868e5b0", "is_disabled": 0, "rental_uris": {"android": "https://dc.lft.to/lastmile_qr_scan", "ios": "https://dc.lft.to/lastmile_qr_scan"}, "fusion_lon": 0.0, "lat": 38.9370635, "bike_id": "8be239465c57f15dc2c7fb2c5868e5b0", "type": "electric_scooter", "is_reserved": 0, "lon": -77.06106983333333}, {"fusion_lat": 0.0, "name": "35cf73acb61425fb82cfe68788595781", "is_disabled": 0, "rental_uris": {"android": "https://dc.lft.to/lastmile_qr_scan", "ios": "https://dc.lft.to/lastmile_qr_scan"}, "fusion_lon": 0.0, "lat": 38.9010975, "bike_id": "35cf73acb61425fb82cfe68788595781", "type": "electric_scooter", "is_reserved": 0, "lon": -77.02019983333334}, {"fusion_lat": 0.0, "name": "ff599e94f4967c1daa466d93be14310f", "is_disabled": 0, "rental_uris": {"android": "https://dc.lft.to/lastmile_qr_scan", "ios": "https://dc.lft.to/lastmile_qr_scan"}, "fusion_lon": 0.0, "lat": 38.92869566666667, "bike_id": "ff599e94f4967c1daa466d93be14310f", "type": "electric_scooter", "is_reserved": 0, "lon": -77.02733733333334}, {"fusion_lat": 0.0, "name": "bae58e0a9b464826d96f49b680182f93", "is_disabled": 0, "rental_uris": {"android": "https://dc.lft.to/lastmile_qr_scan", "ios": "https://dc.lft.to/lastmile_qr_scan"}, "fusion_lon": 0.0, "lat": 38.921845166666664, "bike_id": "bae58e0a9b464826d96f49b680182f93", "type": "electric_scooter", "is_reserved": 0, "lon": -77.07440616666666}, {"fusion_lat": 0.0, "name": "67e381354d7ff6b29e4a75efdc9d417f", "is_disabled": 0, "rental_uris": {"android": "https://dc.lft.to/lastmile_qr_scan", "ios": "https://dc.lft.to/lastmile_qr_scan"}, "fusion_lon": 0.0, "lat": 38.941272166666664, "bike_id": "67e381354d7ff6b29e4a75efdc9d417f", "type": "electric_bike", "is_reserved": 0, "lon": -76.9902965}, {"fusion_lat": 0.0, "name": "f4bbf768eb1546f561d5ca8c3abea652", "is_disabled": 0, "rental_uris": {"android": "https://dc.lft.to/lastmile_qr_scan", "ios": "https://dc.lft.to/lastmile_qr_scan"}, "fusion_lon": 0.0, "lat": 38.912801333333334, "bike_id": "f4bbf768eb1546f561d5ca8c3abea652", "type": "electric_scooter", "is_reserved": 0, "lon": -77.022462}, {"fusion_lat": 0.0, "name": "09a10aa8f85eef0b6ba6f5c0372b09d0", "is_disabled": 0, "rental_uris": {"android": "https://dc.lft.to/lastmile_qr_scan", "ios": "https://dc.lft.to/lastmile_qr_scan"}, "fusion_lon": 0.0, "lat": 38.94927916666666, "bike_id": "09a10aa8f85eef0b6ba6f5c0372b09d0", "type": "electric_bike", "is_reserved": 0, "lon": -77.0079425}, {"fusion_lat": 0.0, "name": "2e371ec02bc183cfe41ef1e954fbe86a", "is_disabled": 0, "rental_uris": {"android": "https://dc.lft.to/lastmile_qr_scan", "ios": "https://dc.lft.to/lastmile_qr_scan"}, "fusion_lon": 0.0, "lat": 38.91193166666667, "bike_id": "2e371ec02bc183cfe41ef1e954fbe86a", "type": "electric_scooter", "is_reserved": 0, "lon": -77.03829533333334}, {"fusion_lat": 0.0, "name": "235777c46b56d058bf97e7139d61ea73", "is_disabled": 0, "rental_uris": {"android": "https://dc.lft.to/lastmile_qr_scan", "ios": "https://dc.lft.to/lastmile_qr_scan"}, "fusion_lon": 0.0, "lat": 38.90719716666667, "bike_id": "235777c46b56d058bf97e7139d61ea73", "type": "electric_scooter", "is_reserved": 0, "lon": -76.99820133333333}, {"fusion_lat": 0.0, "name": "f57472bfc5d89f702032265543d77afe", "is_disabled": 0, "rental_uris": {"android": "https://dc.lft.to/lastmile_qr_scan", "ios": "https://dc.lft.to/lastmile_qr_scan"}, "fusion_lon": 0.0, "lat": 38.918524166666664, "bike_id": "f57472bfc5d89f702032265543d77afe", "type": "electric_scooter", "is_reserved": 0, "lon": -77.04018116666667}, {"fusion_lat": 0.0, "name": "111bb2ed6464ae4e189e080b607b2bda", "is_disabled": 0, "rental_uris": {"android": "https://dc.lft.to/lastmile_qr_scan", "ios": "https://dc.lft.to/lastmile_qr_scan"}, "fusion_lon": 0.0, "lat": 38.91336833333333, "bike_id": "111bb2ed6464ae4e189e080b607b2bda", "type": "electric_scooter", "is_reserved": 0, "lon": -77.0110395}, {"fusion_lat": 0.0, "name": "680c35edf59d19e2c84f3b8511cf5bde", "is_disabled": 0, "rental_uris": {"android": "https://dc.lft.to/lastmile_qr_scan", "ios": "https://dc.lft.to/lastmile_qr_scan"}, "fusion_lon": 0.0, "lat": 38.92214416666667, "bike_id": "680c35edf59d19e2c84f3b8511cf5bde", "type": "electric_bike", "is_reserved": 0, "lon": -77.08195283333333}, {"fusion_lat": 0.0, "name": "4ac4024cff52842817d5947c188c5e7f", "is_disabled": 0, "rental_uris": {"android": "https://dc.lft.to/lastmile_qr_scan", "ios": "https://dc.lft.to/lastmile_qr_scan"}, "fusion_lon": 0.0, "lat": 38.9225805, "bike_id": "4ac4024cff52842817d5947c188c5e7f", "type": "electric_scooter", "is_reserved": 0, "lon": -77.01976683333334}, {"fusion_lat": 0.0, "name": "63960e63666fee9ed111e5560a32a454", "is_disabled": 0, "rental_uris": {"android": "https://dc.lft.to/lastmile_qr_scan", "ios": "https://dc.lft.to/lastmile_qr_scan"}, "fusion_lon": 0.0, "lat": 38.901332333333336, "bike_id": "63960e63666fee9ed111e5560a32a454", "type": "electric_scooter", "is_reserved": 0, "lon": -77.01827433333334}, {"fusion_lat": 0.0, "name": "2a62f9df36cd5f1b8510de87c23bd8af", "is_disabled": 0, "rental_uris": {"android": "https://dc.lft.to/lastmile_qr_scan", "ios": "https://dc.lft.to/lastmile_qr_scan"}, "fusion_lon": 0.0, "lat": 38.904791833333334, "bike_id": "2a62f9df36cd5f1b8510de87c23bd8af", "type": "electric_scooter", "is_reserved": 0, "lon": -76.95200533333333}, {"fusion_lat": 0.0, "name": "456180129462be77a068f75bb595bcc0", "is_disabled": 0, "rental_uris": {"android": "https://dc.lft.to/lastmile_qr_scan", "ios": "https://dc.lft.to/lastmile_qr_scan"}, "fusion_lon": 0.0, "lat": 38.906453666666664, "bike_id": "456180129462be77a068f75bb595bcc0", "type": "electric_scooter", "is_reserved": 0, "lon": -77.0270685}, {"fusion_lat": 0.0, "name": "af56d752246a9041ca12145ea9945f37", "is_disabled": 0, "rental_uris": {"android": "https://dc.lft.to/lastmile_qr_scan", "ios": "https://dc.lft.to/lastmile_qr_scan"}, "fusion_lon": 0.0, "lat": 38.90255033333333, "bike_id": "af56d752246a9041ca12145ea9945f37", "type": "electric_scooter", "is_reserved": 0, "lon": -77.03342766666667}, {"fusion_lat": 0.0, "name": "fd59eedfb7d1eddd0f4fb01237bc4239", "is_disabled": 0, "rental_uris": {"android": "https://dc.lft.to/lastmile_qr_scan", "ios": "https://dc.lft.to/lastmile_qr_scan"}, "fusion_lon": 0.0, "lat": 38.87647966666667, "bike_id": "fd59eedfb7d1eddd0f4fb01237bc4239", "type": "electric_scooter", "is_reserved": 0, "lon": -77.00748966666667}, {"fusion_lat": 0.0, "name": "5939a6855d87529a00aa4eecc8d0ca69", "is_disabled": 0, "rental_uris": {"android": "https://dc.lft.to/lastmile_qr_scan", "ios": "https://dc.lft.to/lastmile_qr_scan"}, "fusion_lon": 0.0, "lat": 38.933856166666665, "bike_id": "5939a6855d87529a00aa4eecc8d0ca69", "type": "electric_scooter", "is_reserved": 0, "lon": -77.0388375}, {"fusion_lat": 0.0, "name": "ec09b800bf9d850ae2922362dfac5652", "is_disabled": 0, "rental_uris": {"android": "https://dc.lft.to/lastmile_qr_scan", "ios": "https://dc.lft.to/lastmile_qr_scan"}, "fusion_lon": 0.0, "lat": 38.92629066666667, "bike_id": "ec09b800bf9d850ae2922362dfac5652", "type": "electric_scooter", "is_reserved": 0, "lon": -77.03500666666666}, {"fusion_lat": 0.0, "name": "ade19834b6e7f222d60f4a5a0517301c", "is_disabled": 0, "rental_uris": {"android": "https://dc.lft.to/lastmile_qr_scan", "ios": "https://dc.lft.to/lastmile_qr_scan"}, "fusion_lon": 0.0, "lat": 38.87473116666666, "bike_id": "ade19834b6e7f222d60f4a5a0517301c", "type": "electric_scooter", "is_reserved": 0, "lon": -77.00557216666667}, {"fusion_lat": 0.0, "name": "5ebaefd3e86a4e02ff2f1ff85d4ab20e", "is_disabled": 0, "rental_uris": {"android": "https://dc.lft.to/lastmile_qr_scan", "ios": "https://dc.lft.to/lastmile_qr_scan"}, "fusion_lon": 0.0, "lat": 38.908374, "bike_id": "5ebaefd3e86a4e02ff2f1ff85d4ab20e", "type": "electric_scooter", "is_reserved": 0, "lon": -77.03656066666667}, {"fusion_lat": 0.0, "name": "5b82fb8950a56db362b680078e0f7271", "is_disabled": 0, "rental_uris": {"android": "https://dc.lft.to/lastmile_qr_scan", "ios": "https://dc.lft.to/lastmile_qr_scan"}, "fusion_lon": 0.0, "lat": 38.924619, "bike_id": "5b82fb8950a56db362b680078e0f7271", "type": "electric_scooter", "is_reserved": 0, "lon": -76.999118}, {"fusion_lat": 0.0, "name": "6197cf187873c7fa9400b82a07b8cb41", "is_disabled": 0, "rental_uris": {"android": "https://dc.lft.to/lastmile_qr_scan", "ios": "https://dc.lft.to/lastmile_qr_scan"}, "fusion_lon": 0.0, "lat": 38.96593766666667, "bike_id": "6197cf187873c7fa9400b82a07b8cb41", "type": "electric_scooter", "is_reserved": 0, "lon": -77.01594116666666}, {"fusion_lat": 0.0, "name": "7b96c4726ff7136dbb19c0ba7fd2864b", "is_disabled": 0, "rental_uris": {"android": "https://dc.lft.to/lastmile_qr_scan", "ios": "https://dc.lft.to/lastmile_qr_scan"}, "fusion_lon": 0.0, "lat": 38.938451, "bike_id": "7b96c4726ff7136dbb19c0ba7fd2864b", "type": "electric_scooter", "is_reserved": 0, "lon": -77.03412016666667}, {"fusion_lat": 0.0, "name": "e0b278512d9b5d661ecccf1b524e658c", "is_disabled": 0, "rental_uris": {"android": "https://dc.lft.to/lastmile_qr_scan", "ios": "https://dc.lft.to/lastmile_qr_scan"}, "fusion_lon": 0.0, "lat": 38.89923833333334, "bike_id": "e0b278512d9b5d661ecccf1b524e658c", "type": "electric_scooter", "is_reserved": 0, "lon": -76.933389}, {"fusion_lat": 0.0, "name": "3083d8fa0d1967f01d91b5e7b4eb26a2", "is_disabled": 0, "rental_uris": {"android": "https://dc.lft.to/lastmile_qr_scan", "ios": "https://dc.lft.to/lastmile_qr_scan"}, "fusion_lon": 0.0, "lat": 38.93416716666667, "bike_id": "3083d8fa0d1967f01d91b5e7b4eb26a2", "type": "electric_scooter", "is_reserved": 0, "lon": -77.041593}, {"fusion_lat": 0.0, "name": "2f363e04357cdc9616cecadcdbd9aa9f", "is_disabled": 0, "rental_uris": {"android": "https://dc.lft.to/lastmile_qr_scan", "ios": "https://dc.lft.to/lastmile_qr_scan"}, "fusion_lon": 0.0, "lat": 38.92844866666667, "bike_id": "2f363e04357cdc9616cecadcdbd9aa9f", "type": "electric_bike", "is_reserved": 0, "lon": -77.0205655}, {"fusion_lat": 0.0, "name": "e226de5dcf3e189b717975a251fb07bb", "is_disabled": 0, "rental_uris": {"android": "https://dc.lft.to/lastmile_qr_scan", "ios": "https://dc.lft.to/lastmile_qr_scan"}, "fusion_lon": 0.0, "lat": 38.928145, "bike_id": "e226de5dcf3e189b717975a251fb07bb", "type": "electric_scooter", "is_reserved": 0, "lon": -77.02332416666667}, {"fusion_lat": 0.0, "name": "b1508f6878c13d5a3686c6d8bac566d7", "is_disabled": 0, "rental_uris": {"android": "https://dc.lft.to/lastmile_qr_scan", "ios": "https://dc.lft.to/lastmile_qr_scan"}, "fusion_lon": 0.0, "lat": 38.9228745, "bike_id": "b1508f6878c13d5a3686c6d8bac566d7", "type": "electric_scooter", "is_reserved": 0, "lon": -77.029671}, {"fusion_lat": 0.0, "name": "e07c32513417c7335a9607cc45dfbf90", "is_disabled": 0, "rental_uris": {"android": "https://dc.lft.to/lastmile_qr_scan", "ios": "https://dc.lft.to/lastmile_qr_scan"}, "fusion_lon": 0.0, "lat": 38.90977483333333, "bike_id": "e07c32513417c7335a9607cc45dfbf90", "type": "electric_scooter", "is_reserved": 0, "lon": -77.00889466666666}, {"fusion_lat": 0.0, "name": "c0b043787f3c913a399d713b8ee63c74", "is_disabled": 0, "rental_uris": {"android": "https://dc.lft.to/lastmile_qr_scan", "ios": "https://dc.lft.to/lastmile_qr_scan"}, "fusion_lon": 0.0, "lat": 38.916624666666664, "bike_id": "c0b043787f3c913a399d713b8ee63c74", "type": "electric_scooter", "is_reserved": 0, "lon": -77.02962133333334}, {"fusion_lat": 0.0, "name": "c310e887921a3cb2bd2780d28f6ff147", "is_disabled": 0, "rental_uris": {"android": "https://dc.lft.to/lastmile_qr_scan", "ios": "https://dc.lft.to/lastmile_qr_scan"}, "fusion_lon": 0.0, "lat": 38.95692583333334, "bike_id": "c310e887921a3cb2bd2780d28f6ff147", "type": "electric_bike", "is_reserved": 0, "lon": -77.02226566666667}, {"fusion_lat": 0.0, "name": "847ae99b19a4e9d6bb52a9d6c3a1fa39", "is_disabled": 0, "rental_uris": {"android": "https://dc.lft.to/lastmile_qr_scan", "ios": "https://dc.lft.to/lastmile_qr_scan"}, "fusion_lon": 0.0, "lat": 38.92605733333333, "bike_id": "847ae99b19a4e9d6bb52a9d6c3a1fa39", "type": "electric_scooter", "is_reserved": 0, "lon": -77.02371616666667}, {"fusion_lat": 0.0, "name": "34a6639633db3ece57bd1b450defe006", "is_disabled": 0, "rental_uris": {"android": "https://dc.lft.to/lastmile_qr_scan", "ios": "https://dc.lft.to/lastmile_qr_scan"}, "fusion_lon": 0.0, "lat": 38.933639, "bike_id": "34a6639633db3ece57bd1b450defe006", "type": "electric_scooter", "is_reserved": 0, "lon": -77.03873833333333}, {"fusion_lat": 0.0, "name": "28862f27d22f7686cb62d417a3261982", "is_disabled": 0, "rental_uris": {"android": "https://dc.lft.to/lastmile_qr_scan", "ios": "https://dc.lft.to/lastmile_qr_scan"}, "fusion_lon": 0.0, "lat": 38.9034695, "bike_id": "28862f27d22f7686cb62d417a3261982", "type": "electric_scooter", "is_reserved": 0, "lon": -76.97249683333334}, {"fusion_lat": 0.0, "name": "acfdd41b44d62e084fdf5e83c6483bb8", "is_disabled": 0, "rental_uris": {"android": "https://dc.lft.to/lastmile_qr_scan", "ios": "https://dc.lft.to/lastmile_qr_scan"}, "fusion_lon": 0.0, "lat": 38.936241833333334, "bike_id": "acfdd41b44d62e084fdf5e83c6483bb8", "type": "electric_scooter", "is_reserved": 0, "lon": -77.03663383333334}, {"fusion_lat": 0.0, "name": "8792c29d5b37ff46027178cb71e4b534", "is_disabled": 0, "rental_uris": {"android": "https://dc.lft.to/lastmile_qr_scan", "ios": "https://dc.lft.to/lastmile_qr_scan"}, "fusion_lon": 0.0, "lat": 38.941377333333335, "bike_id": "8792c29d5b37ff46027178cb71e4b534", "type": "electric_scooter", "is_reserved": 0, "lon": -77.00609316666667}, {"fusion_lat": 0.0, "name": "0c2fe2e32d4c7a775b6e96783133cac4", "is_disabled": 0, "rental_uris": {"android": "https://dc.lft.to/lastmile_qr_scan", "ios": "https://dc.lft.to/lastmile_qr_scan"}, "fusion_lon": 0.0, "lat": 38.92627233333333, "bike_id": "0c2fe2e32d4c7a775b6e96783133cac4", "type": "electric_scooter", "is_reserved": 0, "lon": -77.0419725}, {"fusion_lat": 0.0, "name": "3edf4a0b999baf6ac228453df9cf9539", "is_disabled": 0, "rental_uris": {"android": "https://dc.lft.to/lastmile_qr_scan", "ios": "https://dc.lft.to/lastmile_qr_scan"}, "fusion_lon": 0.0, "lat": 38.87287416666667, "bike_id": "3edf4a0b999baf6ac228453df9cf9539", "type": "electric_scooter", "is_reserved": 0, "lon": -77.009841}, {"fusion_lat": 0.0, "name": "d507518227876166dea2160e629d14d7", "is_disabled": 0, "rental_uris": {"android": "https://dc.lft.to/lastmile_qr_scan", "ios": "https://dc.lft.to/lastmile_qr_scan"}, "fusion_lon": 0.0, "lat": 38.839368, "bike_id": "d507518227876166dea2160e629d14d7", "type": "electric_bike", "is_reserved": 0, "lon": -77.07897883333334}, {"fusion_lat": 0.0, "name": "695cfd1f54dafba86be0535b85a086a0", "is_disabled": 0, "rental_uris": {"android": "https://dc.lft.to/lastmile_qr_scan", "ios": "https://dc.lft.to/lastmile_qr_scan"}, "fusion_lon": 0.0, "lat": 38.8917645, "bike_id": "695cfd1f54dafba86be0535b85a086a0", "type": "electric_scooter", "is_reserved": 0, "lon": -76.9994515}, {"fusion_lat": 0.0, "name": "8c9b5646ebd7a2133448328b21246f4b", "is_disabled": 0, "rental_uris": {"android": "https://dc.lft.to/lastmile_qr_scan", "ios": "https://dc.lft.to/lastmile_qr_scan"}, "fusion_lon": 0.0, "lat": 38.8922305, "bike_id": "8c9b5646ebd7a2133448328b21246f4b", "type": "electric_scooter", "is_reserved": 0, "lon": -77.04802666666667}, {"fusion_lat": 0.0, "name": "3bdfae30adc64c08b5b19f395a249d81", "is_disabled": 0, "rental_uris": {"android": "https://dc.lft.to/lastmile_qr_scan", "ios": "https://dc.lft.to/lastmile_qr_scan"}, "fusion_lon": 0.0, "lat": 38.8985325, "bike_id": "3bdfae30adc64c08b5b19f395a249d81", "type": "electric_scooter", "is_reserved": 0, "lon": -76.95029633333333}, {"fusion_lat": 0.0, "name": "3d313a6f6c97473b92cd0a49e59579a4", "is_disabled": 0, "rental_uris": {"android": "https://dc.lft.to/lastmile_qr_scan", "ios": "https://dc.lft.to/lastmile_qr_scan"}, "fusion_lon": 0.0, "lat": 38.9217625, "bike_id": "3d313a6f6c97473b92cd0a49e59579a4", "type": "electric_scooter", "is_reserved": 0, "lon": -77.03829966666666}, {"fusion_lat": 0.0, "name": "1b09db6ea76740556ae6106a3e6ecb7a", "is_disabled": 0, "rental_uris": {"android": "https://dc.lft.to/lastmile_qr_scan", "ios": "https://dc.lft.to/lastmile_qr_scan"}, "fusion_lon": 0.0, "lat": 38.90125916666667, "bike_id": "1b09db6ea76740556ae6106a3e6ecb7a", "type": "electric_scooter", "is_reserved": 0, "lon": -77.024122}, {"fusion_lat": 0.0, "name": "6c410ce9faf80cd4bb55cf224b543ccc", "is_disabled": 0, "rental_uris": {"android": "https://dc.lft.to/lastmile_qr_scan", "ios": "https://dc.lft.to/lastmile_qr_scan"}, "fusion_lon": 0.0, "lat": 38.936046, "bike_id": "6c410ce9faf80cd4bb55cf224b543ccc", "type": "electric_scooter", "is_reserved": 0, "lon": -77.0352795}, {"fusion_lat": 0.0, "name": "1de69cef93f13b41d0aa5f60d0edac77", "is_disabled": 0, "rental_uris": {"android": "https://dc.lft.to/lastmile_qr_scan", "ios": "https://dc.lft.to/lastmile_qr_scan"}, "fusion_lon": 0.0, "lat": 38.86518216666666, "bike_id": "1de69cef93f13b41d0aa5f60d0edac77", "type": "electric_bike", "is_reserved": 0, "lon": -77.12934316666667}, {"fusion_lat": 0.0, "name": "8050ad2c1b56e17181b204502500fbb4", "is_disabled": 0, "rental_uris": {"android": "https://dc.lft.to/lastmile_qr_scan", "ios": "https://dc.lft.to/lastmile_qr_scan"}, "fusion_lon": 0.0, "lat": 38.90373833333334, "bike_id": "8050ad2c1b56e17181b204502500fbb4", "type": "electric_scooter", "is_reserved": 0, "lon": -77.01755966666667}, {"fusion_lat": 0.0, "name": "517e2376774f629c4e7cc2f625ea5c1a", "is_disabled": 0, "rental_uris": {"android": "https://dc.lft.to/lastmile_qr_scan", "ios": "https://dc.lft.to/lastmile_qr_scan"}, "fusion_lon": 0.0, "lat": 38.91652933333334, "bike_id": "517e2376774f629c4e7cc2f625ea5c1a", "type": "electric_scooter", "is_reserved": 0, "lon": -77.00953683333333}, {"fusion_lat": 0.0, "name": "50af0647f9a944eb6903cd57f9470ef9", "is_disabled": 0, "rental_uris": {"android": "https://dc.lft.to/lastmile_qr_scan", "ios": "https://dc.lft.to/lastmile_qr_scan"}, "fusion_lon": 0.0, "lat": 38.877994666666666, "bike_id": "50af0647f9a944eb6903cd57f9470ef9", "type": "electric_scooter", "is_reserved": 0, "lon": -77.01773316666667}, {"fusion_lat": 0.0, "name": "95c3f1fae85e483398a40413095c8ff2", "is_disabled": 0, "rental_uris": {"android": "https://dc.lft.to/lastmile_qr_scan", "ios": "https://dc.lft.to/lastmile_qr_scan"}, "fusion_lon": 0.0, "lat": 38.90538883333333, "bike_id": "95c3f1fae85e483398a40413095c8ff2", "type": "electric_scooter", "is_reserved": 0, "lon": -76.981975}, {"fusion_lat": 0.0, "name": "24d99f49e5f2cf85e23687bdb5608e83", "is_disabled": 0, "rental_uris": {"android": "https://dc.lft.to/lastmile_qr_scan", "ios": "https://dc.lft.to/lastmile_qr_scan"}, "fusion_lon": 0.0, "lat": 38.9172275, "bike_id": "24d99f49e5f2cf85e23687bdb5608e83", "type": "electric_scooter", "is_reserved": 0, "lon": -77.0306715}, {"fusion_lat": 0.0, "name": "e113a93802bf3f5bb378285f69c3f620", "is_disabled": 0, "rental_uris": {"android": "https://dc.lft.to/lastmile_qr_scan", "ios": "https://dc.lft.to/lastmile_qr_scan"}, "fusion_lon": 0.0, "lat": 38.901262833333334, "bike_id": "e113a93802bf3f5bb378285f69c3f620", "type": "electric_scooter", "is_reserved": 0, "lon": -77.02279516666667}, {"fusion_lat": 0.0, "name": "f1757a2da2ad919eb29aaeea6c476ce5", "is_disabled": 0, "rental_uris": {"android": "https://dc.lft.to/lastmile_qr_scan", "ios": "https://dc.lft.to/lastmile_qr_scan"}, "fusion_lon": 0.0, "lat": 38.91777716666667, "bike_id": "f1757a2da2ad919eb29aaeea6c476ce5", "type": "electric_scooter", "is_reserved": 0, "lon": -77.03586766666666}, {"fusion_lat": 0.0, "name": "c23ecc411a602fc3b8d05df9d9e49895", "is_disabled": 0, "rental_uris": {"android": "https://dc.lft.to/lastmile_qr_scan", "ios": "https://dc.lft.to/lastmile_qr_scan"}, "fusion_lon": 0.0, "lat": 38.9237445, "bike_id": "c23ecc411a602fc3b8d05df9d9e49895", "type": "electric_scooter", "is_reserved": 0, "lon": -77.02261083333333}, {"fusion_lat": 0.0, "name": "a3905be258ef9d53f44372b0d78e6e98", "is_disabled": 0, "rental_uris": {"android": "https://dc.lft.to/lastmile_qr_scan", "ios": "https://dc.lft.to/lastmile_qr_scan"}, "fusion_lon": 0.0, "lat": 38.92973166666667, "bike_id": "a3905be258ef9d53f44372b0d78e6e98", "type": "electric_scooter", "is_reserved": 0, "lon": -77.0279495}, {"fusion_lat": 0.0, "name": "69e5f1175da3567667451732be47067d", "is_disabled": 0, "rental_uris": {"android": "https://dc.lft.to/lastmile_qr_scan", "ios": "https://dc.lft.to/lastmile_qr_scan"}, "fusion_lon": 0.0, "lat": 38.92207616666666, "bike_id": "69e5f1175da3567667451732be47067d", "type": "electric_scooter", "is_reserved": 0, "lon": -77.0235105}, {"fusion_lat": 0.0, "name": "3d1457359deb0306c3ca031fe3e65d01", "is_disabled": 0, "rental_uris": {"android": "https://dc.lft.to/lastmile_qr_scan", "ios": "https://dc.lft.to/lastmile_qr_scan"}, "fusion_lon": 0.0, "lat": 38.914126, "bike_id": "3d1457359deb0306c3ca031fe3e65d01", "type": "electric_scooter", "is_reserved": 0, "lon": -77.042518}, {"fusion_lat": 0.0, "name": "ba36612142b58c4d61d53bdf3d84607f", "is_disabled": 0, "rental_uris": {"android": "https://dc.lft.to/lastmile_qr_scan", "ios": "https://dc.lft.to/lastmile_qr_scan"}, "fusion_lon": 0.0, "lat": 38.888397, "bike_id": "ba36612142b58c4d61d53bdf3d84607f", "type": "electric_scooter", "is_reserved": 0, "lon": -77.0490725}, {"fusion_lat": 0.0, "name": "0e3004d415a99d1fd798e54e02e568c8", "is_disabled": 0, "rental_uris": {"android": "https://dc.lft.to/lastmile_qr_scan", "ios": "https://dc.lft.to/lastmile_qr_scan"}, "fusion_lon": 0.0, "lat": 38.930540666666666, "bike_id": "0e3004d415a99d1fd798e54e02e568c8", "type": "electric_scooter", "is_reserved": 0, "lon": -77.0378525}, {"fusion_lat": 0.0, "name": "213b91db1ef2a7fc137366955d8438fe", "is_disabled": 0, "rental_uris": {"android": "https://dc.lft.to/lastmile_qr_scan", "ios": "https://dc.lft.to/lastmile_qr_scan"}, "fusion_lon": 0.0, "lat": 38.92277583333333, "bike_id": "213b91db1ef2a7fc137366955d8438fe", "type": "electric_scooter", "is_reserved": 0, "lon": -76.99779166666667}, {"fusion_lat": 0.0, "name": "17041e2ce82680a8744639387edb9560", "is_disabled": 0, "rental_uris": {"android": "https://dc.lft.to/lastmile_qr_scan", "ios": "https://dc.lft.to/lastmile_qr_scan"}, "fusion_lon": 0.0, "lat": 38.884958, "bike_id": "17041e2ce82680a8744639387edb9560", "type": "electric_scooter", "is_reserved": 0, "lon": -77.010866}, {"fusion_lat": 0.0, "name": "89f299e3230c9f961493ddbdfa18006a", "is_disabled": 0, "rental_uris": {"android": "https://dc.lft.to/lastmile_qr_scan", "ios": "https://dc.lft.to/lastmile_qr_scan"}, "fusion_lon": 0.0, "lat": 38.912571, "bike_id": "89f299e3230c9f961493ddbdfa18006a", "type": "electric_scooter", "is_reserved": 0, "lon": -77.03866033333334}, {"fusion_lat": 0.0, "name": "8b570cd9dbb1d9e8ac11e0eab4cc8de5", "is_disabled": 0, "rental_uris": {"android": "https://dc.lft.to/lastmile_qr_scan", "ios": "https://dc.lft.to/lastmile_qr_scan"}, "fusion_lon": 0.0, "lat": 38.90947716666667, "bike_id": "8b570cd9dbb1d9e8ac11e0eab4cc8de5", "type": "electric_scooter", "is_reserved": 0, "lon": -76.98764983333334}, {"fusion_lat": 0.0, "name": "00f1f9cbdbc004b15b1c71943091cd0a", "is_disabled": 0, "rental_uris": {"android": "https://dc.lft.to/lastmile_qr_scan", "ios": "https://dc.lft.to/lastmile_qr_scan"}, "fusion_lon": 0.0, "lat": 38.90491033333333, "bike_id": "00f1f9cbdbc004b15b1c71943091cd0a", "type": "electric_scooter", "is_reserved": 0, "lon": -76.99495966666667}, {"fusion_lat": 0.0, "name": "02e7f5afd49ee2b05625054eb0e9e787", "is_disabled": 0, "rental_uris": {"android": "https://dc.lft.to/lastmile_qr_scan", "ios": "https://dc.lft.to/lastmile_qr_scan"}, "fusion_lon": 0.0, "lat": 38.897335166666664, "bike_id": "02e7f5afd49ee2b05625054eb0e9e787", "type": "electric_scooter", "is_reserved": 0, "lon": -77.0092755}, {"fusion_lat": 0.0, "name": "96990e5c47927dd12c21c15ed212e8b3", "is_disabled": 0, "rental_uris": {"android": "https://dc.lft.to/lastmile_qr_scan", "ios": "https://dc.lft.to/lastmile_qr_scan"}, "fusion_lon": 0.0, "lat": 38.9046925, "bike_id": "96990e5c47927dd12c21c15ed212e8b3", "type": "electric_bike", "is_reserved": 0, "lon": -77.01905733333334}, {"fusion_lat": 0.0, "name": "b0c183e7154b7ced4e8105236cfed882", "is_disabled": 0, "rental_uris": {"android": "https://dc.lft.to/lastmile_qr_scan", "ios": "https://dc.lft.to/lastmile_qr_scan"}, "fusion_lon": 0.0, "lat": 38.915026833333336, "bike_id": "b0c183e7154b7ced4e8105236cfed882", "type": "electric_scooter", "is_reserved": 0, "lon": -77.03590216666667}, {"fusion_lat": 0.0, "name": "847d888dda75c85f108005749734a357", "is_disabled": 0, "rental_uris": {"android": "https://dc.lft.to/lastmile_qr_scan", "ios": "https://dc.lft.to/lastmile_qr_scan"}, "fusion_lon": 0.0, "lat": 38.9978065, "bike_id": "847d888dda75c85f108005749734a357", "type": "electric_bike", "is_reserved": 0, "lon": -77.04715283333333}, {"fusion_lat": 0.0, "name": "7be561fcb764aee322baef88bf2d29cb", "is_disabled": 0, "rental_uris": {"android": "https://dc.lft.to/lastmile_qr_scan", "ios": "https://dc.lft.to/lastmile_qr_scan"}, "fusion_lon": 0.0, "lat": 38.905652, "bike_id": "7be561fcb764aee322baef88bf2d29cb", "type": "electric_scooter", "is_reserved": 0, "lon": -77.045505}, {"fusion_lat": 0.0, "name": "970a5ce03b2c72d46e5de273547c95b3", "is_disabled": 0, "rental_uris": {"android": "https://dc.lft.to/lastmile_qr_scan", "ios": "https://dc.lft.to/lastmile_qr_scan"}, "fusion_lon": 0.0, "lat": 38.90384533333334, "bike_id": "970a5ce03b2c72d46e5de273547c95b3", "type": "electric_scooter", "is_reserved": 0, "lon": -77.048317}, {"fusion_lat": 0.0, "name": "93b65a9222891f285531e2859cf18276", "is_disabled": 0, "rental_uris": {"android": "https://dc.lft.to/lastmile_qr_scan", "ios": "https://dc.lft.to/lastmile_qr_scan"}, "fusion_lon": 0.0, "lat": 38.89855766666667, "bike_id": "93b65a9222891f285531e2859cf18276", "type": "electric_scooter", "is_reserved": 0, "lon": -77.0396355}, {"fusion_lat": 0.0, "name": "2636b8d9ac6b08a8ab75278a583d6cab", "is_disabled": 0, "rental_uris": {"android": "https://dc.lft.to/lastmile_qr_scan", "ios": "https://dc.lft.to/lastmile_qr_scan"}, "fusion_lon": 0.0, "lat": 38.90026016666667, "bike_id": "2636b8d9ac6b08a8ab75278a583d6cab", "type": "electric_scooter", "is_reserved": 0, "lon": -76.99869816666667}, {"fusion_lat": 0.0, "name": "8f16e421d0bfffeaa4632b5ea92f8198", "is_disabled": 0, "rental_uris": {"android": "https://dc.lft.to/lastmile_qr_scan", "ios": "https://dc.lft.to/lastmile_qr_scan"}, "fusion_lon": 0.0, "lat": 38.920748333333336, "bike_id": "8f16e421d0bfffeaa4632b5ea92f8198", "type": "electric_scooter", "is_reserved": 0, "lon": -77.04096416666667}, {"fusion_lat": 0.0, "name": "5488a1f60e0c7f71c78723c83253a37b", "is_disabled": 0, "rental_uris": {"android": "https://dc.lft.to/lastmile_qr_scan", "ios": "https://dc.lft.to/lastmile_qr_scan"}, "fusion_lon": 0.0, "lat": 38.90595966666667, "bike_id": "5488a1f60e0c7f71c78723c83253a37b", "type": "electric_scooter", "is_reserved": 0, "lon": -77.00638633333334}, {"fusion_lat": 0.0, "name": "d914de212a4d0b033cd5f6856e8e3637", "is_disabled": 0, "rental_uris": {"android": "https://dc.lft.to/lastmile_qr_scan", "ios": "https://dc.lft.to/lastmile_qr_scan"}, "fusion_lon": 0.0, "lat": 38.90411133333333, "bike_id": "d914de212a4d0b033cd5f6856e8e3637", "type": "electric_scooter", "is_reserved": 0, "lon": -76.97332316666666}, {"fusion_lat": 0.0, "name": "ece2ab534821e6148bf5d0b36b3e1052", "is_disabled": 0, "rental_uris": {"android": "https://dc.lft.to/lastmile_qr_scan", "ios": "https://dc.lft.to/lastmile_qr_scan"}, "fusion_lon": 0.0, "lat": 38.807648, "bike_id": "ece2ab534821e6148bf5d0b36b3e1052", "type": "electric_bike", "is_reserved": 0, "lon": -77.09467233333334}, {"fusion_lat": 0.0, "name": "0096d5bd65005a5f406569ac6e5a21eb", "is_disabled": 0, "rental_uris": {"android": "https://dc.lft.to/lastmile_qr_scan", "ios": "https://dc.lft.to/lastmile_qr_scan"}, "fusion_lon": 0.0, "lat": 38.92061483333333, "bike_id": "0096d5bd65005a5f406569ac6e5a21eb", "type": "electric_scooter", "is_reserved": 0, "lon": -77.0456515}, {"fusion_lat": 0.0, "name": "c50f3fdfe341928357081d6a9b790c78", "is_disabled": 0, "rental_uris": {"android": "https://dc.lft.to/lastmile_qr_scan", "ios": "https://dc.lft.to/lastmile_qr_scan"}, "fusion_lon": 0.0, "lat": 38.9219685, "bike_id": "c50f3fdfe341928357081d6a9b790c78", "type": "electric_scooter", "is_reserved": 0, "lon": -77.02211433333333}, {"fusion_lat": 0.0, "name": "097f4cbd66d41f9f95a128402dce64ec", "is_disabled": 0, "rental_uris": {"android": "https://dc.lft.to/lastmile_qr_scan", "ios": "https://dc.lft.to/lastmile_qr_scan"}, "fusion_lon": 0.0, "lat": 38.91339983333334, "bike_id": "097f4cbd66d41f9f95a128402dce64ec", "type": "electric_scooter", "is_reserved": 0, "lon": -77.048705}, {"fusion_lat": 0.0, "name": "1f35e41d89c5885120b027cf5b0b8b27", "is_disabled": 0, "rental_uris": {"android": "https://dc.lft.to/lastmile_qr_scan", "ios": "https://dc.lft.to/lastmile_qr_scan"}, "fusion_lon": 0.0, "lat": 38.89471866666667, "bike_id": "1f35e41d89c5885120b027cf5b0b8b27", "type": "electric_scooter", "is_reserved": 0, "lon": -77.0176435}, {"fusion_lat": 0.0, "name": "0d837c91f5c841817d2925404546e33e", "is_disabled": 0, "rental_uris": {"android": "https://dc.lft.to/lastmile_qr_scan", "ios": "https://dc.lft.to/lastmile_qr_scan"}, "fusion_lon": 0.0, "lat": 38.9233715, "bike_id": "0d837c91f5c841817d2925404546e33e", "type": "electric_scooter", "is_reserved": 0, "lon": -77.036143}, {"fusion_lat": 0.0, "name": "cf1fa6abea0d81b12543c7803a0c2562", "is_disabled": 0, "rental_uris": {"android": "https://dc.lft.to/lastmile_qr_scan", "ios": "https://dc.lft.to/lastmile_qr_scan"}, "fusion_lon": 0.0, "lat": 38.91262666666667, "bike_id": "cf1fa6abea0d81b12543c7803a0c2562", "type": "electric_scooter", "is_reserved": 0, "lon": -77.049136}, {"fusion_lat": 0.0, "name": "c214ef38a566dca172ee5ecaacc58d0f", "is_disabled": 0, "rental_uris": {"android": "https://dc.lft.to/lastmile_qr_scan", "ios": "https://dc.lft.to/lastmile_qr_scan"}, "fusion_lon": 0.0, "lat": 38.931030666666665, "bike_id": "c214ef38a566dca172ee5ecaacc58d0f", "type": "electric_scooter", "is_reserved": 0, "lon": -77.02473966666666}, {"fusion_lat": 0.0, "name": "2a8c035d0be69ebded6920eb496ddaf2", "is_disabled": 0, "rental_uris": {"android": "https://dc.lft.to/lastmile_qr_scan", "ios": "https://dc.lft.to/lastmile_qr_scan"}, "fusion_lon": 0.0, "lat": 38.90763583333333, "bike_id": "2a8c035d0be69ebded6920eb496ddaf2", "type": "electric_scooter", "is_reserved": 0, "lon": -77.03573933333334}, {"fusion_lat": 0.0, "name": "61cba3d7ef84604b6f9384df8c6a4e96", "is_disabled": 0, "rental_uris": {"android": "https://dc.lft.to/lastmile_qr_scan", "ios": "https://dc.lft.to/lastmile_qr_scan"}, "fusion_lon": 0.0, "lat": 38.926467333333335, "bike_id": "61cba3d7ef84604b6f9384df8c6a4e96", "type": "electric_scooter", "is_reserved": 0, "lon": -77.04139283333333}, {"fusion_lat": 0.0, "name": "c223d8c8dc2e09242f70d6024af95b01", "is_disabled": 0, "rental_uris": {"android": "https://dc.lft.to/lastmile_qr_scan", "ios": "https://dc.lft.to/lastmile_qr_scan"}, "fusion_lon": 0.0, "lat": 38.92302166666666, "bike_id": "c223d8c8dc2e09242f70d6024af95b01", "type": "electric_scooter", "is_reserved": 0, "lon": -77.042039}, {"fusion_lat": 0.0, "name": "ee7620d1296368b9d62df20cf191e40f", "is_disabled": 0, "rental_uris": {"android": "https://dc.lft.to/lastmile_qr_scan", "ios": "https://dc.lft.to/lastmile_qr_scan"}, "fusion_lon": 0.0, "lat": 38.87371233333333, "bike_id": "ee7620d1296368b9d62df20cf191e40f", "type": "electric_scooter", "is_reserved": 0, "lon": -77.00061333333333}, {"fusion_lat": 0.0, "name": "7a12a789ae188c4fd85e8bbec1b4f34b", "is_disabled": 0, "rental_uris": {"android": "https://dc.lft.to/lastmile_qr_scan", "ios": "https://dc.lft.to/lastmile_qr_scan"}, "fusion_lon": 0.0, "lat": 38.89116816666667, "bike_id": "7a12a789ae188c4fd85e8bbec1b4f34b", "type": "electric_scooter", "is_reserved": 0, "lon": -76.94382383333334}, {"fusion_lat": 0.0, "name": "fb33acdf282afcc9d5c7e6f93ece8ffc", "is_disabled": 0, "rental_uris": {"android": "https://dc.lft.to/lastmile_qr_scan", "ios": "https://dc.lft.to/lastmile_qr_scan"}, "fusion_lon": 0.0, "lat": 38.89710933333333, "bike_id": "fb33acdf282afcc9d5c7e6f93ece8ffc", "type": "electric_scooter", "is_reserved": 0, "lon": -77.0130785}, {"fusion_lat": 0.0, "name": "e5d17ea285d5c9f71479354975b45f8b", "is_disabled": 0, "rental_uris": {"android": "https://dc.lft.to/lastmile_qr_scan", "ios": "https://dc.lft.to/lastmile_qr_scan"}, "fusion_lon": 0.0, "lat": 38.961872166666666, "bike_id": "e5d17ea285d5c9f71479354975b45f8b", "type": "electric_bike", "is_reserved": 0, "lon": -77.05268583333333}, {"fusion_lat": 0.0, "name": "ca3a8ae17682fcc4cadbbf67574a0ef8", "is_disabled": 0, "rental_uris": {"android": "https://dc.lft.to/lastmile_qr_scan", "ios": "https://dc.lft.to/lastmile_qr_scan"}, "fusion_lon": 0.0, "lat": 38.924453, "bike_id": "ca3a8ae17682fcc4cadbbf67574a0ef8", "type": "electric_scooter", "is_reserved": 0, "lon": -77.04468416666667}, {"fusion_lat": 0.0, "name": "c5a920d6b9923716eea7c38d185ca430", "is_disabled": 0, "rental_uris": {"android": "https://dc.lft.to/lastmile_qr_scan", "ios": "https://dc.lft.to/lastmile_qr_scan"}, "fusion_lon": 0.0, "lat": 38.905233333333335, "bike_id": "c5a920d6b9923716eea7c38d185ca430", "type": "electric_scooter", "is_reserved": 0, "lon": -77.03212283333333}, {"fusion_lat": 0.0, "name": "e322a2c252f0efe170433a63179321a0", "is_disabled": 0, "rental_uris": {"android": "https://dc.lft.to/lastmile_qr_scan", "ios": "https://dc.lft.to/lastmile_qr_scan"}, "fusion_lon": 0.0, "lat": 38.898829, "bike_id": "e322a2c252f0efe170433a63179321a0", "type": "electric_scooter", "is_reserved": 0, "lon": -77.0331885}, {"fusion_lat": 0.0, "name": "839c14e32b34649a7a184f54066d24f7", "is_disabled": 0, "rental_uris": {"android": "https://dc.lft.to/lastmile_qr_scan", "ios": "https://dc.lft.to/lastmile_qr_scan"}, "fusion_lon": 0.0, "lat": 38.97287933333333, "bike_id": "839c14e32b34649a7a184f54066d24f7", "type": "electric_scooter", "is_reserved": 0, "lon": -77.01161383333333}, {"fusion_lat": 0.0, "name": "ba275f71d2b5c18bdef2b231d37a37eb", "is_disabled": 0, "rental_uris": {"android": "https://dc.lft.to/lastmile_qr_scan", "ios": "https://dc.lft.to/lastmile_qr_scan"},