{"data": {"bikes": [{"type": "electric_bike", "fusion_lon": 0.0, "bike_id": "f06712145e3e81ea09eb6d3086d39d03", "is_disabled": 0, "lat": 38.88022, "rental_uris": {"ios": "https://dc.lft.to/lastmile_qr_scan", "android": "https://dc.lft.to/lastmile_qr_scan"}, "is_reserved": 0, "lon": -76.9171965, "fusion_lat": 0.0, "name": "f06712145e3e81ea09eb6d3086d39d03"}, {"type": "electric_scooter", "fusion_lon": 0.0, "bike_id": "ffb1fadafcdff1f6e256dfc5498dfc64", "is_disabled": 0, "lat": 38.9177705, "rental_uris": {"ios": "https://dc.lft.to/lastmile_qr_scan", "android": "https://dc.lft.to/lastmile_qr_scan"}, "is_reserved": 0, "lon": -77.0343455, "fusion_lat": 0.0, "name": "ffb1fadafcdff1f6e256dfc5498dfc64"}, {"type": "electric_scooter", "fusion_lon": 0.0, "bike_id": "9722e346d9b5a284315d363d47ace3f6", "is_disabled": 0, "lat": 38.915142333333336, "rental_uris": {"ios": "https://dc.lft.to/lastmile_qr_scan", "android": "https://dc.lft.to/lastmile_qr_scan"}, "is_reserved": 0, "lon": -77.01220333333333, "fusion_lat": 0.0, "name": "9722e346d9b5a284315d363d47ace3f6"}, {"type": "electric_scooter", "fusion_lon": 0.0, "bike_id": "9db95d20e5bffa6ba1ab24dbb71fd24f", "is_disabled": 0, "lat": 38.9213465, "rental_uris": {"ios": "https://dc.lft.to/lastmile_qr_scan", "android": "https://dc.lft.to/lastmile_qr_scan"}, "is_reserved": 0, "lon": -77.062999, "fusion_lat": 0.0, "name": "9db95d20e5bffa6ba1ab24dbb71fd24f"}, {"type": "electric_bike", "fusion_lon": 0.0, "bike_id": "5b726e3274a6874af46455bc1bf02f91", "is_disabled": 0, "lat": 38.922369833333335, "rental_uris": {"ios": "https://dc.lft.to/lastmile_qr_scan", "android": "https://dc.lft.to/lastmile_qr_scan"}, "is_reserved": 0, "lon": -77.0272455, "fusion_lat": 0.0, "name": "5b726e3274a6874af46455bc1bf02f91"}, {"type": "electric_scooter", "fusion_lon": 0.0, "bike_id": "42bba4fa8507adfd5b3735a8da350172", "is_disabled": 0, "lat": 38.923944166666665, "rental_uris": {"ios": "https://dc.lft.to/lastmile_qr_scan", "android": "https://dc.lft.to/lastmile_qr_scan"}, "is_reserved": 0, "lon": -77.02434133333334, "fusion_lat": 0.0, "name": "42bba4fa8507adfd5b3735a8da350172"}, {"type": "electric_scooter", "fusion_lon": 0.0, "bike_id": "09bc6d44b6c251c79c49e9decb73836a", "is_disabled": 0, "lat": 38.973653, "rental_uris": {"ios": "https://dc.lft.to/lastmile_qr_scan", "android": "https://dc.lft.to/lastmile_qr_scan"}, "is_reserved": 0, "lon": -77.01852166666667, "fusion_lat": 0.0, "name": "09bc6d44b6c251c79c49e9decb73836a"}, {"type": "electric_scooter", "fusion_lon": 0.0, "bike_id": "1007dc9d1ed21bfbeda469aa0b0b83ce", "is_disabled": 0, "lat": 38.92067516666667, "rental_uris": {"ios": "https://dc.lft.to/lastmile_qr_scan", "android": "https://dc.lft.to/lastmile_qr_scan"}, "is_reserved": 0, "lon": -77.02505983333333, "fusion_lat": 0.0, "name": "1007dc9d1ed21bfbeda469aa0b0b83ce"}, {"type": "electric_scooter", "fusion_lon": 0.0, "bike_id": "d734d72e82776781360955938b425448", "is_disabled": 0, "lat": 38.894846, "rental_uris": {"ios": "https://dc.lft.to/lastmile_qr_scan", "android": "https://dc.lft.to/lastmile_qr_scan"}, "is_reserved": 0, "lon": -77.0007375, "fusion_lat": 0.0, "name": "d734d72e82776781360955938b425448"}, {"type": "electric_scooter", "fusion_lon": 0.0, "bike_id": "06716c573089d56fa093820d9960d83a", "is_disabled": 0, "lat": 38.900275, "rental_uris": {"ios": "https://dc.lft.to/lastmile_qr_scan", "android": "https://dc.lft.to/lastmile_qr_scan"}, "is_reserved": 0, "lon": -77.01778016666667, "fusion_lat": 0.0, "name": "06716c573089d56fa093820d9960d83a"}, {"type": "electric_scooter", "fusion_lon": 0.0, "bike_id": "da5b37fa8788703231ea12457ba03bce", "is_disabled": 0, "lat": 38.85267133333333, "rental_uris": {"ios": "https://dc.lft.to/lastmile_qr_scan", "android": "https://dc.lft.to/lastmile_qr_scan"}, "is_reserved": 0, "lon": -76.96992683333333, "fusion_lat": 0.0, "name": "da5b37fa8788703231ea12457ba03bce"}, {"type": "electric_bike", "fusion_lon": 0.0, "bike_id": "2f76a237e6b68c9fa2bfcb24ffc0a624", "is_disabled": 0, "lat": 38.841961, "rental_uris": {"ios": "https://dc.lft.to/lastmile_qr_scan", "android": "https://dc.lft.to/lastmile_qr_scan"}, "is_reserved": 0, "lon": -77.11351666666667, "fusion_lat": 0.0, "name": "2f76a237e6b68c9fa2bfcb24ffc0a624"}, {"type": "electric_scooter", "fusion_lon": 0.0, "bike_id": "ac412b65fc0876bd3e715bc3af2f7217", "is_disabled": 0, "lat": 38.923349, "rental_uris": {"ios": "https://dc.lft.to/lastmile_qr_scan", "android": "https://dc.lft.to/lastmile_qr_scan"}, "is_reserved": 0, "lon": -77.04153683333334, "fusion_lat": 0.0, "name": "ac412b65fc0876bd3e715bc3af2f7217"}, {"type": "electric_bike", "fusion_lon": 0.0, "bike_id": "5b856504674ddfd54a07685f7a7fe1d1", "is_disabled": 0, "lat": 39.03429966666667, "rental_uris": {"ios": "https://dc.lft.to/lastmile_qr_scan", "android": "https://dc.lft.to/lastmile_qr_scan"}, "is_reserved": 0, "lon": -77.043012, "fusion_lat": 0.0, "name": "5b856504674ddfd54a07685f7a7fe1d1"}, {"type": "electric_scooter", "fusion_lon": 0.0, "bike_id": "c3eea7285ad856617e77dded08b33aa2", "is_disabled": 0, "lat": 38.90972433333334, "rental_uris": {"ios": "https://dc.lft.to/lastmile_qr_scan", "android": "https://dc.lft.to/lastmile_qr_scan"}, "is_reserved": 0, "lon": -77.02186633333334, "fusion_lat": 0.0, "name": "c3eea7285ad856617e77dded08b33aa2"}, {"type": "electric_scooter", "fusion_lon": 0.0, "bike_id": "2df6ea2b75f34a1c4fd612139089ac1a", "is_disabled": 0, "lat": 38.91947583333334, "rental_uris": {"ios": "https://dc.lft.to/lastmile_qr_scan", "android": "https://dc.lft.to/lastmile_qr_scan"}, "is_reserved": 0, "lon": -77.032033, "fusion_lat": 0.0, "name": "2df6ea2b75f34a1c4fd612139089ac1a"}, {"type": "electric_scooter", "fusion_lon": 0.0, "bike_id": "e5edb18222281cd8a40c13b49a9eac8c", "is_disabled": 0, "lat": 38.9128785, "rental_uris": {"ios": "https://dc.lft.to/lastmile_qr_scan", "android": "https://dc.lft.to/lastmile_qr_scan"}, "is_reserved": 0, "lon": -77.0451355, "fusion_lat": 0.0, "name": "e5edb18222281cd8a40c13b49a9eac8c"}, {"type": "electric_scooter", "fusion_lon": 0.0, "bike_id": "1f1e91ac5f9eb14055c4f473948717d9", "is_disabled": 0, "lat": 38.898443666666665, "rental_uris": {"ios": "https://dc.lft.to/lastmile_qr_scan", "android": "https://dc.lft.to/lastmile_qr_scan"}, "is_reserved": 0, "lon": -77.04888666666666, "fusion_lat": 0.0, "name": "1f1e91ac5f9eb14055c4f473948717d9"}, {"type": "electric_scooter", "fusion_lon": 0.0, "bike_id": "4e49132310ba5a307774545d0ab0a909", "is_disabled": 0, "lat": 38.90699816666667, "rental_uris": {"ios": "https://dc.lft.to/lastmile_qr_scan", "android": "https://dc.lft.to/lastmile_qr_scan"}, "is_reserved": 0, "lon": -77.03589683333334, "fusion_lat": 0.0, "name": "4e49132310ba5a307774545d0ab0a909"}, {"type": "electric_scooter", "fusion_lon": 0.0, "bike_id": "387349a8f14036a00e720d7dca476a76", "is_disabled": 0, "lat": 38.90528316666666, "rental_uris": {"ios": "https://dc.lft.to/lastmile_qr_scan", "android": "https://dc.lft.to/lastmile_qr_scan"}, "is_reserved": 0, "lon": -77.04953083333334, "fusion_lat": 0.0, "name": "387349a8f14036a00e720d7dca476a76"}, {"type": "electric_scooter", "fusion_lon": 0.0, "bike_id": "c4ed674a55292220e7a393c8240016e9", "is_disabled": 0, "lat": 38.91610466666667, "rental_uris": {"ios": "https://dc.lft.to/lastmile_qr_scan", "android": "https://dc.lft.to/lastmile_qr_scan"}, "is_reserved": 0, "lon": -77.048837, "fusion_lat": 0.0, "name": "c4ed674a55292220e7a393c8240016e9"}, {"type": "electric_scooter", "fusion_lon": 0.0, "bike_id": "8fb7f0bf12e4a6d5fef113cbbd1297aa", "is_disabled": 0, "lat": 38.92419983333333, "rental_uris": {"ios": "https://dc.lft.to/lastmile_qr_scan", "android": "https://dc.lft.to/lastmile_qr_scan"}, "is_reserved": 0, "lon": -77.01944983333334, "fusion_lat": 0.0, "name": "8fb7f0bf12e4a6d5fef113cbbd1297aa"}, {"type": "electric_scooter", "fusion_lon": 0.0, "bike_id": "57e07571052789d24c212699babfb958", "is_disabled": 0, "lat": 38.91033916666667, "rental_uris": {"ios": "https://dc.lft.to/lastmile_qr_scan", "android": "https://dc.lft.to/lastmile_qr_scan"}, "is_reserved": 0, "lon": -77.033982, "fusion_lat": 0.0, "name": "57e07571052789d24c212699babfb958"}, {"type": "electric_scooter", "fusion_lon": 0.0, "bike_id": "5e60adab17a1837240475c5274ee2415", "is_disabled": 0, "lat": 38.87921383333333, "rental_uris": {"ios": "https://dc.lft.to/lastmile_qr_scan", "android": "https://dc.lft.to/lastmile_qr_scan"}, "is_reserved": 0, "lon": -76.99543383333334, "fusion_lat": 0.0, "name": "5e60adab17a1837240475c5274ee2415"}, {"type": "electric_scooter", "fusion_lon": 0.0, "bike_id": "93bca6c5e21b8e22d286985b1917f7f7", "is_disabled": 0, "lat": 38.89219383333333, "rental_uris": {"ios": "https://dc.lft.to/lastmile_qr_scan", "android": "https://dc.lft.to/lastmile_qr_scan"}, "is_reserved": 0, "lon": -77.02624966666667, "fusion_lat": 0.0, "name": "93bca6c5e21b8e22d286985b1917f7f7"}, {"type": "electric_scooter", "fusion_lon": 0.0, "bike_id": "5823be45463759a8ded2d5cfeb5c401d", "is_disabled": 0, "lat": 38.892188166666664, "rental_uris": {"ios": "https://dc.lft.to/lastmile_qr_scan", "android": "https://dc.lft.to/lastmile_qr_scan"}, "is_reserved": 0, "lon": -77.0221605, "fusion_lat": 0.0, "name": "5823be45463759a8ded2d5cfeb5c401d"}, {"type": "electric_scooter", "fusion_lon": 0.0, "bike_id": "942007b42fc573baf3fedc39eb45c71e", "is_disabled": 0, "lat": 38.957189, "rental_uris": {"ios": "https://dc.lft.to/lastmile_qr_scan", "android": "https://dc.lft.to/lastmile_qr_scan"}, "is_reserved": 0, "lon": -77.03255116666666, "fusion_lat": 0.0, "name": "942007b42fc573baf3fedc39eb45c71e"}, {"type": "electric_scooter", "fusion_lon": 0.0, "bike_id": "b7e64314f9b080552c611080648a10d6", "is_disabled": 0, "lat": 38.891952, "rental_uris": {"ios": "https://dc.lft.to/lastmile_qr_scan", "android": "https://dc.lft.to/lastmile_qr_scan"}, "is_reserved": 0, "lon": -77.02376516666666, "fusion_lat": 0.0, "name": "b7e64314f9b080552c611080648a10d6"}, {"type": "electric_scooter", "fusion_lon": 0.0, "bike_id": "1e74d2ba9d9b03a2d1cced3bf7375409", "is_disabled": 0, "lat": 38.920645, "rental_uris": {"ios": "https://dc.lft.to/lastmile_qr_scan", "android": "https://dc.lft.to/lastmile_qr_scan"}, "is_reserved": 0, "lon": -77.0322295, "fusion_lat": 0.0, "name": "1e74d2ba9d9b03a2d1cced3bf7375409"}, {"type": "electric_scooter", "fusion_lon": 0.0, "bike_id": "8991bacc37615691a5b075304c4b89a6", "is_disabled": 0, "lat": 38.9565185, "rental_uris": {"ios": "https://dc.lft.to/lastmile_qr_scan", "android": "https://dc.lft.to/lastmile_qr_scan"}, "is_reserved": 0, "lon": -77.01968633333334, "fusion_lat": 0.0, "name": "8991bacc37615691a5b075304c4b89a6"}, {"type": "electric_scooter", "fusion_lon": 0.0, "bike_id": "4b7ac182ce8514d4db09d8ff75d6cab9", "is_disabled": 0, "lat": 38.880762, "rental_uris": {"ios": "https://dc.lft.to/lastmile_qr_scan", "android": "https://dc.lft.to/lastmile_qr_scan"}, "is_reserved": 0, "lon": -76.98530933333333, "fusion_lat": 0.0, "name": "4b7ac182ce8514d4db09d8ff75d6cab9"}, {"type": "electric_scooter", "fusion_lon": 0.0, "bike_id": "e138f22c068f6725cacbdd9600722e74", "is_disabled": 0, "lat": 38.892210166666665, "rental_uris": {"ios": "https://dc.lft.to/lastmile_qr_scan", "android": "https://dc.lft.to/lastmile_qr_scan"}, "is_reserved": 0, "lon": -77.02628683333333, "fusion_lat": 0.0, "name": "e138f22c068f6725cacbdd9600722e74"}, {"type": "electric_scooter", "fusion_lon": 0.0, "bike_id": "5ef44883fb3240f2ba4ae50e45f37eb8", "is_disabled": 0, "lat": 38.91872766666667, "rental_uris": {"ios": "https://dc.lft.to/lastmile_qr_scan", "android": "https://dc.lft.to/lastmile_qr_scan"}, "is_reserved": 0, "lon": -77.02595183333334, "fusion_lat": 0.0, "name": "5ef44883fb3240f2ba4ae50e45f37eb8"}, {"type": "electric_scooter", "fusion_lon": 0.0, "bike_id": "80390e6fa7ea4f0ae125bafdfa8b8ee8", "is_disabled": 0, "lat": 38.87171333333333, "rental_uris": {"ios": "https://dc.lft.to/lastmile_qr_scan", "android": "https://dc.lft.to/lastmile_qr_scan"}, "is_reserved": 0, "lon": -77.00627366666667, "fusion_lat": 0.0, "name": "80390e6fa7ea4f0ae125bafdfa8b8ee8"}, {"type": "electric_bike", "fusion_lon": 0.0, "bike_id": "defc8e7f5bb95715bc249406496e7533", "is_disabled": 0, "lat": 38.98042916666667, "rental_uris": {"ios": "https://dc.lft.to/lastmile_qr_scan", "android": "https://dc.lft.to/lastmile_qr_scan"}, "is_reserved": 0, "lon": -76.95796866666667, "fusion_lat": 0.0, "name": "defc8e7f5bb95715bc249406496e7533"}, {"type": "electric_scooter", "fusion_lon": 0.0, "bike_id": "9f81e8063d119aeb1acabcaf5006ac17", "is_disabled": 0, "lat": 38.963928, "rental_uris": {"ios": "https://dc.lft.to/lastmile_qr_scan", "android": "https://dc.lft.to/lastmile_qr_scan"}, "is_reserved": 0, "lon": -77.0258855, "fusion_lat": 0.0, "name": "9f81e8063d119aeb1acabcaf5006ac17"}, {"type": "electric_scooter", "fusion_lon": 0.0, "bike_id": "ac984e8367048551fa4d25759af7df5b", "is_disabled": 0, "lat": 38.903780833333336, "rental_uris": {"ios": "https://dc.lft.to/lastmile_qr_scan", "android": "https://dc.lft.to/lastmile_qr_scan"}, "is_reserved": 0, "lon": -77.00196833333334, "fusion_lat": 0.0, "name": "ac984e8367048551fa4d25759af7df5b"}, {"type": "electric_scooter", "fusion_lon": 0.0, "bike_id": "097a6963976f6d0cd6eb5490e3c66f65", "is_disabled": 0, "lat": 38.92070833333333, "rental_uris": {"ios": "https://dc.lft.to/lastmile_qr_scan", "android": "https://dc.lft.to/lastmile_qr_scan"}, "is_reserved": 0, "lon": -77.02532783333334, "fusion_lat": 0.0, "name": "097a6963976f6d0cd6eb5490e3c66f65"}, {"type": "electric_scooter", "fusion_lon": 0.0, "bike_id": "2f99967368f38c206090d6abb4266ef2", "is_disabled": 0, "lat": 38.92843366666666, "rental_uris": {"ios": "https://dc.lft.to/lastmile_qr_scan", "android": "https://dc.lft.to/lastmile_qr_scan"}, "is_reserved": 0, "lon": -77.0158455, "fusion_lat": 0.0, "name": "2f99967368f38c206090d6abb4266ef2"}, {"type": "electric_scooter", "fusion_lon": 0.0, "bike_id": "ad5bafe7282cab603abe6667af49a9b7", "is_disabled": 0, "lat": 38.94192183333333, "rental_uris": {"ios": "https://dc.lft.to/lastmile_qr_scan", "android": "https://dc.lft.to/lastmile_qr_scan"}, "is_reserved": 0, "lon": -77.02518566666667, "fusion_lat": 0.0, "name": "ad5bafe7282cab603abe6667af49a9b7"}, {"type": "electric_scooter", "fusion_lon": 0.0, "bike_id": "0370e24a0cc5ee56d188ba0fbb0ffa62", "is_disabled": 0, "lat": 38.903053166666666, "rental_uris": {"ios": "https://dc.lft.to/lastmile_qr_scan", "android": "https://dc.lft.to/lastmile_qr_scan"}, "is_reserved": 0, "lon": -77.0265125, "fusion_lat": 0.0, "name": "0370e24a0cc5ee56d188ba0fbb0ffa62"}, {"type": "electric_scooter", "fusion_lon": 0.0, "bike_id": "7e843ca028034abfed09693b8c3205b9", "is_disabled": 0, "lat": 38.95623483333333, "rental_uris": {"ios": "https://dc.lft.to/lastmile_qr_scan", "android": "https://dc.lft.to/lastmile_qr_scan"}, "is_reserved": 0, "lon": -77.07015966666667, "fusion_lat": 0.0, "name": "7e843ca028034abfed09693b8c3205b9"}, {"type": "electric_scooter", "fusion_lon": 0.0, "bike_id": "75f1b8314c4985bc17541223412a8f4d", "is_disabled": 0, "lat": 38.91613533333334, "rental_uris": {"ios": "https://dc.lft.to/lastmile_qr_scan", "android": "https://dc.lft.to/lastmile_qr_scan"}, "is_reserved": 0, "lon": -77.032139, "fusion_lat": 0.0, "name": "75f1b8314c4985bc17541223412a8f4d"}, {"type": "electric_scooter", "fusion_lon": 0.0, "bike_id": "5dd8724a076dec6b843b8a58abbf7aca", "is_disabled": 0, "lat": 38.9103895, "rental_uris": {"ios": "https://dc.lft.to/lastmile_qr_scan", "android": "https://dc.lft.to/lastmile_qr_scan"}, "is_reserved": 0, "lon": -77.0755075, "fusion_lat": 0.0, "name": "5dd8724a076dec6b843b8a58abbf7aca"}, {"type": "electric_scooter", "fusion_lon": 0.0, "bike_id": "95670a367d2d0fd899125a0892c3965f", "is_disabled": 0, "lat": 38.8763615, "rental_uris": {"ios": "https://dc.lft.to/lastmile_qr_scan", "android": "https://dc.lft.to/lastmile_qr_scan"}, "is_reserved": 0, "lon": -76.99796233333333, "fusion_lat": 0.0, "name": "95670a367d2d0fd899125a0892c3965f"}, {"type": "electric_scooter", "fusion_lon": 0.0, "bike_id": "5c49dc66be92e8633e92fbfc5cf76c41", "is_disabled": 0, "lat": 38.92268833333333, "rental_uris": {"ios": "https://dc.lft.to/lastmile_qr_scan", "android": "https://dc.lft.to/lastmile_qr_scan"}, "is_reserved": 0, "lon": -77.02243416666667, "fusion_lat": 0.0, "name": "5c49dc66be92e8633e92fbfc5cf76c41"}, {"type": "electric_scooter", "fusion_lon": 0.0, "bike_id": "c3d245f96801daf275b79bb9b2729a72", "is_disabled": 0, "lat": 38.918111333333336, "rental_uris": {"ios": "https://dc.lft.to/lastmile_qr_scan", "android": "https://dc.lft.to/lastmile_qr_scan"}, "is_reserved": 0, "lon": -77.04557416666667, "fusion_lat": 0.0, "name": "c3d245f96801daf275b79bb9b2729a72"}, {"type": "electric_scooter", "fusion_lon": 0.0, "bike_id": "079f8b138cf9f0570d1298a879348e3c", "is_disabled": 0, "lat": 38.96146683333333, "rental_uris": {"ios": "https://dc.lft.to/lastmile_qr_scan", "android": "https://dc.lft.to/lastmile_qr_scan"}, "is_reserved": 0, "lon": -77.02798866666667, "fusion_lat": 0.0, "name": "079f8b138cf9f0570d1298a879348e3c"}, {"type": "electric_scooter", "fusion_lon": 0.0, "bike_id": "31a18809b0dd08b72e784e6b5308fe69", "is_disabled": 0, "lat": 38.889932, "rental_uris": {"ios": "https://dc.lft.to/lastmile_qr_scan", "android": "https://dc.lft.to/lastmile_qr_scan"}, "is_reserved": 0, "lon": -76.95435733333333, "fusion_lat": 0.0, "name": "31a18809b0dd08b72e784e6b5308fe69"}, {"type": "electric_scooter", "fusion_lon": 0.0, "bike_id": "44298a775837c49874fbb37c25f14a77", "is_disabled": 0, "lat": 38.89836666666667, "rental_uris": {"ios": "https://dc.lft.to/lastmile_qr_scan", "android": "https://dc.lft.to/lastmile_qr_scan"}, "is_reserved": 0, "lon": -77.05258766666667, "fusion_lat": 0.0, "name": "44298a775837c49874fbb37c25f14a77"}, {"type": "electric_scooter", "fusion_lon": 0.0, "bike_id": "caf5eddbdd13a967829491899fbb620f", "is_disabled": 0, "lat": 38.899551333333335, "rental_uris": {"ios": "https://dc.lft.to/lastmile_qr_scan", "android": "https://dc.lft.to/lastmile_qr_scan"}, "is_reserved": 0, "lon": -77.02114516666667, "fusion_lat": 0.0, "name": "caf5eddbdd13a967829491899fbb620f"}, {"type": "electric_scooter", "fusion_lon": 0.0, "bike_id": "bce101f209e75b3089fc4779f74530cb", "is_disabled": 0, "lat": 38.882039166666665, "rental_uris": {"ios": "https://dc.lft.to/lastmile_qr_scan", "android": "https://dc.lft.to/lastmile_qr_scan"}, "is_reserved": 0, "lon": -77.017671, "fusion_lat": 0.0, "name": "bce101f209e75b3089fc4779f74530cb"}, {"type": "electric_scooter", "fusion_lon": 0.0, "bike_id": "7535e0e9d923cc22ca9801d31cbad4c9", "is_disabled": 0, "lat": 38.906568666666665, "rental_uris": {"ios": "https://dc.lft.to/lastmile_qr_scan", "android": "https://dc.lft.to/lastmile_qr_scan"}, "is_reserved": 0, "lon": -76.97937083333333, "fusion_lat": 0.0, "name": "7535e0e9d923cc22ca9801d31cbad4c9"}, {"type": "electric_scooter", "fusion_lon": 0.0, "bike_id": "2e642a2ffb7351dcab35f893257519b3", "is_disabled": 0, "lat": 38.90265633333333, "rental_uris": {"ios": "https://dc.lft.to/lastmile_qr_scan", "android": "https://dc.lft.to/lastmile_qr_scan"}, "is_reserved": 0, "lon": -77.01964866666667, "fusion_lat": 0.0, "name": "2e642a2ffb7351dcab35f893257519b3"}, {"type": "electric_scooter", "fusion_lon": 0.0, "bike_id": "f9853bed0d244a49ff740ad22a789516", "is_disabled": 0, "lat": 38.909710833333335, "rental_uris": {"ios": "https://dc.lft.to/lastmile_qr_scan", "android": "https://dc.lft.to/lastmile_qr_scan"}, "is_reserved": 0, "lon": -77.03865866666666, "fusion_lat": 0.0, "name": "f9853bed0d244a49ff740ad22a789516"}, {"type": "electric_bike", "fusion_lon": 0.0, "bike_id": "893d5ecf115ad6d23582c27fb1ab3a5e", "is_disabled": 0, "lat": 38.8351975, "rental_uris": {"ios": "https://dc.lft.to/lastmile_qr_scan", "android": "https://dc.lft.to/lastmile_qr_scan"}, "is_reserved": 0, "lon": -76.98707783333333, "fusion_lat": 0.0, "name": "893d5ecf115ad6d23582c27fb1ab3a5e"}, {"type": "electric_scooter", "fusion_lon": 0.0, "bike_id": "d55bc31c4e0fb9443286e5934b31fa45", "is_disabled": 0, "lat": 38.90978166666667, "rental_uris": {"ios": "https://dc.lft.to/lastmile_qr_scan", "android": "https://dc.lft.to/lastmile_qr_scan"}, "is_reserved": 0, "lon": -77.03846666666666, "fusion_lat": 0.0, "name": "d55bc31c4e0fb9443286e5934b31fa45"}, {"type": "electric_scooter", "fusion_lon": 0.0, "bike_id": "73fe2875b7931c0577b89464889ef491", "is_disabled": 0, "lat": 38.902697833333335, "rental_uris": {"ios": "https://dc.lft.to/lastmile_qr_scan", "android": "https://dc.lft.to/lastmile_qr_scan"}, "is_reserved": 0, "lon": -77.05332433333334, "fusion_lat": 0.0, "name": "73fe2875b7931c0577b89464889ef491"}, {"type": "electric_bike", "fusion_lon": 0.0, "bike_id": "1b5078e39570cf5330b0c64dee91b45e", "is_disabled": 0, "lat": 38.9508385, "rental_uris": {"ios": "https://dc.lft.to/lastmile_qr_scan", "android": "https://dc.lft.to/lastmile_qr_scan"}, "is_reserved": 0, "lon": -77.01232416666667, "fusion_lat": 0.0, "name": "1b5078e39570cf5330b0c64dee91b45e"}, {"type": "electric_scooter", "fusion_lon": 0.0, "bike_id": "36309c4412874316b634534f77ea7fd7", "is_disabled": 0, "lat": 38.902369666666665, "rental_uris": {"ios": "https://dc.lft.to/lastmile_qr_scan", "android": "https://dc.lft.to/lastmile_qr_scan"}, "is_reserved": 0, "lon": -77.0371555, "fusion_lat": 0.0, "name": "36309c4412874316b634534f77ea7fd7"}, {"type": "electric_scooter", "fusion_lon": 0.0, "bike_id": "9db17cf92ce734092e8e2f2cc6ff2742", "is_disabled": 0, "lat": 38.909411, "rental_uris": {"ios": "https://dc.lft.to/lastmile_qr_scan", "android": "https://dc.lft.to/lastmile_qr_scan"}, "is_reserved": 0, "lon": -77.04489516666666, "fusion_lat": 0.0, "name": "9db17cf92ce734092e8e2f2cc6ff2742"}, {"type": "electric_scooter", "fusion_lon": 0.0, "bike_id": "5a34ec20b4ee52b7d0c607fbd2064727", "is_disabled": 0, "lat": 38.931420833333334, "rental_uris": {"ios": "https://dc.lft.to/lastmile_qr_scan", "android": "https://dc.lft.to/lastmile_qr_scan"}, "is_reserved": 0, "lon": -77.07717433333333, "fusion_lat": 0.0, "name": "5a34ec20b4ee52b7d0c607fbd2064727"}, {"type": "electric_bike", "fusion_lon": 0.0, "bike_id": "c7e617b6a5fb0a2cdf1cd0db504b050c", "is_disabled": 0, "lat": 38.85770816666667, "rental_uris": {"ios": "https://dc.lft.to/lastmile_qr_scan", "android": "https://dc.lft.to/lastmile_qr_scan"}, "is_reserved": 0, "lon": -76.98765683333333, "fusion_lat": 0.0, "name": "c7e617b6a5fb0a2cdf1cd0db504b050c"}, {"type": "electric_scooter", "fusion_lon": 0.0, "bike_id": "b4a33fcf3d8d4acf6cd2a915b11806b1", "is_disabled": 0, "lat": 38.93040233333333, "rental_uris": {"ios": "https://dc.lft.to/lastmile_qr_scan", "android": "https://dc.lft.to/lastmile_qr_scan"}, "is_reserved": 0, "lon": -77.03200166666667, "fusion_lat": 0.0, "name": "b4a33fcf3d8d4acf6cd2a915b11806b1"}, {"type": "electric_scooter", "fusion_lon": 0.0, "bike_id": "f38c15bfd98420ce5863aabb79a70f01", "is_disabled": 0, "lat": 38.90726033333333, "rental_uris": {"ios": "https://dc.lft.to/lastmile_qr_scan", "android": "https://dc.lft.to/lastmile_qr_scan"}, "is_reserved": 0, "lon": -77.04149383333333, "fusion_lat": 0.0, "name": "f38c15bfd98420ce5863aabb79a70f01"}, {"type": "electric_scooter", "fusion_lon": 0.0, "bike_id": "fb405704c3dd29c33e69f8f76b7c6aea", "is_disabled": 0, "lat": 38.89956866666667, "rental_uris": {"ios": "https://dc.lft.to/lastmile_qr_scan", "android": "https://dc.lft.to/lastmile_qr_scan"}, "is_reserved": 0, "lon": -77.01622833333333, "fusion_lat": 0.0, "name": "fb405704c3dd29c33e69f8f76b7c6aea"}, {"type": "electric_scooter", "fusion_lon": 0.0, "bike_id": "724d0d681e1bcdf9502e878a8663c0ea", "is_disabled": 0, "lat": 38.887393833333334, "rental_uris": {"ios": "https://dc.lft.to/lastmile_qr_scan", "android": "https://dc.lft.to/lastmile_qr_scan"}, "is_reserved": 0, "lon": -77.02206583333333, "fusion_lat": 0.0, "name": "724d0d681e1bcdf9502e878a8663c0ea"}, {"type": "electric_scooter", "fusion_lon": 0.0, "bike_id": "7c32753fbc23dcd65722d6fa613b26a7", "is_disabled": 0, "lat": 38.796089333333335, "rental_uris": {"ios": "https://dc.lft.to/lastmile_qr_scan", "android": "https://dc.lft.to/lastmile_qr_scan"}, "is_reserved": 0, "lon": -77.07484466666666, "fusion_lat": 0.0, "name": "7c32753fbc23dcd65722d6fa613b26a7"}, {"type": "electric_scooter", "fusion_lon": 0.0, "bike_id": "19b2d9163fd077e98efe6bde4db8ea7c", "is_disabled": 0, "lat": 38.89720616666666, "rental_uris": {"ios": "https://dc.lft.to/lastmile_qr_scan", "android": "https://dc.lft.to/lastmile_qr_scan"}, "is_reserved": 0, "lon": -77.0316645, "fusion_lat": 0.0, "name": "19b2d9163fd077e98efe6bde4db8ea7c"}, {"type": "electric_scooter", "fusion_lon": 0.0, "bike_id": "a0ef7c492ffa8146c4075945c0e302d0", "is_disabled": 0, "lat": 38.892185166666664, "rental_uris": {"ios": "https://dc.lft.to/lastmile_qr_scan", "android": "https://dc.lft.to/lastmile_qr_scan"}, "is_reserved": 0, "lon": -77.027782, "fusion_lat": 0.0, "name": "a0ef7c492ffa8146c4075945c0e302d0"}, {"type": "electric_scooter", "fusion_lon": 0.0, "bike_id": "75d3ae154324107343c3c71d183cb352", "is_disabled": 0, "lat": 38.922902666666666, "rental_uris": {"ios": "https://dc.lft.to/lastmile_qr_scan", "android": "https://dc.lft.to/lastmile_qr_scan"}, "is_reserved": 0, "lon": -77.0319875, "fusion_lat": 0.0, "name": "75d3ae154324107343c3c71d183cb352"}, {"type": "electric_scooter", "fusion_lon": 0.0, "bike_id": "e5ae0fa1ea1e7d1057582710859167d3", "is_disabled": 0, "lat": 38.92476083333333, "rental_uris": {"ios": "https://dc.lft.to/lastmile_qr_scan", "android": "https://dc.lft.to/lastmile_qr_scan"}, "is_reserved": 0, "lon": -77.03930533333333, "fusion_lat": 0.0, "name": "e5ae0fa1ea1e7d1057582710859167d3"}, {"type": "electric_scooter", "fusion_lon": 0.0, "bike_id": "57af0569f4ec492466a677406f3f14ed", "is_disabled": 0, "lat": 38.87711016666667, "rental_uris": {"ios": "https://dc.lft.to/lastmile_qr_scan", "android": "https://dc.lft.to/lastmile_qr_scan"}, "is_reserved": 0, "lon": -77.006662, "fusion_lat": 0.0, "name": "57af0569f4ec492466a677406f3f14ed"}, {"type": "electric_scooter", "fusion_lon": 0.0, "bike_id": "607d74483b2396896523610dc8436003", "is_disabled": 0, "lat": 38.90758566666667, "rental_uris": {"ios": "https://dc.lft.to/lastmile_qr_scan", "android": "https://dc.lft.to/lastmile_qr_scan"}, "is_reserved": 0, "lon": -77.03641583333334, "fusion_lat": 0.0, "name": "607d74483b2396896523610dc8436003"}, {"type": "electric_scooter", "fusion_lon": 0.0, "bike_id": "ae31ce73636a0ca54c7cf5bd8147673d", "is_disabled": 0, "lat": 38.884255, "rental_uris": {"ios": "https://dc.lft.to/lastmile_qr_scan", "android": "https://dc.lft.to/lastmile_qr_scan"}, "is_reserved": 0, "lon": -76.957564, "fusion_lat": 0.0, "name": "ae31ce73636a0ca54c7cf5bd8147673d"}, {"type": "electric_scooter", "fusion_lon": 0.0, "bike_id": "3cafd30df6c112462b2b63831cc4de7e", "is_disabled": 0, "lat": 38.89220916666667, "rental_uris": {"ios": "https://dc.lft.to/lastmile_qr_scan", "android": "https://dc.lft.to/lastmile_qr_scan"}, "is_reserved": 0, "lon": -77.032191, "fusion_lat": 0.0, "name": "3cafd30df6c112462b2b63831cc4de7e"}, {"type": "electric_scooter", "fusion_lon": 0.0, "bike_id": "8a9a79e5a4f090a99c1283ef57384cc7", "is_disabled": 0, "lat": 38.9334695, "rental_uris": {"ios": "https://dc.lft.to/lastmile_qr_scan", "android": "https://dc.lft.to/lastmile_qr_scan"}, "is_reserved": 0, "lon": -77.02980066666667, "fusion_lat": 0.0, "name": "8a9a79e5a4f090a99c1283ef57384cc7"}, {"type": "electric_scooter", "fusion_lon": 0.0, "bike_id": "19defc4cac92135a375606bc6dba7cc4", "is_disabled": 0, "lat": 38.95597566666667, "rental_uris": {"ios": "https://dc.lft.to/lastmile_qr_scan", "android": "https://dc.lft.to/lastmile_qr_scan"}, "is_reserved": 0, "lon": -77.08064983333334, "fusion_lat": 0.0, "name": "19defc4cac92135a375606bc6dba7cc4"}, {"type": "electric_scooter", "fusion_lon": 0.0, "bike_id": "a7638481804159496eb33703a6890113", "is_disabled": 0, "lat": 38.87401216666667, "rental_uris": {"ios": "https://dc.lft.to/lastmile_qr_scan", "android": "https://dc.lft.to/lastmile_qr_scan"}, "is_reserved": 0, "lon": -76.9698195, "fusion_lat": 0.0, "name": "a7638481804159496eb33703a6890113"}, {"type": "electric_scooter", "fusion_lon": 0.0, "bike_id": "21a1b24b7cf7ac32fb55d82587eed686", "is_disabled": 0, "lat": 38.9164275, "rental_uris": {"ios": "https://dc.lft.to/lastmile_qr_scan", "android": "https://dc.lft.to/lastmile_qr_scan"}, "is_reserved": 0, "lon": -77.04557616666666, "fusion_lat": 0.0, "name": "21a1b24b7cf7ac32fb55d82587eed686"}, {"type": "electric_bike", "fusion_lon": 0.0, "bike_id": "97076c2c0c97ae2260bfced0e5ffbf9c", "is_disabled": 0, "lat": 38.86583533333334, "rental_uris": {"ios": "https://dc.lft.to/lastmile_qr_scan", "android": "https://dc.lft.to/lastmile_qr_scan"}, "is_reserved": 0, "lon": -76.9804685, "fusion_lat": 0.0, "name": "97076c2c0c97ae2260bfced0e5ffbf9c"}, {"type": "electric_scooter", "fusion_lon": 0.0, "bike_id": "22629afc2b9b9fd8dbabb8cd2ff32fb0", "is_disabled": 0, "lat": 38.927807666666666, "rental_uris": {"ios": "https://dc.lft.to/lastmile_qr_scan", "android": "https://dc.lft.to/lastmile_qr_scan"}, "is_reserved": 0, "lon": -77.02698366666667, "fusion_lat": 0.0, "name": "22629afc2b9b9fd8dbabb8cd2ff32fb0"}, {"type": "electric_scooter", "fusion_lon": 0.0, "bike_id": "b7f83dd233e8c5b353600786debbb313", "is_disabled": 0, "lat": 38.940842, "rental_uris": {"ios": "https://dc.lft.to/lastmile_qr_scan", "android": "https://dc.lft.to/lastmile_qr_scan"}, "is_reserved": 0, "lon": -77.02719683333333, "fusion_lat": 0.0, "name": "b7f83dd233e8c5b353600786debbb313"}, {"type": "electric_scooter", "fusion_lon": 0.0, "bike_id": "962ec95a682893926952397c69c4fc02", "is_disabled": 0, "lat": 38.907341, "rental_uris": {"ios": "https://dc.lft.to/lastmile_qr_scan", "android": "https://dc.lft.to/lastmile_qr_scan"}, "is_reserved": 0, "lon": -77.03449316666666, "fusion_lat": 0.0, "name": "962ec95a682893926952397c69c4fc02"}, {"type": "electric_scooter", "fusion_lon": 0.0, "bike_id": "d84604472ef3a7802410f759e30164df", "is_disabled": 0, "lat": 38.90169866666667, "rental_uris": {"ios": "https://dc.lft.to/lastmile_qr_scan", "android": "https://dc.lft.to/lastmile_qr_scan"}, "is_reserved": 0, "lon": -76.98072783333333, "fusion_lat": 0.0, "name": "d84604472ef3a7802410f759e30164df"}, {"type": "electric_scooter", "fusion_lon": 0.0, "bike_id": "ef8004b0a0b25cc10b9a6d956a33ba51", "is_disabled": 0, "lat": 38.894658666666665, "rental_uris": {"ios": "https://dc.lft.to/lastmile_qr_scan", "android": "https://dc.lft.to/lastmile_qr_scan"}, "is_reserved": 0, "lon": -77.01861733333334, "fusion_lat": 0.0, "name": "ef8004b0a0b25cc10b9a6d956a33ba51"}, {"type": "electric_scooter", "fusion_lon": 0.0, "bike_id": "a8c5904c681f4401df554fb53e1f9ac0", "is_disabled": 0, "lat": 38.926981833333336, "rental_uris": {"ios": "https://dc.lft.to/lastmile_qr_scan", "android": "https://dc.lft.to/lastmile_qr_scan"}, "is_reserved": 0, "lon": -77.02392816666666, "fusion_lat": 0.0, "name": "a8c5904c681f4401df554fb53e1f9ac0"}, {"type": "electric_scooter", "fusion_lon": 0.0, "bike_id": "711e00b1462201c012b5b0a470a629e7", "is_disabled": 0, "lat": 38.926182, "rental_uris": {"ios": "https://dc.lft.to/lastmile_qr_scan", "android": "https://dc.lft.to/lastmile_qr_scan"}, "is_reserved": 0, "lon": -77.03930466666667, "fusion_lat": 0.0, "name": "711e00b1462201c012b5b0a470a629e7"}, {"type": "electric_scooter", "fusion_lon": 0.0, "bike_id": "76d952e9ce0c737259dfb5604a1b9bd5", "is_disabled": 0, "lat": 38.91754683333333, "rental_uris": {"ios": "https://dc.lft.to/lastmile_qr_scan", "android": "https://dc.lft.to/lastmile_qr_scan"}, "is_reserved": 0, "lon": -77.0227795, "fusion_lat": 0.0, "name": "76d952e9ce0c737259dfb5604a1b9bd5"}, {"type": "electric_scooter", "fusion_lon": 0.0, "bike_id": "c868383801e9e7c3e4e45f4d8992123c", "is_disabled": 0, "lat": 38.92070666666667, "rental_uris": {"ios": "https://dc.lft.to/lastmile_qr_scan", "android": "https://dc.lft.to/lastmile_qr_scan"}, "is_reserved": 0, "lon": -77.02518833333333, "fusion_lat": 0.0, "name": "c868383801e9e7c3e4e45f4d8992123c"}, {"type": "electric_scooter", "fusion_lon": 0.0, "bike_id": "b0290ad18c47325db2a74baa7dd0d4d4", "is_disabled": 0, "lat": 38.905469833333335, "rental_uris": {"ios": "https://dc.lft.to/lastmile_qr_scan", "android": "https://dc.lft.to/lastmile_qr_scan"}, "is_reserved": 0, "lon": -77.04658733333333, "fusion_lat": 0.0, "name": "b0290ad18c47325db2a74baa7dd0d4d4"}, {"type": "electric_scooter", "fusion_lon": 0.0, "bike_id": "3c236f52393cfe90fb752b7318ee0d1c", "is_disabled": 0, "lat": 38.9219385, "rental_uris": {"ios": "https://dc.lft.to/lastmile_qr_scan", "android": "https://dc.lft.to/lastmile_qr_scan"}, "is_reserved": 0, "lon": -77.04699033333333, "fusion_lat": 0.0, "name": "3c236f52393cfe90fb752b7318ee0d1c"}, {"type": "electric_scooter", "fusion_lon": 0.0, "bike_id": "35bc202be42c64b0a06c6ea4c6319c56", "is_disabled": 0, "lat": 38.9037495, "rental_uris": {"ios": "https://dc.lft.to/lastmile_qr_scan", "android": "https://dc.lft.to/lastmile_qr_scan"}, "is_reserved": 0, "lon": -76.9950915, "fusion_lat": 0.0, "name": "35bc202be42c64b0a06c6ea4c6319c56"}, {"type": "electric_scooter", "fusion_lon": 0.0, "bike_id": "627dfd6a2bb08cdbc26d007f13de6f30", "is_disabled": 0, "lat": 38.898588, "rental_uris": {"ios": "https://dc.lft.to/lastmile_qr_scan", "android": "https://dc.lft.to/lastmile_qr_scan"}, "is_reserved": 0, "lon": -77.04880166666666, "fusion_lat": 0.0, "name": "627dfd6a2bb08cdbc26d007f13de6f30"}, {"type": "electric_scooter", "fusion_lon": 0.0, "bike_id": "dbd5c8ab35b591f8cf27f4c8206060a7", "is_disabled": 0, "lat": 38.8780635, "rental_uris": {"ios": "https://dc.lft.to/lastmile_qr_scan", "android": "https://dc.lft.to/lastmile_qr_scan"}, "is_reserved": 0, "lon": -77.00736533333334, "fusion_lat": 0.0, "name": "dbd5c8ab35b591f8cf27f4c8206060a7"}, {"type": "electric_scooter", "fusion_lon": 0.0, "bike_id": "1f3aea2f15653b688993f1a3ae91e7b7", "is_disabled": 0, "lat": 38.87543, "rental_uris": {"ios": "https://dc.lft.to/lastmile_qr_scan", "android": "https://dc.lft.to/lastmile_qr_scan"}, "is_reserved": 0, "lon": -77.0053465, "fusion_lat": 0.0, "name": "1f3aea2f15653b688993f1a3ae91e7b7"}, {"type": "electric_scooter", "fusion_lon": 0.0, "bike_id": "44bddd6929f405239f8e98d0377f7bba", "is_disabled": 0, "lat": 38.8844615, "rental_uris": {"ios": "https://dc.lft.to/lastmile_qr_scan", "android": "https://dc.lft.to/lastmile_qr_scan"}, "is_reserved": 0, "lon": -76.94224066666666, "fusion_lat": 0.0, "name": "44bddd6929f405239f8e98d0377f7bba"}, {"type": "electric_scooter", "fusion_lon": 0.0, "bike_id": "93ba894873311fced070f85f3531d25c", "is_disabled": 0, "lat": 38.91488366666667, "rental_uris": {"ios": "https://dc.lft.to/lastmile_qr_scan", "android": "https://dc.lft.to/lastmile_qr_scan"}, "is_reserved": 0, "lon": -77.0258725, "fusion_lat": 0.0, "name": "93ba894873311fced070f85f3531d25c"}, {"type": "electric_scooter", "fusion_lon": 0.0, "bike_id": "0096d2b096f51992bd57bf48ec4b5cb8", "is_disabled": 0, "lat": 38.880588, "rental_uris": {"ios": "https://dc.lft.to/lastmile_qr_scan", "android": "https://dc.lft.to/lastmile_qr_scan"}, "is_reserved": 0, "lon": -76.990204, "fusion_lat": 0.0, "name": "0096d2b096f51992bd57bf48ec4b5cb8"}, {"type": "electric_scooter", "fusion_lon": 0.0, "bike_id": "1113f9ca9194244bd7c841c976bbae2d", "is_disabled": 0, "lat": 38.91177966666667, "rental_uris": {"ios": "https://dc.lft.to/lastmile_qr_scan", "android": "https://dc.lft.to/lastmile_qr_scan"}, "is_reserved": 0, "lon": -77.01074583333333, "fusion_lat": 0.0, "name": "1113f9ca9194244bd7c841c976bbae2d"}, {"type": "electric_scooter", "fusion_lon": 0.0, "bike_id": "0e8ce6bddc83bbfb16757241f22f9ac6", "is_disabled": 0, "lat": 38.94197316666666, "rental_uris": {"ios": "https://dc.lft.to/lastmile_qr_scan", "android": "https://dc.lft.to/lastmile_qr_scan"}, "is_reserved": 0, "lon": -77.0243645, "fusion_lat": 0.0, "name": "0e8ce6bddc83bbfb16757241f22f9ac6"}, {"type": "electric_bike", "fusion_lon": 0.0, "bike_id": "cc74cdc9907635009afbd82332bc8a36", "is_disabled": 0, "lat": 38.90405116666667, "rental_uris": {"ios": "https://dc.lft.to/lastmile_qr_scan", "android": "https://dc.lft.to/lastmile_qr_scan"}, "is_reserved": 0, "lon": -77.06505533333333, "fusion_lat": 0.0, "name": "cc74cdc9907635009afbd82332bc8a36"}, {"type": "electric_scooter", "fusion_lon": 0.0, "bike_id": "e630e4c693c6e7c0209b5f8f997b8f09", "is_disabled": 0, "lat": 38.918856, "rental_uris": {"ios": "https://dc.lft.to/lastmile_qr_scan", "android": "https://dc.lft.to/lastmile_qr_scan"}, "is_reserved": 0, "lon": -77.0243645, "fusion_lat": 0.0, "name": "e630e4c693c6e7c0209b5f8f997b8f09"}, {"type": "electric_scooter", "fusion_lon": 0.0, "bike_id": "da576af9e770195122427e675b5f552c", "is_disabled": 0, "lat": 38.910503, "rental_uris": {"ios": "https://dc.lft.to/lastmile_qr_scan", "android": "https://dc.lft.to/lastmile_qr_scan"}, "is_reserved": 0, "lon": -77.01993066666667, "fusion_lat": 0.0, "name": "da576af9e770195122427e675b5f552c"}, {"type": "electric_scooter", "fusion_lon": 0.0, "bike_id": "eab7694d8a3518a40a879a005aa4daf9", "is_disabled": 0, "lat": 38.91465183333333, "rental_uris": {"ios": "https://dc.lft.to/lastmile_qr_scan", "android": "https://dc.lft.to/lastmile_qr_scan"}, "is_reserved": 0, "lon": -77.038462, "fusion_lat": 0.0, "name": "eab7694d8a3518a40a879a005aa4daf9"}, {"type": "electric_bike", "fusion_lon": 0.0, "bike_id": "3808401a4b877845156c6da482a3baab", "is_disabled": 0, "lat": 38.81333683333333, "rental_uris": {"ios": "https://dc.lft.to/lastmile_qr_scan", "android": "https://dc.lft.to/lastmile_qr_scan"}, "is_reserved": 0, "lon": -77.05114166666667, "fusion_lat": 0.0, "name": "3808401a4b877845156c6da482a3baab"}, {"type": "electric_scooter", "fusion_lon": 0.0, "bike_id": "e293829cf9bcca338112e755cdff5711", "is_disabled": 0, "lat": 38.907561, "rental_uris": {"ios": "https://dc.lft.to/lastmile_qr_scan", "android": "https://dc.lft.to/lastmile_qr_scan"}, "is_reserved": 0, "lon": -77.02299316666667, "fusion_lat": 0.0, "name": "e293829cf9bcca338112e755cdff5711"}, {"type": "electric_scooter", "fusion_lon": 0.0, "bike_id": "86d174f0a1b184f135bcf88c4a7bc18e", "is_disabled": 0, "lat": 38.90991533333333, "rental_uris": {"ios": "https://dc.lft.to/lastmile_qr_scan", "android": "https://dc.lft.to/lastmile_qr_scan"}, "is_reserved": 0, "lon": -76.99452433333333, "fusion_lat": 0.0, "name": "86d174f0a1b184f135bcf88c4a7bc18e"}, {"type": "electric_scooter", "fusion_lon": 0.0, "bike_id": "31ad450f6e4e7423fffa93dc730ba7d4", "is_disabled": 0, "lat": 38.9014455, "rental_uris": {"ios": "https://dc.lft.to/lastmile_qr_scan", "android": "https://dc.lft.to/lastmile_qr_scan"}, "is_reserved": 0, "lon": -77.04024333333334, "fusion_lat": 0.0, "name": "31ad450f6e4e7423fffa93dc730ba7d4"}, {"type": "electric_scooter", "fusion_lon": 0.0, "bike_id": "b48572f02780de38453ad1c32c1b6879", "is_disabled": 0, "lat": 38.90234616666667, "rental_uris": {"ios": "https://dc.lft.to/lastmile_qr_scan", "android": "https://dc.lft.to/lastmile_qr_scan"}, "is_reserved": 0, "lon": -77.00205833333334, "fusion_lat": 0.0, "name": "b48572f02780de38453ad1c32c1b6879"}, {"type": "electric_scooter", "fusion_lon": 0.0, "bike_id": "f9993fcfab97a89ef12657b2d83eca21", "is_disabled": 0, "lat": 38.8960785, "rental_uris": {"ios": "https://dc.lft.to/lastmile_qr_scan", "android": "https://dc.lft.to/lastmile_qr_scan"}, "is_reserved": 0, "lon": -77.04412066666667, "fusion_lat": 0.0, "name": "f9993fcfab97a89ef12657b2d83eca21"}, {"type": "electric_scooter", "fusion_lon": 0.0, "bike_id": "b473d03120ebfffd0d2a65109a54d60e", "is_disabled": 0, "lat": 38.92341716666667, "rental_uris": {"ios": "https://dc.lft.to/lastmile_qr_scan", "android": "https://dc.lft.to/lastmile_qr_scan"}, "is_reserved": 0, "lon": -77.051711, "fusion_lat": 0.0, "name": "b473d03120ebfffd0d2a65109a54d60e"}, {"type": "electric_scooter", "fusion_lon": 0.0, "bike_id": "1ced37f66dca738ea7a0c9c93b70dc54", "is_disabled": 0, "lat": 38.89670666666667, "rental_uris": {"ios": "https://dc.lft.to/lastmile_qr_scan", "android": "https://dc.lft.to/lastmile_qr_scan"}, "is_reserved": 0, "lon": -77.01960083333333, "fusion_lat": 0.0, "name": "1ced37f66dca738ea7a0c9c93b70dc54"}, {"type": "electric_scooter", "fusion_lon": 0.0, "bike_id": "658539992c4714bbe89a8a6282431b06", "is_disabled": 0, "lat": 38.94213166666667, "rental_uris": {"ios": "https://dc.lft.to/lastmile_qr_scan", "android": "https://dc.lft.to/lastmile_qr_scan"}, "is_reserved": 0, "lon": -77.01353266666666, "fusion_lat": 0.0, "name": "658539992c4714bbe89a8a6282431b06"}, {"type": "electric_scooter", "fusion_lon": 0.0, "bike_id": "1695c38352826baf23cddf7471893811", "is_disabled": 0, "lat": 38.89441383333333, "rental_uris": {"ios": "https://dc.lft.to/lastmile_qr_scan", "android": "https://dc.lft.to/lastmile_qr_scan"}, "is_reserved": 0, "lon": -77.010747, "fusion_lat": 0.0, "name": "1695c38352826baf23cddf7471893811"}, {"type": "electric_scooter", "fusion_lon": 0.0, "bike_id": "7faf33b089ba6dd65ebbfb69bbcd5fc8", "is_disabled": 0, "lat": 38.92260733333333, "rental_uris": {"ios": "https://dc.lft.to/lastmile_qr_scan", "android": "https://dc.lft.to/lastmile_qr_scan"}, "is_reserved": 0, "lon": -77.01946116666667, "fusion_lat": 0.0, "name": "7faf33b089ba6dd65ebbfb69bbcd5fc8"}, {"type": "electric_scooter", "fusion_lon": 0.0, "bike_id": "1137be9f7f9ee45bdae11b8c2a59b53b", "is_disabled": 0, "lat": 38.908117, "rental_uris": {"ios": "https://dc.lft.to/lastmile_qr_scan", "android": "https://dc.lft.to/lastmile_qr_scan"}, "is_reserved": 0, "lon": -77.03856866666666, "fusion_lat": 0.0, "name": "1137be9f7f9ee45bdae11b8c2a59b53b"}, {"type": "electric_scooter", "fusion_lon": 0.0, "bike_id": "0e101f5a18a01f2cfdafe6aa76def098", "is_disabled": 0, "lat": 38.884921166666665, "rental_uris": {"ios": "https://dc.lft.to/lastmile_qr_scan", "android": "https://dc.lft.to/lastmile_qr_scan"}, "is_reserved": 0, "lon": -77.00710166666667, "fusion_lat": 0.0, "name": "0e101f5a18a01f2cfdafe6aa76def098"}, {"type": "electric_scooter", "fusion_lon": 0.0, "bike_id": "8aaa7ffa6b04be8d1b7e83a50051e4d9", "is_disabled": 0, "lat": 38.896554333333334, "rental_uris": {"ios": "https://dc.lft.to/lastmile_qr_scan", "android": "https://dc.lft.to/lastmile_qr_scan"}, "is_reserved": 0, "lon": -77.02724233333333, "fusion_lat": 0.0, "name": "8aaa7ffa6b04be8d1b7e83a50051e4d9"}, {"type": "electric_scooter", "fusion_lon": 0.0, "bike_id": "50f7c0f11e32d1c9e72d3f62f195b512", "is_disabled": 0, "lat": 38.89674733333333, "rental_uris": {"ios": "https://dc.lft.to/lastmile_qr_scan", "android": "https://dc.lft.to/lastmile_qr_scan"}, "is_reserved": 0, "lon": -77.00518166666667, "fusion_lat": 0.0, "name": "50f7c0f11e32d1c9e72d3f62f195b512"}, {"type": "electric_bike", "fusion_lon": 0.0, "bike_id": "e5d4d75126799380d8f17368c82071e5", "is_disabled": 0, "lat": 38.97251, "rental_uris": {"ios": "https://dc.lft.to/lastmile_qr_scan", "android": "https://dc.lft.to/lastmile_qr_scan"}, "is_reserved": 0, "lon": -76.98058266666666, "fusion_lat": 0.0, "name": "e5d4d75126799380d8f17368c82071e5"}, {"type": "electric_bike", "fusion_lon": 0.0, "bike_id": "9fc6e9049c996d852e435f20d4912fd7", "is_disabled": 0, "lat": 38.900030666666666, "rental_uris": {"ios": "https://dc.lft.to/lastmile_qr_scan", "android": "https://dc.lft.to/lastmile_qr_scan"}, "is_reserved": 0, "lon": -77.00544416666666, "fusion_lat": 0.0, "name": "9fc6e9049c996d852e435f20d4912fd7"}, {"type": "electric_scooter", "fusion_lon": 0.0, "bike_id": "a97b73cf6505ff0139208774581f6793", "is_disabled": 0, "lat": 38.924564333333336, "rental_uris": {"ios": "https://dc.lft.to/lastmile_qr_scan", "android": "https://dc.lft.to/lastmile_qr_scan"}, "is_reserved": 0, "lon": -77.03285216666667, "fusion_lat": 0.0, "name": "a97b73cf6505ff0139208774581f6793"}, {"type": "electric_scooter", "fusion_lon": 0.0, "bike_id": "b5b2daf7e3499ef53a443cd5a38970be", "is_disabled": 0, "lat": 38.903671, "rental_uris": {"ios": "https://dc.lft.to/lastmile_qr_scan", "android": "https://dc.lft.to/lastmile_qr_scan"}, "is_reserved": 0, "lon": -77.03995016666667, "fusion_lat": 0.0, "name": "b5b2daf7e3499ef53a443cd5a38970be"}, {"type": "electric_scooter", "fusion_lon": 0.0, "bike_id": "1bc41d53e81eee5ca48e4e583dc191d3", "is_disabled": 0, "lat": 38.90273233333333, "rental_uris": {"ios": "https://dc.lft.to/lastmile_qr_scan", "android": "https://dc.lft.to/lastmile_qr_scan"}, "is_reserved": 0, "lon": -77.03859016666667, "fusion_lat": 0.0, "name": "1bc41d53e81eee5ca48e4e583dc191d3"}, {"type": "electric_scooter", "fusion_lon": 0.0, "bike_id": "6a7bb28dddcba3810ae9275c434cc21b", "is_disabled": 0, "lat": 38.892559, "rental_uris": {"ios": "https://dc.lft.to/lastmile_qr_scan", "android": "https://dc.lft.to/lastmile_qr_scan"}, "is_reserved": 0, "lon": -77.02206283333334, "fusion_lat": 0.0, "name": "6a7bb28dddcba3810ae9275c434cc21b"}, {"type": "electric_scooter", "fusion_lon": 0.0, "bike_id": "d56ea96a88958bf0c535f331eec71cfb", "is_disabled": 0, "lat": 38.89978416666667, "rental_uris": {"ios": "https://dc.lft.to/lastmile_qr_scan", "android": "https://dc.lft.to/lastmile_qr_scan"}, "is_reserved": 0, "lon": -77.044933, "fusion_lat": 0.0, "name": "d56ea96a88958bf0c535f331eec71cfb"}, {"type": "electric_scooter", "fusion_lon": 0.0, "bike_id": "a77ded37fc103dee22cfe973e61bcc6f", "is_disabled": 0, "lat": 38.913387166666666, "rental_uris": {"ios": "https://dc.lft.to/lastmile_qr_scan", "android": "https://dc.lft.to/lastmile_qr_scan"}, "is_reserved": 0, "lon": -77.06320333333333, "fusion_lat": 0.0, "name": "a77ded37fc103dee22cfe973e61bcc6f"}, {"type": "electric_scooter", "fusion_lon": 0.0, "bike_id": "727a9dfef253c56d424ab730c6b963a5", "is_disabled": 0, "lat": 38.90855483333333, "rental_uris": {"ios": "https://dc.lft.to/lastmile_qr_scan", "android": "https://dc.lft.to/lastmile_qr_scan"}, "is_reserved": 0, "lon": -77.0350085, "fusion_lat": 0.0, "name": "727a9dfef253c56d424ab730c6b963a5"}, {"type": "electric_bike", "fusion_lon": 0.0, "bike_id": "52796d6cf43808e41e4e34711dda8467", "is_disabled": 0, "lat": 38.83101883333333, "rental_uris": {"ios": "https://dc.lft.to/lastmile_qr_scan", "android": "https://dc.lft.to/lastmile_qr_scan"}, "is_reserved": 0, "lon": -77.11284516666667, "fusion_lat": 0.0, "name": "52796d6cf43808e41e4e34711dda8467"}, {"type": "electric_scooter", "fusion_lon": 0.0, "bike_id": "4c7dea3ba8571bb5cf92e0daf6ebf169", "is_disabled": 0, "lat": 38.92898133333333, "rental_uris": {"ios": "https://dc.lft.to/lastmile_qr_scan", "android": "https://dc.lft.to/lastmile_qr_scan"}, "is_reserved": 0, "lon": -77.0580625, "fusion_lat": 0.0, "name": "4c7dea3ba8571bb5cf92e0daf6ebf169"}, {"type": "electric_scooter", "fusion_lon": 0.0, "bike_id": "86e526ae219736c72f07c4d3b2fbed2a", "is_disabled": 0, "lat": 38.91346683333333, "rental_uris": {"ios": "https://dc.lft.to/lastmile_qr_scan", "android": "https://dc.lft.to/lastmile_qr_scan"}, "is_reserved": 0, "lon": -77.029474, "fusion_lat": 0.0, "name": "86e526ae219736c72f07c4d3b2fbed2a"}, {"type": "electric_scooter", "fusion_lon": 0.0, "bike_id": "b076a9996617271a452dff1ba186efbf", "is_disabled": 0, "lat": 38.917756833333335, "rental_uris": {"ios": "https://dc.lft.to/lastmile_qr_scan", "android": "https://dc.lft.to/lastmile_qr_scan"}, "is_reserved": 0, "lon": -77.02300516666666, "fusion_lat": 0.0, "name": "b076a9996617271a452dff1ba186efbf"}, {"type": "electric_scooter", "fusion_lon": 0.0, "bike_id": "b91325572f0fe47a32c77a9698607c68", "is_disabled": 0, "lat": 38.926716, "rental_uris": {"ios": "https://dc.lft.to/lastmile_qr_scan", "android": "https://dc.lft.to/lastmile_qr_scan"}, "is_reserved": 0, "lon": -77.02113866666667, "fusion_lat": 0.0, "name": "b91325572f0fe47a32c77a9698607c68"}, {"type": "electric_scooter", "fusion_lon": 0.0, "bike_id": "34377bb58b4ef341aa062effba4386bd", "is_disabled": 0, "lat": 38.9353225, "rental_uris": {"ios": "https://dc.lft.to/lastmile_qr_scan", "android": "https://dc.lft.to/lastmile_qr_scan"}, "is_reserved": 0, "lon": -77.0285445, "fusion_lat": 0.0, "name": "34377bb58b4ef341aa062effba4386bd"}, {"type": "electric_scooter", "fusion_lon": 0.0, "bike_id": "02e0859f9503242ff8d9e902c399de1a", "is_disabled": 0, "lat": 38.925783833333334, "rental_uris": {"ios": "https://dc.lft.to/lastmile_qr_scan", "android": "https://dc.lft.to/lastmile_qr_scan"}, "is_reserved": 0, "lon": -77.026059, "fusion_lat": 0.0, "name": "02e0859f9503242ff8d9e902c399de1a"}, {"type": "electric_scooter", "fusion_lon": 0.0, "bike_id": "e86460b9efbe7e8e957824f87bd84568", "is_disabled": 0, "lat": 38.9432835, "rental_uris": {"ios": "https://dc.lft.to/lastmile_qr_scan", "android": "https://dc.lft.to/lastmile_qr_scan"}, "is_reserved": 0, "lon": -77.0611875, "fusion_lat": 0.0, "name": "e86460b9efbe7e8e957824f87bd84568"}, {"type": "electric_scooter", "fusion_lon": 0.0, "bike_id": "e06404630ec94be204737f549795e80c", "is_disabled": 0, "lat": 38.91120983333333, "rental_uris": {"ios": "https://dc.lft.to/lastmile_qr_scan", "android": "https://dc.lft.to/lastmile_qr_scan"}, "is_reserved": 0, "lon": -77.03831983333333, "fusion_lat": 0.0, "name": "e06404630ec94be204737f549795e80c"}, {"type": "electric_scooter", "fusion_lon": 0.0, "bike_id": "f112aa764f201d4debf07c7b4ecde6b6", "is_disabled": 0, "lat": 38.9078175, "rental_uris": {"ios": "https://dc.lft.to/lastmile_qr_scan", "android": "https://dc.lft.to/lastmile_qr_scan"}, "is_reserved": 0, "lon": -77.07244616666667, "fusion_lat": 0.0, "name": "f112aa764f201d4debf07c7b4ecde6b6"}, {"type": "electric_scooter", "fusion_lon": 0.0, "bike_id": "ffa65aab08c1c59853b947b07aa95fbe", "is_disabled": 0, "lat": 38.921066, "rental_uris": {"ios": "https://dc.lft.to/lastmile_qr_scan", "android": "https://dc.lft.to/lastmile_qr_scan"}, "is_reserved": 0, "lon": -77.02519116666667, "fusion_lat": 0.0, "name": "ffa65aab08c1c59853b947b07aa95fbe"}, {"type": "electric_scooter", "fusion_lon": 0.0, "bike_id": "287e7a5c608070e8d9a467326c92f746", "is_disabled": 0, "lat": 38.9073085, "rental_uris": {"ios": "https://dc.lft.to/lastmile_qr_scan", "android": "https://dc.lft.to/lastmile_qr_scan"}, "is_reserved": 0, "lon": -77.0433595, "fusion_lat": 0.0, "name": "287e7a5c608070e8d9a467326c92f746"}, {"type": "electric_scooter", "fusion_lon": 0.0, "bike_id": "897f44de1b4746ea4236731349ff7032", "is_disabled": 0, "lat": 38.9286425, "rental_uris": {"ios": "https://dc.lft.to/lastmile_qr_scan", "android": "https://dc.lft.to/lastmile_qr_scan"}, "is_reserved": 0, "lon": -77.037403, "fusion_lat": 0.0, "name": "897f44de1b4746ea4236731349ff7032"}, {"type": "electric_scooter", "fusion_lon": 0.0, "bike_id": "34f2b50423a5bf581e09ee8003e2665f", "is_disabled": 0, "lat": 38.893638833333334, "rental_uris": {"ios": "https://dc.lft.to/lastmile_qr_scan", "android": "https://dc.lft.to/lastmile_qr_scan"}, "is_reserved": 0, "lon": -76.99753783333334, "fusion_lat": 0.0, "name": "34f2b50423a5bf581e09ee8003e2665f"}, {"type": "electric_scooter", "fusion_lon": 0.0, "bike_id": "43d74ec551d86671393eda1060f85d9d", "is_disabled": 0, "lat": 38.86213583333333, "rental_uris": {"ios": "https://dc.lft.to/lastmile_qr_scan", "android": "https://dc.lft.to/lastmile_qr_scan"}, "is_reserved": 0, "lon": -76.99477366666666, "fusion_lat": 0.0, "name": "43d74ec551d86671393eda1060f85d9d"}, {"type": "electric_scooter", "fusion_lon": 0.0, "bike_id": "586db09c799c7922e05fd7b0c0716fd2", "is_disabled": 0, "lat": 38.9191645, "rental_uris": {"ios": "https://dc.lft.to/lastmile_qr_scan", "android": "https://dc.lft.to/lastmile_qr_scan"}, "is_reserved": 0, "lon": -77.0190145, "fusion_lat": 0.0, "name": "586db09c799c7922e05fd7b0c0716fd2"}, {"type": "electric_scooter", "fusion_lon": 0.0, "bike_id": "e20a90a20ae23c0ab5d82482154f3198", "is_disabled": 0, "lat": 38.931935, "rental_uris": {"ios": "https://dc.lft.to/lastmile_qr_scan", "android": "https://dc.lft.to/lastmile_qr_scan"}, "is_reserved": 0, "lon": -77.02964016666667, "fusion_lat": 0.0, "name": "e20a90a20ae23c0ab5d82482154f3198"}, {"type": "electric_scooter", "fusion_lon": 0.0, "bike_id": "1d6bd4148995b92cd08b9c3cc63ecd9d", "is_disabled": 0, "lat": 38.88957966666667, "rental_uris": {"ios": "https://dc.lft.to/lastmile_qr_scan", "android": "https://dc.lft.to/lastmile_qr_scan"}, "is_reserved": 0, "lon": -76.98080516666667, "fusion_lat": 0.0, "name": "1d6bd4148995b92cd08b9c3cc63ecd9d"}, {"type": "electric_scooter", "fusion_lon": 0.0, "bike_id": "5d2183feb11f00f1d02575e275dfcfcc", "is_disabled": 0, "lat": 38.912424666666666, "rental_uris": {"ios": "https://dc.lft.to/lastmile_qr_scan", "android": "https://dc.lft.to/lastmile_qr_scan"}, "is_reserved": 0, "lon": -77.06284666666667, "fusion_lat": 0.0, "name": "5d2183feb11f00f1d02575e275dfcfcc"}, {"type": "electric_scooter", "fusion_lon": 0.0, "bike_id": "86040a1b864c0b80721e6bfda23ea2fb", "is_disabled": 0, "lat": 38.87663333333333, "rental_uris": {"ios": "https://dc.lft.to/lastmile_qr_scan", "android": "https://dc.lft.to/lastmile_qr_scan"}, "is_reserved": 0, "lon": -77.00468583333334, "fusion_lat": 0.0, "name": "86040a1b864c0b80721e6bfda23ea2fb"}, {"type": "electric_scooter", "fusion_lon": 0.0, "bike_id": "47b334f4e9e3a5f2feacdc11b160e673", "is_disabled": 0, "lat": 38.90235333333333, "rental_uris": {"ios": "https://dc.lft.to/lastmile_qr_scan", "android": "https://dc.lft.to/lastmile_qr_scan"}, "is_reserved": 0, "lon": -77.00208866666667, "fusion_lat": 0.0, "name": "47b334f4e9e3a5f2feacdc11b160e673"}, {"type": "electric_scooter", "fusion_lon": 0.0, "bike_id": "99d4541e2088cdfc307622d91cfc62ff", "is_disabled": 0, "lat": 38.9246305, "rental_uris": {"ios": "https://dc.lft.to/lastmile_qr_scan", "android": "https://dc.lft.to/lastmile_qr_scan"}, "is_reserved": 0, "lon": -77.027135, "fusion_lat": 0.0, "name": "99d4541e2088cdfc307622d91cfc62ff"}, {"type": "electric_scooter", "fusion_lon": 0.0, "bike_id": "47d9a47d10ebef20accce6851e356b45", "is_disabled": 0, "lat": 38.9056035, "rental_uris": {"ios": "https://dc.lft.to/lastmile_qr_scan", "android": "https://dc.lft.to/lastmile_qr_scan"}, "is_reserved": 0, "lon": -77.02212333333334, "fusion_lat": 0.0, "name": "47d9a47d10ebef20accce6851e356b45"}, {"type": "electric_scooter", "fusion_lon": 0.0, "bike_id": "159ccc576bd8327ecefd2cf648a40026", "is_disabled": 0, "lat": 38.927413666666666, "rental_uris": {"ios": "https://dc.lft.to/lastmile_qr_scan", "android": "https://dc.lft.to/lastmile_qr_scan"}, "is_reserved": 0, "lon": -77.02530933333334, "fusion_lat": 0.0, "name": "159ccc576bd8327ecefd2cf648a40026"}, {"type": "electric_scooter", "fusion_lon": 0.0, "bike_id": "163913793079407fdee06d63180b04cb", "is_disabled": 0, "lat": 38.92045866666667, "rental_uris": {"ios": "https://dc.lft.to/lastmile_qr_scan", "android": "https://dc.lft.to/lastmile_qr_scan"}, "is_reserved": 0, "lon": -77.0167125, "fusion_lat": 0.0, "name": "163913793079407fdee06d63180b04cb"}, {"type": "electric_scooter", "fusion_lon": 0.0, "bike_id": "ebcbd7109fdd2c754f5ebb19fc55e5a8", "is_disabled": 0, "lat": 38.904097166666666, "rental_uris": {"ios": "https://dc.lft.to/lastmile_qr_scan", "android": "https://dc.lft.to/lastmile_qr_scan"}, "is_reserved": 0, "lon": -76.9733165, "fusion_lat": 0.0, "name": "ebcbd7109fdd2c754f5ebb19fc55e5a8"}, {"type": "electric_scooter", "fusion_lon": 0.0, "bike_id": "d3f41d27b274c74a01e4dacaa0760e9d", "is_disabled": 0, "lat": 38.904381, "rental_uris": {"ios": "https://dc.lft.to/lastmile_qr_scan", "android": "https://dc.lft.to/lastmile_qr_scan"}, "is_reserved": 0, "lon": -77.03459916666667, "fusion_lat": 0.0, "name": "d3f41d27b274c74a01e4dacaa0760e9d"}, {"type": "electric_scooter", "fusion_lon": 0.0, "bike_id": "094956a352d67d4a131ba754f4ac34bf", "is_disabled": 0, "lat": 38.88340483333333, "rental_uris": {"ios": "https://dc.lft.to/lastmile_qr_scan", "android": "https://dc.lft.to/lastmile_qr_scan"}, "is_reserved": 0, "lon": -76.93496283333333, "fusion_lat": 0.0, "name": "094956a352d67d4a131ba754f4ac34bf"}, {"type": "electric_scooter", "fusion_lon": 0.0, "bike_id": "0ac494315f0bc71a10333fb5b3415560", "is_disabled": 0, "lat": 38.90140983333333, "rental_uris": {"ios": "https://dc.lft.to/lastmile_qr_scan", "android": "https://dc.lft.to/lastmile_qr_scan"}, "is_reserved": 0, "lon": -77.044068, "fusion_lat": 0.0, "name": "0ac494315f0bc71a10333fb5b3415560"}, {"type": "electric_scooter", "fusion_lon": 0.0, "bike_id": "5fd4a9dfe596b3af16a844b5113023fe", "is_disabled": 0, "lat": 38.909019, "rental_uris": {"ios": "https://dc.lft.to/lastmile_qr_scan", "android": "https://dc.lft.to/lastmile_qr_scan"}, "is_reserved": 0, "lon": -77.07268, "fusion_lat": 0.0, "name": "5fd4a9dfe596b3af16a844b5113023fe"}, {"type": "electric_scooter", "fusion_lon": 0.0, "bike_id": "da47386e90693ced01764e25105e482c", "is_disabled": 0, "lat": 38.91891483333333, "rental_uris": {"ios": "https://dc.lft.to/lastmile_qr_scan", "android": "https://dc.lft.to/lastmile_qr_scan"}, "is_reserved": 0, "lon": -77.03820483333334, "fusion_lat": 0.0, "name": "da47386e90693ced01764e25105e482c"}, {"type": "electric_scooter", "fusion_lon": 0.0, "bike_id": "1d004d98a2073d46a927a2897ddeb145", "is_disabled": 0, "lat": 38.8922595, "rental_uris": {"ios": "https://dc.lft.to/lastmile_qr_scan", "android": "https://dc.lft.to/lastmile_qr_scan"}, "is_reserved": 0, "lon": -77.05000883333334, "fusion_lat": 0.0, "name": "1d004d98a2073d46a927a2897ddeb145"}, {"type": "electric_scooter", "fusion_lon": 0.0, "bike_id": "828ed26b0068f331c000580b228442ae", "is_disabled": 0, "lat": 38.9228695, "rental_uris": {"ios": "https://dc.lft.to/lastmile_qr_scan", "android": "https://dc.lft.to/lastmile_qr_scan"}, "is_reserved": 0, "lon": -77.03659966666666, "fusion_lat": 0.0, "name": "828ed26b0068f331c000580b228442ae"}, {"type": "electric_scooter", "fusion_lon": 0.0, "bike_id": "40fde98f519d154e54e1567d653aa229", "is_disabled": 0, "lat": 38.884080166666664, "rental_uris": {"ios": "https://dc.lft.to/lastmile_qr_scan", "android": "https://dc.lft.to/lastmile_qr_scan"}, "is_reserved": 0, "lon": -77.004487, "fusion_lat": 0.0, "name": "40fde98f519d154e54e1567d653aa229"}, {"type": "electric_scooter", "fusion_lon": 0.0, "bike_id": "828312001dffe64e5e38fcd03ba25bf9", "is_disabled": 0, "lat": 38.894770333333334, "rental_uris": {"ios": "https://dc.lft.to/lastmile_qr_scan", "android": "https://dc.lft.to/lastmile_qr_scan"}, "is_reserved": 0, "lon": -77.01090166666667, "fusion_lat": 0.0, "name": "828312001dffe64e5e38fcd03ba25bf9"}, {"type": "electric_scooter", "fusion_lon": 0.0, "bike_id": "12dabe65bba1c299974b2464917d9521", "is_disabled": 0, "lat": 38.922519666666666, "rental_uris": {"ios": "https://dc.lft.to/lastmile_qr_scan", "android": "https://dc.lft.to/lastmile_qr_scan"}, "is_reserved": 0, "lon": -77.03401566666666, "fusion_lat": 0.0, "name": "12dabe65bba1c299974b2464917d9521"}, {"type": "electric_bike", "fusion_lon": 0.0, "bike_id": "31bf69451540dd9b6cfeea07cd515de9", "is_disabled": 0, "lat": 38.8408825, "rental_uris": {"ios": "https://dc.lft.to/lastmile_qr_scan", "android": "https://dc.lft.to/lastmile_qr_scan"}, "is_reserved": 0, "lon": -77.08933466666667, "fusion_lat": 0.0, "name": "31bf69451540dd9b6cfeea07cd515de9"}, {"type": "electric_scooter", "fusion_lon": 0.0, "bike_id": "b371b3b045809c691822a2d0863201b7", "is_disabled": 0, "lat": 38.934688666666666, "rental_uris": {"ios": "https://dc.lft.to/lastmile_qr_scan", "android": "https://dc.lft.to/lastmile_qr_scan"}, "is_reserved": 0, "lon": -77.04110216666666, "fusion_lat": 0.0, "name": "b371b3b045809c691822a2d0863201b7"}, {"type": "electric_scooter", "fusion_lon": 0.0, "bike_id": "e4c82494f7c969aaa5cb87cfecfb38dd", "is_disabled": 0, "lat": 38.887390333333336, "rental_uris": {"ios": "https://dc.lft.to/lastmile_qr_scan", "android": "https://dc.lft.to/lastmile_qr_scan"}, "is_reserved": 0, "lon": -77.02205533333333, "fusion_lat": 0.0, "name": "e4c82494f7c969aaa5cb87cfecfb38dd"}, {"type": "electric_scooter", "fusion_lon": 0.0, "bike_id": "b00916ba54b54662d31599f68be026d0", "is_disabled": 0, "lat": 38.919640333333334, "rental_uris": {"ios": "https://dc.lft.to/lastmile_qr_scan", "android": "https://dc.lft.to/lastmile_qr_scan"}, "is_reserved": 0, "lon": -77.01839916666667, "fusion_lat": 0.0, "name": "b00916ba54b54662d31599f68be026d0"}, {"type": "electric_scooter", "fusion_lon": 0.0, "bike_id": "d371fcad851b06195731c3624274b3f0", "is_disabled": 0, "lat": 38.923229666666664, "rental_uris": {"ios": "https://dc.lft.to/lastmile_qr_scan", "android": "https://dc.lft.to/lastmile_qr_scan"}, "is_reserved": 0, "lon": -77.01962916666666, "fusion_lat": 0.0, "name": "d371fcad851b06195731c3624274b3f0"}, {"type": "electric_scooter", "fusion_lon": 0.0, "bike_id": "3470a673051b2d3c74350320fcd6950f", "is_disabled": 0, "lat": 38.906885333333335, "rental_uris": {"ios": "https://dc.lft.to/lastmile_qr_scan", "android": "https://dc.lft.to/lastmile_qr_scan"}, "is_reserved": 0, "lon": -77.06139316666666, "fusion_lat": 0.0, "name": "3470a673051b2d3c74350320fcd6950f"}, {"type": "electric_scooter", "fusion_lon": 0.0, "bike_id": "e27b67563b50a96772202c7fba5040ee", "is_disabled": 0, "lat": 38.924088166666664, "rental_uris": {"ios": "https://dc.lft.to/lastmile_qr_scan", "android": "https://dc.lft.to/lastmile_qr_scan"}, "is_reserved": 0, "lon": -77.0575395, "fusion_lat": 0.0, "name": "e27b67563b50a96772202c7fba5040ee"}, {"type": "electric_scooter", "fusion_lon": 0.0, "bike_id": "2f090824e92ed02b8a6476a5b9bd7ab1", "is_disabled": 0, "lat": 38.91948566666667, "rental_uris": {"ios": "https://dc.lft.to/lastmile_qr_scan", "android": "https://dc.lft.to/lastmile_qr_scan"}, "is_reserved": 0, "lon": -77.017845, "fusion_lat": 0.0, "name": "2f090824e92ed02b8a6476a5b9bd7ab1"}, {"type": "electric_scooter", "fusion_lon": 0.0, "bike_id": "7e74098d6a9e8fa1bb40df1395742e6e", "is_disabled": 0, "lat": 38.90560983333334, "rental_uris": {"ios": "https://dc.lft.to/lastmile_qr_scan", "android": "https://dc.lft.to/lastmile_qr_scan"}, "is_reserved": 0, "lon": -77.005828, "fusion_lat": 0.0, "name": "7e74098d6a9e8fa1bb40df1395742e6e"}, {"type": "electric_scooter", "fusion_lon": 0.0, "bike_id": "43c278488e14c8b2e9741c9c45d15d06", "is_disabled": 0, "lat": 38.9054875, "rental_uris": {"ios": "https://dc.lft.to/lastmile_qr_scan", "android": "https://dc.lft.to/lastmile_qr_scan"}, "is_reserved": 0, "lon": -77.04734516666667, "fusion_lat": 0.0, "name": "43c278488e14c8b2e9741c9c45d15d06"}, {"type": "electric_scooter", "fusion_lon": 0.0, "bike_id": "f091304193d901a1e403f76fad788304", "is_disabled": 0, "lat": 38.91678866666667, "rental_uris": {"ios": "https://dc.lft.to/lastmile_qr_scan", "android": "https://dc.lft.to/lastmile_qr_scan"}, "is_reserved": 0, "lon": -76.98032916666666, "fusion_lat": 0.0, "name": "f091304193d901a1e403f76fad788304"}, {"type": "electric_scooter", "fusion_lon": 0.0, "bike_id": "d0b244098538431c4e5fb9d2469122a3", "is_disabled": 0, "lat": 38.93618216666667, "rental_uris": {"ios": "https://dc.lft.to/lastmile_qr_scan", "android": "https://dc.lft.to/lastmile_qr_scan"}, "is_reserved": 0, "lon": -77.03798116666667, "fusion_lat": 0.0, "name": "d0b244098538431c4e5fb9d2469122a3"}, {"type": "electric_scooter", "fusion_lon": 0.0, "bike_id": "ba51a3babff1935eb33dfd32e7fd6ec7", "is_disabled": 0, "lat": 38.9279355, "rental_uris": {"ios": "https://dc.lft.to/lastmile_qr_scan", "android": "https://dc.lft.to/lastmile_qr_scan"}, "is_reserved": 0, "lon": -77.03695133333333, "fusion_lat": 0.0, "name": "ba51a3babff1935eb33dfd32e7fd6ec7"}, {"type": "electric_scooter", "fusion_lon": 0.0, "bike_id": "532afeff7228cf62e3490257a8308991", "is_disabled": 0, "lat": 38.95708366666667, "rental_uris": {"ios": "https://dc.lft.to/lastmile_qr_scan", "android": "https://dc.lft.to/lastmile_qr_scan"}, "is_reserved": 0, "lon": -77.024004, "fusion_lat": 0.0, "name": "532afeff7228cf62e3490257a8308991"}, {"type": "electric_scooter", "fusion_lon": 0.0, "bike_id": "7bd9fabe816c9af533c79715d5168c53", "is_disabled": 0, "lat": 38.8980375, "rental_uris": {"ios": "https://dc.lft.to/lastmile_qr_scan", "android": "https://dc.lft.to/lastmile_qr_scan"}, "is_reserved": 0, "lon": -77.02936866666667, "fusion_lat": 0.0, "name": "7bd9fabe816c9af533c79715d5168c53"}, {"type": "electric_scooter", "fusion_lon": 0.0, "bike_id": "14c3104874f67ce604dbb559ac6da16e", "is_disabled": 0, "lat": 38.892210666666664, "rental_uris": {"ios": "https://dc.lft.to/lastmile_qr_scan", "android": "https://dc.lft.to/lastmile_qr_scan"}, "is_reserved": 0, "lon": -77.03166, "fusion_lat": 0.0, "name": "14c3104874f67ce604dbb559ac6da16e"}, {"type": "electric_scooter", "fusion_lon": 0.0, "bike_id": "3f8d4a1dc903fde90138eaa3aac90057", "is_disabled": 0, "lat": 38.92167233333333, "rental_uris": {"ios": "https://dc.lft.to/lastmile_qr_scan", "android": "https://dc.lft.to/lastmile_qr_scan"}, "is_reserved": 0, "lon": -77.03227416666667, "fusion_lat": 0.0, "name": "3f8d4a1dc903fde90138eaa3aac90057"}, {"type": "electric_scooter", "fusion_lon": 0.0, "bike_id": "a509d9d105b5dab5b51be4f4781f2a54", "is_disabled": 0, "lat": 38.926006, "rental_uris": {"ios": "https://dc.lft.to/lastmile_qr_scan", "android": "https://dc.lft.to/lastmile_qr_scan"}, "is_reserved": 0, "lon": -77.02152216666667, "fusion_lat": 0.0, "name": "a509d9d105b5dab5b51be4f4781f2a54"}, {"type": "electric_scooter", "fusion_lon": 0.0, "bike_id": "e2ebb5c3ee4dd6a96fe52d94f7a18d22", "is_disabled": 0, "lat": 38.95412116666667, "rental_uris": {"ios": "https://dc.lft.to/lastmile_qr_scan", "android": "https://dc.lft.to/lastmile_qr_scan"}, "is_reserved": 0, "lon": -77.0351835, "fusion_lat": 0.0, "name": "e2ebb5c3ee4dd6a96fe52d94f7a18d22"}, {"type": "electric_scooter", "fusion_lon": 0.0, "bike_id": "0f577516bb2841a595395cefd8ddc05c", "is_disabled": 0, "lat": 38.87657383333333, "rental_uris": {"ios": "https://dc.lft.to/lastmile_qr_scan", "android": "https://dc.lft.to/lastmile_qr_scan"}, "is_reserved": 0, "lon": -77.00062583333333, "fusion_lat": 0.0, "name": "0f577516bb2841a595395cefd8ddc05c"}, {"type": "electric_scooter", "fusion_lon": 0.0, "bike_id": "18e21c5bda06177ec601ebe856832136", "is_disabled": 0, "lat": 38.88313183333333, "rental_uris": {"ios": "https://dc.lft.to/lastmile_qr_scan", "android": "https://dc.lft.to/lastmile_qr_scan"}, "is_reserved": 0, "lon": -77.00363133333333, "fusion_lat": 0.0, "name": "18e21c5bda06177ec601ebe856832136"}, {"type": "electric_bike", "fusion_lon": 0.0, "bike_id": "cde36b6351f9661efdf151d4fb74a9e7", "is_disabled": 0, "lat": 38.807537333333336, "rental_uris": {"ios": "https://dc.lft.to/lastmile_qr_scan", "android": "https://dc.lft.to/lastmile_qr_scan"}, "is_reserved": 0, "lon": -77.09451383333334, "fusion_lat": 0.0, "name": "cde36b6351f9661efdf151d4fb74a9e7"}, {"type": "electric_scooter", "fusion_lon": 0.0, "bike_id": "28af17fdb3faa46bfa226913e1c25f28", "is_disabled": 0, "lat": 38.946090833333336, "rental_uris": {"ios": "https://dc.lft.to/lastmile_qr_scan", "android": "https://dc.lft.to/lastmile_qr_scan"}, "is_reserved": 0, "lon": -77.0787605, "fusion_lat": 0.0, "name": "28af17fdb3faa46bfa226913e1c25f28"}, {"type": "electric_scooter", "fusion_lon": 0.0, "bike_id": "a8551cd93d68115a8a992b8c0c9e4f5a", "is_disabled": 0, "lat": 38.9153095, "rental_uris": {"ios": "https://dc.lft.to/lastmile_qr_scan", "android": "https://dc.lft.to/lastmile_qr_scan"}, "is_reserved": 0, "lon": -77.044458, "fusion_lat": 0.0, "name": "a8551cd93d68115a8a992b8c0c9e4f5a"}, {"type": "electric_scooter", "fusion_lon": 0.0, "bike_id": "c95e96c47d2b229b75941ab90fe7de8b", "is_disabled": 0, "lat": 38.87665366666667, "rental_uris": {"ios": "https://dc.lft.to/lastmile_qr_scan", "android": "https://dc.lft.to/lastmile_qr_scan"}, "is_reserved": 0, "lon": -77.00280133333334, "fusion_lat": 0.0, "name": "c95e96c47d2b229b75941ab90fe7de8b"}, {"type": "electric_scooter", "fusion_lon": 0.0, "bike_id": "a1b0ac03a10b091698fd5377d8b72ed4", "is_disabled": 0, "lat": 38.86694283333333, "rental_uris": {"ios": "https://dc.lft.to/lastmile_qr_scan", "android": "https://dc.lft.to/lastmile_qr_scan"}, "is_reserved": 0, "lon": -76.980897, "fusion_lat": 0.0, "name": "a1b0ac03a10b091698fd5377d8b72ed4"}, {"type": "electric_scooter", "fusion_lon": 0.0, "bike_id": "879f6fc4a9d93e17cef50ac6a018af9c", "is_disabled": 0, "lat": 38.94887133333334, "rental_uris": {"ios": "https://dc.lft.to/lastmile_qr_scan", "android": "https://dc.lft.to/lastmile_qr_scan"}, "is_reserved": 0, "lon": -77.01854533333334, "fusion_lat": 0.0, "name": "879f6fc4a9d93e17cef50ac6a018af9c"}, {"type": "electric_scooter", "fusion_lon": 0.0, "bike_id": "13844e1f0c5371c464c6195e4283e43f", "is_disabled": 0, "lat": 38.900376666666666, "rental_uris": {"ios": "https://dc.lft.to/lastmile_qr_scan", "android": "https://dc.lft.to/lastmile_qr_scan"}, "is_reserved": 0, "lon": -77.04331333333333, "fusion_lat": 0.0, "name": "13844e1f0c5371c464c6195e4283e43f"}, {"type": "electric_scooter", "fusion_lon": 0.0, "bike_id": "d2cd2fd39d4fb1be7c6b5cbd64bb7146", "is_disabled": 0, "lat": 38.92738966666667, "rental_uris": {"ios": "https://dc.lft.to/lastmile_qr_scan", "android": "https://dc.lft.to/lastmile_qr_scan"}, "is_reserved": 0, "lon": -76.95550383333334, "fusion_lat": 0.0, "name": "d2cd2fd39d4fb1be7c6b5cbd64bb7146"}, {"type": "electric_scooter", "fusion_lon": 0.0, "bike_id": "1d83b90bf6b85af77957a858bf3e75ff", "is_disabled": 0, "lat": 38.91945883333333, "rental_uris": {"ios": "https://dc.lft.to/lastmile_qr_scan", "android": "https://dc.lft.to/lastmile_qr_scan"}, "is_reserved": 0, "lon": -77.0318805, "fusion_lat": 0.0, "name": "1d83b90bf6b85af77957a858bf3e75ff"}, {"type": "electric_bike", "fusion_lon": 0.0, "bike_id": "d29baeb744a3b6680bf3c1c3a35d97b9", "is_disabled": 0, "lat": 38.849064166666665, "rental_uris": {"ios": "https://dc.lft.to/lastmile_qr_scan", "android": "https://dc.lft.to/lastmile_qr_scan"}, "is_reserved": 0, "lon": -77.079489, "fusion_lat": 0.0, "name": "d29baeb744a3b6680bf3c1c3a35d97b9"}, {"type": "electric_bike", "fusion_lon": 0.0, "bike_id": "daa1e0a2efd866670dfe81f8636abbd7", "is_disabled": 0, "lat": 38.95073433333334, "rental_uris": {"ios": "https://dc.lft.to/lastmile_qr_scan", "android": "https://dc.lft.to/lastmile_qr_scan"}, "is_reserved": 0, "lon": -77.0122565, "fusion_lat": 0.0, "name": "daa1e0a2efd866670dfe81f8636abbd7"}, {"type": "electric_bike", "fusion_lon": 0.0, "bike_id": "ee24baffa3150645e1493e3000bf47a8", "is_disabled": 0, "lat": 38.8383705, "rental_uris": {"ios": "https://dc.lft.to/lastmile_qr_scan", "android": "https://dc.lft.to/lastmile_qr_scan"}, "is_reserved": 0, "lon": -76.99660216666666, "fusion_lat": 0.0, "name": "ee24baffa3150645e1493e3000bf47a8"}, {"type": "electric_scooter", "fusion_lon": 0.0, "bike_id": "73bab9c02502df8e9b2d7f4fdf08f7b9", "is_disabled": 0, "lat": 38.972128166666664, "rental_uris": {"ios": "https://dc.lft.to/lastmile_qr_scan", "android": "https://dc.lft.to/lastmile_qr_scan"}, "is_reserved": 0, "lon": -77.02720266666667, "fusion_lat": 0.0, "name": "73bab9c02502df8e9b2d7f4fdf08f7b9"}, {"type": "electric_scooter", "fusion_lon": 0.0, "bike_id": "381342315dffc4ec7ee9bcb2881bfae6", "is_disabled": 0, "lat": 38.911168833333335, "rental_uris": {"ios": "https://dc.lft.to/lastmile_qr_scan", "android": "https://dc.lft.to/lastmile_qr_scan"}, "is_reserved": 0, "lon": -77.03833033333333, "fusion_lat": 0.0, "name": "381342315dffc4ec7ee9bcb2881bfae6"}, {"type": "electric_scooter", "fusion_lon": 0.0, "bike_id": "86362ec79676563f3eeba38ed8d66e74", "is_disabled": 0, "lat": 38.92040883333333, "rental_uris": {"ios": "https://dc.lft.to/lastmile_qr_scan", "android": "https://dc.lft.to/lastmile_qr_scan"}, "is_reserved": 0, "lon": -77.0168365, "fusion_lat": 0.0, "name": "86362ec79676563f3eeba38ed8d66e74"}, {"type": "electric_scooter", "fusion_lon": 0.0, "bike_id": "bebb063829161138e83161a68558ec89", "is_disabled": 0, "lat": 38.89221933333334, "rental_uris": {"ios": "https://dc.lft.to/lastmile_qr_scan", "android": "https://dc.lft.to/lastmile_qr_scan"}, "is_reserved": 0, "lon": -77.0333895, "fusion_lat": 0.0, "name": "bebb063829161138e83161a68558ec89"}, {"type": "electric_scooter", "fusion_lon": 0.0, "bike_id": "b15601c3d0226b72e64a104fb291645b", "is_disabled": 0, "lat": 38.91109133333333, "rental_uris": {"ios": "https://dc.lft.to/lastmile_qr_scan", "android": "https://dc.lft.to/lastmile_qr_scan"}, "is_reserved": 0, "lon": -77.02133, "fusion_lat": 0.0, "name": "b15601c3d0226b72e64a104fb291645b"}, {"type": "electric_scooter", "fusion_lon": 0.0, "bike_id": "024553a7c78e69e2504817e40a0107bc", "is_disabled": 0, "lat": 38.90593766666667, "rental_uris": {"ios": "https://dc.lft.to/lastmile_qr_scan", "android": "https://dc.lft.to/lastmile_qr_scan"}, "is_reserved": 0, "lon": -77.06555283333333, "fusion_lat": 0.0, "name": "024553a7c78e69e2504817e40a0107bc"}, {"type": "electric_scooter", "fusion_lon": 0.0, "bike_id": "54866bb0502a63bf44b06733278f14d3", "is_disabled": 0, "lat": 38.9174665, "rental_uris": {"ios": "https://dc.lft.to/lastmile_qr_scan", "android": "https://dc.lft.to/lastmile_qr_scan"}, "is_reserved": 0, "lon": -77.02288083333333, "fusion_lat": 0.0, "name": "54866bb0502a63bf44b06733278f14d3"}, {"type": "electric_scooter", "fusion_lon": 0.0, "bike_id": "465fc6ebeab188ad0e820650ef772755", "is_disabled": 0, "lat": 38.893420166666665, "rental_uris": {"ios": "https://dc.lft.to/lastmile_qr_scan", "android": "https://dc.lft.to/lastmile_qr_scan"}, "is_reserved": 0, "lon": -76.93418966666667, "fusion_lat": 0.0, "name": "465fc6ebeab188ad0e820650ef772755"}, {"type": "electric_scooter", "fusion_lon": 0.0, "bike_id": "b3d4d8e815d8bb5276cd1cf2e1514a3a", "is_disabled": 0, "lat": 38.930402666666666, "rental_uris": {"ios": "https://dc.lft.to/lastmile_qr_scan", "android": "https://dc.lft.to/lastmile_qr_scan"}, "is_reserved": 0, "lon": -77.02487383333333, "fusion_lat": 0.0, "name": "b3d4d8e815d8bb5276cd1cf2e1514a3a"}, {"type": "electric_scooter", "fusion_lon": 0.0, "bike_id": "bfee6fe9f4c341620cd29d91385f8be7", "is_disabled": 0, "lat": 38.891828333333336, "rental_uris": {"ios": "https://dc.lft.to/lastmile_qr_scan", "android": "https://dc.lft.to/lastmile_qr_scan"}, "is_reserved": 0, "lon": -76.95273866666666, "fusion_lat": 0.0, "name": "bfee6fe9f4c341620cd29d91385f8be7"}, {"type": "electric_scooter", "fusion_lon": 0.0, "bike_id": "761570751255bde4dd0adc827d8b1db0", "is_disabled": 0, "lat": 38.892218666666665, "rental_uris": {"ios": "https://dc.lft.to/lastmile_qr_scan", "android": "https://dc.lft.to/lastmile_qr_scan"}, "is_reserved": 0, "lon": -77.04686433333333, "fusion_lat": 0.0, "name": "761570751255bde4dd0adc827d8b1db0"}, {"type": "electric_scooter", "fusion_lon": 0.0, "bike_id": "5b180ae20f488f95950d12f25eb8f21b", "is_disabled": 0, "lat": 38.892219, "rental_uris": {"ios": "https://dc.lft.to/lastmile_qr_scan", "android": "https://dc.lft.to/lastmile_qr_scan"}, "is_reserved": 0, "lon": -77.04857316666667, "fusion_lat": 0.0, "name": "5b180ae20f488f95950d12f25eb8f21b"}, {"type": "electric_scooter", "fusion_lon": 0.0, "bike_id": "655cb1bd7873c4c85ae9a2191c211eb3", "is_disabled": 0, "lat": 38.9282335, "rental_uris": {"ios": "https://dc.lft.to/lastmile_qr_scan", "android": "https://dc.lft.to/lastmile_qr_scan"}, "is_reserved": 0, "lon": -77.02256566666667, "fusion_lat": 0.0, "name": "655cb1bd7873c4c85ae9a2191c211eb3"}, {"type": "electric_scooter", "fusion_lon": 0.0, "bike_id": "491bb3c40f6857c569a9de18e66143b5", "is_disabled": 0, "lat": 38.92002133333333, "rental_uris": {"ios": "https://dc.lft.to/lastmile_qr_scan", "android": "https://dc.lft.to/lastmile_qr_scan"}, "is_reserved": 0, "lon": -77.03221466666666, "fusion_lat": 0.0, "name": "491bb3c40f6857c569a9de18e66143b5"}, {"type": "electric_scooter", "fusion_lon": 0.0, "bike_id": "7bc2d92a74a84213c916e2cae71a4762", "is_disabled": 0, "lat": 38.9167825, "rental_uris": {"ios": "https://dc.lft.to/lastmile_qr_scan", "android": "https://dc.lft.to/lastmile_qr_scan"}, "is_reserved": 0, "lon": -77.0386055, "fusion_lat": 0.0, "name": "7bc2d92a74a84213c916e2cae71a4762"}, {"type": "electric_scooter", "fusion_lon": 0.0, "bike_id": "27e8687a8aa341679aaeab7ec7690bd6", "is_disabled": 0, "lat": 38.92049083333333, "rental_uris": {"ios": "https://dc.lft.to/lastmile_qr_scan", "android": "https://dc.lft.to/lastmile_qr_scan"}, "is_reserved": 0, "lon": -77.04190366666667, "fusion_lat": 0.0, "name": "27e8687a8aa341679aaeab7ec7690bd6"}, {"type": "electric_scooter", "fusion_lon": 0.0, "bike_id": "33a7fcb6f3fc006562a5651ecbb51ee1", "is_disabled": 0, "lat": 38.90953066666667, "rental_uris": {"ios": "https://dc.lft.to/lastmile_qr_scan", "android": "https://dc.lft.to/lastmile_qr_scan"}, "is_reserved": 0, "lon": -77.038481, "fusion_lat": 0.0, "name": "33a7fcb6f3fc006562a5651ecbb51ee1"}, {"type": "electric_scooter", "fusion_lon": 0.0, "bike_id": "3118c200fc68afca1e665c561791144d", "is_disabled": 0, "lat": 38.920176166666664, "rental_uris": {"ios": "https://dc.lft.to/lastmile_qr_scan", "android": "https://dc.lft.to/lastmile_qr_scan"}, "is_reserved": 0, "lon": -77.0313865, "fusion_lat": 0.0, "name": "3118c200fc68afca1e665c561791144d"}, {"type": "electric_scooter", "fusion_lon": 0.0, "bike_id": "9fae62d99f513a8b623fc8e86f922927", "is_disabled": 0, "lat": 38.908507166666666, "rental_uris": {"ios": "https://dc.lft.to/lastmile_qr_scan", "android": "https://dc.lft.to/lastmile_qr_scan"}, "is_reserved": 0, "lon": -77.03650016666667, "fusion_lat": 0.0, "name": "9fae62d99f513a8b623fc8e86f922927"}, {"type": "electric_scooter", "fusion_lon": 0.0, "bike_id": "bbe5f0a1d42714e63ddecaa75a895184", "is_disabled": 0, "lat": 38.92454733333334, "rental_uris": {"ios": "https://dc.lft.to/lastmile_qr_scan", "android": "https://dc.lft.to/lastmile_qr_scan"}, "is_reserved": 0, "lon": -77.03291033333333, "fusion_lat": 0.0, "name": "bbe5f0a1d42714e63ddecaa75a895184"}, {"type": "electric_scooter", "fusion_lon": 0.0, "bike_id": "387420e0d562ad0397255ebcb5e3b2bf", "is_disabled": 0, "lat": 38.91721, "rental_uris": {"ios": "https://dc.lft.to/lastmile_qr_scan", "android": "https://dc.lft.to/lastmile_qr_scan"}, "is_reserved": 0, "lon": -77.04600416666666, "fusion_lat": 0.0, "name": "387420e0d562ad0397255ebcb5e3b2bf"}, {"type": "electric_scooter", "fusion_lon": 0.0, "bike_id": "a9584b16e83aaf0d314e862e451698d3", "is_disabled": 0, "lat": 38.89287983333333, "rental_uris": {"ios": "https://dc.lft.to/lastmile_qr_scan", "android": "https://dc.lft.to/lastmile_qr_scan"}, "is_reserved": 0, "lon": -76.95086433333333, "fusion_lat": 0.0, "name": "a9584b16e83aaf0d314e862e451698d3"}, {"type": "electric_scooter", "fusion_lon": 0.0, "bike_id": "5e8300803234a12f141a54b2a1db3025", "is_disabled": 0, "lat": 38.919481, "rental_uris": {"ios": "https://dc.lft.to/lastmile_qr_scan", "android": "https://dc.lft.to/lastmile_qr_scan"}, "is_reserved": 0, "lon": -77.024951, "fusion_lat": 0.0, "name": "5e8300803234a12f141a54b2a1db3025"}, {"type": "electric_scooter", "fusion_lon": 0.0, "bike_id": "90e4e29ce43620594e62ed8bde2f4e29", "is_disabled": 0, "lat": 38.88484716666667, "rental_uris": {"ios": "https://dc.lft.to/lastmile_qr_scan", "android": "https://dc.lft.to/lastmile_qr_scan"}, "is_reserved": 0, "lon": -77.02080583333333, "fusion_lat": 0.0, "name": "90e4e29ce43620594e62ed8bde2f4e29"}, {"type": "electric_scooter", "fusion_lon": 0.0, "bike_id": "58b01551530dd2d0cafad78dd7d40f7e", "is_disabled": 0, "lat": 38.922638166666665, "rental_uris": {"ios": "https://dc.lft.to/lastmile_qr_scan", "android": "https://dc.lft.to/lastmile_qr_scan"}, "is_reserved": 0, "lon": -77.01922, "fusion_lat": 0.0, "name": "58b01551530dd2d0cafad78dd7d40f7e"}, {"type": "electric_scooter", "fusion_lon": 0.0, "bike_id": "037a1c99dd56763d2426cb210652d817", "is_disabled": 0, "lat": 38.93081733333333, "rental_uris": {"ios": "https://dc.lft.to/lastmile_qr_scan", "android": "https://dc.lft.to/lastmile_qr_scan"}, "is_reserved": 0, "lon": -77.02465566666666, "fusion_lat": 0.0, "name": "037a1c99dd56763d2426cb210652d817"}, {"type": "electric_scooter", "fusion_lon": 0.0, "bike_id": "4398f1ec508faea94c89fc87d3186221", "is_disabled": 0, "lat": 38.93329333333333, "rental_uris": {"ios": "https://dc.lft.to/lastmile_qr_scan", "android": "https://dc.lft.to/lastmile_qr_scan"}, "is_reserved": 0, "lon": -77.03029033333334, "fusion_lat": 0.0, "name": "4398f1ec508faea94c89fc87d3186221"}, {"type": "electric_scooter", "fusion_lon": 0.0, "bike_id": "ba700186cfa04b8f4e90bb642d73dc41", "is_disabled": 0, "lat": 38.91708366666667, "rental_uris": {"ios": "https://dc.lft.to/lastmile_qr_scan", "android": "https://dc.lft.to/lastmile_qr_scan"}, "is_reserved": 0, "lon": -77.03333983333333, "fusion_lat": 0.0, "name": "ba700186cfa04b8f4e90bb642d73dc41"}, {"type": "electric_scooter", "fusion_lon": 0.0, "bike_id": "f6abd5feb0d6892f34e29e6a0d8b04c1", "is_disabled": 0, "lat": 38.9028165, "rental_uris": {"ios": "https://dc.lft.to/lastmile_qr_scan", "android": "https://dc.lft.to/lastmile_qr_scan"}, "is_reserved": 0, "lon": -77.04500183333333, "fusion_lat": 0.0, "name": "f6abd5feb0d6892f34e29e6a0d8b04c1"}, {"type": "electric_scooter", "fusion_lon": 0.0, "bike_id": "097023baee9744613ceeb47260d68f6b", "is_disabled": 0, "lat": 38.92956866666667, "rental_uris": {"ios": "https://dc.lft.to/lastmile_qr_scan", "android": "https://dc.lft.to/lastmile_qr_scan"}, "is_reserved": 0, "lon": -77.01150183333333, "fusion_lat": 0.0, "name": "097023baee9744613ceeb47260d68f6b"}, {"type": "electric_scooter", "fusion_lon": 0.0, "bike_id": "71f2a56be36a3219031da0a93b8b4be5", "is_disabled": 0, "lat": 38.9171485, "rental_uris": {"ios": "https://dc.lft.to/lastmile_qr_scan", "android": "https://dc.lft.to/lastmile_qr_scan"}, "is_reserved": 0, "lon": -77.0288695, "fusion_lat": 0.0, "name": "71f2a56be36a3219031da0a93b8b4be5"}, {"type": "electric_scooter", "fusion_lon": 0.0, "bike_id": "aada72bc11271a722c76e953b27c2d36", "is_disabled": 0, "lat": 38.916946333333335, "rental_uris": {"ios": "https://dc.lft.to/lastmile_qr_scan", "android": "https://dc.lft.to/lastmile_qr_scan"}, "is_reserved": 0, "lon": -77.03507166666667, "fusion_lat": 0.0, "name": "aada72bc11271a722c76e953b27c2d36"}, {"type": "electric_scooter", "fusion_lon": 0.0, "bike_id": "c1558e891616988f3353e1e546dd7632", "is_disabled": 0, "lat": 38.948267666666666, "rental_uris": {"ios": "https://dc.lft.to/lastmile_qr_scan", "android": "https://dc.lft.to/lastmile_qr_scan"}, "is_reserved": 0, "lon": -77.02462683333333, "fusion_lat": 0.0, "name": "c1558e891616988f3353e1e546dd7632"}, {"type": "electric_scooter", "fusion_lon": 0.0, "bike_id": "db97297770328e493ba5728b5b6bf8e9", "is_disabled": 0, "lat": 38.907599833333336, "rental_uris": {"ios": "https://dc.lft.to/lastmile_qr_scan", "android": "https://dc.lft.to/lastmile_qr_scan"}, "is_reserved": 0, "lon": -77.03587283333333, "fusion_lat": 0.0, "name": "db97297770328e493ba5728b5b6bf8e9"}, {"type": "electric_scooter", "fusion_lon": 0.0, "bike_id": "9bec48bb220755153c9d664adef822e5", "is_disabled": 0, "lat": 38.896094, "rental_uris": {"ios": "https://dc.lft.to/lastmile_qr_scan", "android": "https://dc.lft.to/lastmile_qr_scan"}, "is_reserved": 0, "lon": -77.04554183333333, "fusion_lat": 0.0, "name": "9bec48bb220755153c9d664adef822e5"}, {"type": "electric_scooter", "fusion_lon": 0.0, "bike_id": "4add0331f2bbb5eb082efce9a353076c", "is_disabled": 0, "lat": 38.91398483333333, "rental_uris": {"ios": "https://dc.lft.to/lastmile_qr_scan", "android": "https://dc.lft.to/lastmile_qr_scan"}, "is_reserved": 0, "lon": -77.06420183333333, "fusion_lat": 0.0, "name": "4add0331f2bbb5eb082efce9a353076c"}, {"type": "electric_bike", "fusion_lon": 0.0, "bike_id": "b4f114abde0dd96de9595203d6f23fe9", "is_disabled": 0, "lat": 39.0028945, "rental_uris": {"ios": "https://dc.lft.to/lastmile_qr_scan", "android": "https://dc.lft.to/lastmile_qr_scan"}, "is_reserved": 0, "lon": -76.902973, "fusion_lat": 0.0, "name": "b4f114abde0dd96de9595203d6f23fe9"}, {"type": "electric_bike", "fusion_lon": 0.0, "bike_id": "c6d79a8cf4c2b92fdf5eb171416d83c8", "is_disabled": 0, "lat": 38.813325, "rental_uris": {"ios": "https://dc.lft.to/lastmile_qr_scan", "android": "https://dc.lft.to/lastmile_qr_scan"}, "is_reserved": 0, "lon": -77.05084033333333, "fusion_lat": 0.0, "name": "c6d79a8cf4c2b92fdf5eb171416d83c8"}, {"type": "electric_scooter", "fusion_lon": 0.0, "bike_id": "de64ee95d84c91c597d25fdfc91c8514", "is_disabled": 0, "lat": 38.934265333333336, "rental_uris": {"ios": "https://dc.lft.to/lastmile_qr_scan", "android": "https://dc.lft.to/lastmile_qr_scan"}, "is_reserved": 0, "lon": -77.04000833333333, "fusion_lat": 0.0, "name": "de64ee95d84c91c597d25fdfc91c8514"}, {"type": "electric_scooter", "fusion_lon": 0.0, "bike_id": "fb5798104d3ce0915fa8a74fafa5c47c", "is_disabled": 0, "lat": 38.866553, "rental_uris": {"ios": "https://dc.lft.to/lastmile_qr_scan", "android": "https://dc.lft.to/lastmile_qr_scan"}, "is_reserved": 0, "lon": -76.9888505, "fusion_lat": 0.0, "name": "fb5798104d3ce0915fa8a74fafa5c47c"}, {"type": "electric_scooter", "fusion_lon": 0.0, "bike_id": "b92a6f51bd0a6194d0cb8776be68d97c", "is_disabled": 0, "lat": 38.917466, "rental_uris": {"ios": "https://dc.lft.to/lastmile_qr_scan", "android": "https://dc.lft.to/lastmile_qr_scan"}, "is_reserved": 0, "lon": -77.03659066666667, "fusion_lat": 0.0, "name": "b92a6f51bd0a6194d0cb8776be68d97c"}, {"type": "electric_scooter", "fusion_lon": 0.0, "bike_id": "89e6c74afd0b3c9ca03f5e8acc4eaf4b", "is_disabled": 0, "lat": 38.9295595, "rental_uris": {"ios": "https://dc.lft.to/lastmile_qr_scan", "android": "https://dc.lft.to/lastmile_qr_scan"}, "is_reserved": 0, "lon": -77.02760783333333, "fusion_lat": 0.0, "name": "89e6c74afd0b3c9ca03f5e8acc4eaf4b"}, {"type": "electric_scooter", "fusion_lon": 0.0, "bike_id": "04e56b052055873f2ac8fa6485ed7c80", "is_disabled": 0, "lat": 38.89909433333333, "rental_uris": {"ios": "https://dc.lft.to/lastmile_qr_scan", "android": "https://dc.lft.to/lastmile_qr_scan"}, "is_reserved": 0, "lon": -76.93379816666666, "fusion_lat": 0.0, "name": "04e56b052055873f2ac8fa6485ed7c80"}, {"type": "electric_bike", "fusion_lon": 0.0, "bike_id": "20e1448499c5972358c8c9a64a62e967", "is_disabled": 0, "lat": 38.944135333333335, "rental_uris": {"ios": "https://dc.lft.to/lastmile_qr_scan", "android": "https://dc.lft.to/lastmile_qr_scan"}, "is_reserved": 0, "lon": -77.0551895, "fusion_lat": 0.0, "name": "20e1448499c5972358c8c9a64a62e967"}, {"type": "electric_scooter", "fusion_lon": 0.0, "bike_id": "ad9756ed570fd814e844a3bfa372725d", "is_disabled": 0, "lat": 38.93829066666667, "rental_uris": {"ios": "https://dc.lft.to/lastmile_qr_scan", "android": "https://dc.lft.to/lastmile_qr_scan"}, "is_reserved": 0, "lon": -77.06173733333334, "fusion_lat": 0.0, "name": "ad9756ed570fd814e844a3bfa372725d"}, {"type": "electric_scooter", "fusion_lon": 0.0, "bike_id": "3fa805c4d8509b743e3d0e77199299d7", "is_disabled": 0, "lat": 38.8941815, "rental_uris": {"ios": "https://dc.lft.to/lastmile_qr_scan", "android": "https://dc.lft.to/lastmile_qr_scan"}, "is_reserved": 0, "lon": -76.99952466666667, "fusion_lat": 0.0, "name": "3fa805c4d8509b743e3d0e77199299d7"}, {"type": "electric_scooter", "fusion_lon": 0.0, "bike_id": "09c7c6701ef1ade4826c47a9ef73cc73", "is_disabled": 0, "lat": 38.88594583333333, "rental_uris": {"ios": "https://dc.lft.to/lastmile_qr_scan", "android": "https://dc.lft.to/lastmile_qr_scan"}, "is_reserved": 0, "lon": -77.01795533333333, "fusion_lat": 0.0, "name": "09c7c6701ef1ade4826c47a9ef73cc73"}, {"type": "electric_scooter", "fusion_lon": 0.0, "bike_id": "c56ab5618c2ca94bbe2f95f160d180c8", "is_disabled": 0, "lat": 38.945092333333335, "rental_uris": {"ios": "https://dc.lft.to/lastmile_qr_scan", "android": "https://dc.lft.to/lastmile_qr_scan"}, "is_reserved": 0, "lon": -77.03360866666667, "fusion_lat": 0.0, "name": "c56ab5618c2ca94bbe2f95f160d180c8"}, {"type": "electric_scooter", "fusion_lon": 0.0, "bike_id": "35a87a678b6f366b84aee2e6efb521fd", "is_disabled": 0, "lat": 38.94623433333334, "rental_uris": {"ios": "https://dc.lft.to/lastmile_qr_scan", "android": "https://dc.lft.to/lastmile_qr_scan"}, "is_reserved": 0, "lon": -77.03946933333333, "fusion_lat": 0.0, "name": "35a87a678b6f366b84aee2e6efb521fd"}, {"type": "electric_bike", "fusion_lon": 0.0, "bike_id": "a19e954118ed8382a965fcb7e0882a75", "is_disabled": 0, "lat": 38.882638666666665, "rental_uris": {"ios": "https://dc.lft.to/lastmile_qr_scan", "android": "https://dc.lft.to/lastmile_qr_scan"}, "is_reserved": 0, "lon": -77.2282205, "fusion_lat": 0.0, "name": "a19e954118ed8382a965fcb7e0882a75"}, {"type": "electric_scooter", "fusion_lon": 0.0, "bike_id": "d9edd757e20a7d93c88abf529aa492a4", "is_disabled": 0, "lat": 38.884365, "rental_uris": {"ios": "https://dc.lft.to/lastmile_qr_scan", "android": "https://dc.lft.to/lastmile_qr_scan"}, "is_reserved": 0, "lon": -77.01508416666667, "fusion_lat": 0.0, "name": "d9edd757e20a7d93c88abf529aa492a4"}, {"type": "electric_scooter", "fusion_lon": 0.0, "bike_id": "5d04d8f1859e27a70e9866fb0a0ef212", "is_disabled": 0, "lat": 38.89221283333333, "rental_uris": {"ios": "https://dc.lft.to/lastmile_qr_scan", "android": "https://dc.lft.to/lastmile_qr_scan"}, "is_reserved": 0, "lon": -77.04335183333333, "fusion_lat": 0.0, "name": "5d04d8f1859e27a70e9866fb0a0ef212"}, {"type": "electric_scooter", "fusion_lon": 0.0, "bike_id": "af13fbd93e7493e9dc1c4ce533d724c1", "is_disabled": 0, "lat": 38.91125916666667, "rental_uris": {"ios": "https://dc.lft.to/lastmile_qr_scan", "android": "https://dc.lft.to/lastmile_qr_scan"}, "is_reserved": 0, "lon": -77.02197683333333, "fusion_lat": 0.0, "name": "af13fbd93e7493e9dc1c4ce533d724c1"}, {"type": "electric_scooter", "fusion_lon": 0.0, "bike_id": "15985b4aa11c8f992949a089910ed221", "is_disabled": 0, "lat": 38.917498333333334, "rental_uris": {"ios": "https://dc.lft.to/lastmile_qr_scan", "android": "https://dc.lft.to/lastmile_qr_scan"}, "is_reserved": 0, "lon": -77.0365785, "fusion_lat": 0.0, "name": "15985b4aa11c8f992949a089910ed221"}, {"type": "electric_scooter", "fusion_lon": 0.0, "bike_id": "9e8ab298a511419d85e398a36315f835", "is_disabled": 0, "lat": 38.920686, "rental_uris": {"ios": "https://dc.lft.to/lastmile_qr_scan", "android": "https://dc.lft.to/lastmile_qr_scan"}, "is_reserved": 0, "lon": -77.02505266666667, "fusion_lat": 0.0, "name": "9e8ab298a511419d85e398a36315f835"}, {"type": "electric_scooter", "fusion_lon": 0.0, "bike_id": "33d2f15a64b285f41fb0156ad4986a5a", "is_disabled": 0, "lat": 38.8947115, "rental_uris": {"ios": "https://dc.lft.to/lastmile_qr_scan", "android": "https://dc.lft.to/lastmile_qr_scan"}, "is_reserved": 0, "lon": -76.949608, "fusion_lat": 0.0, "name": "33d2f15a64b285f41fb0156ad4986a5a"}, {"type": "electric_scooter", "fusion_lon": 0.0, "bike_id": "feafa8f8fd2efea46a59146a44f553de", "is_disabled": 0, "lat": 38.9046635, "rental_uris": {"ios": "https://dc.lft.to/lastmile_qr_scan", "android": "https://dc.lft.to/lastmile_qr_scan"}, "is_reserved": 0, "lon": -77.03546583333333, "fusion_lat": 0.0, "name": "feafa8f8fd2efea46a59146a44f553de"}, {"type": "electric_bike", "fusion_lon": 0.0, "bike_id": "d7830d48fac6b609b27f08c320a0e023", "is_disabled": 0, "lat": 39.084357833333335, "rental_uris": {"ios": "https://dc.lft.to/lastmile_qr_scan", "android": "https://dc.lft.to/lastmile_qr_scan"}, "is_reserved": 0, "lon": -76.9516275, "fusion_lat": 0.0, "name": "d7830d48fac6b609b27f08c320a0e023"}, {"type": "electric_scooter", "fusion_lon": 0.0, "bike_id": "dd4741dededb51338aa6d3752255767d", "is_disabled": 0, "lat": 38.8929065, "rental_uris": {"ios": "https://dc.lft.to/lastmile_qr_scan", "android": "https://dc.lft.to/lastmile_qr_scan"}, "is_reserved": 0, "lon": -77.0211065, "fusion_lat": 0.0, "name": "dd4741dededb51338aa6d3752255767d"}, {"type": "electric_scooter", "fusion_lon": 0.0, "bike_id": "b01faed150e43189ee67bb71530f3d3b", "is_disabled": 0, "lat": 38.892196166666665, "rental_uris": {"ios": "https://dc.lft.to/lastmile_qr_scan", "android": "https://dc.lft.to/lastmile_qr_scan"}, "is_reserved": 0, "lon": -77.04367983333333, "fusion_lat": 0.0, "name": "b01faed150e43189ee67bb71530f3d3b"}, {"type": "electric_scooter", "fusion_lon": 0.0, "bike_id": "896addaffdf712e6cf80a9de144f81bb", "is_disabled": 0, "lat": 38.92353833333333, "rental_uris": {"ios": "https://dc.lft.to/lastmile_qr_scan", "android": "https://dc.lft.to/lastmile_qr_scan"}, "is_reserved": 0, "lon": -77.03226083333334, "fusion_lat": 0.0, "name": "896addaffdf712e6cf80a9de144f81bb"}, {"type": "electric_scooter", "fusion_lon": 0.0, "bike_id": "5b38004f72a908da60b172b7f28935f8", "is_disabled": 0, "lat": 38.92436716666667, "rental_uris": {"ios": "https://dc.lft.to/lastmile_qr_scan", "android": "https://dc.lft.to/lastmile_qr_scan"}, "is_reserved": 0, "lon": -77.03331866666667, "fusion_lat": 0.0, "name": "5b38004f72a908da60b172b7f28935f8"}, {"type": "electric_scooter", "fusion_lon": 0.0, "bike_id": "62df6616a45af9e147bcefbbb61b9391", "is_disabled": 0, "lat": 38.95623283333333, "rental_uris": {"ios": "https://dc.lft.to/lastmile_qr_scan", "android": "https://dc.lft.to/lastmile_qr_scan"}, "is_reserved": 0, "lon": -77.022147, "fusion_lat": 0.0, "name": "62df6616a45af9e147bcefbbb61b9391"}, {"type": "electric_scooter", "fusion_lon": 0.0, "bike_id": "37eda74ef3657b4a33906ec1fad75c05", "is_disabled": 0, "lat": 38.8665595, "rental_uris": {"ios": "https://dc.lft.to/lastmile_qr_scan", "android": "https://dc.lft.to/lastmile_qr_scan"}, "is_reserved": 0, "lon": -76.98885616666666, "fusion_lat": 0.0, "name": "37eda74ef3657b4a33906ec1fad75c05"}, {"type": "electric_scooter", "fusion_lon": 0.0, "bike_id": "2c49004c3430dc5aa23f8beabcb719f3", "is_disabled": 0, "lat": 38.883943333333335, "rental_uris": {"ios": "https://dc.lft.to/lastmile_qr_scan", "android": "https://dc.lft.to/lastmile_qr_scan"}, "is_reserved": 0, "lon": -76.9304775, "fusion_lat": 0.0, "name": "2c49004c3430dc5aa23f8beabcb719f3"}, {"type": "electric_scooter", "fusion_lon": 0.0, "bike_id": "8f45f9f118a1ffb53c72c6370e7e6ead", "is_disabled": 0, "lat": 38.90576766666667, "rental_uris": {"ios": "https://dc.lft.to/lastmile_qr_scan", "android": "https://dc.lft.to/lastmile_qr_scan"}, "is_reserved": 0, "lon": -77.04686766666667, "fusion_lat": 0.0, "name": "8f45f9f118a1ffb53c72c6370e7e6ead"}, {"type": "electric_scooter", "fusion_lon": 0.0, "bike_id": "e5a217221cc3bebef98c68a8e5d6ab87", "is_disabled": 0, "lat": 38.9248535, "rental_uris": {"ios": "https://dc.lft.to/lastmile_qr_scan", "android": "https://dc.lft.to/lastmile_qr_scan"}, "is_reserved": 0, "lon": -77.02151033333334, "fusion_lat": 0.0, "name": "e5a217221cc3bebef98c68a8e5d6ab87"}, {"type": "electric_scooter", "fusion_lon": 0.0, "bike_id": "d7f05bd2634f96d867db00cfdfa84e8e", "is_disabled": 0, "lat": 38.90805, "rental_uris": {"ios": "https://dc.lft.to/lastmile_qr_scan", "android": "https://dc.lft.to/lastmile_qr_scan"}, "is_reserved": 0, "lon": -77.083999, "fusion_lat": 0.0, "name": "d7f05bd2634f96d867db00cfdfa84e8e"}, {"type": "electric_bike", "fusion_lon": 0.0, "bike_id": "d406140a246f95f54ed6e243ccf9aae3", "is_disabled": 0, "lat": 38.88463333333333, "rental_uris": {"ios": "https://dc.lft.to/lastmile_qr_scan", "android": "https://dc.lft.to/lastmile_qr_scan"}, "is_reserved": 0, "lon": -76.952423, "fusion_lat": 0.0, "name": "d406140a246f95f54ed6e243ccf9aae3"}, {"type": "electric_scooter", "fusion_lon": 0.0, "bike_id": "69a84c8885f54539d0315969e280e641", "is_disabled": 0, "lat": 38.9349395, "rental_uris": {"ios": "https://dc.lft.to/lastmile_qr_scan", "android": "https://dc.lft.to/lastmile_qr_scan"}, "is_reserved": 0, "lon": -77.04381966666666, "fusion_lat": 0.0, "name": "69a84c8885f54539d0315969e280e641"}, {"type": "electric_scooter", "fusion_lon": 0.0, "bike_id": "b84974f48f0973b8662dba011d0ffbc8", "is_disabled": 0, "lat": 38.898697, "rental_uris": {"ios": "https://dc.lft.to/lastmile_qr_scan", "android": "https://dc.lft.to/lastmile_qr_scan"}, "is_reserved": 0, "lon": -76.9466395, "fusion_lat": 0.0, "name": "b84974f48f0973b8662dba011d0ffbc8"}, {"type": "electric_bike", "fusion_lon": 0.0, "bike_id": "3a969ff14029e6fb8906249c0d54e8a6", "is_disabled": 0, "lat": 38.9937895, "rental_uris": {"ios": "https://dc.lft.to/lastmile_qr_scan", "android": "https://dc.lft.to/lastmile_qr_scan"}, "is_reserved": 0, "lon": -77.04069266666667, "fusion_lat": 0.0, "name": "3a969ff14029e6fb8906249c0d54e8a6"}, {"type": "electric_bike", "fusion_lon": 0.0, "bike_id": "75fe1250de21d2720f7d071df20ff4f5", "is_disabled": 0, "lat": 38.988120333333335, "rental_uris": {"ios": "https://dc.lft.to/lastmile_qr_scan", "android": "https://dc.lft.to/lastmile_qr_scan"}, "is_reserved": 0, "lon": -76.9396365, "fusion_lat": 0.0, "name": "75fe1250de21d2720f7d071df20ff4f5"}, {"type": "electric_scooter", "fusion_lon": 0.0, "bike_id": "03730976a08d63d134359edcb242bf36", "is_disabled": 0, "lat": 38.90919683333333, "rental_uris": {"ios": "https://dc.lft.to/lastmile_qr_scan", "android": "https://dc.lft.to/lastmile_qr_scan"}, "is_reserved": 0, "lon": -76.9995605, "fusion_lat": 0.0, "name": "03730976a08d63d134359edcb242bf36"}, {"type": "electric_scooter", "fusion_lon": 0.0, "bike_id": "993cbacc18f079dea0f88254f56c6809", "is_disabled": 0, "lat": 38.899845, "rental_uris": {"ios": "https://dc.lft.to/lastmile_qr_scan", "android": "https://dc.lft.to/lastmile_qr_scan"}, "is_reserved": 0, "lon": -77.00200133333334, "fusion_lat": 0.0, "name": "993cbacc18f079dea0f88254f56c6809"}, {"type": "electric_scooter", "fusion_lon": 0.0, "bike_id": "4184fa75a8415e9f41b7b9bb392078d2", "is_disabled": 0, "lat": 38.924860333333335, "rental_uris": {"ios": "https://dc.lft.to/lastmile_qr_scan", "android": "https://dc.lft.to/lastmile_qr_scan"}, "is_reserved": 0, "lon": -77.02138233333334, "fusion_lat": 0.0, "name": "4184fa75a8415e9f41b7b9bb392078d2"}, {"type": "electric_scooter", "fusion_lon": 0.0, "bike_id": "9d49ae502941d90ce3b6530c5405b99b", "is_disabled": 0, "lat": 38.928754833333336, "rental_uris": {"ios": "https://dc.lft.to/lastmile_qr_scan", "android": "https://dc.lft.to/lastmile_qr_scan"}, "is_reserved": 0, "lon": -77.02964566666667, "fusion_lat": 0.0, "name": "9d49ae502941d90ce3b6530c5405b99b"}, {"type": "electric_scooter", "fusion_lon": 0.0, "bike_id": "8ad6eb79e576cab320770eaf32ce14c8", "is_disabled": 0, "lat": 38.93467066666667, "rental_uris": {"ios": "https://dc.lft.to/lastmile_qr_scan", "android": "https://dc.lft.to/lastmile_qr_scan"}, "is_reserved": 0, "lon": -77.04133433333334, "fusion_lat": 0.0, "name": "8ad6eb79e576cab320770eaf32ce14c8"}, {"type": "electric_scooter", "fusion_lon": 0.0, "bike_id": "32da65b9977694d3073fe283a20717bb", "is_disabled": 0, "lat": 38.92398816666667, "rental_uris": {"ios": "https://dc.lft.to/lastmile_qr_scan", "android": "https://dc.lft.to/lastmile_qr_scan"}, "is_reserved": 0, "lon": -77.027, "fusion_lat": 0.0, "name": "32da65b9977694d3073fe283a20717bb"}, {"type": "electric_scooter", "fusion_lon": 0.0, "bike_id": "5bbd26f72546cb0b1db4bbbf373b145a", "is_disabled": 0, "lat": 38.93949166666667, "rental_uris": {"ios": "https://dc.lft.to/lastmile_qr_scan", "android": "https://dc.lft.to/lastmile_qr_scan"}, "is_reserved": 0, "lon": -77.072371, "fusion_lat": 0.0, "name": "5bbd26f72546cb0b1db4bbbf373b145a"}, {"type": "electric_scooter", "fusion_lon": 0.0, "bike_id": "15957657015be43732285efb88aa1268", "is_disabled": 0, "lat": 38.92788983333333, "rental_uris": {"ios": "https://dc.lft.to/lastmile_qr_scan", "android": "https://dc.lft.to/lastmile_qr_scan"}, "is_reserved": 0, "lon": -77.05414433333333, "fusion_lat": 0.0, "name": "15957657015be43732285efb88aa1268"}, {"type": "electric_scooter", "fusion_lon": 0.0, "bike_id": "40cf341d40434590a3bc2a4551f7d365", "is_disabled": 0, "lat": 38.923356166666665, "rental_uris": {"ios": "https://dc.lft.to/lastmile_qr_scan", "android": "https://dc.lft.to/lastmile_qr_scan"}, "is_reserved": 0, "lon": -77.036107, "fusion_lat": 0.0, "name": "40cf341d40434590a3bc2a4551f7d365"}, {"type": "electric_scooter", "fusion_lon": 0.0, "bike_id": "a4a3c9b00f937cee5522cb6cf0a45293", "is_disabled": 0, "lat": 38.87568383333333, "rental_uris": {"ios": "https://dc.lft.to/lastmile_qr_scan", "android": "https://dc.lft.to/lastmile_qr_scan"}, "is_reserved": 0, "lon": -77.005881, "fusion_lat": 0.0, "name": "a4a3c9b00f937cee5522cb6cf0a45293"}, {"type": "electric_scooter", "fusion_lon": 0.0, "bike_id": "d4f434dd8197d834a505012c509d9eed", "is_disabled": 0, "lat": 38.905595166666664, "rental_uris": {"ios": "https://dc.lft.to/lastmile_qr_scan", "android": "https://dc.lft.to/lastmile_qr_scan"}, "is_reserved": 0, "lon": -77.03480583333334, "fusion_lat": 0.0, "name": "d4f434dd8197d834a505012c509d9eed"},