{"data": {"bikes": [{"lon": -77.03074583333333, "bike_id": "7137f81e49f6ab3de646e142857b542f", "lat": 38.88579, "fusion_lon": 0.0, "fusion_lat": 0.0, "type": "electric_scooter", "name": "7137f81e49f6ab3de646e142857b542f", "is_disabled": 0, "rental_uris": {"ios": "https://dc.lft.to/lastmile_qr_scan", "android": "https://dc.lft.to/lastmile_qr_scan"}, "is_reserved": 0}, {"lon": -76.98360583333333, "bike_id": "0c829934554c67a2cf32dfb527d9ab21", "lat": 38.902858333333334, "fusion_lon": 0.0, "fusion_lat": 0.0, "type": "electric_scooter", "name": "0c829934554c67a2cf32dfb527d9ab21", "is_disabled": 0, "rental_uris": {"ios": "https://dc.lft.to/lastmile_qr_scan", "android": "https://dc.lft.to/lastmile_qr_scan"}, "is_reserved": 0}, {"lon": -77.01124133333333, "bike_id": "d65eb84b319aac60c71b31aef40f69c7", "lat": 38.8682605, "fusion_lon": 0.0, "fusion_lat": 0.0, "type": "electric_scooter", "name": "d65eb84b319aac60c71b31aef40f69c7", "is_disabled": 0, "rental_uris": {"ios": "https://dc.lft.to/lastmile_qr_scan", "android": "https://dc.lft.to/lastmile_qr_scan"}, "is_reserved": 0}, {"lon": -77.058402, "bike_id": "13ef9f22f43303603a8e9d98df9ea441", "lat": 38.905282166666666, "fusion_lon": 0.0, "fusion_lat": 0.0, "type": "electric_scooter", "name": "13ef9f22f43303603a8e9d98df9ea441", "is_disabled": 0, "rental_uris": {"ios": "https://dc.lft.to/lastmile_qr_scan", "android": "https://dc.lft.to/lastmile_qr_scan"}, "is_reserved": 0}, {"lon": -76.99773266666666, "bike_id": "57b16bacdd3858e362bdaea5659ed381", "lat": 38.924435833333334, "fusion_lon": 0.0, "fusion_lat": 0.0, "type": "electric_scooter", "name": "57b16bacdd3858e362bdaea5659ed381", "is_disabled": 0, "rental_uris": {"ios": "https://dc.lft.to/lastmile_qr_scan", "android": "https://dc.lft.to/lastmile_qr_scan"}, "is_reserved": 0}, {"lon": -77.02316083333334, "bike_id": "03d0261a2a34000515dfdaccf9a1dc3d", "lat": 38.909538166666664, "fusion_lon": 0.0, "fusion_lat": 0.0, "type": "electric_scooter", "name": "03d0261a2a34000515dfdaccf9a1dc3d", "is_disabled": 0, "rental_uris": {"ios": "https://dc.lft.to/lastmile_qr_scan", "android": "https://dc.lft.to/lastmile_qr_scan"}, "is_reserved": 0}, {"lon": -77.05867466666666, "bike_id": "87a8a7f05a94120748d433880dd92ce8", "lat": 38.936067333333334, "fusion_lon": 0.0, "fusion_lat": 0.0, "type": "electric_scooter", "name": "87a8a7f05a94120748d433880dd92ce8", "is_disabled": 0, "rental_uris": {"ios": "https://dc.lft.to/lastmile_qr_scan", "android": "https://dc.lft.to/lastmile_qr_scan"}, "is_reserved": 0}, {"lon": -77.0299275, "bike_id": "e7498c766fae9e478a0c0be1dc8e423f", "lat": 38.97436866666666, "fusion_lon": 0.0, "fusion_lat": 0.0, "type": "electric_bike", "name": "e7498c766fae9e478a0c0be1dc8e423f", "is_disabled": 0, "rental_uris": {"ios": "https://dc.lft.to/lastmile_qr_scan", "android": "https://dc.lft.to/lastmile_qr_scan"}, "is_reserved": 0}, {"lon": -77.05035233333334, "bike_id": "4fb18146fdd56f903e296549ede2aa58", "lat": 38.897698, "fusion_lon": 0.0, "fusion_lat": 0.0, "type": "electric_scooter", "name": "4fb18146fdd56f903e296549ede2aa58", "is_disabled": 0, "rental_uris": {"ios": "https://dc.lft.to/lastmile_qr_scan", "android": "https://dc.lft.to/lastmile_qr_scan"}, "is_reserved": 0}, {"lon": -77.05131566666667, "bike_id": "b24e0821a41ee858c81e015d61a4f940", "lat": 38.92360733333334, "fusion_lon": 0.0, "fusion_lat": 0.0, "type": "electric_scooter", "name": "b24e0821a41ee858c81e015d61a4f940", "is_disabled": 0, "rental_uris": {"ios": "https://dc.lft.to/lastmile_qr_scan", "android": "https://dc.lft.to/lastmile_qr_scan"}, "is_reserved": 0}, {"lon": -77.045677, "bike_id": "576d8f51d10858eada126f8b95d3bfca", "lat": 38.91315916666667, "fusion_lon": 0.0, "fusion_lat": 0.0, "type": "electric_scooter", "name": "576d8f51d10858eada126f8b95d3bfca", "is_disabled": 0, "rental_uris": {"ios": "https://dc.lft.to/lastmile_qr_scan", "android": "https://dc.lft.to/lastmile_qr_scan"}, "is_reserved": 0}, {"lon": -77.11579833333333, "bike_id": "bd6f06ed38d2375846d80ab33b863b47", "lat": 38.99338316666667, "fusion_lon": 0.0, "fusion_lat": 0.0, "type": "electric_bike", "name": "bd6f06ed38d2375846d80ab33b863b47", "is_disabled": 0, "rental_uris": {"ios": "https://dc.lft.to/lastmile_qr_scan", "android": "https://dc.lft.to/lastmile_qr_scan"}, "is_reserved": 0}, {"lon": -77.03447566666667, "bike_id": "8d6a0871d5f2f5113ab13a4fc6a48bcf", "lat": 38.91683666666667, "fusion_lon": 0.0, "fusion_lat": 0.0, "type": "electric_scooter", "name": "8d6a0871d5f2f5113ab13a4fc6a48bcf", "is_disabled": 0, "rental_uris": {"ios": "https://dc.lft.to/lastmile_qr_scan", "android": "https://dc.lft.to/lastmile_qr_scan"}, "is_reserved": 0}, {"lon": -77.052356, "bike_id": "820e50021a3f7b20f4c34ab5bf702851", "lat": 38.903425, "fusion_lon": 0.0, "fusion_lat": 0.0, "type": "electric_scooter", "name": "820e50021a3f7b20f4c34ab5bf702851", "is_disabled": 0, "rental_uris": {"ios": "https://dc.lft.to/lastmile_qr_scan", "android": "https://dc.lft.to/lastmile_qr_scan"}, "is_reserved": 0}, {"lon": -76.98528133333333, "bike_id": "1900c6cfac314ec72674e1182a41feaf", "lat": 38.866856166666665, "fusion_lon": 0.0, "fusion_lat": 0.0, "type": "electric_scooter", "name": "1900c6cfac314ec72674e1182a41feaf", "is_disabled": 0, "rental_uris": {"ios": "https://dc.lft.to/lastmile_qr_scan", "android": "https://dc.lft.to/lastmile_qr_scan"}, "is_reserved": 0}, {"lon": -77.03119466666666, "bike_id": "601b6d17a3bff9bf91ca614ed9f18e95", "lat": 38.90430383333333, "fusion_lon": 0.0, "fusion_lat": 0.0, "type": "electric_scooter", "name": "601b6d17a3bff9bf91ca614ed9f18e95", "is_disabled": 0, "rental_uris": {"ios": "https://dc.lft.to/lastmile_qr_scan", "android": "https://dc.lft.to/lastmile_qr_scan"}, "is_reserved": 0}, {"lon": -77.02817016666667, "bike_id": "7dc1209bf0028ceb2f739892f8b29c41", "lat": 38.916903833333336, "fusion_lon": 0.0, "fusion_lat": 0.0, "type": "electric_scooter", "name": "7dc1209bf0028ceb2f739892f8b29c41", "is_disabled": 0, "rental_uris": {"ios": "https://dc.lft.to/lastmile_qr_scan", "android": "https://dc.lft.to/lastmile_qr_scan"}, "is_reserved": 0}, {"lon": -77.02201233333334, "bike_id": "f4ae4cdac9de5be786fa7a2a8be0079e", "lat": 38.911214666666666, "fusion_lon": 0.0, "fusion_lat": 0.0, "type": "electric_scooter", "name": "f4ae4cdac9de5be786fa7a2a8be0079e", "is_disabled": 0, "rental_uris": {"ios": "https://dc.lft.to/lastmile_qr_scan", "android": "https://dc.lft.to/lastmile_qr_scan"}, "is_reserved": 0}, {"lon": -77.13886466666666, "bike_id": "63fedde39966441210057530576c8fbe", "lat": 38.896634666666664, "fusion_lon": 0.0, "fusion_lat": 0.0, "type": "electric_bike", "name": "63fedde39966441210057530576c8fbe", "is_disabled": 0, "rental_uris": {"ios": "https://dc.lft.to/lastmile_qr_scan", "android": "https://dc.lft.to/lastmile_qr_scan"}, "is_reserved": 0}, {"lon": -77.02549983333333, "bike_id": "47d9360e304536e1cc2078bc6021356b", "lat": 38.922519, "fusion_lon": 0.0, "fusion_lat": 0.0, "type": "electric_scooter", "name": "47d9360e304536e1cc2078bc6021356b", "is_disabled": 0, "rental_uris": {"ios": "https://dc.lft.to/lastmile_qr_scan", "android": "https://dc.lft.to/lastmile_qr_scan"}, "is_reserved": 0}, {"lon": -77.0267755, "bike_id": "61313b0c257048705508fe3116035dc1", "lat": 38.90270816666666, "fusion_lon": 0.0, "fusion_lat": 0.0, "type": "electric_scooter", "name": "61313b0c257048705508fe3116035dc1", "is_disabled": 0, "rental_uris": {"ios": "https://dc.lft.to/lastmile_qr_scan", "android": "https://dc.lft.to/lastmile_qr_scan"}, "is_reserved": 0}, {"lon": -77.014796, "bike_id": "0c32c1d1f6c150f78e1bebc67a38117f", "lat": 38.958663333333334, "fusion_lon": 0.0, "fusion_lat": 0.0, "type": "electric_scooter", "name": "0c32c1d1f6c150f78e1bebc67a38117f", "is_disabled": 0, "rental_uris": {"ios": "https://dc.lft.to/lastmile_qr_scan", "android": "https://dc.lft.to/lastmile_qr_scan"}, "is_reserved": 0}, {"lon": -77.02992683333333, "bike_id": "0584419ddcbd6d1ad854661bff8e1b2d", "lat": 38.8982345, "fusion_lon": 0.0, "fusion_lat": 0.0, "type": "electric_scooter", "name": "0584419ddcbd6d1ad854661bff8e1b2d", "is_disabled": 0, "rental_uris": {"ios": "https://dc.lft.to/lastmile_qr_scan", "android": "https://dc.lft.to/lastmile_qr_scan"}, "is_reserved": 0}, {"lon": -77.0210515, "bike_id": "c179b973c87aec55c048960f444a86a7", "lat": 38.9096655, "fusion_lon": 0.0, "fusion_lat": 0.0, "type": "electric_scooter", "name": "c179b973c87aec55c048960f444a86a7", "is_disabled": 0, "rental_uris": {"ios": "https://dc.lft.to/lastmile_qr_scan", "android": "https://dc.lft.to/lastmile_qr_scan"}, "is_reserved": 0}, {"lon": -77.046087, "bike_id": "32f5ce0cebb96d12a334f8fe43532021", "lat": 38.883787, "fusion_lon": 0.0, "fusion_lat": 0.0, "type": "electric_scooter", "name": "32f5ce0cebb96d12a334f8fe43532021", "is_disabled": 0, "rental_uris": {"ios": "https://dc.lft.to/lastmile_qr_scan", "android": "https://dc.lft.to/lastmile_qr_scan"}, "is_reserved": 0}, {"lon": -77.0221505, "bike_id": "d2bfde696f061511113e1bf673f318dc", "lat": 38.90304316666667, "fusion_lon": 0.0, "fusion_lat": 0.0, "type": "electric_scooter", "name": "d2bfde696f061511113e1bf673f318dc", "is_disabled": 0, "rental_uris": {"ios": "https://dc.lft.to/lastmile_qr_scan", "android": "https://dc.lft.to/lastmile_qr_scan"}, "is_reserved": 0}, {"lon": -76.9955, "bike_id": "f356bea36ad0792e12e033e0d5ba7372", "lat": 38.86254133333333, "fusion_lon": 0.0, "fusion_lat": 0.0, "type": "electric_scooter", "name": "f356bea36ad0792e12e033e0d5ba7372", "is_disabled": 0, "rental_uris": {"ios": "https://dc.lft.to/lastmile_qr_scan", "android": "https://dc.lft.to/lastmile_qr_scan"}, "is_reserved": 0}, {"lon": -77.0231835, "bike_id": "5c17e8e769131c170e4fd72d2168692e", "lat": 38.90954883333333, "fusion_lon": 0.0, "fusion_lat": 0.0, "type": "electric_scooter", "name": "5c17e8e769131c170e4fd72d2168692e", "is_disabled": 0, "rental_uris": {"ios": "https://dc.lft.to/lastmile_qr_scan", "android": "https://dc.lft.to/lastmile_qr_scan"}, "is_reserved": 0}, {"lon": -77.03766566666667, "bike_id": "9c99c0347582ccc79896fe7ac67ffa69", "lat": 38.91570316666667, "fusion_lon": 0.0, "fusion_lat": 0.0, "type": "electric_scooter", "name": "9c99c0347582ccc79896fe7ac67ffa69", "is_disabled": 0, "rental_uris": {"ios": "https://dc.lft.to/lastmile_qr_scan", "android": "https://dc.lft.to/lastmile_qr_scan"}, "is_reserved": 0}, {"lon": -77.04001783333334, "bike_id": "82bc36fc7fd9247d84a1a95d010f868d", "lat": 38.914139166666665, "fusion_lon": 0.0, "fusion_lat": 0.0, "type": "electric_scooter", "name": "82bc36fc7fd9247d84a1a95d010f868d", "is_disabled": 0, "rental_uris": {"ios": "https://dc.lft.to/lastmile_qr_scan", "android": "https://dc.lft.to/lastmile_qr_scan"}, "is_reserved": 0}, {"lon": -77.033351, "bike_id": "c8321fa5804025309095e9519956e7a8", "lat": 38.96042966666667, "fusion_lon": 0.0, "fusion_lat": 0.0, "type": "electric_scooter", "name": "c8321fa5804025309095e9519956e7a8", "is_disabled": 0, "rental_uris": {"ios": "https://dc.lft.to/lastmile_qr_scan", "android": "https://dc.lft.to/lastmile_qr_scan"}, "is_reserved": 0}, {"lon": -77.027989, "bike_id": "634ce11f12167bc3533c6ae270a160f0", "lat": 38.954006, "fusion_lon": 0.0, "fusion_lat": 0.0, "type": "electric_scooter", "name": "634ce11f12167bc3533c6ae270a160f0", "is_disabled": 0, "rental_uris": {"ios": "https://dc.lft.to/lastmile_qr_scan", "android": "https://dc.lft.to/lastmile_qr_scan"}, "is_reserved": 0}, {"lon": -77.02002816666666, "bike_id": "fd3278f3f2bf9d68c83e62fbfed66d8e", "lat": 38.90438366666667, "fusion_lon": 0.0, "fusion_lat": 0.0, "type": "electric_scooter", "name": "fd3278f3f2bf9d68c83e62fbfed66d8e", "is_disabled": 0, "rental_uris": {"ios": "https://dc.lft.to/lastmile_qr_scan", "android": "https://dc.lft.to/lastmile_qr_scan"}, "is_reserved": 0}, {"lon": -77.02217833333333, "bike_id": "efb13630bb19f12acaa9b1c5c3da86fd", "lat": 38.910728166666665, "fusion_lon": 0.0, "fusion_lat": 0.0, "type": "electric_scooter", "name": "efb13630bb19f12acaa9b1c5c3da86fd", "is_disabled": 0, "rental_uris": {"ios": "https://dc.lft.to/lastmile_qr_scan", "android": "https://dc.lft.to/lastmile_qr_scan"}, "is_reserved": 0}, {"lon": -76.99136, "bike_id": "18e0999bc5f945e603be7c403cda7339", "lat": 38.922707333333335, "fusion_lon": 0.0, "fusion_lat": 0.0, "type": "electric_scooter", "name": "18e0999bc5f945e603be7c403cda7339", "is_disabled": 0, "rental_uris": {"ios": "https://dc.lft.to/lastmile_qr_scan", "android": "https://dc.lft.to/lastmile_qr_scan"}, "is_reserved": 0}, {"lon": -77.02685733333334, "bike_id": "111cbdc9447dfde4132aaae7eb18976c", "lat": 38.984519, "fusion_lon": 0.0, "fusion_lat": 0.0, "type": "electric_scooter", "name": "111cbdc9447dfde4132aaae7eb18976c", "is_disabled": 0, "rental_uris": {"ios": "https://dc.lft.to/lastmile_qr_scan", "android": "https://dc.lft.to/lastmile_qr_scan"}, "is_reserved": 0}, {"lon": -76.9638625, "bike_id": "8803a5431eb02a05375d0e72cddfc1c0", "lat": 38.95180783333333, "fusion_lon": 0.0, "fusion_lat": 0.0, "type": "electric_bike", "name": "8803a5431eb02a05375d0e72cddfc1c0", "is_disabled": 0, "rental_uris": {"ios": "https://dc.lft.to/lastmile_qr_scan", "android": "https://dc.lft.to/lastmile_qr_scan"}, "is_reserved": 0}, {"lon": -77.02819016666666, "bike_id": "e7f7445ec7147eebb50735c3e62a3a17", "lat": 38.91699533333333, "fusion_lon": 0.0, "fusion_lat": 0.0, "type": "electric_scooter", "name": "e7f7445ec7147eebb50735c3e62a3a17", "is_disabled": 0, "rental_uris": {"ios": "https://dc.lft.to/lastmile_qr_scan", "android": "https://dc.lft.to/lastmile_qr_scan"}, "is_reserved": 0}, {"lon": -77.034377, "bike_id": "0871889e708e5d4a426b25a14d57f114", "lat": 38.90274016666667, "fusion_lon": 0.0, "fusion_lat": 0.0, "type": "electric_scooter", "name": "0871889e708e5d4a426b25a14d57f114", "is_disabled": 0, "rental_uris": {"ios": "https://dc.lft.to/lastmile_qr_scan", "android": "https://dc.lft.to/lastmile_qr_scan"}, "is_reserved": 0}, {"lon": -77.02975833333333, "bike_id": "c7f20e41b477360b288f0c466d00d90c", "lat": 38.91722033333333, "fusion_lon": 0.0, "fusion_lat": 0.0, "type": "electric_scooter", "name": "c7f20e41b477360b288f0c466d00d90c", "is_disabled": 0, "rental_uris": {"ios": "https://dc.lft.to/lastmile_qr_scan", "android": "https://dc.lft.to/lastmile_qr_scan"}, "is_reserved": 0}, {"lon": -77.032859, "bike_id": "4ad152a6379d63a55268a25d5749b2fb", "lat": 38.93638766666667, "fusion_lon": 0.0, "fusion_lat": 0.0, "type": "electric_scooter", "name": "4ad152a6379d63a55268a25d5749b2fb", "is_disabled": 0, "rental_uris": {"ios": "https://dc.lft.to/lastmile_qr_scan", "android": "https://dc.lft.to/lastmile_qr_scan"}, "is_reserved": 0}, {"lon": -77.07868983333333, "bike_id": "387aae6f9c5c312891e3eab0255bb995", "lat": 38.92472583333333, "fusion_lon": 0.0, "fusion_lat": 0.0, "type": "electric_scooter", "name": "387aae6f9c5c312891e3eab0255bb995", "is_disabled": 0, "rental_uris": {"ios": "https://dc.lft.to/lastmile_qr_scan", "android": "https://dc.lft.to/lastmile_qr_scan"}, "is_reserved": 0}, {"lon": -77.0248015, "bike_id": "6aeb3f8291f83bbc5421d620ca8fb8e1", "lat": 38.936223166666664, "fusion_lon": 0.0, "fusion_lat": 0.0, "type": "electric_scooter", "name": "6aeb3f8291f83bbc5421d620ca8fb8e1", "is_disabled": 0, "rental_uris": {"ios": "https://dc.lft.to/lastmile_qr_scan", "android": "https://dc.lft.to/lastmile_qr_scan"}, "is_reserved": 0}, {"lon": -77.032945, "bike_id": "60e8ac813bd6eb67a6d6f27a4113e681", "lat": 38.956503833333336, "fusion_lon": 0.0, "fusion_lat": 0.0, "type": "electric_scooter", "name": "60e8ac813bd6eb67a6d6f27a4113e681", "is_disabled": 0, "rental_uris": {"ios": "https://dc.lft.to/lastmile_qr_scan", "android": "https://dc.lft.to/lastmile_qr_scan"}, "is_reserved": 0}, {"lon": -76.99629533333334, "bike_id": "7ab09b276c362667708de6edc8de7f50", "lat": 38.894319333333335, "fusion_lon": 0.0, "fusion_lat": 0.0, "type": "electric_bike", "name": "7ab09b276c362667708de6edc8de7f50", "is_disabled": 0, "rental_uris": {"ios": "https://dc.lft.to/lastmile_qr_scan", "android": "https://dc.lft.to/lastmile_qr_scan"}, "is_reserved": 0}, {"lon": -77.1784465, "bike_id": "442190ea457b93855691724305b14b4c", "lat": 39.088577, "fusion_lon": 0.0, "fusion_lat": 0.0, "type": "electric_bike", "name": "442190ea457b93855691724305b14b4c", "is_disabled": 0, "rental_uris": {"ios": "https://dc.lft.to/lastmile_qr_scan", "android": "https://dc.lft.to/lastmile_qr_scan"}, "is_reserved": 0}, {"lon": -76.99863216666667, "bike_id": "b1f2b8e0646258fab49cbd8368fe3670", "lat": 38.9024125, "fusion_lon": 0.0, "fusion_lat": 0.0, "type": "electric_scooter", "name": "b1f2b8e0646258fab49cbd8368fe3670", "is_disabled": 0, "rental_uris": {"ios": "https://dc.lft.to/lastmile_qr_scan", "android": "https://dc.lft.to/lastmile_qr_scan"}, "is_reserved": 0}, {"lon": -76.9811495, "bike_id": "4a47e26a4fcb224b450171e5f33c931c", "lat": 38.90399216666667, "fusion_lon": 0.0, "fusion_lat": 0.0, "type": "electric_scooter", "name": "4a47e26a4fcb224b450171e5f33c931c", "is_disabled": 0, "rental_uris": {"ios": "https://dc.lft.to/lastmile_qr_scan", "android": "https://dc.lft.to/lastmile_qr_scan"}, "is_reserved": 0}, {"lon": -77.05498633333333, "bike_id": "9f068b5f18acdcfbb017dea04b6bef75", "lat": 38.89980933333333, "fusion_lon": 0.0, "fusion_lat": 0.0, "type": "electric_scooter", "name": "9f068b5f18acdcfbb017dea04b6bef75", "is_disabled": 0, "rental_uris": {"ios": "https://dc.lft.to/lastmile_qr_scan", "android": "https://dc.lft.to/lastmile_qr_scan"}, "is_reserved": 0}, {"lon": -77.043064, "bike_id": "c01c02e9c2714547ae63a01da17df1f4", "lat": 38.907288666666666, "fusion_lon": 0.0, "fusion_lat": 0.0, "type": "electric_scooter", "name": "c01c02e9c2714547ae63a01da17df1f4", "is_disabled": 0, "rental_uris": {"ios": "https://dc.lft.to/lastmile_qr_scan", "android": "https://dc.lft.to/lastmile_qr_scan"}, "is_reserved": 0}, {"lon": -77.0107875, "bike_id": "253e6c591333e5361a0e514db01a622c", "lat": 38.907245833333334, "fusion_lon": 0.0, "fusion_lat": 0.0, "type": "electric_scooter", "name": "253e6c591333e5361a0e514db01a622c", "is_disabled": 0, "rental_uris": {"ios": "https://dc.lft.to/lastmile_qr_scan", "android": "https://dc.lft.to/lastmile_qr_scan"}, "is_reserved": 0}, {"lon": -77.022877, "bike_id": "6b3fa7bc395ad5b93593a2d7c3d60c29", "lat": 38.87886533333333, "fusion_lon": 0.0, "fusion_lat": 0.0, "type": "electric_scooter", "name": "6b3fa7bc395ad5b93593a2d7c3d60c29", "is_disabled": 0, "rental_uris": {"ios": "https://dc.lft.to/lastmile_qr_scan", "android": "https://dc.lft.to/lastmile_qr_scan"}, "is_reserved": 0}, {"lon": -77.02208133333333, "bike_id": "6a01c90c405e37bb5014a131270c17cc", "lat": 38.920059, "fusion_lon": 0.0, "fusion_lat": 0.0, "type": "electric_scooter", "name": "6a01c90c405e37bb5014a131270c17cc", "is_disabled": 0, "rental_uris": {"ios": "https://dc.lft.to/lastmile_qr_scan", "android": "https://dc.lft.to/lastmile_qr_scan"}, "is_reserved": 0}, {"lon": -77.0424945, "bike_id": "effe2a111042eea7153f332043c512a7", "lat": 38.922381333333334, "fusion_lon": 0.0, "fusion_lat": 0.0, "type": "electric_scooter", "name": "effe2a111042eea7153f332043c512a7", "is_disabled": 0, "rental_uris": {"ios": "https://dc.lft.to/lastmile_qr_scan", "android": "https://dc.lft.to/lastmile_qr_scan"}, "is_reserved": 0}, {"lon": -77.0034905, "bike_id": "b7e8a67d443f586c273d742b68b56ff2", "lat": 38.899429833333336, "fusion_lon": 0.0, "fusion_lat": 0.0, "type": "electric_scooter", "name": "b7e8a67d443f586c273d742b68b56ff2", "is_disabled": 0, "rental_uris": {"ios": "https://dc.lft.to/lastmile_qr_scan", "android": "https://dc.lft.to/lastmile_qr_scan"}, "is_reserved": 0}, {"lon": -77.04348233333333, "bike_id": "3cd7e2a3a01cfae5cb0e4a2881f46702", "lat": 38.92191283333333, "fusion_lon": 0.0, "fusion_lat": 0.0, "type": "electric_scooter", "name": "3cd7e2a3a01cfae5cb0e4a2881f46702", "is_disabled": 0, "rental_uris": {"ios": "https://dc.lft.to/lastmile_qr_scan", "android": "https://dc.lft.to/lastmile_qr_scan"}, "is_reserved": 0}, {"lon": -77.04508633333333, "bike_id": "96d4b5e4daf0e2ee04f21913b7b7ae64", "lat": 38.91925833333333, "fusion_lon": 0.0, "fusion_lat": 0.0, "type": "electric_scooter", "name": "96d4b5e4daf0e2ee04f21913b7b7ae64", "is_disabled": 0, "rental_uris": {"ios": "https://dc.lft.to/lastmile_qr_scan", "android": "https://dc.lft.to/lastmile_qr_scan"}, "is_reserved": 0}, {"lon": -77.036476, "bike_id": "c1530f1d83f09ae9e5efa435aeafb248", "lat": 38.902773833333335, "fusion_lon": 0.0, "fusion_lat": 0.0, "type": "electric_scooter", "name": "c1530f1d83f09ae9e5efa435aeafb248", "is_disabled": 0, "rental_uris": {"ios": "https://dc.lft.to/lastmile_qr_scan", "android": "https://dc.lft.to/lastmile_qr_scan"}, "is_reserved": 0}, {"lon": -76.98842333333333, "bike_id": "d005ba73b97a12ebf97169ccce506467", "lat": 38.90123766666667, "fusion_lon": 0.0, "fusion_lat": 0.0, "type": "electric_scooter", "name": "d005ba73b97a12ebf97169ccce506467", "is_disabled": 0, "rental_uris": {"ios": "https://dc.lft.to/lastmile_qr_scan", "android": "https://dc.lft.to/lastmile_qr_scan"}, "is_reserved": 0}, {"lon": -76.993568, "bike_id": "18a90e8793378da530c5b69e5a8603f1", "lat": 38.845042166666666, "fusion_lon": 0.0, "fusion_lat": 0.0, "type": "electric_bike", "name": "18a90e8793378da530c5b69e5a8603f1", "is_disabled": 0, "rental_uris": {"ios": "https://dc.lft.to/lastmile_qr_scan", "android": "https://dc.lft.to/lastmile_qr_scan"}, "is_reserved": 0}, {"lon": -77.0435375, "bike_id": "f842d24c2e37aaea54b17643a6db8c2e", "lat": 38.92341733333333, "fusion_lon": 0.0, "fusion_lat": 0.0, "type": "electric_scooter", "name": "f842d24c2e37aaea54b17643a6db8c2e", "is_disabled": 0, "rental_uris": {"ios": "https://dc.lft.to/lastmile_qr_scan", "android": "https://dc.lft.to/lastmile_qr_scan"}, "is_reserved": 0}, {"lon": -76.944048, "bike_id": "655f025d55f5f671e5c6ef850a190448", "lat": 38.881423833333336, "fusion_lon": 0.0, "fusion_lat": 0.0, "type": "electric_scooter", "name": "655f025d55f5f671e5c6ef850a190448", "is_disabled": 0, "rental_uris": {"ios": "https://dc.lft.to/lastmile_qr_scan", "android": "https://dc.lft.to/lastmile_qr_scan"}, "is_reserved": 0}, {"lon": -77.06300216666666, "bike_id": "b215dfdf55092d5cb449162278843f2d", "lat": 38.903861666666664, "fusion_lon": 0.0, "fusion_lat": 0.0, "type": "electric_scooter", "name": "b215dfdf55092d5cb449162278843f2d", "is_disabled": 0, "rental_uris": {"ios": "https://dc.lft.to/lastmile_qr_scan", "android": "https://dc.lft.to/lastmile_qr_scan"}, "is_reserved": 0}, {"lon": -77.0357295, "bike_id": "df32cba7eef08533218e69502fb01831", "lat": 38.918135666666664, "fusion_lon": 0.0, "fusion_lat": 0.0, "type": "electric_scooter", "name": "df32cba7eef08533218e69502fb01831", "is_disabled": 0, "rental_uris": {"ios": "https://dc.lft.to/lastmile_qr_scan", "android": "https://dc.lft.to/lastmile_qr_scan"}, "is_reserved": 0}, {"lon": -77.022044, "bike_id": "726668c92377adaf152adf9fb280e93f", "lat": 38.89955483333333, "fusion_lon": 0.0, "fusion_lat": 0.0, "type": "electric_scooter", "name": "726668c92377adaf152adf9fb280e93f", "is_disabled": 0, "rental_uris": {"ios": "https://dc.lft.to/lastmile_qr_scan", "android": "https://dc.lft.to/lastmile_qr_scan"}, "is_reserved": 0}, {"lon": -77.0442175, "bike_id": "d9f02a2a1d0386ed310f4296647661fe", "lat": 38.911258333333336, "fusion_lon": 0.0, "fusion_lat": 0.0, "type": "electric_scooter", "name": "d9f02a2a1d0386ed310f4296647661fe", "is_disabled": 0, "rental_uris": {"ios": "https://dc.lft.to/lastmile_qr_scan", "android": "https://dc.lft.to/lastmile_qr_scan"}, "is_reserved": 0}, {"lon": -77.03078116666667, "bike_id": "d34f3c2509a3d6a2db6899a60428b610", "lat": 38.90749666666667, "fusion_lon": 0.0, "fusion_lat": 0.0, "type": "electric_scooter", "name": "d34f3c2509a3d6a2db6899a60428b610", "is_disabled": 0, "rental_uris": {"ios": "https://dc.lft.to/lastmile_qr_scan", "android": "https://dc.lft.to/lastmile_qr_scan"}, "is_reserved": 0}, {"lon": -77.02279033333333, "bike_id": "4c75fab520838e85dba18f43ecf03e4f", "lat": 38.9272265, "fusion_lon": 0.0, "fusion_lat": 0.0, "type": "electric_scooter", "name": "4c75fab520838e85dba18f43ecf03e4f", "is_disabled": 0, "rental_uris": {"ios": "https://dc.lft.to/lastmile_qr_scan", "android": "https://dc.lft.to/lastmile_qr_scan"}, "is_reserved": 0}, {"lon": -76.97497366666667, "bike_id": "f7314cbd3d09ab2185f998f04ae3583f", "lat": 38.919207666666665, "fusion_lon": 0.0, "fusion_lat": 0.0, "type": "electric_scooter", "name": "f7314cbd3d09ab2185f998f04ae3583f", "is_disabled": 0, "rental_uris": {"ios": "https://dc.lft.to/lastmile_qr_scan", "android": "https://dc.lft.to/lastmile_qr_scan"}, "is_reserved": 0}, {"lon": -77.045843, "bike_id": "243cd01995e4d9de16863a6eb35728aa", "lat": 38.92123766666667, "fusion_lon": 0.0, "fusion_lat": 0.0, "type": "electric_scooter", "name": "243cd01995e4d9de16863a6eb35728aa", "is_disabled": 0, "rental_uris": {"ios": "https://dc.lft.to/lastmile_qr_scan", "android": "https://dc.lft.to/lastmile_qr_scan"}, "is_reserved": 0}, {"lon": -77.02973016666667, "bike_id": "e8b78d79ca8a06e610f50d776e9a6d2e", "lat": 38.912723666666665, "fusion_lon": 0.0, "fusion_lat": 0.0, "type": "electric_scooter", "name": "e8b78d79ca8a06e610f50d776e9a6d2e", "is_disabled": 0, "rental_uris": {"ios": "https://dc.lft.to/lastmile_qr_scan", "android": "https://dc.lft.to/lastmile_qr_scan"}, "is_reserved": 0}, {"lon": -77.0127995, "bike_id": "0747f20f2cfd764a08b2ea74cbceee3d", "lat": 38.88875016666667, "fusion_lon": 0.0, "fusion_lat": 0.0, "type": "electric_bike", "name": "0747f20f2cfd764a08b2ea74cbceee3d", "is_disabled": 0, "rental_uris": {"ios": "https://dc.lft.to/lastmile_qr_scan", "android": "https://dc.lft.to/lastmile_qr_scan"}, "is_reserved": 0}, {"lon": -77.04107716666667, "bike_id": "390ed4b450d606070672e88c296c0dfc", "lat": 38.905765, "fusion_lon": 0.0, "fusion_lat": 0.0, "type": "electric_scooter", "name": "390ed4b450d606070672e88c296c0dfc", "is_disabled": 0, "rental_uris": {"ios": "https://dc.lft.to/lastmile_qr_scan", "android": "https://dc.lft.to/lastmile_qr_scan"}, "is_reserved": 0}, {"lon": -76.98747083333333, "bike_id": "b286c66c7b2f7a8e33b691497402724e", "lat": 38.900326166666666, "fusion_lon": 0.0, "fusion_lat": 0.0, "type": "electric_scooter", "name": "b286c66c7b2f7a8e33b691497402724e", "is_disabled": 0, "rental_uris": {"ios": "https://dc.lft.to/lastmile_qr_scan", "android": "https://dc.lft.to/lastmile_qr_scan"}, "is_reserved": 0}, {"lon": -77.02759866666666, "bike_id": "6c527f662c4dd3106377c6213599dc46", "lat": 38.923782833333334, "fusion_lon": 0.0, "fusion_lat": 0.0, "type": "electric_scooter", "name": "6c527f662c4dd3106377c6213599dc46", "is_disabled": 0, "rental_uris": {"ios": "https://dc.lft.to/lastmile_qr_scan", "android": "https://dc.lft.to/lastmile_qr_scan"}, "is_reserved": 0}, {"lon": -76.97246566666666, "bike_id": "89a69979be2fb40b4b292065b4a27027", "lat": 38.90347666666667, "fusion_lon": 0.0, "fusion_lat": 0.0, "type": "electric_scooter", "name": "89a69979be2fb40b4b292065b4a27027", "is_disabled": 0, "rental_uris": {"ios": "https://dc.lft.to/lastmile_qr_scan", "android": "https://dc.lft.to/lastmile_qr_scan"}, "is_reserved": 0}, {"lon": -76.99705816666666, "bike_id": "f22a703b3a4fd83b24b4a8407320c8d7", "lat": 38.844262, "fusion_lon": 0.0, "fusion_lat": 0.0, "type": "electric_scooter", "name": "f22a703b3a4fd83b24b4a8407320c8d7", "is_disabled": 0, "rental_uris": {"ios": "https://dc.lft.to/lastmile_qr_scan", "android": "https://dc.lft.to/lastmile_qr_scan"}, "is_reserved": 0}, {"lon": -77.01762383333333, "bike_id": "3973eeba3a3196f49ac38aeeb11ac185", "lat": 38.881974666666665, "fusion_lon": 0.0, "fusion_lat": 0.0, "type": "electric_scooter", "name": "3973eeba3a3196f49ac38aeeb11ac185", "is_disabled": 0, "rental_uris": {"ios": "https://dc.lft.to/lastmile_qr_scan", "android": "https://dc.lft.to/lastmile_qr_scan"}, "is_reserved": 0}, {"lon": -77.0184135, "bike_id": "10b98611f9324fdee562b7c23acf30c5", "lat": 38.90927883333333, "fusion_lon": 0.0, "fusion_lat": 0.0, "type": "electric_scooter", "name": "10b98611f9324fdee562b7c23acf30c5", "is_disabled": 0, "rental_uris": {"ios": "https://dc.lft.to/lastmile_qr_scan", "android": "https://dc.lft.to/lastmile_qr_scan"}, "is_reserved": 0}, {"lon": -77.005424, "bike_id": "59afb98da149eb48a179234234d8506a", "lat": 38.87541433333333, "fusion_lon": 0.0, "fusion_lat": 0.0, "type": "electric_scooter", "name": "59afb98da149eb48a179234234d8506a", "is_disabled": 0, "rental_uris": {"ios": "https://dc.lft.to/lastmile_qr_scan", "android": "https://dc.lft.to/lastmile_qr_scan"}, "is_reserved": 0}, {"lon": -77.027024, "bike_id": "72057a96544d6d9d8950dcf824bc9497", "lat": 38.918077333333336, "fusion_lon": 0.0, "fusion_lat": 0.0, "type": "electric_scooter", "name": "72057a96544d6d9d8950dcf824bc9497", "is_disabled": 0, "rental_uris": {"ios": "https://dc.lft.to/lastmile_qr_scan", "android": "https://dc.lft.to/lastmile_qr_scan"}, "is_reserved": 0}, {"lon": -77.06756683333333, "bike_id": "4317856d88870e0d89455de5536ba47b", "lat": 38.903624, "fusion_lon": 0.0, "fusion_lat": 0.0, "type": "electric_bike", "name": "4317856d88870e0d89455de5536ba47b", "is_disabled": 0, "rental_uris": {"ios": "https://dc.lft.to/lastmile_qr_scan", "android": "https://dc.lft.to/lastmile_qr_scan"}, "is_reserved": 0}, {"lon": -76.9788825, "bike_id": "04b63b4288e80226cabf1b7128ceb335", "lat": 38.885375833333335, "fusion_lon": 0.0, "fusion_lat": 0.0, "type": "electric_scooter", "name": "04b63b4288e80226cabf1b7128ceb335", "is_disabled": 0, "rental_uris": {"ios": "https://dc.lft.to/lastmile_qr_scan", "android": "https://dc.lft.to/lastmile_qr_scan"}, "is_reserved": 0}, {"lon": -76.98557466666666, "bike_id": "f8686c8479e859e63d04901d028192a0", "lat": 38.9071685, "fusion_lon": 0.0, "fusion_lat": 0.0, "type": "electric_scooter", "name": "f8686c8479e859e63d04901d028192a0", "is_disabled": 0, "rental_uris": {"ios": "https://dc.lft.to/lastmile_qr_scan", "android": "https://dc.lft.to/lastmile_qr_scan"}, "is_reserved": 0}, {"lon": -76.9833405, "bike_id": "9e1709dd57a6d68bd39ac39f804ed52c", "lat": 38.89544016666667, "fusion_lon": 0.0, "fusion_lat": 0.0, "type": "electric_scooter", "name": "9e1709dd57a6d68bd39ac39f804ed52c", "is_disabled": 0, "rental_uris": {"ios": "https://dc.lft.to/lastmile_qr_scan", "android": "https://dc.lft.to/lastmile_qr_scan"}, "is_reserved": 0}, {"lon": -77.11915316666666, "bike_id": "f9cd64426cf4033d01d856ab22409134", "lat": 38.880940833333334, "fusion_lon": 0.0, "fusion_lat": 0.0, "type": "electric_bike", "name": "f9cd64426cf4033d01d856ab22409134", "is_disabled": 0, "rental_uris": {"ios": "https://dc.lft.to/lastmile_qr_scan", "android": "https://dc.lft.to/lastmile_qr_scan"}, "is_reserved": 0}, {"lon": -77.04163416666667, "bike_id": "f8641fa5c0b03a9006b8be6df23d2933", "lat": 38.9163655, "fusion_lon": 0.0, "fusion_lat": 0.0, "type": "electric_scooter", "name": "f8641fa5c0b03a9006b8be6df23d2933", "is_disabled": 0, "rental_uris": {"ios": "https://dc.lft.to/lastmile_qr_scan", "android": "https://dc.lft.to/lastmile_qr_scan"}, "is_reserved": 0}, {"lon": -77.01846033333334, "bike_id": "e88271c4af10e65fbdf4329d9eab9224", "lat": 38.92278733333333, "fusion_lon": 0.0, "fusion_lat": 0.0, "type": "electric_scooter", "name": "e88271c4af10e65fbdf4329d9eab9224", "is_disabled": 0, "rental_uris": {"ios": "https://dc.lft.to/lastmile_qr_scan", "android": "https://dc.lft.to/lastmile_qr_scan"}, "is_reserved": 0}, {"lon": -77.03282033333333, "bike_id": "a8dfa8d13494fb851d99dec5adf78706", "lat": 38.934516, "fusion_lon": 0.0, "fusion_lat": 0.0, "type": "electric_scooter", "name": "a8dfa8d13494fb851d99dec5adf78706", "is_disabled": 0, "rental_uris": {"ios": "https://dc.lft.to/lastmile_qr_scan", "android": "https://dc.lft.to/lastmile_qr_scan"}, "is_reserved": 0}, {"lon": -77.04663183333334, "bike_id": "41bcd220518d306af395db33f2869186", "lat": 38.913552333333335, "fusion_lon": 0.0, "fusion_lat": 0.0, "type": "electric_scooter", "name": "41bcd220518d306af395db33f2869186", "is_disabled": 0, "rental_uris": {"ios": "https://dc.lft.to/lastmile_qr_scan", "android": "https://dc.lft.to/lastmile_qr_scan"}, "is_reserved": 0}, {"lon": -77.005705, "bike_id": "d361c6f6245d9bb5c964e627a4507a4a", "lat": 38.8747305, "fusion_lon": 0.0, "fusion_lat": 0.0, "type": "electric_scooter", "name": "d361c6f6245d9bb5c964e627a4507a4a", "is_disabled": 0, "rental_uris": {"ios": "https://dc.lft.to/lastmile_qr_scan", "android": "https://dc.lft.to/lastmile_qr_scan"}, "is_reserved": 0}, {"lon": -77.03445533333333, "bike_id": "528aa3496dc9b7e9ce6de63b12de7fb4", "lat": 38.934358, "fusion_lon": 0.0, "fusion_lat": 0.0, "type": "electric_scooter", "name": "528aa3496dc9b7e9ce6de63b12de7fb4", "is_disabled": 0, "rental_uris": {"ios": "https://dc.lft.to/lastmile_qr_scan", "android": "https://dc.lft.to/lastmile_qr_scan"}, "is_reserved": 0}, {"lon": -77.01954633333334, "bike_id": "bf46092bc8289390d69d8cd278f50228", "lat": 38.91303166666667, "fusion_lon": 0.0, "fusion_lat": 0.0, "type": "electric_scooter", "name": "bf46092bc8289390d69d8cd278f50228", "is_disabled": 0, "rental_uris": {"ios": "https://dc.lft.to/lastmile_qr_scan", "android": "https://dc.lft.to/lastmile_qr_scan"}, "is_reserved": 0}, {"lon": -77.04606183333334, "bike_id": "bc3b9464aae3fdb53d3ab8f6069ff451", "lat": 38.90763966666667, "fusion_lon": 0.0, "fusion_lat": 0.0, "type": "electric_scooter", "name": "bc3b9464aae3fdb53d3ab8f6069ff451", "is_disabled": 0, "rental_uris": {"ios": "https://dc.lft.to/lastmile_qr_scan", "android": "https://dc.lft.to/lastmile_qr_scan"}, "is_reserved": 0}, {"lon": -76.954761, "bike_id": "bdf243109a968788db6b8e1c79271f63", "lat": 38.88650483333333, "fusion_lon": 0.0, "fusion_lat": 0.0, "type": "electric_scooter", "name": "bdf243109a968788db6b8e1c79271f63", "is_disabled": 0, "rental_uris": {"ios": "https://dc.lft.to/lastmile_qr_scan", "android": "https://dc.lft.to/lastmile_qr_scan"}, "is_reserved": 0}, {"lon": -76.9866365, "bike_id": "b068d22c4eb63b1cca4558269efb7780", "lat": 38.867280666666666, "fusion_lon": 0.0, "fusion_lat": 0.0, "type": "electric_scooter", "name": "b068d22c4eb63b1cca4558269efb7780", "is_disabled": 0, "rental_uris": {"ios": "https://dc.lft.to/lastmile_qr_scan", "android": "https://dc.lft.to/lastmile_qr_scan"}, "is_reserved": 0}, {"lon": -77.03085616666667, "bike_id": "d0ee123114c71554ef1a5e07b2f13607", "lat": 38.915541166666664, "fusion_lon": 0.0, "fusion_lat": 0.0, "type": "electric_scooter", "name": "d0ee123114c71554ef1a5e07b2f13607", "is_disabled": 0, "rental_uris": {"ios": "https://dc.lft.to/lastmile_qr_scan", "android": "https://dc.lft.to/lastmile_qr_scan"}, "is_reserved": 0}, {"lon": -77.02504383333333, "bike_id": "7a62199382d62a1305b382b087e966bd", "lat": 38.925870833333335, "fusion_lon": 0.0, "fusion_lat": 0.0, "type": "electric_scooter", "name": "7a62199382d62a1305b382b087e966bd", "is_disabled": 0, "rental_uris": {"ios": "https://dc.lft.to/lastmile_qr_scan", "android": "https://dc.lft.to/lastmile_qr_scan"}, "is_reserved": 0}, {"lon": -77.036782, "bike_id": "27153772fd51a542d4a822a1bd8bdd1c", "lat": 38.92099233333333, "fusion_lon": 0.0, "fusion_lat": 0.0, "type": "electric_scooter", "name": "27153772fd51a542d4a822a1bd8bdd1c", "is_disabled": 0, "rental_uris": {"ios": "https://dc.lft.to/lastmile_qr_scan", "android": "https://dc.lft.to/lastmile_qr_scan"}, "is_reserved": 0}, {"lon": -77.02970983333333, "bike_id": "638dd03b7b22e61384d688bb77934e90", "lat": 38.91675216666667, "fusion_lon": 0.0, "fusion_lat": 0.0, "type": "electric_scooter", "name": "638dd03b7b22e61384d688bb77934e90", "is_disabled": 0, "rental_uris": {"ios": "https://dc.lft.to/lastmile_qr_scan", "android": "https://dc.lft.to/lastmile_qr_scan"}, "is_reserved": 0}, {"lon": -77.02968066666666, "bike_id": "00df8712fd4dfdc26221de8e0631c045", "lat": 38.930835333333334, "fusion_lon": 0.0, "fusion_lat": 0.0, "type": "electric_scooter", "name": "00df8712fd4dfdc26221de8e0631c045", "is_disabled": 0, "rental_uris": {"ios": "https://dc.lft.to/lastmile_qr_scan", "android": "https://dc.lft.to/lastmile_qr_scan"}, "is_reserved": 0}, {"lon": -77.01208233333334, "bike_id": "3cac0d9ae99fa0406dc28aa4c87a3475", "lat": 38.870955, "fusion_lon": 0.0, "fusion_lat": 0.0, "type": "electric_bike", "name": "3cac0d9ae99fa0406dc28aa4c87a3475", "is_disabled": 0, "rental_uris": {"ios": "https://dc.lft.to/lastmile_qr_scan", "android": "https://dc.lft.to/lastmile_qr_scan"}, "is_reserved": 0}, {"lon": -76.993824, "bike_id": "b34433834ed44c4a24d7424dd7aa5d9e", "lat": 38.9004375, "fusion_lon": 0.0, "fusion_lat": 0.0, "type": "electric_scooter", "name": "b34433834ed44c4a24d7424dd7aa5d9e", "is_disabled": 0, "rental_uris": {"ios": "https://dc.lft.to/lastmile_qr_scan", "android": "https://dc.lft.to/lastmile_qr_scan"}, "is_reserved": 0}, {"lon": -77.00322616666666, "bike_id": "7db4887efca56bd5c7dd05e61470188c", "lat": 38.918989833333335, "fusion_lon": 0.0, "fusion_lat": 0.0, "type": "electric_scooter", "name": "7db4887efca56bd5c7dd05e61470188c", "is_disabled": 0, "rental_uris": {"ios": "https://dc.lft.to/lastmile_qr_scan", "android": "https://dc.lft.to/lastmile_qr_scan"}, "is_reserved": 0}, {"lon": -77.02606483333334, "bike_id": "95e92a83ee2a0a938dbcaf4273254fce", "lat": 38.88340983333333, "fusion_lon": 0.0, "fusion_lat": 0.0, "type": "electric_scooter", "name": "95e92a83ee2a0a938dbcaf4273254fce", "is_disabled": 0, "rental_uris": {"ios": "https://dc.lft.to/lastmile_qr_scan", "android": "https://dc.lft.to/lastmile_qr_scan"}, "is_reserved": 0}, {"lon": -77.03625366666667, "bike_id": "38fbf0860c0ccc67c3a7f4079eca7d27", "lat": 38.93158833333333, "fusion_lon": 0.0, "fusion_lat": 0.0, "type": "electric_scooter", "name": "38fbf0860c0ccc67c3a7f4079eca7d27", "is_disabled": 0, "rental_uris": {"ios": "https://dc.lft.to/lastmile_qr_scan", "android": "https://dc.lft.to/lastmile_qr_scan"}, "is_reserved": 0}, {"lon": -77.02284933333334, "bike_id": "d473a190829d0b8c986d3167307f4b8f", "lat": 38.87829416666667, "fusion_lon": 0.0, "fusion_lat": 0.0, "type": "electric_scooter", "name": "d473a190829d0b8c986d3167307f4b8f", "is_disabled": 0, "rental_uris": {"ios": "https://dc.lft.to/lastmile_qr_scan", "android": "https://dc.lft.to/lastmile_qr_scan"}, "is_reserved": 0}, {"lon": -76.9763345, "bike_id": "c0c983b96ffc6467ef307a8f9e3e4304", "lat": 38.905682666666664, "fusion_lon": 0.0, "fusion_lat": 0.0, "type": "electric_scooter", "name": "c0c983b96ffc6467ef307a8f9e3e4304", "is_disabled": 0, "rental_uris": {"ios": "https://dc.lft.to/lastmile_qr_scan", "android": "https://dc.lft.to/lastmile_qr_scan"}, "is_reserved": 0}, {"lon": -77.02956683333333, "bike_id": "8b117b789893d605c7a6dd10a4491a8c", "lat": 38.9169025, "fusion_lon": 0.0, "fusion_lat": 0.0, "type": "electric_scooter", "name": "8b117b789893d605c7a6dd10a4491a8c", "is_disabled": 0, "rental_uris": {"ios": "https://dc.lft.to/lastmile_qr_scan", "android": "https://dc.lft.to/lastmile_qr_scan"}, "is_reserved": 0}, {"lon": -77.02402116666667, "bike_id": "8c76f630e05b31abd92f41cafbbecede", "lat": 38.9152115, "fusion_lon": 0.0, "fusion_lat": 0.0, "type": "electric_scooter", "name": "8c76f630e05b31abd92f41cafbbecede", "is_disabled": 0, "rental_uris": {"ios": "https://dc.lft.to/lastmile_qr_scan", "android": "https://dc.lft.to/lastmile_qr_scan"}, "is_reserved": 0}, {"lon": -77.05110133333334, "bike_id": "beec172012dedcb14ea542fb9a69a5dc", "lat": 38.923602833333334, "fusion_lon": 0.0, "fusion_lat": 0.0, "type": "electric_scooter", "name": "beec172012dedcb14ea542fb9a69a5dc", "is_disabled": 0, "rental_uris": {"ios": "https://dc.lft.to/lastmile_qr_scan", "android": "https://dc.lft.to/lastmile_qr_scan"}, "is_reserved": 0}, {"lon": -77.1253085, "bike_id": "037b0d1b7dae4a639422beb2d89024b4", "lat": 39.0563065, "fusion_lon": 0.0, "fusion_lat": 0.0, "type": "electric_bike", "name": "037b0d1b7dae4a639422beb2d89024b4", "is_disabled": 0, "rental_uris": {"ios": "https://dc.lft.to/lastmile_qr_scan", "android": "https://dc.lft.to/lastmile_qr_scan"}, "is_reserved": 0}, {"lon": -77.07455333333333, "bike_id": "f6c312ea5d4c3e349a8f7f2301775198", "lat": 38.94509383333333, "fusion_lon": 0.0, "fusion_lat": 0.0, "type": "electric_scooter", "name": "f6c312ea5d4c3e349a8f7f2301775198", "is_disabled": 0, "rental_uris": {"ios": "https://dc.lft.to/lastmile_qr_scan", "android": "https://dc.lft.to/lastmile_qr_scan"}, "is_reserved": 0}, {"lon": -77.03670466666667, "bike_id": "e8ef4d420ac28f25e05eb01ff6865bae", "lat": 38.90813833333333, "fusion_lon": 0.0, "fusion_lat": 0.0, "type": "electric_scooter", "name": "e8ef4d420ac28f25e05eb01ff6865bae", "is_disabled": 0, "rental_uris": {"ios": "https://dc.lft.to/lastmile_qr_scan", "android": "https://dc.lft.to/lastmile_qr_scan"}, "is_reserved": 0}, {"lon": -77.03279783333333, "bike_id": "80618f98eb0094e0e4e256a013fbbaf2", "lat": 38.919881, "fusion_lon": 0.0, "fusion_lat": 0.0, "type": "electric_scooter", "name": "80618f98eb0094e0e4e256a013fbbaf2", "is_disabled": 0, "rental_uris": {"ios": "https://dc.lft.to/lastmile_qr_scan", "android": "https://dc.lft.to/lastmile_qr_scan"}, "is_reserved": 0}, {"lon": -77.00705616666667, "bike_id": "87aeb87bfa7629bafc1367dbc59f1320", "lat": 38.90540216666667, "fusion_lon": 0.0, "fusion_lat": 0.0, "type": "electric_scooter", "name": "87aeb87bfa7629bafc1367dbc59f1320", "is_disabled": 0, "rental_uris": {"ios": "https://dc.lft.to/lastmile_qr_scan", "android": "https://dc.lft.to/lastmile_qr_scan"}, "is_reserved": 0}, {"lon": -77.1856705, "bike_id": "9e9e6196cb4beb6227ae231374e390fc", "lat": 39.0997255, "fusion_lon": 0.0, "fusion_lat": 0.0, "type": "electric_bike", "name": "9e9e6196cb4beb6227ae231374e390fc", "is_disabled": 0, "rental_uris": {"ios": "https://dc.lft.to/lastmile_qr_scan", "android": "https://dc.lft.to/lastmile_qr_scan"}, "is_reserved": 0}, {"lon": -77.0318315, "bike_id": "22814b2966e9daf2bcda556ef083ff22", "lat": 38.9359835, "fusion_lon": 0.0, "fusion_lat": 0.0, "type": "electric_scooter", "name": "22814b2966e9daf2bcda556ef083ff22", "is_disabled": 0, "rental_uris": {"ios": "https://dc.lft.to/lastmile_qr_scan", "android": "https://dc.lft.to/lastmile_qr_scan"}, "is_reserved": 0}, {"lon": -77.04039616666667, "bike_id": "a8ac7c352a5f1bad0f4438e34b6caa09", "lat": 38.91856166666667, "fusion_lon": 0.0, "fusion_lat": 0.0, "type": "electric_scooter", "name": "a8ac7c352a5f1bad0f4438e34b6caa09", "is_disabled": 0, "rental_uris": {"ios": "https://dc.lft.to/lastmile_qr_scan", "android": "https://dc.lft.to/lastmile_qr_scan"}, "is_reserved": 0}, {"lon": -77.04184683333334, "bike_id": "b547673631b9e0ee80be6aa309c6a917", "lat": 38.91866183333333, "fusion_lon": 0.0, "fusion_lat": 0.0, "type": "electric_scooter", "name": "b547673631b9e0ee80be6aa309c6a917", "is_disabled": 0, "rental_uris": {"ios": "https://dc.lft.to/lastmile_qr_scan", "android": "https://dc.lft.to/lastmile_qr_scan"}, "is_reserved": 0}, {"lon": -77.00068833333333, "bike_id": "860af00a00d88f015eea8f994028444e", "lat": 38.876197, "fusion_lon": 0.0, "fusion_lat": 0.0, "type": "electric_scooter", "name": "860af00a00d88f015eea8f994028444e", "is_disabled": 0, "rental_uris": {"ios": "https://dc.lft.to/lastmile_qr_scan", "android": "https://dc.lft.to/lastmile_qr_scan"}, "is_reserved": 0}, {"lon": -77.03255433333334, "bike_id": "4cc2b3b3fe76eabfa53fefbe338cc3a8", "lat": 38.90555533333333, "fusion_lon": 0.0, "fusion_lat": 0.0, "type": "electric_scooter", "name": "4cc2b3b3fe76eabfa53fefbe338cc3a8", "is_disabled": 0, "rental_uris": {"ios": "https://dc.lft.to/lastmile_qr_scan", "android": "https://dc.lft.to/lastmile_qr_scan"}, "is_reserved": 0}, {"lon": -77.03133416666667, "bike_id": "495a37e22225d31cb11750e1ca4887da", "lat": 38.94502266666667, "fusion_lon": 0.0, "fusion_lat": 0.0, "type": "electric_scooter", "name": "495a37e22225d31cb11750e1ca4887da", "is_disabled": 0, "rental_uris": {"ios": "https://dc.lft.to/lastmile_qr_scan", "android": "https://dc.lft.to/lastmile_qr_scan"}, "is_reserved": 0}, {"lon": -76.9977415, "bike_id": "c0112216f372fb4f355599919a08f5b7", "lat": 38.901280166666666, "fusion_lon": 0.0, "fusion_lat": 0.0, "type": "electric_scooter", "name": "c0112216f372fb4f355599919a08f5b7", "is_disabled": 0, "rental_uris": {"ios": "https://dc.lft.to/lastmile_qr_scan", "android": "https://dc.lft.to/lastmile_qr_scan"}, "is_reserved": 0}, {"lon": -77.031637, "bike_id": "641e91d7483c5fae28ea213de05911a9", "lat": 38.92092516666666, "fusion_lon": 0.0, "fusion_lat": 0.0, "type": "electric_bike", "name": "641e91d7483c5fae28ea213de05911a9", "is_disabled": 0, "rental_uris": {"ios": "https://dc.lft.to/lastmile_qr_scan", "android": "https://dc.lft.to/lastmile_qr_scan"}, "is_reserved": 0}, {"lon": -77.004839, "bike_id": "643b719e27d1e02c089df9ab97db5315", "lat": 38.89581966666667, "fusion_lon": 0.0, "fusion_lat": 0.0, "type": "electric_scooter", "name": "643b719e27d1e02c089df9ab97db5315", "is_disabled": 0, "rental_uris": {"ios": "https://dc.lft.to/lastmile_qr_scan", "android": "https://dc.lft.to/lastmile_qr_scan"}, "is_reserved": 0}, {"lon": -76.98778733333333, "bike_id": "93ede88466a3d791ac6955c68b3189ec", "lat": 38.86602633333333, "fusion_lon": 0.0, "fusion_lat": 0.0, "type": "electric_bike", "name": "93ede88466a3d791ac6955c68b3189ec", "is_disabled": 0, "rental_uris": {"ios": "https://dc.lft.to/lastmile_qr_scan", "android": "https://dc.lft.to/lastmile_qr_scan"}, "is_reserved": 0}, {"lon": -77.00921933333333, "bike_id": "b03982ffafbf70821d3b293bdf4ec0ff", "lat": 38.827784666666666, "fusion_lon": 0.0, "fusion_lat": 0.0, "type": "electric_bike", "name": "b03982ffafbf70821d3b293bdf4ec0ff", "is_disabled": 0, "rental_uris": {"ios": "https://dc.lft.to/lastmile_qr_scan", "android": "https://dc.lft.to/lastmile_qr_scan"}, "is_reserved": 0}, {"lon": -77.017683, "bike_id": "7cc6342ca882f6741003983dfdf1671b", "lat": 38.9026715, "fusion_lon": 0.0, "fusion_lat": 0.0, "type": "electric_scooter", "name": "7cc6342ca882f6741003983dfdf1671b", "is_disabled": 0, "rental_uris": {"ios": "https://dc.lft.to/lastmile_qr_scan", "android": "https://dc.lft.to/lastmile_qr_scan"}, "is_reserved": 0}, {"lon": -77.0280655, "bike_id": "53574c00b94d431ef3f2cee8f4417336", "lat": 38.91712366666667, "fusion_lon": 0.0, "fusion_lat": 0.0, "type": "electric_scooter", "name": "53574c00b94d431ef3f2cee8f4417336", "is_disabled": 0, "rental_uris": {"ios": "https://dc.lft.to/lastmile_qr_scan", "android": "https://dc.lft.to/lastmile_qr_scan"}, "is_reserved": 0}, {"lon": -76.93611466666667, "bike_id": "5b7ce326f653dc56d8c2f891589c9731", "lat": 38.89682666666667, "fusion_lon": 0.0, "fusion_lat": 0.0, "type": "electric_scooter", "name": "5b7ce326f653dc56d8c2f891589c9731", "is_disabled": 0, "rental_uris": {"ios": "https://dc.lft.to/lastmile_qr_scan", "android": "https://dc.lft.to/lastmile_qr_scan"}, "is_reserved": 0}, {"lon": -77.04471433333333, "bike_id": "66c08742f82c5eab8fcfb129b925474b", "lat": 38.918849333333334, "fusion_lon": 0.0, "fusion_lat": 0.0, "type": "electric_scooter", "name": "66c08742f82c5eab8fcfb129b925474b", "is_disabled": 0, "rental_uris": {"ios": "https://dc.lft.to/lastmile_qr_scan", "android": "https://dc.lft.to/lastmile_qr_scan"}, "is_reserved": 0}, {"lon": -77.00073683333333, "bike_id": "0972a3cf009370aa117864cfd386654e", "lat": 38.924283833333334, "fusion_lon": 0.0, "fusion_lat": 0.0, "type": "electric_scooter", "name": "0972a3cf009370aa117864cfd386654e", "is_disabled": 0, "rental_uris": {"ios": "https://dc.lft.to/lastmile_qr_scan", "android": "https://dc.lft.to/lastmile_qr_scan"}, "is_reserved": 0}, {"lon": -77.04270366666667, "bike_id": "5a8a5ee41b0d7aa6e2167f6edae99d19", "lat": 38.917858833333334, "fusion_lon": 0.0, "fusion_lat": 0.0, "type": "electric_scooter", "name": "5a8a5ee41b0d7aa6e2167f6edae99d19", "is_disabled": 0, "rental_uris": {"ios": "https://dc.lft.to/lastmile_qr_scan", "android": "https://dc.lft.to/lastmile_qr_scan"}, "is_reserved": 0}, {"lon": -77.0239225, "bike_id": "21f4d80b89c0bed3bdb39778ea84e822", "lat": 38.920756, "fusion_lon": 0.0, "fusion_lat": 0.0, "type": "electric_scooter", "name": "21f4d80b89c0bed3bdb39778ea84e822", "is_disabled": 0, "rental_uris": {"ios": "https://dc.lft.to/lastmile_qr_scan", "android": "https://dc.lft.to/lastmile_qr_scan"}, "is_reserved": 0}, {"lon": -76.97615116666667, "bike_id": "0824d3d2cafab2596fd4c6ca6acde1e9", "lat": 38.90379816666667, "fusion_lon": 0.0, "fusion_lat": 0.0, "type": "electric_scooter", "name": "0824d3d2cafab2596fd4c6ca6acde1e9", "is_disabled": 0, "rental_uris": {"ios": "https://dc.lft.to/lastmile_qr_scan", "android": "https://dc.lft.to/lastmile_qr_scan"}, "is_reserved": 0}, {"lon": -76.99091066666666, "bike_id": "0bb483afab17e3e30c2e12033e6b65b6", "lat": 38.92863233333333, "fusion_lon": 0.0, "fusion_lat": 0.0, "type": "electric_scooter", "name": "0bb483afab17e3e30c2e12033e6b65b6", "is_disabled": 0, "rental_uris": {"ios": "https://dc.lft.to/lastmile_qr_scan", "android": "https://dc.lft.to/lastmile_qr_scan"}, "is_reserved": 0}, {"lon": -76.99832916666666, "bike_id": "e8ce5f7dad7d7a933977c48d93c5e644", "lat": 38.905016333333336, "fusion_lon": 0.0, "fusion_lat": 0.0, "type": "electric_scooter", "name": "e8ce5f7dad7d7a933977c48d93c5e644", "is_disabled": 0, "rental_uris": {"ios": "https://dc.lft.to/lastmile_qr_scan", "android": "https://dc.lft.to/lastmile_qr_scan"}, "is_reserved": 0}, {"lon": -77.02898, "bike_id": "bf8ebf658577ee1bf7f0f18d5b50fe56", "lat": 38.903913333333335, "fusion_lon": 0.0, "fusion_lat": 0.0, "type": "electric_scooter", "name": "bf8ebf658577ee1bf7f0f18d5b50fe56", "is_disabled": 0, "rental_uris": {"ios": "https://dc.lft.to/lastmile_qr_scan", "android": "https://dc.lft.to/lastmile_qr_scan"}, "is_reserved": 0}, {"lon": -77.04725416666666, "bike_id": "16d0e65df3b314c0d544ec915e78b0b5", "lat": 38.922319, "fusion_lon": 0.0, "fusion_lat": 0.0, "type": "electric_scooter", "name": "16d0e65df3b314c0d544ec915e78b0b5", "is_disabled": 0, "rental_uris": {"ios": "https://dc.lft.to/lastmile_qr_scan", "android": "https://dc.lft.to/lastmile_qr_scan"}, "is_reserved": 0}, {"lon": -77.04144, "bike_id": "1c686facc8154ee8e2f2a48a61ce3d0b", "lat": 38.90587283333333, "fusion_lon": 0.0, "fusion_lat": 0.0, "type": "electric_scooter", "name": "1c686facc8154ee8e2f2a48a61ce3d0b", "is_disabled": 0, "rental_uris": {"ios": "https://dc.lft.to/lastmile_qr_scan", "android": "https://dc.lft.to/lastmile_qr_scan"}, "is_reserved": 0}, {"lon": -77.02057183333334, "bike_id": "d4b297f0419ec5af4c4b41d6aefe349b", "lat": 38.89684783333333, "fusion_lon": 0.0, "fusion_lat": 0.0, "type": "electric_scooter", "name": "d4b297f0419ec5af4c4b41d6aefe349b", "is_disabled": 0, "rental_uris": {"ios": "https://dc.lft.to/lastmile_qr_scan", "android": "https://dc.lft.to/lastmile_qr_scan"}, "is_reserved": 0}, {"lon": -76.97479666666666, "bike_id": "6698b016356ea26271be4577d1941718", "lat": 38.90347216666667, "fusion_lon": 0.0, "fusion_lat": 0.0, "type": "electric_scooter", "name": "6698b016356ea26271be4577d1941718", "is_disabled": 0, "rental_uris": {"ios": "https://dc.lft.to/lastmile_qr_scan", "android": "https://dc.lft.to/lastmile_qr_scan"}, "is_reserved": 0}, {"lon": -77.03647833333333, "bike_id": "383d750f0db34e2b63ec5ec8dd4ec146", "lat": 38.904209333333334, "fusion_lon": 0.0, "fusion_lat": 0.0, "type": "electric_scooter", "name": "383d750f0db34e2b63ec5ec8dd4ec146", "is_disabled": 0, "rental_uris": {"ios": "https://dc.lft.to/lastmile_qr_scan", "android": "https://dc.lft.to/lastmile_qr_scan"}, "is_reserved": 0}, {"lon": -76.99095733333333, "bike_id": "b1c22897277c472892b32ba3a81b5429", "lat": 38.862324, "fusion_lon": 0.0, "fusion_lat": 0.0, "type": "electric_bike", "name": "b1c22897277c472892b32ba3a81b5429", "is_disabled": 0, "rental_uris": {"ios": "https://dc.lft.to/lastmile_qr_scan", "android": "https://dc.lft.to/lastmile_qr_scan"}, "is_reserved": 0}, {"lon": -77.02090316666667, "bike_id": "2c7f8c369b887f151771eb85d674a1b9", "lat": 38.92701316666667, "fusion_lon": 0.0, "fusion_lat": 0.0, "type": "electric_scooter", "name": "2c7f8c369b887f151771eb85d674a1b9", "is_disabled": 0, "rental_uris": {"ios": "https://dc.lft.to/lastmile_qr_scan", "android": "https://dc.lft.to/lastmile_qr_scan"}, "is_reserved": 0}, {"lon": -76.99024733333333, "bike_id": "4a8e3fafbd4f55e39e7c6e3beb6fd9cc", "lat": 38.86641, "fusion_lon": 0.0, "fusion_lat": 0.0, "type": "electric_scooter", "name": "4a8e3fafbd4f55e39e7c6e3beb6fd9cc", "is_disabled": 0, "rental_uris": {"ios": "https://dc.lft.to/lastmile_qr_scan", "android": "https://dc.lft.to/lastmile_qr_scan"}, "is_reserved": 0}, {"lon": -77.08074916666666, "bike_id": "30891eea40c4d92352899f1fc62a4d20", "lat": 39.05279433333333, "fusion_lon": 0.0, "fusion_lat": 0.0, "type": "electric_bike", "name": "30891eea40c4d92352899f1fc62a4d20", "is_disabled": 0, "rental_uris": {"ios": "https://dc.lft.to/lastmile_qr_scan", "android": "https://dc.lft.to/lastmile_qr_scan"}, "is_reserved": 0}, {"lon": -77.01112116666667, "bike_id": "0388861e7f5203b42d45ae206e6e971d", "lat": 38.907776, "fusion_lon": 0.0, "fusion_lat": 0.0, "type": "electric_scooter", "name": "0388861e7f5203b42d45ae206e6e971d", "is_disabled": 0, "rental_uris": {"ios": "https://dc.lft.to/lastmile_qr_scan", "android": "https://dc.lft.to/lastmile_qr_scan"}, "is_reserved": 0}, {"lon": -77.006854, "bike_id": "3efde66b01865d8ed69927e03e7a2f00", "lat": 38.900181333333336, "fusion_lon": 0.0, "fusion_lat": 0.0, "type": "electric_scooter", "name": "3efde66b01865d8ed69927e03e7a2f00", "is_disabled": 0, "rental_uris": {"ios": "https://dc.lft.to/lastmile_qr_scan", "android": "https://dc.lft.to/lastmile_qr_scan"}, "is_reserved": 0}, {"lon": -77.0421045, "bike_id": "cf42a662d3118a0580f61292d691b2a9", "lat": 38.90659683333333, "fusion_lon": 0.0, "fusion_lat": 0.0, "type": "electric_scooter", "name": "cf42a662d3118a0580f61292d691b2a9", "is_disabled": 0, "rental_uris": {"ios": "https://dc.lft.to/lastmile_qr_scan", "android": "https://dc.lft.to/lastmile_qr_scan"}, "is_reserved": 0}, {"lon": -77.02636933333334, "bike_id": "12eea6bd2a41dce3ba08af1be39637cc", "lat": 38.916988, "fusion_lon": 0.0, "fusion_lat": 0.0, "type": "electric_scooter", "name": "12eea6bd2a41dce3ba08af1be39637cc", "is_disabled": 0, "rental_uris": {"ios": "https://dc.lft.to/lastmile_qr_scan", "android": "https://dc.lft.to/lastmile_qr_scan"}, "is_reserved": 0}, {"lon": -77.0214625, "bike_id": "f31ec0a2ffb371b262e0843753aa430d", "lat": 38.90328316666667, "fusion_lon": 0.0, "fusion_lat": 0.0, "type": "electric_scooter", "name": "f31ec0a2ffb371b262e0843753aa430d", "is_disabled": 0, "rental_uris": {"ios": "https://dc.lft.to/lastmile_qr_scan", "android": "https://dc.lft.to/lastmile_qr_scan"}, "is_reserved": 0}, {"lon": -77.02805066666667, "bike_id": "c2be18d35ae68b03235180d4d86526c9", "lat": 38.931428833333335, "fusion_lon": 0.0, "fusion_lat": 0.0, "type": "electric_scooter", "name": "c2be18d35ae68b03235180d4d86526c9", "is_disabled": 0, "rental_uris": {"ios": "https://dc.lft.to/lastmile_qr_scan", "android": "https://dc.lft.to/lastmile_qr_scan"}, "is_reserved": 0}, {"lon": -77.06518033333333, "bike_id": "8ffe3ee7b2bb4379261a1f09e83c18f0", "lat": 38.9040695, "fusion_lon": 0.0, "fusion_lat": 0.0, "type": "electric_scooter", "name": "8ffe3ee7b2bb4379261a1f09e83c18f0", "is_disabled": 0, "rental_uris": {"ios": "https://dc.lft.to/lastmile_qr_scan", "android": "https://dc.lft.to/lastmile_qr_scan"}, "is_reserved": 0}, {"lon": -77.03664333333333, "bike_id": "79ef61b055db670cbdff71f3e39b4aeb", "lat": 38.93632433333333, "fusion_lon": 0.0, "fusion_lat": 0.0, "type": "electric_scooter", "name": "79ef61b055db670cbdff71f3e39b4aeb", "is_disabled": 0, "rental_uris": {"ios": "https://dc.lft.to/lastmile_qr_scan", "android": "https://dc.lft.to/lastmile_qr_scan"}, "is_reserved": 0}, {"lon": -77.0009385, "bike_id": "f4fae092a14fa40526fae371231b9096", "lat": 38.91202966666667, "fusion_lon": 0.0, "fusion_lat": 0.0, "type": "electric_scooter", "name": "f4fae092a14fa40526fae371231b9096", "is_disabled": 0, "rental_uris": {"ios": "https://dc.lft.to/lastmile_qr_scan", "android": "https://dc.lft.to/lastmile_qr_scan"}, "is_reserved": 0}, {"lon": -77.00929466666666, "bike_id": "394ff4741fcf4234ebed574b7ab56b52", "lat": 38.89643616666667, "fusion_lon": 0.0, "fusion_lat": 0.0, "type": "electric_scooter", "name": "394ff4741fcf4234ebed574b7ab56b52", "is_disabled": 0, "rental_uris": {"ios": "https://dc.lft.to/lastmile_qr_scan", "android": "https://dc.lft.to/lastmile_qr_scan"}, "is_reserved": 0}, {"lon": -77.012929, "bike_id": "8f82af4a134d4e8b4a304f9401bd7f2d", "lat": 38.915373, "fusion_lon": 0.0, "fusion_lat": 0.0, "type": "electric_scooter", "name": "8f82af4a134d4e8b4a304f9401bd7f2d", "is_disabled": 0, "rental_uris": {"ios": "https://dc.lft.to/lastmile_qr_scan", "android": "https://dc.lft.to/lastmile_qr_scan"}, "is_reserved": 0}, {"lon": -76.96532733333333, "bike_id": "5d00bb726d42c48d889420c59d8a9568", "lat": 38.87477033333333, "fusion_lon": 0.0, "fusion_lat": 0.0, "type": "electric_scooter", "name": "5d00bb726d42c48d889420c59d8a9568", "is_disabled": 0, "rental_uris": {"ios": "https://dc.lft.to/lastmile_qr_scan", "android": "https://dc.lft.to/lastmile_qr_scan"}, "is_reserved": 0}, {"lon": -77.02527133333334, "bike_id": "1c7fec6bc913e78bb81b86c5459a25ce", "lat": 38.916856833333334, "fusion_lon": 0.0, "fusion_lat": 0.0, "type": "electric_scooter", "name": "1c7fec6bc913e78bb81b86c5459a25ce", "is_disabled": 0, "rental_uris": {"ios": "https://dc.lft.to/lastmile_qr_scan", "android": "https://dc.lft.to/lastmile_qr_scan"}, "is_reserved": 0}, {"lon": -76.99282016666666, "bike_id": "151146a44cb508d336708fdff0ad5223", "lat": 38.906059, "fusion_lon": 0.0, "fusion_lat": 0.0, "type": "electric_scooter", "name": "151146a44cb508d336708fdff0ad5223", "is_disabled": 0, "rental_uris": {"ios": "https://dc.lft.to/lastmile_qr_scan", "android": "https://dc.lft.to/lastmile_qr_scan"}, "is_reserved": 0}, {"lon": -77.04020766666666, "bike_id": "84e1666d4268cb35ac5070c9441671c9", "lat": 38.923852, "fusion_lon": 0.0, "fusion_lat": 0.0, "type": "electric_scooter", "name": "84e1666d4268cb35ac5070c9441671c9", "is_disabled": 0, "rental_uris": {"ios": "https://dc.lft.to/lastmile_qr_scan", "android": "https://dc.lft.to/lastmile_qr_scan"}, "is_reserved": 0}, {"lon": -77.02307916666666, "bike_id": "6b1fcef79377653ece31e21e8a02846c", "lat": 38.92672816666666, "fusion_lon": 0.0, "fusion_lat": 0.0, "type": "electric_scooter", "name": "6b1fcef79377653ece31e21e8a02846c", "is_disabled": 0, "rental_uris": {"ios": "https://dc.lft.to/lastmile_qr_scan", "android": "https://dc.lft.to/lastmile_qr_scan"}, "is_reserved": 0}, {"lon": -77.02479833333334, "bike_id": "c75dbd0a4650aa2bd1b2f891c1bfc51d", "lat": 38.91994583333334, "fusion_lon": 0.0, "fusion_lat": 0.0, "type": "electric_scooter", "name": "c75dbd0a4650aa2bd1b2f891c1bfc51d", "is_disabled": 0, "rental_uris": {"ios": "https://dc.lft.to/lastmile_qr_scan", "android": "https://dc.lft.to/lastmile_qr_scan"}, "is_reserved": 0}, {"lon": -77.0319655, "bike_id": "1297334aa54ff5d98986c9676a609db2", "lat": 38.90003733333333, "fusion_lon": 0.0, "fusion_lat": 0.0, "type": "electric_scooter", "name": "1297334aa54ff5d98986c9676a609db2", "is_disabled": 0, "rental_uris": {"ios": "https://dc.lft.to/lastmile_qr_scan", "android": "https://dc.lft.to/lastmile_qr_scan"}, "is_reserved": 0}, {"lon": -77.021245, "bike_id": "07b30dcba827ad63944b0524c9e63ed1", "lat": 38.93697133333333, "fusion_lon": 0.0, "fusion_lat": 0.0, "type": "electric_scooter", "name": "07b30dcba827ad63944b0524c9e63ed1", "is_disabled": 0, "rental_uris": {"ios": "https://dc.lft.to/lastmile_qr_scan", "android": "https://dc.lft.to/lastmile_qr_scan"}, "is_reserved": 0}, {"lon": -77.046477, "bike_id": "26c3c14d8d2bdba5893c7690cddd28a5", "lat": 38.91476083333333, "fusion_lon": 0.0, "fusion_lat": 0.0, "type": "electric_scooter", "name": "26c3c14d8d2bdba5893c7690cddd28a5", "is_disabled": 0, "rental_uris": {"ios": "https://dc.lft.to/lastmile_qr_scan", "android": "https://dc.lft.to/lastmile_qr_scan"}, "is_reserved": 0}, {"lon": -77.05623083333333, "bike_id": "4ae20bbdda7d80b2944993c98dc82b27", "lat": 38.923305666666664, "fusion_lon": 0.0, "fusion_lat": 0.0, "type": "electric_scooter", "name": "4ae20bbdda7d80b2944993c98dc82b27", "is_disabled": 0, "rental_uris": {"ios": "https://dc.lft.to/lastmile_qr_scan", "android": "https://dc.lft.to/lastmile_qr_scan"}, "is_reserved": 0}, {"lon": -76.946379, "bike_id": "01b1a528fec764e23a81cf15a95d7146", "lat": 38.89832916666667, "fusion_lon": 0.0, "fusion_lat": 0.0, "type": "electric_scooter", "name": "01b1a528fec764e23a81cf15a95d7146", "is_disabled": 0, "rental_uris": {"ios": "https://dc.lft.to/lastmile_qr_scan", "android": "https://dc.lft.to/lastmile_qr_scan"}, "is_reserved": 0}, {"lon": -77.0612515, "bike_id": "aea6d8d0303a5c9e37ed2205000e1b6d", "lat": 38.905382833333334, "fusion_lon": 0.0, "fusion_lat": 0.0, "type": "electric_scooter", "name": "aea6d8d0303a5c9e37ed2205000e1b6d", "is_disabled": 0, "rental_uris": {"ios": "https://dc.lft.to/lastmile_qr_scan", "android": "https://dc.lft.to/lastmile_qr_scan"}, "is_reserved": 0}, {"lon": -76.97618233333333, "bike_id": "adfe3d5666d24f208c70c85648e5ae04", "lat": 38.926545833333336, "fusion_lon": 0.0, "fusion_lat": 0.0, "type": "electric_scooter", "name": "adfe3d5666d24f208c70c85648e5ae04", "is_disabled": 0, "rental_uris": {"ios": "https://dc.lft.to/lastmile_qr_scan", "android": "https://dc.lft.to/lastmile_qr_scan"}, "is_reserved": 0}, {"lon": -77.02176083333333, "bike_id": "c4bf8d71b041751879f7a0ada56113dd", "lat": 38.94288183333333, "fusion_lon": 0.0, "fusion_lat": 0.0, "type": "electric_scooter", "name": "c4bf8d71b041751879f7a0ada56113dd", "is_disabled": 0, "rental_uris": {"ios": "https://dc.lft.to/lastmile_qr_scan", "android": "https://dc.lft.to/lastmile_qr_scan"}, "is_reserved": 0}, {"lon": -77.07299333333333, "bike_id": "d075a8385afa973e864a7dc825700acb", "lat": 38.93052516666667, "fusion_lon": 0.0, "fusion_lat": 0.0, "type": "electric_scooter", "name": "d075a8385afa973e864a7dc825700acb", "is_disabled": 0, "rental_uris": {"ios": "https://dc.lft.to/lastmile_qr_scan", "android": "https://dc.lft.to/lastmile_qr_scan"}, "is_reserved": 0}, {"lon": -76.99206166666667, "bike_id": "65af3acbd832cdc95216b8f64f15d07c", "lat": 38.8982525, "fusion_lon": 0.0, "fusion_lat": 0.0, "type": "electric_scooter", "name": "65af3acbd832cdc95216b8f64f15d07c", "is_disabled": 0, "rental_uris": {"ios": "https://dc.lft.to/lastmile_qr_scan", "android": "https://dc.lft.to/lastmile_qr_scan"}, "is_reserved": 0}, {"lon": -77.0449145, "bike_id": "8e72bf4a4f33f9123c0c37f537e661eb", "lat": 38.90304583333333, "fusion_lon": 0.0, "fusion_lat": 0.0, "type": "electric_scooter", "name": "8e72bf4a4f33f9123c0c37f537e661eb", "is_disabled": 0, "rental_uris": {"ios": "https://dc.lft.to/lastmile_qr_scan", "android": "https://dc.lft.to/lastmile_qr_scan"}, "is_reserved": 0}, {"lon": -77.12226433333333, "bike_id": "2d3948e20230e578d25b33c9f86268c0", "lat": 38.852985833333335, "fusion_lon": 0.0, "fusion_lat": 0.0, "type": "electric_bike", "name": "2d3948e20230e578d25b33c9f86268c0", "is_disabled": 0, "rental_uris": {"ios": "https://dc.lft.to/lastmile_qr_scan", "android": "https://dc.lft.to/lastmile_qr_scan"}, "is_reserved": 0}, {"lon": -77.01132616666666, "bike_id": "6ee7f94328440fdde612f231c9226669", "lat": 38.894742666666666, "fusion_lon": 0.0, "fusion_lat": 0.0, "type": "electric_scooter", "name": "6ee7f94328440fdde612f231c9226669", "is_disabled": 0, "rental_uris": {"ios": "https://dc.lft.to/lastmile_qr_scan", "android": "https://dc.lft.to/lastmile_qr_scan"}, "is_reserved": 0}, {"lon": -77.01448733333334, "bike_id": "9323855878b58bfdfed081f7646c8d81", "lat": 38.905214666666666, "fusion_lon": 0.0, "fusion_lat": 0.0, "type": "electric_scooter", "name": "9323855878b58bfdfed081f7646c8d81", "is_disabled": 0, "rental_uris": {"ios": "https://dc.lft.to/lastmile_qr_scan", "android": "https://dc.lft.to/lastmile_qr_scan"}, "is_reserved": 0}, {"lon": -77.02462133333333, "bike_id": "9f81d1314befffd1203d6dc8001b1113", "lat": 38.918443, "fusion_lon": 0.0, "fusion_lat": 0.0, "type": "electric_scooter", "name": "9f81d1314befffd1203d6dc8001b1113", "is_disabled": 0, "rental_uris": {"ios": "https://dc.lft.to/lastmile_qr_scan", "android": "https://dc.lft.to/lastmile_qr_scan"}, "is_reserved": 0}, {"lon": -77.0115415, "bike_id": "bb8a619e8102aa797901756cc862fb28", "lat": 38.895836, "fusion_lon": 0.0, "fusion_lat": 0.0, "type": "electric_scooter", "name": "bb8a619e8102aa797901756cc862fb28", "is_disabled": 0, "rental_uris": {"ios": "https://dc.lft.to/lastmile_qr_scan", "android": "https://dc.lft.to/lastmile_qr_scan"}, "is_reserved": 0}, {"lon": -77.0180225, "bike_id": "806a783b058cb1948e5b5928c3c7e4e4", "lat": 38.91995216666667, "fusion_lon": 0.0, "fusion_lat": 0.0, "type": "electric_scooter", "name": "806a783b058cb1948e5b5928c3c7e4e4", "is_disabled": 0, "rental_uris": {"ios": "https://dc.lft.to/lastmile_qr_scan", "android": "https://dc.lft.to/lastmile_qr_scan"}, "is_reserved": 0}, {"lon": -76.977529, "bike_id": "621543040b2824a28400322bf4b3cbb8", "lat": 38.865073, "fusion_lon": 0.0, "fusion_lat": 0.0, "type": "electric_scooter", "name": "621543040b2824a28400322bf4b3cbb8", "is_disabled": 0, "rental_uris": {"ios": "https://dc.lft.to/lastmile_qr_scan", "android": "https://dc.lft.to/lastmile_qr_scan"}, "is_reserved": 0}, {"lon": -76.98848433333333, "bike_id": "7bc72bd297c7ee13df525d355d36316d", "lat": 38.901243666666666, "fusion_lon": 0.0, "fusion_lat": 0.0, "type": "electric_scooter", "name": "7bc72bd297c7ee13df525d355d36316d", "is_disabled": 0, "rental_uris": {"ios": "https://dc.lft.to/lastmile_qr_scan", "android": "https://dc.lft.to/lastmile_qr_scan"}, "is_reserved": 0}, {"lon": -76.98714733333334, "bike_id": "f56e1d9af9bf43f8b4d6c935708ab7d3", "lat": 38.866179, "fusion_lon": 0.0, "fusion_lat": 0.0, "type": "electric_scooter", "name": "f56e1d9af9bf43f8b4d6c935708ab7d3", "is_disabled": 0, "rental_uris": {"ios": "https://dc.lft.to/lastmile_qr_scan", "android": "https://dc.lft.to/lastmile_qr_scan"}, "is_reserved": 0}, {"lon": -76.98006533333333, "bike_id": "3b6c6426b198ec54e7f0f9c02771179b", "lat": 38.90677066666667, "fusion_lon": 0.0, "fusion_lat": 0.0, "type": "electric_scooter", "name": "3b6c6426b198ec54e7f0f9c02771179b", "is_disabled": 0, "rental_uris": {"ios": "https://dc.lft.to/lastmile_qr_scan", "android": "https://dc.lft.to/lastmile_qr_scan"}, "is_reserved": 0}, {"lon": -77.01273916666666, "bike_id": "2c346a4808d3c8530e59afabd801e56c", "lat": 38.915591166666665, "fusion_lon": 0.0, "fusion_lat": 0.0, "type": "electric_scooter", "name": "2c346a4808d3c8530e59afabd801e56c", "is_disabled": 0, "rental_uris": {"ios": "https://dc.lft.to/lastmile_qr_scan", "android": "https://dc.lft.to/lastmile_qr_scan"}, "is_reserved": 0}, {"lon": -77.03445666666667, "bike_id": "d0a4d457faa19567491af6efbed941db", "lat": 38.91684466666667, "fusion_lon": 0.0, "fusion_lat": 0.0, "type": "electric_scooter", "name": "d0a4d457faa19567491af6efbed941db", "is_disabled": 0, "rental_uris": {"ios": "https://dc.lft.to/lastmile_qr_scan", "android": "https://dc.lft.to/lastmile_qr_scan"}, "is_reserved": 0}, {"lon": -76.98963066666667, "bike_id": "2b9430930321f58f7c4335b59fecb2e4", "lat": 38.856855, "fusion_lon": 0.0, "fusion_lat": 0.0, "type": "electric_scooter", "name": "2b9430930321f58f7c4335b59fecb2e4", "is_disabled": 0, "rental_uris": {"ios": "https://dc.lft.to/lastmile_qr_scan", "android": "https://dc.lft.to/lastmile_qr_scan"}, "is_reserved": 0}, {"lon": -77.02420483333333, "bike_id": "29602d6fc1083a9feaca3e4c11b5a7b2", "lat": 38.918239166666666, "fusion_lon": 0.0, "fusion_lat": 0.0, "type": "electric_bike", "name": "29602d6fc1083a9feaca3e4c11b5a7b2", "is_disabled": 0, "rental_uris": {"ios": "https://dc.lft.to/lastmile_qr_scan", "android": "https://dc.lft.to/lastmile_qr_scan"}, "is_reserved": 0}, {"lon": -76.9827295, "bike_id": "f1feca4fda0b33f2609282fe573eaf40", "lat": 38.90846483333333, "fusion_lon": 0.0, "fusion_lat": 0.0, "type": "electric_scooter", "name": "f1feca4fda0b33f2609282fe573eaf40", "is_disabled": 0, "rental_uris": {"ios": "https://dc.lft.to/lastmile_qr_scan", "android": "https://dc.lft.to/lastmile_qr_scan"}, "is_reserved": 0}, {"lon": -77.02187533333333, "bike_id": "234a9fdb03548cd52f395e1dacab948e", "lat": 38.91933316666667, "fusion_lon": 0.0, "fusion_lat": 0.0, "type": "electric_scooter", "name": "234a9fdb03548cd52f395e1dacab948e", "is_disabled": 0, "rental_uris": {"ios": "https://dc.lft.to/lastmile_qr_scan", "android": "https://dc.lft.to/lastmile_qr_scan"}, "is_reserved": 0}, {"lon": -77.02269483333333, "bike_id": "561f14e99d0a68a085f264d063eeb727", "lat": 38.927312, "fusion_lon": 0.0, "fusion_lat": 0.0, "type": "electric_scooter", "name": "561f14e99d0a68a085f264d063eeb727", "is_disabled": 0, "rental_uris": {"ios": "https://dc.lft.to/lastmile_qr_scan", "android": "https://dc.lft.to/lastmile_qr_scan"}, "is_reserved": 0}, {"lon": -76.95184883333333, "bike_id": "fce04fbe9b3edef3e5688c331eb5b8a1", "lat": 38.90737633333333, "fusion_lon": 0.0, "fusion_lat": 0.0, "type": "electric_scooter", "name": "fce04fbe9b3edef3e5688c331eb5b8a1", "is_disabled": 0, "rental_uris": {"ios": "https://dc.lft.to/lastmile_qr_scan", "android": "https://dc.lft.to/lastmile_qr_scan"}, "is_reserved": 0}, {"lon": -77.025426, "bike_id": "3d55e37ffd5823a6058258949d5bbf75", "lat": 38.880336166666666, "fusion_lon": 0.0, "fusion_lat": 0.0, "type": "electric_scooter", "name": "3d55e37ffd5823a6058258949d5bbf75", "is_disabled": 0, "rental_uris": {"ios": "https://dc.lft.to/lastmile_qr_scan", "android": "https://dc.lft.to/lastmile_qr_scan"}, "is_reserved": 0}, {"lon": -76.9820495, "bike_id": "f7259cdf3550b7102a6c177393df4f29", "lat": 38.8993765, "fusion_lon": 0.0, "fusion_lat": 0.0, "type": "electric_scooter", "name": "f7259cdf3550b7102a6c177393df4f29", "is_disabled": 0, "rental_uris": {"ios": "https://dc.lft.to/lastmile_qr_scan", "android": "https://dc.lft.to/lastmile_qr_scan"}, "is_reserved": 0}, {"lon": -77.03042983333333, "bike_id": "06165061dd3c63cacde5cb6ad8381734", "lat": 38.93709366666667, "fusion_lon": 0.0, "fusion_lat": 0.0, "type": "electric_scooter", "name": "06165061dd3c63cacde5cb6ad8381734", "is_disabled": 0, "rental_uris": {"ios": "https://dc.lft.to/lastmile_qr_scan", "android": "https://dc.lft.to/lastmile_qr_scan"}, "is_reserved": 0}, {"lon": -77.074124, "bike_id": "ff41028433be643c881f5283b16c3489", "lat": 38.928886, "fusion_lon": 0.0, "fusion_lat": 0.0, "type": "electric_scooter", "name": "ff41028433be643c881f5283b16c3489", "is_disabled": 0, "rental_uris": {"ios": "https://dc.lft.to/lastmile_qr_scan", "android": "https://dc.lft.to/lastmile_qr_scan"}, "is_reserved": 0}, {"lon": -77.02931016666666, "bike_id": "a6fab4936c568430f515b692ee6abcf4", "lat": 38.897217, "fusion_lon": 0.0, "fusion_lat": 0.0, "type": "electric_scooter", "name": "a6fab4936c568430f515b692ee6abcf4", "is_disabled": 0, "rental_uris": {"ios": "https://dc.lft.to/lastmile_qr_scan", "android": "https://dc.lft.to/lastmile_qr_scan"}, "is_reserved": 0}, {"lon": -77.03425266666666, "bike_id": "dad807d53bb0baff81cda1ce8789c482", "lat": 38.919288, "fusion_lon": 0.0, "fusion_lat": 0.0, "type": "electric_scooter", "name": "dad807d53bb0baff81cda1ce8789c482", "is_disabled": 0, "rental_uris": {"ios": "https://dc.lft.to/lastmile_qr_scan", "android": "https://dc.lft.to/lastmile_qr_scan"}, "is_reserved": 0}, {"lon": -76.99259333333333, "bike_id": "182e480021f439a059fc3f6831bd4f7f", "lat": 38.9029805, "fusion_lon": 0.0, "fusion_lat": 0.0, "type": "electric_scooter", "name": "182e480021f439a059fc3f6831bd4f7f", "is_disabled": 0, "rental_uris": {"ios": "https://dc.lft.to/lastmile_qr_scan", "android": "https://dc.lft.to/lastmile_qr_scan"}, "is_reserved": 0}, {"lon": -77.0318965, "bike_id": "2c4d7f929661ab7ad0aa0de675511f6c", "lat": 38.91563, "fusion_lon": 0.0, "fusion_lat": 0.0, "type": "electric_scooter", "name": "2c4d7f929661ab7ad0aa0de675511f6c", "is_disabled": 0, "rental_uris": {"ios": "https://dc.lft.to/lastmile_qr_scan", "android": "https://dc.lft.to/lastmile_qr_scan"}, "is_reserved": 0}, {"lon": -77.03208983333333, "bike_id": "aa903fa333d56c8283259d14e36fcc79", "lat": 38.9166755, "fusion_lon": 0.0, "fusion_lat": 0.0, "type": "electric_scooter", "name": "aa903fa333d56c8283259d14e36fcc79", "is_disabled": 0, "rental_uris": {"ios": "https://dc.lft.to/lastmile_qr_scan", "android": "https://dc.lft.to/lastmile_qr_scan"}, "is_reserved": 0}, {"lon": -76.93190083333333, "bike_id": "bde4630da8c08233a8b6bc11870f8d74", "lat": 38.898732333333335, "fusion_lon": 0.0, "fusion_lat": 0.0, "type": "electric_scooter", "name": "bde4630da8c08233a8b6bc11870f8d74", "is_disabled": 0, "rental_uris": {"ios": "https://dc.lft.to/lastmile_qr_scan", "android": "https://dc.lft.to/lastmile_qr_scan"}, "is_reserved": 0}, {"lon": -77.00322083333333, "bike_id": "54767ffbc09fe3918a2c9fa7bb4afaf9", "lat": 38.919006, "fusion_lon": 0.0, "fusion_lat": 0.0, "type": "electric_scooter", "name": "54767ffbc09fe3918a2c9fa7bb4afaf9", "is_disabled": 0, "rental_uris": {"ios": "https://dc.lft.to/lastmile_qr_scan", "android": "https://dc.lft.to/lastmile_qr_scan"}, "is_reserved": 0}, {"lon": -76.9806345, "bike_id": "a43d8543907264d9578668363c565dab", "lat": 38.8849635, "fusion_lon": 0.0, "fusion_lat": 0.0, "type": "electric_scooter", "name": "a43d8543907264d9578668363c565dab", "is_disabled": 0, "rental_uris": {"ios": "https://dc.lft.to/lastmile_qr_scan", "android": "https://dc.lft.to/lastmile_qr_scan"}, "is_reserved": 0}, {"lon": -76.94598233333333, "bike_id": "313307ade7c33d22730b16b8650ad8a6", "lat": 38.90143916666667, "fusion_lon": 0.0, "fusion_lat": 0.0, "type": "electric_scooter", "name": "313307ade7c33d22730b16b8650ad8a6", "is_disabled": 0, "rental_uris": {"ios": "https://dc.lft.to/lastmile_qr_scan", "android": "https://dc.lft.to/lastmile_qr_scan"}, "is_reserved": 0}, {"lon": -77.08809883333333, "bike_id": "2b88809cbd3f807af7142be9bd70ce59", "lat": 38.9117805, "fusion_lon": 0.0, "fusion_lat": 0.0, "type": "electric_scooter", "name": "2b88809cbd3f807af7142be9bd70ce59", "is_disabled": 0, "rental_uris": {"ios": "https://dc.lft.to/lastmile_qr_scan", "android": "https://dc.lft.to/lastmile_qr_scan"}, "is_reserved": 0}, {"lon": -77.06530683333334, "bike_id": "9328bfb2f3ce1a7158758018281bebe8", "lat": 38.90557716666667, "fusion_lon": 0.0, "fusion_lat": 0.0, "type": "electric_bike", "name": "9328bfb2f3ce1a7158758018281bebe8", "is_disabled": 0, "rental_uris": {"ios": "https://dc.lft.to/lastmile_qr_scan", "android": "https://dc.lft.to/lastmile_qr_scan"}, "is_reserved": 0}, {"lon": -76.98917933333334, "bike_id": "b930e80a741adb02b4ea9b3f2723cbc0", "lat": 38.864898, "fusion_lon": 0.0, "fusion_lat": 0.0, "type": "electric_scooter", "name": "b930e80a741adb02b4ea9b3f2723cbc0", "is_disabled": 0, "rental_uris": {"ios": "https://dc.lft.to/lastmile_qr_scan", "android": "https://dc.lft.to/lastmile_qr_scan"}, "is_reserved": 0}, {"lon": -77.03994733333333, "bike_id": "4e7a3518871701e05b087c2885834f7f", "lat": 38.934323, "fusion_lon": 0.0, "fusion_lat": 0.0, "type": "electric_scooter", "name": "4e7a3518871701e05b087c2885834f7f", "is_disabled": 0, "rental_uris": {"ios": "https://dc.lft.to/lastmile_qr_scan", "android": "https://dc.lft.to/lastmile_qr_scan"}, "is_reserved": 0}, {"lon": -77.0238255, "bike_id": "33c12dbfadeb86d3ff1a29020ab41424", "lat": 38.909499333333336, "fusion_lon": 0.0, "fusion_lat": 0.0, "type": "electric_scooter", "name": "33c12dbfadeb86d3ff1a29020ab41424", "is_disabled": 0, "rental_uris": {"ios": "https://dc.lft.to/lastmile_qr_scan", "android": "https://dc.lft.to/lastmile_qr_scan"}, "is_reserved": 0}, {"lon": -77.08492516666666, "bike_id": "c9c4d5d73e06ebfa6f614bbb133fa00b", "lat": 38.848456, "fusion_lon": 0.0, "fusion_lat": 0.0, "type": "electric_bike", "name": "c9c4d5d73e06ebfa6f614bbb133fa00b", "is_disabled": 0, "rental_uris": {"ios": "https://dc.lft.to/lastmile_qr_scan", "android": "https://dc.lft.to/lastmile_qr_scan"}, "is_reserved": 0}, {"lon": -77.022461, "bike_id": "ce71d15d9cb03d0f0ed79df29f8d9ef1", "lat": 38.92269966666667, "fusion_lon": 0.0, "fusion_lat": 0.0, "type": "electric_scooter", "name": "ce71d15d9cb03d0f0ed79df29f8d9ef1", "is_disabled": 0, "rental_uris": {"ios": "https://dc.lft.to/lastmile_qr_scan", "android": "https://dc.lft.to/lastmile_qr_scan"}, "is_reserved": 0}, {"lon": -77.04723533333333, "bike_id": "375b3c08553431b1d116683188e6513c", "lat": 38.903189166666664, "fusion_lon": 0.0, "fusion_lat": 0.0, "type": "electric_scooter", "name": "375b3c08553431b1d116683188e6513c", "is_disabled": 0, "rental_uris": {"ios": "https://dc.lft.to/lastmile_qr_scan", "android": "https://dc.lft.to/lastmile_qr_scan"}, "is_reserved": 0}, {"lon": -77.03041333333333, "bike_id": "c23bfb5fb164af1a3863ed9f0c82fe52", "lat": 38.88400466666667, "fusion_lon": 0.0, "fusion_lat": 0.0, "type": "electric_scooter", "name": "c23bfb5fb164af1a3863ed9f0c82fe52", "is_disabled": 0, "rental_uris": {"ios": "https://dc.lft.to/lastmile_qr_scan", "android": "https://dc.lft.to/lastmile_qr_scan"}, "is_reserved": 0}, {"lon": -76.973982, "bike_id": "79debe9d11aead4a2310223636da1483", "lat": 38.902981, "fusion_lon": 0.0, "fusion_lat": 0.0, "type": "electric_scooter", "name": "79debe9d11aead4a2310223636da1483", "is_disabled": 0, "rental_uris": {"ios": "https://dc.lft.to/lastmile_qr_scan", "android": "https://dc.lft.to/lastmile_qr_scan"}, "is_reserved": 0}, {"lon": -77.05329433333333, "bike_id": "455db7ab2c1a5ceb7115e92893bc1146", "lat": 38.907297166666666, "fusion_lon": 0.0, "fusion_lat": 0.0, "type": "electric_scooter", "name": "455db7ab2c1a5ceb7115e92893bc1146", "is_disabled": 0, "rental_uris": {"ios": "https://dc.lft.to/lastmile_qr_scan", "android": "https://dc.lft.to/lastmile_qr_scan"}, "is_reserved": 0}, {"lon": -77.0013625, "bike_id": "92f5523bd910eb392e7d51f080f882f8", "lat": 38.885231166666664, "fusion_lon": 0.0, "fusion_lat": 0.0, "type": "electric_scooter", "name": "92f5523bd910eb392e7d51f080f882f8", "is_disabled": 0, "rental_uris": {"ios": "https://dc.lft.to/lastmile_qr_scan", "android": "https://dc.lft.to/lastmile_qr_scan"}, "is_reserved": 0}, {"lon": -77.0251925, "bike_id": "e8845bede41b71eb74ee9cc5680e6e9d", "lat": 38.904041, "fusion_lon": 0.0, "fusion_lat": 0.0, "type": "electric_scooter", "name": "e8845bede41b71eb74ee9cc5680e6e9d", "is_disabled": 0, "rental_uris": {"ios": "https://dc.lft.to/lastmile_qr_scan", "android": "https://dc.lft.to/lastmile_qr_scan"}, "is_reserved": 0}, {"lon": -77.0325105, "bike_id": "8966afceb7cc904545d66a11ca0b2f95", "lat": 38.915608166666665, "fusion_lon": 0.0, "fusion_lat": 0.0, "type": "electric_scooter", "name": "8966afceb7cc904545d66a11ca0b2f95", "is_disabled": 0, "rental_uris": {"ios": "https://dc.lft.to/lastmile_qr_scan", "android": "https://dc.lft.to/lastmile_qr_scan"}, "is_reserved": 0}, {"lon": -77.07796666666667, "bike_id": "277a77939be5c91e298193fac8754f87", "lat": 38.99600683333333, "fusion_lon": 0.0, "fusion_lat": 0.0, "type": "electric_bike", "name": "277a77939be5c91e298193fac8754f87", "is_disabled": 0, "rental_uris": {"ios": "https://dc.lft.to/lastmile_qr_scan", "android": "https://dc.lft.to/lastmile_qr_scan"}, "is_reserved": 0}, {"lon": -77.025332, "bike_id": "acbc34454dbf21eb304150e78ffd543a", "lat": 38.942968666666665, "fusion_lon": 0.0, "fusion_lat": 0.0, "type": "electric_scooter", "name": "acbc34454dbf21eb304150e78ffd543a", "is_disabled": 0, "rental_uris": {"ios": "https://dc.lft.to/lastmile_qr_scan", "android": "https://dc.lft.to/lastmile_qr_scan"}, "is_reserved": 0}, {"lon": -77.061431, "bike_id": "b4b9084818a8789cf77b1aa6680e36b2", "lat": 38.94351733333333, "fusion_lon": 0.0, "fusion_lat": 0.0, "type": "electric_scooter", "name": "b4b9084818a8789cf77b1aa6680e36b2", "is_disabled": 0, "rental_uris": {"ios": "https://dc.lft.to/lastmile_qr_scan", "android": "https://dc.lft.to/lastmile_qr_scan"}, "is_reserved": 0}, {"lon": -77.0016965, "bike_id": "0ceedcb56c0b05b5fc833d46076f4d72", "lat": 38.9194045, "fusion_lon": 0.0, "fusion_lat": 0.0, "type": "electric_scooter", "name": "0ceedcb56c0b05b5fc833d46076f4d72", "is_disabled": 0, "rental_uris": {"ios": "https://dc.lft.to/lastmile_qr_scan", "android": "https://dc.lft.to/lastmile_qr_scan"}, "is_reserved": 0}, {"lon": -76.99763116666666, "bike_id": "795da03c136ff83dd89926423183e176", "lat": 38.9106545, "fusion_lon": 0.0, "fusion_lat": 0.0, "type": "electric_scooter", "name": "795da03c136ff83dd89926423183e176", "is_disabled": 0, "rental_uris": {"ios": "https://dc.lft.to/lastmile_qr_scan", "android": "https://dc.lft.to/lastmile_qr_scan"}, "is_reserved": 0}, {"lon": -77.00933866666666, "bike_id": "f9d4d9abcff4cafd24e35f9fa48b4a6f", "lat": 38.9180245, "fusion_lon": 0.0, "fusion_lat": 0.0, "type": "electric_scooter", "name": "f9d4d9abcff4cafd24e35f9fa48b4a6f", "is_disabled": 0, "rental_uris": {"ios": "https://dc.lft.to/lastmile_qr_scan", "android": "https://dc.lft.to/lastmile_qr_scan"}, "is_reserved": 0}, {"lon": -77.02475283333334, "bike_id": "cec1972dbc0c349b129f8cd7ef8d0d9a", "lat": 38.8842705, "fusion_lon": 0.0, "fusion_lat": 0.0, "type": "electric_scooter", "name": "cec1972dbc0c349b129f8cd7ef8d0d9a", "is_disabled": 0, "rental_uris": {"ios": "https://dc.lft.to/lastmile_qr_scan", "android": "https://dc.lft.to/lastmile_qr_scan"}, "is_reserved": 0}, {"lon": -76.97000333333334, "bike_id": "db72b9b001efeadcd1c830d139ed868f", "lat": 38.8736635, "fusion_lon": 0.0, "fusion_lat": 0.0, "type": "electric_scooter", "name": "db72b9b001efeadcd1c830d139ed868f", "is_disabled": 0, "rental_uris": {"ios": "https://dc.lft.to/lastmile_qr_scan", "android": "https://dc.lft.to/lastmile_qr_scan"}, "is_reserved": 0}, {"lon": -77.06107166666666, "bike_id": "5f87bfc49b85fb727c2f87283a5a8b36", "lat": 38.90528466666667, "fusion_lon": 0.0, "fusion_lat": 0.0, "type": "electric_scooter", "name": "5f87bfc49b85fb727c2f87283a5a8b36", "is_disabled": 0, "rental_uris": {"ios": "https://dc.lft.to/lastmile_qr_scan", "android": "https://dc.lft.to/lastmile_qr_scan"}, "is_reserved": 0}, {"lon": -77.04254416666667, "bike_id": "a9622c2186448b1204c8b66149b7ecaa", "lat": 38.922528, "fusion_lon": 0.0, "fusion_lat": 0.0, "type": "electric_scooter", "name": "a9622c2186448b1204c8b66149b7ecaa", "is_disabled": 0, "rental_uris": {"ios": "https://dc.lft.to/lastmile_qr_scan", "android": "https://dc.lft.to/lastmile_qr_scan"}, "is_reserved": 0}, {"lon": -77.03218416666667, "bike_id": "7d52cb1ef590ccc110be535851747e99", "lat": 38.916905, "fusion_lon": 0.0, "fusion_lat": 0.0, "type": "electric_scooter", "name": "7d52cb1ef590ccc110be535851747e99", "is_disabled": 0, "rental_uris": {"ios": "https://dc.lft.to/lastmile_qr_scan", "android": "https://dc.lft.to/lastmile_qr_scan"}, "is_reserved": 0}, {"lon": -76.9889535, "bike_id": "400d11dc93cc383fadde4c0e6fd01c47", "lat": 38.913434, "fusion_lon": 0.0, "fusion_lat": 0.0, "type": "electric_scooter", "name": "400d11dc93cc383fadde4c0e6fd01c47", "is_disabled": 0, "rental_uris": {"ios": "https://dc.lft.to/lastmile_qr_scan", "android": "https://dc.lft.to/lastmile_qr_scan"}, "is_reserved": 0}, {"lon": -77.03431166666667, "bike_id": "82c080b4f88229eb5b0fe5c8211276a1", "lat": 38.91919983333333, "fusion_lon": 0.0, "fusion_lat": 0.0, "type": "electric_scooter", "name": "82c080b4f88229eb5b0fe5c8211276a1", "is_disabled": 0, "rental_uris": {"ios": "https://dc.lft.to/lastmile_qr_scan", "android": "https://dc.lft.to/lastmile_qr_scan"}, "is_reserved": 0}, {"lon": -77.020518, "bike_id": "684427b7078fdd450586098a14e53100", "lat": 38.915524166666664, "fusion_lon": 0.0, "fusion_lat": 0.0, "type": "electric_scooter", "name": "684427b7078fdd450586098a14e53100", "is_disabled": 0, "rental_uris": {"ios": "https://dc.lft.to/lastmile_qr_scan", "android": "https://dc.lft.to/lastmile_qr_scan"}, "is_reserved": 0}, {"lon": -77.02936733333334, "bike_id": "145e80893d31a06e5d285aab7f68dbbd", "lat": 38.92078016666667, "fusion_lon": 0.0, "fusion_lat": 0.0, "type": "electric_scooter", "name": "145e80893d31a06e5d285aab7f68dbbd", "is_disabled": 0, "rental_uris": {"ios": "https://dc.lft.to/lastmile_qr_scan", "android": "https://dc.lft.to/lastmile_qr_scan"}, "is_reserved": 0}, {"lon": -77.02973783333333, "bike_id": "807342599a73d3017a7fe01032fc7640", "lat": 38.90283516666667, "fusion_lon": 0.0, "fusion_lat": 0.0, "type": "electric_scooter", "name": "807342599a73d3017a7fe01032fc7640", "is_disabled": 0, "rental_uris": {"ios": "https://dc.lft.to/lastmile_qr_scan", "android": "https://dc.lft.to/lastmile_qr_scan"}, "is_reserved": 0}, {"lon": -77.05235166666667, "bike_id": "b3ec07c2d32fe50cbffd1702a18a988b", "lat": 38.92453883333334, "fusion_lon": 0.0, "fusion_lat": 0.0, "type": "electric_scooter", "name": "b3ec07c2d32fe50cbffd1702a18a988b", "is_disabled": 0, "rental_uris": {"ios": "https://dc.lft.to/lastmile_qr_scan", "android": "https://dc.lft.to/lastmile_qr_scan"}, "is_reserved": 0}, {"lon": -77.059232, "bike_id": "2f2f7161d3b89d4e6b89a3c9fd3ae77a", "lat": 38.86239066666667, "fusion_lon": 0.0, "fusion_lat": 0.0, "type": "electric_scooter", "name": "2f2f7161d3b89d4e6b89a3c9fd3ae77a", "is_disabled": 0, "rental_uris": {"ios": "https://dc.lft.to/lastmile_qr_scan", "android": "https://dc.lft.to/lastmile_qr_scan"}, "is_reserved": 0}, {"lon": -77.00849783333334, "bike_id": "38461a3c91ddcdb9e366369745ab9b60", "lat": 38.91623533333333, "fusion_lon": 0.0, "fusion_lat": 0.0, "type": "electric_scooter", "name": "38461a3c91ddcdb9e366369745ab9b60", "is_disabled": 0, "rental_uris": {"ios": "https://dc.lft.to/lastmile_qr_scan", "android": "https://dc.lft.to/lastmile_qr_scan"}, "is_reserved": 0}, {"lon": -77.0335685, "bike_id": "b57c2169a9d635803128870b4bc20d8c", "lat": 38.90161833333333, "fusion_lon": 0.0, "fusion_lat": 0.0, "type": "electric_scooter", "name": "b57c2169a9d635803128870b4bc20d8c", "is_disabled": 0, "rental_uris": {"ios": "https://dc.lft.to/lastmile_qr_scan", "android": "https://dc.lft.to/lastmile_qr_scan"}, "is_reserved": 0}, {"lon": -77.00211466666667, "bike_id": "044baf813539a3abdeba1853c1e60f09", "lat": 38.9024565, "fusion_lon": 0.0, "fusion_lat": 0.0, "type": "electric_scooter", "name": "044baf813539a3abdeba1853c1e60f09", "is_disabled": 0, "rental_uris": {"ios": "https://dc.lft.to/lastmile_qr_scan", "android": "https://dc.lft.to/lastmile_qr_scan"}, "is_reserved": 0}, {"lon": -77.02294416666666, "bike_id": "3567430f3cae3ae5f608ff99c46b489f", "lat": 38.922265833333334, "fusion_lon": 0.0, "fusion_lat": 0.0, "type": "electric_scooter", "name": "3567430f3cae3ae5f608ff99c46b489f", "is_disabled": 0, "rental_uris": {"ios": "https://dc.lft.to/lastmile_qr_scan", "android": "https://dc.lft.to/lastmile_qr_scan"}, "is_reserved": 0}, {"lon": -77.00841033333333, "bike_id": "a9a24c97098ef747011bc2a57ba2641e", "lat": 38.89712133333333, "fusion_lon": 0.0, "fusion_lat": 0.0, "type": "electric_scooter", "name": "a9a24c97098ef747011bc2a57ba2641e", "is_disabled": 0, "rental_uris": {"ios": "https://dc.lft.to/lastmile_qr_scan", "android": "https://dc.lft.to/lastmile_qr_scan"}, "is_reserved": 0}, {"lon": -77.03187716666666, "bike_id": "2bcf0bf418f614d187324dcf928fd371", "lat": 38.911736166666664, "fusion_lon": 0.0, "fusion_lat": 0.0, "type": "electric_scooter", "name": "2bcf0bf418f614d187324dcf928fd371", "is_disabled": 0, "rental_uris": {"ios": "https://dc.lft.to/lastmile_qr_scan", "android": "https://dc.lft.to/lastmile_qr_scan"}, "is_reserved": 0}, {"lon": -77.02696316666666, "bike_id": "ded4629976a7889584c88e4f438c9d33", "lat": 38.91225516666667, "fusion_lon": 0.0, "fusion_lat": 0.0, "type": "electric_scooter", "name": "ded4629976a7889584c88e4f438c9d33", "is_disabled": 0, "rental_uris": {"ios": "https://dc.lft.to/lastmile_qr_scan", "android": "https://dc.lft.to/lastmile_qr_scan"}, "is_reserved": 0}, {"lon": -76.98527233333333, "bike_id": "394dacfc51737225e1e9287f50804004", "lat": 38.8668415, "fusion_lon": 0.0, "fusion_lat": 0.0, "type": "electric_scooter", "name": "394dacfc51737225e1e9287f50804004", "is_disabled": 0, "rental_uris": {"ios": "https://dc.lft.to/lastmile_qr_scan", "android": "https://dc.lft.to/lastmile_qr_scan"}, "is_reserved": 0}, {"lon": -77.01771483333333, "bike_id": "04796ec2635e1d952856339e03bf9624", "lat": 38.92128266666667, "fusion_lon": 0.0, "fusion_lat": 0.0, "type": "electric_scooter", "name": "04796ec2635e1d952856339e03bf9624", "is_disabled": 0, "rental_uris": {"ios": "https://dc.lft.to/lastmile_qr_scan", "android": "https://dc.lft.to/lastmile_qr_scan"}, "is_reserved": 0}, {"lon": -77.04471883333333, "bike_id": "04bf36f4933ec7addad20e50bec0dafe", "lat": 38.92388616666667, "fusion_lon": 0.0, "fusion_lat": 0.0, "type": "electric_scooter", "name": "04bf36f4933ec7addad20e50bec0dafe", "is_disabled": 0, "rental_uris": {"ios": "https://dc.lft.to/lastmile_qr_scan", "android": "https://dc.lft.to/lastmile_qr_scan"}, "is_reserved": 0}, {"lon": -77.0623085, "bike_id": "e7bb60bb06e274c04b50aa60bf4339e5", "lat": 38.90249216666667, "fusion_lon": 0.0, "fusion_lat": 0.0, "type": "electric_scooter", "name": "e7bb60bb06e274c04b50aa60bf4339e5", "is_disabled": 0, "rental_uris": {"ios": "https://dc.lft.to/lastmile_qr_scan", "android": "https://dc.lft.to/lastmile_qr_scan"}, "is_reserved": 0}, {"lon": -77.02766716666666, "bike_id": "1ae4cb78eee6913b45085cecbedbb62f", "lat": 38.95425483333333, "fusion_lon": 0.0, "fusion_lat": 0.0, "type": "electric_scooter", "name": "1ae4cb78eee6913b45085cecbedbb62f", "is_disabled": 0, "rental_uris": {"ios": "https://dc.lft.to/lastmile_qr_scan", "android": "https://dc.lft.to/lastmile_qr_scan"}, "is_reserved": 0}, {"lon": -76.9661525, "bike_id": "7bf023618569fd8ddcbdc5f9cd4a31c9", "lat": 38.87102566666667, "fusion_lon": 0.0, "fusion_lat": 0.0, "type": "electric_scooter", "name": "7bf023618569fd8ddcbdc5f9cd4a31c9", "is_disabled": 0, "rental_uris": {"ios": "https://dc.lft.to/lastmile_qr_scan", "android": "https://dc.lft.to/lastmile_qr_scan"}, "is_reserved": 0}, {"lon": -77.00417233333333, "bike_id": "2213f7686a4a4ecf968dfeeefef15949", "lat": 38.876938833333334, "fusion_lon": 0.0, "fusion_lat": 0.0, "type": "electric_scooter", "name": "2213f7686a4a4ecf968dfeeefef15949", "is_disabled": 0, "rental_uris": {"ios": "https://dc.lft.to/lastmile_qr_scan", "android": "https://dc.lft.to/lastmile_qr_scan"}, "is_reserved": 0}, {"lon": -77.03938516666666, "bike_id": "6c8ecbb202893f5bcc1d8dafe6ada46b", "lat": 38.91565716666667, "fusion_lon": 0.0, "fusion_lat": 0.0, "type": "electric_scooter", "name": "6c8ecbb202893f5bcc1d8dafe6ada46b", "is_disabled": 0, "rental_uris": {"ios": "https://dc.lft.to/lastmile_qr_scan", "android": "https://dc.lft.to/lastmile_qr_scan"}, "is_reserved": 0}, {"lon": -77.0202815, "bike_id": "70c8f2d65d9e48061406b025c8f45723", "lat": 38.905539166666664, "fusion_lon": 0.0, "fusion_lat": 0.0, "type": "electric_scooter", "name": "70c8f2d65d9e48061406b025c8f45723", "is_disabled": 0, "rental_uris": {"ios": "https://dc.lft.to/lastmile_qr_scan", "android": "https://dc.lft.to/lastmile_qr_scan"}, "is_reserved": 0}, {"lon": -76.88410066666667, "bike_id": "c8f21bb6bf899d994ec5092885ba0c27", "lat": 38.931645, "fusion_lon": 0.0, "fusion_lat": 0.0, "type": "electric_bike", "name": "c8f21bb6bf899d994ec5092885ba0c27", "is_disabled": 0, "rental_uris": {"ios": "https://dc.lft.to/lastmile_qr_scan", "android": "https://dc.lft.to/lastmile_qr_scan"}, "is_reserved": 0}, {"lon": -77.03886416666667, "bike_id": "e6049e940bea9083c2adf23754c00618", "lat": 38.948673166666666, "fusion_lon": 0.0, "fusion_lat": 0.0, "type": "electric_scooter", "name": "e6049e940bea9083c2adf23754c00618", "is_disabled": 0, "rental_uris": {"ios": "https://dc.lft.to/lastmile_qr_scan", "android": "https://dc.lft.to/lastmile_qr_scan"}, "is_reserved": 0}, {"lon": -77.05745933333333, "bike_id": "1277b34f126b7b48aaf90f356711d8d1", "lat": 38.933900333333334, "fusion_lon": 0.0, "fusion_lat": 0.0, "type": "electric_scooter", "name": "1277b34f126b7b48aaf90f356711d8d1", "is_disabled": 0, "rental_uris": {"ios": "https://dc.lft.to/lastmile_qr_scan", "android": "https://dc.lft.to/lastmile_qr_scan"}, "is_reserved": 0}, {"lon": -77.03153866666666, "bike_id": "3dff310938e96d241d565abf2c2e64b2", "lat": 38.928579666666664, "fusion_lon": 0.0, "fusion_lat": 0.0, "type": "electric_scooter", "name": "3dff310938e96d241d565abf2c2e64b2", "is_disabled": 0, "rental_uris": {"ios": "https://dc.lft.to/lastmile_qr_scan", "android": "https://dc.lft.to/lastmile_qr_scan"}, "is_reserved": 0}, {"lon": -77.02757183333334, "bike_id": "acae2da6a9a6122204b0b384f7c60b90", "lat": 38.965659333333335, "fusion_lon": 0.0, "fusion_lat": 0.0, "type": "electric_bike", "name": "acae2da6a9a6122204b0b384f7c60b90", "is_disabled": 0, "rental_uris": {"ios": "https://dc.lft.to/lastmile_qr_scan", "android": "https://dc.lft.to/lastmile_qr_scan"}, "is_reserved": 0}, {"lon": -77.036617, "bike_id": "53f60647a8017cb49e0705adb7d9fbdb", "lat": 38.935792, "fusion_lon": 0.0, "fusion_lat": 0.0, "type": "electric_bike", "name": "53f60647a8017cb49e0705adb7d9fbdb", "is_disabled": 0, "rental_uris": {"ios": "https://dc.lft.to/lastmile_qr_scan", "android": "https://dc.lft.to/lastmile_qr_scan"}, "is_reserved": 0}, {"lon": -76.95659666666667, "bike_id": "34a2924c3a7d9f51470fce68b748454f", "lat": 38.896251, "fusion_lon": 0.0, "fusion_lat": 0.0, "type": "electric_scooter", "name": "34a2924c3a7d9f51470fce68b748454f", "is_disabled": 0, "rental_uris": {"ios": "https://dc.lft.to/lastmile_qr_scan", "android": "https://dc.lft.to/lastmile_qr_scan"}, "is_reserved": 0}, {"lon": -77.05156266666667, "bike_id": "a433988d1f22a6e765cefda1f26cb2e9", "lat": 38.905081333333335, "fusion_lon": 0.0, "fusion_lat": 0.0, "type": "electric_scooter", "name": "a433988d1f22a6e765cefda1f26cb2e9", "is_disabled": 0, "rental_uris": {"ios": "https://dc.lft.to/lastmile_qr_scan", "android": "https://dc.lft.to/lastmile_qr_scan"}, "is_reserved": 0}, {"lon": -77.16241366666667, "bike_id": "afe2a1d2e41013b366fe4d61c63b47b4", "lat": 38.886592666666665, "fusion_lon": 0.0, "fusion_lat": 0.0, "type": "electric_bike", "name": "afe2a1d2e41013b366fe4d61c63b47b4", "is_disabled": 0, "rental_uris": {"ios": "https://dc.lft.to/lastmile_qr_scan", "android": "https://dc.lft.to/lastmile_qr_scan"}, "is_reserved": 0}, {"lon": -77.06027966666667, "bike_id": "0e1acbe5c151be4dbdc89301db97a25d", "lat": 38.9335605, "fusion_lon": 0.0, "fusion_lat": 0.0, "type": "electric_scooter", "name": "0e1acbe5c151be4dbdc89301db97a25d", "is_disabled": 0, "rental_uris": {"ios": "https://dc.lft.to/lastmile_qr_scan", "android": "https://dc.lft.to/lastmile_qr_scan"}, "is_reserved": 0}, {"lon": -77.01814433333334, "bike_id": "2d4c7c41025e379448af407fb73749fc", "lat": 38.964766, "fusion_lon": 0.0, "fusion_lat": 0.0, "type": "electric_scooter", "name": "2d4c7c41025e379448af407fb73749fc", "is_disabled": 0, "rental_uris": {"ios": "https://dc.lft.to/lastmile_qr_scan", "android": "https://dc.lft.to/lastmile_qr_scan"}, "is_reserved": 0}, {"lon": -77.04651566666666, "bike_id": "150b47b03f2ae888abdc5261cec2402a", "lat": 39.05499, "fusion_lon": 0.0, "fusion_lat": 0.0, "type": "electric_bike", "name": "150b47b03f2ae888abdc5261cec2402a", "is_disabled": 0, "rental_uris": {"ios": "https://dc.lft.to/lastmile_qr_scan", "android": "https://dc.lft.to/lastmile_qr_scan"}, "is_reserved": 0}, {"lon": -76.96141883333334, "bike_id": "5d80cb18dad6814ec49c3a72ab6e5e42", "lat": 38.942073666666666, "fusion_lon": 0.0, "fusion_lat": 0.0, "type": "electric_bike", "name": "5d80cb18dad6814ec49c3a72ab6e5e42", "is_disabled": 0, "rental_uris": {"ios": "https://dc.lft.to/lastmile_qr_scan", "android": "https://dc.lft.to/lastmile_qr_scan"}, "is_reserved": 0}, {"lon": -76.99732833333333, "bike_id": "54336a9c8a24109de5f0ef9a1cf4e956", "lat": 38.8999715, "fusion_lon": 0.0, "fusion_lat": 0.0, "type": "electric_scooter", "name": "54336a9c8a24109de5f0ef9a1cf4e956", "is_disabled": 0, "rental_uris": {"ios": "https://dc.lft.to/lastmile_qr_scan", "android": "https://dc.lft.to/lastmile_qr_scan"}, "is_reserved": 0}, {"lon": -77.05728666666667, "bike_id": "4f4a05b19eb9978dbe4b922e6dd6974d", "lat": 38.93360766666667, "fusion_lon": 0.0, "fusion_lat": 0.0, "type": "electric_scooter", "name": "4f4a05b19eb9978dbe4b922e6dd6974d", "is_disabled": 0, "rental_uris": {"ios": "https://dc.lft.to/lastmile_qr_scan", "android": "https://dc.lft.to/lastmile_qr_scan"}, "is_reserved": 0}, {"lon": -77.0469455, "bike_id": "4786d6d3fa02c9a76775a1a7dbf37033", "lat": 39.02389183333333, "fusion_lon": 0.0, "fusion_lat": 0.0, "type": "electric_bike", "name": "4786d6d3fa02c9a76775a1a7dbf37033", "is_disabled": 0, "rental_uris": {"ios": "https://dc.lft.to/lastmile_qr_scan", "android": "https://dc.lft.to/lastmile_qr_scan"}, "is_reserved": 0}, {"lon": -77.0509045, "bike_id": "4ebdc44277785ba9e640b10ce45d2cb3", "lat": 38.9097305, "fusion_lon": 0.0, "fusion_lat": 0.0, "type": "electric_scooter", "name": "4ebdc44277785ba9e640b10ce45d2cb3", "is_disabled": 0, "rental_uris": {"ios": "https://dc.lft.to/lastmile_qr_scan", "android": "https://dc.lft.to/lastmile_qr_scan"}, "is_reserved": 0}, {"lon": -76.98238883333333, "bike_id": "c3f5847d66541825e19accc991dc7369", "lat": 38.91654283333333, "fusion_lon": 0.0, "fusion_lat": 0.0, "type": "electric_scooter", "name": "c3f5847d66541825e19accc991dc7369", "is_disabled": 0, "rental_uris": {"ios": "https://dc.lft.to/lastmile_qr_scan", "android": "https://dc.lft.to/lastmile_qr_scan"}, "is_reserved": 0}, {"lon": -77.02801383333333, "bike_id": "3df7f2555107b44ac1d3c394228f8c55", "lat": 38.934197833333336, "fusion_lon": 0.0, "fusion_lat": 0.0, "type": "electric_scooter", "name": "3df7f2555107b44ac1d3c394228f8c55", "is_disabled": 0, "rental_uris": {"ios": "https://dc.lft.to/lastmile_qr_scan", "android": "https://dc.lft.to/lastmile_qr_scan"}, "is_reserved": 0}, {"lon": -76.93734883333333, "bike_id": "d962e44e68439c78d72253de9934a6e4", "lat": 38.890124166666666, "fusion_lon": 0.0, "fusion_lat": 0.0, "type": "electric_scooter", "name": "d962e44e68439c78d72253de9934a6e4", "is_disabled": 0, "rental_uris": {"ios": "https://dc.lft.to/lastmile_qr_scan", "android": "https://dc.lft.to/lastmile_qr_scan"}, "is_reserved": 0}, {"lon": -77.07300466666666, "bike_id": "666b8b49876b88ac9e6877a88215ebea", "lat": 38.924624333333334, "fusion_lon": 0.0, "fusion_lat": 0.0, "type": "electric_scooter", "name": "666b8b49876b88ac9e6877a88215ebea", "is_disabled": 0, "rental_uris": {"ios": "https://dc.lft.to/lastmile_qr_scan", "android": "https://dc.lft.to/lastmile_qr_scan"}, "is_reserved": 0}, {"lon": -77.03704383333333, "bike_id": "473594a2243d1e1d0b39155b2904d511", "lat": 38.93276783333334, "fusion_lon": 0.0, "fusion_lat": 0.0, "type": "electric_scooter", "name": "473594a2243d1e1d0b39155b2904d511", "is_disabled": 0, "rental_uris": {"ios": "https://dc.lft.to/lastmile_qr_scan", "android": "https://dc.lft.to/lastmile_qr_scan"}, "is_reserved": 0}, {"lon": -77.04585083333333, "bike_id": "bf679e7611c18fd08070a8e52693bece", "lat": 38.921240166666664, "fusion_lon": 0.0, "fusion_lat": 0.0, "type": "electric_scooter", "name": "bf679e7611c18fd08070a8e52693bece", "is_disabled": 0, "rental_uris": {"ios": "https://dc.lft.to/lastmile_qr_scan", "android": "https://dc.lft.to/lastmile_qr_scan"}, "is_reserved": 0}, {"lon": -77.02973666666666, "bike_id": "ac2ef752f3511847c89325c7bb3e828a", "lat": 38.905657, "fusion_lon": 0.0, "fusion_lat": 0.0, "type": "electric_scooter", "name": "ac2ef752f3511847c89325c7bb3e828a", "is_disabled": 0, "rental_uris": {"ios": "https://dc.lft.to/lastmile_qr_scan", "android": "https://dc.lft.to/lastmile_qr_scan"}, "is_reserved": 0}, {"lon": -76.99520133333333, "bike_id": "187db16e783e0712e22d05266a4d214f", "lat": 38.880539666666664, "fusion_lon": 0.0, "fusion_lat": 0.0, "type": "electric_scooter", "name": "187db16e783e0712e22d05266a4d214f", "is_disabled": 0, "rental_uris": {"ios": "https://dc.lft.to/lastmile_qr_scan", "android": "https://dc.lft.to/lastmile_qr_scan"}, "is_reserved": 0}, {"lon": -77.01626516666667, "bike_id": "b2ea51520f6524a4a30ba092e514a4c5", "lat": 38.91008166666667, "fusion_lon": 0.0, "fusion_lat": 0.0, "type": "electric_scooter", "name": "b2ea51520f6524a4a30ba092e514a4c5", "is_disabled": 0, "rental_uris": {"ios": "https://dc.lft.to/lastmile_qr_scan", "android": "https://dc.lft.to/lastmile_qr_scan"}, "is_reserved": 0}, {"lon": -77.0318455, "bike_id": "61e0f81989f5650d21aca30e0d1f78fe", "lat": 38.93686666666667, "fusion_lon": 0.0, "fusion_lat": 0.0, "type": "electric_scooter", "name": "61e0f81989f5650d21aca30e0d1f78fe", "is_disabled": 0, "rental_uris": {"ios": "https://dc.lft.to/lastmile_qr_scan", "android": "https://dc.lft.to/lastmile_qr_scan"}, "is_reserved": 0},