{"data": {"bikes": [{"is_reserved": 0, "type": "electric_scooter", "fusion_lat": 0.0, "is_disabled": 0, "rental_uris": {"ios": "https://dc.lft.to/lastmile_qr_scan", "android": "https://dc.lft.to/lastmile_qr_scan"}, "bike_id": "9f5828e190e27846bec2db209a8fad5e", "lat": 38.924613, "name": "9f5828e190e27846bec2db209a8fad5e", "lon": -77.05757266666667, "fusion_lon": 0.0}, {"is_reserved": 0, "type": "electric_scooter", "fusion_lat": 0.0, "is_disabled": 0, "rental_uris": {"ios": "https://dc.lft.to/lastmile_qr_scan", "android": "https://dc.lft.to/lastmile_qr_scan"}, "bike_id": "1cb0cf7199aa278a1bdbd18f880bc405", "lat": 38.91795166666667, "name": "1cb0cf7199aa278a1bdbd18f880bc405", "lon": -77.03135683333333, "fusion_lon": 0.0}, {"is_reserved": 0, "type": "electric_scooter", "fusion_lat": 0.0, "is_disabled": 0, "rental_uris": {"ios": "https://dc.lft.to/lastmile_qr_scan", "android": "https://dc.lft.to/lastmile_qr_scan"}, "bike_id": "9e5ec98bf9300c81ba524a551005c5f1", "lat": 38.92425183333334, "name": "9e5ec98bf9300c81ba524a551005c5f1", "lon": -77.04484833333333, "fusion_lon": 0.0}, {"is_reserved": 0, "type": "electric_bike", "fusion_lat": 0.0, "is_disabled": 0, "rental_uris": {"ios": "https://dc.lft.to/lastmile_qr_scan", "android": "https://dc.lft.to/lastmile_qr_scan"}, "bike_id": "e3f29b6563c326befe0d6f21c77916d7", "lat": 38.83859266666666, "name": "e3f29b6563c326befe0d6f21c77916d7", "lon": -76.997013, "fusion_lon": 0.0}, {"is_reserved": 0, "type": "electric_scooter", "fusion_lat": 0.0, "is_disabled": 0, "rental_uris": {"ios": "https://dc.lft.to/lastmile_qr_scan", "android": "https://dc.lft.to/lastmile_qr_scan"}, "bike_id": "45a65ff50103fc5d88f8d84e9095f25a", "lat": 38.91568483333333, "name": "45a65ff50103fc5d88f8d84e9095f25a", "lon": -77.04090566666666, "fusion_lon": 0.0}, {"is_reserved": 0, "type": "electric_scooter", "fusion_lat": 0.0, "is_disabled": 0, "rental_uris": {"ios": "https://dc.lft.to/lastmile_qr_scan", "android": "https://dc.lft.to/lastmile_qr_scan"}, "bike_id": "0966e9be3a7ba08298eb03b9bbbc85bb", "lat": 38.88373033333333, "name": "0966e9be3a7ba08298eb03b9bbbc85bb", "lon": -77.03033466666666, "fusion_lon": 0.0}, {"is_reserved": 0, "type": "electric_scooter", "fusion_lat": 0.0, "is_disabled": 0, "rental_uris": {"ios": "https://dc.lft.to/lastmile_qr_scan", "android": "https://dc.lft.to/lastmile_qr_scan"}, "bike_id": "6fc995b4515f182084920658da9ef6ad", "lat": 38.9034965, "name": "6fc995b4515f182084920658da9ef6ad", "lon": -77.06003216666667, "fusion_lon": 0.0}, {"is_reserved": 0, "type": "electric_scooter", "fusion_lat": 0.0, "is_disabled": 0, "rental_uris": {"ios": "https://dc.lft.to/lastmile_qr_scan", "android": "https://dc.lft.to/lastmile_qr_scan"}, "bike_id": "7bc268f8dfa69d68bf24127e2cb50dd6", "lat": 38.8973715, "name": "7bc268f8dfa69d68bf24127e2cb50dd6", "lon": -76.99942733333333, "fusion_lon": 0.0}, {"is_reserved": 0, "type": "electric_scooter", "fusion_lat": 0.0, "is_disabled": 0, "rental_uris": {"ios": "https://dc.lft.to/lastmile_qr_scan", "android": "https://dc.lft.to/lastmile_qr_scan"}, "bike_id": "755c5331c862d25a7cfe79a5bf211818", "lat": 38.901551833333336, "name": "755c5331c862d25a7cfe79a5bf211818", "lon": -77.04867666666667, "fusion_lon": 0.0}, {"is_reserved": 0, "type": "electric_bike", "fusion_lat": 0.0, "is_disabled": 0, "rental_uris": {"ios": "https://dc.lft.to/lastmile_qr_scan", "android": "https://dc.lft.to/lastmile_qr_scan"}, "bike_id": "019abab6cb2e113c94132b36f74e0b38", "lat": 38.902192666666664, "name": "019abab6cb2e113c94132b36f74e0b38", "lon": -76.93179616666667, "fusion_lon": 0.0}, {"is_reserved": 0, "type": "electric_scooter", "fusion_lat": 0.0, "is_disabled": 0, "rental_uris": {"ios": "https://dc.lft.to/lastmile_qr_scan", "android": "https://dc.lft.to/lastmile_qr_scan"}, "bike_id": "8d36de1fa9d37b8813604985292af9cb", "lat": 38.90541916666667, "name": "8d36de1fa9d37b8813604985292af9cb", "lon": -77.05689766666667, "fusion_lon": 0.0}, {"is_reserved": 0, "type": "electric_bike", "fusion_lat": 0.0, "is_disabled": 0, "rental_uris": {"ios": "https://dc.lft.to/lastmile_qr_scan", "android": "https://dc.lft.to/lastmile_qr_scan"}, "bike_id": "1919f0f4a0f5c823657521dcd18fc4ac", "lat": 38.898311, "name": "1919f0f4a0f5c823657521dcd18fc4ac", "lon": -76.94277766666667, "fusion_lon": 0.0}, {"is_reserved": 0, "type": "electric_bike", "fusion_lat": 0.0, "is_disabled": 0, "rental_uris": {"ios": "https://dc.lft.to/lastmile_qr_scan", "android": "https://dc.lft.to/lastmile_qr_scan"}, "bike_id": "944561cb289c47774c650f7b41847868", "lat": 38.881038333333336, "name": "944561cb289c47774c650f7b41847868", "lon": -77.01672716666667, "fusion_lon": 0.0}, {"is_reserved": 0, "type": "electric_scooter", "fusion_lat": 0.0, "is_disabled": 0, "rental_uris": {"ios": "https://dc.lft.to/lastmile_qr_scan", "android": "https://dc.lft.to/lastmile_qr_scan"}, "bike_id": "c9c056b922cabcc713dcfc89ede9fc9d", "lat": 38.876911, "name": "c9c056b922cabcc713dcfc89ede9fc9d", "lon": -76.99622583333333, "fusion_lon": 0.0}, {"is_reserved": 0, "type": "electric_scooter", "fusion_lat": 0.0, "is_disabled": 0, "rental_uris": {"ios": "https://dc.lft.to/lastmile_qr_scan", "android": "https://dc.lft.to/lastmile_qr_scan"}, "bike_id": "737280d4ebb80a8d6c50b64ae998f004", "lat": 38.93881116666667, "name": "737280d4ebb80a8d6c50b64ae998f004", "lon": -77.0292255, "fusion_lon": 0.0}, {"is_reserved": 0, "type": "electric_scooter", "fusion_lat": 0.0, "is_disabled": 0, "rental_uris": {"ios": "https://dc.lft.to/lastmile_qr_scan", "android": "https://dc.lft.to/lastmile_qr_scan"}, "bike_id": "c8f09441e884977a70fb3b9cb2de223e", "lat": 38.92214716666667, "name": "c8f09441e884977a70fb3b9cb2de223e", "lon": -77.03906233333333, "fusion_lon": 0.0}, {"is_reserved": 0, "type": "electric_scooter", "fusion_lat": 0.0, "is_disabled": 0, "rental_uris": {"ios": "https://dc.lft.to/lastmile_qr_scan", "android": "https://dc.lft.to/lastmile_qr_scan"}, "bike_id": "98f704cc5e03f950dd3c3fd7e51dbee0", "lat": 38.874419333333336, "name": "98f704cc5e03f950dd3c3fd7e51dbee0", "lon": -77.00283616666667, "fusion_lon": 0.0}, {"is_reserved": 0, "type": "electric_bike", "fusion_lat": 0.0, "is_disabled": 0, "rental_uris": {"ios": "https://dc.lft.to/lastmile_qr_scan", "android": "https://dc.lft.to/lastmile_qr_scan"}, "bike_id": "2e4399a3b996f236f9b3df1e57b7b574", "lat": 38.844707666666665, "name": "2e4399a3b996f236f9b3df1e57b7b574", "lon": -76.99593616666667, "fusion_lon": 0.0}, {"is_reserved": 0, "type": "electric_scooter", "fusion_lat": 0.0, "is_disabled": 0, "rental_uris": {"ios": "https://dc.lft.to/lastmile_qr_scan", "android": "https://dc.lft.to/lastmile_qr_scan"}, "bike_id": "7384dad887c74c8964468fde81e1c4b2", "lat": 38.92838483333333, "name": "7384dad887c74c8964468fde81e1c4b2", "lon": -77.03365316666667, "fusion_lon": 0.0}, {"is_reserved": 0, "type": "electric_scooter", "fusion_lat": 0.0, "is_disabled": 0, "rental_uris": {"ios": "https://dc.lft.to/lastmile_qr_scan", "android": "https://dc.lft.to/lastmile_qr_scan"}, "bike_id": "3f458b0b199524e6314fee644a8fb4c9", "lat": 38.902342, "name": "3f458b0b199524e6314fee644a8fb4c9", "lon": -76.99509516666667, "fusion_lon": 0.0}, {"is_reserved": 0, "type": "electric_scooter", "fusion_lat": 0.0, "is_disabled": 0, "rental_uris": {"ios": "https://dc.lft.to/lastmile_qr_scan", "android": "https://dc.lft.to/lastmile_qr_scan"}, "bike_id": "565f8c58e17fdc20e91c73d3187b3695", "lat": 38.90380866666667, "name": "565f8c58e17fdc20e91c73d3187b3695", "lon": -77.0506765, "fusion_lon": 0.0}, {"is_reserved": 0, "type": "electric_scooter", "fusion_lat": 0.0, "is_disabled": 0, "rental_uris": {"ios": "https://dc.lft.to/lastmile_qr_scan", "android": "https://dc.lft.to/lastmile_qr_scan"}, "bike_id": "c420514478ae3f7840f50215ec47dbba", "lat": 38.921535, "name": "c420514478ae3f7840f50215ec47dbba", "lon": -77.03506983333334, "fusion_lon": 0.0}, {"is_reserved": 0, "type": "electric_scooter", "fusion_lat": 0.0, "is_disabled": 0, "rental_uris": {"ios": "https://dc.lft.to/lastmile_qr_scan", "android": "https://dc.lft.to/lastmile_qr_scan"}, "bike_id": "94abe7fb0a32661466c0f06415051d43", "lat": 38.90023133333333, "name": "94abe7fb0a32661466c0f06415051d43", "lon": -77.01231283333334, "fusion_lon": 0.0}, {"is_reserved": 0, "type": "electric_scooter", "fusion_lat": 0.0, "is_disabled": 0, "rental_uris": {"ios": "https://dc.lft.to/lastmile_qr_scan", "android": "https://dc.lft.to/lastmile_qr_scan"}, "bike_id": "064aa2c0d0fcccbfa44689c9e83af1e7", "lat": 38.88102533333333, "name": "064aa2c0d0fcccbfa44689c9e83af1e7", "lon": -77.02650683333333, "fusion_lon": 0.0}, {"is_reserved": 0, "type": "electric_scooter", "fusion_lat": 0.0, "is_disabled": 0, "rental_uris": {"ios": "https://dc.lft.to/lastmile_qr_scan", "android": "https://dc.lft.to/lastmile_qr_scan"}, "bike_id": "6227afc33eec6d99bb9545c6e7202739", "lat": 38.91879, "name": "6227afc33eec6d99bb9545c6e7202739", "lon": -77.023124, "fusion_lon": 0.0}, {"is_reserved": 0, "type": "electric_scooter", "fusion_lat": 0.0, "is_disabled": 0, "rental_uris": {"ios": "https://dc.lft.to/lastmile_qr_scan", "android": "https://dc.lft.to/lastmile_qr_scan"}, "bike_id": "0b53be40358db8a76550605e6b4a8f35", "lat": 38.95850766666667, "name": "0b53be40358db8a76550605e6b4a8f35", "lon": -77.02144866666667, "fusion_lon": 0.0}, {"is_reserved": 0, "type": "electric_scooter", "fusion_lat": 0.0, "is_disabled": 0, "rental_uris": {"ios": "https://dc.lft.to/lastmile_qr_scan", "android": "https://dc.lft.to/lastmile_qr_scan"}, "bike_id": "e125173d28e046d23a08e3c179a9878f", "lat": 38.89534783333333, "name": "e125173d28e046d23a08e3c179a9878f", "lon": -77.02174866666667, "fusion_lon": 0.0}, {"is_reserved": 0, "type": "electric_scooter", "fusion_lat": 0.0, "is_disabled": 0, "rental_uris": {"ios": "https://dc.lft.to/lastmile_qr_scan", "android": "https://dc.lft.to/lastmile_qr_scan"}, "bike_id": "2ca37bacee594b05ee49284a1e356706", "lat": 38.90577866666667, "name": "2ca37bacee594b05ee49284a1e356706", "lon": -77.06269533333334, "fusion_lon": 0.0}, {"is_reserved": 0, "type": "electric_scooter", "fusion_lat": 0.0, "is_disabled": 0, "rental_uris": {"ios": "https://dc.lft.to/lastmile_qr_scan", "android": "https://dc.lft.to/lastmile_qr_scan"}, "bike_id": "3b35f2b9b9aa9ab39e996655adf32fc9", "lat": 38.89743566666667, "name": "3b35f2b9b9aa9ab39e996655adf32fc9", "lon": -77.03349933333334, "fusion_lon": 0.0}, {"is_reserved": 0, "type": "electric_bike", "fusion_lat": 0.0, "is_disabled": 0, "rental_uris": {"ios": "https://dc.lft.to/lastmile_qr_scan", "android": "https://dc.lft.to/lastmile_qr_scan"}, "bike_id": "3aeba50c829988a246e721e2a69217a9", "lat": 38.8485565, "name": "3aeba50c829988a246e721e2a69217a9", "lon": -77.06831433333333, "fusion_lon": 0.0}, {"is_reserved": 0, "type": "electric_scooter", "fusion_lat": 0.0, "is_disabled": 0, "rental_uris": {"ios": "https://dc.lft.to/lastmile_qr_scan", "android": "https://dc.lft.to/lastmile_qr_scan"}, "bike_id": "fdedd23959bf93b0d4816bd60e4be584", "lat": 38.87176933333333, "name": "fdedd23959bf93b0d4816bd60e4be584", "lon": -77.0061395, "fusion_lon": 0.0}, {"is_reserved": 0, "type": "electric_scooter", "fusion_lat": 0.0, "is_disabled": 0, "rental_uris": {"ios": "https://dc.lft.to/lastmile_qr_scan", "android": "https://dc.lft.to/lastmile_qr_scan"}, "bike_id": "7f02307bb7347b2f4b5af8e474c2fdea", "lat": 38.897460333333335, "name": "7f02307bb7347b2f4b5af8e474c2fdea", "lon": -77.00866283333333, "fusion_lon": 0.0}, {"is_reserved": 0, "type": "electric_bike", "fusion_lat": 0.0, "is_disabled": 0, "rental_uris": {"ios": "https://dc.lft.to/lastmile_qr_scan", "android": "https://dc.lft.to/lastmile_qr_scan"}, "bike_id": "6913208af94a18f91130a5483f847582", "lat": 38.9909425, "name": "6913208af94a18f91130a5483f847582", "lon": -76.9937355, "fusion_lon": 0.0}, {"is_reserved": 0, "type": "electric_scooter", "fusion_lat": 0.0, "is_disabled": 0, "rental_uris": {"ios": "https://dc.lft.to/lastmile_qr_scan", "android": "https://dc.lft.to/lastmile_qr_scan"}, "bike_id": "a215143e40cf7d84b95cbbc748968a35", "lat": 38.904920833333335, "name": "a215143e40cf7d84b95cbbc748968a35", "lon": -77.06015533333333, "fusion_lon": 0.0}, {"is_reserved": 0, "type": "electric_scooter", "fusion_lat": 0.0, "is_disabled": 0, "rental_uris": {"ios": "https://dc.lft.to/lastmile_qr_scan", "android": "https://dc.lft.to/lastmile_qr_scan"}, "bike_id": "1daf84093398b2b4aed23d77a4b03b13", "lat": 38.92039783333333, "name": "1daf84093398b2b4aed23d77a4b03b13", "lon": -77.01680366666666, "fusion_lon": 0.0}, {"is_reserved": 0, "type": "electric_scooter", "fusion_lat": 0.0, "is_disabled": 0, "rental_uris": {"ios": "https://dc.lft.to/lastmile_qr_scan", "android": "https://dc.lft.to/lastmile_qr_scan"}, "bike_id": "409e051826feb5850ba9205eedd15c61", "lat": 38.90642966666667, "name": "409e051826feb5850ba9205eedd15c61", "lon": -77.0487055, "fusion_lon": 0.0}, {"is_reserved": 0, "type": "electric_scooter", "fusion_lat": 0.0, "is_disabled": 0, "rental_uris": {"ios": "https://dc.lft.to/lastmile_qr_scan", "android": "https://dc.lft.to/lastmile_qr_scan"}, "bike_id": "ddec3e8b845acece0a63f079b584feaf", "lat": 38.902262, "name": "ddec3e8b845acece0a63f079b584feaf", "lon": -77.0006125, "fusion_lon": 0.0}, {"is_reserved": 0, "type": "electric_scooter", "fusion_lat": 0.0, "is_disabled": 0, "rental_uris": {"ios": "https://dc.lft.to/lastmile_qr_scan", "android": "https://dc.lft.to/lastmile_qr_scan"}, "bike_id": "d000cd93e988c85dbf8c0e21c4a00770", "lat": 38.912540166666666, "name": "d000cd93e988c85dbf8c0e21c4a00770", "lon": -77.03863616666666, "fusion_lon": 0.0}, {"is_reserved": 0, "type": "electric_scooter", "fusion_lat": 0.0, "is_disabled": 0, "rental_uris": {"ios": "https://dc.lft.to/lastmile_qr_scan", "android": "https://dc.lft.to/lastmile_qr_scan"}, "bike_id": "f1a950a43d4a31ea95e642d4676334f0", "lat": 38.887438833333334, "name": "f1a950a43d4a31ea95e642d4676334f0", "lon": -77.01412633333334, "fusion_lon": 0.0}, {"is_reserved": 0, "type": "electric_scooter", "fusion_lat": 0.0, "is_disabled": 0, "rental_uris": {"ios": "https://dc.lft.to/lastmile_qr_scan", "android": "https://dc.lft.to/lastmile_qr_scan"}, "bike_id": "f5da54789cc072ff8f417758c6e72665", "lat": 38.904129833333336, "name": "f5da54789cc072ff8f417758c6e72665", "lon": -76.98531366666667, "fusion_lon": 0.0}, {"is_reserved": 0, "type": "electric_scooter", "fusion_lat": 0.0, "is_disabled": 0, "rental_uris": {"ios": "https://dc.lft.to/lastmile_qr_scan", "android": "https://dc.lft.to/lastmile_qr_scan"}, "bike_id": "61302aa2309adec6a76293fd97abc41b", "lat": 38.92456516666667, "name": "61302aa2309adec6a76293fd97abc41b", "lon": -77.03776133333334, "fusion_lon": 0.0}, {"is_reserved": 0, "type": "electric_scooter", "fusion_lat": 0.0, "is_disabled": 0, "rental_uris": {"ios": "https://dc.lft.to/lastmile_qr_scan", "android": "https://dc.lft.to/lastmile_qr_scan"}, "bike_id": "5e2cb4a4842ae5fa2618d38778195cdc", "lat": 38.899317333333336, "name": "5e2cb4a4842ae5fa2618d38778195cdc", "lon": -76.93763983333334, "fusion_lon": 0.0}, {"is_reserved": 0, "type": "electric_scooter", "fusion_lat": 0.0, "is_disabled": 0, "rental_uris": {"ios": "https://dc.lft.to/lastmile_qr_scan", "android": "https://dc.lft.to/lastmile_qr_scan"}, "bike_id": "3bd8751bdc24f596e73fde9899cdd45d", "lat": 38.90175966666666, "name": "3bd8751bdc24f596e73fde9899cdd45d", "lon": -77.00209416666667, "fusion_lon": 0.0}, {"is_reserved": 0, "type": "electric_scooter", "fusion_lat": 0.0, "is_disabled": 0, "rental_uris": {"ios": "https://dc.lft.to/lastmile_qr_scan", "android": "https://dc.lft.to/lastmile_qr_scan"}, "bike_id": "41edb80db76818610cdc012f783c0033", "lat": 38.924307666666664, "name": "41edb80db76818610cdc012f783c0033", "lon": -77.034034, "fusion_lon": 0.0}, {"is_reserved": 0, "type": "electric_scooter", "fusion_lat": 0.0, "is_disabled": 0, "rental_uris": {"ios": "https://dc.lft.to/lastmile_qr_scan", "android": "https://dc.lft.to/lastmile_qr_scan"}, "bike_id": "c3f86f3f9d880c3afb26f271435956d7", "lat": 38.901773166666665, "name": "c3f86f3f9d880c3afb26f271435956d7", "lon": -76.976687, "fusion_lon": 0.0}, {"is_reserved": 0, "type": "electric_scooter", "fusion_lat": 0.0, "is_disabled": 0, "rental_uris": {"ios": "https://dc.lft.to/lastmile_qr_scan", "android": "https://dc.lft.to/lastmile_qr_scan"}, "bike_id": "b7cbad574d2ea9a2f45d108dc28eaaa5", "lat": 38.9103785, "name": "b7cbad574d2ea9a2f45d108dc28eaaa5", "lon": -76.93835383333334, "fusion_lon": 0.0}, {"is_reserved": 0, "type": "electric_scooter", "fusion_lat": 0.0, "is_disabled": 0, "rental_uris": {"ios": "https://dc.lft.to/lastmile_qr_scan", "android": "https://dc.lft.to/lastmile_qr_scan"}, "bike_id": "8adb712dc2aa7a6dbac31d37fc608ea0", "lat": 38.90842966666666, "name": "8adb712dc2aa7a6dbac31d37fc608ea0", "lon": -76.999552, "fusion_lon": 0.0}, {"is_reserved": 0, "type": "electric_scooter", "fusion_lat": 0.0, "is_disabled": 0, "rental_uris": {"ios": "https://dc.lft.to/lastmile_qr_scan", "android": "https://dc.lft.to/lastmile_qr_scan"}, "bike_id": "6f9a6d5d8c18a05925d2d25075f50c19", "lat": 38.90770216666667, "name": "6f9a6d5d8c18a05925d2d25075f50c19", "lon": -77.02403516666666, "fusion_lon": 0.0}, {"is_reserved": 0, "type": "electric_scooter", "fusion_lat": 0.0, "is_disabled": 0, "rental_uris": {"ios": "https://dc.lft.to/lastmile_qr_scan", "android": "https://dc.lft.to/lastmile_qr_scan"}, "bike_id": "b77542f4641466494cf70d4235c75253", "lat": 38.8970525, "name": "b77542f4641466494cf70d4235c75253", "lon": -76.93, "fusion_lon": 0.0}, {"is_reserved": 0, "type": "electric_scooter", "fusion_lat": 0.0, "is_disabled": 0, "rental_uris": {"ios": "https://dc.lft.to/lastmile_qr_scan", "android": "https://dc.lft.to/lastmile_qr_scan"}, "bike_id": "3bb3d96c50e475019fcf594252ba7879", "lat": 38.9402565, "name": "3bb3d96c50e475019fcf594252ba7879", "lon": -77.07723483333334, "fusion_lon": 0.0}, {"is_reserved": 0, "type": "electric_scooter", "fusion_lat": 0.0, "is_disabled": 0, "rental_uris": {"ios": "https://dc.lft.to/lastmile_qr_scan", "android": "https://dc.lft.to/lastmile_qr_scan"}, "bike_id": "bc6b2017b5b9e10b4db62741d3da0a88", "lat": 38.88004516666667, "name": "bc6b2017b5b9e10b4db62741d3da0a88", "lon": -76.99833716666667, "fusion_lon": 0.0}, {"is_reserved": 0, "type": "electric_scooter", "fusion_lat": 0.0, "is_disabled": 0, "rental_uris": {"ios": "https://dc.lft.to/lastmile_qr_scan", "android": "https://dc.lft.to/lastmile_qr_scan"}, "bike_id": "94c8a45e2173011a53d6c6a77d794f3c", "lat": 38.930004, "name": "94c8a45e2173011a53d6c6a77d794f3c", "lon": -77.02115233333333, "fusion_lon": 0.0}, {"is_reserved": 0, "type": "electric_scooter", "fusion_lat": 0.0, "is_disabled": 0, "rental_uris": {"ios": "https://dc.lft.to/lastmile_qr_scan", "android": "https://dc.lft.to/lastmile_qr_scan"}, "bike_id": "cee626e56ed681fb155c05d86fcb3eaa", "lat": 38.880756166666664, "name": "cee626e56ed681fb155c05d86fcb3eaa", "lon": -76.98509283333334, "fusion_lon": 0.0}, {"is_reserved": 0, "type": "electric_bike", "fusion_lat": 0.0, "is_disabled": 0, "rental_uris": {"ios": "https://dc.lft.to/lastmile_qr_scan", "android": "https://dc.lft.to/lastmile_qr_scan"}, "bike_id": "355d0dadaf94bf2ffe8f501f1e9795e2", "lat": 39.034755, "name": "355d0dadaf94bf2ffe8f501f1e9795e2", "lon": -77.04105483333333, "fusion_lon": 0.0}, {"is_reserved": 0, "type": "electric_scooter", "fusion_lat": 0.0, "is_disabled": 0, "rental_uris": {"ios": "https://dc.lft.to/lastmile_qr_scan", "android": "https://dc.lft.to/lastmile_qr_scan"}, "bike_id": "40ed1abe683baf6dfde3c30784a8875d", "lat": 38.910039833333336, "name": "40ed1abe683baf6dfde3c30784a8875d", "lon": -77.0442435, "fusion_lon": 0.0}, {"is_reserved": 0, "type": "electric_scooter", "fusion_lat": 0.0, "is_disabled": 0, "rental_uris": {"ios": "https://dc.lft.to/lastmile_qr_scan", "android": "https://dc.lft.to/lastmile_qr_scan"}, "bike_id": "d4e84a40bba8aeb6734005994bef64f1", "lat": 38.8746525, "name": "d4e84a40bba8aeb6734005994bef64f1", "lon": -77.00513883333333, "fusion_lon": 0.0}, {"is_reserved": 0, "type": "electric_bike", "fusion_lat": 0.0, "is_disabled": 0, "rental_uris": {"ios": "https://dc.lft.to/lastmile_qr_scan", "android": "https://dc.lft.to/lastmile_qr_scan"}, "bike_id": "14831fc3b4bf3a3f767f11dae2a4f958", "lat": 38.862636, "name": "14831fc3b4bf3a3f767f11dae2a4f958", "lon": -76.98351133333334, "fusion_lon": 0.0}, {"is_reserved": 0, "type": "electric_scooter", "fusion_lat": 0.0, "is_disabled": 0, "rental_uris": {"ios": "https://dc.lft.to/lastmile_qr_scan", "android": "https://dc.lft.to/lastmile_qr_scan"}, "bike_id": "8ca4a591ad0d825389b768da2817f8a5", "lat": 38.88179216666666, "name": "8ca4a591ad0d825389b768da2817f8a5", "lon": -77.00919133333333, "fusion_lon": 0.0}, {"is_reserved": 0, "type": "electric_scooter", "fusion_lat": 0.0, "is_disabled": 0, "rental_uris": {"ios": "https://dc.lft.to/lastmile_qr_scan", "android": "https://dc.lft.to/lastmile_qr_scan"}, "bike_id": "5825c31a79732e25b8533453bd9b6e7e", "lat": 38.90914216666667, "name": "5825c31a79732e25b8533453bd9b6e7e", "lon": -77.0439335, "fusion_lon": 0.0}, {"is_reserved": 0, "type": "electric_scooter", "fusion_lat": 0.0, "is_disabled": 0, "rental_uris": {"ios": "https://dc.lft.to/lastmile_qr_scan", "android": "https://dc.lft.to/lastmile_qr_scan"}, "bike_id": "325842982dd690e2437f2d9d5af084bb", "lat": 38.92340183333334, "name": "325842982dd690e2437f2d9d5af084bb", "lon": -76.998695, "fusion_lon": 0.0}, {"is_reserved": 0, "type": "electric_scooter", "fusion_lat": 0.0, "is_disabled": 0, "rental_uris": {"ios": "https://dc.lft.to/lastmile_qr_scan", "android": "https://dc.lft.to/lastmile_qr_scan"}, "bike_id": "69cd6796caa22760db74a64b111e9cf7", "lat": 38.944496666666666, "name": "69cd6796caa22760db74a64b111e9cf7", "lon": -77.029048, "fusion_lon": 0.0}, {"is_reserved": 0, "type": "electric_scooter", "fusion_lat": 0.0, "is_disabled": 0, "rental_uris": {"ios": "https://dc.lft.to/lastmile_qr_scan", "android": "https://dc.lft.to/lastmile_qr_scan"}, "bike_id": "edcec1bfa22510691c9852b124b3da38", "lat": 38.883594, "name": "edcec1bfa22510691c9852b124b3da38", "lon": -76.99510933333333, "fusion_lon": 0.0}, {"is_reserved": 0, "type": "electric_scooter", "fusion_lat": 0.0, "is_disabled": 0, "rental_uris": {"ios": "https://dc.lft.to/lastmile_qr_scan", "android": "https://dc.lft.to/lastmile_qr_scan"}, "bike_id": "2bebd5f1affb57332c65c95682a60df8", "lat": 38.92258966666667, "name": "2bebd5f1affb57332c65c95682a60df8", "lon": -77.03667233333333, "fusion_lon": 0.0}, {"is_reserved": 0, "type": "electric_scooter", "fusion_lat": 0.0, "is_disabled": 0, "rental_uris": {"ios": "https://dc.lft.to/lastmile_qr_scan", "android": "https://dc.lft.to/lastmile_qr_scan"}, "bike_id": "eec550b03b71b4d53102a3a08ab692d7", "lat": 38.922081166666665, "name": "eec550b03b71b4d53102a3a08ab692d7", "lon": -77.0187585, "fusion_lon": 0.0}, {"is_reserved": 0, "type": "electric_scooter", "fusion_lat": 0.0, "is_disabled": 0, "rental_uris": {"ios": "https://dc.lft.to/lastmile_qr_scan", "android": "https://dc.lft.to/lastmile_qr_scan"}, "bike_id": "7eb2676b21f5b5376440c65edce2d8fa", "lat": 38.8885625, "name": "7eb2676b21f5b5376440c65edce2d8fa", "lon": -76.9790545, "fusion_lon": 0.0}, {"is_reserved": 0, "type": "electric_scooter", "fusion_lat": 0.0, "is_disabled": 0, "rental_uris": {"ios": "https://dc.lft.to/lastmile_qr_scan", "android": "https://dc.lft.to/lastmile_qr_scan"}, "bike_id": "a5151093588f8b1e2154104c215752e4", "lat": 38.92112783333334, "name": "a5151093588f8b1e2154104c215752e4", "lon": -77.03049516666667, "fusion_lon": 0.0}, {"is_reserved": 0, "type": "electric_scooter", "fusion_lat": 0.0, "is_disabled": 0, "rental_uris": {"ios": "https://dc.lft.to/lastmile_qr_scan", "android": "https://dc.lft.to/lastmile_qr_scan"}, "bike_id": "ef90bacd8b3e87e87201fcbbd9011326", "lat": 38.950666166666664, "name": "ef90bacd8b3e87e87201fcbbd9011326", "lon": -77.06536316666667, "fusion_lon": 0.0}, {"is_reserved": 0, "type": "electric_scooter", "fusion_lat": 0.0, "is_disabled": 0, "rental_uris": {"ios": "https://dc.lft.to/lastmile_qr_scan", "android": "https://dc.lft.to/lastmile_qr_scan"}, "bike_id": "0a79d23c06e586bd3c4d54c9462f08a8", "lat": 38.9306495, "name": "0a79d23c06e586bd3c4d54c9462f08a8", "lon": -77.02341633333333, "fusion_lon": 0.0}, {"is_reserved": 0, "type": "electric_scooter", "fusion_lat": 0.0, "is_disabled": 0, "rental_uris": {"ios": "https://dc.lft.to/lastmile_qr_scan", "android": "https://dc.lft.to/lastmile_qr_scan"}, "bike_id": "a85700978153bb98f086358133d1ca8e", "lat": 38.909654, "name": "a85700978153bb98f086358133d1ca8e", "lon": -77.021996, "fusion_lon": 0.0}, {"is_reserved": 0, "type": "electric_scooter", "fusion_lat": 0.0, "is_disabled": 0, "rental_uris": {"ios": "https://dc.lft.to/lastmile_qr_scan", "android": "https://dc.lft.to/lastmile_qr_scan"}, "bike_id": "0c10bc1b9d4bb0e914a9e3ea4f54e7e6", "lat": 38.88098983333333, "name": "0c10bc1b9d4bb0e914a9e3ea4f54e7e6", "lon": -77.026335, "fusion_lon": 0.0}, {"is_reserved": 0, "type": "electric_scooter", "fusion_lat": 0.0, "is_disabled": 0, "rental_uris": {"ios": "https://dc.lft.to/lastmile_qr_scan", "android": "https://dc.lft.to/lastmile_qr_scan"}, "bike_id": "f57e4e6cd13de4ddc71ff399d3fa40c7", "lat": 38.9231575, "name": "f57e4e6cd13de4ddc71ff399d3fa40c7", "lon": -77.01954766666667, "fusion_lon": 0.0}, {"is_reserved": 0, "type": "electric_scooter", "fusion_lat": 0.0, "is_disabled": 0, "rental_uris": {"ios": "https://dc.lft.to/lastmile_qr_scan", "android": "https://dc.lft.to/lastmile_qr_scan"}, "bike_id": "96ae700a58fa27ff44314dff25468159", "lat": 38.907855833333336, "name": "96ae700a58fa27ff44314dff25468159", "lon": -77.0690925, "fusion_lon": 0.0}, {"is_reserved": 0, "type": "electric_scooter", "fusion_lat": 0.0, "is_disabled": 0, "rental_uris": {"ios": "https://dc.lft.to/lastmile_qr_scan", "android": "https://dc.lft.to/lastmile_qr_scan"}, "bike_id": "d12f0e824f40146d4a0ddb89f099b707", "lat": 38.916961, "name": "d12f0e824f40146d4a0ddb89f099b707", "lon": -77.03933783333333, "fusion_lon": 0.0}, {"is_reserved": 0, "type": "electric_scooter", "fusion_lat": 0.0, "is_disabled": 0, "rental_uris": {"ios": "https://dc.lft.to/lastmile_qr_scan", "android": "https://dc.lft.to/lastmile_qr_scan"}, "bike_id": "9554b29459ee6f54ab62b1234db50735", "lat": 38.923281, "name": "9554b29459ee6f54ab62b1234db50735", "lon": -77.04511183333334, "fusion_lon": 0.0}, {"is_reserved": 0, "type": "electric_bike", "fusion_lat": 0.0, "is_disabled": 0, "rental_uris": {"ios": "https://dc.lft.to/lastmile_qr_scan", "android": "https://dc.lft.to/lastmile_qr_scan"}, "bike_id": "67b81a9d6bd9f8d781777fdf9652f777", "lat": 38.920147, "name": "67b81a9d6bd9f8d781777fdf9652f777", "lon": -77.030992, "fusion_lon": 0.0}, {"is_reserved": 0, "type": "electric_scooter", "fusion_lat": 0.0, "is_disabled": 0, "rental_uris": {"ios": "https://dc.lft.to/lastmile_qr_scan", "android": "https://dc.lft.to/lastmile_qr_scan"}, "bike_id": "07163918bd3d282ef92def3f718a180a", "lat": 38.9172295, "name": "07163918bd3d282ef92def3f718a180a", "lon": -77.02501733333334, "fusion_lon": 0.0}, {"is_reserved": 0, "type": "electric_scooter", "fusion_lat": 0.0, "is_disabled": 0, "rental_uris": {"ios": "https://dc.lft.to/lastmile_qr_scan", "android": "https://dc.lft.to/lastmile_qr_scan"}, "bike_id": "9d6ae470d99afeb2e281344ab616c32d", "lat": 38.91695333333333, "name": "9d6ae470d99afeb2e281344ab616c32d", "lon": -77.04685433333333, "fusion_lon": 0.0}, {"is_reserved": 0, "type": "electric_scooter", "fusion_lat": 0.0, "is_disabled": 0, "rental_uris": {"ios": "https://dc.lft.to/lastmile_qr_scan", "android": "https://dc.lft.to/lastmile_qr_scan"}, "bike_id": "3fcbb0d30f3a0f108f9c7cc8c6dd1425", "lat": 38.916883, "name": "3fcbb0d30f3a0f108f9c7cc8c6dd1425", "lon": -77.0259675, "fusion_lon": 0.0}, {"is_reserved": 0, "type": "electric_scooter", "fusion_lat": 0.0, "is_disabled": 0, "rental_uris": {"ios": "https://dc.lft.to/lastmile_qr_scan", "android": "https://dc.lft.to/lastmile_qr_scan"}, "bike_id": "0d33d7eb7f1a1d2dc58b8414adcf3e63", "lat": 38.91731, "name": "0d33d7eb7f1a1d2dc58b8414adcf3e63", "lon": -77.06888016666667, "fusion_lon": 0.0}, {"is_reserved": 0, "type": "electric_bike", "fusion_lat": 0.0, "is_disabled": 0, "rental_uris": {"ios": "https://dc.lft.to/lastmile_qr_scan", "android": "https://dc.lft.to/lastmile_qr_scan"}, "bike_id": "5d1af16cc9b900f11ce22f3a22da99b0", "lat": 38.80479, "name": "5d1af16cc9b900f11ce22f3a22da99b0", "lon": -76.9910925, "fusion_lon": 0.0}, {"is_reserved": 0, "type": "electric_bike", "fusion_lat": 0.0, "is_disabled": 0, "rental_uris": {"ios": "https://dc.lft.to/lastmile_qr_scan", "android": "https://dc.lft.to/lastmile_qr_scan"}, "bike_id": "04f4dd2b8283ea57b892b6201474b59d", "lat": 38.902310666666665, "name": "04f4dd2b8283ea57b892b6201474b59d", "lon": -76.97426983333334, "fusion_lon": 0.0}, {"is_reserved": 0, "type": "electric_scooter", "fusion_lat": 0.0, "is_disabled": 0, "rental_uris": {"ios": "https://dc.lft.to/lastmile_qr_scan", "android": "https://dc.lft.to/lastmile_qr_scan"}, "bike_id": "1a5c774034d1efe587408300820cc9f3", "lat": 38.89409933333334, "name": "1a5c774034d1efe587408300820cc9f3", "lon": -77.01080633333333, "fusion_lon": 0.0}, {"is_reserved": 0, "type": "electric_scooter", "fusion_lat": 0.0, "is_disabled": 0, "rental_uris": {"ios": "https://dc.lft.to/lastmile_qr_scan", "android": "https://dc.lft.to/lastmile_qr_scan"}, "bike_id": "c0e1906307b188c38faf47b18dae5ce6", "lat": 38.903845, "name": "c0e1906307b188c38faf47b18dae5ce6", "lon": -77.05210383333333, "fusion_lon": 0.0}, {"is_reserved": 0, "type": "electric_scooter", "fusion_lat": 0.0, "is_disabled": 0, "rental_uris": {"ios": "https://dc.lft.to/lastmile_qr_scan", "android": "https://dc.lft.to/lastmile_qr_scan"}, "bike_id": "7d485a253601592f61b706601611d28f", "lat": 38.9077415, "name": "7d485a253601592f61b706601611d28f", "lon": -77.04351066666666, "fusion_lon": 0.0}, {"is_reserved": 0, "type": "electric_scooter", "fusion_lat": 0.0, "is_disabled": 0, "rental_uris": {"ios": "https://dc.lft.to/lastmile_qr_scan", "android": "https://dc.lft.to/lastmile_qr_scan"}, "bike_id": "1f3e7ca643be7d8d82c5e60222cdfdc7", "lat": 38.909668, "name": "1f3e7ca643be7d8d82c5e60222cdfdc7", "lon": -77.04597483333333, "fusion_lon": 0.0}, {"is_reserved": 0, "type": "electric_scooter", "fusion_lat": 0.0, "is_disabled": 0, "rental_uris": {"ios": "https://dc.lft.to/lastmile_qr_scan", "android": "https://dc.lft.to/lastmile_qr_scan"}, "bike_id": "8a2a865f487f01f288c829c85e17a00d", "lat": 38.8825215, "name": "8a2a865f487f01f288c829c85e17a00d", "lon": -76.99506716666667, "fusion_lon": 0.0}, {"is_reserved": 0, "type": "electric_scooter", "fusion_lat": 0.0, "is_disabled": 0, "rental_uris": {"ios": "https://dc.lft.to/lastmile_qr_scan", "android": "https://dc.lft.to/lastmile_qr_scan"}, "bike_id": "b1c6f04002dbc940d018f47a8680a4aa", "lat": 38.8874645, "name": "b1c6f04002dbc940d018f47a8680a4aa", "lon": -77.026305, "fusion_lon": 0.0}, {"is_reserved": 0, "type": "electric_scooter", "fusion_lat": 0.0, "is_disabled": 0, "rental_uris": {"ios": "https://dc.lft.to/lastmile_qr_scan", "android": "https://dc.lft.to/lastmile_qr_scan"}, "bike_id": "4a1cc56237e3c5b41a21c9d5efb51e61", "lat": 38.903177666666664, "name": "4a1cc56237e3c5b41a21c9d5efb51e61", "lon": -77.02158366666667, "fusion_lon": 0.0}, {"is_reserved": 0, "type": "electric_scooter", "fusion_lat": 0.0, "is_disabled": 0, "rental_uris": {"ios": "https://dc.lft.to/lastmile_qr_scan", "android": "https://dc.lft.to/lastmile_qr_scan"}, "bike_id": "ac03ed4be0449386dbd98d0aad6aa90b", "lat": 38.84269716666667, "name": "ac03ed4be0449386dbd98d0aad6aa90b", "lon": -76.9884275, "fusion_lon": 0.0}, {"is_reserved": 0, "type": "electric_scooter", "fusion_lat": 0.0, "is_disabled": 0, "rental_uris": {"ios": "https://dc.lft.to/lastmile_qr_scan", "android": "https://dc.lft.to/lastmile_qr_scan"}, "bike_id": "c58f26ede60f951d83b96ba0b918541d", "lat": 38.875842, "name": "c58f26ede60f951d83b96ba0b918541d", "lon": -77.005741, "fusion_lon": 0.0}, {"is_reserved": 0, "type": "electric_scooter", "fusion_lat": 0.0, "is_disabled": 0, "rental_uris": {"ios": "https://dc.lft.to/lastmile_qr_scan", "android": "https://dc.lft.to/lastmile_qr_scan"}, "bike_id": "41c4a93143243a60ed585358257d6896", "lat": 38.903142333333335, "name": "41c4a93143243a60ed585358257d6896", "lon": -76.97800133333334, "fusion_lon": 0.0}, {"is_reserved": 0, "type": "electric_scooter", "fusion_lat": 0.0, "is_disabled": 0, "rental_uris": {"ios": "https://dc.lft.to/lastmile_qr_scan", "android": "https://dc.lft.to/lastmile_qr_scan"}, "bike_id": "20cb0ea80a8582cf59f380bcbbe750c9", "lat": 38.8874165, "name": "20cb0ea80a8582cf59f380bcbbe750c9", "lon": -77.01536366666667, "fusion_lon": 0.0}, {"is_reserved": 0, "type": "electric_scooter", "fusion_lat": 0.0, "is_disabled": 0, "rental_uris": {"ios": "https://dc.lft.to/lastmile_qr_scan", "android": "https://dc.lft.to/lastmile_qr_scan"}, "bike_id": "0c7afe26bbfdf7fa42b21b66e186d211", "lat": 38.90051583333333, "name": "0c7afe26bbfdf7fa42b21b66e186d211", "lon": -76.99339883333333, "fusion_lon": 0.0}, {"is_reserved": 0, "type": "electric_scooter", "fusion_lat": 0.0, "is_disabled": 0, "rental_uris": {"ios": "https://dc.lft.to/lastmile_qr_scan", "android": "https://dc.lft.to/lastmile_qr_scan"}, "bike_id": "320127f15c483ec60b2ffc30077da19e", "lat": 38.956426, "name": "320127f15c483ec60b2ffc30077da19e", "lon": -77.028198, "fusion_lon": 0.0}, {"is_reserved": 0, "type": "electric_scooter", "fusion_lat": 0.0, "is_disabled": 0, "rental_uris": {"ios": "https://dc.lft.to/lastmile_qr_scan", "android": "https://dc.lft.to/lastmile_qr_scan"}, "bike_id": "90c37c61ecba66803f982ad6a8e01dd2", "lat": 38.92337416666667, "name": "90c37c61ecba66803f982ad6a8e01dd2", "lon": -77.043107, "fusion_lon": 0.0}, {"is_reserved": 0, "type": "electric_scooter", "fusion_lat": 0.0, "is_disabled": 0, "rental_uris": {"ios": "https://dc.lft.to/lastmile_qr_scan", "android": "https://dc.lft.to/lastmile_qr_scan"}, "bike_id": "a7d3868cc95e7b372930858885d234af", "lat": 38.8718835, "name": "a7d3868cc95e7b372930858885d234af", "lon": -77.00588666666667, "fusion_lon": 0.0}, {"is_reserved": 0, "type": "electric_bike", "fusion_lat": 0.0, "is_disabled": 0, "rental_uris": {"ios": "https://dc.lft.to/lastmile_qr_scan", "android": "https://dc.lft.to/lastmile_qr_scan"}, "bike_id": "685155b1c22fa652ae759073120f5cbd", "lat": 38.846720166666664, "name": "685155b1c22fa652ae759073120f5cbd", "lon": -77.1393735, "fusion_lon": 0.0}, {"is_reserved": 0, "type": "electric_scooter", "fusion_lat": 0.0, "is_disabled": 0, "rental_uris": {"ios": "https://dc.lft.to/lastmile_qr_scan", "android": "https://dc.lft.to/lastmile_qr_scan"}, "bike_id": "df2635d1119d36ddbf67c6af5848bfbf", "lat": 38.9125115, "name": "df2635d1119d36ddbf67c6af5848bfbf", "lon": -76.98350566666667, "fusion_lon": 0.0}, {"is_reserved": 0, "type": "electric_scooter", "fusion_lat": 0.0, "is_disabled": 0, "rental_uris": {"ios": "https://dc.lft.to/lastmile_qr_scan", "android": "https://dc.lft.to/lastmile_qr_scan"}, "bike_id": "880f3d28659ddbb72dab38f1252277c5", "lat": 38.9171785, "name": "880f3d28659ddbb72dab38f1252277c5", "lon": -77.03175183333333, "fusion_lon": 0.0}, {"is_reserved": 0, "type": "electric_scooter", "fusion_lat": 0.0, "is_disabled": 0, "rental_uris": {"ios": "https://dc.lft.to/lastmile_qr_scan", "android": "https://dc.lft.to/lastmile_qr_scan"}, "bike_id": "9438b4eac24666191f456bfbecf0c524", "lat": 38.8760015, "name": "9438b4eac24666191f456bfbecf0c524", "lon": -77.00587666666667, "fusion_lon": 0.0}, {"is_reserved": 0, "type": "electric_bike", "fusion_lat": 0.0, "is_disabled": 0, "rental_uris": {"ios": "https://dc.lft.to/lastmile_qr_scan", "android": "https://dc.lft.to/lastmile_qr_scan"}, "bike_id": "7ca7c61f158c3bdfbd75fbc50733ba20", "lat": 38.94023033333333, "name": "7ca7c61f158c3bdfbd75fbc50733ba20", "lon": -76.9758005, "fusion_lon": 0.0}, {"is_reserved": 0, "type": "electric_scooter", "fusion_lat": 0.0, "is_disabled": 0, "rental_uris": {"ios": "https://dc.lft.to/lastmile_qr_scan", "android": "https://dc.lft.to/lastmile_qr_scan"}, "bike_id": "85dcb06d7923f0f13c7bd9d12b805506", "lat": 38.89771233333333, "name": "85dcb06d7923f0f13c7bd9d12b805506", "lon": -77.0478595, "fusion_lon": 0.0}, {"is_reserved": 0, "type": "electric_bike", "fusion_lat": 0.0, "is_disabled": 0, "rental_uris": {"ios": "https://dc.lft.to/lastmile_qr_scan", "android": "https://dc.lft.to/lastmile_qr_scan"}, "bike_id": "70960e432ef869b29b4c72947533682e", "lat": 38.86552016666667, "name": "70960e432ef869b29b4c72947533682e", "lon": -76.94155866666667, "fusion_lon": 0.0}, {"is_reserved": 0, "type": "electric_scooter", "fusion_lat": 0.0, "is_disabled": 0, "rental_uris": {"ios": "https://dc.lft.to/lastmile_qr_scan", "android": "https://dc.lft.to/lastmile_qr_scan"}, "bike_id": "1f1e4178fab85aa2780545d57c6b8da9", "lat": 38.87443733333333, "name": "1f1e4178fab85aa2780545d57c6b8da9", "lon": -77.00925883333333, "fusion_lon": 0.0}, {"is_reserved": 0, "type": "electric_scooter", "fusion_lat": 0.0, "is_disabled": 0, "rental_uris": {"ios": "https://dc.lft.to/lastmile_qr_scan", "android": "https://dc.lft.to/lastmile_qr_scan"}, "bike_id": "d07bd2d5c1a9ae9dbab88bc731bdf9eb", "lat": 38.89720483333333, "name": "d07bd2d5c1a9ae9dbab88bc731bdf9eb", "lon": -77.024651, "fusion_lon": 0.0}, {"is_reserved": 0, "type": "electric_scooter", "fusion_lat": 0.0, "is_disabled": 0, "rental_uris": {"ios": "https://dc.lft.to/lastmile_qr_scan", "android": "https://dc.lft.to/lastmile_qr_scan"}, "bike_id": "1be430658f93b62abc44467e8b7fc640", "lat": 38.897278, "name": "1be430658f93b62abc44467e8b7fc640", "lon": -77.00321816666667, "fusion_lon": 0.0}, {"is_reserved": 0, "type": "electric_scooter", "fusion_lat": 0.0, "is_disabled": 0, "rental_uris": {"ios": "https://dc.lft.to/lastmile_qr_scan", "android": "https://dc.lft.to/lastmile_qr_scan"}, "bike_id": "78cafb47b1a679e1ed4876b7fd26e062", "lat": 38.92169583333333, "name": "78cafb47b1a679e1ed4876b7fd26e062", "lon": -77.03820916666666, "fusion_lon": 0.0}, {"is_reserved": 0, "type": "electric_scooter", "fusion_lat": 0.0, "is_disabled": 0, "rental_uris": {"ios": "https://dc.lft.to/lastmile_qr_scan", "android": "https://dc.lft.to/lastmile_qr_scan"}, "bike_id": "5a0c66cf28da6d18615ff8fff5fbb2f4", "lat": 38.9124315, "name": "5a0c66cf28da6d18615ff8fff5fbb2f4", "lon": -76.98671266666666, "fusion_lon": 0.0}, {"is_reserved": 0, "type": "electric_bike", "fusion_lat": 0.0, "is_disabled": 0, "rental_uris": {"ios": "https://dc.lft.to/lastmile_qr_scan", "android": "https://dc.lft.to/lastmile_qr_scan"}, "bike_id": "428f9c29e88ee54c534b419ded2f0499", "lat": 38.805185333333334, "name": "428f9c29e88ee54c534b419ded2f0499", "lon": -77.04335933333333, "fusion_lon": 0.0}, {"is_reserved": 0, "type": "electric_scooter", "fusion_lat": 0.0, "is_disabled": 0, "rental_uris": {"ios": "https://dc.lft.to/lastmile_qr_scan", "android": "https://dc.lft.to/lastmile_qr_scan"}, "bike_id": "f29a78ab435e0ebb21942bf322085c4e", "lat": 38.9045415, "name": "f29a78ab435e0ebb21942bf322085c4e", "lon": -76.9337255, "fusion_lon": 0.0}, {"is_reserved": 0, "type": "electric_scooter", "fusion_lat": 0.0, "is_disabled": 0, "rental_uris": {"ios": "https://dc.lft.to/lastmile_qr_scan", "android": "https://dc.lft.to/lastmile_qr_scan"}, "bike_id": "7849d95d36222bb1a416c4bc7b5a5fb1", "lat": 38.9419855, "name": "7849d95d36222bb1a416c4bc7b5a5fb1", "lon": -77.013399, "fusion_lon": 0.0}, {"is_reserved": 0, "type": "electric_scooter", "fusion_lat": 0.0, "is_disabled": 0, "rental_uris": {"ios": "https://dc.lft.to/lastmile_qr_scan", "android": "https://dc.lft.to/lastmile_qr_scan"}, "bike_id": "536351f9c8d0ea23b26c6911b3e98db2", "lat": 38.9288215, "name": "536351f9c8d0ea23b26c6911b3e98db2", "lon": -77.0373195, "fusion_lon": 0.0}, {"is_reserved": 0, "type": "electric_scooter", "fusion_lat": 0.0, "is_disabled": 0, "rental_uris": {"ios": "https://dc.lft.to/lastmile_qr_scan", "android": "https://dc.lft.to/lastmile_qr_scan"}, "bike_id": "dc2e38e2573ce111821e790c6a6e02c2", "lat": 38.927062166666666, "name": "dc2e38e2573ce111821e790c6a6e02c2", "lon": -76.96077966666667, "fusion_lon": 0.0}, {"is_reserved": 0, "type": "electric_scooter", "fusion_lat": 0.0, "is_disabled": 0, "rental_uris": {"ios": "https://dc.lft.to/lastmile_qr_scan", "android": "https://dc.lft.to/lastmile_qr_scan"}, "bike_id": "4f774ca5e95bed5d90394b3c72167d30", "lat": 38.897747, "name": "4f774ca5e95bed5d90394b3c72167d30", "lon": -77.0502545, "fusion_lon": 0.0}, {"is_reserved": 0, "type": "electric_scooter", "fusion_lat": 0.0, "is_disabled": 0, "rental_uris": {"ios": "https://dc.lft.to/lastmile_qr_scan", "android": "https://dc.lft.to/lastmile_qr_scan"}, "bike_id": "67ca34269ac8298cfada86b7691230e4", "lat": 38.89227116666667, "name": "67ca34269ac8298cfada86b7691230e4", "lon": -77.02538083333333, "fusion_lon": 0.0}, {"is_reserved": 0, "type": "electric_scooter", "fusion_lat": 0.0, "is_disabled": 0, "rental_uris": {"ios": "https://dc.lft.to/lastmile_qr_scan", "android": "https://dc.lft.to/lastmile_qr_scan"}, "bike_id": "32fa4cf5c6de4f2691a9068eee46dee6", "lat": 38.9019955, "name": "32fa4cf5c6de4f2691a9068eee46dee6", "lon": -77.0007295, "fusion_lon": 0.0}, {"is_reserved": 0, "type": "electric_scooter", "fusion_lat": 0.0, "is_disabled": 0, "rental_uris": {"ios": "https://dc.lft.to/lastmile_qr_scan", "android": "https://dc.lft.to/lastmile_qr_scan"}, "bike_id": "fc870f1c5b11a900f0ac48bd08bb0a4d", "lat": 38.88991166666667, "name": "fc870f1c5b11a900f0ac48bd08bb0a4d", "lon": -76.9884065, "fusion_lon": 0.0}, {"is_reserved": 0, "type": "electric_scooter", "fusion_lat": 0.0, "is_disabled": 0, "rental_uris": {"ios": "https://dc.lft.to/lastmile_qr_scan", "android": "https://dc.lft.to/lastmile_qr_scan"}, "bike_id": "49a65b2b289eab1b08ed39b858c3657b", "lat": 38.92497383333333, "name": "49a65b2b289eab1b08ed39b858c3657b", "lon": -77.04329366666667, "fusion_lon": 0.0}, {"is_reserved": 0, "type": "electric_scooter", "fusion_lat": 0.0, "is_disabled": 0, "rental_uris": {"ios": "https://dc.lft.to/lastmile_qr_scan", "android": "https://dc.lft.to/lastmile_qr_scan"}, "bike_id": "eabc1838a4ddddd3e1cd6b8af2a61440", "lat": 38.8767455, "name": "eabc1838a4ddddd3e1cd6b8af2a61440", "lon": -77.017571, "fusion_lon": 0.0}, {"is_reserved": 0, "type": "electric_scooter", "fusion_lat": 0.0, "is_disabled": 0, "rental_uris": {"ios": "https://dc.lft.to/lastmile_qr_scan", "android": "https://dc.lft.to/lastmile_qr_scan"}, "bike_id": "6e3dcb67d30ced6b032ad6c797b287da", "lat": 38.901245833333334, "name": "6e3dcb67d30ced6b032ad6c797b287da", "lon": -77.03195533333333, "fusion_lon": 0.0}, {"is_reserved": 0, "type": "electric_scooter", "fusion_lat": 0.0, "is_disabled": 0, "rental_uris": {"ios": "https://dc.lft.to/lastmile_qr_scan", "android": "https://dc.lft.to/lastmile_qr_scan"}, "bike_id": "104bb9a3ca3eae318d9acc3516b4ce17", "lat": 38.906443, "name": "104bb9a3ca3eae318d9acc3516b4ce17", "lon": -76.9802445, "fusion_lon": 0.0}, {"is_reserved": 0, "type": "electric_scooter", "fusion_lat": 0.0, "is_disabled": 0, "rental_uris": {"ios": "https://dc.lft.to/lastmile_qr_scan", "android": "https://dc.lft.to/lastmile_qr_scan"}, "bike_id": "836ad684c45d27b1da805b6e9adfb911", "lat": 38.9163345, "name": "836ad684c45d27b1da805b6e9adfb911", "lon": -77.03217433333333, "fusion_lon": 0.0}, {"is_reserved": 0, "type": "electric_scooter", "fusion_lat": 0.0, "is_disabled": 0, "rental_uris": {"ios": "https://dc.lft.to/lastmile_qr_scan", "android": "https://dc.lft.to/lastmile_qr_scan"}, "bike_id": "b733b3d05a9cb485abd6a7db8813893a", "lat": 38.920729, "name": "b733b3d05a9cb485abd6a7db8813893a", "lon": -77.0250905, "fusion_lon": 0.0}, {"is_reserved": 0, "type": "electric_scooter", "fusion_lat": 0.0, "is_disabled": 0, "rental_uris": {"ios": "https://dc.lft.to/lastmile_qr_scan", "android": "https://dc.lft.to/lastmile_qr_scan"}, "bike_id": "503f6ffa5ee8825aa70abd47f79c95ef", "lat": 38.8765855, "name": "503f6ffa5ee8825aa70abd47f79c95ef", "lon": -77.01571083333333, "fusion_lon": 0.0}, {"is_reserved": 0, "type": "electric_scooter", "fusion_lat": 0.0, "is_disabled": 0, "rental_uris": {"ios": "https://dc.lft.to/lastmile_qr_scan", "android": "https://dc.lft.to/lastmile_qr_scan"}, "bike_id": "d318bf863cfef043baf711a10c2392db", "lat": 38.903318, "name": "d318bf863cfef043baf711a10c2392db", "lon": -76.97591666666666, "fusion_lon": 0.0}, {"is_reserved": 0, "type": "electric_scooter", "fusion_lat": 0.0, "is_disabled": 0, "rental_uris": {"ios": "https://dc.lft.to/lastmile_qr_scan", "android": "https://dc.lft.to/lastmile_qr_scan"}, "bike_id": "9133476f6b55b9e9913e4420476fa6a1", "lat": 38.9334865, "name": "9133476f6b55b9e9913e4420476fa6a1", "lon": -76.99444983333333, "fusion_lon": 0.0}, {"is_reserved": 0, "type": "electric_scooter", "fusion_lat": 0.0, "is_disabled": 0, "rental_uris": {"ios": "https://dc.lft.to/lastmile_qr_scan", "android": "https://dc.lft.to/lastmile_qr_scan"}, "bike_id": "a16374d7916a2c344c53c3ebaeb73f59", "lat": 38.89920716666666, "name": "a16374d7916a2c344c53c3ebaeb73f59", "lon": -77.04008566666667, "fusion_lon": 0.0}, {"is_reserved": 0, "type": "electric_scooter", "fusion_lat": 0.0, "is_disabled": 0, "rental_uris": {"ios": "https://dc.lft.to/lastmile_qr_scan", "android": "https://dc.lft.to/lastmile_qr_scan"}, "bike_id": "5c2363cd81d99b97134d8a4b04f3262d", "lat": 38.90061566666667, "name": "5c2363cd81d99b97134d8a4b04f3262d", "lon": -77.00676816666666, "fusion_lon": 0.0}, {"is_reserved": 0, "type": "electric_scooter", "fusion_lat": 0.0, "is_disabled": 0, "rental_uris": {"ios": "https://dc.lft.to/lastmile_qr_scan", "android": "https://dc.lft.to/lastmile_qr_scan"}, "bike_id": "1a770caf64c3a40b51d89a2e00bf3dea", "lat": 38.89823033333333, "name": "1a770caf64c3a40b51d89a2e00bf3dea", "lon": -77.02710583333334, "fusion_lon": 0.0}, {"is_reserved": 0, "type": "electric_scooter", "fusion_lat": 0.0, "is_disabled": 0, "rental_uris": {"ios": "https://dc.lft.to/lastmile_qr_scan", "android": "https://dc.lft.to/lastmile_qr_scan"}, "bike_id": "dec608c204a59e18efc31083aae6f01b", "lat": 38.902572166666666, "name": "dec608c204a59e18efc31083aae6f01b", "lon": -77.01770016666667, "fusion_lon": 0.0}, {"is_reserved": 0, "type": "electric_scooter", "fusion_lat": 0.0, "is_disabled": 0, "rental_uris": {"ios": "https://dc.lft.to/lastmile_qr_scan", "android": "https://dc.lft.to/lastmile_qr_scan"}, "bike_id": "d50b5448fe4f282e6791f98d6e211f74", "lat": 38.920007166666664, "name": "d50b5448fe4f282e6791f98d6e211f74", "lon": -77.071542, "fusion_lon": 0.0}, {"is_reserved": 0, "type": "electric_scooter", "fusion_lat": 0.0, "is_disabled": 0, "rental_uris": {"ios": "https://dc.lft.to/lastmile_qr_scan", "android": "https://dc.lft.to/lastmile_qr_scan"}, "bike_id": "e1d8d3ef2e916c0f6190a3ab3cbd800d", "lat": 38.9207275, "name": "e1d8d3ef2e916c0f6190a3ab3cbd800d", "lon": -77.0250835, "fusion_lon": 0.0}, {"is_reserved": 0, "type": "electric_scooter", "fusion_lat": 0.0, "is_disabled": 0, "rental_uris": {"ios": "https://dc.lft.to/lastmile_qr_scan", "android": "https://dc.lft.to/lastmile_qr_scan"}, "bike_id": "a96650279c6cd857f3a5bd2018d4a636", "lat": 38.8973805, "name": "a96650279c6cd857f3a5bd2018d4a636", "lon": -77.04152983333333, "fusion_lon": 0.0}, {"is_reserved": 0, "type": "electric_scooter", "fusion_lat": 0.0, "is_disabled": 0, "rental_uris": {"ios": "https://dc.lft.to/lastmile_qr_scan", "android": "https://dc.lft.to/lastmile_qr_scan"}, "bike_id": "dc4243fb13e25fe655f0854024596897", "lat": 38.932057, "name": "dc4243fb13e25fe655f0854024596897", "lon": -77.03532666666666, "fusion_lon": 0.0}, {"is_reserved": 0, "type": "electric_scooter", "fusion_lat": 0.0, "is_disabled": 0, "rental_uris": {"ios": "https://dc.lft.to/lastmile_qr_scan", "android": "https://dc.lft.to/lastmile_qr_scan"}, "bike_id": "3fcbe42a38d49581760b4ef0faed9975", "lat": 38.886186, "name": "3fcbe42a38d49581760b4ef0faed9975", "lon": -76.926357, "fusion_lon": 0.0}, {"is_reserved": 0, "type": "electric_scooter", "fusion_lat": 0.0, "is_disabled": 0, "rental_uris": {"ios": "https://dc.lft.to/lastmile_qr_scan", "android": "https://dc.lft.to/lastmile_qr_scan"}, "bike_id": "448a5ae9280e321323812d6f67ef7b69", "lat": 38.955826333333334, "name": "448a5ae9280e321323812d6f67ef7b69", "lon": -77.01786633333333, "fusion_lon": 0.0}, {"is_reserved": 0, "type": "electric_scooter", "fusion_lat": 0.0, "is_disabled": 0, "rental_uris": {"ios": "https://dc.lft.to/lastmile_qr_scan", "android": "https://dc.lft.to/lastmile_qr_scan"}, "bike_id": "af0b2bc088fa8902820902709971a00f", "lat": 38.934647166666664, "name": "af0b2bc088fa8902820902709971a00f", "lon": -77.0276435, "fusion_lon": 0.0}, {"is_reserved": 0, "type": "electric_scooter", "fusion_lat": 0.0, "is_disabled": 0, "rental_uris": {"ios": "https://dc.lft.to/lastmile_qr_scan", "android": "https://dc.lft.to/lastmile_qr_scan"}, "bike_id": "f84603ca5b9171c91866c899bc78afba", "lat": 38.87376033333334, "name": "f84603ca5b9171c91866c899bc78afba", "lon": -77.00128916666667, "fusion_lon": 0.0}, {"is_reserved": 0, "type": "electric_scooter", "fusion_lat": 0.0, "is_disabled": 0, "rental_uris": {"ios": "https://dc.lft.to/lastmile_qr_scan", "android": "https://dc.lft.to/lastmile_qr_scan"}, "bike_id": "c6dc3658253c690809baa18e592f48fe", "lat": 38.8796445, "name": "c6dc3658253c690809baa18e592f48fe", "lon": -77.02432983333334, "fusion_lon": 0.0}, {"is_reserved": 0, "type": "electric_bike", "fusion_lat": 0.0, "is_disabled": 0, "rental_uris": {"ios": "https://dc.lft.to/lastmile_qr_scan", "android": "https://dc.lft.to/lastmile_qr_scan"}, "bike_id": "01d7269323eabd8e9d1958af6b5af287", "lat": 39.026451333333334, "name": "01d7269323eabd8e9d1958af6b5af287", "lon": -77.03685883333333, "fusion_lon": 0.0}, {"is_reserved": 0, "type": "electric_scooter", "fusion_lat": 0.0, "is_disabled": 0, "rental_uris": {"ios": "https://dc.lft.to/lastmile_qr_scan", "android": "https://dc.lft.to/lastmile_qr_scan"}, "bike_id": "552164406e268437c67958f3a91d3b3c", "lat": 38.90850416666667, "name": "552164406e268437c67958f3a91d3b3c", "lon": -77.0235525, "fusion_lon": 0.0}, {"is_reserved": 0, "type": "electric_scooter", "fusion_lat": 0.0, "is_disabled": 0, "rental_uris": {"ios": "https://dc.lft.to/lastmile_qr_scan", "android": "https://dc.lft.to/lastmile_qr_scan"}, "bike_id": "e4a4f2baa4ada5e45e5b9c5121f78a18", "lat": 38.927572166666664, "name": "e4a4f2baa4ada5e45e5b9c5121f78a18", "lon": -77.0526915, "fusion_lon": 0.0}, {"is_reserved": 0, "type": "electric_scooter", "fusion_lat": 0.0, "is_disabled": 0, "rental_uris": {"ios": "https://dc.lft.to/lastmile_qr_scan", "android": "https://dc.lft.to/lastmile_qr_scan"}, "bike_id": "107a971d66d477a97f40882f2a1eb551", "lat": 38.921952, "name": "107a971d66d477a97f40882f2a1eb551", "lon": -77.02047133333333, "fusion_lon": 0.0}, {"is_reserved": 0, "type": "electric_scooter", "fusion_lat": 0.0, "is_disabled": 0, "rental_uris": {"ios": "https://dc.lft.to/lastmile_qr_scan", "android": "https://dc.lft.to/lastmile_qr_scan"}, "bike_id": "0c53254e344cee006226904ef4d98711", "lat": 38.90506633333333, "name": "0c53254e344cee006226904ef4d98711", "lon": -76.95202183333333, "fusion_lon": 0.0}, {"is_reserved": 0, "type": "electric_scooter", "fusion_lat": 0.0, "is_disabled": 0, "rental_uris": {"ios": "https://dc.lft.to/lastmile_qr_scan", "android": "https://dc.lft.to/lastmile_qr_scan"}, "bike_id": "2fadec6192afc242c26a481339a8d170", "lat": 38.898294, "name": "2fadec6192afc242c26a481339a8d170", "lon": -76.99623983333333, "fusion_lon": 0.0}, {"is_reserved": 0, "type": "electric_scooter", "fusion_lat": 0.0, "is_disabled": 0, "rental_uris": {"ios": "https://dc.lft.to/lastmile_qr_scan", "android": "https://dc.lft.to/lastmile_qr_scan"}, "bike_id": "290aa4870ba66c879b1ecfcba662320e", "lat": 38.88437366666667, "name": "290aa4870ba66c879b1ecfcba662320e", "lon": -77.02338383333333, "fusion_lon": 0.0}, {"is_reserved": 0, "type": "electric_scooter", "fusion_lat": 0.0, "is_disabled": 0, "rental_uris": {"ios": "https://dc.lft.to/lastmile_qr_scan", "android": "https://dc.lft.to/lastmile_qr_scan"}, "bike_id": "0a935cb154bf11c220b7eae9cbc98fb2", "lat": 38.8984545, "name": "0a935cb154bf11c220b7eae9cbc98fb2", "lon": -77.02798316666667, "fusion_lon": 0.0}, {"is_reserved": 0, "type": "electric_scooter", "fusion_lat": 0.0, "is_disabled": 0, "rental_uris": {"ios": "https://dc.lft.to/lastmile_qr_scan", "android": "https://dc.lft.to/lastmile_qr_scan"}, "bike_id": "efab518ce4d7e26391ec0a3322da1d16", "lat": 38.906095666666666, "name": "efab518ce4d7e26391ec0a3322da1d16", "lon": -77.05646716666666, "fusion_lon": 0.0}, {"is_reserved": 0, "type": "electric_scooter", "fusion_lat": 0.0, "is_disabled": 0, "rental_uris": {"ios": "https://dc.lft.to/lastmile_qr_scan", "android": "https://dc.lft.to/lastmile_qr_scan"}, "bike_id": "42b51923d4eb67f3365243d062c8ac5d", "lat": 38.931953166666666, "name": "42b51923d4eb67f3365243d062c8ac5d", "lon": -77.03890116666666, "fusion_lon": 0.0}, {"is_reserved": 0, "type": "electric_scooter", "fusion_lat": 0.0, "is_disabled": 0, "rental_uris": {"ios": "https://dc.lft.to/lastmile_qr_scan", "android": "https://dc.lft.to/lastmile_qr_scan"}, "bike_id": "442b1e893fefc036c6742b98268034db", "lat": 38.920528, "name": "442b1e893fefc036c6742b98268034db", "lon": -77.03393566666666, "fusion_lon": 0.0}, {"is_reserved": 0, "type": "electric_scooter", "fusion_lat": 0.0, "is_disabled": 0, "rental_uris": {"ios": "https://dc.lft.to/lastmile_qr_scan", "android": "https://dc.lft.to/lastmile_qr_scan"}, "bike_id": "81494dabdbdec2ea89ba32dc73c3c042", "lat": 38.952649666666666, "name": "81494dabdbdec2ea89ba32dc73c3c042", "lon": -76.99893333333333, "fusion_lon": 0.0}, {"is_reserved": 0, "type": "electric_scooter", "fusion_lat": 0.0, "is_disabled": 0, "rental_uris": {"ios": "https://dc.lft.to/lastmile_qr_scan", "android": "https://dc.lft.to/lastmile_qr_scan"}, "bike_id": "e17b54060ec231df61bb705da2e69577", "lat": 38.916555833333334, "name": "e17b54060ec231df61bb705da2e69577", "lon": -77.03858416666667, "fusion_lon": 0.0}, {"is_reserved": 0, "type": "electric_scooter", "fusion_lat": 0.0, "is_disabled": 0, "rental_uris": {"ios": "https://dc.lft.to/lastmile_qr_scan", "android": "https://dc.lft.to/lastmile_qr_scan"}, "bike_id": "66908b54d3656877c99e374901ee0955", "lat": 38.9170995, "name": "66908b54d3656877c99e374901ee0955", "lon": -77.00888566666667, "fusion_lon": 0.0}, {"is_reserved": 0, "type": "electric_scooter", "fusion_lat": 0.0, "is_disabled": 0, "rental_uris": {"ios": "https://dc.lft.to/lastmile_qr_scan", "android": "https://dc.lft.to/lastmile_qr_scan"}, "bike_id": "954f4f19895134f2de4b5df94c935d08", "lat": 38.8989245, "name": "954f4f19895134f2de4b5df94c935d08", "lon": -77.02194266666666, "fusion_lon": 0.0}, {"is_reserved": 0, "type": "electric_scooter", "fusion_lat": 0.0, "is_disabled": 0, "rental_uris": {"ios": "https://dc.lft.to/lastmile_qr_scan", "android": "https://dc.lft.to/lastmile_qr_scan"}, "bike_id": "d93e5a4dbc57c5d3f4c0301813b1a802", "lat": 38.910446, "name": "d93e5a4dbc57c5d3f4c0301813b1a802", "lon": -77.043356, "fusion_lon": 0.0}, {"is_reserved": 0, "type": "electric_scooter", "fusion_lat": 0.0, "is_disabled": 0, "rental_uris": {"ios": "https://dc.lft.to/lastmile_qr_scan", "android": "https://dc.lft.to/lastmile_qr_scan"}, "bike_id": "c8c78a87656a0d7ba116f7cf4a6af2ed", "lat": 38.91772316666667, "name": "c8c78a87656a0d7ba116f7cf4a6af2ed", "lon": -77.02114133333333, "fusion_lon": 0.0}, {"is_reserved": 0, "type": "electric_scooter", "fusion_lat": 0.0, "is_disabled": 0, "rental_uris": {"ios": "https://dc.lft.to/lastmile_qr_scan", "android": "https://dc.lft.to/lastmile_qr_scan"}, "bike_id": "7a1be7b36aea783eb43fc9cae0c902f7", "lat": 38.91629283333333, "name": "7a1be7b36aea783eb43fc9cae0c902f7", "lon": -77.032239, "fusion_lon": 0.0}, {"is_reserved": 0, "type": "electric_scooter", "fusion_lat": 0.0, "is_disabled": 0, "rental_uris": {"ios": "https://dc.lft.to/lastmile_qr_scan", "android": "https://dc.lft.to/lastmile_qr_scan"}, "bike_id": "000f0eaa5e8c11626971036d05a6c983", "lat": 38.928847166666664, "name": "000f0eaa5e8c11626971036d05a6c983", "lon": -77.03877483333333, "fusion_lon": 0.0}, {"is_reserved": 0, "type": "electric_scooter", "fusion_lat": 0.0, "is_disabled": 0, "rental_uris": {"ios": "https://dc.lft.to/lastmile_qr_scan", "android": "https://dc.lft.to/lastmile_qr_scan"}, "bike_id": "c8d2c9774b221469b4cdbbb76fbcc87a", "lat": 38.92070066666667, "name": "c8d2c9774b221469b4cdbbb76fbcc87a", "lon": -77.04234833333334, "fusion_lon": 0.0}, {"is_reserved": 0, "type": "electric_scooter", "fusion_lat": 0.0, "is_disabled": 0, "rental_uris": {"ios": "https://dc.lft.to/lastmile_qr_scan", "android": "https://dc.lft.to/lastmile_qr_scan"}, "bike_id": "93dace41cd3c4ebdf57340bb847f7676", "lat": 38.8922115, "name": "93dace41cd3c4ebdf57340bb847f7676", "lon": -77.04328466666666, "fusion_lon": 0.0}, {"is_reserved": 0, "type": "electric_scooter", "fusion_lat": 0.0, "is_disabled": 0, "rental_uris": {"ios": "https://dc.lft.to/lastmile_qr_scan", "android": "https://dc.lft.to/lastmile_qr_scan"}, "bike_id": "c1aec6b41f5ebbe2f6cfb3a063815d21", "lat": 38.892491666666665, "name": "c1aec6b41f5ebbe2f6cfb3a063815d21", "lon": -77.0466135, "fusion_lon": 0.0}, {"is_reserved": 0, "type": "electric_scooter", "fusion_lat": 0.0, "is_disabled": 0, "rental_uris": {"ios": "https://dc.lft.to/lastmile_qr_scan", "android": "https://dc.lft.to/lastmile_qr_scan"}, "bike_id": "0f8e81355739431b9f72c45cabf9f821", "lat": 38.883811666666666, "name": "0f8e81355739431b9f72c45cabf9f821", "lon": -77.04608466666667, "fusion_lon": 0.0}, {"is_reserved": 0, "type": "electric_scooter", "fusion_lat": 0.0, "is_disabled": 0, "rental_uris": {"ios": "https://dc.lft.to/lastmile_qr_scan", "android": "https://dc.lft.to/lastmile_qr_scan"}, "bike_id": "9435dbd301d087b4b4c8b80c5d668602", "lat": 38.9595675, "name": "9435dbd301d087b4b4c8b80c5d668602", "lon": -77.03321866666667, "fusion_lon": 0.0}, {"is_reserved": 0, "type": "electric_bike", "fusion_lat": 0.0, "is_disabled": 0, "rental_uris": {"ios": "https://dc.lft.to/lastmile_qr_scan", "android": "https://dc.lft.to/lastmile_qr_scan"}, "bike_id": "d7b41a253440413f9cc9b85884e83f6c", "lat": 38.998261666666664, "name": "d7b41a253440413f9cc9b85884e83f6c", "lon": -76.99729216666667, "fusion_lon": 0.0}, {"is_reserved": 0, "type": "electric_scooter", "fusion_lat": 0.0, "is_disabled": 0, "rental_uris": {"ios": "https://dc.lft.to/lastmile_qr_scan", "android": "https://dc.lft.to/lastmile_qr_scan"}, "bike_id": "b5159f8590148ddf21bbfc3ece6a2e32", "lat": 38.912692, "name": "b5159f8590148ddf21bbfc3ece6a2e32", "lon": -77.04664, "fusion_lon": 0.0}, {"is_reserved": 0, "type": "electric_scooter", "fusion_lat": 0.0, "is_disabled": 0, "rental_uris": {"ios": "https://dc.lft.to/lastmile_qr_scan", "android": "https://dc.lft.to/lastmile_qr_scan"}, "bike_id": "66ed3c88ca471af966b96855f0f98208", "lat": 38.892082, "name": "66ed3c88ca471af966b96855f0f98208", "lon": -76.96117433333333, "fusion_lon": 0.0}, {"is_reserved": 0, "type": "electric_scooter", "fusion_lat": 0.0, "is_disabled": 0, "rental_uris": {"ios": "https://dc.lft.to/lastmile_qr_scan", "android": "https://dc.lft.to/lastmile_qr_scan"}, "bike_id": "28a11db3cae269740a017a95346f2d40", "lat": 38.91634, "name": "28a11db3cae269740a017a95346f2d40", "lon": -77.03930633333333, "fusion_lon": 0.0}, {"is_reserved": 0, "type": "electric_bike", "fusion_lat": 0.0, "is_disabled": 0, "rental_uris": {"ios": "https://dc.lft.to/lastmile_qr_scan", "android": "https://dc.lft.to/lastmile_qr_scan"}, "bike_id": "05b80a6f80ae5d6c3e817cde1958b4b5", "lat": 38.8756635, "name": "05b80a6f80ae5d6c3e817cde1958b4b5", "lon": -77.04706366666667, "fusion_lon": 0.0}, {"is_reserved": 0, "type": "electric_scooter", "fusion_lat": 0.0, "is_disabled": 0, "rental_uris": {"ios": "https://dc.lft.to/lastmile_qr_scan", "android": "https://dc.lft.to/lastmile_qr_scan"}, "bike_id": "c49f3892f88c8b262497e900281cea90", "lat": 38.8996685, "name": "c49f3892f88c8b262497e900281cea90", "lon": -77.021814, "fusion_lon": 0.0}, {"is_reserved": 0, "type": "electric_scooter", "fusion_lat": 0.0, "is_disabled": 0, "rental_uris": {"ios": "https://dc.lft.to/lastmile_qr_scan", "android": "https://dc.lft.to/lastmile_qr_scan"}, "bike_id": "a0a07e19e64faa9b2512894094fee281", "lat": 38.871150166666666, "name": "a0a07e19e64faa9b2512894094fee281", "lon": -77.00751383333333, "fusion_lon": 0.0}, {"is_reserved": 0, "type": "electric_scooter", "fusion_lat": 0.0, "is_disabled": 0, "rental_uris": {"ios": "https://dc.lft.to/lastmile_qr_scan", "android": "https://dc.lft.to/lastmile_qr_scan"}, "bike_id": "116e677682437c16c2652b0123ce9445", "lat": 38.933700333333334, "name": "116e677682437c16c2652b0123ce9445", "lon": -77.07246633333334, "fusion_lon": 0.0}, {"is_reserved": 0, "type": "electric_scooter", "fusion_lat": 0.0, "is_disabled": 0, "rental_uris": {"ios": "https://dc.lft.to/lastmile_qr_scan", "android": "https://dc.lft.to/lastmile_qr_scan"}, "bike_id": "142d634783846f09987432f3de289f7e", "lat": 38.90075216666666, "name": "142d634783846f09987432f3de289f7e", "lon": -77.04827783333333, "fusion_lon": 0.0}, {"is_reserved": 0, "type": "electric_scooter", "fusion_lat": 0.0, "is_disabled": 0, "rental_uris": {"ios": "https://dc.lft.to/lastmile_qr_scan", "android": "https://dc.lft.to/lastmile_qr_scan"}, "bike_id": "7d408c4777823b1b06cff7265e0a6730", "lat": 38.944634, "name": "7d408c4777823b1b06cff7265e0a6730", "lon": -77.00657516666666, "fusion_lon": 0.0}, {"is_reserved": 0, "type": "electric_scooter", "fusion_lat": 0.0, "is_disabled": 0, "rental_uris": {"ios": "https://dc.lft.to/lastmile_qr_scan", "android": "https://dc.lft.to/lastmile_qr_scan"}, "bike_id": "997911b95020fb82b1be3db838d478be", "lat": 38.899562333333336, "name": "997911b95020fb82b1be3db838d478be", "lon": -77.00356433333333, "fusion_lon": 0.0}, {"is_reserved": 0, "type": "electric_scooter", "fusion_lat": 0.0, "is_disabled": 0, "rental_uris": {"ios": "https://dc.lft.to/lastmile_qr_scan", "android": "https://dc.lft.to/lastmile_qr_scan"}, "bike_id": "c2c018ec57f24e972060116f8efab845", "lat": 38.90264116666667, "name": "c2c018ec57f24e972060116f8efab845", "lon": -76.9897945, "fusion_lon": 0.0}, {"is_reserved": 0, "type": "electric_scooter", "fusion_lat": 0.0, "is_disabled": 0, "rental_uris": {"ios": "https://dc.lft.to/lastmile_qr_scan", "android": "https://dc.lft.to/lastmile_qr_scan"}, "bike_id": "2e3910af27f5f612904b9c01136448d4", "lat": 38.92080466666667, "name": "2e3910af27f5f612904b9c01136448d4", "lon": -77.02505716666667, "fusion_lon": 0.0}, {"is_reserved": 0, "type": "electric_scooter", "fusion_lat": 0.0, "is_disabled": 0, "rental_uris": {"ios": "https://dc.lft.to/lastmile_qr_scan", "android": "https://dc.lft.to/lastmile_qr_scan"}, "bike_id": "4b816d283efe4747bdc1cff81d34dcf2", "lat": 38.912139333333336, "name": "4b816d283efe4747bdc1cff81d34dcf2", "lon": -77.00662433333333, "fusion_lon": 0.0}, {"is_reserved": 0, "type": "electric_scooter", "fusion_lat": 0.0, "is_disabled": 0, "rental_uris": {"ios": "https://dc.lft.to/lastmile_qr_scan", "android": "https://dc.lft.to/lastmile_qr_scan"}, "bike_id": "0e7c5bd8a194f9b1ea2c9183b349716d", "lat": 38.917856666666665, "name": "0e7c5bd8a194f9b1ea2c9183b349716d", "lon": -77.02396933333333, "fusion_lon": 0.0}, {"is_reserved": 0, "type": "electric_scooter", "fusion_lat": 0.0, "is_disabled": 0, "rental_uris": {"ios": "https://dc.lft.to/lastmile_qr_scan", "android": "https://dc.lft.to/lastmile_qr_scan"}, "bike_id": "61905247fc3146a9910929616983f624", "lat": 38.9398475, "name": "61905247fc3146a9910929616983f624", "lon": -77.02892066666666, "fusion_lon": 0.0}, {"is_reserved": 0, "type": "electric_scooter", "fusion_lat": 0.0, "is_disabled": 0, "rental_uris": {"ios": "https://dc.lft.to/lastmile_qr_scan", "android": "https://dc.lft.to/lastmile_qr_scan"}, "bike_id": "ac714f955158c3b2ec4842c0cf377916", "lat": 38.912769, "name": "ac714f955158c3b2ec4842c0cf377916", "lon": -77.04409233333334, "fusion_lon": 0.0}, {"is_reserved": 0, "type": "electric_scooter", "fusion_lat": 0.0, "is_disabled": 0, "rental_uris": {"ios": "https://dc.lft.to/lastmile_qr_scan", "android": "https://dc.lft.to/lastmile_qr_scan"}, "bike_id": "f81a2e1629df4f0d3f280c6722104291", "lat": 38.919778666666666, "name": "f81a2e1629df4f0d3f280c6722104291", "lon": -77.071086, "fusion_lon": 0.0}, {"is_reserved": 0, "type": "electric_scooter", "fusion_lat": 0.0, "is_disabled": 0, "rental_uris": {"ios": "https://dc.lft.to/lastmile_qr_scan", "android": "https://dc.lft.to/lastmile_qr_scan"}, "bike_id": "9d1a4cad7ec8e3ff161c0b3e0f37aa6f", "lat": 38.92061133333333, "name": "9d1a4cad7ec8e3ff161c0b3e0f37aa6f", "lon": -77.04226566666667, "fusion_lon": 0.0}, {"is_reserved": 0, "type": "electric_bike", "fusion_lat": 0.0, "is_disabled": 0, "rental_uris": {"ios": "https://dc.lft.to/lastmile_qr_scan", "android": "https://dc.lft.to/lastmile_qr_scan"}, "bike_id": "13f6e0f28c5d4215563d26eb5fd78e1e", "lat": 38.882779166666666, "name": "13f6e0f28c5d4215563d26eb5fd78e1e", "lon": -76.93234566666666, "fusion_lon": 0.0}, {"is_reserved": 0, "type": "electric_scooter", "fusion_lat": 0.0, "is_disabled": 0, "rental_uris": {"ios": "https://dc.lft.to/lastmile_qr_scan", "android": "https://dc.lft.to/lastmile_qr_scan"}, "bike_id": "a66698c6df71d31ab4742f89a31f2e1a", "lat": 38.930832333333335, "name": "a66698c6df71d31ab4742f89a31f2e1a", "lon": -77.03226816666667, "fusion_lon": 0.0}, {"is_reserved": 0, "type": "electric_scooter", "fusion_lat": 0.0, "is_disabled": 0, "rental_uris": {"ios": "https://dc.lft.to/lastmile_qr_scan", "android": "https://dc.lft.to/lastmile_qr_scan"}, "bike_id": "b21df90d949e0ff388aacc0bc457affa", "lat": 38.900273166666665, "name": "b21df90d949e0ff388aacc0bc457affa", "lon": -77.03675933333334, "fusion_lon": 0.0}, {"is_reserved": 0, "type": "electric_scooter", "fusion_lat": 0.0, "is_disabled": 0, "rental_uris": {"ios": "https://dc.lft.to/lastmile_qr_scan", "android": "https://dc.lft.to/lastmile_qr_scan"}, "bike_id": "4ae771b4342ddf1d033fe9c28f53153c", "lat": 38.902437666666664, "name": "4ae771b4342ddf1d033fe9c28f53153c", "lon": -76.99637833333334, "fusion_lon": 0.0}, {"is_reserved": 0, "type": "electric_scooter", "fusion_lat": 0.0, "is_disabled": 0, "rental_uris": {"ios": "https://dc.lft.to/lastmile_qr_scan", "android": "https://dc.lft.to/lastmile_qr_scan"}, "bike_id": "b0a6c57a9b4b15b28a42d187f04b04b2", "lat": 38.85516416666667, "name": "b0a6c57a9b4b15b28a42d187f04b04b2", "lon": -76.99143033333333, "fusion_lon": 0.0}, {"is_reserved": 0, "type": "electric_scooter", "fusion_lat": 0.0, "is_disabled": 0, "rental_uris": {"ios": "https://dc.lft.to/lastmile_qr_scan", "android": "https://dc.lft.to/lastmile_qr_scan"}, "bike_id": "7a9d73af83563fb56a3b578a7e9e3e42", "lat": 38.8982935, "name": "7a9d73af83563fb56a3b578a7e9e3e42", "lon": -76.94652683333334, "fusion_lon": 0.0}, {"is_reserved": 0, "type": "electric_scooter", "fusion_lat": 0.0, "is_disabled": 0, "rental_uris": {"ios": "https://dc.lft.to/lastmile_qr_scan", "android": "https://dc.lft.to/lastmile_qr_scan"}, "bike_id": "5aeaf514011c69556311d34d570f671f", "lat": 38.905994166666666, "name": "5aeaf514011c69556311d34d570f671f", "lon": -77.02111, "fusion_lon": 0.0}, {"is_reserved": 0, "type": "electric_scooter", "fusion_lat": 0.0, "is_disabled": 0, "rental_uris": {"ios": "https://dc.lft.to/lastmile_qr_scan", "android": "https://dc.lft.to/lastmile_qr_scan"}, "bike_id": "910432ec9f6d21c5716cb842184474cf", "lat": 38.922194833333336, "name": "910432ec9f6d21c5716cb842184474cf", "lon": -77.03291516666667, "fusion_lon": 0.0}, {"is_reserved": 0, "type": "electric_scooter", "fusion_lat": 0.0, "is_disabled": 0, "rental_uris": {"ios": "https://dc.lft.to/lastmile_qr_scan", "android": "https://dc.lft.to/lastmile_qr_scan"}, "bike_id": "1d0aaf8f38636c8c46354672fa016c6a", "lat": 38.88581583333333, "name": "1d0aaf8f38636c8c46354672fa016c6a", "lon": -76.9960645, "fusion_lon": 0.0}, {"is_reserved": 0, "type": "electric_scooter", "fusion_lat": 0.0, "is_disabled": 0, "rental_uris": {"ios": "https://dc.lft.to/lastmile_qr_scan", "android": "https://dc.lft.to/lastmile_qr_scan"}, "bike_id": "c80d0dbae03efeb4f42717a9265a8fba", "lat": 38.920825666666666, "name": "c80d0dbae03efeb4f42717a9265a8fba", "lon": -77.03647583333333, "fusion_lon": 0.0}, {"is_reserved": 0, "type": "electric_scooter", "fusion_lat": 0.0, "is_disabled": 0, "rental_uris": {"ios": "https://dc.lft.to/lastmile_qr_scan", "android": "https://dc.lft.to/lastmile_qr_scan"}, "bike_id": "ca6819691948ea8d857586b58829291c", "lat": 38.91252333333333, "name": "ca6819691948ea8d857586b58829291c", "lon": -77.029563, "fusion_lon": 0.0}, {"is_reserved": 0, "type": "electric_scooter", "fusion_lat": 0.0, "is_disabled": 0, "rental_uris": {"ios": "https://dc.lft.to/lastmile_qr_scan", "android": "https://dc.lft.to/lastmile_qr_scan"}, "bike_id": "21f1dbd6c611cb97574c47928fd6b0b2", "lat": 38.8774075, "name": "21f1dbd6c611cb97574c47928fd6b0b2", "lon": -77.01736966666667, "fusion_lon": 0.0}, {"is_reserved": 0, "type": "electric_scooter", "fusion_lat": 0.0, "is_disabled": 0, "rental_uris": {"ios": "https://dc.lft.to/lastmile_qr_scan", "android": "https://dc.lft.to/lastmile_qr_scan"}, "bike_id": "6498fcf498e7653b37e6bd23ea8eaa0e", "lat": 38.928299833333334, "name": "6498fcf498e7653b37e6bd23ea8eaa0e", "lon": -77.03706083333333, "fusion_lon": 0.0}, {"is_reserved": 0, "type": "electric_bike", "fusion_lat": 0.0, "is_disabled": 0, "rental_uris": {"ios": "https://dc.lft.to/lastmile_qr_scan", "android": "https://dc.lft.to/lastmile_qr_scan"}, "bike_id": "0464675b1975c64e4ee65802485c1bec", "lat": 38.91183916666667, "name": "0464675b1975c64e4ee65802485c1bec", "lon": -77.011187, "fusion_lon": 0.0}, {"is_reserved": 0, "type": "electric_scooter", "fusion_lat": 0.0, "is_disabled": 0, "rental_uris": {"ios": "https://dc.lft.to/lastmile_qr_scan", "android": "https://dc.lft.to/lastmile_qr_scan"}, "bike_id": "2537e9e0644b9d45ec4a58368605bbc3", "lat": 38.914208333333335, "name": "2537e9e0644b9d45ec4a58368605bbc3", "lon": -77.03192383333334, "fusion_lon": 0.0}, {"is_reserved": 0, "type": "electric_scooter", "fusion_lat": 0.0, "is_disabled": 0, "rental_uris": {"ios": "https://dc.lft.to/lastmile_qr_scan", "android": "https://dc.lft.to/lastmile_qr_scan"}, "bike_id": "8f36253d49ceed201f0375176a926e6b", "lat": 38.90180516666667, "name": "8f36253d49ceed201f0375176a926e6b", "lon": -77.0022055, "fusion_lon": 0.0}, {"is_reserved": 0, "type": "electric_scooter", "fusion_lat": 0.0, "is_disabled": 0, "rental_uris": {"ios": "https://dc.lft.to/lastmile_qr_scan", "android": "https://dc.lft.to/lastmile_qr_scan"}, "bike_id": "fb53755e046ca539a19ba3e0b4ed1c51", "lat": 38.93513133333333, "name": "fb53755e046ca539a19ba3e0b4ed1c51", "lon": -77.0570095, "fusion_lon": 0.0}, {"is_reserved": 0, "type": "electric_scooter", "fusion_lat": 0.0, "is_disabled": 0, "rental_uris": {"ios": "https://dc.lft.to/lastmile_qr_scan", "android": "https://dc.lft.to/lastmile_qr_scan"}, "bike_id": "87317d91da75023e28549daf1e5dfc3b", "lat": 38.909132, "name": "87317d91da75023e28549daf1e5dfc3b", "lon": -77.03514016666666, "fusion_lon": 0.0}, {"is_reserved": 0, "type": "electric_scooter", "fusion_lat": 0.0, "is_disabled": 0, "rental_uris": {"ios": "https://dc.lft.to/lastmile_qr_scan", "android": "https://dc.lft.to/lastmile_qr_scan"}, "bike_id": "37eb322bca41f9554a34e972b363a497", "lat": 38.905313166666666, "name": "37eb322bca41f9554a34e972b363a497", "lon": -77.05692083333334, "fusion_lon": 0.0}, {"is_reserved": 0, "type": "electric_scooter", "fusion_lat": 0.0, "is_disabled": 0, "rental_uris": {"ios": "https://dc.lft.to/lastmile_qr_scan", "android": "https://dc.lft.to/lastmile_qr_scan"}, "bike_id": "8686e881d9ef1d104491be95646ad1a5", "lat": 38.901443666666665, "name": "8686e881d9ef1d104491be95646ad1a5", "lon": -77.03809966666667, "fusion_lon": 0.0}, {"is_reserved": 0, "type": "electric_scooter", "fusion_lat": 0.0, "is_disabled": 0, "rental_uris": {"ios": "https://dc.lft.to/lastmile_qr_scan", "android": "https://dc.lft.to/lastmile_qr_scan"}, "bike_id": "73e1d78b9d6eab754f1e9e8d58966b41", "lat": 38.9234075, "name": "73e1d78b9d6eab754f1e9e8d58966b41", "lon": -77.05786033333334, "fusion_lon": 0.0}, {"is_reserved": 0, "type": "electric_scooter", "fusion_lat": 0.0, "is_disabled": 0, "rental_uris": {"ios": "https://dc.lft.to/lastmile_qr_scan", "android": "https://dc.lft.to/lastmile_qr_scan"}, "bike_id": "ad6c18d981609e2417d07de2eb49f212", "lat": 38.91501216666666, "name": "ad6c18d981609e2417d07de2eb49f212", "lon": -77.03209083333333, "fusion_lon": 0.0}, {"is_reserved": 0, "type": "electric_scooter", "fusion_lat": 0.0, "is_disabled": 0, "rental_uris": {"ios": "https://dc.lft.to/lastmile_qr_scan", "android": "https://dc.lft.to/lastmile_qr_scan"}, "bike_id": "3b3801b717e27c9860499f222e781247", "lat": 38.901871166666666, "name": "3b3801b717e27c9860499f222e781247", "lon": -76.99377166666666, "fusion_lon": 0.0}, {"is_reserved": 0, "type": "electric_scooter", "fusion_lat": 0.0, "is_disabled": 0, "rental_uris": {"ios": "https://dc.lft.to/lastmile_qr_scan", "android": "https://dc.lft.to/lastmile_qr_scan"}, "bike_id": "452376a3bf3ff340cbbbac0673d20034", "lat": 38.91587366666667, "name": "452376a3bf3ff340cbbbac0673d20034", "lon": -76.98309733333333, "fusion_lon": 0.0}, {"is_reserved": 0, "type": "electric_scooter", "fusion_lat": 0.0, "is_disabled": 0, "rental_uris": {"ios": "https://dc.lft.to/lastmile_qr_scan", "android": "https://dc.lft.to/lastmile_qr_scan"}, "bike_id": "430aed6cb193be549b384086d85dd65d", "lat": 38.86619866666667, "name": "430aed6cb193be549b384086d85dd65d", "lon": -76.9826095, "fusion_lon": 0.0}, {"is_reserved": 0, "type": "electric_scooter", "fusion_lat": 0.0, "is_disabled": 0, "rental_uris": {"ios": "https://dc.lft.to/lastmile_qr_scan", "android": "https://dc.lft.to/lastmile_qr_scan"}, "bike_id": "510f08db0c3d07c39020cda953793b21", "lat": 38.923438, "name": "510f08db0c3d07c39020cda953793b21", "lon": -77.041399, "fusion_lon": 0.0}, {"is_reserved": 0, "type": "electric_scooter", "fusion_lat": 0.0, "is_disabled": 0, "rental_uris": {"ios": "https://dc.lft.to/lastmile_qr_scan", "android": "https://dc.lft.to/lastmile_qr_scan"}, "bike_id": "4bba963c83b11aefd9029fc454ba84ac", "lat": 38.93452466666667, "name": "4bba963c83b11aefd9029fc454ba84ac", "lon": -77.027691, "fusion_lon": 0.0}, {"is_reserved": 0, "type": "electric_bike", "fusion_lat": 0.0, "is_disabled": 0, "rental_uris": {"ios": "https://dc.lft.to/lastmile_qr_scan", "android": "https://dc.lft.to/lastmile_qr_scan"}, "bike_id": "f55081d8cd5a5ffe7096e8c73095191b", "lat": 38.83155416666666, "name": "f55081d8cd5a5ffe7096e8c73095191b", "lon": -76.99576033333334, "fusion_lon": 0.0}, {"is_reserved": 0, "type": "electric_scooter", "fusion_lat": 0.0, "is_disabled": 0, "rental_uris": {"ios": "https://dc.lft.to/lastmile_qr_scan", "android": "https://dc.lft.to/lastmile_qr_scan"}, "bike_id": "9c432ebc61db0308a08698f55ba1b72e", "lat": 38.87637933333333, "name": "9c432ebc61db0308a08698f55ba1b72e", "lon": -76.99295533333333, "fusion_lon": 0.0}, {"is_reserved": 0, "type": "electric_scooter", "fusion_lat": 0.0, "is_disabled": 0, "rental_uris": {"ios": "https://dc.lft.to/lastmile_qr_scan", "android": "https://dc.lft.to/lastmile_qr_scan"}, "bike_id": "3d461fb176bb76afe07597a96715a235", "lat": 38.905995, "name": "3d461fb176bb76afe07597a96715a235", "lon": -77.062994, "fusion_lon": 0.0}, {"is_reserved": 0, "type": "electric_scooter", "fusion_lat": 0.0, "is_disabled": 0, "rental_uris": {"ios": "https://dc.lft.to/lastmile_qr_scan", "android": "https://dc.lft.to/lastmile_qr_scan"}, "bike_id": "e346adcb34730e3feba100414d20fe82", "lat": 38.92501016666667, "name": "e346adcb34730e3feba100414d20fe82", "lon": -77.02441433333334, "fusion_lon": 0.0}, {"is_reserved": 0, "type": "electric_bike", "fusion_lat": 0.0, "is_disabled": 0, "rental_uris": {"ios": "https://dc.lft.to/lastmile_qr_scan", "android": "https://dc.lft.to/lastmile_qr_scan"}, "bike_id": "c4665171e8563da01837cce50e12efd8", "lat": 38.952419166666665, "name": "c4665171e8563da01837cce50e12efd8", "lon": -76.98249583333333, "fusion_lon": 0.0}, {"is_reserved": 0, "type": "electric_scooter", "fusion_lat": 0.0, "is_disabled": 0, "rental_uris": {"ios": "https://dc.lft.to/lastmile_qr_scan", "android": "https://dc.lft.to/lastmile_qr_scan"}, "bike_id": "8820731340b4f479154c28c1b9c50bb5", "lat": 38.928188, "name": "8820731340b4f479154c28c1b9c50bb5", "lon": -77.04334783333333, "fusion_lon": 0.0}, {"is_reserved": 0, "type": "electric_scooter", "fusion_lat": 0.0, "is_disabled": 0, "rental_uris": {"ios": "https://dc.lft.to/lastmile_qr_scan", "android": "https://dc.lft.to/lastmile_qr_scan"}, "bike_id": "cae628486e9cbad54dd9d11897017ac8", "lat": 38.9206885, "name": "cae628486e9cbad54dd9d11897017ac8", "lon": -77.0241755, "fusion_lon": 0.0}, {"is_reserved": 0, "type": "electric_scooter", "fusion_lat": 0.0, "is_disabled": 0, "rental_uris": {"ios": "https://dc.lft.to/lastmile_qr_scan", "android": "https://dc.lft.to/lastmile_qr_scan"}, "bike_id": "4f464117c92cf703e9a7647d859304ed", "lat": 38.90129016666667, "name": "4f464117c92cf703e9a7647d859304ed", "lon": -77.01523616666667, "fusion_lon": 0.0}, {"is_reserved": 0, "type": "electric_scooter", "fusion_lat": 0.0, "is_disabled": 0, "rental_uris": {"ios": "https://dc.lft.to/lastmile_qr_scan", "android": "https://dc.lft.to/lastmile_qr_scan"}, "bike_id": "9c24100e788b328dcd76baf4d44c9003", "lat": 38.921335666666664, "name": "9c24100e788b328dcd76baf4d44c9003", "lon": -77.004029, "fusion_lon": 0.0}, {"is_reserved": 0, "type": "electric_scooter", "fusion_lat": 0.0, "is_disabled": 0, "rental_uris": {"ios": "https://dc.lft.to/lastmile_qr_scan", "android": "https://dc.lft.to/lastmile_qr_scan"}, "bike_id": "a6b14276acfb380143015ba58dd9305f", "lat": 38.92790466666667, "name": "a6b14276acfb380143015ba58dd9305f", "lon": -77.021345, "fusion_lon": 0.0}, {"is_reserved": 0, "type": "electric_scooter", "fusion_lat": 0.0, "is_disabled": 0, "rental_uris": {"ios": "https://dc.lft.to/lastmile_qr_scan", "android": "https://dc.lft.to/lastmile_qr_scan"}, "bike_id": "3e04c8bce3fce3cca124f2b68d98388c", "lat": 38.90205683333333, "name": "3e04c8bce3fce3cca124f2b68d98388c", "lon": -76.99029583333333, "fusion_lon": 0.0}, {"is_reserved": 0, "type": "electric_scooter", "fusion_lat": 0.0, "is_disabled": 0, "rental_uris": {"ios": "https://dc.lft.to/lastmile_qr_scan", "android": "https://dc.lft.to/lastmile_qr_scan"}, "bike_id": "8d6b076c0790976fe8b48e1fdb9b0e77", "lat": 38.9065455, "name": "8d6b076c0790976fe8b48e1fdb9b0e77", "lon": -77.024805, "fusion_lon": 0.0}, {"is_reserved": 0, "type": "electric_scooter", "fusion_lat": 0.0, "is_disabled": 0, "rental_uris": {"ios": "https://dc.lft.to/lastmile_qr_scan", "android": "https://dc.lft.to/lastmile_qr_scan"}, "bike_id": "e78a1159e04e1de8c76a07cf87b9ceaf", "lat": 38.920420166666666, "name": "e78a1159e04e1de8c76a07cf87b9ceaf", "lon": -77.02605566666666, "fusion_lon": 0.0}, {"is_reserved": 0, "type": "electric_scooter", "fusion_lat": 0.0, "is_disabled": 0, "rental_uris": {"ios": "https://dc.lft.to/lastmile_qr_scan", "android": "https://dc.lft.to/lastmile_qr_scan"}, "bike_id": "c72d703f6c20cd73c2b9344dea525b6a", "lat": 38.9163525, "name": "c72d703f6c20cd73c2b9344dea525b6a", "lon": -76.98284683333333, "fusion_lon": 0.0}, {"is_reserved": 0, "type": "electric_bike", "fusion_lat": 0.0, "is_disabled": 0, "rental_uris": {"ios": "https://dc.lft.to/lastmile_qr_scan", "android": "https://dc.lft.to/lastmile_qr_scan"}, "bike_id": "0defeeeb8fe544050c7039a354914958", "lat": 38.9042855, "name": "0defeeeb8fe544050c7039a354914958", "lon": -76.9723845, "fusion_lon": 0.0}, {"is_reserved": 0, "type": "electric_scooter", "fusion_lat": 0.0, "is_disabled": 0, "rental_uris": {"ios": "https://dc.lft.to/lastmile_qr_scan", "android": "https://dc.lft.to/lastmile_qr_scan"}, "bike_id": "ce075b23a319209aa50ed3cafc90fe01", "lat": 38.91411516666667, "name": "ce075b23a319209aa50ed3cafc90fe01", "lon": -77.034725, "fusion_lon": 0.0}, {"is_reserved": 0, "type": "electric_scooter", "fusion_lat": 0.0, "is_disabled": 0, "rental_uris": {"ios": "https://dc.lft.to/lastmile_qr_scan", "android": "https://dc.lft.to/lastmile_qr_scan"}, "bike_id": "2b2b0d3528e856125ea29063c944b09c", "lat": 38.89171966666667, "name": "2b2b0d3528e856125ea29063c944b09c", "lon": -77.0155235, "fusion_lon": 0.0}, {"is_reserved": 0, "type": "electric_bike", "fusion_lat": 0.0, "is_disabled": 0, "rental_uris": {"ios": "https://dc.lft.to/lastmile_qr_scan", "android": "https://dc.lft.to/lastmile_qr_scan"}, "bike_id": "a387553262c60e8d5c058eb81c0606a4", "lat": 38.832931333333335, "name": "a387553262c60e8d5c058eb81c0606a4", "lon": -77.08410783333333, "fusion_lon": 0.0}, {"is_reserved": 0, "type": "electric_scooter", "fusion_lat": 0.0, "is_disabled": 0, "rental_uris": {"ios": "https://dc.lft.to/lastmile_qr_scan", "android": "https://dc.lft.to/lastmile_qr_scan"}, "bike_id": "cbe65402bb99f203be2b5028c6ce85a5", "lat": 38.89846466666667, "name": "cbe65402bb99f203be2b5028c6ce85a5", "lon": -76.92748583333334, "fusion_lon": 0.0}, {"is_reserved": 0, "type": "electric_scooter", "fusion_lat": 0.0, "is_disabled": 0, "rental_uris": {"ios": "https://dc.lft.to/lastmile_qr_scan", "android": "https://dc.lft.to/lastmile_qr_scan"}, "bike_id": "4737297c98096e95b1b934819da945e9", "lat": 38.932644, "name": "4737297c98096e95b1b934819da945e9", "lon": -77.02861566666667, "fusion_lon": 0.0}, {"is_reserved": 0, "type": "electric_scooter", "fusion_lat": 0.0, "is_disabled": 0, "rental_uris": {"ios": "https://dc.lft.to/lastmile_qr_scan", "android": "https://dc.lft.to/lastmile_qr_scan"}, "bike_id": "20e9b50c9ad714501c5204b2226bdde9", "lat": 38.92131283333333, "name": "20e9b50c9ad714501c5204b2226bdde9", "lon": -77.0469085, "fusion_lon": 0.0}, {"is_reserved": 0, "type": "electric_scooter", "fusion_lat": 0.0, "is_disabled": 0, "rental_uris": {"ios": "https://dc.lft.to/lastmile_qr_scan", "android": "https://dc.lft.to/lastmile_qr_scan"}, "bike_id": "b853a28ff16f9346c3bc8f23d5662305", "lat": 38.9168065, "name": "b853a28ff16f9346c3bc8f23d5662305", "lon": -77.02959216666666, "fusion_lon": 0.0}, {"is_reserved": 0, "type": "electric_scooter", "fusion_lat": 0.0, "is_disabled": 0, "rental_uris": {"ios": "https://dc.lft.to/lastmile_qr_scan", "android": "https://dc.lft.to/lastmile_qr_scan"}, "bike_id": "1c2375f2a6451872937fde21d2448aa7", "lat": 38.9155685, "name": "1c2375f2a6451872937fde21d2448aa7", "lon": -77.03230983333333, "fusion_lon": 0.0}, {"is_reserved": 0, "type": "electric_scooter", "fusion_lat": 0.0, "is_disabled": 0, "rental_uris": {"ios": "https://dc.lft.to/lastmile_qr_scan", "android": "https://dc.lft.to/lastmile_qr_scan"}, "bike_id": "ec5a6c428c4217aa5c61eb712baed9cc", "lat": 38.89455983333333, "name": "ec5a6c428c4217aa5c61eb712baed9cc", "lon": -77.0219525, "fusion_lon": 0.0}, {"is_reserved": 0, "type": "electric_scooter", "fusion_lat": 0.0, "is_disabled": 0, "rental_uris": {"ios": "https://dc.lft.to/lastmile_qr_scan", "android": "https://dc.lft.to/lastmile_qr_scan"}, "bike_id": "58aea8f9823f2beba9df3392043c25e8", "lat": 38.926551833333335, "name": "58aea8f9823f2beba9df3392043c25e8", "lon": -77.02425683333334, "fusion_lon": 0.0}, {"is_reserved": 0, "type": "electric_scooter", "fusion_lat": 0.0, "is_disabled": 0, "rental_uris": {"ios": "https://dc.lft.to/lastmile_qr_scan", "android": "https://dc.lft.to/lastmile_qr_scan"}, "bike_id": "ec5c4af7dab480eb5576ca62805e60de", "lat": 38.936828, "name": "ec5c4af7dab480eb5576ca62805e60de", "lon": -77.05632933333334, "fusion_lon": 0.0}, {"is_reserved": 0, "type": "electric_scooter", "fusion_lat": 0.0, "is_disabled": 0, "rental_uris": {"ios": "https://dc.lft.to/lastmile_qr_scan", "android": "https://dc.lft.to/lastmile_qr_scan"}, "bike_id": "7739a0540ae5ae1997d0d0e380e74af5", "lat": 38.9265365, "name": "7739a0540ae5ae1997d0d0e380e74af5", "lon": -77.02446366666666, "fusion_lon": 0.0}, {"is_reserved": 0, "type": "electric_scooter", "fusion_lat": 0.0, "is_disabled": 0, "rental_uris": {"ios": "https://dc.lft.to/lastmile_qr_scan", "android": "https://dc.lft.to/lastmile_qr_scan"}, "bike_id": "171d7545ada6e66ae22569717b85e2e8", "lat": 38.93465583333333, "name": "171d7545ada6e66ae22569717b85e2e8", "lon": -77.02757316666667, "fusion_lon": 0.0}, {"is_reserved": 0, "type": "electric_scooter", "fusion_lat": 0.0, "is_disabled": 0, "rental_uris": {"ios": "https://dc.lft.to/lastmile_qr_scan", "android": "https://dc.lft.to/lastmile_qr_scan"}, "bike_id": "af19cbfc06c688e1b28a94ab24405707", "lat": 38.9141265, "name": "af19cbfc06c688e1b28a94ab24405707", "lon": -77.03335483333333, "fusion_lon": 0.0}, {"is_reserved": 0, "type": "electric_scooter", "fusion_lat": 0.0, "is_disabled": 0, "rental_uris": {"ios": "https://dc.lft.to/lastmile_qr_scan", "android": "https://dc.lft.to/lastmile_qr_scan"}, "bike_id": "83f54d771fbaf7b9fcddbcfd536d648c", "lat": 38.901475833333336, "name": "83f54d771fbaf7b9fcddbcfd536d648c", "lon": -77.04163116666666, "fusion_lon": 0.0}, {"is_reserved": 0, "type": "electric_bike", "fusion_lat": 0.0, "is_disabled": 0, "rental_uris": {"ios": "https://dc.lft.to/lastmile_qr_scan", "android": "https://dc.lft.to/lastmile_qr_scan"}, "bike_id": "8bc21744b91dd24d0165ee0971cd2732", "lat": 38.91033083333333, "name": "8bc21744b91dd24d0165ee0971cd2732", "lon": -77.05907516666667, "fusion_lon": 0.0}, {"is_reserved": 0, "type": "electric_scooter", "fusion_lat": 0.0, "is_disabled": 0, "rental_uris": {"ios": "https://dc.lft.to/lastmile_qr_scan", "android": "https://dc.lft.to/lastmile_qr_scan"}, "bike_id": "c4bfeac10b91e78ce16f1f08b392901f", "lat": 38.9235325, "name": "c4bfeac10b91e78ce16f1f08b392901f", "lon": -77.07308033333334, "fusion_lon": 0.0}, {"is_reserved": 0, "type": "electric_scooter", "fusion_lat": 0.0, "is_disabled": 0, "rental_uris": {"ios": "https://dc.lft.to/lastmile_qr_scan", "android": "https://dc.lft.to/lastmile_qr_scan"}, "bike_id": "334695e130633c3d5ab43f3854a17d8b", "lat": 38.902181666666664, "name": "334695e130633c3d5ab43f3854a17d8b", "lon": -77.02333033333333, "fusion_lon": 0.0}, {"is_reserved": 0, "type": "electric_bike", "fusion_lat": 0.0, "is_disabled": 0, "rental_uris": {"ios": "https://dc.lft.to/lastmile_qr_scan", "android": "https://dc.lft.to/lastmile_qr_scan"}, "bike_id": "3a50634face78d85fb5c8ad551a74ee0", "lat": 38.98279516666667, "name": "3a50634face78d85fb5c8ad551a74ee0", "lon": -76.97641083333333, "fusion_lon": 0.0}, {"is_reserved": 0, "type": "electric_scooter", "fusion_lat": 0.0, "is_disabled": 0, "rental_uris": {"ios": "https://dc.lft.to/lastmile_qr_scan", "android": "https://dc.lft.to/lastmile_qr_scan"}, "bike_id": "8724c4002776393a84d52b1f4ae948dc", "lat": 38.892189, "name": "8724c4002776393a84d52b1f4ae948dc", "lon": -77.02220333333334, "fusion_lon": 0.0}, {"is_reserved": 0, "type": "electric_scooter", "fusion_lat": 0.0, "is_disabled": 0, "rental_uris": {"ios": "https://dc.lft.to/lastmile_qr_scan", "android": "https://dc.lft.to/lastmile_qr_scan"}, "bike_id": "ebba836b1646ff89c7c2e1f8a369771c", "lat": 38.930945333333334, "name": "ebba836b1646ff89c7c2e1f8a369771c", "lon": -77.03442, "fusion_lon": 0.0}, {"is_reserved": 0, "type": "electric_scooter", "fusion_lat": 0.0, "is_disabled": 0, "rental_uris": {"ios": "https://dc.lft.to/lastmile_qr_scan", "android": "https://dc.lft.to/lastmile_qr_scan"}, "bike_id": "badfa6316fd57aa6101c2a670f688db7", "lat": 38.936115666666666, "name": "badfa6316fd57aa6101c2a670f688db7", "lon": -77.05581516666666, "fusion_lon": 0.0}, {"is_reserved": 0, "type": "electric_bike", "fusion_lat": 0.0, "is_disabled": 0, "rental_uris": {"ios": "https://dc.lft.to/lastmile_qr_scan", "android": "https://dc.lft.to/lastmile_qr_scan"}, "bike_id": "28f2dd00fa345c9f77a57bc92b8e3ee9", "lat": 38.89220133333333, "name": "28f2dd00fa345c9f77a57bc92b8e3ee9", "lon": -77.02645416666667, "fusion_lon": 0.0}, {"is_reserved": 0, "type": "electric_scooter", "fusion_lat": 0.0, "is_disabled": 0, "rental_uris": {"ios": "https://dc.lft.to/lastmile_qr_scan", "android": "https://dc.lft.to/lastmile_qr_scan"}, "bike_id": "353e1fd389cba06e84789960ccbeda4e", "lat": 38.91949733333333, "name": "353e1fd389cba06e84789960ccbeda4e", "lon": -77.023064, "fusion_lon": 0.0}, {"is_reserved": 0, "type": "electric_scooter", "fusion_lat": 0.0, "is_disabled": 0, "rental_uris": {"ios": "https://dc.lft.to/lastmile_qr_scan", "android": "https://dc.lft.to/lastmile_qr_scan"}, "bike_id": "1a470e2e9a1675920f33dbfc48419181", "lat": 38.92691666666666, "name": "1a470e2e9a1675920f33dbfc48419181", "lon": -77.0249455, "fusion_lon": 0.0}, {"is_reserved": 0, "type": "electric_scooter", "fusion_lat": 0.0, "is_disabled": 0, "rental_uris": {"ios": "https://dc.lft.to/lastmile_qr_scan", "android": "https://dc.lft.to/lastmile_qr_scan"}, "bike_id": "8d702666fcbbfed0c13dd80c36c0cd0f", "lat": 38.911894333333336, "name": "8d702666fcbbfed0c13dd80c36c0cd0f", "lon": -77.02984516666666, "fusion_lon": 0.0}, {"is_reserved": 0, "type": "electric_scooter", "fusion_lat": 0.0, "is_disabled": 0, "rental_uris": {"ios": "https://dc.lft.to/lastmile_qr_scan", "android": "https://dc.lft.to/lastmile_qr_scan"}, "bike_id": "aaf91c5470e575f299dea5442c53f160", "lat": 38.92454733333334, "name": "aaf91c5470e575f299dea5442c53f160", "lon": -77.04207433333333, "fusion_lon": 0.0}, {"is_reserved": 0, "type": "electric_scooter", "fusion_lat": 0.0, "is_disabled": 0, "rental_uris": {"ios": "https://dc.lft.to/lastmile_qr_scan", "android": "https://dc.lft.to/lastmile_qr_scan"}, "bike_id": "1f686210e2edbe2baaaa73065c354974", "lat": 38.902613333333335, "name": "1f686210e2edbe2baaaa73065c354974", "lon": -77.054171, "fusion_lon": 0.0}, {"is_reserved": 0, "type": "electric_scooter", "fusion_lat": 0.0, "is_disabled": 0, "rental_uris": {"ios": "https://dc.lft.to/lastmile_qr_scan", "android": "https://dc.lft.to/lastmile_qr_scan"}, "bike_id": "3cffbea0ffee3d21ae0399fb49124fab", "lat": 38.9148615, "name": "3cffbea0ffee3d21ae0399fb49124fab", "lon": -76.98375033333333, "fusion_lon": 0.0}, {"is_reserved": 0, "type": "electric_scooter", "fusion_lat": 0.0, "is_disabled": 0, "rental_uris": {"ios": "https://dc.lft.to/lastmile_qr_scan", "android": "https://dc.lft.to/lastmile_qr_scan"}, "bike_id": "f6117475cb2d7320e4fa6a0b6fa3661a", "lat": 38.90758233333333, "name": "f6117475cb2d7320e4fa6a0b6fa3661a", "lon": -77.01902216666667, "fusion_lon": 0.0}, {"is_reserved": 0, "type": "electric_scooter", "fusion_lat": 0.0, "is_disabled": 0, "rental_uris": {"ios": "https://dc.lft.to/lastmile_qr_scan", "android": "https://dc.lft.to/lastmile_qr_scan"}, "bike_id": "4b3d293550afd50e7d070fd4525cafb7", "lat": 38.911792166666665, "name": "4b3d293550afd50e7d070fd4525cafb7", "lon": -77.03823383333334, "fusion_lon": 0.0}, {"is_reserved": 0, "type": "electric_scooter", "fusion_lat": 0.0, "is_disabled": 0, "rental_uris": {"ios": "https://dc.lft.to/lastmile_qr_scan", "android": "https://dc.lft.to/lastmile_qr_scan"}, "bike_id": "392eeb601aa0fd40f4e43a380019a4ca", "lat": 38.91758466666667, "name": "392eeb601aa0fd40f4e43a380019a4ca", "lon": -77.04737666666666, "fusion_lon": 0.0}, {"is_reserved": 0, "type": "electric_scooter", "fusion_lat": 0.0, "is_disabled": 0, "rental_uris": {"ios": "https://dc.lft.to/lastmile_qr_scan", "android": "https://dc.lft.to/lastmile_qr_scan"}, "bike_id": "cfe5b4efe62bcd497fb9e957b25c9797", "lat": 38.9561625, "name": "cfe5b4efe62bcd497fb9e957b25c9797", "lon": -77.03310016666667, "fusion_lon": 0.0}, {"is_reserved": 0, "type": "electric_scooter", "fusion_lat": 0.0, "is_disabled": 0, "rental_uris": {"ios": "https://dc.lft.to/lastmile_qr_scan", "android": "https://dc.lft.to/lastmile_qr_scan"}, "bike_id": "d4617738614681a0329a984634dc05ae", "lat": 38.91297183333333, "name": "d4617738614681a0329a984634dc05ae", "lon": -77.0319165, "fusion_lon": 0.0}, {"is_reserved": 0, "type": "electric_scooter", "fusion_lat": 0.0, "is_disabled": 0, "rental_uris": {"ios": "https://dc.lft.to/lastmile_qr_scan", "android": "https://dc.lft.to/lastmile_qr_scan"}, "bike_id": "f71b30823f9afc82a558ff076053c063", "lat": 38.944463666666664, "name": "f71b30823f9afc82a558ff076053c063", "lon": -77.03283316666666, "fusion_lon": 0.0}, {"is_reserved": 0, "type": "electric_scooter", "fusion_lat": 0.0, "is_disabled": 0, "rental_uris": {"ios": "https://dc.lft.to/lastmile_qr_scan", "android": "https://dc.lft.to/lastmile_qr_scan"}, "bike_id": "3d5085d9be61266e20939d99d19bbe95", "lat": 38.897246, "name": "3d5085d9be61266e20939d99d19bbe95", "lon": -77.046239, "fusion_lon": 0.0}, {"is_reserved": 0, "type": "electric_scooter", "fusion_lat": 0.0, "is_disabled": 0, "rental_uris": {"ios": "https://dc.lft.to/lastmile_qr_scan", "android": "https://dc.lft.to/lastmile_qr_scan"}, "bike_id": "3da10a66cf609cebb20a34c9e037f542", "lat": 38.9286345, "name": "3da10a66cf609cebb20a34c9e037f542", "lon": -77.03987833333333, "fusion_lon": 0.0}, {"is_reserved": 0, "type": "electric_bike", "fusion_lat": 0.0, "is_disabled": 0, "rental_uris": {"ios": "https://dc.lft.to/lastmile_qr_scan", "android": "https://dc.lft.to/lastmile_qr_scan"}, "bike_id": "07fdf9a7c344dfbc8f7e09f1526d6458", "lat": 38.86817116666667, "name": "07fdf9a7c344dfbc8f7e09f1526d6458", "lon": -76.98024633333333, "fusion_lon": 0.0}, {"is_reserved": 0, "type": "electric_scooter", "fusion_lat": 0.0, "is_disabled": 0, "rental_uris": {"ios": "https://dc.lft.to/lastmile_qr_scan", "android": "https://dc.lft.to/lastmile_qr_scan"}, "bike_id": "1947aba2e9ebb2b6297dc7bbe5648feb", "lat": 38.929884666666666, "name": "1947aba2e9ebb2b6297dc7bbe5648feb", "lon": -77.03470983333334, "fusion_lon": 0.0}, {"is_reserved": 0, "type": "electric_scooter", "fusion_lat": 0.0, "is_disabled": 0, "rental_uris": {"ios": "https://dc.lft.to/lastmile_qr_scan", "android": "https://dc.lft.to/lastmile_qr_scan"}, "bike_id": "4ed868ef9ff3ba439fc64d1ab042bf32", "lat": 38.93619133333333, "name": "4ed868ef9ff3ba439fc64d1ab042bf32", "lon": -77.03864583333333, "fusion_lon": 0.0}, {"is_reserved": 0, "type": "electric_scooter", "fusion_lat": 0.0, "is_disabled": 0, "rental_uris": {"ios": "https://dc.lft.to/lastmile_qr_scan", "android": "https://dc.lft.to/lastmile_qr_scan"}, "bike_id": "c0c50e732f12445efbcca36369551e57", "lat": 38.90901316666667, "name": "c0c50e732f12445efbcca36369551e57", "lon": -76.99790616666667, "fusion_lon": 0.0}, {"is_reserved": 0, "type": "electric_scooter", "fusion_lat": 0.0, "is_disabled": 0, "rental_uris": {"ios": "https://dc.lft.to/lastmile_qr_scan", "android": "https://dc.lft.to/lastmile_qr_scan"}, "bike_id": "f03a5cf20b5c1405c0a562c8be413e67", "lat": 38.89522216666667, "name": "f03a5cf20b5c1405c0a562c8be413e67", "lon": -77.02679066666667, "fusion_lon": 0.0}, {"is_reserved": 0, "type": "electric_bike", "fusion_lat": 0.0, "is_disabled": 0, "rental_uris": {"ios": "https://dc.lft.to/lastmile_qr_scan", "android": "https://dc.lft.to/lastmile_qr_scan"}, "bike_id": "8ca1645f55b905b7c62ed8d6900de24c", "lat": 38.887572, "name": "8ca1645f55b905b7c62ed8d6900de24c", "lon": -77.1565085, "fusion_lon": 0.0}, {"is_reserved": 0, "type": "electric_bike", "fusion_lat": 0.0, "is_disabled": 0, "rental_uris": {"ios": "https://dc.lft.to/lastmile_qr_scan", "android": "https://dc.lft.to/lastmile_qr_scan"}, "bike_id": "e59b8521af1026ff7843a8894effda0f", "lat": 38.8468595, "name": "e59b8521af1026ff7843a8894effda0f", "lon": -76.980622, "fusion_lon": 0.0}, {"is_reserved": 0, "type": "electric_scooter", "fusion_lat": 0.0, "is_disabled": 0, "rental_uris": {"ios": "https://dc.lft.to/lastmile_qr_scan", "android": "https://dc.lft.to/lastmile_qr_scan"}, "bike_id": "ee7e02268c217ee68b9b264b7823ec31", "lat": 38.897476166666664, "name": "ee7e02268c217ee68b9b264b7823ec31", "lon": -77.02584583333334, "fusion_lon": 0.0}, {"is_reserved": 0, "type": "electric_scooter", "fusion_lat": 0.0, "is_disabled": 0, "rental_uris": {"ios": "https://dc.lft.to/lastmile_qr_scan", "android": "https://dc.lft.to/lastmile_qr_scan"}, "bike_id": "218944dd04ea7d46b0263c611d9b11cc", "lat": 38.8948925, "name": "218944dd04ea7d46b0263c611d9b11cc", "lon": -77.02572033333334, "fusion_lon": 0.0}, {"is_reserved": 0, "type": "electric_scooter", "fusion_lat": 0.0, "is_disabled": 0, "rental_uris": {"ios": "https://dc.lft.to/lastmile_qr_scan", "android": "https://dc.lft.to/lastmile_qr_scan"}, "bike_id": "d417bee64b7ff53bc5c9baba1551acb3", "lat": 38.874709833333334, "name": "d417bee64b7ff53bc5c9baba1551acb3", "lon": -77.00517866666667, "fusion_lon": 0.0}, {"is_reserved": 0, "type": "electric_bike", "fusion_lat": 0.0, "is_disabled": 0, "rental_uris": {"ios": "https://dc.lft.to/lastmile_qr_scan", "android": "https://dc.lft.to/lastmile_qr_scan"}, "bike_id": "8ba22d72fe087e8ab5b6fcee2f2d0838", "lat": 38.89728916666667, "name": "8ba22d72fe087e8ab5b6fcee2f2d0838", "lon": -77.05527033333334, "fusion_lon": 0.0}, {"is_reserved": 0, "type": "electric_scooter", "fusion_lat": 0.0, "is_disabled": 0, "rental_uris": {"ios": "https://dc.lft.to/lastmile_qr_scan", "android": "https://dc.lft.to/lastmile_qr_scan"}, "bike_id": "39fa45d85a026bbd26b496e04a31a4d9", "lat": 38.9207065, "name": "39fa45d85a026bbd26b496e04a31a4d9", "lon": -77.0250925, "fusion_lon": 0.0}, {"is_reserved": 0, "type": "electric_scooter", "fusion_lat": 0.0, "is_disabled": 0, "rental_uris": {"ios": "https://dc.lft.to/lastmile_qr_scan", "android": "https://dc.lft.to/lastmile_qr_scan"}, "bike_id": "77327960b382df65827b6e7d890aec0d", "lat": 38.916929, "name": "77327960b382df65827b6e7d890aec0d", "lon": -77.09224566666667, "fusion_lon": 0.0}, {"is_reserved": 0, "type": "electric_scooter", "fusion_lat": 0.0, "is_disabled": 0, "rental_uris": {"ios": "https://dc.lft.to/lastmile_qr_scan", "android": "https://dc.lft.to/lastmile_qr_scan"}, "bike_id": "7b6cb92858b2a021d5f868c1fe23af0a", "lat": 38.920722833333336, "name": "7b6cb92858b2a021d5f868c1fe23af0a", "lon": -77.02522133333333, "fusion_lon": 0.0}, {"is_reserved": 0, "type": "electric_scooter", "fusion_lat": 0.0, "is_disabled": 0, "rental_uris": {"ios": "https://dc.lft.to/lastmile_qr_scan", "android": "https://dc.lft.to/lastmile_qr_scan"}, "bike_id": "62eed346f8fc5a06d59eabd4c912472e", "lat": 38.922815666666665, "name": "62eed346f8fc5a06d59eabd4c912472e", "lon": -77.03664733333333, "fusion_lon": 0.0}, {"is_reserved": 0, "type": "electric_scooter", "fusion_lat": 0.0, "is_disabled": 0, "rental_uris": {"ios": "https://dc.lft.to/lastmile_qr_scan", "android": "https://dc.lft.to/lastmile_qr_scan"}, "bike_id": "7b063ac14268541f4512a6050a685e9a", "lat": 38.897254, "name": "7b063ac14268541f4512a6050a685e9a", "lon": -77.04366483333334, "fusion_lon": 0.0}, {"is_reserved": 0, "type": "electric_scooter", "fusion_lat": 0.0, "is_disabled": 0, "rental_uris": {"ios": "https://dc.lft.to/lastmile_qr_scan", "android": "https://dc.lft.to/lastmile_qr_scan"}, "bike_id": "81675c8146430b9e0c3a756de8f6f48b", "lat": 38.8857185, "name": "81675c8146430b9e0c3a756de8f6f48b", "lon": -77.00030683333334, "fusion_lon": 0.0}, {"is_reserved": 0, "type": "electric_scooter", "fusion_lat": 0.0, "is_disabled": 0, "rental_uris": {"ios": "https://dc.lft.to/lastmile_qr_scan", "android": "https://dc.lft.to/lastmile_qr_scan"}, "bike_id": "06c6936d3028542ebbd7afce2453a3c2", "lat": 38.930507166666665, "name": "06c6936d3028542ebbd7afce2453a3c2", "lon": -77.0320415, "fusion_lon": 0.0}, {"is_reserved": 0, "type": "electric_bike", "fusion_lat": 0.0, "is_disabled": 0, "rental_uris": {"ios": "https://dc.lft.to/lastmile_qr_scan", "android": "https://dc.lft.to/lastmile_qr_scan"}, "bike_id": "bc2f340eb51df1c14ee49d961b65b939", "lat": 38.92033766666667, "name": "bc2f340eb51df1c14ee49d961b65b939", "lon": -76.979597, "fusion_lon": 0.0}, {"is_reserved": 0, "type": "electric_scooter", "fusion_lat": 0.0, "is_disabled": 0, "rental_uris": {"ios": "https://dc.lft.to/lastmile_qr_scan", "android": "https://dc.lft.to/lastmile_qr_scan"}, "bike_id": "ca07bd7f6a289e53bcb3fe6bba5d9c19", "lat": 38.93973166666667, "name": "ca07bd7f6a289e53bcb3fe6bba5d9c19", "lon": -77.03429516666667, "fusion_lon": 0.0}, {"is_reserved": 0, "type": "electric_scooter", "fusion_lat": 0.0, "is_disabled": 0, "rental_uris": {"ios": "https://dc.lft.to/lastmile_qr_scan", "android": "https://dc.lft.to/lastmile_qr_scan"}, "bike_id": "1887ce56fd8df28fe30bc9bacc3f67dc", "lat": 38.89527133333333, "name": "1887ce56fd8df28fe30bc9bacc3f67dc", "lon": -77.029479, "fusion_lon": 0.0}, {"is_reserved": 0, "type": "electric_scooter", "fusion_lat": 0.0, "is_disabled": 0, "rental_uris": {"ios": "https://dc.lft.to/lastmile_qr_scan", "android": "https://dc.lft.to/lastmile_qr_scan"},