{"data": {"bikes": [{"fusion_lon": 0.0, "is_reserved": 0, "lat": 38.893597, "is_disabled": 0, "type": "electric_scooter", "lon": -77.00343066666667, "fusion_lat": 0.0, "name": "f4732581192ab2f3ee32e5731a859b79", "rental_uris": {"android": "https://dc.lft.to/lastmile_qr_scan", "ios": "https://dc.lft.to/lastmile_qr_scan"}, "bike_id": "f4732581192ab2f3ee32e5731a859b79"}, {"fusion_lon": 0.0, "is_reserved": 0, "lat": 38.900429333333335, "is_disabled": 0, "type": "electric_scooter", "lon": -77.03180083333334, "fusion_lat": 0.0, "name": "ba9062b81f3e4d4bec53205b768cc2db", "rental_uris": {"android": "https://dc.lft.to/lastmile_qr_scan", "ios": "https://dc.lft.to/lastmile_qr_scan"}, "bike_id": "ba9062b81f3e4d4bec53205b768cc2db"}, {"fusion_lon": 0.0, "is_reserved": 0, "lat": 38.893247, "is_disabled": 0, "type": "electric_scooter", "lon": -77.03196633333333, "fusion_lat": 0.0, "name": "b736c0b8879ebf44a424e2c165f931ed", "rental_uris": {"android": "https://dc.lft.to/lastmile_qr_scan", "ios": "https://dc.lft.to/lastmile_qr_scan"}, "bike_id": "b736c0b8879ebf44a424e2c165f931ed"}, {"fusion_lon": 0.0, "is_reserved": 0, "lat": 38.89826383333333, "is_disabled": 0, "type": "electric_scooter", "lon": -76.94653933333333, "fusion_lat": 0.0, "name": "4b61d30e5e00bbfc00d2641e2b05d013", "rental_uris": {"android": "https://dc.lft.to/lastmile_qr_scan", "ios": "https://dc.lft.to/lastmile_qr_scan"}, "bike_id": "4b61d30e5e00bbfc00d2641e2b05d013"}, {"fusion_lon": 0.0, "is_reserved": 0, "lat": 38.927516833333335, "is_disabled": 0, "type": "electric_scooter", "lon": -77.03359833333333, "fusion_lat": 0.0, "name": "1bbd7c70b84168d17c574873952f2603", "rental_uris": {"android": "https://dc.lft.to/lastmile_qr_scan", "ios": "https://dc.lft.to/lastmile_qr_scan"}, "bike_id": "1bbd7c70b84168d17c574873952f2603"}, {"fusion_lon": 0.0, "is_reserved": 0, "lat": 38.92233233333333, "is_disabled": 0, "type": "electric_bike", "lon": -77.02823966666666, "fusion_lat": 0.0, "name": "662b449ed6f1036f0842d1de4a9b1e3a", "rental_uris": {"android": "https://dc.lft.to/lastmile_qr_scan", "ios": "https://dc.lft.to/lastmile_qr_scan"}, "bike_id": "662b449ed6f1036f0842d1de4a9b1e3a"}, {"fusion_lon": 0.0, "is_reserved": 0, "lat": 38.896431666666665, "is_disabled": 0, "type": "electric_scooter", "lon": -77.04345033333334, "fusion_lat": 0.0, "name": "e5ee79ce1bda1d27de1e726e3acd1852", "rental_uris": {"android": "https://dc.lft.to/lastmile_qr_scan", "ios": "https://dc.lft.to/lastmile_qr_scan"}, "bike_id": "e5ee79ce1bda1d27de1e726e3acd1852"}, {"fusion_lon": 0.0, "is_reserved": 0, "lat": 38.9057255, "is_disabled": 0, "type": "electric_scooter", "lon": -77.03746233333334, "fusion_lat": 0.0, "name": "3a5e727b7695ef9de7279986d9d813d2", "rental_uris": {"android": "https://dc.lft.to/lastmile_qr_scan", "ios": "https://dc.lft.to/lastmile_qr_scan"}, "bike_id": "3a5e727b7695ef9de7279986d9d813d2"}, {"fusion_lon": 0.0, "is_reserved": 0, "lat": 38.90568833333333, "is_disabled": 0, "type": "electric_scooter", "lon": -77.0438285, "fusion_lat": 0.0, "name": "e7c9e729daf985ca89e7a934dcce2bac", "rental_uris": {"android": "https://dc.lft.to/lastmile_qr_scan", "ios": "https://dc.lft.to/lastmile_qr_scan"}, "bike_id": "e7c9e729daf985ca89e7a934dcce2bac"}, {"fusion_lon": 0.0, "is_reserved": 0, "lat": 38.855141333333336, "is_disabled": 0, "type": "electric_scooter", "lon": -76.9863455, "fusion_lat": 0.0, "name": "003e274c23ecac17fe1731840fb8710b", "rental_uris": {"android": "https://dc.lft.to/lastmile_qr_scan", "ios": "https://dc.lft.to/lastmile_qr_scan"}, "bike_id": "003e274c23ecac17fe1731840fb8710b"}, {"fusion_lon": 0.0, "is_reserved": 0, "lat": 38.9037045, "is_disabled": 0, "type": "electric_scooter", "lon": -77.04496483333334, "fusion_lat": 0.0, "name": "9e2a4f8a64ab59f990f57e5169c95529", "rental_uris": {"android": "https://dc.lft.to/lastmile_qr_scan", "ios": "https://dc.lft.to/lastmile_qr_scan"}, "bike_id": "9e2a4f8a64ab59f990f57e5169c95529"}, {"fusion_lon": 0.0, "is_reserved": 0, "lat": 38.91831233333333, "is_disabled": 0, "type": "electric_scooter", "lon": -77.03213733333334, "fusion_lat": 0.0, "name": "01b40c8bda14adf2a7b5d2757c343418", "rental_uris": {"android": "https://dc.lft.to/lastmile_qr_scan", "ios": "https://dc.lft.to/lastmile_qr_scan"}, "bike_id": "01b40c8bda14adf2a7b5d2757c343418"}, {"fusion_lon": 0.0, "is_reserved": 0, "lat": 38.906544, "is_disabled": 0, "type": "electric_scooter", "lon": -77.04611666666666, "fusion_lat": 0.0, "name": "0887b8bd4034b6cc8c3b146257531cce", "rental_uris": {"android": "https://dc.lft.to/lastmile_qr_scan", "ios": "https://dc.lft.to/lastmile_qr_scan"}, "bike_id": "0887b8bd4034b6cc8c3b146257531cce"}, {"fusion_lon": 0.0, "is_reserved": 0, "lat": 38.912526166666666, "is_disabled": 0, "type": "electric_scooter", "lon": -76.98353183333333, "fusion_lat": 0.0, "name": "52feffc7339e87d494b089d33de07861", "rental_uris": {"android": "https://dc.lft.to/lastmile_qr_scan", "ios": "https://dc.lft.to/lastmile_qr_scan"}, "bike_id": "52feffc7339e87d494b089d33de07861"}, {"fusion_lon": 0.0, "is_reserved": 0, "lat": 38.90046983333333, "is_disabled": 0, "type": "electric_scooter", "lon": -77.0200225, "fusion_lat": 0.0, "name": "66fe46de99e0d3b33d2abfb97344a0fe", "rental_uris": {"android": "https://dc.lft.to/lastmile_qr_scan", "ios": "https://dc.lft.to/lastmile_qr_scan"}, "bike_id": "66fe46de99e0d3b33d2abfb97344a0fe"}, {"fusion_lon": 0.0, "is_reserved": 0, "lat": 38.9134945, "is_disabled": 0, "type": "electric_scooter", "lon": -77.03183116666666, "fusion_lat": 0.0, "name": "32366d4b186d764b73d63f9119d32e99", "rental_uris": {"android": "https://dc.lft.to/lastmile_qr_scan", "ios": "https://dc.lft.to/lastmile_qr_scan"}, "bike_id": "32366d4b186d764b73d63f9119d32e99"}, {"fusion_lon": 0.0, "is_reserved": 0, "lat": 38.8803055, "is_disabled": 0, "type": "electric_scooter", "lon": -77.025053, "fusion_lat": 0.0, "name": "ff317b105d27f5857dc935228d590161", "rental_uris": {"android": "https://dc.lft.to/lastmile_qr_scan", "ios": "https://dc.lft.to/lastmile_qr_scan"}, "bike_id": "ff317b105d27f5857dc935228d590161"}, {"fusion_lon": 0.0, "is_reserved": 0, "lat": 38.912699, "is_disabled": 0, "type": "electric_scooter", "lon": -77.02691383333334, "fusion_lat": 0.0, "name": "5dfd908f2de281f3662f0197eb5c9b90", "rental_uris": {"android": "https://dc.lft.to/lastmile_qr_scan", "ios": "https://dc.lft.to/lastmile_qr_scan"}, "bike_id": "5dfd908f2de281f3662f0197eb5c9b90"}, {"fusion_lon": 0.0, "is_reserved": 0, "lat": 38.905029, "is_disabled": 0, "type": "electric_scooter", "lon": -77.01988433333334, "fusion_lat": 0.0, "name": "822175921f1c7e9f27cc94efeac0839d", "rental_uris": {"android": "https://dc.lft.to/lastmile_qr_scan", "ios": "https://dc.lft.to/lastmile_qr_scan"}, "bike_id": "822175921f1c7e9f27cc94efeac0839d"}, {"fusion_lon": 0.0, "is_reserved": 0, "lat": 38.88808433333333, "is_disabled": 0, "type": "electric_scooter", "lon": -76.99148683333334, "fusion_lat": 0.0, "name": "ed5fe8793e223b680c480deeae2c4bdc", "rental_uris": {"android": "https://dc.lft.to/lastmile_qr_scan", "ios": "https://dc.lft.to/lastmile_qr_scan"}, "bike_id": "ed5fe8793e223b680c480deeae2c4bdc"}, {"fusion_lon": 0.0, "is_reserved": 0, "lat": 38.898788, "is_disabled": 0, "type": "electric_scooter", "lon": -77.05341933333334, "fusion_lat": 0.0, "name": "a1fbd02ad882939c803bec9cc7510b31", "rental_uris": {"android": "https://dc.lft.to/lastmile_qr_scan", "ios": "https://dc.lft.to/lastmile_qr_scan"}, "bike_id": "a1fbd02ad882939c803bec9cc7510b31"}, {"fusion_lon": 0.0, "is_reserved": 0, "lat": 38.9141165, "is_disabled": 0, "type": "electric_scooter", "lon": -77.01016533333333, "fusion_lat": 0.0, "name": "4e7c6ddbe7b2a72ba003ec42724ad568", "rental_uris": {"android": "https://dc.lft.to/lastmile_qr_scan", "ios": "https://dc.lft.to/lastmile_qr_scan"}, "bike_id": "4e7c6ddbe7b2a72ba003ec42724ad568"}, {"fusion_lon": 0.0, "is_reserved": 0, "lat": 38.88487033333333, "is_disabled": 0, "type": "electric_scooter", "lon": -77.00715533333333, "fusion_lat": 0.0, "name": "e8f8b8e8ce69f268958d110b7b8eba52", "rental_uris": {"android": "https://dc.lft.to/lastmile_qr_scan", "ios": "https://dc.lft.to/lastmile_qr_scan"}, "bike_id": "e8f8b8e8ce69f268958d110b7b8eba52"}, {"fusion_lon": 0.0, "is_reserved": 0, "lat": 38.95352283333333, "is_disabled": 0, "type": "electric_bike", "lon": -76.980915, "fusion_lat": 0.0, "name": "17ba4071e841eefbd697ffe6f19fc381", "rental_uris": {"android": "https://dc.lft.to/lastmile_qr_scan", "ios": "https://dc.lft.to/lastmile_qr_scan"}, "bike_id": "17ba4071e841eefbd697ffe6f19fc381"}, {"fusion_lon": 0.0, "is_reserved": 0, "lat": 38.9508445, "is_disabled": 0, "type": "electric_scooter", "lon": -77.02820966666667, "fusion_lat": 0.0, "name": "f99a022bca0d361d2a7e66858243dbbc", "rental_uris": {"android": "https://dc.lft.to/lastmile_qr_scan", "ios": "https://dc.lft.to/lastmile_qr_scan"}, "bike_id": "f99a022bca0d361d2a7e66858243dbbc"}, {"fusion_lon": 0.0, "is_reserved": 0, "lat": 38.893364, "is_disabled": 0, "type": "electric_scooter", "lon": -76.99379516666667, "fusion_lat": 0.0, "name": "0ecf7fb10995eb5276d3eff32277e50a", "rental_uris": {"android": "https://dc.lft.to/lastmile_qr_scan", "ios": "https://dc.lft.to/lastmile_qr_scan"}, "bike_id": "0ecf7fb10995eb5276d3eff32277e50a"}, {"fusion_lon": 0.0, "is_reserved": 0, "lat": 38.92699366666667, "is_disabled": 0, "type": "electric_scooter", "lon": -77.064787, "fusion_lat": 0.0, "name": "bbd01471ec2d6b454982580746a230df", "rental_uris": {"android": "https://dc.lft.to/lastmile_qr_scan", "ios": "https://dc.lft.to/lastmile_qr_scan"}, "bike_id": "bbd01471ec2d6b454982580746a230df"}, {"fusion_lon": 0.0, "is_reserved": 0, "lat": 38.894744, "is_disabled": 0, "type": "electric_scooter", "lon": -77.002524, "fusion_lat": 0.0, "name": "4abf1ef9bd932334889fc4d13851ee85", "rental_uris": {"android": "https://dc.lft.to/lastmile_qr_scan", "ios": "https://dc.lft.to/lastmile_qr_scan"}, "bike_id": "4abf1ef9bd932334889fc4d13851ee85"}, {"fusion_lon": 0.0, "is_reserved": 0, "lat": 38.90540566666667, "is_disabled": 0, "type": "electric_scooter", "lon": -77.03400016666667, "fusion_lat": 0.0, "name": "be53b4689809d7e8b3ae592c2d5b51be", "rental_uris": {"android": "https://dc.lft.to/lastmile_qr_scan", "ios": "https://dc.lft.to/lastmile_qr_scan"}, "bike_id": "be53b4689809d7e8b3ae592c2d5b51be"}, {"fusion_lon": 0.0, "is_reserved": 0, "lat": 38.92176533333333, "is_disabled": 0, "type": "electric_scooter", "lon": -77.0265765, "fusion_lat": 0.0, "name": "ea6c7bd959827213f5bba88b583b1b02", "rental_uris": {"android": "https://dc.lft.to/lastmile_qr_scan", "ios": "https://dc.lft.to/lastmile_qr_scan"}, "bike_id": "ea6c7bd959827213f5bba88b583b1b02"}, {"fusion_lon": 0.0, "is_reserved": 0, "lat": 38.9013705, "is_disabled": 0, "type": "electric_scooter", "lon": -77.04181066666666, "fusion_lat": 0.0, "name": "9370bc721c9cc7beaba119cb828202b6", "rental_uris": {"android": "https://dc.lft.to/lastmile_qr_scan", "ios": "https://dc.lft.to/lastmile_qr_scan"}, "bike_id": "9370bc721c9cc7beaba119cb828202b6"}, {"fusion_lon": 0.0, "is_reserved": 0, "lat": 38.91659766666667, "is_disabled": 0, "type": "electric_scooter", "lon": -77.0384165, "fusion_lat": 0.0, "name": "87664af3f21437d448dba0ff61fc36ae", "rental_uris": {"android": "https://dc.lft.to/lastmile_qr_scan", "ios": "https://dc.lft.to/lastmile_qr_scan"}, "bike_id": "87664af3f21437d448dba0ff61fc36ae"}, {"fusion_lon": 0.0, "is_reserved": 0, "lat": 38.97004183333333, "is_disabled": 0, "type": "electric_scooter", "lon": -77.02548633333333, "fusion_lat": 0.0, "name": "69d3aa0ba8e85e05a8c612c80bb95d71", "rental_uris": {"android": "https://dc.lft.to/lastmile_qr_scan", "ios": "https://dc.lft.to/lastmile_qr_scan"}, "bike_id": "69d3aa0ba8e85e05a8c612c80bb95d71"}, {"fusion_lon": 0.0, "is_reserved": 0, "lat": 38.8561645, "is_disabled": 0, "type": "electric_bike", "lon": -76.96153283333334, "fusion_lat": 0.0, "name": "aa8a352d31aedc03956f8e011a0aa8b9", "rental_uris": {"android": "https://dc.lft.to/lastmile_qr_scan", "ios": "https://dc.lft.to/lastmile_qr_scan"}, "bike_id": "aa8a352d31aedc03956f8e011a0aa8b9"}, {"fusion_lon": 0.0, "is_reserved": 0, "lat": 38.90373866666667, "is_disabled": 0, "type": "electric_scooter", "lon": -77.04554366666666, "fusion_lat": 0.0, "name": "ae4dda64da9632174da905687672f41b", "rental_uris": {"android": "https://dc.lft.to/lastmile_qr_scan", "ios": "https://dc.lft.to/lastmile_qr_scan"}, "bike_id": "ae4dda64da9632174da905687672f41b"}, {"fusion_lon": 0.0, "is_reserved": 0, "lat": 38.90915366666667, "is_disabled": 0, "type": "electric_scooter", "lon": -77.02818416666666, "fusion_lat": 0.0, "name": "8287f5149b48d86bd96c20383bb9f6ce", "rental_uris": {"android": "https://dc.lft.to/lastmile_qr_scan", "ios": "https://dc.lft.to/lastmile_qr_scan"}, "bike_id": "8287f5149b48d86bd96c20383bb9f6ce"}, {"fusion_lon": 0.0, "is_reserved": 0, "lat": 38.89543833333333, "is_disabled": 0, "type": "electric_scooter", "lon": -77.03984933333334, "fusion_lat": 0.0, "name": "129ced0f392af4ca9cc260520137f125", "rental_uris": {"android": "https://dc.lft.to/lastmile_qr_scan", "ios": "https://dc.lft.to/lastmile_qr_scan"}, "bike_id": "129ced0f392af4ca9cc260520137f125"}, {"fusion_lon": 0.0, "is_reserved": 0, "lat": 38.9031825, "is_disabled": 0, "type": "electric_scooter", "lon": -77.04483283333333, "fusion_lat": 0.0, "name": "e48a5e69b64f234e58ccbcce3649a809", "rental_uris": {"android": "https://dc.lft.to/lastmile_qr_scan", "ios": "https://dc.lft.to/lastmile_qr_scan"}, "bike_id": "e48a5e69b64f234e58ccbcce3649a809"}, {"fusion_lon": 0.0, "is_reserved": 0, "lat": 38.87662816666667, "is_disabled": 0, "type": "electric_scooter", "lon": -77.00733183333334, "fusion_lat": 0.0, "name": "45da56ba845645bb1fe8fa0b66cd00e6", "rental_uris": {"android": "https://dc.lft.to/lastmile_qr_scan", "ios": "https://dc.lft.to/lastmile_qr_scan"}, "bike_id": "45da56ba845645bb1fe8fa0b66cd00e6"}, {"fusion_lon": 0.0, "is_reserved": 0, "lat": 38.8970755, "is_disabled": 0, "type": "electric_scooter", "lon": -77.02881733333334, "fusion_lat": 0.0, "name": "7e4fcbad595c527b3a4ef992f6493c97", "rental_uris": {"android": "https://dc.lft.to/lastmile_qr_scan", "ios": "https://dc.lft.to/lastmile_qr_scan"}, "bike_id": "7e4fcbad595c527b3a4ef992f6493c97"}, {"fusion_lon": 0.0, "is_reserved": 0, "lat": 38.885136833333334, "is_disabled": 0, "type": "electric_scooter", "lon": -76.99753783333334, "fusion_lat": 0.0, "name": "8c77f521565be3e846d81fbf55534827", "rental_uris": {"android": "https://dc.lft.to/lastmile_qr_scan", "ios": "https://dc.lft.to/lastmile_qr_scan"}, "bike_id": "8c77f521565be3e846d81fbf55534827"}, {"fusion_lon": 0.0, "is_reserved": 0, "lat": 38.92000683333333, "is_disabled": 0, "type": "electric_scooter", "lon": -77.03243316666666, "fusion_lat": 0.0, "name": "77d839abc2152144ece318471ffa0c61", "rental_uris": {"android": "https://dc.lft.to/lastmile_qr_scan", "ios": "https://dc.lft.to/lastmile_qr_scan"}, "bike_id": "77d839abc2152144ece318471ffa0c61"}, {"fusion_lon": 0.0, "is_reserved": 0, "lat": 38.98268183333333, "is_disabled": 0, "type": "electric_scooter", "lon": -77.026049, "fusion_lat": 0.0, "name": "e3e17a6ca7388d979e82706b5ca45ebf", "rental_uris": {"android": "https://dc.lft.to/lastmile_qr_scan", "ios": "https://dc.lft.to/lastmile_qr_scan"}, "bike_id": "e3e17a6ca7388d979e82706b5ca45ebf"}, {"fusion_lon": 0.0, "is_reserved": 0, "lat": 38.907304833333335, "is_disabled": 0, "type": "electric_scooter", "lon": -77.0280345, "fusion_lat": 0.0, "name": "4ca8271f0153303966800cc5d1802443", "rental_uris": {"android": "https://dc.lft.to/lastmile_qr_scan", "ios": "https://dc.lft.to/lastmile_qr_scan"}, "bike_id": "4ca8271f0153303966800cc5d1802443"}, {"fusion_lon": 0.0, "is_reserved": 0, "lat": 38.8931625, "is_disabled": 0, "type": "electric_scooter", "lon": -77.022148, "fusion_lat": 0.0, "name": "3a50af0d7b5356199e9ceca7aa1cad5d", "rental_uris": {"android": "https://dc.lft.to/lastmile_qr_scan", "ios": "https://dc.lft.to/lastmile_qr_scan"}, "bike_id": "3a50af0d7b5356199e9ceca7aa1cad5d"}, {"fusion_lon": 0.0, "is_reserved": 0, "lat": 38.90373483333333, "is_disabled": 0, "type": "electric_scooter", "lon": -77.04515766666667, "fusion_lat": 0.0, "name": "178192d6ef4b1b5b7bf1a55173ec82ac", "rental_uris": {"android": "https://dc.lft.to/lastmile_qr_scan", "ios": "https://dc.lft.to/lastmile_qr_scan"}, "bike_id": "178192d6ef4b1b5b7bf1a55173ec82ac"}, {"fusion_lon": 0.0, "is_reserved": 0, "lat": 38.937816166666664, "is_disabled": 0, "type": "electric_scooter", "lon": -77.07449166666666, "fusion_lat": 0.0, "name": "5e8dc645e32a28e98cc90b249166e19f", "rental_uris": {"android": "https://dc.lft.to/lastmile_qr_scan", "ios": "https://dc.lft.to/lastmile_qr_scan"}, "bike_id": "5e8dc645e32a28e98cc90b249166e19f"}, {"fusion_lon": 0.0, "is_reserved": 0, "lat": 38.91690766666667, "is_disabled": 0, "type": "electric_scooter", "lon": -77.04005516666666, "fusion_lat": 0.0, "name": "bdc8ea12d2da37b35f1646966974eb92", "rental_uris": {"android": "https://dc.lft.to/lastmile_qr_scan", "ios": "https://dc.lft.to/lastmile_qr_scan"}, "bike_id": "bdc8ea12d2da37b35f1646966974eb92"}, {"fusion_lon": 0.0, "is_reserved": 0, "lat": 38.923267333333335, "is_disabled": 0, "type": "electric_scooter", "lon": -77.01958533333334, "fusion_lat": 0.0, "name": "a098a162cd1b76224e806c979c149b2d", "rental_uris": {"android": "https://dc.lft.to/lastmile_qr_scan", "ios": "https://dc.lft.to/lastmile_qr_scan"}, "bike_id": "a098a162cd1b76224e806c979c149b2d"}, {"fusion_lon": 0.0, "is_reserved": 0, "lat": 38.90791883333333, "is_disabled": 0, "type": "electric_scooter", "lon": -77.0643725, "fusion_lat": 0.0, "name": "fbb1de8afcbb6e3efae4c5d30d7e1530", "rental_uris": {"android": "https://dc.lft.to/lastmile_qr_scan", "ios": "https://dc.lft.to/lastmile_qr_scan"}, "bike_id": "fbb1de8afcbb6e3efae4c5d30d7e1530"}, {"fusion_lon": 0.0, "is_reserved": 0, "lat": 38.92081983333333, "is_disabled": 0, "type": "electric_scooter", "lon": -77.02294533333334, "fusion_lat": 0.0, "name": "0bd591d29e21e81a11e06cb2bf69870f", "rental_uris": {"android": "https://dc.lft.to/lastmile_qr_scan", "ios": "https://dc.lft.to/lastmile_qr_scan"}, "bike_id": "0bd591d29e21e81a11e06cb2bf69870f"}, {"fusion_lon": 0.0, "is_reserved": 0, "lat": 38.9207935, "is_disabled": 0, "type": "electric_scooter", "lon": -77.02306533333334, "fusion_lat": 0.0, "name": "77b1938d03623672bd9da89f6a9f5d0d", "rental_uris": {"android": "https://dc.lft.to/lastmile_qr_scan", "ios": "https://dc.lft.to/lastmile_qr_scan"}, "bike_id": "77b1938d03623672bd9da89f6a9f5d0d"}, {"fusion_lon": 0.0, "is_reserved": 0, "lat": 38.876839833333335, "is_disabled": 0, "type": "electric_scooter", "lon": -77.0175945, "fusion_lat": 0.0, "name": "7d566afe3bcee18f920e2516341ddb91", "rental_uris": {"android": "https://dc.lft.to/lastmile_qr_scan", "ios": "https://dc.lft.to/lastmile_qr_scan"}, "bike_id": "7d566afe3bcee18f920e2516341ddb91"}, {"fusion_lon": 0.0, "is_reserved": 0, "lat": 39.03426483333333, "is_disabled": 0, "type": "electric_bike", "lon": -77.04300216666667, "fusion_lat": 0.0, "name": "9d7c8b6486baaa60457eb0e51c32060d", "rental_uris": {"android": "https://dc.lft.to/lastmile_qr_scan", "ios": "https://dc.lft.to/lastmile_qr_scan"}, "bike_id": "9d7c8b6486baaa60457eb0e51c32060d"}, {"fusion_lon": 0.0, "is_reserved": 0, "lat": 38.91908033333333, "is_disabled": 0, "type": "electric_scooter", "lon": -77.00149016666667, "fusion_lat": 0.0, "name": "ac0e5dc637162ecbcb32bf37f400a33e", "rental_uris": {"android": "https://dc.lft.to/lastmile_qr_scan", "ios": "https://dc.lft.to/lastmile_qr_scan"}, "bike_id": "ac0e5dc637162ecbcb32bf37f400a33e"}, {"fusion_lon": 0.0, "is_reserved": 0, "lat": 38.90102983333333, "is_disabled": 0, "type": "electric_scooter", "lon": -77.020943, "fusion_lat": 0.0, "name": "957f4cd22ed692472f92f0c69de71ef9", "rental_uris": {"android": "https://dc.lft.to/lastmile_qr_scan", "ios": "https://dc.lft.to/lastmile_qr_scan"}, "bike_id": "957f4cd22ed692472f92f0c69de71ef9"}, {"fusion_lon": 0.0, "is_reserved": 0, "lat": 38.90449533333334, "is_disabled": 0, "type": "electric_scooter", "lon": -77.05324366666666, "fusion_lat": 0.0, "name": "8bd2a733ae72ac39fe36b4db20447ec7", "rental_uris": {"android": "https://dc.lft.to/lastmile_qr_scan", "ios": "https://dc.lft.to/lastmile_qr_scan"}, "bike_id": "8bd2a733ae72ac39fe36b4db20447ec7"}, {"fusion_lon": 0.0, "is_reserved": 0, "lat": 38.928251, "is_disabled": 0, "type": "electric_scooter", "lon": -77.05522933333333, "fusion_lat": 0.0, "name": "7be5550e355e2046eb32f0706cb7fbc9", "rental_uris": {"android": "https://dc.lft.to/lastmile_qr_scan", "ios": "https://dc.lft.to/lastmile_qr_scan"}, "bike_id": "7be5550e355e2046eb32f0706cb7fbc9"}, {"fusion_lon": 0.0, "is_reserved": 0, "lat": 38.9146975, "is_disabled": 0, "type": "electric_scooter", "lon": -76.98112366666666, "fusion_lat": 0.0, "name": "8018cf6c0bcb06a39dbb5b6c9ce9c5f4", "rental_uris": {"android": "https://dc.lft.to/lastmile_qr_scan", "ios": "https://dc.lft.to/lastmile_qr_scan"}, "bike_id": "8018cf6c0bcb06a39dbb5b6c9ce9c5f4"}, {"fusion_lon": 0.0, "is_reserved": 0, "lat": 38.94426283333333, "is_disabled": 0, "type": "electric_bike", "lon": -77.01393183333333, "fusion_lat": 0.0, "name": "4d8fba22338fcbe73625af2a70b77faf", "rental_uris": {"android": "https://dc.lft.to/lastmile_qr_scan", "ios": "https://dc.lft.to/lastmile_qr_scan"}, "bike_id": "4d8fba22338fcbe73625af2a70b77faf"}, {"fusion_lon": 0.0, "is_reserved": 0, "lat": 38.9922695, "is_disabled": 0, "type": "electric_bike", "lon": -77.06529116666667, "fusion_lat": 0.0, "name": "8d5964f8763efdc69b700d3a51f7fad3", "rental_uris": {"android": "https://dc.lft.to/lastmile_qr_scan", "ios": "https://dc.lft.to/lastmile_qr_scan"}, "bike_id": "8d5964f8763efdc69b700d3a51f7fad3"}, {"fusion_lon": 0.0, "is_reserved": 0, "lat": 38.923735666666666, "is_disabled": 0, "type": "electric_scooter", "lon": -77.026555, "fusion_lat": 0.0, "name": "88ea6c6cfc12a0f8cb7ed63342db8911", "rental_uris": {"android": "https://dc.lft.to/lastmile_qr_scan", "ios": "https://dc.lft.to/lastmile_qr_scan"}, "bike_id": "88ea6c6cfc12a0f8cb7ed63342db8911"}, {"fusion_lon": 0.0, "is_reserved": 0, "lat": 38.876639833333336, "is_disabled": 0, "type": "electric_scooter", "lon": -77.01565233333334, "fusion_lat": 0.0, "name": "7007c71277c6d6af0863ab838f950d3e", "rental_uris": {"android": "https://dc.lft.to/lastmile_qr_scan", "ios": "https://dc.lft.to/lastmile_qr_scan"}, "bike_id": "7007c71277c6d6af0863ab838f950d3e"}, {"fusion_lon": 0.0, "is_reserved": 0, "lat": 38.90374166666667, "is_disabled": 0, "type": "electric_scooter", "lon": -77.04491766666666, "fusion_lat": 0.0, "name": "3c13e7afdc96d692b812f25acfc947a0", "rental_uris": {"android": "https://dc.lft.to/lastmile_qr_scan", "ios": "https://dc.lft.to/lastmile_qr_scan"}, "bike_id": "3c13e7afdc96d692b812f25acfc947a0"}, {"fusion_lon": 0.0, "is_reserved": 0, "lat": 38.919296, "is_disabled": 0, "type": "electric_scooter", "lon": -77.03429716666666, "fusion_lat": 0.0, "name": "7f88c5eb85ec132200af504decb2b100", "rental_uris": {"android": "https://dc.lft.to/lastmile_qr_scan", "ios": "https://dc.lft.to/lastmile_qr_scan"}, "bike_id": "7f88c5eb85ec132200af504decb2b100"}, {"fusion_lon": 0.0, "is_reserved": 0, "lat": 38.900287, "is_disabled": 0, "type": "electric_bike", "lon": -76.972221, "fusion_lat": 0.0, "name": "875e9790654378e47e4d04f962d7c9b8", "rental_uris": {"android": "https://dc.lft.to/lastmile_qr_scan", "ios": "https://dc.lft.to/lastmile_qr_scan"}, "bike_id": "875e9790654378e47e4d04f962d7c9b8"}, {"fusion_lon": 0.0, "is_reserved": 0, "lat": 38.88746483333333, "is_disabled": 0, "type": "electric_scooter", "lon": -77.025572, "fusion_lat": 0.0, "name": "9d88f2877e9e127364f54ed9951d6fa0", "rental_uris": {"android": "https://dc.lft.to/lastmile_qr_scan", "ios": "https://dc.lft.to/lastmile_qr_scan"}, "bike_id": "9d88f2877e9e127364f54ed9951d6fa0"}, {"fusion_lon": 0.0, "is_reserved": 0, "lat": 38.92863883333333, "is_disabled": 0, "type": "electric_scooter", "lon": -77.03164016666666, "fusion_lat": 0.0, "name": "9098b4f455645d8d13b29b53fb292231", "rental_uris": {"android": "https://dc.lft.to/lastmile_qr_scan", "ios": "https://dc.lft.to/lastmile_qr_scan"}, "bike_id": "9098b4f455645d8d13b29b53fb292231"}, {"fusion_lon": 0.0, "is_reserved": 0, "lat": 38.835821, "is_disabled": 0, "type": "electric_bike", "lon": -76.990241, "fusion_lat": 0.0, "name": "ae7c28c748d087ab62af1fd6af576041", "rental_uris": {"android": "https://dc.lft.to/lastmile_qr_scan", "ios": "https://dc.lft.to/lastmile_qr_scan"}, "bike_id": "ae7c28c748d087ab62af1fd6af576041"}, {"fusion_lon": 0.0, "is_reserved": 0, "lat": 38.91857483333333, "is_disabled": 0, "type": "electric_bike", "lon": -76.96088066666667, "fusion_lat": 0.0, "name": "e9e0871fa9a37b7ea4da85b0a469bdce", "rental_uris": {"android": "https://dc.lft.to/lastmile_qr_scan", "ios": "https://dc.lft.to/lastmile_qr_scan"}, "bike_id": "e9e0871fa9a37b7ea4da85b0a469bdce"}, {"fusion_lon": 0.0, "is_reserved": 0, "lat": 38.89961483333333, "is_disabled": 0, "type": "electric_scooter", "lon": -77.0338545, "fusion_lat": 0.0, "name": "8ba63aa794f4e8a0f450c5bd1aeec09f", "rental_uris": {"android": "https://dc.lft.to/lastmile_qr_scan", "ios": "https://dc.lft.to/lastmile_qr_scan"}, "bike_id": "8ba63aa794f4e8a0f450c5bd1aeec09f"}, {"fusion_lon": 0.0, "is_reserved": 0, "lat": 38.90516066666667, "is_disabled": 0, "type": "electric_bike", "lon": -77.06650766666667, "fusion_lat": 0.0, "name": "e05d61d0a06cef006da1cc8ff82487f8", "rental_uris": {"android": "https://dc.lft.to/lastmile_qr_scan", "ios": "https://dc.lft.to/lastmile_qr_scan"}, "bike_id": "e05d61d0a06cef006da1cc8ff82487f8"}, {"fusion_lon": 0.0, "is_reserved": 0, "lat": 38.91393433333333, "is_disabled": 0, "type": "electric_scooter", "lon": -77.03447333333334, "fusion_lat": 0.0, "name": "d6ad71604647e9dd30738f0443865edb", "rental_uris": {"android": "https://dc.lft.to/lastmile_qr_scan", "ios": "https://dc.lft.to/lastmile_qr_scan"}, "bike_id": "d6ad71604647e9dd30738f0443865edb"}, {"fusion_lon": 0.0, "is_reserved": 0, "lat": 38.84419166666667, "is_disabled": 0, "type": "electric_scooter", "lon": -76.98861666666667, "fusion_lat": 0.0, "name": "f82f33a756cd3d089cb8e9cdf5790673", "rental_uris": {"android": "https://dc.lft.to/lastmile_qr_scan", "ios": "https://dc.lft.to/lastmile_qr_scan"}, "bike_id": "f82f33a756cd3d089cb8e9cdf5790673"}, {"fusion_lon": 0.0, "is_reserved": 0, "lat": 38.92107266666667, "is_disabled": 0, "type": "electric_scooter", "lon": -77.01771533333333, "fusion_lat": 0.0, "name": "546adfe514d80add3265afc457160159", "rental_uris": {"android": "https://dc.lft.to/lastmile_qr_scan", "ios": "https://dc.lft.to/lastmile_qr_scan"}, "bike_id": "546adfe514d80add3265afc457160159"}, {"fusion_lon": 0.0, "is_reserved": 0, "lat": 38.904686166666664, "is_disabled": 0, "type": "electric_scooter", "lon": -77.0170285, "fusion_lat": 0.0, "name": "087c8e58c59e948c2165606ada75d743", "rental_uris": {"android": "https://dc.lft.to/lastmile_qr_scan", "ios": "https://dc.lft.to/lastmile_qr_scan"}, "bike_id": "087c8e58c59e948c2165606ada75d743"}, {"fusion_lon": 0.0, "is_reserved": 0, "lat": 38.8806145, "is_disabled": 0, "type": "electric_scooter", "lon": -76.9321105, "fusion_lat": 0.0, "name": "3beff8e2e928b8ec148cc3af8b328036", "rental_uris": {"android": "https://dc.lft.to/lastmile_qr_scan", "ios": "https://dc.lft.to/lastmile_qr_scan"}, "bike_id": "3beff8e2e928b8ec148cc3af8b328036"}, {"fusion_lon": 0.0, "is_reserved": 0, "lat": 38.90959766666667, "is_disabled": 0, "type": "electric_scooter", "lon": -77.04840116666666, "fusion_lat": 0.0, "name": "6676e7d9c8450fa76fd2434e12ecb9ca", "rental_uris": {"android": "https://dc.lft.to/lastmile_qr_scan", "ios": "https://dc.lft.to/lastmile_qr_scan"}, "bike_id": "6676e7d9c8450fa76fd2434e12ecb9ca"}, {"fusion_lon": 0.0, "is_reserved": 0, "lat": 38.934233, "is_disabled": 0, "type": "electric_scooter", "lon": -77.04000866666667, "fusion_lat": 0.0, "name": "a1615be679c6dbf9daf0a13b2aa0029e", "rental_uris": {"android": "https://dc.lft.to/lastmile_qr_scan", "ios": "https://dc.lft.to/lastmile_qr_scan"}, "bike_id": "a1615be679c6dbf9daf0a13b2aa0029e"}, {"fusion_lon": 0.0, "is_reserved": 0, "lat": 38.893475, "is_disabled": 0, "type": "electric_scooter", "lon": -77.0413415, "fusion_lat": 0.0, "name": "c2f7f6385584a64a4d6f65e3cf24b93a", "rental_uris": {"android": "https://dc.lft.to/lastmile_qr_scan", "ios": "https://dc.lft.to/lastmile_qr_scan"}, "bike_id": "c2f7f6385584a64a4d6f65e3cf24b93a"}, {"fusion_lon": 0.0, "is_reserved": 0, "lat": 38.90040233333333, "is_disabled": 0, "type": "electric_scooter", "lon": -76.98823316666666, "fusion_lat": 0.0, "name": "0fe5da48ed219ee6bb61bd12f8b792e5", "rental_uris": {"android": "https://dc.lft.to/lastmile_qr_scan", "ios": "https://dc.lft.to/lastmile_qr_scan"}, "bike_id": "0fe5da48ed219ee6bb61bd12f8b792e5"}, {"fusion_lon": 0.0, "is_reserved": 0, "lat": 38.9055575, "is_disabled": 0, "type": "electric_scooter", "lon": -77.04077783333334, "fusion_lat": 0.0, "name": "9ec0e4ec02c228c3f90126d4953d13a3", "rental_uris": {"android": "https://dc.lft.to/lastmile_qr_scan", "ios": "https://dc.lft.to/lastmile_qr_scan"}, "bike_id": "9ec0e4ec02c228c3f90126d4953d13a3"}, {"fusion_lon": 0.0, "is_reserved": 0, "lat": 38.912555, "is_disabled": 0, "type": "electric_scooter", "lon": -77.01433066666667, "fusion_lat": 0.0, "name": "8da408388fa03133cd8427475d64c079", "rental_uris": {"android": "https://dc.lft.to/lastmile_qr_scan", "ios": "https://dc.lft.to/lastmile_qr_scan"}, "bike_id": "8da408388fa03133cd8427475d64c079"}, {"fusion_lon": 0.0, "is_reserved": 0, "lat": 38.84611916666667, "is_disabled": 0, "type": "electric_bike", "lon": -76.96913266666667, "fusion_lat": 0.0, "name": "3437b650b413e44d64109105cb6c616b", "rental_uris": {"android": "https://dc.lft.to/lastmile_qr_scan", "ios": "https://dc.lft.to/lastmile_qr_scan"}, "bike_id": "3437b650b413e44d64109105cb6c616b"}, {"fusion_lon": 0.0, "is_reserved": 0, "lat": 38.87877183333333, "is_disabled": 0, "type": "electric_bike", "lon": -76.982224, "fusion_lat": 0.0, "name": "dbfe1befc7bc171437152fa6dab06512", "rental_uris": {"android": "https://dc.lft.to/lastmile_qr_scan", "ios": "https://dc.lft.to/lastmile_qr_scan"}, "bike_id": "dbfe1befc7bc171437152fa6dab06512"}, {"fusion_lon": 0.0, "is_reserved": 0, "lat": 38.9729655, "is_disabled": 0, "type": "electric_bike", "lon": -77.036246, "fusion_lat": 0.0, "name": "d6055921a113edbeb08f1d0eb270df28", "rental_uris": {"android": "https://dc.lft.to/lastmile_qr_scan", "ios": "https://dc.lft.to/lastmile_qr_scan"}, "bike_id": "d6055921a113edbeb08f1d0eb270df28"}, {"fusion_lon": 0.0, "is_reserved": 0, "lat": 38.93130383333333, "is_disabled": 0, "type": "electric_bike", "lon": -77.08621383333333, "fusion_lat": 0.0, "name": "bffeac4b1ea3ea91293d350f8f84f37b", "rental_uris": {"android": "https://dc.lft.to/lastmile_qr_scan", "ios": "https://dc.lft.to/lastmile_qr_scan"}, "bike_id": "bffeac4b1ea3ea91293d350f8f84f37b"}, {"fusion_lon": 0.0, "is_reserved": 0, "lat": 38.876554, "is_disabled": 0, "type": "electric_scooter", "lon": -77.01866833333334, "fusion_lat": 0.0, "name": "8156bea2877dba582ad60c2fe0c9c6b7", "rental_uris": {"android": "https://dc.lft.to/lastmile_qr_scan", "ios": "https://dc.lft.to/lastmile_qr_scan"}, "bike_id": "8156bea2877dba582ad60c2fe0c9c6b7"}, {"fusion_lon": 0.0, "is_reserved": 0, "lat": 38.913002666666664, "is_disabled": 0, "type": "electric_bike", "lon": -77.08404, "fusion_lat": 0.0, "name": "ccf403ba324e8b870dde70f71bf69325", "rental_uris": {"android": "https://dc.lft.to/lastmile_qr_scan", "ios": "https://dc.lft.to/lastmile_qr_scan"}, "bike_id": "ccf403ba324e8b870dde70f71bf69325"}, {"fusion_lon": 0.0, "is_reserved": 0, "lat": 38.919928666666664, "is_disabled": 0, "type": "electric_bike", "lon": -77.10210016666667, "fusion_lat": 0.0, "name": "b8677f2c9898dc9c179dec7667ec7099", "rental_uris": {"android": "https://dc.lft.to/lastmile_qr_scan", "ios": "https://dc.lft.to/lastmile_qr_scan"}, "bike_id": "b8677f2c9898dc9c179dec7667ec7099"}, {"fusion_lon": 0.0, "is_reserved": 0, "lat": 38.91678783333333, "is_disabled": 0, "type": "electric_bike", "lon": -76.97913816666667, "fusion_lat": 0.0, "name": "9c68b1b1f8d05f4888db584f8253e8b2", "rental_uris": {"android": "https://dc.lft.to/lastmile_qr_scan", "ios": "https://dc.lft.to/lastmile_qr_scan"}, "bike_id": "9c68b1b1f8d05f4888db584f8253e8b2"}, {"fusion_lon": 0.0, "is_reserved": 0, "lat": 38.90464333333333, "is_disabled": 0, "type": "electric_scooter", "lon": -77.028163, "fusion_lat": 0.0, "name": "1bf5a773a688ada4f9a0525d9e9febdd", "rental_uris": {"android": "https://dc.lft.to/lastmile_qr_scan", "ios": "https://dc.lft.to/lastmile_qr_scan"}, "bike_id": "1bf5a773a688ada4f9a0525d9e9febdd"}, {"fusion_lon": 0.0, "is_reserved": 0, "lat": 38.905574666666666, "is_disabled": 0, "type": "electric_scooter", "lon": -77.0399945, "fusion_lat": 0.0, "name": "e0596d292d46188f1af02f275cdc5963", "rental_uris": {"android": "https://dc.lft.to/lastmile_qr_scan", "ios": "https://dc.lft.to/lastmile_qr_scan"}, "bike_id": "e0596d292d46188f1af02f275cdc5963"}, {"fusion_lon": 0.0, "is_reserved": 0, "lat": 38.944676, "is_disabled": 0, "type": "electric_bike", "lon": -76.98688083333333, "fusion_lat": 0.0, "name": "ab45d4107b902ecf0b27c7c1a26e4539", "rental_uris": {"android": "https://dc.lft.to/lastmile_qr_scan", "ios": "https://dc.lft.to/lastmile_qr_scan"}, "bike_id": "ab45d4107b902ecf0b27c7c1a26e4539"}, {"fusion_lon": 0.0, "is_reserved": 0, "lat": 38.96780583333334, "is_disabled": 0, "type": "electric_bike", "lon": -76.96267816666666, "fusion_lat": 0.0, "name": "d9aa487c76bf624de1f9ef6c9434aa7b", "rental_uris": {"android": "https://dc.lft.to/lastmile_qr_scan", "ios": "https://dc.lft.to/lastmile_qr_scan"}, "bike_id": "d9aa487c76bf624de1f9ef6c9434aa7b"}, {"fusion_lon": 0.0, "is_reserved": 0, "lat": 38.9388485, "is_disabled": 0, "type": "electric_scooter", "lon": -77.03338883333333, "fusion_lat": 0.0, "name": "b886c4ad630e2b09ef1a5df21545e87e", "rental_uris": {"android": "https://dc.lft.to/lastmile_qr_scan", "ios": "https://dc.lft.to/lastmile_qr_scan"}, "bike_id": "b886c4ad630e2b09ef1a5df21545e87e"}, {"fusion_lon": 0.0, "is_reserved": 0, "lat": 38.899862, "is_disabled": 0, "type": "electric_scooter", "lon": -77.00672, "fusion_lat": 0.0, "name": "d1f9e394cb9c6bca35994058d3033b94", "rental_uris": {"android": "https://dc.lft.to/lastmile_qr_scan", "ios": "https://dc.lft.to/lastmile_qr_scan"}, "bike_id": "d1f9e394cb9c6bca35994058d3033b94"}, {"fusion_lon": 0.0, "is_reserved": 0, "lat": 38.907326833333336, "is_disabled": 0, "type": "electric_scooter", "lon": -77.04520716666667, "fusion_lat": 0.0, "name": "d0e99075e9b6c3b8842e9affb2ee48f1", "rental_uris": {"android": "https://dc.lft.to/lastmile_qr_scan", "ios": "https://dc.lft.to/lastmile_qr_scan"}, "bike_id": "d0e99075e9b6c3b8842e9affb2ee48f1"}, {"fusion_lon": 0.0, "is_reserved": 0, "lat": 38.930833166666666, "is_disabled": 0, "type": "electric_scooter", "lon": -77.03422766666667, "fusion_lat": 0.0, "name": "bc885408537dd1ab8a5dc67bff4f297a", "rental_uris": {"android": "https://dc.lft.to/lastmile_qr_scan", "ios": "https://dc.lft.to/lastmile_qr_scan"}, "bike_id": "bc885408537dd1ab8a5dc67bff4f297a"}, {"fusion_lon": 0.0, "is_reserved": 0, "lat": 38.91568316666667, "is_disabled": 0, "type": "electric_scooter", "lon": -77.03835866666667, "fusion_lat": 0.0, "name": "89d5adb137d9256ecfa518dacf6b0d7f", "rental_uris": {"android": "https://dc.lft.to/lastmile_qr_scan", "ios": "https://dc.lft.to/lastmile_qr_scan"}, "bike_id": "89d5adb137d9256ecfa518dacf6b0d7f"}, {"fusion_lon": 0.0, "is_reserved": 0, "lat": 38.91826916666667, "is_disabled": 0, "type": "electric_scooter", "lon": -77.031822, "fusion_lat": 0.0, "name": "22e669703affd26d8f25ac8cc8164162", "rental_uris": {"android": "https://dc.lft.to/lastmile_qr_scan", "ios": "https://dc.lft.to/lastmile_qr_scan"}, "bike_id": "22e669703affd26d8f25ac8cc8164162"}, {"fusion_lon": 0.0, "is_reserved": 0, "lat": 38.9192525, "is_disabled": 0, "type": "electric_scooter", "lon": -77.03430616666667, "fusion_lat": 0.0, "name": "676d00270cbe46603232ae309eea20ae", "rental_uris": {"android": "https://dc.lft.to/lastmile_qr_scan", "ios": "https://dc.lft.to/lastmile_qr_scan"}, "bike_id": "676d00270cbe46603232ae309eea20ae"}, {"fusion_lon": 0.0, "is_reserved": 0, "lat": 38.919917166666664, "is_disabled": 0, "type": "electric_scooter", "lon": -77.0217365, "fusion_lat": 0.0, "name": "af998f5ede3cee99f04c154d3e3127b5", "rental_uris": {"android": "https://dc.lft.to/lastmile_qr_scan", "ios": "https://dc.lft.to/lastmile_qr_scan"}, "bike_id": "af998f5ede3cee99f04c154d3e3127b5"}, {"fusion_lon": 0.0, "is_reserved": 0, "lat": 38.90266733333333, "is_disabled": 0, "type": "electric_scooter", "lon": -77.0154245, "fusion_lat": 0.0, "name": "e143363bfb044a1d558d15e9eaa715be", "rental_uris": {"android": "https://dc.lft.to/lastmile_qr_scan", "ios": "https://dc.lft.to/lastmile_qr_scan"}, "bike_id": "e143363bfb044a1d558d15e9eaa715be"}, {"fusion_lon": 0.0, "is_reserved": 0, "lat": 38.92216966666667, "is_disabled": 0, "type": "electric_scooter", "lon": -77.018093, "fusion_lat": 0.0, "name": "b55c4050c8dca6e8fb16f90ec0739ec9", "rental_uris": {"android": "https://dc.lft.to/lastmile_qr_scan", "ios": "https://dc.lft.to/lastmile_qr_scan"}, "bike_id": "b55c4050c8dca6e8fb16f90ec0739ec9"}, {"fusion_lon": 0.0, "is_reserved": 0, "lat": 38.92675883333333, "is_disabled": 0, "type": "electric_scooter", "lon": -77.01477383333334, "fusion_lat": 0.0, "name": "b1051302bd6040dbfc4b25dd5b863f25", "rental_uris": {"android": "https://dc.lft.to/lastmile_qr_scan", "ios": "https://dc.lft.to/lastmile_qr_scan"}, "bike_id": "b1051302bd6040dbfc4b25dd5b863f25"}, {"fusion_lon": 0.0, "is_reserved": 0, "lat": 38.92000066666667, "is_disabled": 0, "type": "electric_scooter", "lon": -77.03237366666667, "fusion_lat": 0.0, "name": "dae6efd8fb1cc6f871b8db89f1a75c6f", "rental_uris": {"android": "https://dc.lft.to/lastmile_qr_scan", "ios": "https://dc.lft.to/lastmile_qr_scan"}, "bike_id": "dae6efd8fb1cc6f871b8db89f1a75c6f"}, {"fusion_lon": 0.0, "is_reserved": 0, "lat": 38.924824, "is_disabled": 0, "type": "electric_scooter", "lon": -77.02736433333334, "fusion_lat": 0.0, "name": "a1ff15988c3d646426866d788a11fd6e", "rental_uris": {"android": "https://dc.lft.to/lastmile_qr_scan", "ios": "https://dc.lft.to/lastmile_qr_scan"}, "bike_id": "a1ff15988c3d646426866d788a11fd6e"}, {"fusion_lon": 0.0, "is_reserved": 0, "lat": 38.923740333333335, "is_disabled": 0, "type": "electric_scooter", "lon": -77.0265465, "fusion_lat": 0.0, "name": "67a805cc93fd1d262104d88bc6d6511f", "rental_uris": {"android": "https://dc.lft.to/lastmile_qr_scan", "ios": "https://dc.lft.to/lastmile_qr_scan"}, "bike_id": "67a805cc93fd1d262104d88bc6d6511f"}, {"fusion_lon": 0.0, "is_reserved": 0, "lat": 38.892202166666664, "is_disabled": 0, "type": "electric_scooter", "lon": -77.0135165, "fusion_lat": 0.0, "name": "fafe31280ba873e6b58c4275e050e710", "rental_uris": {"android": "https://dc.lft.to/lastmile_qr_scan", "ios": "https://dc.lft.to/lastmile_qr_scan"}, "bike_id": "fafe31280ba873e6b58c4275e050e710"}, {"fusion_lon": 0.0, "is_reserved": 0, "lat": 38.8840605, "is_disabled": 0, "type": "electric_bike", "lon": -76.9817985, "fusion_lat": 0.0, "name": "88c0197de53dac33a720b692ad904cad", "rental_uris": {"android": "https://dc.lft.to/lastmile_qr_scan", "ios": "https://dc.lft.to/lastmile_qr_scan"}, "bike_id": "88c0197de53dac33a720b692ad904cad"}, {"fusion_lon": 0.0, "is_reserved": 0, "lat": 38.8959905, "is_disabled": 0, "type": "electric_scooter", "lon": -77.02132466666667, "fusion_lat": 0.0, "name": "57b3169a3150b9a36fafc2ba8fe8b2d3", "rental_uris": {"android": "https://dc.lft.to/lastmile_qr_scan", "ios": "https://dc.lft.to/lastmile_qr_scan"}, "bike_id": "57b3169a3150b9a36fafc2ba8fe8b2d3"}, {"fusion_lon": 0.0, "is_reserved": 0, "lat": 38.93191616666667, "is_disabled": 0, "type": "electric_scooter", "lon": -77.02966916666666, "fusion_lat": 0.0, "name": "cb8e2e1307bba97a613705ae1db2c179", "rental_uris": {"android": "https://dc.lft.to/lastmile_qr_scan", "ios": "https://dc.lft.to/lastmile_qr_scan"}, "bike_id": "cb8e2e1307bba97a613705ae1db2c179"}, {"fusion_lon": 0.0, "is_reserved": 0, "lat": 38.8886995, "is_disabled": 0, "type": "electric_scooter", "lon": -76.990364, "fusion_lat": 0.0, "name": "3ab1b394278e93052aebf78b19c2921d", "rental_uris": {"android": "https://dc.lft.to/lastmile_qr_scan", "ios": "https://dc.lft.to/lastmile_qr_scan"}, "bike_id": "3ab1b394278e93052aebf78b19c2921d"}, {"fusion_lon": 0.0, "is_reserved": 0, "lat": 38.904531, "is_disabled": 0, "type": "electric_scooter", "lon": -77.0628445, "fusion_lat": 0.0, "name": "7e8d44b43aee54d72e9d1a28568a0c79", "rental_uris": {"android": "https://dc.lft.to/lastmile_qr_scan", "ios": "https://dc.lft.to/lastmile_qr_scan"}, "bike_id": "7e8d44b43aee54d72e9d1a28568a0c79"}, {"fusion_lon": 0.0, "is_reserved": 0, "lat": 38.92089033333333, "is_disabled": 0, "type": "electric_scooter", "lon": -77.036536, "fusion_lat": 0.0, "name": "d71f9d1cc0e84d5550126b9ab6dc7118", "rental_uris": {"android": "https://dc.lft.to/lastmile_qr_scan", "ios": "https://dc.lft.to/lastmile_qr_scan"}, "bike_id": "d71f9d1cc0e84d5550126b9ab6dc7118"}, {"fusion_lon": 0.0, "is_reserved": 0, "lat": 38.912533, "is_disabled": 0, "type": "electric_scooter", "lon": -77.03860366666666, "fusion_lat": 0.0, "name": "f704194be7a38e63eb16f5d1c6b029f2", "rental_uris": {"android": "https://dc.lft.to/lastmile_qr_scan", "ios": "https://dc.lft.to/lastmile_qr_scan"}, "bike_id": "f704194be7a38e63eb16f5d1c6b029f2"}, {"fusion_lon": 0.0, "is_reserved": 0, "lat": 38.92088716666667, "is_disabled": 0, "type": "electric_scooter", "lon": -77.0232155, "fusion_lat": 0.0, "name": "606cf12c0558eceb3eb81b12b5abb8e7", "rental_uris": {"android": "https://dc.lft.to/lastmile_qr_scan", "ios": "https://dc.lft.to/lastmile_qr_scan"}, "bike_id": "606cf12c0558eceb3eb81b12b5abb8e7"}, {"fusion_lon": 0.0, "is_reserved": 0, "lat": 38.87600066666667, "is_disabled": 0, "type": "electric_scooter", "lon": -77.00390533333334, "fusion_lat": 0.0, "name": "b3d862e87ad4424bac8197b824a57bd8", "rental_uris": {"android": "https://dc.lft.to/lastmile_qr_scan", "ios": "https://dc.lft.to/lastmile_qr_scan"}, "bike_id": "b3d862e87ad4424bac8197b824a57bd8"}, {"fusion_lon": 0.0, "is_reserved": 0, "lat": 38.915851833333335, "is_disabled": 0, "type": "electric_scooter", "lon": -77.01640016666667, "fusion_lat": 0.0, "name": "01048ffa67b274c1f6dcad99e6d89f4c", "rental_uris": {"android": "https://dc.lft.to/lastmile_qr_scan", "ios": "https://dc.lft.to/lastmile_qr_scan"}, "bike_id": "01048ffa67b274c1f6dcad99e6d89f4c"}, {"fusion_lon": 0.0, "is_reserved": 0, "lat": 38.874541, "is_disabled": 0, "type": "electric_scooter", "lon": -77.0047995, "fusion_lat": 0.0, "name": "f545f4bd30b3a52eb27fb07cb76b88d7", "rental_uris": {"android": "https://dc.lft.to/lastmile_qr_scan", "ios": "https://dc.lft.to/lastmile_qr_scan"}, "bike_id": "f545f4bd30b3a52eb27fb07cb76b88d7"}, {"fusion_lon": 0.0, "is_reserved": 0, "lat": 38.911164, "is_disabled": 0, "type": "electric_scooter", "lon": -77.04207666666667, "fusion_lat": 0.0, "name": "e1ae60d16a1aa0b49e836b818ebb8b7a", "rental_uris": {"android": "https://dc.lft.to/lastmile_qr_scan", "ios": "https://dc.lft.to/lastmile_qr_scan"}, "bike_id": "e1ae60d16a1aa0b49e836b818ebb8b7a"}, {"fusion_lon": 0.0, "is_reserved": 0, "lat": 38.881322833333336, "is_disabled": 0, "type": "electric_scooter", "lon": -77.02343366666666, "fusion_lat": 0.0, "name": "d3d70a6f924d3b4786bb27fec7455c34", "rental_uris": {"android": "https://dc.lft.to/lastmile_qr_scan", "ios": "https://dc.lft.to/lastmile_qr_scan"}, "bike_id": "d3d70a6f924d3b4786bb27fec7455c34"}, {"fusion_lon": 0.0, "is_reserved": 0, "lat": 38.89844016666667, "is_disabled": 0, "type": "electric_scooter", "lon": -76.93813833333333, "fusion_lat": 0.0, "name": "93034ecf40b1584a31913eeb9a222769", "rental_uris": {"android": "https://dc.lft.to/lastmile_qr_scan", "ios": "https://dc.lft.to/lastmile_qr_scan"}, "bike_id": "93034ecf40b1584a31913eeb9a222769"}, {"fusion_lon": 0.0, "is_reserved": 0, "lat": 38.83143233333333, "is_disabled": 0, "type": "electric_bike", "lon": -76.99406666666667, "fusion_lat": 0.0, "name": "33e85a970531f1061b3015a699517d0b", "rental_uris": {"android": "https://dc.lft.to/lastmile_qr_scan", "ios": "https://dc.lft.to/lastmile_qr_scan"}, "bike_id": "33e85a970531f1061b3015a699517d0b"}, {"fusion_lon": 0.0, "is_reserved": 0, "lat": 38.905396, "is_disabled": 0, "type": "electric_scooter", "lon": -77.050057, "fusion_lat": 0.0, "name": "58d69a79e8c1937a65e81f0b444b0c5b", "rental_uris": {"android": "https://dc.lft.to/lastmile_qr_scan", "ios": "https://dc.lft.to/lastmile_qr_scan"}, "bike_id": "58d69a79e8c1937a65e81f0b444b0c5b"}, {"fusion_lon": 0.0, "is_reserved": 0, "lat": 38.9242175, "is_disabled": 0, "type": "electric_scooter", "lon": -77.051823, "fusion_lat": 0.0, "name": "a834e956335155f5a4fbe201e05bae45", "rental_uris": {"android": "https://dc.lft.to/lastmile_qr_scan", "ios": "https://dc.lft.to/lastmile_qr_scan"}, "bike_id": "a834e956335155f5a4fbe201e05bae45"}, {"fusion_lon": 0.0, "is_reserved": 0, "lat": 38.85015466666667, "is_disabled": 0, "type": "electric_bike", "lon": -77.09823366666667, "fusion_lat": 0.0, "name": "992782daf0cd48b8c41c7fdb4f485ace", "rental_uris": {"android": "https://dc.lft.to/lastmile_qr_scan", "ios": "https://dc.lft.to/lastmile_qr_scan"}, "bike_id": "992782daf0cd48b8c41c7fdb4f485ace"}, {"fusion_lon": 0.0, "is_reserved": 0, "lat": 38.906109666666666, "is_disabled": 0, "type": "electric_scooter", "lon": -77.01886333333333, "fusion_lat": 0.0, "name": "21f276099d0bd527115a18bdadee8898", "rental_uris": {"android": "https://dc.lft.to/lastmile_qr_scan", "ios": "https://dc.lft.to/lastmile_qr_scan"}, "bike_id": "21f276099d0bd527115a18bdadee8898"}, {"fusion_lon": 0.0, "is_reserved": 0, "lat": 38.89616733333333, "is_disabled": 0, "type": "electric_scooter", "lon": -76.99739716666667, "fusion_lat": 0.0, "name": "5f13e5e43675ffd74c9cff1b58bf8601", "rental_uris": {"android": "https://dc.lft.to/lastmile_qr_scan", "ios": "https://dc.lft.to/lastmile_qr_scan"}, "bike_id": "5f13e5e43675ffd74c9cff1b58bf8601"}, {"fusion_lon": 0.0, "is_reserved": 0, "lat": 38.898817, "is_disabled": 0, "type": "electric_scooter", "lon": -77.04340833333333, "fusion_lat": 0.0, "name": "03e1f541d5dc5380153927f666643d0d", "rental_uris": {"android": "https://dc.lft.to/lastmile_qr_scan", "ios": "https://dc.lft.to/lastmile_qr_scan"}, "bike_id": "03e1f541d5dc5380153927f666643d0d"}, {"fusion_lon": 0.0, "is_reserved": 0, "lat": 38.92927383333333, "is_disabled": 0, "type": "electric_scooter", "lon": -77.0328825, "fusion_lat": 0.0, "name": "118a61282e962f3e41eb1638ff1fe864", "rental_uris": {"android": "https://dc.lft.to/lastmile_qr_scan", "ios": "https://dc.lft.to/lastmile_qr_scan"}, "bike_id": "118a61282e962f3e41eb1638ff1fe864"}, {"fusion_lon": 0.0, "is_reserved": 0, "lat": 38.89165366666667, "is_disabled": 0, "type": "electric_scooter", "lon": -76.99940633333334, "fusion_lat": 0.0, "name": "3da8f295988799d5cd525ad4e1eaa310", "rental_uris": {"android": "https://dc.lft.to/lastmile_qr_scan", "ios": "https://dc.lft.to/lastmile_qr_scan"}, "bike_id": "3da8f295988799d5cd525ad4e1eaa310"}, {"fusion_lon": 0.0, "is_reserved": 0, "lat": 38.985378, "is_disabled": 0, "type": "electric_bike", "lon": -77.00401466666666, "fusion_lat": 0.0, "name": "874217c179cd0d2ec51531cac0956876", "rental_uris": {"android": "https://dc.lft.to/lastmile_qr_scan", "ios": "https://dc.lft.to/lastmile_qr_scan"}, "bike_id": "874217c179cd0d2ec51531cac0956876"}, {"fusion_lon": 0.0, "is_reserved": 0, "lat": 38.92155116666667, "is_disabled": 0, "type": "electric_scooter", "lon": -77.03359633333334, "fusion_lat": 0.0, "name": "3f84832bc91f4337f5d0bdf611d4d168", "rental_uris": {"android": "https://dc.lft.to/lastmile_qr_scan", "ios": "https://dc.lft.to/lastmile_qr_scan"}, "bike_id": "3f84832bc91f4337f5d0bdf611d4d168"}, {"fusion_lon": 0.0, "is_reserved": 0, "lat": 38.896079666666665, "is_disabled": 0, "type": "electric_scooter", "lon": -77.01332116666667, "fusion_lat": 0.0, "name": "ddc5bfd742a4bc915186ea112fd97f4b", "rental_uris": {"android": "https://dc.lft.to/lastmile_qr_scan", "ios": "https://dc.lft.to/lastmile_qr_scan"}, "bike_id": "ddc5bfd742a4bc915186ea112fd97f4b"}, {"fusion_lon": 0.0, "is_reserved": 0, "lat": 38.91360233333333, "is_disabled": 0, "type": "electric_scooter", "lon": -77.04559933333333, "fusion_lat": 0.0, "name": "842e2b9c4b5bbd0fdc85bd1d5254daaf", "rental_uris": {"android": "https://dc.lft.to/lastmile_qr_scan", "ios": "https://dc.lft.to/lastmile_qr_scan"}, "bike_id": "842e2b9c4b5bbd0fdc85bd1d5254daaf"}, {"fusion_lon": 0.0, "is_reserved": 0, "lat": 38.842731, "is_disabled": 0, "type": "electric_bike", "lon": -76.98838116666667, "fusion_lat": 0.0, "name": "9cc8841a1bbbc1357e76504ecff534dc", "rental_uris": {"android": "https://dc.lft.to/lastmile_qr_scan", "ios": "https://dc.lft.to/lastmile_qr_scan"}, "bike_id": "9cc8841a1bbbc1357e76504ecff534dc"}, {"fusion_lon": 0.0, "is_reserved": 0, "lat": 38.90315983333333, "is_disabled": 0, "type": "electric_scooter", "lon": -77.00601983333334, "fusion_lat": 0.0, "name": "e019d9447d1dc4e32ea31f7b3a1ec66e", "rental_uris": {"android": "https://dc.lft.to/lastmile_qr_scan", "ios": "https://dc.lft.to/lastmile_qr_scan"}, "bike_id": "e019d9447d1dc4e32ea31f7b3a1ec66e"}, {"fusion_lon": 0.0, "is_reserved": 0, "lat": 38.9013245, "is_disabled": 0, "type": "electric_scooter", "lon": -77.02846583333333, "fusion_lat": 0.0, "name": "caa0e76881c977b5c1bff3718966d8fa", "rental_uris": {"android": "https://dc.lft.to/lastmile_qr_scan", "ios": "https://dc.lft.to/lastmile_qr_scan"}, "bike_id": "caa0e76881c977b5c1bff3718966d8fa"}, {"fusion_lon": 0.0, "is_reserved": 0, "lat": 38.827676333333336, "is_disabled": 0, "type": "electric_scooter", "lon": -76.99452116666667, "fusion_lat": 0.0, "name": "aacafb7aa233f32ece6d6f8c9e8473b7", "rental_uris": {"android": "https://dc.lft.to/lastmile_qr_scan", "ios": "https://dc.lft.to/lastmile_qr_scan"}, "bike_id": "aacafb7aa233f32ece6d6f8c9e8473b7"}, {"fusion_lon": 0.0, "is_reserved": 0, "lat": 38.905939833333335, "is_disabled": 0, "type": "electric_scooter", "lon": -77.0630155, "fusion_lat": 0.0, "name": "aa77130282e1ba79b3e7723020f3b636", "rental_uris": {"android": "https://dc.lft.to/lastmile_qr_scan", "ios": "https://dc.lft.to/lastmile_qr_scan"}, "bike_id": "aa77130282e1ba79b3e7723020f3b636"}, {"fusion_lon": 0.0, "is_reserved": 0, "lat": 38.913919166666666, "is_disabled": 0, "type": "electric_scooter", "lon": -77.03930983333333, "fusion_lat": 0.0, "name": "b0da9b3b7d78f81dc3037413615b9924", "rental_uris": {"android": "https://dc.lft.to/lastmile_qr_scan", "ios": "https://dc.lft.to/lastmile_qr_scan"}, "bike_id": "b0da9b3b7d78f81dc3037413615b9924"}, {"fusion_lon": 0.0, "is_reserved": 0, "lat": 38.86446433333333, "is_disabled": 0, "type": "electric_bike", "lon": -76.99912833333333, "fusion_lat": 0.0, "name": "cf5cd246dd0d1aa4b424ad3fed60ff89", "rental_uris": {"android": "https://dc.lft.to/lastmile_qr_scan", "ios": "https://dc.lft.to/lastmile_qr_scan"}, "bike_id": "cf5cd246dd0d1aa4b424ad3fed60ff89"}, {"fusion_lon": 0.0, "is_reserved": 0, "lat": 38.8766525, "is_disabled": 0, "type": "electric_scooter", "lon": -76.998261, "fusion_lat": 0.0, "name": "6e440a27b3afc9ad7836820f3ddf0a8a", "rental_uris": {"android": "https://dc.lft.to/lastmile_qr_scan", "ios": "https://dc.lft.to/lastmile_qr_scan"}, "bike_id": "6e440a27b3afc9ad7836820f3ddf0a8a"}, {"fusion_lon": 0.0, "is_reserved": 0, "lat": 38.9055285, "is_disabled": 0, "type": "electric_scooter", "lon": -77.0417585, "fusion_lat": 0.0, "name": "c5e1b13a4a16bd7804339bff5bfb5ada", "rental_uris": {"android": "https://dc.lft.to/lastmile_qr_scan", "ios": "https://dc.lft.to/lastmile_qr_scan"}, "bike_id": "c5e1b13a4a16bd7804339bff5bfb5ada"}, {"fusion_lon": 0.0, "is_reserved": 0, "lat": 38.92868716666667, "is_disabled": 0, "type": "electric_scooter", "lon": -77.031732, "fusion_lat": 0.0, "name": "97ed9ea8579cd9b38554364ee9b07fb6", "rental_uris": {"android": "https://dc.lft.to/lastmile_qr_scan", "ios": "https://dc.lft.to/lastmile_qr_scan"}, "bike_id": "97ed9ea8579cd9b38554364ee9b07fb6"}, {"fusion_lon": 0.0, "is_reserved": 0, "lat": 38.9003315, "is_disabled": 0, "type": "electric_scooter", "lon": -77.0001985, "fusion_lat": 0.0, "name": "6a0473ae6017da539e2f1eada3274bec", "rental_uris": {"android": "https://dc.lft.to/lastmile_qr_scan", "ios": "https://dc.lft.to/lastmile_qr_scan"}, "bike_id": "6a0473ae6017da539e2f1eada3274bec"}, {"fusion_lon": 0.0, "is_reserved": 0, "lat": 38.92335033333333, "is_disabled": 0, "type": "electric_scooter", "lon": -77.03482916666667, "fusion_lat": 0.0, "name": "4edab1010b8ccb0d2329674d68ca49b8", "rental_uris": {"android": "https://dc.lft.to/lastmile_qr_scan", "ios": "https://dc.lft.to/lastmile_qr_scan"}, "bike_id": "4edab1010b8ccb0d2329674d68ca49b8"}, {"fusion_lon": 0.0, "is_reserved": 0, "lat": 38.92333266666667, "is_disabled": 0, "type": "electric_scooter", "lon": -77.01958333333333, "fusion_lat": 0.0, "name": "67324955ee035143e5848b7917f789e3", "rental_uris": {"android": "https://dc.lft.to/lastmile_qr_scan", "ios": "https://dc.lft.to/lastmile_qr_scan"}, "bike_id": "67324955ee035143e5848b7917f789e3"}, {"fusion_lon": 0.0, "is_reserved": 0, "lat": 38.934072, "is_disabled": 0, "type": "electric_scooter", "lon": -77.02027483333333, "fusion_lat": 0.0, "name": "1a26c3a6125b38fcc4d720bc019e03b3", "rental_uris": {"android": "https://dc.lft.to/lastmile_qr_scan", "ios": "https://dc.lft.to/lastmile_qr_scan"}, "bike_id": "1a26c3a6125b38fcc4d720bc019e03b3"}, {"fusion_lon": 0.0, "is_reserved": 0, "lat": 38.89216416666667, "is_disabled": 0, "type": "electric_scooter", "lon": -77.013927, "fusion_lat": 0.0, "name": "08c88cdabc053036cf3d4bc8e0264ef0", "rental_uris": {"android": "https://dc.lft.to/lastmile_qr_scan", "ios": "https://dc.lft.to/lastmile_qr_scan"}, "bike_id": "08c88cdabc053036cf3d4bc8e0264ef0"}, {"fusion_lon": 0.0, "is_reserved": 0, "lat": 38.98528816666666, "is_disabled": 0, "type": "electric_bike", "lon": -77.00410383333333, "fusion_lat": 0.0, "name": "56503344d614a2b4d81a8e8a76e1f8a6", "rental_uris": {"android": "https://dc.lft.to/lastmile_qr_scan", "ios": "https://dc.lft.to/lastmile_qr_scan"}, "bike_id": "56503344d614a2b4d81a8e8a76e1f8a6"}, {"fusion_lon": 0.0, "is_reserved": 0, "lat": 38.902706, "is_disabled": 0, "type": "electric_scooter", "lon": -76.9363555, "fusion_lat": 0.0, "name": "379d3b228fa0810ccfefdca8e0ded1ed", "rental_uris": {"android": "https://dc.lft.to/lastmile_qr_scan", "ios": "https://dc.lft.to/lastmile_qr_scan"}, "bike_id": "379d3b228fa0810ccfefdca8e0ded1ed"}, {"fusion_lon": 0.0, "is_reserved": 0, "lat": 38.9115555, "is_disabled": 0, "type": "electric_scooter", "lon": -77.06237083333333, "fusion_lat": 0.0, "name": "d6acbc9e016ed2e6a926a422b036410d", "rental_uris": {"android": "https://dc.lft.to/lastmile_qr_scan", "ios": "https://dc.lft.to/lastmile_qr_scan"}, "bike_id": "d6acbc9e016ed2e6a926a422b036410d"}, {"fusion_lon": 0.0, "is_reserved": 0, "lat": 38.888589, "is_disabled": 0, "type": "electric_bike", "lon": -76.95741116666667, "fusion_lat": 0.0, "name": "3b33e8f373e37d5e5cc62699dfd5e290", "rental_uris": {"android": "https://dc.lft.to/lastmile_qr_scan", "ios": "https://dc.lft.to/lastmile_qr_scan"}, "bike_id": "3b33e8f373e37d5e5cc62699dfd5e290"}, {"fusion_lon": 0.0, "is_reserved": 0, "lat": 38.88730266666666, "is_disabled": 0, "type": "electric_scooter", "lon": -76.98358066666667, "fusion_lat": 0.0, "name": "eb24fd052222592b0b2fb07cf7007512", "rental_uris": {"android": "https://dc.lft.to/lastmile_qr_scan", "ios": "https://dc.lft.to/lastmile_qr_scan"}, "bike_id": "eb24fd052222592b0b2fb07cf7007512"}, {"fusion_lon": 0.0, "is_reserved": 0, "lat": 38.9216755, "is_disabled": 0, "type": "electric_scooter", "lon": -77.03259533333333, "fusion_lat": 0.0, "name": "7d5c1722de194a80c4c6682b3df8e472", "rental_uris": {"android": "https://dc.lft.to/lastmile_qr_scan", "ios": "https://dc.lft.to/lastmile_qr_scan"}, "bike_id": "7d5c1722de194a80c4c6682b3df8e472"}, {"fusion_lon": 0.0, "is_reserved": 0, "lat": 38.87902883333334, "is_disabled": 0, "type": "electric_scooter", "lon": -77.00625733333334, "fusion_lat": 0.0, "name": "da70395b81c07a181769b0cec9d6d6cf", "rental_uris": {"android": "https://dc.lft.to/lastmile_qr_scan", "ios": "https://dc.lft.to/lastmile_qr_scan"}, "bike_id": "da70395b81c07a181769b0cec9d6d6cf"}, {"fusion_lon": 0.0, "is_reserved": 0, "lat": 38.890852833333334, "is_disabled": 0, "type": "electric_scooter", "lon": -76.947166, "fusion_lat": 0.0, "name": "1cde8531e58debe92ae1d0e10d2044bb", "rental_uris": {"android": "https://dc.lft.to/lastmile_qr_scan", "ios": "https://dc.lft.to/lastmile_qr_scan"}, "bike_id": "1cde8531e58debe92ae1d0e10d2044bb"}, {"fusion_lon": 0.0, "is_reserved": 0, "lat": 38.9012885, "is_disabled": 0, "type": "electric_scooter", "lon": -77.0435605, "fusion_lat": 0.0, "name": "226a884089ce62737bdb502d1e82a693", "rental_uris": {"android": "https://dc.lft.to/lastmile_qr_scan", "ios": "https://dc.lft.to/lastmile_qr_scan"}, "bike_id": "226a884089ce62737bdb502d1e82a693"}, {"fusion_lon": 0.0, "is_reserved": 0, "lat": 38.90873, "is_disabled": 0, "type": "electric_scooter", "lon": -77.04323033333333, "fusion_lat": 0.0, "name": "66c38eeb4aba9221676e2ea3bf3ef23c", "rental_uris": {"android": "https://dc.lft.to/lastmile_qr_scan", "ios": "https://dc.lft.to/lastmile_qr_scan"}, "bike_id": "66c38eeb4aba9221676e2ea3bf3ef23c"}, {"fusion_lon": 0.0, "is_reserved": 0, "lat": 38.9076365, "is_disabled": 0, "type": "electric_scooter", "lon": -76.992997, "fusion_lat": 0.0, "name": "5e8d3e5673bcee7cf153cefdd8d2ea95", "rental_uris": {"android": "https://dc.lft.to/lastmile_qr_scan", "ios": "https://dc.lft.to/lastmile_qr_scan"}, "bike_id": "5e8d3e5673bcee7cf153cefdd8d2ea95"}, {"fusion_lon": 0.0, "is_reserved": 0, "lat": 38.92208183333334, "is_disabled": 0, "type": "electric_bike", "lon": -77.081921, "fusion_lat": 0.0, "name": "ef87bf836b93de49f8ea01c651dde6ec", "rental_uris": {"android": "https://dc.lft.to/lastmile_qr_scan", "ios": "https://dc.lft.to/lastmile_qr_scan"}, "bike_id": "ef87bf836b93de49f8ea01c651dde6ec"}, {"fusion_lon": 0.0, "is_reserved": 0, "lat": 38.84099283333333, "is_disabled": 0, "type": "electric_bike", "lon": -77.08936783333333, "fusion_lat": 0.0, "name": "853a7d141bc9bbadbf07fc5e2485282a", "rental_uris": {"android": "https://dc.lft.to/lastmile_qr_scan", "ios": "https://dc.lft.to/lastmile_qr_scan"}, "bike_id": "853a7d141bc9bbadbf07fc5e2485282a"}, {"fusion_lon": 0.0, "is_reserved": 0, "lat": 38.92160583333333, "is_disabled": 0, "type": "electric_scooter", "lon": -77.04220116666667, "fusion_lat": 0.0, "name": "06061ad0e74d043fb1ada6072604e4b9", "rental_uris": {"android": "https://dc.lft.to/lastmile_qr_scan", "ios": "https://dc.lft.to/lastmile_qr_scan"}, "bike_id": "06061ad0e74d043fb1ada6072604e4b9"}, {"fusion_lon": 0.0, "is_reserved": 0, "lat": 38.900339833333334, "is_disabled": 0, "type": "electric_scooter", "lon": -76.98859316666666, "fusion_lat": 0.0, "name": "62f4ed4a97d7b404d4ef08db6dab04f1", "rental_uris": {"android": "https://dc.lft.to/lastmile_qr_scan", "ios": "https://dc.lft.to/lastmile_qr_scan"}, "bike_id": "62f4ed4a97d7b404d4ef08db6dab04f1"}, {"fusion_lon": 0.0, "is_reserved": 0, "lat": 38.910096, "is_disabled": 0, "type": "electric_scooter", "lon": -77.03834233333333, "fusion_lat": 0.0, "name": "2a6d9b773f195947f881ebd60ae7c28b", "rental_uris": {"android": "https://dc.lft.to/lastmile_qr_scan", "ios": "https://dc.lft.to/lastmile_qr_scan"}, "bike_id": "2a6d9b773f195947f881ebd60ae7c28b"}, {"fusion_lon": 0.0, "is_reserved": 0, "lat": 38.90835833333333, "is_disabled": 0, "type": "electric_scooter", "lon": -77.02692283333333, "fusion_lat": 0.0, "name": "a59a4957c549eb51dc758bece172a4a0", "rental_uris": {"android": "https://dc.lft.to/lastmile_qr_scan", "ios": "https://dc.lft.to/lastmile_qr_scan"}, "bike_id": "a59a4957c549eb51dc758bece172a4a0"}, {"fusion_lon": 0.0, "is_reserved": 0, "lat": 38.979692166666666, "is_disabled": 0, "type": "electric_bike", "lon": -76.93804166666666, "fusion_lat": 0.0, "name": "93dc62f8b78eb5f2b0290ec3bb6ab294", "rental_uris": {"android": "https://dc.lft.to/lastmile_qr_scan", "ios": "https://dc.lft.to/lastmile_qr_scan"}, "bike_id": "93dc62f8b78eb5f2b0290ec3bb6ab294"}, {"fusion_lon": 0.0, "is_reserved": 0, "lat": 38.891915, "is_disabled": 0, "type": "electric_scooter", "lon": -77.00296666666667, "fusion_lat": 0.0, "name": "f038c45ad39a4da001519bb828ef5f1f", "rental_uris": {"android": "https://dc.lft.to/lastmile_qr_scan", "ios": "https://dc.lft.to/lastmile_qr_scan"}, "bike_id": "f038c45ad39a4da001519bb828ef5f1f"}, {"fusion_lon": 0.0, "is_reserved": 0, "lat": 38.92024283333333, "is_disabled": 0, "type": "electric_scooter", "lon": -77.03723666666667, "fusion_lat": 0.0, "name": "ddca86fb34203d9257fac322cdb6c33f", "rental_uris": {"android": "https://dc.lft.to/lastmile_qr_scan", "ios": "https://dc.lft.to/lastmile_qr_scan"}, "bike_id": "ddca86fb34203d9257fac322cdb6c33f"}, {"fusion_lon": 0.0, "is_reserved": 0, "lat": 38.909756, "is_disabled": 0, "type": "electric_scooter", "lon": -77.03181366666666, "fusion_lat": 0.0, "name": "0b2139937304c80386cc907c86dec65f", "rental_uris": {"android": "https://dc.lft.to/lastmile_qr_scan", "ios": "https://dc.lft.to/lastmile_qr_scan"}, "bike_id": "0b2139937304c80386cc907c86dec65f"}, {"fusion_lon": 0.0, "is_reserved": 0, "lat": 38.908356833333336, "is_disabled": 0, "type": "electric_scooter", "lon": -77.04000783333333, "fusion_lat": 0.0, "name": "fa44dd5d88f92d9515c85f4dd21fd858", "rental_uris": {"android": "https://dc.lft.to/lastmile_qr_scan", "ios": "https://dc.lft.to/lastmile_qr_scan"}, "bike_id": "fa44dd5d88f92d9515c85f4dd21fd858"}, {"fusion_lon": 0.0, "is_reserved": 0, "lat": 38.916507333333335, "is_disabled": 0, "type": "electric_scooter", "lon": -77.02705133333333, "fusion_lat": 0.0, "name": "887311c48adb48ee9903008c3d5f9472", "rental_uris": {"android": "https://dc.lft.to/lastmile_qr_scan", "ios": "https://dc.lft.to/lastmile_qr_scan"}, "bike_id": "887311c48adb48ee9903008c3d5f9472"}, {"fusion_lon": 0.0, "is_reserved": 0, "lat": 38.924386166666665, "is_disabled": 0, "type": "electric_scooter", "lon": -77.03358866666666, "fusion_lat": 0.0, "name": "856d9d64b881cef44613a655abc3195c", "rental_uris": {"android": "https://dc.lft.to/lastmile_qr_scan", "ios": "https://dc.lft.to/lastmile_qr_scan"}, "bike_id": "856d9d64b881cef44613a655abc3195c"}, {"fusion_lon": 0.0, "is_reserved": 0, "lat": 38.874593833333336, "is_disabled": 0, "type": "electric_scooter", "lon": -77.00482416666667, "fusion_lat": 0.0, "name": "118f8fff0e3300ca5c4fe295fd3506f6", "rental_uris": {"android": "https://dc.lft.to/lastmile_qr_scan", "ios": "https://dc.lft.to/lastmile_qr_scan"}, "bike_id": "118f8fff0e3300ca5c4fe295fd3506f6"}, {"fusion_lon": 0.0, "is_reserved": 0, "lat": 38.92877633333333, "is_disabled": 0, "type": "electric_scooter", "lon": -77.03489783333333, "fusion_lat": 0.0, "name": "60bcff33ef6cdfdf556197a48bdeb417", "rental_uris": {"android": "https://dc.lft.to/lastmile_qr_scan", "ios": "https://dc.lft.to/lastmile_qr_scan"}, "bike_id": "60bcff33ef6cdfdf556197a48bdeb417"}, {"fusion_lon": 0.0, "is_reserved": 0, "lat": 38.90930816666667, "is_disabled": 0, "type": "electric_scooter", "lon": -77.0308965, "fusion_lat": 0.0, "name": "ecab6adf6a3b044556d782760769f0b2", "rental_uris": {"android": "https://dc.lft.to/lastmile_qr_scan", "ios": "https://dc.lft.to/lastmile_qr_scan"}, "bike_id": "ecab6adf6a3b044556d782760769f0b2"}, {"fusion_lon": 0.0, "is_reserved": 0, "lat": 38.9881825, "is_disabled": 0, "type": "electric_bike", "lon": -77.0264925, "fusion_lat": 0.0, "name": "5ec74b16dbb70426878f32cc4bbce904", "rental_uris": {"android": "https://dc.lft.to/lastmile_qr_scan", "ios": "https://dc.lft.to/lastmile_qr_scan"}, "bike_id": "5ec74b16dbb70426878f32cc4bbce904"}, {"fusion_lon": 0.0, "is_reserved": 0, "lat": 38.901127, "is_disabled": 0, "type": "electric_bike", "lon": -77.03449283333333, "fusion_lat": 0.0, "name": "56ce818f5701d4130618eb31a9965d1d", "rental_uris": {"android": "https://dc.lft.to/lastmile_qr_scan", "ios": "https://dc.lft.to/lastmile_qr_scan"}, "bike_id": "56ce818f5701d4130618eb31a9965d1d"}, {"fusion_lon": 0.0, "is_reserved": 0, "lat": 38.90385216666667, "is_disabled": 0, "type": "electric_scooter", "lon": -77.05352016666667, "fusion_lat": 0.0, "name": "cb5ca0804353d2d6b7abad35a7517c81", "rental_uris": {"android": "https://dc.lft.to/lastmile_qr_scan", "ios": "https://dc.lft.to/lastmile_qr_scan"}, "bike_id": "cb5ca0804353d2d6b7abad35a7517c81"}, {"fusion_lon": 0.0, "is_reserved": 0, "lat": 38.9054595, "is_disabled": 0, "type": "electric_scooter", "lon": -77.021793, "fusion_lat": 0.0, "name": "3e0b0de29f10fc9270dae70391949616", "rental_uris": {"android": "https://dc.lft.to/lastmile_qr_scan", "ios": "https://dc.lft.to/lastmile_qr_scan"}, "bike_id": "3e0b0de29f10fc9270dae70391949616"}, {"fusion_lon": 0.0, "is_reserved": 0, "lat": 38.92311816666667, "is_disabled": 0, "type": "electric_scooter", "lon": -77.03116783333333, "fusion_lat": 0.0, "name": "1ca468679a4fec78043f6e91e7f9d3b3", "rental_uris": {"android": "https://dc.lft.to/lastmile_qr_scan", "ios": "https://dc.lft.to/lastmile_qr_scan"}, "bike_id": "1ca468679a4fec78043f6e91e7f9d3b3"}, {"fusion_lon": 0.0, "is_reserved": 0, "lat": 38.98040316666667, "is_disabled": 0, "type": "electric_bike", "lon": -76.9579475, "fusion_lat": 0.0, "name": "80ea9b7c0b76fcc507e9a1b05b87758b", "rental_uris": {"android": "https://dc.lft.to/lastmile_qr_scan", "ios": "https://dc.lft.to/lastmile_qr_scan"}, "bike_id": "80ea9b7c0b76fcc507e9a1b05b87758b"}, {"fusion_lon": 0.0, "is_reserved": 0, "lat": 38.960792, "is_disabled": 0, "type": "electric_bike", "lon": -76.99176733333333, "fusion_lat": 0.0, "name": "22934c43191ee4053863d6fa222e4f96", "rental_uris": {"android": "https://dc.lft.to/lastmile_qr_scan", "ios": "https://dc.lft.to/lastmile_qr_scan"}, "bike_id": "22934c43191ee4053863d6fa222e4f96"}, {"fusion_lon": 0.0, "is_reserved": 0, "lat": 38.944208833333334, "is_disabled": 0, "type": "electric_scooter", "lon": -76.9756645, "fusion_lat": 0.0, "name": "3e032f6881eea60aeda00424889d5a00", "rental_uris": {"android": "https://dc.lft.to/lastmile_qr_scan", "ios": "https://dc.lft.to/lastmile_qr_scan"}, "bike_id": "3e032f6881eea60aeda00424889d5a00"}, {"fusion_lon": 0.0, "is_reserved": 0, "lat": 38.89530516666667, "is_disabled": 0, "type": "electric_scooter", "lon": -76.94933516666667, "fusion_lat": 0.0, "name": "b253d297e56569803f41f5afe7796183", "rental_uris": {"android": "https://dc.lft.to/lastmile_qr_scan", "ios": "https://dc.lft.to/lastmile_qr_scan"}, "bike_id": "b253d297e56569803f41f5afe7796183"}, {"fusion_lon": 0.0, "is_reserved": 0, "lat": 38.960883333333335, "is_disabled": 0, "type": "electric_scooter", "lon": -77.07330966666666, "fusion_lat": 0.0, "name": "c5eaf6833bb53ff69abefb96e6429866", "rental_uris": {"android": "https://dc.lft.to/lastmile_qr_scan", "ios": "https://dc.lft.to/lastmile_qr_scan"}, "bike_id": "c5eaf6833bb53ff69abefb96e6429866"}, {"fusion_lon": 0.0, "is_reserved": 0, "lat": 38.9151645, "is_disabled": 0, "type": "electric_scooter", "lon": -77.04582366666666, "fusion_lat": 0.0, "name": "29804e8d37ca6cfef79f131fdb7fa06a", "rental_uris": {"android": "https://dc.lft.to/lastmile_qr_scan", "ios": "https://dc.lft.to/lastmile_qr_scan"}, "bike_id": "29804e8d37ca6cfef79f131fdb7fa06a"}, {"fusion_lon": 0.0, "is_reserved": 0, "lat": 38.99499, "is_disabled": 0, "type": "electric_bike", "lon": -77.00133383333333, "fusion_lat": 0.0, "name": "8c9c9d7c6ae6da18fe77bd7c43dd1f54", "rental_uris": {"android": "https://dc.lft.to/lastmile_qr_scan", "ios": "https://dc.lft.to/lastmile_qr_scan"}, "bike_id": "8c9c9d7c6ae6da18fe77bd7c43dd1f54"}, {"fusion_lon": 0.0, "is_reserved": 0, "lat": 38.940482333333335, "is_disabled": 0, "type": "electric_scooter", "lon": -77.06059833333333, "fusion_lat": 0.0, "name": "94979ffa195d80b7dcbdef1aa7ef2555", "rental_uris": {"android": "https://dc.lft.to/lastmile_qr_scan", "ios": "https://dc.lft.to/lastmile_qr_scan"}, "bike_id": "94979ffa195d80b7dcbdef1aa7ef2555"}, {"fusion_lon": 0.0, "is_reserved": 0, "lat": 38.911014333333334, "is_disabled": 0, "type": "electric_scooter", "lon": -77.0021255, "fusion_lat": 0.0, "name": "0ac35e0f35ed5e9afe0dfb3e9038a840", "rental_uris": {"android": "https://dc.lft.to/lastmile_qr_scan", "ios": "https://dc.lft.to/lastmile_qr_scan"}, "bike_id": "0ac35e0f35ed5e9afe0dfb3e9038a840"}, {"fusion_lon": 0.0, "is_reserved": 0, "lat": 38.92741516666667, "is_disabled": 0, "type": "electric_scooter", "lon": -77.03556166666667, "fusion_lat": 0.0, "name": "2eafc72a0c010fa4f68a14028564108c", "rental_uris": {"android": "https://dc.lft.to/lastmile_qr_scan", "ios": "https://dc.lft.to/lastmile_qr_scan"}, "bike_id": "2eafc72a0c010fa4f68a14028564108c"}, {"fusion_lon": 0.0, "is_reserved": 0, "lat": 38.93823966666667, "is_disabled": 0, "type": "electric_scooter", "lon": -76.98616933333334, "fusion_lat": 0.0, "name": "5f8151e9d3d53452fb971c3d37f99a23", "rental_uris": {"android": "https://dc.lft.to/lastmile_qr_scan", "ios": "https://dc.lft.to/lastmile_qr_scan"}, "bike_id": "5f8151e9d3d53452fb971c3d37f99a23"}, {"fusion_lon": 0.0, "is_reserved": 0, "lat": 38.88732233333333, "is_disabled": 0, "type": "electric_scooter", "lon": -77.0151415, "fusion_lat": 0.0, "name": "15c8d45288bbbe36a764a12d04a12165", "rental_uris": {"android": "https://dc.lft.to/lastmile_qr_scan", "ios": "https://dc.lft.to/lastmile_qr_scan"}, "bike_id": "15c8d45288bbbe36a764a12d04a12165"}, {"fusion_lon": 0.0, "is_reserved": 0, "lat": 38.91849583333333, "is_disabled": 0, "type": "electric_scooter", "lon": -77.03892933333333, "fusion_lat": 0.0, "name": "bd8a648a17fbc924d1013960dffa5203", "rental_uris": {"android": "https://dc.lft.to/lastmile_qr_scan", "ios": "https://dc.lft.to/lastmile_qr_scan"}, "bike_id": "bd8a648a17fbc924d1013960dffa5203"}, {"fusion_lon": 0.0, "is_reserved": 0, "lat": 38.93175733333333, "is_disabled": 0, "type": "electric_scooter", "lon": -77.0366105, "fusion_lat": 0.0, "name": "58c7ae5c0438ee4cba658f44a963d11a", "rental_uris": {"android": "https://dc.lft.to/lastmile_qr_scan", "ios": "https://dc.lft.to/lastmile_qr_scan"}, "bike_id": "58c7ae5c0438ee4cba658f44a963d11a"}, {"fusion_lon": 0.0, "is_reserved": 0, "lat": 38.95359966666667, "is_disabled": 0, "type": "electric_bike", "lon": -76.98093733333333, "fusion_lat": 0.0, "name": "341a22acb1337e3a3bb132087a04a32c", "rental_uris": {"android": "https://dc.lft.to/lastmile_qr_scan", "ios": "https://dc.lft.to/lastmile_qr_scan"}, "bike_id": "341a22acb1337e3a3bb132087a04a32c"}, {"fusion_lon": 0.0, "is_reserved": 0, "lat": 38.898654, "is_disabled": 0, "type": "electric_scooter", "lon": -77.0273745, "fusion_lat": 0.0, "name": "049b0e12a511f8740d5f3732f27b22a5", "rental_uris": {"android": "https://dc.lft.to/lastmile_qr_scan", "ios": "https://dc.lft.to/lastmile_qr_scan"}, "bike_id": "049b0e12a511f8740d5f3732f27b22a5"}, {"fusion_lon": 0.0, "is_reserved": 0, "lat": 38.89338733333334, "is_disabled": 0, "type": "electric_scooter", "lon": -77.04658766666667, "fusion_lat": 0.0, "name": "c2e2c0b3251a5abebac56b296823c05b", "rental_uris": {"android": "https://dc.lft.to/lastmile_qr_scan", "ios": "https://dc.lft.to/lastmile_qr_scan"}, "bike_id": "c2e2c0b3251a5abebac56b296823c05b"}, {"fusion_lon": 0.0, "is_reserved": 0, "lat": 38.91943116666667, "is_disabled": 0, "type": "electric_scooter", "lon": -77.01797966666666, "fusion_lat": 0.0, "name": "301d89119995a94d3e00f316d309f4bc", "rental_uris": {"android": "https://dc.lft.to/lastmile_qr_scan", "ios": "https://dc.lft.to/lastmile_qr_scan"}, "bike_id": "301d89119995a94d3e00f316d309f4bc"}, {"fusion_lon": 0.0, "is_reserved": 0, "lat": 38.91969233333333, "is_disabled": 0, "type": "electric_scooter", "lon": -77.04322766666667, "fusion_lat": 0.0, "name": "320ea4a13d4f66c835f09ae0071cf04b", "rental_uris": {"android": "https://dc.lft.to/lastmile_qr_scan", "ios": "https://dc.lft.to/lastmile_qr_scan"}, "bike_id": "320ea4a13d4f66c835f09ae0071cf04b"}, {"fusion_lon": 0.0, "is_reserved": 0, "lat": 38.89736766666667, "is_disabled": 0, "type": "electric_scooter", "lon": -77.04685633333334, "fusion_lat": 0.0, "name": "6865015fbdaf6e9c1fd18a03ea103f7d", "rental_uris": {"android": "https://dc.lft.to/lastmile_qr_scan", "ios": "https://dc.lft.to/lastmile_qr_scan"}, "bike_id": "6865015fbdaf6e9c1fd18a03ea103f7d"}, {"fusion_lon": 0.0, "is_reserved": 0, "lat": 38.900766833333336, "is_disabled": 0, "type": "electric_scooter", "lon": -77.04885183333333, "fusion_lat": 0.0, "name": "2260b9ca19af3c809bb51511414cc172", "rental_uris": {"android": "https://dc.lft.to/lastmile_qr_scan", "ios": "https://dc.lft.to/lastmile_qr_scan"}, "bike_id": "2260b9ca19af3c809bb51511414cc172"}, {"fusion_lon": 0.0, "is_reserved": 0, "lat": 38.932314833333336, "is_disabled": 0, "type": "electric_scooter", "lon": -76.96211983333333, "fusion_lat": 0.0, "name": "52fc3e8964a235ed412b485f4ea6cc3a", "rental_uris": {"android": "https://dc.lft.to/lastmile_qr_scan", "ios": "https://dc.lft.to/lastmile_qr_scan"}, "bike_id": "52fc3e8964a235ed412b485f4ea6cc3a"}, {"fusion_lon": 0.0, "is_reserved": 0, "lat": 38.923217666666666, "is_disabled": 0, "type": "electric_scooter", "lon": -77.02112983333333, "fusion_lat": 0.0, "name": "97c3af66dc486a9f454193ddc771440e", "rental_uris": {"android": "https://dc.lft.to/lastmile_qr_scan", "ios": "https://dc.lft.to/lastmile_qr_scan"}, "bike_id": "97c3af66dc486a9f454193ddc771440e"}, {"fusion_lon": 0.0, "is_reserved": 0, "lat": 38.898859333333334, "is_disabled": 0, "type": "electric_scooter", "lon": -77.03290516666667, "fusion_lat": 0.0, "name": "d5aedc410ea95d7f646d594118b194af", "rental_uris": {"android": "https://dc.lft.to/lastmile_qr_scan", "ios": "https://dc.lft.to/lastmile_qr_scan"}, "bike_id": "d5aedc410ea95d7f646d594118b194af"}, {"fusion_lon": 0.0, "is_reserved": 0, "lat": 38.898818166666665, "is_disabled": 0, "type": "electric_scooter", "lon": -77.03324183333334, "fusion_lat": 0.0, "name": "a86d8027e4ac2250e19afbb06a5145d8", "rental_uris": {"android": "https://dc.lft.to/lastmile_qr_scan", "ios": "https://dc.lft.to/lastmile_qr_scan"}, "bike_id": "a86d8027e4ac2250e19afbb06a5145d8"}, {"fusion_lon": 0.0, "is_reserved": 0, "lat": 38.905503333333336, "is_disabled": 0, "type": "electric_scooter", "lon": -77.02970166666667, "fusion_lat": 0.0, "name": "56c92352f86b31f866093f0780d1ffd1", "rental_uris": {"android": "https://dc.lft.to/lastmile_qr_scan", "ios": "https://dc.lft.to/lastmile_qr_scan"}, "bike_id": "56c92352f86b31f866093f0780d1ffd1"}, {"fusion_lon": 0.0, "is_reserved": 0, "lat": 38.92174966666666, "is_disabled": 0, "type": "electric_scooter", "lon": -77.0422255, "fusion_lat": 0.0, "name": "a4eec278f762b760330a02e83cdcdd81", "rental_uris": {"android": "https://dc.lft.to/lastmile_qr_scan", "ios": "https://dc.lft.to/lastmile_qr_scan"}, "bike_id": "a4eec278f762b760330a02e83cdcdd81"}, {"fusion_lon": 0.0, "is_reserved": 0, "lat": 38.91414616666667, "is_disabled": 0, "type": "electric_scooter", "lon": -77.01876383333334, "fusion_lat": 0.0, "name": "d38d3e2877e45358102eed93c14da61d", "rental_uris": {"android": "https://dc.lft.to/lastmile_qr_scan", "ios": "https://dc.lft.to/lastmile_qr_scan"}, "bike_id": "d38d3e2877e45358102eed93c14da61d"}, {"fusion_lon": 0.0, "is_reserved": 0, "lat": 38.923174, "is_disabled": 0, "type": "electric_scooter", "lon": -77.02690766666667, "fusion_lat": 0.0, "name": "58eab74d5b368818d9147ed9b7897f9b", "rental_uris": {"android": "https://dc.lft.to/lastmile_qr_scan", "ios": "https://dc.lft.to/lastmile_qr_scan"}, "bike_id": "58eab74d5b368818d9147ed9b7897f9b"}, {"fusion_lon": 0.0, "is_reserved": 0, "lat": 38.9248075, "is_disabled": 0, "type": "electric_scooter", "lon": -77.02735333333334, "fusion_lat": 0.0, "name": "a381ec124e3ea0d6471984ac81d84e71", "rental_uris": {"android": "https://dc.lft.to/lastmile_qr_scan", "ios": "https://dc.lft.to/lastmile_qr_scan"}, "bike_id": "a381ec124e3ea0d6471984ac81d84e71"}, {"fusion_lon": 0.0, "is_reserved": 0, "lat": 38.9180515, "is_disabled": 0, "type": "electric_scooter", "lon": -77.040351, "fusion_lat": 0.0, "name": "9b200f485bda9b6b25c46d8b6c095c35", "rental_uris": {"android": "https://dc.lft.to/lastmile_qr_scan", "ios": "https://dc.lft.to/lastmile_qr_scan"}, "bike_id": "9b200f485bda9b6b25c46d8b6c095c35"}, {"fusion_lon": 0.0, "is_reserved": 0, "lat": 38.9142485, "is_disabled": 0, "type": "electric_scooter", "lon": -77.04493616666667, "fusion_lat": 0.0, "name": "5a2df40c5d942ad183cc382be450d6f4", "rental_uris": {"android": "https://dc.lft.to/lastmile_qr_scan", "ios": "https://dc.lft.to/lastmile_qr_scan"}, "bike_id": "5a2df40c5d942ad183cc382be450d6f4"}, {"fusion_lon": 0.0, "is_reserved": 0, "lat": 38.90151483333333, "is_disabled": 0, "type": "electric_scooter", "lon": -77.0231, "fusion_lat": 0.0, "name": "689c3bf8e9fcaddfe8b1979fbbfa9f73", "rental_uris": {"android": "https://dc.lft.to/lastmile_qr_scan", "ios": "https://dc.lft.to/lastmile_qr_scan"}, "bike_id": "689c3bf8e9fcaddfe8b1979fbbfa9f73"}, {"fusion_lon": 0.0, "is_reserved": 0, "lat": 38.896669833333334, "is_disabled": 0, "type": "electric_scooter", "lon": -77.028136, "fusion_lat": 0.0, "name": "6c57563bc9f64b8fb69759170493f307", "rental_uris": {"android": "https://dc.lft.to/lastmile_qr_scan", "ios": "https://dc.lft.to/lastmile_qr_scan"}, "bike_id": "6c57563bc9f64b8fb69759170493f307"}, {"fusion_lon": 0.0, "is_reserved": 0, "lat": 38.893535, "is_disabled": 0, "type": "electric_scooter", "lon": -77.00334083333334, "fusion_lat": 0.0, "name": "e7c61645e38e7b162a002bd2829cc485", "rental_uris": {"android": "https://dc.lft.to/lastmile_qr_scan", "ios": "https://dc.lft.to/lastmile_qr_scan"}, "bike_id": "e7c61645e38e7b162a002bd2829cc485"}, {"fusion_lon": 0.0, "is_reserved": 0, "lat": 38.90834983333333, "is_disabled": 0, "type": "electric_scooter", "lon": -77.02690916666667, "fusion_lat": 0.0, "name": "4b181a097f908ba64cbd810304dd8471", "rental_uris": {"android": "https://dc.lft.to/lastmile_qr_scan", "ios": "https://dc.lft.to/lastmile_qr_scan"}, "bike_id": "4b181a097f908ba64cbd810304dd8471"}, {"fusion_lon": 0.0, "is_reserved": 0, "lat": 38.902227833333335, "is_disabled": 0, "type": "electric_bike", "lon": -77.05909816666667, "fusion_lat": 0.0, "name": "c9668226fac4b9520caf257364f08e5c", "rental_uris": {"android": "https://dc.lft.to/lastmile_qr_scan", "ios": "https://dc.lft.to/lastmile_qr_scan"}, "bike_id": "c9668226fac4b9520caf257364f08e5c"}, {"fusion_lon": 0.0, "is_reserved": 0, "lat": 38.91401483333333, "is_disabled": 0, "type": "electric_scooter", "lon": -77.03262783333334, "fusion_lat": 0.0, "name": "15e3e41693174689b01f3841dbac2af4", "rental_uris": {"android": "https://dc.lft.to/lastmile_qr_scan", "ios": "https://dc.lft.to/lastmile_qr_scan"}, "bike_id": "15e3e41693174689b01f3841dbac2af4"}, {"fusion_lon": 0.0, "is_reserved": 0, "lat": 38.9084495, "is_disabled": 0, "type": "electric_scooter", "lon": -77.02387183333333, "fusion_lat": 0.0, "name": "3244ad5fa0f9e40e9c15107877a47257", "rental_uris": {"android": "https://dc.lft.to/lastmile_qr_scan", "ios": "https://dc.lft.to/lastmile_qr_scan"}, "bike_id": "3244ad5fa0f9e40e9c15107877a47257"}, {"fusion_lon": 0.0, "is_reserved": 0, "lat": 38.887413, "is_disabled": 0, "type": "electric_scooter", "lon": -77.025615, "fusion_lat": 0.0, "name": "b1da4aa7af5ae2a9efbe1068623c2317", "rental_uris": {"android": "https://dc.lft.to/lastmile_qr_scan", "ios": "https://dc.lft.to/lastmile_qr_scan"}, "bike_id": "b1da4aa7af5ae2a9efbe1068623c2317"}, {"fusion_lon": 0.0, "is_reserved": 0, "lat": 38.89138166666667, "is_disabled": 0, "type": "electric_scooter", "lon": -77.0819545, "fusion_lat": 0.0, "name": "5043488d33ccbeb486061b447fbb36b4", "rental_uris": {"android": "https://dc.lft.to/lastmile_qr_scan", "ios": "https://dc.lft.to/lastmile_qr_scan"}, "bike_id": "5043488d33ccbeb486061b447fbb36b4"}, {"fusion_lon": 0.0, "is_reserved": 0, "lat": 38.8974835, "is_disabled": 0, "type": "electric_scooter", "lon": -77.01888566666666, "fusion_lat": 0.0, "name": "7cb110cd9d9c0fe53048b15b5fd06d63", "rental_uris": {"android": "https://dc.lft.to/lastmile_qr_scan", "ios": "https://dc.lft.to/lastmile_qr_scan"}, "bike_id": "7cb110cd9d9c0fe53048b15b5fd06d63"}, {"fusion_lon": 0.0, "is_reserved": 0, "lat": 38.877759, "is_disabled": 0, "type": "electric_scooter", "lon": -77.01300966666666, "fusion_lat": 0.0, "name": "a75c371c614b1be14df3e0c29223f43f", "rental_uris": {"android": "https://dc.lft.to/lastmile_qr_scan", "ios": "https://dc.lft.to/lastmile_qr_scan"}, "bike_id": "a75c371c614b1be14df3e0c29223f43f"}, {"fusion_lon": 0.0, "is_reserved": 0, "lat": 38.830617333333336, "is_disabled": 0, "type": "electric_bike", "lon": -77.04078883333334, "fusion_lat": 0.0, "name": "5065ad64dd114c4f8d2883debfa1da1b", "rental_uris": {"android": "https://dc.lft.to/lastmile_qr_scan", "ios": "https://dc.lft.to/lastmile_qr_scan"}, "bike_id": "5065ad64dd114c4f8d2883debfa1da1b"}, {"fusion_lon": 0.0, "is_reserved": 0, "lat": 38.845250166666666, "is_disabled": 0, "type": "electric_scooter", "lon": -76.997173, "fusion_lat": 0.0, "name": "fab6c6ea4c906d213277e6b214905610", "rental_uris": {"android": "https://dc.lft.to/lastmile_qr_scan", "ios": "https://dc.lft.to/lastmile_qr_scan"}, "bike_id": "fab6c6ea4c906d213277e6b214905610"}, {"fusion_lon": 0.0, "is_reserved": 0, "lat": 38.92699833333333, "is_disabled": 0, "type": "electric_scooter", "lon": -77.0208855, "fusion_lat": 0.0, "name": "95d3f37c4562bcd29e31a7bd5a9ed8da", "rental_uris": {"android": "https://dc.lft.to/lastmile_qr_scan", "ios": "https://dc.lft.to/lastmile_qr_scan"}, "bike_id": "95d3f37c4562bcd29e31a7bd5a9ed8da"}, {"fusion_lon": 0.0, "is_reserved": 0, "lat": 38.900551666666665, "is_disabled": 0, "type": "electric_scooter", "lon": -77.017908, "fusion_lat": 0.0, "name": "d98cdf0c3ffdc4ca0f2b18cdd634d389", "rental_uris": {"android": "https://dc.lft.to/lastmile_qr_scan", "ios": "https://dc.lft.to/lastmile_qr_scan"}, "bike_id": "d98cdf0c3ffdc4ca0f2b18cdd634d389"}, {"fusion_lon": 0.0, "is_reserved": 0, "lat": 38.90774733333333, "is_disabled": 0, "type": "electric_scooter", "lon": -77.07166983333333, "fusion_lat": 0.0, "name": "6708d1ace86d0b4c2a418dd17ca88f04", "rental_uris": {"android": "https://dc.lft.to/lastmile_qr_scan", "ios": "https://dc.lft.to/lastmile_qr_scan"}, "bike_id": "6708d1ace86d0b4c2a418dd17ca88f04"}, {"fusion_lon": 0.0, "is_reserved": 0, "lat": 38.877082, "is_disabled": 0, "type": "electric_scooter", "lon": -77.00356783333334, "fusion_lat": 0.0, "name": "209745d78ac6f4c0e699fbd1af5010b8", "rental_uris": {"android": "https://dc.lft.to/lastmile_qr_scan", "ios": "https://dc.lft.to/lastmile_qr_scan"}, "bike_id": "209745d78ac6f4c0e699fbd1af5010b8"}, {"fusion_lon": 0.0, "is_reserved": 0, "lat": 38.923350166666665, "is_disabled": 0, "type": "electric_scooter", "lon": -77.02038766666666, "fusion_lat": 0.0, "name": "1fe45016e751899368eec3fece62c943", "rental_uris": {"android": "https://dc.lft.to/lastmile_qr_scan", "ios": "https://dc.lft.to/lastmile_qr_scan"}, "bike_id": "1fe45016e751899368eec3fece62c943"}, {"fusion_lon": 0.0, "is_reserved": 0, "lat": 38.90297666666667, "is_disabled": 0, "type": "electric_scooter", "lon": -77.034336, "fusion_lat": 0.0, "name": "d1a065d6531cf161b1e83eb5402ea842", "rental_uris": {"android": "https://dc.lft.to/lastmile_qr_scan", "ios": "https://dc.lft.to/lastmile_qr_scan"}, "bike_id": "d1a065d6531cf161b1e83eb5402ea842"}, {"fusion_lon": 0.0, "is_reserved": 0, "lat": 38.927535666666664, "is_disabled": 0, "type": "electric_scooter", "lon": -77.03292083333334, "fusion_lat": 0.0, "name": "1ca01923c093252a287d035be5b5ceeb", "rental_uris": {"android": "https://dc.lft.to/lastmile_qr_scan", "ios": "https://dc.lft.to/lastmile_qr_scan"}, "bike_id": "1ca01923c093252a287d035be5b5ceeb"}, {"fusion_lon": 0.0, "is_reserved": 0, "lat": 38.9290235, "is_disabled": 0, "type": "electric_scooter", "lon": -77.0581175, "fusion_lat": 0.0, "name": "e9178ac40a3800804d04468b9ad0c4ae", "rental_uris": {"android": "https://dc.lft.to/lastmile_qr_scan", "ios": "https://dc.lft.to/lastmile_qr_scan"}, "bike_id": "e9178ac40a3800804d04468b9ad0c4ae"}, {"fusion_lon": 0.0, "is_reserved": 0, "lat": 38.917246666666664, "is_disabled": 0, "type": "electric_scooter", "lon": -77.0320035, "fusion_lat": 0.0, "name": "70462327cbd9909bbb5942f555543e4c", "rental_uris": {"android": "https://dc.lft.to/lastmile_qr_scan", "ios": "https://dc.lft.to/lastmile_qr_scan"}, "bike_id": "70462327cbd9909bbb5942f555543e4c"}, {"fusion_lon": 0.0, "is_reserved": 0, "lat": 38.90720966666667, "is_disabled": 0, "type": "electric_scooter", "lon": -77.03766516666667, "fusion_lat": 0.0, "name": "a5c7caf230ddd275f361e54688afb84d", "rental_uris": {"android": "https://dc.lft.to/lastmile_qr_scan", "ios": "https://dc.lft.to/lastmile_qr_scan"}, "bike_id": "a5c7caf230ddd275f361e54688afb84d"}, {"fusion_lon": 0.0, "is_reserved": 0, "lat": 38.918080833333335, "is_disabled": 0, "type": "electric_scooter", "lon": -77.025044, "fusion_lat": 0.0, "name": "f977d31b3c5dbd7f51514da5547a0d2f", "rental_uris": {"android": "https://dc.lft.to/lastmile_qr_scan", "ios": "https://dc.lft.to/lastmile_qr_scan"}, "bike_id": "f977d31b3c5dbd7f51514da5547a0d2f"}, {"fusion_lon": 0.0, "is_reserved": 0, "lat": 38.894225, "is_disabled": 0, "type": "electric_scooter", "lon": -77.056016, "fusion_lat": 0.0, "name": "3d9e068d72c761e683abbf3b0483f97c", "rental_uris": {"android": "https://dc.lft.to/lastmile_qr_scan", "ios": "https://dc.lft.to/lastmile_qr_scan"}, "bike_id": "3d9e068d72c761e683abbf3b0483f97c"}, {"fusion_lon": 0.0, "is_reserved": 0, "lat": 38.918516, "is_disabled": 0, "type": "electric_scooter", "lon": -76.96544516666667, "fusion_lat": 0.0, "name": "dffe2ab587c04cac017783dfccf967c0", "rental_uris": {"android": "https://dc.lft.to/lastmile_qr_scan", "ios": "https://dc.lft.to/lastmile_qr_scan"}, "bike_id": "dffe2ab587c04cac017783dfccf967c0"}, {"fusion_lon": 0.0, "is_reserved": 0, "lat": 38.898592666666666, "is_disabled": 0, "type": "electric_scooter", "lon": -77.01994933333333, "fusion_lat": 0.0, "name": "09e42e7f71770b6a7feb52970c011b1e", "rental_uris": {"android": "https://dc.lft.to/lastmile_qr_scan", "ios": "https://dc.lft.to/lastmile_qr_scan"}, "bike_id": "09e42e7f71770b6a7feb52970c011b1e"}, {"fusion_lon": 0.0, "is_reserved": 0, "lat": 38.900308, "is_disabled": 0, "type": "electric_scooter", "lon": -77.01184583333334, "fusion_lat": 0.0, "name": "45c823eb454857d0bf57acc399bae238", "rental_uris": {"android": "https://dc.lft.to/lastmile_qr_scan", "ios": "https://dc.lft.to/lastmile_qr_scan"}, "bike_id": "45c823eb454857d0bf57acc399bae238"}, {"fusion_lon": 0.0, "is_reserved": 0, "lat": 38.915457, "is_disabled": 0, "type": "electric_scooter", "lon": -77.04157116666667, "fusion_lat": 0.0, "name": "673839d983577a9317f199f0b23f9ff9", "rental_uris": {"android": "https://dc.lft.to/lastmile_qr_scan", "ios": "https://dc.lft.to/lastmile_qr_scan"}, "bike_id": "673839d983577a9317f199f0b23f9ff9"}, {"fusion_lon": 0.0, "is_reserved": 0, "lat": 38.92869916666667, "is_disabled": 0, "type": "electric_scooter", "lon": -77.01404516666666, "fusion_lat": 0.0, "name": "48ac2b3e215886598c0fd17dec3cc4d2", "rental_uris": {"android": "https://dc.lft.to/lastmile_qr_scan", "ios": "https://dc.lft.to/lastmile_qr_scan"}, "bike_id": "48ac2b3e215886598c0fd17dec3cc4d2"}, {"fusion_lon": 0.0, "is_reserved": 0, "lat": 38.914021166666664, "is_disabled": 0, "type": "electric_scooter", "lon": -77.0181445, "fusion_lat": 0.0, "name": "bc00795d9ef7d7a826a541fa1ece17ed", "rental_uris": {"android": "https://dc.lft.to/lastmile_qr_scan", "ios": "https://dc.lft.to/lastmile_qr_scan"}, "bike_id": "bc00795d9ef7d7a826a541fa1ece17ed"}, {"fusion_lon": 0.0, "is_reserved": 0, "lat": 38.933369666666664, "is_disabled": 0, "type": "electric_bike", "lon": -77.08312183333334, "fusion_lat": 0.0, "name": "7f17055047aa3ccc13f3c705fb07f53f", "rental_uris": {"android": "https://dc.lft.to/lastmile_qr_scan", "ios": "https://dc.lft.to/lastmile_qr_scan"}, "bike_id": "7f17055047aa3ccc13f3c705fb07f53f"}, {"fusion_lon": 0.0, "is_reserved": 0, "lat": 38.90039766666666, "is_disabled": 0, "type": "electric_scooter", "lon": -76.988269, "fusion_lat": 0.0, "name": "26df8d238f801acfe43aeabc5392a157", "rental_uris": {"android": "https://dc.lft.to/lastmile_qr_scan", "ios": "https://dc.lft.to/lastmile_qr_scan"}, "bike_id": "26df8d238f801acfe43aeabc5392a157"}, {"fusion_lon": 0.0, "is_reserved": 0, "lat": 38.88124633333334, "is_disabled": 0, "type": "electric_scooter", "lon": -77.01334566666667, "fusion_lat": 0.0, "name": "c43e6310a1c6772a1a79a5dc611729a5", "rental_uris": {"android": "https://dc.lft.to/lastmile_qr_scan", "ios": "https://dc.lft.to/lastmile_qr_scan"}, "bike_id": "c43e6310a1c6772a1a79a5dc611729a5"}, {"fusion_lon": 0.0, "is_reserved": 0, "lat": 38.92343116666667, "is_disabled": 0, "type": "electric_scooter", "lon": -77.01918233333333, "fusion_lat": 0.0, "name": "6ba59383e9d4b93c4ae753b5dfa70f3e", "rental_uris": {"android": "https://dc.lft.to/lastmile_qr_scan", "ios": "https://dc.lft.to/lastmile_qr_scan"}, "bike_id": "6ba59383e9d4b93c4ae753b5dfa70f3e"}, {"fusion_lon": 0.0, "is_reserved": 0, "lat": 38.918126666666666, "is_disabled": 0, "type": "electric_scooter", "lon": -77.02474116666667, "fusion_lat": 0.0, "name": "1c871198d710d0dca8d8419d95472967", "rental_uris": {"android": "https://dc.lft.to/lastmile_qr_scan", "ios": "https://dc.lft.to/lastmile_qr_scan"}, "bike_id": "1c871198d710d0dca8d8419d95472967"}, {"fusion_lon": 0.0, "is_reserved": 0, "lat": 38.893625666666665, "is_disabled": 0, "type": "electric_scooter", "lon": -77.02257166666666, "fusion_lat": 0.0, "name": "d235cbdcf251b811115f418d271c3298", "rental_uris": {"android": "https://dc.lft.to/lastmile_qr_scan", "ios": "https://dc.lft.to/lastmile_qr_scan"}, "bike_id": "d235cbdcf251b811115f418d271c3298"}, {"fusion_lon": 0.0, "is_reserved": 0, "lat": 38.92457816666667, "is_disabled": 0, "type": "electric_scooter", "lon": -77.03292833333333, "fusion_lat": 0.0, "name": "a4314e42a6741b476db10af1eae1395e", "rental_uris": {"android": "https://dc.lft.to/lastmile_qr_scan", "ios": "https://dc.lft.to/lastmile_qr_scan"}, "bike_id": "a4314e42a6741b476db10af1eae1395e"}, {"fusion_lon": 0.0, "is_reserved": 0, "lat": 38.90967, "is_disabled": 0, "type": "electric_scooter", "lon": -77.03859416666667, "fusion_lat": 0.0, "name": "5f68423592c4c44f286e8c2ad0941a8e", "rental_uris": {"android": "https://dc.lft.to/lastmile_qr_scan", "ios": "https://dc.lft.to/lastmile_qr_scan"}, "bike_id": "5f68423592c4c44f286e8c2ad0941a8e"}, {"fusion_lon": 0.0, "is_reserved": 0, "lat": 38.92689716666667, "is_disabled": 0, "type": "electric_scooter", "lon": -77.0227755, "fusion_lat": 0.0, "name": "66fbbf1723d17bf5041916c2537e1fde", "rental_uris": {"android": "https://dc.lft.to/lastmile_qr_scan", "ios": "https://dc.lft.to/lastmile_qr_scan"}, "bike_id": "66fbbf1723d17bf5041916c2537e1fde"}, {"fusion_lon": 0.0, "is_reserved": 0, "lat": 38.908697333333336, "is_disabled": 0, "type": "electric_scooter", "lon": -77.0433585, "fusion_lat": 0.0, "name": "40b8a91ad6655cd3937a158b667a2bc9", "rental_uris": {"android": "https://dc.lft.to/lastmile_qr_scan", "ios": "https://dc.lft.to/lastmile_qr_scan"}, "bike_id": "40b8a91ad6655cd3937a158b667a2bc9"}, {"fusion_lon": 0.0, "is_reserved": 0, "lat": 38.9021595, "is_disabled": 0, "type": "electric_scooter", "lon": -77.03772716666667, "fusion_lat": 0.0, "name": "be85cbf2f3b8cd92ec2cd377aed8f14a", "rental_uris": {"android": "https://dc.lft.to/lastmile_qr_scan", "ios": "https://dc.lft.to/lastmile_qr_scan"}, "bike_id": "be85cbf2f3b8cd92ec2cd377aed8f14a"}, {"fusion_lon": 0.0, "is_reserved": 0, "lat": 38.87682616666667, "is_disabled": 0, "type": "electric_scooter", "lon": -77.01758416666667, "fusion_lat": 0.0, "name": "1354b4247ed4a14c62fa2486533de6f0", "rental_uris": {"android": "https://dc.lft.to/lastmile_qr_scan", "ios": "https://dc.lft.to/lastmile_qr_scan"}, "bike_id": "1354b4247ed4a14c62fa2486533de6f0"}, {"fusion_lon": 0.0, "is_reserved": 0, "lat": 38.87294083333333, "is_disabled": 0, "type": "electric_scooter", "lon": -77.0170385, "fusion_lat": 0.0, "name": "27880a1f6bfb7ea91b1da1d5b352bacd", "rental_uris": {"android": "https://dc.lft.to/lastmile_qr_scan", "ios": "https://dc.lft.to/lastmile_qr_scan"}, "bike_id": "27880a1f6bfb7ea91b1da1d5b352bacd"}, {"fusion_lon": 0.0, "is_reserved": 0, "lat": 38.88599583333333, "is_disabled": 0, "type": "electric_scooter", "lon": -76.92507633333334, "fusion_lat": 0.0, "name": "4827938007deefec2ab7c061d020fdc9", "rental_uris": {"android": "https://dc.lft.to/lastmile_qr_scan", "ios": "https://dc.lft.to/lastmile_qr_scan"}, "bike_id": "4827938007deefec2ab7c061d020fdc9"}, {"fusion_lon": 0.0, "is_reserved": 0, "lat": 38.9037775, "is_disabled": 0, "type": "electric_scooter", "lon": -77.03623733333333, "fusion_lat": 0.0, "name": "fff6c4b8e3fc55a455c6e9a0652e988d", "rental_uris": {"android": "https://dc.lft.to/lastmile_qr_scan", "ios": "https://dc.lft.to/lastmile_qr_scan"}, "bike_id": "fff6c4b8e3fc55a455c6e9a0652e988d"}, {"fusion_lon": 0.0, "is_reserved": 0, "lat": 38.905915, "is_disabled": 0, "type": "electric_scooter", "lon": -77.04673983333333, "fusion_lat": 0.0, "name": "522d524b5cc207f894122ff1c85f9c8f", "rental_uris": {"android": "https://dc.lft.to/lastmile_qr_scan", "ios": "https://dc.lft.to/lastmile_qr_scan"}, "bike_id": "522d524b5cc207f894122ff1c85f9c8f"}, {"fusion_lon": 0.0, "is_reserved": 0, "lat": 38.88372366666667, "is_disabled": 0, "type": "electric_scooter", "lon": -76.92628116666667, "fusion_lat": 0.0, "name": "11d39fd34af39cfa509fb9733c7b51cd", "rental_uris": {"android": "https://dc.lft.to/lastmile_qr_scan", "ios": "https://dc.lft.to/lastmile_qr_scan"}, "bike_id": "11d39fd34af39cfa509fb9733c7b51cd"}, {"fusion_lon": 0.0, "is_reserved": 0, "lat": 38.898277666666665, "is_disabled": 0, "type": "electric_scooter", "lon": -77.04677666666667, "fusion_lat": 0.0, "name": "58d8bd8db9cd2c4d7741c71b161f4535", "rental_uris": {"android": "https://dc.lft.to/lastmile_qr_scan", "ios": "https://dc.lft.to/lastmile_qr_scan"}, "bike_id": "58d8bd8db9cd2c4d7741c71b161f4535"}, {"fusion_lon": 0.0, "is_reserved": 0, "lat": 38.933080333333336, "is_disabled": 0, "type": "electric_scooter", "lon": -77.03633216666667, "fusion_lat": 0.0, "name": "366de5e8160cd0e5e04245799be41fee", "rental_uris": {"android": "https://dc.lft.to/lastmile_qr_scan", "ios": "https://dc.lft.to/lastmile_qr_scan"}, "bike_id": "366de5e8160cd0e5e04245799be41fee"}, {"fusion_lon": 0.0, "is_reserved": 0, "lat": 38.927947833333334, "is_disabled": 0, "type": "electric_scooter", "lon": -77.01543516666666, "fusion_lat": 0.0, "name": "d8bd2b6961fc641cf88104d7ff47b386", "rental_uris": {"android": "https://dc.lft.to/lastmile_qr_scan", "ios": "https://dc.lft.to/lastmile_qr_scan"}, "bike_id": "d8bd2b6961fc641cf88104d7ff47b386"}, {"fusion_lon": 0.0, "is_reserved": 0, "lat": 38.9209585, "is_disabled": 0, "type": "electric_scooter", "lon": -77.02324733333333, "fusion_lat": 0.0, "name": "bbee09facbe7ec727552adf9f89107a2", "rental_uris": {"android": "https://dc.lft.to/lastmile_qr_scan", "ios": "https://dc.lft.to/lastmile_qr_scan"}, "bike_id": "bbee09facbe7ec727552adf9f89107a2"}, {"fusion_lon": 0.0, "is_reserved": 0, "lat": 38.92468266666667, "is_disabled": 0, "type": "electric_scooter", "lon": -77.0356215, "fusion_lat": 0.0, "name": "c2aab0e911aa9eee3691b159c4188b14", "rental_uris": {"android": "https://dc.lft.to/lastmile_qr_scan", "ios": "https://dc.lft.to/lastmile_qr_scan"}, "bike_id": "c2aab0e911aa9eee3691b159c4188b14"}, {"fusion_lon": 0.0, "is_reserved": 0, "lat": 38.917033333333336, "is_disabled": 0, "type": "electric_scooter", "lon": -77.02896516666667, "fusion_lat": 0.0, "name": "8d54a57a05ce4a3a5ccab5f7c737dacf", "rental_uris": {"android": "https://dc.lft.to/lastmile_qr_scan", "ios": "https://dc.lft.to/lastmile_qr_scan"}, "bike_id": "8d54a57a05ce4a3a5ccab5f7c737dacf"}, {"fusion_lon": 0.0, "is_reserved": 0, "lat": 38.9004085, "is_disabled": 0, "type": "electric_scooter", "lon": -77.03368316666666, "fusion_lat": 0.0, "name": "b7a82921ca2a3cc316bfd8b81823db23", "rental_uris": {"android": "https://dc.lft.to/lastmile_qr_scan", "ios": "https://dc.lft.to/lastmile_qr_scan"}, "bike_id": "b7a82921ca2a3cc316bfd8b81823db23"}, {"fusion_lon": 0.0, "is_reserved": 0, "lat": 38.888328, "is_disabled": 0, "type": "electric_scooter", "lon": -76.98695633333334, "fusion_lat": 0.0, "name": "544d311f530361c48eed0d7299496af2", "rental_uris": {"android": "https://dc.lft.to/lastmile_qr_scan", "ios": "https://dc.lft.to/lastmile_qr_scan"}, "bike_id": "544d311f530361c48eed0d7299496af2"}, {"fusion_lon": 0.0, "is_reserved": 0, "lat": 38.90266583333333, "is_disabled": 0, "type": "electric_scooter", "lon": -77.03429416666667, "fusion_lat": 0.0, "name": "df933836fede4fcc89378bff8acd5362", "rental_uris": {"android": "https://dc.lft.to/lastmile_qr_scan", "ios": "https://dc.lft.to/lastmile_qr_scan"}, "bike_id": "df933836fede4fcc89378bff8acd5362"}, {"fusion_lon": 0.0, "is_reserved": 0, "lat": 38.90639433333333, "is_disabled": 0, "type": "electric_scooter", "lon": -77.0389815, "fusion_lat": 0.0, "name": "10ed96830310cd8a1f14e031e19589b2", "rental_uris": {"android": "https://dc.lft.to/lastmile_qr_scan", "ios": "https://dc.lft.to/lastmile_qr_scan"}, "bike_id": "10ed96830310cd8a1f14e031e19589b2"}, {"fusion_lon": 0.0, "is_reserved": 0, "lat": 38.90463733333333, "is_disabled": 0, "type": "electric_scooter", "lon": -77.02816816666666, "fusion_lat": 0.0, "name": "9422bd371de1cd0163d248e4c7eafaf0", "rental_uris": {"android": "https://dc.lft.to/lastmile_qr_scan", "ios": "https://dc.lft.to/lastmile_qr_scan"}, "bike_id": "9422bd371de1cd0163d248e4c7eafaf0"}, {"fusion_lon": 0.0, "is_reserved": 0, "lat": 38.94453016666667, "is_disabled": 0, "type": "electric_bike", "lon": -77.06389983333334, "fusion_lat": 0.0, "name": "53eae3079dbc38a9fdb00c9981f6516d", "rental_uris": {"android": "https://dc.lft.to/lastmile_qr_scan", "ios": "https://dc.lft.to/lastmile_qr_scan"}, "bike_id": "53eae3079dbc38a9fdb00c9981f6516d"}, {"fusion_lon": 0.0, "is_reserved": 0, "lat": 38.85788316666667, "is_disabled": 0, "type": "electric_bike", "lon": -77.09951233333334, "fusion_lat": 0.0, "name": "336008c4db3a6a33075c11ea45e2c75e", "rental_uris": {"android": "https://dc.lft.to/lastmile_qr_scan", "ios": "https://dc.lft.to/lastmile_qr_scan"}, "bike_id": "336008c4db3a6a33075c11ea45e2c75e"}, {"fusion_lon": 0.0, "is_reserved": 0, "lat": 38.928235, "is_disabled": 0, "type": "electric_scooter", "lon": -77.023033, "fusion_lat": 0.0, "name": "e6f6ee3ccd31e20f61ceb34e8eb7370d", "rental_uris": {"android": "https://dc.lft.to/lastmile_qr_scan", "ios": "https://dc.lft.to/lastmile_qr_scan"}, "bike_id": "e6f6ee3ccd31e20f61ceb34e8eb7370d"}, {"fusion_lon": 0.0, "is_reserved": 0, "lat": 38.896693166666665, "is_disabled": 0, "type": "electric_scooter", "lon": -77.02315216666666, "fusion_lat": 0.0, "name": "241511f54dbc20e66a0e53f477ee19d4", "rental_uris": {"android": "https://dc.lft.to/lastmile_qr_scan", "ios": "https://dc.lft.to/lastmile_qr_scan"}, "bike_id": "241511f54dbc20e66a0e53f477ee19d4"}, {"fusion_lon": 0.0, "is_reserved": 0, "lat": 38.903148, "is_disabled": 0, "type": "electric_scooter", "lon": -77.03447883333334, "fusion_lat": 0.0, "name": "9c4831e60c71acf8a111d20775d70867", "rental_uris": {"android": "https://dc.lft.to/lastmile_qr_scan", "ios": "https://dc.lft.to/lastmile_qr_scan"}, "bike_id": "9c4831e60c71acf8a111d20775d70867"}, {"fusion_lon": 0.0, "is_reserved": 0, "lat": 38.896172166666666, "is_disabled": 0, "type": "electric_bike", "lon": -76.90739633333334, "fusion_lat": 0.0, "name": "2527fb29ce183cbde4d0b47c8232c044", "rental_uris": {"android": "https://dc.lft.to/lastmile_qr_scan", "ios": "https://dc.lft.to/lastmile_qr_scan"}, "bike_id": "2527fb29ce183cbde4d0b47c8232c044"}, {"fusion_lon": 0.0, "is_reserved": 0, "lat": 38.902528833333335, "is_disabled": 0, "type": "electric_scooter", "lon": -77.0451225, "fusion_lat": 0.0, "name": "f6cb4a7066edbe58b6e93a1733d20238", "rental_uris": {"android": "https://dc.lft.to/lastmile_qr_scan", "ios": "https://dc.lft.to/lastmile_qr_scan"}, "bike_id": "f6cb4a7066edbe58b6e93a1733d20238"},