{"data": {"bikes": [{"rental_uris": {"android": "https://dc.lft.to/lastmile_qr_scan", "ios": "https://dc.lft.to/lastmile_qr_scan"}, "fusion_lat": 0.0, "is_reserved": 0, "lat": 38.880821833333336, "name": "a4eb2fc2361ea4f43cb097423318c11d", "bike_id": "a4eb2fc2361ea4f43cb097423318c11d", "is_disabled": 0, "fusion_lon": 0.0, "type": "electric_scooter", "lon": -76.98532716666666}, {"rental_uris": {"android": "https://dc.lft.to/lastmile_qr_scan", "ios": "https://dc.lft.to/lastmile_qr_scan"}, "fusion_lat": 0.0, "is_reserved": 0, "lat": 38.90209466666667, "name": "a1a30306e7af635019f435f7c5aad01b", "bike_id": "a1a30306e7af635019f435f7c5aad01b", "is_disabled": 0, "fusion_lon": 0.0, "type": "electric_scooter", "lon": -77.02100116666666}, {"rental_uris": {"android": "https://dc.lft.to/lastmile_qr_scan", "ios": "https://dc.lft.to/lastmile_qr_scan"}, "fusion_lat": 0.0, "is_reserved": 0, "lat": 38.910246666666666, "name": "a58fa28ed901f533f1c09b3698b2c3a0", "bike_id": "a58fa28ed901f533f1c09b3698b2c3a0", "is_disabled": 0, "fusion_lon": 0.0, "type": "electric_scooter", "lon": -77.04163516666667}, {"rental_uris": {"android": "https://dc.lft.to/lastmile_qr_scan", "ios": "https://dc.lft.to/lastmile_qr_scan"}, "fusion_lat": 0.0, "is_reserved": 0, "lat": 38.908285666666664, "name": "5d93b44eb707827531b223b6c31645da", "bike_id": "5d93b44eb707827531b223b6c31645da", "is_disabled": 0, "fusion_lon": 0.0, "type": "electric_scooter", "lon": -77.00356316666667}, {"rental_uris": {"android": "https://dc.lft.to/lastmile_qr_scan", "ios": "https://dc.lft.to/lastmile_qr_scan"}, "fusion_lat": 0.0, "is_reserved": 0, "lat": 38.907004, "name": "6ee39141cfa76bdc6bbb50e8c4636ab6", "bike_id": "6ee39141cfa76bdc6bbb50e8c4636ab6", "is_disabled": 0, "fusion_lon": 0.0, "type": "electric_scooter", "lon": -77.03593366666666}, {"rental_uris": {"android": "https://dc.lft.to/lastmile_qr_scan", "ios": "https://dc.lft.to/lastmile_qr_scan"}, "fusion_lat": 0.0, "is_reserved": 0, "lat": 38.906793666666665, "name": "7e30d416ad2dc190f80b113c6978bca8", "bike_id": "7e30d416ad2dc190f80b113c6978bca8", "is_disabled": 0, "fusion_lon": 0.0, "type": "electric_scooter", "lon": -77.026934}, {"rental_uris": {"android": "https://dc.lft.to/lastmile_qr_scan", "ios": "https://dc.lft.to/lastmile_qr_scan"}, "fusion_lat": 0.0, "is_reserved": 0, "lat": 38.90151133333333, "name": "0b35c2934088550a8d96596eaaaac0fe", "bike_id": "0b35c2934088550a8d96596eaaaac0fe", "is_disabled": 0, "fusion_lon": 0.0, "type": "electric_scooter", "lon": -77.02479466666666}, {"rental_uris": {"android": "https://dc.lft.to/lastmile_qr_scan", "ios": "https://dc.lft.to/lastmile_qr_scan"}, "fusion_lat": 0.0, "is_reserved": 0, "lat": 38.912635, "name": "f934d66750f51e1a0d32e48df6392e88", "bike_id": "f934d66750f51e1a0d32e48df6392e88", "is_disabled": 0, "fusion_lon": 0.0, "type": "electric_scooter", "lon": -77.0393215}, {"rental_uris": {"android": "https://dc.lft.to/lastmile_qr_scan", "ios": "https://dc.lft.to/lastmile_qr_scan"}, "fusion_lat": 0.0, "is_reserved": 0, "lat": 38.882696333333335, "name": "30f9af0a1b94a082f823ae27efe965c8", "bike_id": "30f9af0a1b94a082f823ae27efe965c8", "is_disabled": 0, "fusion_lon": 0.0, "type": "electric_scooter", "lon": -76.99469366666666}, {"rental_uris": {"android": "https://dc.lft.to/lastmile_qr_scan", "ios": "https://dc.lft.to/lastmile_qr_scan"}, "fusion_lat": 0.0, "is_reserved": 0, "lat": 38.900155166666664, "name": "58c65f9313b2089157a954b90a9d1282", "bike_id": "58c65f9313b2089157a954b90a9d1282", "is_disabled": 0, "fusion_lon": 0.0, "type": "electric_scooter", "lon": -77.01211966666666}, {"rental_uris": {"android": "https://dc.lft.to/lastmile_qr_scan", "ios": "https://dc.lft.to/lastmile_qr_scan"}, "fusion_lat": 0.0, "is_reserved": 0, "lat": 38.91762383333333, "name": "d2bab3849035f6a906ef24926bb23c51", "bike_id": "d2bab3849035f6a906ef24926bb23c51", "is_disabled": 0, "fusion_lon": 0.0, "type": "electric_scooter", "lon": -77.01917066666667}, {"rental_uris": {"android": "https://dc.lft.to/lastmile_qr_scan", "ios": "https://dc.lft.to/lastmile_qr_scan"}, "fusion_lat": 0.0, "is_reserved": 0, "lat": 38.910748, "name": "6e23df65cf574ee1f6597aff23d57286", "bike_id": "6e23df65cf574ee1f6597aff23d57286", "is_disabled": 0, "fusion_lon": 0.0, "type": "electric_scooter", "lon": -77.04605083333334}, {"rental_uris": {"android": "https://dc.lft.to/lastmile_qr_scan", "ios": "https://dc.lft.to/lastmile_qr_scan"}, "fusion_lat": 0.0, "is_reserved": 0, "lat": 38.919967666666665, "name": "69a32da556b6c6f389f911afcc925ed4", "bike_id": "69a32da556b6c6f389f911afcc925ed4", "is_disabled": 0, "fusion_lon": 0.0, "type": "electric_scooter", "lon": -77.03221433333333}, {"rental_uris": {"android": "https://dc.lft.to/lastmile_qr_scan", "ios": "https://dc.lft.to/lastmile_qr_scan"}, "fusion_lat": 0.0, "is_reserved": 0, "lat": 38.905499166666665, "name": "2ae7d7b3e94fd6b93f0847f9143e0e96", "bike_id": "2ae7d7b3e94fd6b93f0847f9143e0e96", "is_disabled": 0, "fusion_lon": 0.0, "type": "electric_scooter", "lon": -77.03440183333333}, {"rental_uris": {"android": "https://dc.lft.to/lastmile_qr_scan", "ios": "https://dc.lft.to/lastmile_qr_scan"}, "fusion_lat": 0.0, "is_reserved": 0, "lat": 38.969348333333336, "name": "f0a2b26e7bf54b58b9a73717affc7616", "bike_id": "f0a2b26e7bf54b58b9a73717affc7616", "is_disabled": 0, "fusion_lon": 0.0, "type": "electric_scooter", "lon": -77.02708866666667}, {"rental_uris": {"android": "https://dc.lft.to/lastmile_qr_scan", "ios": "https://dc.lft.to/lastmile_qr_scan"}, "fusion_lat": 0.0, "is_reserved": 0, "lat": 38.90721083333333, "name": "d31bffd1ca25c6087d8f24994c2f345d", "bike_id": "d31bffd1ca25c6087d8f24994c2f345d", "is_disabled": 0, "fusion_lon": 0.0, "type": "electric_scooter", "lon": -77.02681483333333}, {"rental_uris": {"android": "https://dc.lft.to/lastmile_qr_scan", "ios": "https://dc.lft.to/lastmile_qr_scan"}, "fusion_lat": 0.0, "is_reserved": 0, "lat": 38.92672366666667, "name": "2bb33258003c4808466587ef88580e19", "bike_id": "2bb33258003c4808466587ef88580e19", "is_disabled": 0, "fusion_lon": 0.0, "type": "electric_scooter", "lon": -77.015149}, {"rental_uris": {"android": "https://dc.lft.to/lastmile_qr_scan", "ios": "https://dc.lft.to/lastmile_qr_scan"}, "fusion_lat": 0.0, "is_reserved": 0, "lat": 38.935916, "name": "a98f95566c1e80e1d0a2cea95869e174", "bike_id": "a98f95566c1e80e1d0a2cea95869e174", "is_disabled": 0, "fusion_lon": 0.0, "type": "electric_scooter", "lon": -77.0587215}, {"rental_uris": {"android": "https://dc.lft.to/lastmile_qr_scan", "ios": "https://dc.lft.to/lastmile_qr_scan"}, "fusion_lat": 0.0, "is_reserved": 0, "lat": 38.91546183333333, "name": "8019c835d560b51a9c122c88d8a9a898", "bike_id": "8019c835d560b51a9c122c88d8a9a898", "is_disabled": 0, "fusion_lon": 0.0, "type": "electric_scooter", "lon": -77.029669}, {"rental_uris": {"android": "https://dc.lft.to/lastmile_qr_scan", "ios": "https://dc.lft.to/lastmile_qr_scan"}, "fusion_lat": 0.0, "is_reserved": 0, "lat": 38.9013065, "name": "2a31d67ba2bbec6b63fb364067ebd80c", "bike_id": "2a31d67ba2bbec6b63fb364067ebd80c", "is_disabled": 0, "fusion_lon": 0.0, "type": "electric_scooter", "lon": -77.03047516666666}, {"rental_uris": {"android": "https://dc.lft.to/lastmile_qr_scan", "ios": "https://dc.lft.to/lastmile_qr_scan"}, "fusion_lat": 0.0, "is_reserved": 0, "lat": 38.94915816666666, "name": "957cc629c988e9836b37f6a00ef68cce", "bike_id": "957cc629c988e9836b37f6a00ef68cce", "is_disabled": 0, "fusion_lon": 0.0, "type": "electric_scooter", "lon": -77.02072866666667}, {"rental_uris": {"android": "https://dc.lft.to/lastmile_qr_scan", "ios": "https://dc.lft.to/lastmile_qr_scan"}, "fusion_lat": 0.0, "is_reserved": 0, "lat": 38.90810066666667, "name": "170cf6f20c2096d16aa34b4e2e510536", "bike_id": "170cf6f20c2096d16aa34b4e2e510536", "is_disabled": 0, "fusion_lon": 0.0, "type": "electric_scooter", "lon": -77.04212866666667}, {"rental_uris": {"android": "https://dc.lft.to/lastmile_qr_scan", "ios": "https://dc.lft.to/lastmile_qr_scan"}, "fusion_lat": 0.0, "is_reserved": 0, "lat": 38.91964016666667, "name": "7b3c0142672f1f68a74065b46c19c38a", "bike_id": "7b3c0142672f1f68a74065b46c19c38a", "is_disabled": 0, "fusion_lon": 0.0, "type": "electric_scooter", "lon": -76.99191866666666}, {"rental_uris": {"android": "https://dc.lft.to/lastmile_qr_scan", "ios": "https://dc.lft.to/lastmile_qr_scan"}, "fusion_lat": 0.0, "is_reserved": 0, "lat": 38.938547666666665, "name": "7732635bc1ce5b31823d29d804d412a3", "bike_id": "7732635bc1ce5b31823d29d804d412a3", "is_disabled": 0, "fusion_lon": 0.0, "type": "electric_scooter", "lon": -77.02471616666666}, {"rental_uris": {"android": "https://dc.lft.to/lastmile_qr_scan", "ios": "https://dc.lft.to/lastmile_qr_scan"}, "fusion_lat": 0.0, "is_reserved": 0, "lat": 38.80453, "name": "9d0df47ee3b579ebe5f7670ac4edea10", "bike_id": "9d0df47ee3b579ebe5f7670ac4edea10", "is_disabled": 0, "fusion_lon": 0.0, "type": "electric_bike", "lon": -77.13227183333333}, {"rental_uris": {"android": "https://dc.lft.to/lastmile_qr_scan", "ios": "https://dc.lft.to/lastmile_qr_scan"}, "fusion_lat": 0.0, "is_reserved": 0, "lat": 38.930861166666666, "name": "1a8c793f686d5344bf58d5789427feed", "bike_id": "1a8c793f686d5344bf58d5789427feed", "is_disabled": 0, "fusion_lon": 0.0, "type": "electric_scooter", "lon": -77.03768583333333}, {"rental_uris": {"android": "https://dc.lft.to/lastmile_qr_scan", "ios": "https://dc.lft.to/lastmile_qr_scan"}, "fusion_lat": 0.0, "is_reserved": 0, "lat": 38.920270333333335, "name": "ac7d835433a0e7ac0df25c4ae7d5d5d8", "bike_id": "ac7d835433a0e7ac0df25c4ae7d5d5d8", "is_disabled": 0, "fusion_lon": 0.0, "type": "electric_scooter", "lon": -77.02798366666667}, {"rental_uris": {"android": "https://dc.lft.to/lastmile_qr_scan", "ios": "https://dc.lft.to/lastmile_qr_scan"}, "fusion_lat": 0.0, "is_reserved": 0, "lat": 38.896237, "name": "6b6a6114f26e27e07a31657f1ad97e87", "bike_id": "6b6a6114f26e27e07a31657f1ad97e87", "is_disabled": 0, "fusion_lon": 0.0, "type": "electric_scooter", "lon": -77.02588866666666}, {"rental_uris": {"android": "https://dc.lft.to/lastmile_qr_scan", "ios": "https://dc.lft.to/lastmile_qr_scan"}, "fusion_lat": 0.0, "is_reserved": 0, "lat": 38.88838666666667, "name": "e0ad972d8f1a7a1345e63dd63d1df9e7", "bike_id": "e0ad972d8f1a7a1345e63dd63d1df9e7", "is_disabled": 0, "fusion_lon": 0.0, "type": "electric_scooter", "lon": -76.9868715}, {"rental_uris": {"android": "https://dc.lft.to/lastmile_qr_scan", "ios": "https://dc.lft.to/lastmile_qr_scan"}, "fusion_lat": 0.0, "is_reserved": 0, "lat": 38.928771833333336, "name": "271201237a12ecb44ea48261cb29727b", "bike_id": "271201237a12ecb44ea48261cb29727b", "is_disabled": 0, "fusion_lon": 0.0, "type": "electric_scooter", "lon": -77.0270775}, {"rental_uris": {"android": "https://dc.lft.to/lastmile_qr_scan", "ios": "https://dc.lft.to/lastmile_qr_scan"}, "fusion_lat": 0.0, "is_reserved": 0, "lat": 38.901650833333335, "name": "0ec8c20f01efd8651c18c16a937140ce", "bike_id": "0ec8c20f01efd8651c18c16a937140ce", "is_disabled": 0, "fusion_lon": 0.0, "type": "electric_scooter", "lon": -77.03178783333334}, {"rental_uris": {"android": "https://dc.lft.to/lastmile_qr_scan", "ios": "https://dc.lft.to/lastmile_qr_scan"}, "fusion_lat": 0.0, "is_reserved": 0, "lat": 38.92208266666667, "name": "02fa01bbebabba69c4610427f5c9b2fa", "bike_id": "02fa01bbebabba69c4610427f5c9b2fa", "is_disabled": 0, "fusion_lon": 0.0, "type": "electric_scooter", "lon": -77.0203445}, {"rental_uris": {"android": "https://dc.lft.to/lastmile_qr_scan", "ios": "https://dc.lft.to/lastmile_qr_scan"}, "fusion_lat": 0.0, "is_reserved": 0, "lat": 38.92386033333333, "name": "496c624d16c64f3289fead39e6278d3a", "bike_id": "496c624d16c64f3289fead39e6278d3a", "is_disabled": 0, "fusion_lon": 0.0, "type": "electric_scooter", "lon": -77.03658966666667}, {"rental_uris": {"android": "https://dc.lft.to/lastmile_qr_scan", "ios": "https://dc.lft.to/lastmile_qr_scan"}, "fusion_lat": 0.0, "is_reserved": 0, "lat": 38.92667016666667, "name": "bca374bd7ddec4f158d25cbb1d639000", "bike_id": "bca374bd7ddec4f158d25cbb1d639000", "is_disabled": 0, "fusion_lon": 0.0, "type": "electric_scooter", "lon": -77.02880416666666}, {"rental_uris": {"android": "https://dc.lft.to/lastmile_qr_scan", "ios": "https://dc.lft.to/lastmile_qr_scan"}, "fusion_lat": 0.0, "is_reserved": 0, "lat": 38.923349, "name": "8335729ba091b44a64a161037f04caeb", "bike_id": "8335729ba091b44a64a161037f04caeb", "is_disabled": 0, "fusion_lon": 0.0, "type": "electric_scooter", "lon": -77.03546466666667}, {"rental_uris": {"android": "https://dc.lft.to/lastmile_qr_scan", "ios": "https://dc.lft.to/lastmile_qr_scan"}, "fusion_lat": 0.0, "is_reserved": 0, "lat": 38.92029083333333, "name": "c0f2d1ede6ca0173f182768e72433418", "bike_id": "c0f2d1ede6ca0173f182768e72433418", "is_disabled": 0, "fusion_lon": 0.0, "type": "electric_scooter", "lon": -77.0308275}, {"rental_uris": {"android": "https://dc.lft.to/lastmile_qr_scan", "ios": "https://dc.lft.to/lastmile_qr_scan"}, "fusion_lat": 0.0, "is_reserved": 0, "lat": 38.90026316666667, "name": "f779735bbcc80cb7ce5114c8b00b15f4", "bike_id": "f779735bbcc80cb7ce5114c8b00b15f4", "is_disabled": 0, "fusion_lon": 0.0, "type": "electric_scooter", "lon": -77.01639033333333}, {"rental_uris": {"android": "https://dc.lft.to/lastmile_qr_scan", "ios": "https://dc.lft.to/lastmile_qr_scan"}, "fusion_lat": 0.0, "is_reserved": 0, "lat": 38.908378666666664, "name": "f4e2b3022d8884293b4eb445f400e25b", "bike_id": "f4e2b3022d8884293b4eb445f400e25b", "is_disabled": 0, "fusion_lon": 0.0, "type": "electric_scooter", "lon": -77.00214533333333}, {"rental_uris": {"android": "https://dc.lft.to/lastmile_qr_scan", "ios": "https://dc.lft.to/lastmile_qr_scan"}, "fusion_lat": 0.0, "is_reserved": 0, "lat": 38.921898, "name": "9d5869ef3a2ff48a092d2ff87c8c7857", "bike_id": "9d5869ef3a2ff48a092d2ff87c8c7857", "is_disabled": 0, "fusion_lon": 0.0, "type": "electric_scooter", "lon": -76.996282}, {"rental_uris": {"android": "https://dc.lft.to/lastmile_qr_scan", "ios": "https://dc.lft.to/lastmile_qr_scan"}, "fusion_lat": 0.0, "is_reserved": 0, "lat": 38.894848, "name": "fcad2ab668114105518b2c476742966b", "bike_id": "fcad2ab668114105518b2c476742966b", "is_disabled": 0, "fusion_lon": 0.0, "type": "electric_scooter", "lon": -76.98007266666667}, {"rental_uris": {"android": "https://dc.lft.to/lastmile_qr_scan", "ios": "https://dc.lft.to/lastmile_qr_scan"}, "fusion_lat": 0.0, "is_reserved": 0, "lat": 38.9389505, "name": "40050d41cd8d5349cc58abc65e4d1a28", "bike_id": "40050d41cd8d5349cc58abc65e4d1a28", "is_disabled": 0, "fusion_lon": 0.0, "type": "electric_scooter", "lon": -77.0331595}, {"rental_uris": {"android": "https://dc.lft.to/lastmile_qr_scan", "ios": "https://dc.lft.to/lastmile_qr_scan"}, "fusion_lat": 0.0, "is_reserved": 0, "lat": 38.885121166666664, "name": "2b1683e4cc2a4aa3c4a82b2f3c81e611", "bike_id": "2b1683e4cc2a4aa3c4a82b2f3c81e611", "is_disabled": 0, "fusion_lon": 0.0, "type": "electric_scooter", "lon": -77.011166}, {"rental_uris": {"android": "https://dc.lft.to/lastmile_qr_scan", "ios": "https://dc.lft.to/lastmile_qr_scan"}, "fusion_lat": 0.0, "is_reserved": 0, "lat": 38.93106083333333, "name": "e012f3b28fabf3606358294d683cc950", "bike_id": "e012f3b28fabf3606358294d683cc950", "is_disabled": 0, "fusion_lon": 0.0, "type": "electric_scooter", "lon": -77.02478116666667}, {"rental_uris": {"android": "https://dc.lft.to/lastmile_qr_scan", "ios": "https://dc.lft.to/lastmile_qr_scan"}, "fusion_lat": 0.0, "is_reserved": 0, "lat": 38.92379066666667, "name": "8263bd8b9d8ca6a474ce3348dd376423", "bike_id": "8263bd8b9d8ca6a474ce3348dd376423", "is_disabled": 0, "fusion_lon": 0.0, "type": "electric_scooter", "lon": -77.05186233333333}, {"rental_uris": {"android": "https://dc.lft.to/lastmile_qr_scan", "ios": "https://dc.lft.to/lastmile_qr_scan"}, "fusion_lat": 0.0, "is_reserved": 0, "lat": 38.9039605, "name": "58c66b6efcef9e99ce8699056af05551", "bike_id": "58c66b6efcef9e99ce8699056af05551", "is_disabled": 0, "fusion_lon": 0.0, "type": "electric_scooter", "lon": -77.06296266666666}, {"rental_uris": {"android": "https://dc.lft.to/lastmile_qr_scan", "ios": "https://dc.lft.to/lastmile_qr_scan"}, "fusion_lat": 0.0, "is_reserved": 0, "lat": 38.8921485, "name": "9e91ca2d0e09154aa4ea6a8df9dd460a", "bike_id": "9e91ca2d0e09154aa4ea6a8df9dd460a", "is_disabled": 0, "fusion_lon": 0.0, "type": "electric_scooter", "lon": -76.99488216666667}, {"rental_uris": {"android": "https://dc.lft.to/lastmile_qr_scan", "ios": "https://dc.lft.to/lastmile_qr_scan"}, "fusion_lat": 0.0, "is_reserved": 0, "lat": 38.94172116666667, "name": "fcf16fc918084748149561a67cf83064", "bike_id": "fcf16fc918084748149561a67cf83064", "is_disabled": 0, "fusion_lon": 0.0, "type": "electric_scooter", "lon": -77.02332166666666}, {"rental_uris": {"android": "https://dc.lft.to/lastmile_qr_scan", "ios": "https://dc.lft.to/lastmile_qr_scan"}, "fusion_lat": 0.0, "is_reserved": 0, "lat": 38.90620883333333, "name": "b4cc8326d0482860fc015100cd7bbf7a", "bike_id": "b4cc8326d0482860fc015100cd7bbf7a", "is_disabled": 0, "fusion_lon": 0.0, "type": "electric_scooter", "lon": -76.95004333333333}, {"rental_uris": {"android": "https://dc.lft.to/lastmile_qr_scan", "ios": "https://dc.lft.to/lastmile_qr_scan"}, "fusion_lat": 0.0, "is_reserved": 0, "lat": 38.83140133333333, "name": "27f5ffcb84c50843c1b78b2cbc402148", "bike_id": "27f5ffcb84c50843c1b78b2cbc402148", "is_disabled": 0, "fusion_lon": 0.0, "type": "electric_bike", "lon": -77.113443}, {"rental_uris": {"android": "https://dc.lft.to/lastmile_qr_scan", "ios": "https://dc.lft.to/lastmile_qr_scan"}, "fusion_lat": 0.0, "is_reserved": 0, "lat": 38.9066885, "name": "b095d5292594ae50d75b63972d140a9a", "bike_id": "b095d5292594ae50d75b63972d140a9a", "is_disabled": 0, "fusion_lon": 0.0, "type": "electric_scooter", "lon": -77.02713733333333}, {"rental_uris": {"android": "https://dc.lft.to/lastmile_qr_scan", "ios": "https://dc.lft.to/lastmile_qr_scan"}, "fusion_lat": 0.0, "is_reserved": 0, "lat": 38.92666066666666, "name": "1033901504508d845c10df6abd78f656", "bike_id": "1033901504508d845c10df6abd78f656", "is_disabled": 0, "fusion_lon": 0.0, "type": "electric_scooter", "lon": -77.02276166666667}, {"rental_uris": {"android": "https://dc.lft.to/lastmile_qr_scan", "ios": "https://dc.lft.to/lastmile_qr_scan"}, "fusion_lat": 0.0, "is_reserved": 0, "lat": 38.90796233333333, "name": "1ae68cf53fd4eaf9d35df6f1e7bfa627", "bike_id": "1ae68cf53fd4eaf9d35df6f1e7bfa627", "is_disabled": 0, "fusion_lon": 0.0, "type": "electric_scooter", "lon": -77.064471}, {"rental_uris": {"android": "https://dc.lft.to/lastmile_qr_scan", "ios": "https://dc.lft.to/lastmile_qr_scan"}, "fusion_lat": 0.0, "is_reserved": 0, "lat": 38.897205666666665, "name": "a878766eaaaccd917b8c245baa4b7b41", "bike_id": "a878766eaaaccd917b8c245baa4b7b41", "is_disabled": 0, "fusion_lon": 0.0, "type": "electric_scooter", "lon": -77.007939}, {"rental_uris": {"android": "https://dc.lft.to/lastmile_qr_scan", "ios": "https://dc.lft.to/lastmile_qr_scan"}, "fusion_lat": 0.0, "is_reserved": 0, "lat": 38.9345715, "name": "3c60ba97a05a6157c1b2442edd790b8a", "bike_id": "3c60ba97a05a6157c1b2442edd790b8a", "is_disabled": 0, "fusion_lon": 0.0, "type": "electric_scooter", "lon": -77.072386}, {"rental_uris": {"android": "https://dc.lft.to/lastmile_qr_scan", "ios": "https://dc.lft.to/lastmile_qr_scan"}, "fusion_lat": 0.0, "is_reserved": 0, "lat": 38.924201333333336, "name": "cb1a03d7f72e778b0e53ed8327ea695f", "bike_id": "cb1a03d7f72e778b0e53ed8327ea695f", "is_disabled": 0, "fusion_lon": 0.0, "type": "electric_scooter", "lon": -77.01949466666667}, {"rental_uris": {"android": "https://dc.lft.to/lastmile_qr_scan", "ios": "https://dc.lft.to/lastmile_qr_scan"}, "fusion_lat": 0.0, "is_reserved": 0, "lat": 38.90589533333333, "name": "a5c6b83b6ef0b2ee1f31331c7cda9bfc", "bike_id": "a5c6b83b6ef0b2ee1f31331c7cda9bfc", "is_disabled": 0, "fusion_lon": 0.0, "type": "electric_scooter", "lon": -77.01615183333334}, {"rental_uris": {"android": "https://dc.lft.to/lastmile_qr_scan", "ios": "https://dc.lft.to/lastmile_qr_scan"}, "fusion_lat": 0.0, "is_reserved": 0, "lat": 38.9069415, "name": "3053a9bce7cd75160b92cf44f9543649", "bike_id": "3053a9bce7cd75160b92cf44f9543649", "is_disabled": 0, "fusion_lon": 0.0, "type": "electric_scooter", "lon": -77.0297735}, {"rental_uris": {"android": "https://dc.lft.to/lastmile_qr_scan", "ios": "https://dc.lft.to/lastmile_qr_scan"}, "fusion_lat": 0.0, "is_reserved": 0, "lat": 38.9268935, "name": "c0bfd64abb04ef6cebcaa570512f9f68", "bike_id": "c0bfd64abb04ef6cebcaa570512f9f68", "is_disabled": 0, "fusion_lon": 0.0, "type": "electric_scooter", "lon": -77.02962916666667}, {"rental_uris": {"android": "https://dc.lft.to/lastmile_qr_scan", "ios": "https://dc.lft.to/lastmile_qr_scan"}, "fusion_lat": 0.0, "is_reserved": 0, "lat": 38.89730016666667, "name": "5e1879c765edcacbc8f6c6b91e13b072", "bike_id": "5e1879c765edcacbc8f6c6b91e13b072", "is_disabled": 0, "fusion_lon": 0.0, "type": "electric_scooter", "lon": -77.05521383333334}, {"rental_uris": {"android": "https://dc.lft.to/lastmile_qr_scan", "ios": "https://dc.lft.to/lastmile_qr_scan"}, "fusion_lat": 0.0, "is_reserved": 0, "lat": 38.9207335, "name": "8066b6d56336cdf208bda1fe816b1be4", "bike_id": "8066b6d56336cdf208bda1fe816b1be4", "is_disabled": 0, "fusion_lon": 0.0, "type": "electric_scooter", "lon": -77.03452583333333}, {"rental_uris": {"android": "https://dc.lft.to/lastmile_qr_scan", "ios": "https://dc.lft.to/lastmile_qr_scan"}, "fusion_lat": 0.0, "is_reserved": 0, "lat": 38.904812166666666, "name": "e9a44f24fa2857358af98c12bed58a4a", "bike_id": "e9a44f24fa2857358af98c12bed58a4a", "is_disabled": 0, "fusion_lon": 0.0, "type": "electric_scooter", "lon": -77.0418065}, {"rental_uris": {"android": "https://dc.lft.to/lastmile_qr_scan", "ios": "https://dc.lft.to/lastmile_qr_scan"}, "fusion_lat": 0.0, "is_reserved": 0, "lat": 38.90798133333333, "name": "69fba84901a81af1c0460ba034f1c9c6", "bike_id": "69fba84901a81af1c0460ba034f1c9c6", "is_disabled": 0, "fusion_lon": 0.0, "type": "electric_scooter", "lon": -77.03194866666666}, {"rental_uris": {"android": "https://dc.lft.to/lastmile_qr_scan", "ios": "https://dc.lft.to/lastmile_qr_scan"}, "fusion_lat": 0.0, "is_reserved": 0, "lat": 38.887972, "name": "f2d45059cd646557e89536458f91cf16", "bike_id": "f2d45059cd646557e89536458f91cf16", "is_disabled": 0, "fusion_lon": 0.0, "type": "electric_scooter", "lon": -76.9771075}, {"rental_uris": {"android": "https://dc.lft.to/lastmile_qr_scan", "ios": "https://dc.lft.to/lastmile_qr_scan"}, "fusion_lat": 0.0, "is_reserved": 0, "lat": 38.923953, "name": "66b1971898db8925757edc292c9f17f0", "bike_id": "66b1971898db8925757edc292c9f17f0", "is_disabled": 0, "fusion_lon": 0.0, "type": "electric_scooter", "lon": -77.0340055}, {"rental_uris": {"android": "https://dc.lft.to/lastmile_qr_scan", "ios": "https://dc.lft.to/lastmile_qr_scan"}, "fusion_lat": 0.0, "is_reserved": 0, "lat": 38.87300833333333, "name": "8019ec29931f81124aa5a1a875ba7427", "bike_id": "8019ec29931f81124aa5a1a875ba7427", "is_disabled": 0, "fusion_lon": 0.0, "type": "electric_scooter", "lon": -77.01559883333333}, {"rental_uris": {"android": "https://dc.lft.to/lastmile_qr_scan", "ios": "https://dc.lft.to/lastmile_qr_scan"}, "fusion_lat": 0.0, "is_reserved": 0, "lat": 38.88285483333333, "name": "4375ea65f5c5332f2d370bc97cb8f74e", "bike_id": "4375ea65f5c5332f2d370bc97cb8f74e", "is_disabled": 0, "fusion_lon": 0.0, "type": "electric_bike", "lon": -77.111688}, {"rental_uris": {"android": "https://dc.lft.to/lastmile_qr_scan", "ios": "https://dc.lft.to/lastmile_qr_scan"}, "fusion_lat": 0.0, "is_reserved": 0, "lat": 38.95576633333334, "name": "473f724f753149731dd23a29ba45b660", "bike_id": "473f724f753149731dd23a29ba45b660", "is_disabled": 0, "fusion_lon": 0.0, "type": "electric_scooter", "lon": -77.07010116666666}, {"rental_uris": {"android": "https://dc.lft.to/lastmile_qr_scan", "ios": "https://dc.lft.to/lastmile_qr_scan"}, "fusion_lat": 0.0, "is_reserved": 0, "lat": 38.909923666666664, "name": "bac29de3f6c662a38be9cb1030172438", "bike_id": "bac29de3f6c662a38be9cb1030172438", "is_disabled": 0, "fusion_lon": 0.0, "type": "electric_scooter", "lon": -77.02382616666667}, {"rental_uris": {"android": "https://dc.lft.to/lastmile_qr_scan", "ios": "https://dc.lft.to/lastmile_qr_scan"}, "fusion_lat": 0.0, "is_reserved": 0, "lat": 38.9038165, "name": "6b06425ffd90e720f0c701face999bc7", "bike_id": "6b06425ffd90e720f0c701face999bc7", "is_disabled": 0, "fusion_lon": 0.0, "type": "electric_scooter", "lon": -77.03673566666667}, {"rental_uris": {"android": "https://dc.lft.to/lastmile_qr_scan", "ios": "https://dc.lft.to/lastmile_qr_scan"}, "fusion_lat": 0.0, "is_reserved": 0, "lat": 38.91271916666667, "name": "cf348aedad36dadb6972f979ac960e7d", "bike_id": "cf348aedad36dadb6972f979ac960e7d", "is_disabled": 0, "fusion_lon": 0.0, "type": "electric_scooter", "lon": -77.02211583333333}, {"rental_uris": {"android": "https://dc.lft.to/lastmile_qr_scan", "ios": "https://dc.lft.to/lastmile_qr_scan"}, "fusion_lat": 0.0, "is_reserved": 0, "lat": 38.92793733333333, "name": "89ac6e8207b0a33c2b764a44c846cbbe", "bike_id": "89ac6e8207b0a33c2b764a44c846cbbe", "is_disabled": 0, "fusion_lon": 0.0, "type": "electric_scooter", "lon": -77.053315}, {"rental_uris": {"android": "https://dc.lft.to/lastmile_qr_scan", "ios": "https://dc.lft.to/lastmile_qr_scan"}, "fusion_lat": 0.0, "is_reserved": 0, "lat": 38.95212866666667, "name": "0bcbfbec05c133bd3901d881d39d1c70", "bike_id": "0bcbfbec05c133bd3901d881d39d1c70", "is_disabled": 0, "fusion_lon": 0.0, "type": "electric_bike", "lon": -77.017466}, {"rental_uris": {"android": "https://dc.lft.to/lastmile_qr_scan", "ios": "https://dc.lft.to/lastmile_qr_scan"}, "fusion_lat": 0.0, "is_reserved": 0, "lat": 38.886926833333334, "name": "494d58d18404b2dbedc18c13413fbf68", "bike_id": "494d58d18404b2dbedc18c13413fbf68", "is_disabled": 0, "fusion_lon": 0.0, "type": "electric_scooter", "lon": -76.97631616666666}, {"rental_uris": {"android": "https://dc.lft.to/lastmile_qr_scan", "ios": "https://dc.lft.to/lastmile_qr_scan"}, "fusion_lat": 0.0, "is_reserved": 0, "lat": 38.93193016666667, "name": "5057ebd5d45f983ddc6ff18733773c1d", "bike_id": "5057ebd5d45f983ddc6ff18733773c1d", "is_disabled": 0, "fusion_lon": 0.0, "type": "electric_scooter", "lon": -77.02023416666667}, {"rental_uris": {"android": "https://dc.lft.to/lastmile_qr_scan", "ios": "https://dc.lft.to/lastmile_qr_scan"}, "fusion_lat": 0.0, "is_reserved": 0, "lat": 38.912733333333335, "name": "081c6b55b64f2ec596f658cc7ef62441", "bike_id": "081c6b55b64f2ec596f658cc7ef62441", "is_disabled": 0, "fusion_lon": 0.0, "type": "electric_scooter", "lon": -77.04506333333333}, {"rental_uris": {"android": "https://dc.lft.to/lastmile_qr_scan", "ios": "https://dc.lft.to/lastmile_qr_scan"}, "fusion_lat": 0.0, "is_reserved": 0, "lat": 38.90857666666667, "name": "1ccde4ef796854597d265fe37a586ae5", "bike_id": "1ccde4ef796854597d265fe37a586ae5", "is_disabled": 0, "fusion_lon": 0.0, "type": "electric_scooter", "lon": -76.99113383333334}, {"rental_uris": {"android": "https://dc.lft.to/lastmile_qr_scan", "ios": "https://dc.lft.to/lastmile_qr_scan"}, "fusion_lat": 0.0, "is_reserved": 0, "lat": 38.89523283333333, "name": "a9fd14ecac163b980fe6e4d153639b2e", "bike_id": "a9fd14ecac163b980fe6e4d153639b2e", "is_disabled": 0, "fusion_lon": 0.0, "type": "electric_scooter", "lon": -76.9921025}, {"rental_uris": {"android": "https://dc.lft.to/lastmile_qr_scan", "ios": "https://dc.lft.to/lastmile_qr_scan"}, "fusion_lat": 0.0, "is_reserved": 0, "lat": 38.89234533333333, "name": "aad27b08313b771c0e3e824b0360e716", "bike_id": "aad27b08313b771c0e3e824b0360e716", "is_disabled": 0, "fusion_lon": 0.0, "type": "electric_scooter", "lon": -77.05004816666667}, {"rental_uris": {"android": "https://dc.lft.to/lastmile_qr_scan", "ios": "https://dc.lft.to/lastmile_qr_scan"}, "fusion_lat": 0.0, "is_reserved": 0, "lat": 38.90463316666667, "name": "0129117e9721b59a357d4cacbd4d6534", "bike_id": "0129117e9721b59a357d4cacbd4d6534", "is_disabled": 0, "fusion_lon": 0.0, "type": "electric_scooter", "lon": -77.04833116666667}, {"rental_uris": {"android": "https://dc.lft.to/lastmile_qr_scan", "ios": "https://dc.lft.to/lastmile_qr_scan"}, "fusion_lat": 0.0, "is_reserved": 0, "lat": 38.91721483333333, "name": "905b8a17b2c0b18aa79ed3824ff31e78", "bike_id": "905b8a17b2c0b18aa79ed3824ff31e78", "is_disabled": 0, "fusion_lon": 0.0, "type": "electric_scooter", "lon": -77.02988733333333}, {"rental_uris": {"android": "https://dc.lft.to/lastmile_qr_scan", "ios": "https://dc.lft.to/lastmile_qr_scan"}, "fusion_lat": 0.0, "is_reserved": 0, "lat": 38.915412, "name": "42d0a271d2994ee74e936ba947402a95", "bike_id": "42d0a271d2994ee74e936ba947402a95", "is_disabled": 0, "fusion_lon": 0.0, "type": "electric_scooter", "lon": -77.04452816666667}, {"rental_uris": {"android": "https://dc.lft.to/lastmile_qr_scan", "ios": "https://dc.lft.to/lastmile_qr_scan"}, "fusion_lat": 0.0, "is_reserved": 0, "lat": 38.9065415, "name": "d2e7e3b15be2f0695349af2013401c6d", "bike_id": "d2e7e3b15be2f0695349af2013401c6d", "is_disabled": 0, "fusion_lon": 0.0, "type": "electric_scooter", "lon": -77.00890333333334}, {"rental_uris": {"android": "https://dc.lft.to/lastmile_qr_scan", "ios": "https://dc.lft.to/lastmile_qr_scan"}, "fusion_lat": 0.0, "is_reserved": 0, "lat": 38.88511733333333, "name": "ec939feb394fb162a9f326b6d464a3df", "bike_id": "ec939feb394fb162a9f326b6d464a3df", "is_disabled": 0, "fusion_lon": 0.0, "type": "electric_bike", "lon": -76.95632483333333}, {"rental_uris": {"android": "https://dc.lft.to/lastmile_qr_scan", "ios": "https://dc.lft.to/lastmile_qr_scan"}, "fusion_lat": 0.0, "is_reserved": 0, "lat": 38.9433905, "name": "863ea7c5f8230c78adb9616fa9aa8f1a", "bike_id": "863ea7c5f8230c78adb9616fa9aa8f1a", "is_disabled": 0, "fusion_lon": 0.0, "type": "electric_scooter", "lon": -77.02685616666666}, {"rental_uris": {"android": "https://dc.lft.to/lastmile_qr_scan", "ios": "https://dc.lft.to/lastmile_qr_scan"}, "fusion_lat": 0.0, "is_reserved": 0, "lat": 38.907314166666666, "name": "de31f1e198cd77f51539ee80c167308a", "bike_id": "de31f1e198cd77f51539ee80c167308a", "is_disabled": 0, "fusion_lon": 0.0, "type": "electric_scooter", "lon": -77.02213083333334}, {"rental_uris": {"android": "https://dc.lft.to/lastmile_qr_scan", "ios": "https://dc.lft.to/lastmile_qr_scan"}, "fusion_lat": 0.0, "is_reserved": 0, "lat": 38.87660066666667, "name": "ff70ad9d1bb563db308c2222cd114910", "bike_id": "ff70ad9d1bb563db308c2222cd114910", "is_disabled": 0, "fusion_lon": 0.0, "type": "electric_scooter", "lon": -77.017973}, {"rental_uris": {"android": "https://dc.lft.to/lastmile_qr_scan", "ios": "https://dc.lft.to/lastmile_qr_scan"}, "fusion_lat": 0.0, "is_reserved": 0, "lat": 38.9439475, "name": "f0e50004a581ecc21bfd3729adad9140", "bike_id": "f0e50004a581ecc21bfd3729adad9140", "is_disabled": 0, "fusion_lon": 0.0, "type": "electric_bike", "lon": -76.96939583333334}, {"rental_uris": {"android": "https://dc.lft.to/lastmile_qr_scan", "ios": "https://dc.lft.to/lastmile_qr_scan"}, "fusion_lat": 0.0, "is_reserved": 0, "lat": 38.9241985, "name": "534ae151344f4c74cc7c35173d7fc850", "bike_id": "534ae151344f4c74cc7c35173d7fc850", "is_disabled": 0, "fusion_lon": 0.0, "type": "electric_scooter", "lon": -77.045557}, {"rental_uris": {"android": "https://dc.lft.to/lastmile_qr_scan", "ios": "https://dc.lft.to/lastmile_qr_scan"}, "fusion_lat": 0.0, "is_reserved": 0, "lat": 38.8972905, "name": "4651a1ccdf98048a8ca2ae78326311f9", "bike_id": "4651a1ccdf98048a8ca2ae78326311f9", "is_disabled": 0, "fusion_lon": 0.0, "type": "electric_scooter", "lon": -77.03342266666667}, {"rental_uris": {"android": "https://dc.lft.to/lastmile_qr_scan", "ios": "https://dc.lft.to/lastmile_qr_scan"}, "fusion_lat": 0.0, "is_reserved": 0, "lat": 38.90668483333334, "name": "f919d079f108ab9e63298fecc6e742e8", "bike_id": "f919d079f108ab9e63298fecc6e742e8", "is_disabled": 0, "fusion_lon": 0.0, "type": "electric_scooter", "lon": -76.98022866666666}, {"rental_uris": {"android": "https://dc.lft.to/lastmile_qr_scan", "ios": "https://dc.lft.to/lastmile_qr_scan"}, "fusion_lat": 0.0, "is_reserved": 0, "lat": 38.901094666666665, "name": "78df73e388ea2b09616625bc4a914ea2", "bike_id": "78df73e388ea2b09616625bc4a914ea2", "is_disabled": 0, "fusion_lon": 0.0, "type": "electric_scooter", "lon": -77.01860633333334}, {"rental_uris": {"android": "https://dc.lft.to/lastmile_qr_scan", "ios": "https://dc.lft.to/lastmile_qr_scan"}, "fusion_lat": 0.0, "is_reserved": 0, "lat": 38.8922545, "name": "4d9ea803f6f5d7a83582082879bdeb8f", "bike_id": "4d9ea803f6f5d7a83582082879bdeb8f", "is_disabled": 0, "fusion_lon": 0.0, "type": "electric_scooter", "lon": -77.0302395}, {"rental_uris": {"android": "https://dc.lft.to/lastmile_qr_scan", "ios": "https://dc.lft.to/lastmile_qr_scan"}, "fusion_lat": 0.0, "is_reserved": 0, "lat": 38.91808966666667, "name": "e6885bbb3ee12da6c73586a4266d612d", "bike_id": "e6885bbb3ee12da6c73586a4266d612d", "is_disabled": 0, "fusion_lon": 0.0, "type": "electric_scooter", "lon": -76.99979533333334}, {"rental_uris": {"android": "https://dc.lft.to/lastmile_qr_scan", "ios": "https://dc.lft.to/lastmile_qr_scan"}, "fusion_lat": 0.0, "is_reserved": 0, "lat": 38.92803716666667, "name": "3ca305f7b61a33886f3a8108a1840a9b", "bike_id": "3ca305f7b61a33886f3a8108a1840a9b", "is_disabled": 0, "fusion_lon": 0.0, "type": "electric_scooter", "lon": -77.05387616666667}, {"rental_uris": {"android": "https://dc.lft.to/lastmile_qr_scan", "ios": "https://dc.lft.to/lastmile_qr_scan"}, "fusion_lat": 0.0, "is_reserved": 0, "lat": 38.9125655, "name": "314afe4fc0a7bd48c3982024b67f7cc1", "bike_id": "314afe4fc0a7bd48c3982024b67f7cc1", "is_disabled": 0, "fusion_lon": 0.0, "type": "electric_scooter", "lon": -77.03831383333333}, {"rental_uris": {"android": "https://dc.lft.to/lastmile_qr_scan", "ios": "https://dc.lft.to/lastmile_qr_scan"}, "fusion_lat": 0.0, "is_reserved": 0, "lat": 38.9051505, "name": "6794ab9b4cd819b8b586a7878cce9729", "bike_id": "6794ab9b4cd819b8b586a7878cce9729", "is_disabled": 0, "fusion_lon": 0.0, "type": "electric_scooter", "lon": -77.0295865}, {"rental_uris": {"android": "https://dc.lft.to/lastmile_qr_scan", "ios": "https://dc.lft.to/lastmile_qr_scan"}, "fusion_lat": 0.0, "is_reserved": 0, "lat": 38.913153, "name": "85b87bef8ec7de206ad3805d7d8a06b5", "bike_id": "85b87bef8ec7de206ad3805d7d8a06b5", "is_disabled": 0, "fusion_lon": 0.0, "type": "electric_scooter", "lon": -77.01444366666666}, {"rental_uris": {"android": "https://dc.lft.to/lastmile_qr_scan", "ios": "https://dc.lft.to/lastmile_qr_scan"}, "fusion_lat": 0.0, "is_reserved": 0, "lat": 38.8991275, "name": "843ec17eebff9daebbf6fa8a947eeb24", "bike_id": "843ec17eebff9daebbf6fa8a947eeb24", "is_disabled": 0, "fusion_lon": 0.0, "type": "electric_scooter", "lon": -76.933697}, {"rental_uris": {"android": "https://dc.lft.to/lastmile_qr_scan", "ios": "https://dc.lft.to/lastmile_qr_scan"}, "fusion_lat": 0.0, "is_reserved": 0, "lat": 38.955455666666666, "name": "d92f3d1dc21996ae9fff5e03f908a573", "bike_id": "d92f3d1dc21996ae9fff5e03f908a573", "is_disabled": 0, "fusion_lon": 0.0, "type": "electric_scooter", "lon": -76.9957065}, {"rental_uris": {"android": "https://dc.lft.to/lastmile_qr_scan", "ios": "https://dc.lft.to/lastmile_qr_scan"}, "fusion_lat": 0.0, "is_reserved": 0, "lat": 38.9004555, "name": "2fb0d85e92f58d021547616032fa0830", "bike_id": "2fb0d85e92f58d021547616032fa0830", "is_disabled": 0, "fusion_lon": 0.0, "type": "electric_scooter", "lon": -77.0020025}, {"rental_uris": {"android": "https://dc.lft.to/lastmile_qr_scan", "ios": "https://dc.lft.to/lastmile_qr_scan"}, "fusion_lat": 0.0, "is_reserved": 0, "lat": 38.912742333333334, "name": "a86da47882421340b30c8a169ef6e52d", "bike_id": "a86da47882421340b30c8a169ef6e52d", "is_disabled": 0, "fusion_lon": 0.0, "type": "electric_scooter", "lon": -77.02214283333333}, {"rental_uris": {"android": "https://dc.lft.to/lastmile_qr_scan", "ios": "https://dc.lft.to/lastmile_qr_scan"}, "fusion_lat": 0.0, "is_reserved": 0, "lat": 38.902564, "name": "dc7b33a5a771a6eab9d433e82364742b", "bike_id": "dc7b33a5a771a6eab9d433e82364742b", "is_disabled": 0, "fusion_lon": 0.0, "type": "electric_scooter", "lon": -77.035797}, {"rental_uris": {"android": "https://dc.lft.to/lastmile_qr_scan", "ios": "https://dc.lft.to/lastmile_qr_scan"}, "fusion_lat": 0.0, "is_reserved": 0, "lat": 38.857143666666666, "name": "37e7c9b957047d19071515dc881286c6", "bike_id": "37e7c9b957047d19071515dc881286c6", "is_disabled": 0, "fusion_lon": 0.0, "type": "electric_scooter", "lon": -76.971778}, {"rental_uris": {"android": "https://dc.lft.to/lastmile_qr_scan", "ios": "https://dc.lft.to/lastmile_qr_scan"}, "fusion_lat": 0.0, "is_reserved": 0, "lat": 38.89536916666667, "name": "897fafad73c5438cc3fb7cd85a8d7358", "bike_id": "897fafad73c5438cc3fb7cd85a8d7358", "is_disabled": 0, "fusion_lon": 0.0, "type": "electric_scooter", "lon": -77.03353983333334}, {"rental_uris": {"android": "https://dc.lft.to/lastmile_qr_scan", "ios": "https://dc.lft.to/lastmile_qr_scan"}, "fusion_lat": 0.0, "is_reserved": 0, "lat": 38.891004333333335, "name": "bccd3a557b63e39160be12f5bf5d9418", "bike_id": "bccd3a557b63e39160be12f5bf5d9418", "is_disabled": 0, "fusion_lon": 0.0, "type": "electric_scooter", "lon": -77.00213616666667}, {"rental_uris": {"android": "https://dc.lft.to/lastmile_qr_scan", "ios": "https://dc.lft.to/lastmile_qr_scan"}, "fusion_lat": 0.0, "is_reserved": 0, "lat": 38.9497855, "name": "c86fa736b6761bd7814139e8e5281a20", "bike_id": "c86fa736b6761bd7814139e8e5281a20", "is_disabled": 0, "fusion_lon": 0.0, "type": "electric_scooter", "lon": -77.02454183333333}, {"rental_uris": {"android": "https://dc.lft.to/lastmile_qr_scan", "ios": "https://dc.lft.to/lastmile_qr_scan"}, "fusion_lat": 0.0, "is_reserved": 0, "lat": 38.92338633333333, "name": "3d84a6bd5d870d2e3676c998e8133f84", "bike_id": "3d84a6bd5d870d2e3676c998e8133f84", "is_disabled": 0, "fusion_lon": 0.0, "type": "electric_scooter", "lon": -77.0508945}, {"rental_uris": {"android": "https://dc.lft.to/lastmile_qr_scan", "ios": "https://dc.lft.to/lastmile_qr_scan"}, "fusion_lat": 0.0, "is_reserved": 0, "lat": 38.898573, "name": "d3df66e157ef341700c85cfcbc2d7acd", "bike_id": "d3df66e157ef341700c85cfcbc2d7acd", "is_disabled": 0, "fusion_lon": 0.0, "type": "electric_scooter", "lon": -77.02720366666667}, {"rental_uris": {"android": "https://dc.lft.to/lastmile_qr_scan", "ios": "https://dc.lft.to/lastmile_qr_scan"}, "fusion_lat": 0.0, "is_reserved": 0, "lat": 38.924306333333334, "name": "52557e1b368dc965a888e4fc199bf67a", "bike_id": "52557e1b368dc965a888e4fc199bf67a", "is_disabled": 0, "fusion_lon": 0.0, "type": "electric_scooter", "lon": -77.0362625}, {"rental_uris": {"android": "https://dc.lft.to/lastmile_qr_scan", "ios": "https://dc.lft.to/lastmile_qr_scan"}, "fusion_lat": 0.0, "is_reserved": 0, "lat": 38.9062195, "name": "cb36092df06b9c2d4fa14b9335618c68", "bike_id": "cb36092df06b9c2d4fa14b9335618c68", "is_disabled": 0, "fusion_lon": 0.0, "type": "electric_scooter", "lon": -77.05037983333334}, {"rental_uris": {"android": "https://dc.lft.to/lastmile_qr_scan", "ios": "https://dc.lft.to/lastmile_qr_scan"}, "fusion_lat": 0.0, "is_reserved": 0, "lat": 38.92460783333333, "name": "e2c3e9e26664a3a250e6d84e44ccdb29", "bike_id": "e2c3e9e26664a3a250e6d84e44ccdb29", "is_disabled": 0, "fusion_lon": 0.0, "type": "electric_scooter", "lon": -76.99909733333334}, {"rental_uris": {"android": "https://dc.lft.to/lastmile_qr_scan", "ios": "https://dc.lft.to/lastmile_qr_scan"}, "fusion_lat": 0.0, "is_reserved": 0, "lat": 38.90064483333333, "name": "820e7a2b72ccb0b02b1d0649964efc0d", "bike_id": "820e7a2b72ccb0b02b1d0649964efc0d", "is_disabled": 0, "fusion_lon": 0.0, "type": "electric_scooter", "lon": -76.9867705}, {"rental_uris": {"android": "https://dc.lft.to/lastmile_qr_scan", "ios": "https://dc.lft.to/lastmile_qr_scan"}, "fusion_lat": 0.0, "is_reserved": 0, "lat": 38.86433483333333, "name": "6f9af4bd35079d5e3476814aa6d7278e", "bike_id": "6f9af4bd35079d5e3476814aa6d7278e", "is_disabled": 0, "fusion_lon": 0.0, "type": "electric_scooter", "lon": -76.99860166666667}, {"rental_uris": {"android": "https://dc.lft.to/lastmile_qr_scan", "ios": "https://dc.lft.to/lastmile_qr_scan"}, "fusion_lat": 0.0, "is_reserved": 0, "lat": 38.916170666666666, "name": "bca94ace8b7fa95e7870f82fa01b0357", "bike_id": "bca94ace8b7fa95e7870f82fa01b0357", "is_disabled": 0, "fusion_lon": 0.0, "type": "electric_scooter", "lon": -77.03184316666666}, {"rental_uris": {"android": "https://dc.lft.to/lastmile_qr_scan", "ios": "https://dc.lft.to/lastmile_qr_scan"}, "fusion_lat": 0.0, "is_reserved": 0, "lat": 38.918284, "name": "5e394a04fb8040ffb22135a6d068528a", "bike_id": "5e394a04fb8040ffb22135a6d068528a", "is_disabled": 0, "fusion_lon": 0.0, "type": "electric_scooter", "lon": -77.04565333333333}, {"rental_uris": {"android": "https://dc.lft.to/lastmile_qr_scan", "ios": "https://dc.lft.to/lastmile_qr_scan"}, "fusion_lat": 0.0, "is_reserved": 0, "lat": 38.9385675, "name": "9fa60b926b73dc512579421a0c60c4e9", "bike_id": "9fa60b926b73dc512579421a0c60c4e9", "is_disabled": 0, "fusion_lon": 0.0, "type": "electric_scooter", "lon": -77.02472266666666}, {"rental_uris": {"android": "https://dc.lft.to/lastmile_qr_scan", "ios": "https://dc.lft.to/lastmile_qr_scan"}, "fusion_lat": 0.0, "is_reserved": 0, "lat": 38.924358833333336, "name": "69970eb5a55121aa1d2faaa4027299f2", "bike_id": "69970eb5a55121aa1d2faaa4027299f2", "is_disabled": 0, "fusion_lon": 0.0, "type": "electric_scooter", "lon": -77.03788}, {"rental_uris": {"android": "https://dc.lft.to/lastmile_qr_scan", "ios": "https://dc.lft.to/lastmile_qr_scan"}, "fusion_lat": 0.0, "is_reserved": 0, "lat": 38.93449533333333, "name": "c0fff6b712b9e72fe63c390c1d96d1f3", "bike_id": "c0fff6b712b9e72fe63c390c1d96d1f3", "is_disabled": 0, "fusion_lon": 0.0, "type": "electric_scooter", "lon": -77.02982383333334}, {"rental_uris": {"android": "https://dc.lft.to/lastmile_qr_scan", "ios": "https://dc.lft.to/lastmile_qr_scan"}, "fusion_lat": 0.0, "is_reserved": 0, "lat": 38.90605166666667, "name": "5c59986a272f335a53daa5251c0ee657", "bike_id": "5c59986a272f335a53daa5251c0ee657", "is_disabled": 0, "fusion_lon": 0.0, "type": "electric_bike", "lon": -77.12878183333333}, {"rental_uris": {"android": "https://dc.lft.to/lastmile_qr_scan", "ios": "https://dc.lft.to/lastmile_qr_scan"}, "fusion_lat": 0.0, "is_reserved": 0, "lat": 38.8805305, "name": "05b25487ea0db70f1e66a6e3f033c62d", "bike_id": "05b25487ea0db70f1e66a6e3f033c62d", "is_disabled": 0, "fusion_lon": 0.0, "type": "electric_scooter", "lon": -77.011906}, {"rental_uris": {"android": "https://dc.lft.to/lastmile_qr_scan", "ios": "https://dc.lft.to/lastmile_qr_scan"}, "fusion_lat": 0.0, "is_reserved": 0, "lat": 38.90837833333333, "name": "b50d7fa90baae45b36f818d7dc8aa46e", "bike_id": "b50d7fa90baae45b36f818d7dc8aa46e", "is_disabled": 0, "fusion_lon": 0.0, "type": "electric_scooter", "lon": -77.00213366666667}, {"rental_uris": {"android": "https://dc.lft.to/lastmile_qr_scan", "ios": "https://dc.lft.to/lastmile_qr_scan"}, "fusion_lat": 0.0, "is_reserved": 0, "lat": 38.88510766666667, "name": "e374bbe99effdb66f333a084aefa1e30", "bike_id": "e374bbe99effdb66f333a084aefa1e30", "is_disabled": 0, "fusion_lon": 0.0, "type": "electric_scooter", "lon": -77.01116866666666}, {"rental_uris": {"android": "https://dc.lft.to/lastmile_qr_scan", "ios": "https://dc.lft.to/lastmile_qr_scan"}, "fusion_lat": 0.0, "is_reserved": 0, "lat": 38.9169465, "name": "41250e9e2923402ce53245f3b2b9f36f", "bike_id": "41250e9e2923402ce53245f3b2b9f36f", "is_disabled": 0, "fusion_lon": 0.0, "type": "electric_scooter", "lon": -77.025954}, {"rental_uris": {"android": "https://dc.lft.to/lastmile_qr_scan", "ios": "https://dc.lft.to/lastmile_qr_scan"}, "fusion_lat": 0.0, "is_reserved": 0, "lat": 38.90254, "name": "a2c52e435036a69365002b98049c9d8f", "bike_id": "a2c52e435036a69365002b98049c9d8f", "is_disabled": 0, "fusion_lon": 0.0, "type": "electric_scooter", "lon": -77.01900266666667}, {"rental_uris": {"android": "https://dc.lft.to/lastmile_qr_scan", "ios": "https://dc.lft.to/lastmile_qr_scan"}, "fusion_lat": 0.0, "is_reserved": 0, "lat": 38.905064833333334, "name": "a1b70061ca1eb863c5c45cceeeb1acbd", "bike_id": "a1b70061ca1eb863c5c45cceeeb1acbd", "is_disabled": 0, "fusion_lon": 0.0, "type": "electric_scooter", "lon": -76.99956616666667}, {"rental_uris": {"android": "https://dc.lft.to/lastmile_qr_scan", "ios": "https://dc.lft.to/lastmile_qr_scan"}, "fusion_lat": 0.0, "is_reserved": 0, "lat": 38.8923075, "name": "86fdec8fe5746653efaf3af3618d22d2", "bike_id": "86fdec8fe5746653efaf3af3618d22d2", "is_disabled": 0, "fusion_lon": 0.0, "type": "electric_scooter", "lon": -77.0499645}, {"rental_uris": {"android": "https://dc.lft.to/lastmile_qr_scan", "ios": "https://dc.lft.to/lastmile_qr_scan"}, "fusion_lat": 0.0, "is_reserved": 0, "lat": 38.932324333333334, "name": "ff8d7093a45df402f13df8aea442d574", "bike_id": "ff8d7093a45df402f13df8aea442d574", "is_disabled": 0, "fusion_lon": 0.0, "type": "electric_scooter", "lon": -77.02826766666666}, {"rental_uris": {"android": "https://dc.lft.to/lastmile_qr_scan", "ios": "https://dc.lft.to/lastmile_qr_scan"}, "fusion_lat": 0.0, "is_reserved": 0, "lat": 38.88604466666666, "name": "fbbb2542ff36347c2a7dc6e49fb4e89a", "bike_id": "fbbb2542ff36347c2a7dc6e49fb4e89a", "is_disabled": 0, "fusion_lon": 0.0, "type": "electric_bike", "lon": -77.14232733333333}, {"rental_uris": {"android": "https://dc.lft.to/lastmile_qr_scan", "ios": "https://dc.lft.to/lastmile_qr_scan"}, "fusion_lat": 0.0, "is_reserved": 0, "lat": 38.931503666666664, "name": "22109720fae914f8424b5705374f7092", "bike_id": "22109720fae914f8424b5705374f7092", "is_disabled": 0, "fusion_lon": 0.0, "type": "electric_scooter", "lon": -77.07851466666666}, {"rental_uris": {"android": "https://dc.lft.to/lastmile_qr_scan", "ios": "https://dc.lft.to/lastmile_qr_scan"}, "fusion_lat": 0.0, "is_reserved": 0, "lat": 38.912685833333335, "name": "79be15e1ec725d78578e1458d2f7193c", "bike_id": "79be15e1ec725d78578e1458d2f7193c", "is_disabled": 0, "fusion_lon": 0.0, "type": "electric_scooter", "lon": -77.022113}, {"rental_uris": {"android": "https://dc.lft.to/lastmile_qr_scan", "ios": "https://dc.lft.to/lastmile_qr_scan"}, "fusion_lat": 0.0, "is_reserved": 0, "lat": 38.91336716666667, "name": "f2392db8add83f1c16d5b320eef8bd20", "bike_id": "f2392db8add83f1c16d5b320eef8bd20", "is_disabled": 0, "fusion_lon": 0.0, "type": "electric_scooter", "lon": -77.04266166666666}, {"rental_uris": {"android": "https://dc.lft.to/lastmile_qr_scan", "ios": "https://dc.lft.to/lastmile_qr_scan"}, "fusion_lat": 0.0, "is_reserved": 0, "lat": 38.932618, "name": "c365796e30741d9cbb0bf82765d0a486", "bike_id": "c365796e30741d9cbb0bf82765d0a486", "is_disabled": 0, "fusion_lon": 0.0, "type": "electric_scooter", "lon": -77.03461566666667}, {"rental_uris": {"android": "https://dc.lft.to/lastmile_qr_scan", "ios": "https://dc.lft.to/lastmile_qr_scan"}, "fusion_lat": 0.0, "is_reserved": 0, "lat": 38.927432, "name": "b1e5418d0e098de04f2c56c0efc1c074", "bike_id": "b1e5418d0e098de04f2c56c0efc1c074", "is_disabled": 0, "fusion_lon": 0.0, "type": "electric_scooter", "lon": -77.0326015}, {"rental_uris": {"android": "https://dc.lft.to/lastmile_qr_scan", "ios": "https://dc.lft.to/lastmile_qr_scan"}, "fusion_lat": 0.0, "is_reserved": 0, "lat": 38.9466765, "name": "3e3889eb68a897dd36275f722479bd27", "bike_id": "3e3889eb68a897dd36275f722479bd27", "is_disabled": 0, "fusion_lon": 0.0, "type": "electric_bike", "lon": -76.99336833333334}, {"rental_uris": {"android": "https://dc.lft.to/lastmile_qr_scan", "ios": "https://dc.lft.to/lastmile_qr_scan"}, "fusion_lat": 0.0, "is_reserved": 0, "lat": 38.9213475, "name": "1f4901acbf78e738168e87fb703cd3b3", "bike_id": "1f4901acbf78e738168e87fb703cd3b3", "is_disabled": 0, "fusion_lon": 0.0, "type": "electric_scooter", "lon": -77.04574416666667}, {"rental_uris": {"android": "https://dc.lft.to/lastmile_qr_scan", "ios": "https://dc.lft.to/lastmile_qr_scan"}, "fusion_lat": 0.0, "is_reserved": 0, "lat": 38.91639683333333, "name": "d5e7869d1cb32ac96cbc8272a7cd1e50", "bike_id": "d5e7869d1cb32ac96cbc8272a7cd1e50", "is_disabled": 0, "fusion_lon": 0.0, "type": "electric_scooter", "lon": -77.0319125}, {"rental_uris": {"android": "https://dc.lft.to/lastmile_qr_scan", "ios": "https://dc.lft.to/lastmile_qr_scan"}, "fusion_lat": 0.0, "is_reserved": 0, "lat": 38.886905, "name": "a3edf8327e3bd39795a1900c6806cf89", "bike_id": "a3edf8327e3bd39795a1900c6806cf89", "is_disabled": 0, "fusion_lon": 0.0, "type": "electric_scooter", "lon": -77.0138135}, {"rental_uris": {"android": "https://dc.lft.to/lastmile_qr_scan", "ios": "https://dc.lft.to/lastmile_qr_scan"}, "fusion_lat": 0.0, "is_reserved": 0, "lat": 38.90564583333333, "name": "cc6d45bce0d8117efd27f23d286866b4", "bike_id": "cc6d45bce0d8117efd27f23d286866b4", "is_disabled": 0, "fusion_lon": 0.0, "type": "electric_scooter", "lon": -77.03564316666667}, {"rental_uris": {"android": "https://dc.lft.to/lastmile_qr_scan", "ios": "https://dc.lft.to/lastmile_qr_scan"}, "fusion_lat": 0.0, "is_reserved": 0, "lat": 38.9096015, "name": "a37720dc6835fe1135923a1361020c84", "bike_id": "a37720dc6835fe1135923a1361020c84", "is_disabled": 0, "fusion_lon": 0.0, "type": "electric_scooter", "lon": -77.022795}, {"rental_uris": {"android": "https://dc.lft.to/lastmile_qr_scan", "ios": "https://dc.lft.to/lastmile_qr_scan"}, "fusion_lat": 0.0, "is_reserved": 0, "lat": 38.92073083333333, "name": "5c970e318374d0ce6ed5505f7c6f839f", "bike_id": "5c970e318374d0ce6ed5505f7c6f839f", "is_disabled": 0, "fusion_lon": 0.0, "type": "electric_scooter", "lon": -77.02421283333334}, {"rental_uris": {"android": "https://dc.lft.to/lastmile_qr_scan", "ios": "https://dc.lft.to/lastmile_qr_scan"}, "fusion_lat": 0.0, "is_reserved": 0, "lat": 38.92726183333333, "name": "3e9eeed5ebd2f7e7c6e64dc361b6c8b7", "bike_id": "3e9eeed5ebd2f7e7c6e64dc361b6c8b7", "is_disabled": 0, "fusion_lon": 0.0, "type": "electric_scooter", "lon": -77.02971266666667}, {"rental_uris": {"android": "https://dc.lft.to/lastmile_qr_scan", "ios": "https://dc.lft.to/lastmile_qr_scan"}, "fusion_lat": 0.0, "is_reserved": 0, "lat": 38.80734233333333, "name": "b14e3eea3de186a2073ab148b6f99bf1", "bike_id": "b14e3eea3de186a2073ab148b6f99bf1", "is_disabled": 0, "fusion_lon": 0.0, "type": "electric_bike", "lon": -76.99255683333334}, {"rental_uris": {"android": "https://dc.lft.to/lastmile_qr_scan", "ios": "https://dc.lft.to/lastmile_qr_scan"}, "fusion_lat": 0.0, "is_reserved": 0, "lat": 38.897993, "name": "4bff498061b7d8bbc4e7c0daecf0aa50", "bike_id": "4bff498061b7d8bbc4e7c0daecf0aa50", "is_disabled": 0, "fusion_lon": 0.0, "type": "electric_scooter", "lon": -77.01217316666667}, {"rental_uris": {"android": "https://dc.lft.to/lastmile_qr_scan", "ios": "https://dc.lft.to/lastmile_qr_scan"}, "fusion_lat": 0.0, "is_reserved": 0, "lat": 38.90166683333333, "name": "8f518bf1b1798557cc65c69b64938d13", "bike_id": "8f518bf1b1798557cc65c69b64938d13", "is_disabled": 0, "fusion_lon": 0.0, "type": "electric_scooter", "lon": -76.9302585}, {"rental_uris": {"android": "https://dc.lft.to/lastmile_qr_scan", "ios": "https://dc.lft.to/lastmile_qr_scan"}, "fusion_lat": 0.0, "is_reserved": 0, "lat": 38.87997883333333, "name": "23b504dca6dc723bc7dd2f04cbd27905", "bike_id": "23b504dca6dc723bc7dd2f04cbd27905", "is_disabled": 0, "fusion_lon": 0.0, "type": "electric_scooter", "lon": -77.037394}, {"rental_uris": {"android": "https://dc.lft.to/lastmile_qr_scan", "ios": "https://dc.lft.to/lastmile_qr_scan"}, "fusion_lat": 0.0, "is_reserved": 0, "lat": 38.93605766666667, "name": "ef5cfba86d6ce737c7c41791a7079962", "bike_id": "ef5cfba86d6ce737c7c41791a7079962", "is_disabled": 0, "fusion_lon": 0.0, "type": "electric_scooter", "lon": -77.05866383333333}, {"rental_uris": {"android": "https://dc.lft.to/lastmile_qr_scan", "ios": "https://dc.lft.to/lastmile_qr_scan"}, "fusion_lat": 0.0, "is_reserved": 0, "lat": 38.9188545, "name": "abf69b3defb6b7aec593bd08a23b1224", "bike_id": "abf69b3defb6b7aec593bd08a23b1224", "is_disabled": 0, "fusion_lon": 0.0, "type": "electric_scooter", "lon": -77.027118}, {"rental_uris": {"android": "https://dc.lft.to/lastmile_qr_scan", "ios": "https://dc.lft.to/lastmile_qr_scan"}, "fusion_lat": 0.0, "is_reserved": 0, "lat": 38.897372833333336, "name": "9b0d8a23e67932e4acae603d926efc84", "bike_id": "9b0d8a23e67932e4acae603d926efc84", "is_disabled": 0, "fusion_lon": 0.0, "type": "electric_scooter", "lon": -77.00735366666666}, {"rental_uris": {"android": "https://dc.lft.to/lastmile_qr_scan", "ios": "https://dc.lft.to/lastmile_qr_scan"}, "fusion_lat": 0.0, "is_reserved": 0, "lat": 38.91809383333333, "name": "3dfe4d879fcf5bcaa051213949a6e869", "bike_id": "3dfe4d879fcf5bcaa051213949a6e869", "is_disabled": 0, "fusion_lon": 0.0, "type": "electric_scooter", "lon": -77.0315755}, {"rental_uris": {"android": "https://dc.lft.to/lastmile_qr_scan", "ios": "https://dc.lft.to/lastmile_qr_scan"}, "fusion_lat": 0.0, "is_reserved": 0, "lat": 38.92334183333333, "name": "66e7717409e18f2f6d0c94ca15fb9eed", "bike_id": "66e7717409e18f2f6d0c94ca15fb9eed", "is_disabled": 0, "fusion_lon": 0.0, "type": "electric_scooter", "lon": -77.03614983333334}, {"rental_uris": {"android": "https://dc.lft.to/lastmile_qr_scan", "ios": "https://dc.lft.to/lastmile_qr_scan"}, "fusion_lat": 0.0, "is_reserved": 0, "lat": 38.933803833333336, "name": "9c66d53e67920b20a8c7dbb0cc3c5a60", "bike_id": "9c66d53e67920b20a8c7dbb0cc3c5a60", "is_disabled": 0, "fusion_lon": 0.0, "type": "electric_scooter", "lon": -77.03258383333333}, {"rental_uris": {"android": "https://dc.lft.to/lastmile_qr_scan", "ios": "https://dc.lft.to/lastmile_qr_scan"}, "fusion_lat": 0.0, "is_reserved": 0, "lat": 38.904495, "name": "5bf254890b01a67c96aa116a1956a6e5", "bike_id": "5bf254890b01a67c96aa116a1956a6e5", "is_disabled": 0, "fusion_lon": 0.0, "type": "electric_scooter", "lon": -77.06007433333333}, {"rental_uris": {"android": "https://dc.lft.to/lastmile_qr_scan", "ios": "https://dc.lft.to/lastmile_qr_scan"}, "fusion_lat": 0.0, "is_reserved": 0, "lat": 38.943113333333336, "name": "543c2e36e3669e52f38dea6fb6cf7bd3", "bike_id": "543c2e36e3669e52f38dea6fb6cf7bd3", "is_disabled": 0, "fusion_lon": 0.0, "type": "electric_scooter", "lon": -77.02178416666666}, {"rental_uris": {"android": "https://dc.lft.to/lastmile_qr_scan", "ios": "https://dc.lft.to/lastmile_qr_scan"}, "fusion_lat": 0.0, "is_reserved": 0, "lat": 38.9012655, "name": "266b58c0ba12639411baccde69339452", "bike_id": "266b58c0ba12639411baccde69339452", "is_disabled": 0, "fusion_lon": 0.0, "type": "electric_scooter", "lon": -77.00318216666666}, {"rental_uris": {"android": "https://dc.lft.to/lastmile_qr_scan", "ios": "https://dc.lft.to/lastmile_qr_scan"}, "fusion_lat": 0.0, "is_reserved": 0, "lat": 38.9254485, "name": "2ebd81007c57a23b077c3e42e6bb8fa8", "bike_id": "2ebd81007c57a23b077c3e42e6bb8fa8", "is_disabled": 0, "fusion_lon": 0.0, "type": "electric_scooter", "lon": -77.04053166666667}, {"rental_uris": {"android": "https://dc.lft.to/lastmile_qr_scan", "ios": "https://dc.lft.to/lastmile_qr_scan"}, "fusion_lat": 0.0, "is_reserved": 0, "lat": 38.87840766666667, "name": "abf40831b758b9d11e8f4c4d820f7e23", "bike_id": "abf40831b758b9d11e8f4c4d820f7e23", "is_disabled": 0, "fusion_lon": 0.0, "type": "electric_scooter", "lon": -76.982984}, {"rental_uris": {"android": "https://dc.lft.to/lastmile_qr_scan", "ios": "https://dc.lft.to/lastmile_qr_scan"}, "fusion_lat": 0.0, "is_reserved": 0, "lat": 38.9070925, "name": "321bd6c6641ef5c051cea3faefd1f5f9", "bike_id": "321bd6c6641ef5c051cea3faefd1f5f9", "is_disabled": 0, "fusion_lon": 0.0, "type": "electric_scooter", "lon": -77.011158}, {"rental_uris": {"android": "https://dc.lft.to/lastmile_qr_scan", "ios": "https://dc.lft.to/lastmile_qr_scan"}, "fusion_lat": 0.0, "is_reserved": 0, "lat": 38.90257116666667, "name": "57464766c2330d0c554d40f005a89eea", "bike_id": "57464766c2330d0c554d40f005a89eea", "is_disabled": 0, "fusion_lon": 0.0, "type": "electric_scooter", "lon": -77.0175135}, {"rental_uris": {"android": "https://dc.lft.to/lastmile_qr_scan", "ios": "https://dc.lft.to/lastmile_qr_scan"}, "fusion_lat": 0.0, "is_reserved": 0, "lat": 38.8936455, "name": "8100347b1510fd29dad4722d0696083d", "bike_id": "8100347b1510fd29dad4722d0696083d", "is_disabled": 0, "fusion_lon": 0.0, "type": "electric_scooter", "lon": -76.98642033333333}, {"rental_uris": {"android": "https://dc.lft.to/lastmile_qr_scan", "ios": "https://dc.lft.to/lastmile_qr_scan"}, "fusion_lat": 0.0, "is_reserved": 0, "lat": 38.899334, "name": "36c3dcefb56ef7d49f50e2d8a45384d0", "bike_id": "36c3dcefb56ef7d49f50e2d8a45384d0", "is_disabled": 0, "fusion_lon": 0.0, "type": "electric_scooter", "lon": -77.026652}, {"rental_uris": {"android": "https://dc.lft.to/lastmile_qr_scan", "ios": "https://dc.lft.to/lastmile_qr_scan"}, "fusion_lat": 0.0, "is_reserved": 0, "lat": 38.920332, "name": "8f630a2ff427f43317e00124edde79f4", "bike_id": "8f630a2ff427f43317e00124edde79f4", "is_disabled": 0, "fusion_lon": 0.0, "type": "electric_scooter", "lon": -77.01032933333333}, {"rental_uris": {"android": "https://dc.lft.to/lastmile_qr_scan", "ios": "https://dc.lft.to/lastmile_qr_scan"}, "fusion_lat": 0.0, "is_reserved": 0, "lat": 38.996852, "name": "1d3531db901494fe7c06220da97295d7", "bike_id": "1d3531db901494fe7c06220da97295d7", "is_disabled": 0, "fusion_lon": 0.0, "type": "electric_bike", "lon": -77.03786316666667}, {"rental_uris": {"android": "https://dc.lft.to/lastmile_qr_scan", "ios": "https://dc.lft.to/lastmile_qr_scan"}, "fusion_lat": 0.0, "is_reserved": 0, "lat": 38.9010155, "name": "87a14b08a87e40097ec6d5a0f5d0d37d", "bike_id": "87a14b08a87e40097ec6d5a0f5d0d37d", "is_disabled": 0, "fusion_lon": 0.0, "type": "electric_scooter", "lon": -77.01973666666666}, {"rental_uris": {"android": "https://dc.lft.to/lastmile_qr_scan", "ios": "https://dc.lft.to/lastmile_qr_scan"}, "fusion_lat": 0.0, "is_reserved": 0, "lat": 38.926224500000004, "name": "19828511c39a506653a0efde14dd410f", "bike_id": "19828511c39a506653a0efde14dd410f", "is_disabled": 0, "fusion_lon": 0.0, "type": "electric_scooter", "lon": -77.02221433333334}, {"rental_uris": {"android": "https://dc.lft.to/lastmile_qr_scan", "ios": "https://dc.lft.to/lastmile_qr_scan"}, "fusion_lat": 0.0, "is_reserved": 0, "lat": 38.92170466666666, "name": "4f59ff6f0c9e0d545eddd48ef056eae0", "bike_id": "4f59ff6f0c9e0d545eddd48ef056eae0", "is_disabled": 0, "fusion_lon": 0.0, "type": "electric_scooter", "lon": -77.01871683333333}, {"rental_uris": {"android": "https://dc.lft.to/lastmile_qr_scan", "ios": "https://dc.lft.to/lastmile_qr_scan"}, "fusion_lat": 0.0, "is_reserved": 0, "lat": 38.88723683333333, "name": "9402b0ed9fb6332c4e168cc66397fdb3", "bike_id": "9402b0ed9fb6332c4e168cc66397fdb3", "is_disabled": 0, "fusion_lon": 0.0, "type": "electric_scooter", "lon": -77.02158083333333}, {"rental_uris": {"android": "https://dc.lft.to/lastmile_qr_scan", "ios": "https://dc.lft.to/lastmile_qr_scan"}, "fusion_lat": 0.0, "is_reserved": 0, "lat": 38.951021, "name": "02537ec5844c3c947fcb2a4ad916189f", "bike_id": "02537ec5844c3c947fcb2a4ad916189f", "is_disabled": 0, "fusion_lon": 0.0, "type": "electric_scooter", "lon": -77.0188075}, {"rental_uris": {"android": "https://dc.lft.to/lastmile_qr_scan", "ios": "https://dc.lft.to/lastmile_qr_scan"}, "fusion_lat": 0.0, "is_reserved": 0, "lat": 38.925181333333335, "name": "eacd9c7a084568a47e41b59c2de9bae4", "bike_id": "eacd9c7a084568a47e41b59c2de9bae4", "is_disabled": 0, "fusion_lon": 0.0, "type": "electric_scooter", "lon": -77.02314883333334}, {"rental_uris": {"android": "https://dc.lft.to/lastmile_qr_scan", "ios": "https://dc.lft.to/lastmile_qr_scan"}, "fusion_lat": 0.0, "is_reserved": 0, "lat": 38.87677016666667, "name": "3121d170ec43da06d8712dde3942125e", "bike_id": "3121d170ec43da06d8712dde3942125e", "is_disabled": 0, "fusion_lon": 0.0, "type": "electric_scooter", "lon": -77.007148}, {"rental_uris": {"android": "https://dc.lft.to/lastmile_qr_scan", "ios": "https://dc.lft.to/lastmile_qr_scan"}, "fusion_lat": 0.0, "is_reserved": 0, "lat": 38.920693, "name": "53ed67c6d10bc4aac525fef49e6a219f", "bike_id": "53ed67c6d10bc4aac525fef49e6a219f", "is_disabled": 0, "fusion_lon": 0.0, "type": "electric_scooter", "lon": -77.02320066666667}, {"rental_uris": {"android": "https://dc.lft.to/lastmile_qr_scan", "ios": "https://dc.lft.to/lastmile_qr_scan"}, "fusion_lat": 0.0, "is_reserved": 0, "lat": 38.90851583333333, "name": "1531a9302f871fa5b770105bb9f77c67", "bike_id": "1531a9302f871fa5b770105bb9f77c67", "is_disabled": 0, "fusion_lon": 0.0, "type": "electric_scooter", "lon": -77.02355066666667}, {"rental_uris": {"android": "https://dc.lft.to/lastmile_qr_scan", "ios": "https://dc.lft.to/lastmile_qr_scan"}, "fusion_lat": 0.0, "is_reserved": 0, "lat": 38.8756195, "name": "b8dc3923a21987fc7b723dbbd46183cd", "bike_id": "b8dc3923a21987fc7b723dbbd46183cd", "is_disabled": 0, "fusion_lon": 0.0, "type": "electric_scooter", "lon": -77.0059925}, {"rental_uris": {"android": "https://dc.lft.to/lastmile_qr_scan", "ios": "https://dc.lft.to/lastmile_qr_scan"}, "fusion_lat": 0.0, "is_reserved": 0, "lat": 38.9248145, "name": "e58c1fc588598b8b9a6f00feadbed190", "bike_id": "e58c1fc588598b8b9a6f00feadbed190", "is_disabled": 0, "fusion_lon": 0.0, "type": "electric_scooter", "lon": -77.03195866666667}, {"rental_uris": {"android": "https://dc.lft.to/lastmile_qr_scan", "ios": "https://dc.lft.to/lastmile_qr_scan"}, "fusion_lat": 0.0, "is_reserved": 0, "lat": 38.90746683333333, "name": "3777bda9e321135a415c6ed478b93a31", "bike_id": "3777bda9e321135a415c6ed478b93a31", "is_disabled": 0, "fusion_lon": 0.0, "type": "electric_scooter", "lon": -77.04143133333334}, {"rental_uris": {"android": "https://dc.lft.to/lastmile_qr_scan", "ios": "https://dc.lft.to/lastmile_qr_scan"}, "fusion_lat": 0.0, "is_reserved": 0, "lat": 38.88302866666667, "name": "f503ed3e5aa473db9176b8027631d1bd", "bike_id": "f503ed3e5aa473db9176b8027631d1bd", "is_disabled": 0, "fusion_lon": 0.0, "type": "electric_scooter", "lon": -76.94855233333334}, {"rental_uris": {"android": "https://dc.lft.to/lastmile_qr_scan", "ios": "https://dc.lft.to/lastmile_qr_scan"}, "fusion_lat": 0.0, "is_reserved": 0, "lat": 38.894578833333334, "name": "e92127cf0ea2141ef017ab751f222541", "bike_id": "e92127cf0ea2141ef017ab751f222541", "is_disabled": 0, "fusion_lon": 0.0, "type": "electric_bike", "lon": -77.19135066666666}, {"rental_uris": {"android": "https://dc.lft.to/lastmile_qr_scan", "ios": "https://dc.lft.to/lastmile_qr_scan"}, "fusion_lat": 0.0, "is_reserved": 0, "lat": 38.93670766666666, "name": "40ba90ffb648928b50818abc9ac2c3e3", "bike_id": "40ba90ffb648928b50818abc9ac2c3e3", "is_disabled": 0, "fusion_lon": 0.0, "type": "electric_bike", "lon": -76.98989116666667}, {"rental_uris": {"android": "https://dc.lft.to/lastmile_qr_scan", "ios": "https://dc.lft.to/lastmile_qr_scan"}, "fusion_lat": 0.0, "is_reserved": 0, "lat": 38.90037916666667, "name": "68de71ceb7c530d3e89109fd3283f275", "bike_id": "68de71ceb7c530d3e89109fd3283f275", "is_disabled": 0, "fusion_lon": 0.0, "type": "electric_scooter", "lon": -76.99649883333333}, {"rental_uris": {"android": "https://dc.lft.to/lastmile_qr_scan", "ios": "https://dc.lft.to/lastmile_qr_scan"}, "fusion_lat": 0.0, "is_reserved": 0, "lat": 38.908241, "name": "ac0bec44fc5c02a5e92194b34f03e513", "bike_id": "ac0bec44fc5c02a5e92194b34f03e513", "is_disabled": 0, "fusion_lon": 0.0, "type": "electric_scooter", "lon": -77.033448}, {"rental_uris": {"android": "https://dc.lft.to/lastmile_qr_scan", "ios": "https://dc.lft.to/lastmile_qr_scan"}, "fusion_lat": 0.0, "is_reserved": 0, "lat": 38.94980866666667, "name": "a43f8b03912814b995af33d800902f72", "bike_id": "a43f8b03912814b995af33d800902f72", "is_disabled": 0, "fusion_lon": 0.0, "type": "electric_scooter", "lon": -77.02461133333334}, {"rental_uris": {"android": "https://dc.lft.to/lastmile_qr_scan", "ios": "https://dc.lft.to/lastmile_qr_scan"}, "fusion_lat": 0.0, "is_reserved": 0, "lat": 38.896790833333334, "name": "17ff9bfdb6b605545d1b571db84d370e", "bike_id": "17ff9bfdb6b605545d1b571db84d370e", "is_disabled": 0, "fusion_lon": 0.0, "type": "electric_scooter", "lon": -76.94729566666666}, {"rental_uris": {"android": "https://dc.lft.to/lastmile_qr_scan", "ios": "https://dc.lft.to/lastmile_qr_scan"}, "fusion_lat": 0.0, "is_reserved": 0, "lat": 38.897303666666666, "name": "c0bbeff89c011c48dfe7b551d0f05bfd", "bike_id": "c0bbeff89c011c48dfe7b551d0f05bfd", "is_disabled": 0, "fusion_lon": 0.0, "type": "electric_scooter", "lon": -76.94702033333333}, {"rental_uris": {"android": "https://dc.lft.to/lastmile_qr_scan", "ios": "https://dc.lft.to/lastmile_qr_scan"}, "fusion_lat": 0.0, "is_reserved": 0, "lat": 38.883911166666664, "name": "b1b51700b8a8428acb600431410240b4", "bike_id": "b1b51700b8a8428acb600431410240b4", "is_disabled": 0, "fusion_lon": 0.0, "type": "electric_scooter", "lon": -76.930501}, {"rental_uris": {"android": "https://dc.lft.to/lastmile_qr_scan", "ios": "https://dc.lft.to/lastmile_qr_scan"}, "fusion_lat": 0.0, "is_reserved": 0, "lat": 38.898096833333334, "name": "2c79dc3d8878492b5a37b9541dfd1eb1", "bike_id": "2c79dc3d8878492b5a37b9541dfd1eb1", "is_disabled": 0, "fusion_lon": 0.0, "type": "electric_scooter", "lon": -77.05136733333333}, {"rental_uris": {"android": "https://dc.lft.to/lastmile_qr_scan", "ios": "https://dc.lft.to/lastmile_qr_scan"}, "fusion_lat": 0.0, "is_reserved": 0, "lat": 38.92558016666667, "name": "220f3bb8d6b747086dcfd89d20436d6a", "bike_id": "220f3bb8d6b747086dcfd89d20436d6a", "is_disabled": 0, "fusion_lon": 0.0, "type": "electric_scooter", "lon": -77.03406533333333}, {"rental_uris": {"android": "https://dc.lft.to/lastmile_qr_scan", "ios": "https://dc.lft.to/lastmile_qr_scan"}, "fusion_lat": 0.0, "is_reserved": 0, "lat": 38.92603183333333, "name": "832cc1b8b536333ed16e55d3ecce3760", "bike_id": "832cc1b8b536333ed16e55d3ecce3760", "is_disabled": 0, "fusion_lon": 0.0, "type": "electric_scooter", "lon": -77.02153766666666}, {"rental_uris": {"android": "https://dc.lft.to/lastmile_qr_scan", "ios": "https://dc.lft.to/lastmile_qr_scan"}, "fusion_lat": 0.0, "is_reserved": 0, "lat": 38.918269, "name": "4749656527ac630429b2d37c76dd6a93", "bike_id": "4749656527ac630429b2d37c76dd6a93", "is_disabled": 0, "fusion_lon": 0.0, "type": "electric_scooter", "lon": -77.0315415}, {"rental_uris": {"android": "https://dc.lft.to/lastmile_qr_scan", "ios": "https://dc.lft.to/lastmile_qr_scan"}, "fusion_lat": 0.0, "is_reserved": 0, "lat": 38.91922433333333, "name": "b84c1c1a7508b2b06601dce6f7be4ee4", "bike_id": "b84c1c1a7508b2b06601dce6f7be4ee4", "is_disabled": 0, "fusion_lon": 0.0, "type": "electric_scooter", "lon": -77.04212583333333}, {"rental_uris": {"android": "https://dc.lft.to/lastmile_qr_scan", "ios": "https://dc.lft.to/lastmile_qr_scan"}, "fusion_lat": 0.0, "is_reserved": 0, "lat": 38.9216445, "name": "834614aa7455dd7147aa6db15612fc03", "bike_id": "834614aa7455dd7147aa6db15612fc03", "is_disabled": 0, "fusion_lon": 0.0, "type": "electric_scooter", "lon": -77.03382766666667}, {"rental_uris": {"android": "https://dc.lft.to/lastmile_qr_scan", "ios": "https://dc.lft.to/lastmile_qr_scan"}, "fusion_lat": 0.0, "is_reserved": 0, "lat": 38.897668, "name": "e3f36192c2565e88260998fb387cfc1c", "bike_id": "e3f36192c2565e88260998fb387cfc1c", "is_disabled": 0, "fusion_lon": 0.0, "type": "electric_scooter", "lon": -77.04782683333333}, {"rental_uris": {"android": "https://dc.lft.to/lastmile_qr_scan", "ios": "https://dc.lft.to/lastmile_qr_scan"}, "fusion_lat": 0.0, "is_reserved": 0, "lat": 38.92488066666667, "name": "aee2014e5e8f2dcd189d605adfc6711d", "bike_id": "aee2014e5e8f2dcd189d605adfc6711d", "is_disabled": 0, "fusion_lon": 0.0, "type": "electric_scooter", "lon": -77.05216366666667}, {"rental_uris": {"android": "https://dc.lft.to/lastmile_qr_scan", "ios": "https://dc.lft.to/lastmile_qr_scan"}, "fusion_lat": 0.0, "is_reserved": 0, "lat": 38.929264, "name": "8e9b020651f68f1a5938939a0ce7d18d", "bike_id": "8e9b020651f68f1a5938939a0ce7d18d", "is_disabled": 0, "fusion_lon": 0.0, "type": "electric_scooter", "lon": -76.9982085}, {"rental_uris": {"android": "https://dc.lft.to/lastmile_qr_scan", "ios": "https://dc.lft.to/lastmile_qr_scan"}, "fusion_lat": 0.0, "is_reserved": 0, "lat": 38.90703516666667, "name": "fcbd809edf557a84c3aea39a16289025", "bike_id": "fcbd809edf557a84c3aea39a16289025", "is_disabled": 0, "fusion_lon": 0.0, "type": "electric_scooter", "lon": -77.02694033333333}, {"rental_uris": {"android": "https://dc.lft.to/lastmile_qr_scan", "ios": "https://dc.lft.to/lastmile_qr_scan"}, "fusion_lat": 0.0, "is_reserved": 0, "lat": 38.92797633333333, "name": "03344207e2ade4b0f6560ccd8d5ba735", "bike_id": "03344207e2ade4b0f6560ccd8d5ba735", "is_disabled": 0, "fusion_lon": 0.0, "type": "electric_scooter", "lon": -77.0336955}, {"rental_uris": {"android": "https://dc.lft.to/lastmile_qr_scan", "ios": "https://dc.lft.to/lastmile_qr_scan"}, "fusion_lat": 0.0, "is_reserved": 0, "lat": 38.89975366666667, "name": "104e6e6bdec3483f09d2893906e316c7", "bike_id": "104e6e6bdec3483f09d2893906e316c7", "is_disabled": 0, "fusion_lon": 0.0, "type": "electric_scooter", "lon": -77.0513255}, {"rental_uris": {"android": "https://dc.lft.to/lastmile_qr_scan", "ios": "https://dc.lft.to/lastmile_qr_scan"}, "fusion_lat": 0.0, "is_reserved": 0, "lat": 38.89357, "name": "c7e1118617623f8264c4f0d00a6c0cee", "bike_id": "c7e1118617623f8264c4f0d00a6c0cee", "is_disabled": 0, "fusion_lon": 0.0, "type": "electric_scooter", "lon": -77.0033065}, {"rental_uris": {"android": "https://dc.lft.to/lastmile_qr_scan", "ios": "https://dc.lft.to/lastmile_qr_scan"}, "fusion_lat": 0.0, "is_reserved": 0, "lat": 38.90322116666667, "name": "c033a3175e58c6fda8e0ae0faa1998fe", "bike_id": "c033a3175e58c6fda8e0ae0faa1998fe", "is_disabled": 0, "fusion_lon": 0.0, "type": "electric_scooter", "lon": -76.98155333333334}, {"rental_uris": {"android": "https://dc.lft.to/lastmile_qr_scan", "ios": "https://dc.lft.to/lastmile_qr_scan"}, "fusion_lat": 0.0, "is_reserved": 0, "lat": 38.89355066666667, "name": "f09bc0a0fa3a59bbd6b4294bde0ba993", "bike_id": "f09bc0a0fa3a59bbd6b4294bde0ba993", "is_disabled": 0, "fusion_lon": 0.0, "type": "electric_scooter", "lon": -77.0033925}, {"rental_uris": {"android": "https://dc.lft.to/lastmile_qr_scan", "ios": "https://dc.lft.to/lastmile_qr_scan"}, "fusion_lat": 0.0, "is_reserved": 0, "lat": 38.93854366666667, "name": "07561405469ac7e006ee8fcb74c1fb35", "bike_id": "07561405469ac7e006ee8fcb74c1fb35", "is_disabled": 0, "fusion_lon": 0.0, "type": "electric_scooter", "lon": -77.02475566666666}, {"rental_uris": {"android": "https://dc.lft.to/lastmile_qr_scan", "ios": "https://dc.lft.to/lastmile_qr_scan"}, "fusion_lat": 0.0, "is_reserved": 0, "lat": 38.88798333333333, "name": "1160d69f25eb79f3fd7db44ebeed968c", "bike_id": "1160d69f25eb79f3fd7db44ebeed968c", "is_disabled": 0, "fusion_lon": 0.0, "type": "electric_scooter", "lon": -76.97710416666666}, {"rental_uris": {"android": "https://dc.lft.to/lastmile_qr_scan", "ios": "https://dc.lft.to/lastmile_qr_scan"}, "fusion_lat": 0.0, "is_reserved": 0, "lat": 38.9006225, "name": "97d0f32122758d0aef1fcce530cc2221", "bike_id": "97d0f32122758d0aef1fcce530cc2221", "is_disabled": 0, "fusion_lon": 0.0, "type": "electric_scooter", "lon": -77.04499316666667}, {"rental_uris": {"android": "https://dc.lft.to/lastmile_qr_scan", "ios": "https://dc.lft.to/lastmile_qr_scan"}, "fusion_lat": 0.0, "is_reserved": 0, "lat": 38.92819433333333, "name": "2c31e1221da952019d8772186b93f8e6", "bike_id": "2c31e1221da952019d8772186b93f8e6", "is_disabled": 0, "fusion_lon": 0.0, "type": "electric_scooter", "lon": -77.05423433333333}, {"rental_uris": {"android": "https://dc.lft.to/lastmile_qr_scan", "ios": "https://dc.lft.to/lastmile_qr_scan"}, "fusion_lat": 0.0, "is_reserved": 0, "lat": 38.92488983333333, "name": "444223a5014602d8487b14c4c3f42123", "bike_id": "444223a5014602d8487b14c4c3f42123", "is_disabled": 0, "fusion_lon": 0.0, "type": "electric_scooter", "lon": -77.05209133333334}, {"rental_uris": {"android": "https://dc.lft.to/lastmile_qr_scan", "ios": "https://dc.lft.to/lastmile_qr_scan"}, "fusion_lat": 0.0, "is_reserved": 0, "lat": 38.92082166666667, "name": "ce7b72dac656cf2bad10bd1fe62d88e7", "bike_id": "ce7b72dac656cf2bad10bd1fe62d88e7", "is_disabled": 0, "fusion_lon": 0.0, "type": "electric_scooter", "lon": -77.02420683333334}, {"rental_uris": {"android": "https://dc.lft.to/lastmile_qr_scan", "ios": "https://dc.lft.to/lastmile_qr_scan"}, "fusion_lat": 0.0, "is_reserved": 0, "lat": 38.930648833333336, "name": "3d18c0a8666416ed217909514e9cfd0c", "bike_id": "3d18c0a8666416ed217909514e9cfd0c", "is_disabled": 0, "fusion_lon": 0.0, "type": "electric_scooter", "lon": -77.02325883333333}, {"rental_uris": {"android": "https://dc.lft.to/lastmile_qr_scan", "ios": "https://dc.lft.to/lastmile_qr_scan"}, "fusion_lat": 0.0, "is_reserved": 0, "lat": 38.89356266666667, "name": "1093d9a6981a84211e6c6ec85fa8901c", "bike_id": "1093d9a6981a84211e6c6ec85fa8901c", "is_disabled": 0, "fusion_lon": 0.0, "type": "electric_scooter", "lon": -77.00332216666666}, {"rental_uris": {"android": "https://dc.lft.to/lastmile_qr_scan", "ios": "https://dc.lft.to/lastmile_qr_scan"}, "fusion_lat": 0.0, "is_reserved": 0, "lat": 38.898348666666664, "name": "fabe0c1bb84cade1fea3e9a2fc25ee98", "bike_id": "fabe0c1bb84cade1fea3e9a2fc25ee98", "is_disabled": 0, "fusion_lon": 0.0, "type": "electric_scooter", "lon": -77.02809733333333}, {"rental_uris": {"android": "https://dc.lft.to/lastmile_qr_scan", "ios": "https://dc.lft.to/lastmile_qr_scan"}, "fusion_lat": 0.0, "is_reserved": 0, "lat": 38.854349666666664, "name": "319b63135b5655257a9d2e067db48eea", "bike_id": "319b63135b5655257a9d2e067db48eea", "is_disabled": 0, "fusion_lon": 0.0, "type": "electric_bike", "lon": -77.0831995}, {"rental_uris": {"android": "https://dc.lft.to/lastmile_qr_scan", "ios": "https://dc.lft.to/lastmile_qr_scan"}, "fusion_lat": 0.0, "is_reserved": 0, "lat": 38.8872685, "name": "f1eca9d54162ec2194003c83a1d61aea", "bike_id": "f1eca9d54162ec2194003c83a1d61aea", "is_disabled": 0, "fusion_lon": 0.0, "type": "electric_scooter", "lon": -76.99680016666667}, {"rental_uris": {"android": "https://dc.lft.to/lastmile_qr_scan", "ios": "https://dc.lft.to/lastmile_qr_scan"}, "fusion_lat": 0.0, "is_reserved": 0, "lat": 38.937489, "name": "782279a00f183d8c9ccd291b8da0a42a", "bike_id": "782279a00f183d8c9ccd291b8da0a42a", "is_disabled": 0, "fusion_lon": 0.0, "type": "electric_scooter", "lon": -77.0343035}, {"rental_uris": {"android": "https://dc.lft.to/lastmile_qr_scan", "ios": "https://dc.lft.to/lastmile_qr_scan"}, "fusion_lat": 0.0, "is_reserved": 0, "lat": 39.0211725, "name": "532e2918952e20d2b85c28f67d91248d", "bike_id": "532e2918952e20d2b85c28f67d91248d", "is_disabled": 0, "fusion_lon": 0.0, "type": "electric_bike", "lon": -77.04491783333333}, {"rental_uris": {"android": "https://dc.lft.to/lastmile_qr_scan", "ios": "https://dc.lft.to/lastmile_qr_scan"}, "fusion_lat": 0.0, "is_reserved": 0, "lat": 38.937434, "name": "3a94a47fb61a29933a813f9c93f6e226", "bike_id": "3a94a47fb61a29933a813f9c93f6e226", "is_disabled": 0, "fusion_lon": 0.0, "type": "electric_scooter", "lon": -77.03262566666666}, {"rental_uris": {"android": "https://dc.lft.to/lastmile_qr_scan", "ios": "https://dc.lft.to/lastmile_qr_scan"}, "fusion_lat": 0.0, "is_reserved": 0, "lat": 38.9064695, "name": "89002ba7653f0fcf7c2003900084d06b", "bike_id": "89002ba7653f0fcf7c2003900084d06b", "is_disabled": 0, "fusion_lon": 0.0, "type": "electric_scooter", "lon": -77.01424916666667}, {"rental_uris": {"android": "https://dc.lft.to/lastmile_qr_scan", "ios": "https://dc.lft.to/lastmile_qr_scan"}, "fusion_lat": 0.0, "is_reserved": 0, "lat": 38.877628333333334, "name": "552fc251a1a4dc961f4ca744cb553e3f", "bike_id": "552fc251a1a4dc961f4ca744cb553e3f", "is_disabled": 0, "fusion_lon": 0.0, "type": "electric_scooter", "lon": -77.00320766666667}, {"rental_uris": {"android": "https://dc.lft.to/lastmile_qr_scan", "ios": "https://dc.lft.to/lastmile_qr_scan"}, "fusion_lat": 0.0, "is_reserved": 0, "lat": 38.90246783333333, "name": "4c37a8a19d0a493b09894b96bf0defef", "bike_id": "4c37a8a19d0a493b09894b96bf0defef", "is_disabled": 0, "fusion_lon": 0.0, "type": "electric_scooter", "lon": -77.03952083333333}, {"rental_uris": {"android": "https://dc.lft.to/lastmile_qr_scan", "ios": "https://dc.lft.to/lastmile_qr_scan"}, "fusion_lat": 0.0, "is_reserved": 0, "lat": 38.9369305, "name": "6ad98a338a38a01d770f01057a4e72e9", "bike_id": "6ad98a338a38a01d770f01057a4e72e9", "is_disabled": 0, "fusion_lon": 0.0, "type": "electric_scooter", "lon": -77.02712516666666}, {"rental_uris": {"android": "https://dc.lft.to/lastmile_qr_scan", "ios": "https://dc.lft.to/lastmile_qr_scan"}, "fusion_lat": 0.0, "is_reserved": 0, "lat": 38.925240333333335, "name": "6cee67b07308e22457133a9dfb24c023", "bike_id": "6cee67b07308e22457133a9dfb24c023", "is_disabled": 0, "fusion_lon": 0.0, "type": "electric_scooter", "lon": -77.0506215}, {"rental_uris": {"android": "https://dc.lft.to/lastmile_qr_scan", "ios": "https://dc.lft.to/lastmile_qr_scan"}, "fusion_lat": 0.0, "is_reserved": 0, "lat": 38.92062083333333, "name": "d1f52057012fd7e520a38246cfcafed8", "bike_id": "d1f52057012fd7e520a38246cfcafed8", "is_disabled": 0, "fusion_lon": 0.0, "type": "electric_scooter", "lon": -77.03286583333333}, {"rental_uris": {"android": "https://dc.lft.to/lastmile_qr_scan", "ios": "https://dc.lft.to/lastmile_qr_scan"}, "fusion_lat": 0.0, "is_reserved": 0, "lat": 38.930793333333334, "name": "ace9c5a94f01b471e5aaf5cd1ebc67a2", "bike_id": "ace9c5a94f01b471e5aaf5cd1ebc67a2", "is_disabled": 0, "fusion_lon": 0.0, "type": "electric_scooter", "lon": -77.0375595}, {"rental_uris": {"android": "https://dc.lft.to/lastmile_qr_scan", "ios": "https://dc.lft.to/lastmile_qr_scan"}, "fusion_lat": 0.0, "is_reserved": 0, "lat": 38.91702816666667, "name": "b8aa7f210aaddcc608be8131258d0a45", "bike_id": "b8aa7f210aaddcc608be8131258d0a45", "is_disabled": 0, "fusion_lon": 0.0, "type": "electric_scooter", "lon": -77.02277566666666}, {"rental_uris": {"android": "https://dc.lft.to/lastmile_qr_scan", "ios": "https://dc.lft.to/lastmile_qr_scan"}, "fusion_lat": 0.0, "is_reserved": 0, "lat": 38.88994016666667, "name": "77554bb823f03c060e92b171b0222a32", "bike_id": "77554bb823f03c060e92b171b0222a32", "is_disabled": 0, "fusion_lon": 0.0, "type": "electric_scooter", "lon": -76.99249916666666}, {"rental_uris": {"android": "https://dc.lft.to/lastmile_qr_scan", "ios": "https://dc.lft.to/lastmile_qr_scan"}, "fusion_lat": 0.0, "is_reserved": 0, "lat": 38.942633666666666, "name": "5ed1278c96d1fd4326fa0d76922fbf9c", "bike_id": "5ed1278c96d1fd4326fa0d76922fbf9c", "is_disabled": 0, "fusion_lon": 0.0, "type": "electric_bike", "lon": -76.990728}, {"rental_uris": {"android": "https://dc.lft.to/lastmile_qr_scan", "ios": "https://dc.lft.to/lastmile_qr_scan"}, "fusion_lat": 0.0, "is_reserved": 0, "lat": 38.905004, "name": "1a4efaaa05b34d21c7fbdb6c788f5a04", "bike_id": "1a4efaaa05b34d21c7fbdb6c788f5a04", "is_disabled": 0, "fusion_lon": 0.0, "type": "electric_scooter", "lon": -76.9773465}, {"rental_uris": {"android": "https://dc.lft.to/lastmile_qr_scan", "ios": "https://dc.lft.to/lastmile_qr_scan"}, "fusion_lat": 0.0, "is_reserved": 0, "lat": 38.95908683333333, "name": "485908900856bc4dbb46072c94885455", "bike_id": "485908900856bc4dbb46072c94885455", "is_disabled": 0, "fusion_lon": 0.0, "type": "electric_scooter", "lon": -77.00013783333333}, {"rental_uris": {"android": "https://dc.lft.to/lastmile_qr_scan", "ios": "https://dc.lft.to/lastmile_qr_scan"}, "fusion_lat": 0.0, "is_reserved": 0, "lat": 38.87989183333333, "name": "f2ceddfd3a14f8eda2e91eab955fda44", "bike_id": "f2ceddfd3a14f8eda2e91eab955fda44", "is_disabled": 0, "fusion_lon": 0.0, "type": "electric_scooter", "lon": -76.983994}, {"rental_uris": {"android": "https://dc.lft.to/lastmile_qr_scan", "ios": "https://dc.lft.to/lastmile_qr_scan"}, "fusion_lat": 0.0, "is_reserved": 0, "lat": 38.86623983333333, "name": "f63c43e0dca7e01a9d79e5e7ab860efb", "bike_id": "f63c43e0dca7e01a9d79e5e7ab860efb", "is_disabled": 0, "fusion_lon": 0.0, "type": "electric_bike", "lon": -76.94571866666666}, {"rental_uris": {"android": "https://dc.lft.to/lastmile_qr_scan", "ios": "https://dc.lft.to/lastmile_qr_scan"}, "fusion_lat": 0.0, "is_reserved": 0, "lat": 38.903392333333336, "name": "e5bbb0180070e0616ebe2499b2a8558f", "bike_id": "e5bbb0180070e0616ebe2499b2a8558f", "is_disabled": 0, "fusion_lon": 0.0, "type": "electric_scooter", "lon": -76.98236}, {"rental_uris": {"android": "https://dc.lft.to/lastmile_qr_scan", "ios": "https://dc.lft.to/lastmile_qr_scan"}, "fusion_lat": 0.0, "is_reserved": 0, "lat": 38.9408405, "name": "938350f0a51d585912eea42b65178406", "bike_id": "938350f0a51d585912eea42b65178406", "is_disabled": 0, "fusion_lon": 0.0, "type": "electric_scooter", "lon": -77.0616825}, {"rental_uris": {"android": "https://dc.lft.to/lastmile_qr_scan", "ios": "https://dc.lft.to/lastmile_qr_scan"}, "fusion_lat": 0.0, "is_reserved": 0, "lat": 38.894708666666666, "name": "3b377296fd94ecf9405b739412fb9403", "bike_id": "3b377296fd94ecf9405b739412fb9403", "is_disabled": 0, "fusion_lon": 0.0, "type": "electric_scooter", "lon": -76.99711966666666}, {"rental_uris": {"android": "https://dc.lft.to/lastmile_qr_scan", "ios": "https://dc.lft.to/lastmile_qr_scan"}, "fusion_lat": 0.0, "is_reserved": 0, "lat": 38.90251, "name": "2b3586cd866ce57ce8319fc9a05c99c8", "bike_id": "2b3586cd866ce57ce8319fc9a05c99c8", "is_disabled": 0, "fusion_lon": 0.0, "type": "electric_scooter", "lon": -77.01546633333334}, {"rental_uris": {"android": "https://dc.lft.to/lastmile_qr_scan", "ios": "https://dc.lft.to/lastmile_qr_scan"}, "fusion_lat": 0.0, "is_reserved": 0, "lat": 38.87998666666667, "name": "afa5a46fb95ec0ee623b4bfb2715a51a", "bike_id": "afa5a46fb95ec0ee623b4bfb2715a51a", "is_disabled": 0, "fusion_lon": 0.0, "type": "electric_scooter", "lon": -76.984104}, {"rental_uris": {"android": "https://dc.lft.to/lastmile_qr_scan", "ios": "https://dc.lft.to/lastmile_qr_scan"}, "fusion_lat": 0.0, "is_reserved": 0, "lat": 38.96172683333333, "name": "432040270c06d859ce601d43ec2ced59", "bike_id": "432040270c06d859ce601d43ec2ced59", "is_disabled": 0, "fusion_lon": 0.0, "type": "electric_scooter", "lon": -77.02793433333333}, {"rental_uris": {"android": "https://dc.lft.to/lastmile_qr_scan", "ios": "https://dc.lft.to/lastmile_qr_scan"}, "fusion_lat": 0.0, "is_reserved": 0, "lat": 38.904768833333335, "name": "c28b4dd4c4bcfc1093b7b91edf34409c", "bike_id": "c28b4dd4c4bcfc1093b7b91edf34409c", "is_disabled": 0, "fusion_lon": 0.0, "type": "electric_scooter", "lon": -77.007207}, {"rental_uris": {"android": "https://dc.lft.to/lastmile_qr_scan", "ios": "https://dc.lft.to/lastmile_qr_scan"}, "fusion_lat": 0.0, "is_reserved": 0, "lat": 38.897648333333336, "name": "d825d8f6e777cbdf474d9f4aa7ba6709", "bike_id": "d825d8f6e777cbdf474d9f4aa7ba6709", "is_disabled": 0, "fusion_lon": 0.0, "type": "electric_scooter", "lon": -76.985561}, {"rental_uris": {"android": "https://dc.lft.to/lastmile_qr_scan", "ios": "https://dc.lft.to/lastmile_qr_scan"}, "fusion_lat": 0.0, "is_reserved": 0, "lat": 38.8992355, "name": "1f0c46b9c18188b53c6b140f78eb58f3", "bike_id": "1f0c46b9c18188b53c6b140f78eb58f3", "is_disabled": 0, "fusion_lon": 0.0, "type": "electric_scooter", "lon": -76.9783755}, {"rental_uris": {"android": "https://dc.lft.to/lastmile_qr_scan", "ios": "https://dc.lft.to/lastmile_qr_scan"}, "fusion_lat": 0.0, "is_reserved": 0, "lat": 38.93967983333334, "name": "e75eb8c8047d097d0557ef2b6a468a05", "bike_id": "e75eb8c8047d097d0557ef2b6a468a05", "is_disabled": 0, "fusion_lon": 0.0, "type": "electric_scooter", "lon": -77.03280916666667}, {"rental_uris": {"android": "https://dc.lft.to/lastmile_qr_scan", "ios": "https://dc.lft.to/lastmile_qr_scan"}, "fusion_lat": 0.0, "is_reserved": 0, "lat": 38.9065425, "name": "fc2c1f3c630480a344d572c7cb192ec6", "bike_id": "fc2c1f3c630480a344d572c7cb192ec6", "is_disabled": 0, "fusion_lon": 0.0, "type": "electric_scooter", "lon": -77.04877983333333}, {"rental_uris": {"android": "https://dc.lft.to/lastmile_qr_scan", "ios": "https://dc.lft.to/lastmile_qr_scan"}, "fusion_lat": 0.0, "is_reserved": 0, "lat": 38.88319116666667, "name": "2d61a5f439bdc07ddc04e5ec4f7b457b", "bike_id": "2d61a5f439bdc07ddc04e5ec4f7b457b", "is_disabled": 0, "fusion_lon": 0.0, "type": "electric_scooter", "lon": -77.00191416666667}, {"rental_uris": {"android": "https://dc.lft.to/lastmile_qr_scan", "ios": "https://dc.lft.to/lastmile_qr_scan"}, "fusion_lat": 0.0, "is_reserved": 0, "lat": 38.89199883333333, "name": "193b49908c5d4f636d9cd17e476f89c0", "bike_id": "193b49908c5d4f636d9cd17e476f89c0", "is_disabled": 0, "fusion_lon": 0.0, "type": "electric_scooter", "lon": -76.99859}, {"rental_uris": {"android": "https://dc.lft.to/lastmile_qr_scan", "ios": "https://dc.lft.to/lastmile_qr_scan"}, "fusion_lat": 0.0, "is_reserved": 0, "lat": 38.95887916666667, "name": "594b280b49a58d004bd351260c046a0f", "bike_id": "594b280b49a58d004bd351260c046a0f", "is_disabled": 0, "fusion_lon": 0.0, "type": "electric_bike", "lon": -76.97053716666667}, {"rental_uris": {"android": "https://dc.lft.to/lastmile_qr_scan", "ios": "https://dc.lft.to/lastmile_qr_scan"}, "fusion_lat": 0.0, "is_reserved": 0, "lat": 38.89882866666667, "name": "f16ff990a81d83b85ea678389bf9e48b", "bike_id": "f16ff990a81d83b85ea678389bf9e48b", "is_disabled": 0, "fusion_lon": 0.0, "type": "electric_scooter", "lon": -76.98833983333333}, {"rental_uris": {"android": "https://dc.lft.to/lastmile_qr_scan", "ios": "https://dc.lft.to/lastmile_qr_scan"}, "fusion_lat": 0.0, "is_reserved": 0, "lat": 38.92645533333334, "name": "eb8ec450430ccdefcb07070a0f76e036", "bike_id": "eb8ec450430ccdefcb07070a0f76e036", "is_disabled": 0, "fusion_lon": 0.0, "type": "electric_scooter", "lon": -77.02508383333333}, {"rental_uris": {"android": "https://dc.lft.to/lastmile_qr_scan", "ios": "https://dc.lft.to/lastmile_qr_scan"}, "fusion_lat": 0.0, "is_reserved": 0, "lat": 38.896071666666664, "name": "71db7c0307f7700416d432430604d550", "bike_id": "71db7c0307f7700416d432430604d550", "is_disabled": 0, "fusion_lon": 0.0, "type": "electric_scooter", "lon": -76.9728755}, {"rental_uris": {"android": "https://dc.lft.to/lastmile_qr_scan", "ios": "https://dc.lft.to/lastmile_qr_scan"}, "fusion_lat": 0.0, "is_reserved": 0, "lat": 38.924592833333335, "name": "fdc2c3bdbadfbe02f5ad57b9bbca3765", "bike_id": "fdc2c3bdbadfbe02f5ad57b9bbca3765", "is_disabled": 0, "fusion_lon": 0.0, "type": "electric_scooter", "lon": -77.02706583333334}, {"rental_uris": {"android": "https://dc.lft.to/lastmile_qr_scan", "ios": "https://dc.lft.to/lastmile_qr_scan"}, "fusion_lat": 0.0, "is_reserved": 0, "lat": 38.989907333333335, "name": "f46db9d634a749da66880a8487dbff4f", "bike_id": "f46db9d634a749da66880a8487dbff4f", "is_disabled": 0, "fusion_lon": 0.0, "type": "electric_scooter", "lon": -77.03361783333334}, {"rental_uris": {"android": "https://dc.lft.to/lastmile_qr_scan", "ios": "https://dc.lft.to/lastmile_qr_scan"}, "fusion_lat": 0.0, "is_reserved": 0, "lat": 38.897829333333334, "name": "d32d78a23a1a244bba3649c0ca36437a", "bike_id": "d32d78a23a1a244bba3649c0ca36437a", "is_disabled": 0, "fusion_lon": 0.0, "type": "electric_scooter", "lon": -76.992767}, {"rental_uris": {"android": "https://dc.lft.to/lastmile_qr_scan", "ios": "https://dc.lft.to/lastmile_qr_scan"}, "fusion_lat": 0.0, "is_reserved": 0, "lat": 38.92107416666666, "name": "63d2798fada957ad7262e581ee39472a", "bike_id": "63d2798fada957ad7262e581ee39472a", "is_disabled": 0, "fusion_lon": 0.0, "type": "electric_scooter", "lon": -77.0419285}, {"rental_uris": {"android": "https://dc.lft.to/lastmile_qr_scan", "ios": "https://dc.lft.to/lastmile_qr_scan"}, "fusion_lat": 0.0, "is_reserved": 0, "lat": 38.887262666666665, "name": "203712bb1b9fabd58c81c70cae57e8d5", "bike_id": "203712bb1b9fabd58c81c70cae57e8d5", "is_disabled": 0, "fusion_lon": 0.0, "type": "electric_scooter", "lon": -76.99679466666667}, {"rental_uris": {"android": "https://dc.lft.to/lastmile_qr_scan", "ios": "https://dc.lft.to/lastmile_qr_scan"}, "fusion_lat": 0.0, "is_reserved": 0, "lat": 38.92847066666667, "name": "54cdd8c9919838bc27cf738b4ed555a5", "bike_id": "54cdd8c9919838bc27cf738b4ed555a5", "is_disabled": 0, "fusion_lon": 0.0, "type": "electric_scooter", "lon": -77.02487583333334}, {"rental_uris": {"android": "https://dc.lft.to/lastmile_qr_scan", "ios": "https://dc.lft.to/lastmile_qr_scan"}, "fusion_lat": 0.0, "is_reserved": 0, "lat": 38.91536716666667, "name": "ff7d46b270a640d110e30ab7d5ab7a6f", "bike_id": "ff7d46b270a640d110e30ab7d5ab7a6f", "is_disabled": 0, "fusion_lon": 0.0, "type": "electric_scooter", "lon": -77.01999533333333}, {"rental_uris": {"android": "https://dc.lft.to/lastmile_qr_scan", "ios": "https://dc.lft.to/lastmile_qr_scan"}, "fusion_lat": 0.0, "is_reserved": 0, "lat": 38.943325333333334, "name": "39a95f9b62e269f95175edd2cad3088d", "bike_id": "39a95f9b62e269f95175edd2cad3088d", "is_disabled": 0, "fusion_lon": 0.0, "type": "electric_scooter", "lon": -77.0155475}, {"rental_uris": {"android": "https://dc.lft.to/lastmile_qr_scan", "ios": "https://dc.lft.to/lastmile_qr_scan"}, "fusion_lat": 0.0, "is_reserved": 0, "lat": 38.93322916666666, "name": "5e34d5eca993cde6400418c56c996bb5", "bike_id": "5e34d5eca993cde6400418c56c996bb5", "is_disabled": 0, "fusion_lon": 0.0, "type": "electric_scooter", "lon": -77.0378515}, {"rental_uris": {"android": "https://dc.lft.to/lastmile_qr_scan", "ios": "https://dc.lft.to/lastmile_qr_scan"}, "fusion_lat": 0.0, "is_reserved": 0, "lat": 38.934999, "name": "65caf028dcc4a7dce29f04a58b77d5fb", "bike_id": "65caf028dcc4a7dce29f04a58b77d5fb", "is_disabled": 0, "fusion_lon": 0.0, "type": "electric_scooter", "lon": -77.0446345}, {"rental_uris": {"android": "https://dc.lft.to/lastmile_qr_scan", "ios": "https://dc.lft.to/lastmile_qr_scan"}, "fusion_lat": 0.0, "is_reserved": 0, "lat": 38.923675833333334, "name": "29cd4cddfa1c374c7e4779368face21d", "bike_id": "29cd4cddfa1c374c7e4779368face21d", "is_disabled": 0, "fusion_lon": 0.0, "type": "electric_scooter", "lon": -77.0195055}, {"rental_uris": {"android": "https://dc.lft.to/lastmile_qr_scan", "ios": "https://dc.lft.to/lastmile_qr_scan"}, "fusion_lat": 0.0, "is_reserved": 0, "lat": 38.921405166666666, "name": "b81907ff1a669a956f7d1a6bd0b4a7d2", "bike_id": "b81907ff1a669a956f7d1a6bd0b4a7d2", "is_disabled": 0, "fusion_lon": 0.0, "type": "electric_scooter", "lon": -77.04126533333333}, {"rental_uris": {"android": "https://dc.lft.to/lastmile_qr_scan", "ios": "https://dc.lft.to/lastmile_qr_scan"}, "fusion_lat": 0.0, "is_reserved": 0, "lat": 38.90119333333333, "name": "e6832062194cf9225559d53145f39b97", "bike_id": "e6832062194cf9225559d53145f39b97", "is_disabled": 0, "fusion_lon": 0.0, "type": "electric_scooter", "lon": -77.04483016666667}, {"rental_uris": {"android": "https://dc.lft.to/lastmile_qr_scan", "ios": "https://dc.lft.to/lastmile_qr_scan"}, "fusion_lat": 0.0, "is_reserved": 0, "lat": 38.8766905, "name": "59d2521794fe4263f0ddf1e3df410ed2", "bike_id": "59d2521794fe4263f0ddf1e3df410ed2", "is_disabled": 0, "fusion_lon": 0.0, "type": "electric_scooter", "lon": -77.0199065}, {"rental_uris": {"android": "https://dc.lft.to/lastmile_qr_scan", "ios": "https://dc.lft.to/lastmile_qr_scan"}, "fusion_lat": 0.0, "is_reserved": 0, "lat": 38.927617833333336, "name": "e34291fd3d12fff44dbeee2e273de126", "bike_id": "e34291fd3d12fff44dbeee2e273de126", "is_disabled": 0, "fusion_lon": 0.0, "type": "electric_scooter", "lon": -77.06886516666667}, {"rental_uris": {"android": "https://dc.lft.to/lastmile_qr_scan", "ios": "https://dc.lft.to/lastmile_qr_scan"}, "fusion_lat": 0.0, "is_reserved": 0, "lat": 38.92480883333333, "name": "e09cd25ca29590248ba04cadccca2d87", "bike_id": "e09cd25ca29590248ba04cadccca2d87", "is_disabled": 0, "fusion_lon": 0.0, "type": "electric_scooter", "lon": -77.03053233333333}, {"rental_uris": {"android": "https://dc.lft.to/lastmile_qr_scan", "ios": "https://dc.lft.to/lastmile_qr_scan"}, "fusion_lat": 0.0, "is_reserved": 0, "lat": 38.957651166666665, "name": "3bc31593db5972ae1d3d8f3d0d1fd47a", "bike_id": "3bc31593db5972ae1d3d8f3d0d1fd47a", "is_disabled": 0, "fusion_lon": 0.0, "type": "electric_scooter", "lon": -77.0149695}, {"rental_uris": {"android": "https://dc.lft.to/lastmile_qr_scan", "ios": "https://dc.lft.to/lastmile_qr_scan"}, "fusion_lat": 0.0, "is_reserved": 0, "lat": 38.8922315, "name": "c14151942dcd2063fc459769f89fe9ff", "bike_id": "c14151942dcd2063fc459769f89fe9ff", "is_disabled": 0, "fusion_lon": 0.0, "type": "electric_scooter", "lon": -77.03985183333333}, {"rental_uris": {"android": "https://dc.lft.to/lastmile_qr_scan", "ios": "https://dc.lft.to/lastmile_qr_scan"}, "fusion_lat": 0.0, "is_reserved": 0, "lat": 38.9039, "name": "8dc010519ab07b11b5f86a72a8785c91", "bike_id": "8dc010519ab07b11b5f86a72a8785c91", "is_disabled": 0, "fusion_lon": 0.0, "type": "electric_scooter", "lon": -76.98114783333334}, {"rental_uris": {"android": "https://dc.lft.to/lastmile_qr_scan", "ios": "https://dc.lft.to/lastmile_qr_scan"}, "fusion_lat": 0.0, "is_reserved": 0, "lat": 38.894214833333336, "name": "18a58e17d8e9b8150addd8999640d952", "bike_id": "18a58e17d8e9b8150addd8999640d952", "is_disabled": 0, "fusion_lon": 0.0, "type": "electric_scooter", "lon": -77.020909}, {"rental_uris": {"android": "https://dc.lft.to/lastmile_qr_scan", "ios": "https://dc.lft.to/lastmile_qr_scan"}, "fusion_lat": 0.0, "is_reserved": 0, "lat": 38.9043165, "name": "111680523f40624931f429cfa73dd650", "bike_id": "111680523f40624931f429cfa73dd650", "is_disabled": 0, "fusion_lon": 0.0, "type": "electric_scooter", "lon": -77.026058}, {"rental_uris": {"android": "https://dc.lft.to/lastmile_qr_scan", "ios": "https://dc.lft.to/lastmile_qr_scan"}, "fusion_lat": 0.0, "is_reserved": 0, "lat": 38.87342016666667, "name": "31e5a450ff0ebb916e6fc66f2c851703", "bike_id": "31e5a450ff0ebb916e6fc66f2c851703", "is_disabled": 0, "fusion_lon": 0.0, "type": "electric_scooter", "lon": -76.99166333333334}, {"rental_uris": {"android": "https://dc.lft.to/lastmile_qr_scan", "ios": "https://dc.lft.to/lastmile_qr_scan"}, "fusion_lat": 0.0, "is_reserved": 0, "lat": 38.89372066666667, "name": "98bcbebe6cbeba7781a9c119c787fcd4", "bike_id": "98bcbebe6cbeba7781a9c119c787fcd4", "is_disabled": 0, "fusion_lon": 0.0, "type": "electric_scooter", "lon": -77.02824966666667}, {"rental_uris": {"android": "https://dc.lft.to/lastmile_qr_scan", "ios": "https://dc.lft.to/lastmile_qr_scan"}, "fusion_lat": 0.0, "is_reserved": 0, "lat": 38.915572, "name": "0005be5a18e7a39f872d707c7b28ecf9", "bike_id": "0005be5a18e7a39f872d707c7b28ecf9", "is_disabled": 0, "fusion_lon": 0.0, "type": "electric_scooter", "lon": -77.02440933333334}, {"rental_uris": {"android": "https://dc.lft.to/lastmile_qr_scan", "ios": "https://dc.lft.to/lastmile_qr_scan"}, "fusion_lat": 0.0, "is_reserved": 0, "lat": 38.90740616666667, "name": "e9ec2bfa358ce63e7c3f51cb19544e68", "bike_id": "e9ec2bfa358ce63e7c3f51cb19544e68", "is_disabled": 0, "fusion_lon": 0.0, "type": "electric_scooter", "lon": -76.99749683333333}, {"rental_uris": {"android": "https://dc.lft.to/lastmile_qr_scan", "ios": "https://dc.lft.to/lastmile_qr_scan"}, "fusion_lat": 0.0, "is_reserved": 0, "lat": 38.902693666666664, "name": "3eb63319884bf61e127a1b496b626a8b", "bike_id": "3eb63319884bf61e127a1b496b626a8b", "is_disabled": 0, "fusion_lon": 0.0, "type": "electric_scooter", "lon": -77.0058255}, {"rental_uris": {"android": "https://dc.lft.to/lastmile_qr_scan", "ios": "https://dc.lft.to/lastmile_qr_scan"}, "fusion_lat": 0.0, "is_reserved": 0, "lat": 38.878211666666665, "name": "942e2c4b147f5a983a2f6c7c1afa37f5", "bike_id": "942e2c4b147f5a983a2f6c7c1afa37f5", "is_disabled": 0, "fusion_lon": 0.0, "type": "electric_scooter", "lon": -77.02259516666666}, {"rental_uris": {"android": "https://dc.lft.to/lastmile_qr_scan", "ios": "https://dc.lft.to/lastmile_qr_scan"}, "fusion_lat": 0.0, "is_reserved": 0, "lat": 38.92642016666667, "name": "51e2a61e1de494c216fc9dc1201e8276", "bike_id": "51e2a61e1de494c216fc9dc1201e8276", "is_disabled": 0, "fusion_lon": 0.0, "type": "electric_scooter", "lon": -77.03466133333333}, {"rental_uris": {"android": "https://dc.lft.to/lastmile_qr_scan", "ios": "https://dc.lft.to/lastmile_qr_scan"}, "fusion_lat": 0.0, "is_reserved": 0, "lat": 38.927790333333334, "name": "1f56000289bd19d9eb71d206e628bdf3", "bike_id": "1f56000289bd19d9eb71d206e628bdf3", "is_disabled": 0, "fusion_lon": 0.0, "type": "electric_scooter", "lon": -77.02717033333333}, {"rental_uris": {"android": "https://dc.lft.to/lastmile_qr_scan", "ios": "https://dc.lft.to/lastmile_qr_scan"}, "fusion_lat": 0.0, "is_reserved": 0, "lat": 38.934963, "name": "183c6c175d3cba3c1adb102ef9a825a4", "bike_id": "183c6c175d3cba3c1adb102ef9a825a4", "is_disabled": 0, "fusion_lon": 0.0, "type": "electric_scooter", "lon": -77.0452205}, {"rental_uris": {"android": "https://dc.lft.to/lastmile_qr_scan", "ios": "https://dc.lft.to/lastmile_qr_scan"}, "fusion_lat": 0.0, "is_reserved": 0, "lat": 38.92653116666666, "name": "ddfd04fd72b7b68711cc842d5a3dd81d", "bike_id": "ddfd04fd72b7b68711cc842d5a3dd81d", "is_disabled": 0, "fusion_lon": 0.0, "type": "electric_scooter", "lon": -77.0246905}, {"rental_uris": {"android": "https://dc.lft.to/lastmile_qr_scan", "ios": "https://dc.lft.to/lastmile_qr_scan"}, "fusion_lat": 0.0, "is_reserved": 0, "lat": 38.975006666666665, "name": "dc8226e20e9cde506570c7dbf9426deb", "bike_id": "dc8226e20e9cde506570c7dbf9426deb", "is_disabled": 0, "fusion_lon": 0.0, "type": "electric_scooter", "lon": -77.01701233333333}, {"rental_uris": {"android": "https://dc.lft.to/lastmile_qr_scan", "ios": "https://dc.lft.to/lastmile_qr_scan"}, "fusion_lat": 0.0, "is_reserved": 0, "lat": 38.9431485, "name": "659ee17aa73534ebfc6aa284708b01eb", "bike_id": "659ee17aa73534ebfc6aa284708b01eb", "is_disabled": 0, "fusion_lon": 0.0, "type": "electric_scooter", "lon": -77.01755916666667}, {"rental_uris": {"android": "https://dc.lft.to/lastmile_qr_scan", "ios": "https://dc.lft.to/lastmile_qr_scan"}, "fusion_lat": 0.0, "is_reserved": 0, "lat": 38.910087, "name": "515fb06baa3dd27dc127fe2f52fcd154", "bike_id": "515fb06baa3dd27dc127fe2f52fcd154", "is_disabled": 0, "fusion_lon": 0.0, "type": "electric_scooter", "lon": -77.03851066666667}, {"rental_uris": {"android": "https://dc.lft.to/lastmile_qr_scan", "ios": "https://dc.lft.to/lastmile_qr_scan"}, "fusion_lat": 0.0, "is_reserved": 0, "lat": 38.9123355, "name": "43bc5032e2507d8d8532036520778c02", "bike_id": "43bc5032e2507d8d8532036520778c02", "is_disabled": 0, "fusion_lon": 0.0, "type": "electric_scooter", "lon": -77.03196266666667}, {"rental_uris": {"android": "https://dc.lft.to/lastmile_qr_scan", "ios": "https://dc.lft.to/lastmile_qr_scan"}, "fusion_lat": 0.0, "is_reserved": 0, "lat": 38.900169166666664, "name": "5d11e44b6a985e8a0ab71d236bcb4ab2", "bike_id": "5d11e44b6a985e8a0ab71d236bcb4ab2", "is_disabled": 0, "fusion_lon": 0.0, "type": "electric_scooter", "lon": -77.04654433333333}, {"rental_uris": {"android": "https://dc.lft.to/lastmile_qr_scan", "ios": "https://dc.lft.to/lastmile_qr_scan"}, "fusion_lat": 0.0, "is_reserved": 0, "lat": 38.89221833333333, "name": "491e35afa90101c642ff1fe41bad42e7", "bike_id": "491e35afa90101c642ff1fe41bad42e7", "is_disabled": 0, "fusion_lon": 0.0, "type": "electric_scooter", "lon": -77.03978366666666}, {"rental_uris": {"android": "https://dc.lft.to/lastmile_qr_scan", "ios": "https://dc.lft.to/lastmile_qr_scan"}, "fusion_lat": 0.0, "is_reserved": 0, "lat": 38.915429, "name": "5053c7fde8d38a026f81d3261021096c", "bike_id": "5053c7fde8d38a026f81d3261021096c", "is_disabled": 0, "fusion_lon": 0.0, "type": "electric_scooter", "lon": -77.03656816666667}, {"rental_uris": {"android": "https://dc.lft.to/lastmile_qr_scan", "ios": "https://dc.lft.to/lastmile_qr_scan"}, "fusion_lat": 0.0, "is_reserved": 0, "lat": 38.93445583333333, "name": "e95611334e747c59aa26b7e9de6cd203", "bike_id": "e95611334e747c59aa26b7e9de6cd203", "is_disabled": 0, "fusion_lon": 0.0, "type": "electric_scooter", "lon": -77.02984566666667},