{"data": {"bikes": [{"lon": -77.03445666666667, "lat": 38.908122, "name": "3efad438f9e6be6765cc8fb59351d946", "fusion_lat": 0.0, "fusion_lon": 0.0, "rental_uris": {"android": "https://dc.lft.to/lastmile_qr_scan", "ios": "https://dc.lft.to/lastmile_qr_scan"}, "is_reserved": 0, "is_disabled": 0, "type": "electric_scooter", "bike_id": "3efad438f9e6be6765cc8fb59351d946"}, {"lon": -76.98600066666667, "lat": 38.860971666666664, "name": "15fc4e537e203cb872eb08e2e13a061a", "fusion_lat": 0.0, "fusion_lon": 0.0, "rental_uris": {"android": "https://dc.lft.to/lastmile_qr_scan", "ios": "https://dc.lft.to/lastmile_qr_scan"}, "is_reserved": 0, "is_disabled": 0, "type": "electric_scooter", "bike_id": "15fc4e537e203cb872eb08e2e13a061a"}, {"lon": -77.0381525, "lat": 38.9097785, "name": "eac353294717157cc71d8980f39aff9c", "fusion_lat": 0.0, "fusion_lon": 0.0, "rental_uris": {"android": "https://dc.lft.to/lastmile_qr_scan", "ios": "https://dc.lft.to/lastmile_qr_scan"}, "is_reserved": 0, "is_disabled": 0, "type": "electric_scooter", "bike_id": "eac353294717157cc71d8980f39aff9c"}, {"lon": -76.98228016666667, "lat": 38.916491666666666, "name": "36940edcf720d65f4e22264bd859070b", "fusion_lat": 0.0, "fusion_lon": 0.0, "rental_uris": {"android": "https://dc.lft.to/lastmile_qr_scan", "ios": "https://dc.lft.to/lastmile_qr_scan"}, "is_reserved": 0, "is_disabled": 0, "type": "electric_scooter", "bike_id": "36940edcf720d65f4e22264bd859070b"}, {"lon": -76.9756325, "lat": 38.9044365, "name": "72356c0e8af70e4dc30d8e4595115168", "fusion_lat": 0.0, "fusion_lon": 0.0, "rental_uris": {"android": "https://dc.lft.to/lastmile_qr_scan", "ios": "https://dc.lft.to/lastmile_qr_scan"}, "is_reserved": 0, "is_disabled": 0, "type": "electric_scooter", "bike_id": "72356c0e8af70e4dc30d8e4595115168"}, {"lon": -76.98373216666667, "lat": 38.860279166666665, "name": "f431f52a23f48607df188cf7456070ef", "fusion_lat": 0.0, "fusion_lon": 0.0, "rental_uris": {"android": "https://dc.lft.to/lastmile_qr_scan", "ios": "https://dc.lft.to/lastmile_qr_scan"}, "is_reserved": 0, "is_disabled": 0, "type": "electric_scooter", "bike_id": "f431f52a23f48607df188cf7456070ef"}, {"lon": -77.029687, "lat": 38.917775666666664, "name": "8ba6f50a183c385fd05df0ca96387125", "fusion_lat": 0.0, "fusion_lon": 0.0, "rental_uris": {"android": "https://dc.lft.to/lastmile_qr_scan", "ios": "https://dc.lft.to/lastmile_qr_scan"}, "is_reserved": 0, "is_disabled": 0, "type": "electric_scooter", "bike_id": "8ba6f50a183c385fd05df0ca96387125"}, {"lon": -77.01748766666667, "lat": 38.9025475, "name": "3c12eac514e574a33c5c795138708a24", "fusion_lat": 0.0, "fusion_lon": 0.0, "rental_uris": {"android": "https://dc.lft.to/lastmile_qr_scan", "ios": "https://dc.lft.to/lastmile_qr_scan"}, "is_reserved": 0, "is_disabled": 0, "type": "electric_scooter", "bike_id": "3c12eac514e574a33c5c795138708a24"}, {"lon": -77.03177366666667, "lat": 38.91913133333333, "name": "e35a1478f07db48407e8cce0323dded4", "fusion_lat": 0.0, "fusion_lon": 0.0, "rental_uris": {"android": "https://dc.lft.to/lastmile_qr_scan", "ios": "https://dc.lft.to/lastmile_qr_scan"}, "is_reserved": 0, "is_disabled": 0, "type": "electric_scooter", "bike_id": "e35a1478f07db48407e8cce0323dded4"}, {"lon": -77.04634033333333, "lat": 38.892242, "name": "dfa493a550b9b39934c76c60e218fec6", "fusion_lat": 0.0, "fusion_lon": 0.0, "rental_uris": {"android": "https://dc.lft.to/lastmile_qr_scan", "ios": "https://dc.lft.to/lastmile_qr_scan"}, "is_reserved": 0, "is_disabled": 0, "type": "electric_scooter", "bike_id": "dfa493a550b9b39934c76c60e218fec6"}, {"lon": -77.01065516666667, "lat": 38.87115383333333, "name": "7c0350d5259e177c460816779c080ba3", "fusion_lat": 0.0, "fusion_lon": 0.0, "rental_uris": {"android": "https://dc.lft.to/lastmile_qr_scan", "ios": "https://dc.lft.to/lastmile_qr_scan"}, "is_reserved": 0, "is_disabled": 0, "type": "electric_scooter", "bike_id": "7c0350d5259e177c460816779c080ba3"}, {"lon": -77.04176916666667, "lat": 38.911322166666665, "name": "071fd8fa42867058f72bd3f693a0948c", "fusion_lat": 0.0, "fusion_lon": 0.0, "rental_uris": {"android": "https://dc.lft.to/lastmile_qr_scan", "ios": "https://dc.lft.to/lastmile_qr_scan"}, "is_reserved": 0, "is_disabled": 0, "type": "electric_scooter", "bike_id": "071fd8fa42867058f72bd3f693a0948c"}, {"lon": -76.97504833333333, "lat": 38.91934283333333, "name": "5eb541a0de6fa0fbb2754bc9eb0d66ee", "fusion_lat": 0.0, "fusion_lon": 0.0, "rental_uris": {"android": "https://dc.lft.to/lastmile_qr_scan", "ios": "https://dc.lft.to/lastmile_qr_scan"}, "is_reserved": 0, "is_disabled": 0, "type": "electric_bike", "bike_id": "5eb541a0de6fa0fbb2754bc9eb0d66ee"}, {"lon": -77.03860233333333, "lat": 38.903887833333336, "name": "7141997bb79b7ec42e63e476df935a7a", "fusion_lat": 0.0, "fusion_lon": 0.0, "rental_uris": {"android": "https://dc.lft.to/lastmile_qr_scan", "ios": "https://dc.lft.to/lastmile_qr_scan"}, "is_reserved": 0, "is_disabled": 0, "type": "electric_scooter", "bike_id": "7141997bb79b7ec42e63e476df935a7a"}, {"lon": -77.1309505, "lat": 38.86162216666666, "name": "2434971b3019dfc9641014b71155390b", "fusion_lat": 0.0, "fusion_lon": 0.0, "rental_uris": {"android": "https://dc.lft.to/lastmile_qr_scan", "ios": "https://dc.lft.to/lastmile_qr_scan"}, "is_reserved": 0, "is_disabled": 0, "type": "electric_bike", "bike_id": "2434971b3019dfc9641014b71155390b"}, {"lon": -77.04514266666666, "lat": 38.892211, "name": "9cb2ef52156a1d761ad696161c8a86d2", "fusion_lat": 0.0, "fusion_lon": 0.0, "rental_uris": {"android": "https://dc.lft.to/lastmile_qr_scan", "ios": "https://dc.lft.to/lastmile_qr_scan"}, "is_reserved": 0, "is_disabled": 0, "type": "electric_scooter", "bike_id": "9cb2ef52156a1d761ad696161c8a86d2"}, {"lon": -76.9830665, "lat": 38.868908, "name": "ff03bb4b6ff813845b367a00b6733b6e", "fusion_lat": 0.0, "fusion_lon": 0.0, "rental_uris": {"android": "https://dc.lft.to/lastmile_qr_scan", "ios": "https://dc.lft.to/lastmile_qr_scan"}, "is_reserved": 0, "is_disabled": 0, "type": "electric_scooter", "bike_id": "ff03bb4b6ff813845b367a00b6733b6e"}, {"lon": -77.02278833333334, "lat": 38.91837316666667, "name": "079261d41e38fc2eb9c1bb311ffef7e6", "fusion_lat": 0.0, "fusion_lon": 0.0, "rental_uris": {"android": "https://dc.lft.to/lastmile_qr_scan", "ios": "https://dc.lft.to/lastmile_qr_scan"}, "is_reserved": 0, "is_disabled": 0, "type": "electric_scooter", "bike_id": "079261d41e38fc2eb9c1bb311ffef7e6"}, {"lon": -77.03832066666666, "lat": 38.91119333333333, "name": "1f946f64b289896a56e57447c8f049d3", "fusion_lat": 0.0, "fusion_lon": 0.0, "rental_uris": {"android": "https://dc.lft.to/lastmile_qr_scan", "ios": "https://dc.lft.to/lastmile_qr_scan"}, "is_reserved": 0, "is_disabled": 0, "type": "electric_scooter", "bike_id": "1f946f64b289896a56e57447c8f049d3"}, {"lon": -77.02468766666667, "lat": 38.938533666666665, "name": "a94aee6fee90c4ed7a754484658dc511", "fusion_lat": 0.0, "fusion_lon": 0.0, "rental_uris": {"android": "https://dc.lft.to/lastmile_qr_scan", "ios": "https://dc.lft.to/lastmile_qr_scan"}, "is_reserved": 0, "is_disabled": 0, "type": "electric_scooter", "bike_id": "a94aee6fee90c4ed7a754484658dc511"}, {"lon": -77.03856166666667, "lat": 38.93243866666667, "name": "4aa854ebfead2b67d069cf3bde1c1d96", "fusion_lat": 0.0, "fusion_lon": 0.0, "rental_uris": {"android": "https://dc.lft.to/lastmile_qr_scan", "ios": "https://dc.lft.to/lastmile_qr_scan"}, "is_reserved": 0, "is_disabled": 0, "type": "electric_scooter", "bike_id": "4aa854ebfead2b67d069cf3bde1c1d96"}, {"lon": -77.03162233333333, "lat": 38.896941, "name": "a76642c6b238c275bbd10112819f8997", "fusion_lat": 0.0, "fusion_lon": 0.0, "rental_uris": {"android": "https://dc.lft.to/lastmile_qr_scan", "ios": "https://dc.lft.to/lastmile_qr_scan"}, "is_reserved": 0, "is_disabled": 0, "type": "electric_scooter", "bike_id": "a76642c6b238c275bbd10112819f8997"}, {"lon": -77.02832716666667, "lat": 38.887657, "name": "8ea0148588a97f291c9e3ae14ee35c5d", "fusion_lat": 0.0, "fusion_lon": 0.0, "rental_uris": {"android": "https://dc.lft.to/lastmile_qr_scan", "ios": "https://dc.lft.to/lastmile_qr_scan"}, "is_reserved": 0, "is_disabled": 0, "type": "electric_scooter", "bike_id": "8ea0148588a97f291c9e3ae14ee35c5d"}, {"lon": -77.00198716666667, "lat": 38.90244633333333, "name": "ac2eb1d96730f8f8c4a98341582ced83", "fusion_lat": 0.0, "fusion_lon": 0.0, "rental_uris": {"android": "https://dc.lft.to/lastmile_qr_scan", "ios": "https://dc.lft.to/lastmile_qr_scan"}, "is_reserved": 0, "is_disabled": 0, "type": "electric_scooter", "bike_id": "ac2eb1d96730f8f8c4a98341582ced83"}, {"lon": -77.06274216666667, "lat": 38.90592733333333, "name": "2240acd64d844d5c4aba581c70201154", "fusion_lat": 0.0, "fusion_lon": 0.0, "rental_uris": {"android": "https://dc.lft.to/lastmile_qr_scan", "ios": "https://dc.lft.to/lastmile_qr_scan"}, "is_reserved": 0, "is_disabled": 0, "type": "electric_scooter", "bike_id": "2240acd64d844d5c4aba581c70201154"}, {"lon": -77.00706233333334, "lat": 38.877074, "name": "5216e8e92ad7ad6bcf8d1319454da213", "fusion_lat": 0.0, "fusion_lon": 0.0, "rental_uris": {"android": "https://dc.lft.to/lastmile_qr_scan", "ios": "https://dc.lft.to/lastmile_qr_scan"}, "is_reserved": 0, "is_disabled": 0, "type": "electric_scooter", "bike_id": "5216e8e92ad7ad6bcf8d1319454da213"}, {"lon": -77.03406833333334, "lat": 38.91923366666666, "name": "745bfd1cede899b85b5099b7aaf7a331", "fusion_lat": 0.0, "fusion_lon": 0.0, "rental_uris": {"android": "https://dc.lft.to/lastmile_qr_scan", "ios": "https://dc.lft.to/lastmile_qr_scan"}, "is_reserved": 0, "is_disabled": 0, "type": "electric_scooter", "bike_id": "745bfd1cede899b85b5099b7aaf7a331"}, {"lon": -76.99910816666667, "lat": 38.90941866666667, "name": "e5b12dbcd47f16371387a6e8ee506458", "fusion_lat": 0.0, "fusion_lon": 0.0, "rental_uris": {"android": "https://dc.lft.to/lastmile_qr_scan", "ios": "https://dc.lft.to/lastmile_qr_scan"}, "is_reserved": 0, "is_disabled": 0, "type": "electric_scooter", "bike_id": "e5b12dbcd47f16371387a6e8ee506458"}, {"lon": -77.03822583333333, "lat": 38.93130016666667, "name": "a1ab0dcc17e7b437c4bab80d6380b924", "fusion_lat": 0.0, "fusion_lon": 0.0, "rental_uris": {"android": "https://dc.lft.to/lastmile_qr_scan", "ios": "https://dc.lft.to/lastmile_qr_scan"}, "is_reserved": 0, "is_disabled": 0, "type": "electric_scooter", "bike_id": "a1ab0dcc17e7b437c4bab80d6380b924"}, {"lon": -77.04336066666667, "lat": 38.898207666666664, "name": "4b34809dbdd4c403606bf6782f2687a4", "fusion_lat": 0.0, "fusion_lon": 0.0, "rental_uris": {"android": "https://dc.lft.to/lastmile_qr_scan", "ios": "https://dc.lft.to/lastmile_qr_scan"}, "is_reserved": 0, "is_disabled": 0, "type": "electric_scooter", "bike_id": "4b34809dbdd4c403606bf6782f2687a4"}, {"lon": -76.99135966666667, "lat": 38.9000825, "name": "ccdc1ba7522f397e5f01a67858ea9371", "fusion_lat": 0.0, "fusion_lon": 0.0, "rental_uris": {"android": "https://dc.lft.to/lastmile_qr_scan", "ios": "https://dc.lft.to/lastmile_qr_scan"}, "is_reserved": 0, "is_disabled": 0, "type": "electric_scooter", "bike_id": "ccdc1ba7522f397e5f01a67858ea9371"}, {"lon": -77.0102575, "lat": 38.921266333333335, "name": "b7608877218069fb3c8f07aa8b014143", "fusion_lat": 0.0, "fusion_lon": 0.0, "rental_uris": {"android": "https://dc.lft.to/lastmile_qr_scan", "ios": "https://dc.lft.to/lastmile_qr_scan"}, "is_reserved": 0, "is_disabled": 0, "type": "electric_scooter", "bike_id": "b7608877218069fb3c8f07aa8b014143"}, {"lon": -77.106856, "lat": 38.93583683333333, "name": "6d9da2f02f2d32270d1ce39e5a1d64a6", "fusion_lat": 0.0, "fusion_lon": 0.0, "rental_uris": {"android": "https://dc.lft.to/lastmile_qr_scan", "ios": "https://dc.lft.to/lastmile_qr_scan"}, "is_reserved": 0, "is_disabled": 0, "type": "electric_bike", "bike_id": "6d9da2f02f2d32270d1ce39e5a1d64a6"}, {"lon": -76.99739583333333, "lat": 38.90033616666667, "name": "ba4ecbd7ed8da4fb6427427567ee7192", "fusion_lat": 0.0, "fusion_lon": 0.0, "rental_uris": {"android": "https://dc.lft.to/lastmile_qr_scan", "ios": "https://dc.lft.to/lastmile_qr_scan"}, "is_reserved": 0, "is_disabled": 0, "type": "electric_scooter", "bike_id": "ba4ecbd7ed8da4fb6427427567ee7192"}, {"lon": -77.04505266666666, "lat": 38.902472, "name": "a6ee2a68c453cf692c605f77b5e0bfb9", "fusion_lat": 0.0, "fusion_lon": 0.0, "rental_uris": {"android": "https://dc.lft.to/lastmile_qr_scan", "ios": "https://dc.lft.to/lastmile_qr_scan"}, "is_reserved": 0, "is_disabled": 0, "type": "electric_scooter", "bike_id": "a6ee2a68c453cf692c605f77b5e0bfb9"}, {"lon": -77.03880966666667, "lat": 38.91403116666667, "name": "e909198bcea71b3b44bda34e8e450643", "fusion_lat": 0.0, "fusion_lon": 0.0, "rental_uris": {"android": "https://dc.lft.to/lastmile_qr_scan", "ios": "https://dc.lft.to/lastmile_qr_scan"}, "is_reserved": 0, "is_disabled": 0, "type": "electric_scooter", "bike_id": "e909198bcea71b3b44bda34e8e450643"}, {"lon": -77.0240095, "lat": 38.904255666666664, "name": "b608580c556fbe6cff57b6b0be50af13", "fusion_lat": 0.0, "fusion_lon": 0.0, "rental_uris": {"android": "https://dc.lft.to/lastmile_qr_scan", "ios": "https://dc.lft.to/lastmile_qr_scan"}, "is_reserved": 0, "is_disabled": 0, "type": "electric_scooter", "bike_id": "b608580c556fbe6cff57b6b0be50af13"}, {"lon": -77.03226283333333, "lat": 38.93043566666667, "name": "2ba6de2d929897d4de0ddd75a5142b63", "fusion_lat": 0.0, "fusion_lon": 0.0, "rental_uris": {"android": "https://dc.lft.to/lastmile_qr_scan", "ios": "https://dc.lft.to/lastmile_qr_scan"}, "is_reserved": 0, "is_disabled": 0, "type": "electric_scooter", "bike_id": "2ba6de2d929897d4de0ddd75a5142b63"}, {"lon": -77.03345283333333, "lat": 38.898159666666665, "name": "5b559dcdb137fc6492e9661484f476a3", "fusion_lat": 0.0, "fusion_lon": 0.0, "rental_uris": {"android": "https://dc.lft.to/lastmile_qr_scan", "ios": "https://dc.lft.to/lastmile_qr_scan"}, "is_reserved": 0, "is_disabled": 0, "type": "electric_scooter", "bike_id": "5b559dcdb137fc6492e9661484f476a3"}, {"lon": -77.04658766666667, "lat": 38.893346666666666, "name": "a870e293718e22245743b7a67425f8ef", "fusion_lat": 0.0, "fusion_lon": 0.0, "rental_uris": {"android": "https://dc.lft.to/lastmile_qr_scan", "ios": "https://dc.lft.to/lastmile_qr_scan"}, "is_reserved": 0, "is_disabled": 0, "type": "electric_scooter", "bike_id": "a870e293718e22245743b7a67425f8ef"}, {"lon": -77.03767366666666, "lat": 38.91117633333333, "name": "7615b221dff9a70d4e05de5d32e7f250", "fusion_lat": 0.0, "fusion_lon": 0.0, "rental_uris": {"android": "https://dc.lft.to/lastmile_qr_scan", "ios": "https://dc.lft.to/lastmile_qr_scan"}, "is_reserved": 0, "is_disabled": 0, "type": "electric_scooter", "bike_id": "7615b221dff9a70d4e05de5d32e7f250"}, {"lon": -77.03381516666667, "lat": 38.9214445, "name": "5dc7f03a3be1e725125359ccac1367f1", "fusion_lat": 0.0, "fusion_lon": 0.0, "rental_uris": {"android": "https://dc.lft.to/lastmile_qr_scan", "ios": "https://dc.lft.to/lastmile_qr_scan"}, "is_reserved": 0, "is_disabled": 0, "type": "electric_scooter", "bike_id": "5dc7f03a3be1e725125359ccac1367f1"}, {"lon": -77.03191133333333, "lat": 38.944178, "name": "6591e89545a7fe5573dcfdbbf48b19e3", "fusion_lat": 0.0, "fusion_lon": 0.0, "rental_uris": {"android": "https://dc.lft.to/lastmile_qr_scan", "ios": "https://dc.lft.to/lastmile_qr_scan"}, "is_reserved": 0, "is_disabled": 0, "type": "electric_bike", "bike_id": "6591e89545a7fe5573dcfdbbf48b19e3"}, {"lon": -77.02798666666666, "lat": 38.8924245, "name": "6467bb694220acc1fc60f8021d918dc8", "fusion_lat": 0.0, "fusion_lon": 0.0, "rental_uris": {"android": "https://dc.lft.to/lastmile_qr_scan", "ios": "https://dc.lft.to/lastmile_qr_scan"}, "is_reserved": 0, "is_disabled": 0, "type": "electric_scooter", "bike_id": "6467bb694220acc1fc60f8021d918dc8"}, {"lon": -77.06472833333333, "lat": 38.9738195, "name": "8fa5d3d21aaba40a70cf2f21f268208b", "fusion_lat": 0.0, "fusion_lon": 0.0, "rental_uris": {"android": "https://dc.lft.to/lastmile_qr_scan", "ios": "https://dc.lft.to/lastmile_qr_scan"}, "is_reserved": 0, "is_disabled": 0, "type": "electric_bike", "bike_id": "8fa5d3d21aaba40a70cf2f21f268208b"}, {"lon": -77.01823116666667, "lat": 38.90255283333333, "name": "56b2a1018e2709372b5807008acc0994", "fusion_lat": 0.0, "fusion_lon": 0.0, "rental_uris": {"android": "https://dc.lft.to/lastmile_qr_scan", "ios": "https://dc.lft.to/lastmile_qr_scan"}, "is_reserved": 0, "is_disabled": 0, "type": "electric_scooter", "bike_id": "56b2a1018e2709372b5807008acc0994"}, {"lon": -77.00208933333333, "lat": 38.905103833333335, "name": "6c96d84a8239fb269a7941b5076095ed", "fusion_lat": 0.0, "fusion_lon": 0.0, "rental_uris": {"android": "https://dc.lft.to/lastmile_qr_scan", "ios": "https://dc.lft.to/lastmile_qr_scan"}, "is_reserved": 0, "is_disabled": 0, "type": "electric_scooter", "bike_id": "6c96d84a8239fb269a7941b5076095ed"}, {"lon": -77.03862783333334, "lat": 38.912548, "name": "661f7d8633bed5b8ce3ce10a69507677", "fusion_lat": 0.0, "fusion_lon": 0.0, "rental_uris": {"android": "https://dc.lft.to/lastmile_qr_scan", "ios": "https://dc.lft.to/lastmile_qr_scan"}, "is_reserved": 0, "is_disabled": 0, "type": "electric_scooter", "bike_id": "661f7d8633bed5b8ce3ce10a69507677"}, {"lon": -77.01510283333333, "lat": 38.91344016666667, "name": "0b7c3b921d89c0ace1ec12bc8a904c8d", "fusion_lat": 0.0, "fusion_lon": 0.0, "rental_uris": {"android": "https://dc.lft.to/lastmile_qr_scan", "ios": "https://dc.lft.to/lastmile_qr_scan"}, "is_reserved": 0, "is_disabled": 0, "type": "electric_scooter", "bike_id": "0b7c3b921d89c0ace1ec12bc8a904c8d"}, {"lon": -77.03862766666667, "lat": 38.91257933333333, "name": "0ec85917d310e03aee73e4d96fea5a5f", "fusion_lat": 0.0, "fusion_lon": 0.0, "rental_uris": {"android": "https://dc.lft.to/lastmile_qr_scan", "ios": "https://dc.lft.to/lastmile_qr_scan"}, "is_reserved": 0, "is_disabled": 0, "type": "electric_scooter", "bike_id": "0ec85917d310e03aee73e4d96fea5a5f"}, {"lon": -76.99874016666666, "lat": 38.90753466666666, "name": "be7d5d678d34776c8c74966c5aa35d93", "fusion_lat": 0.0, "fusion_lon": 0.0, "rental_uris": {"android": "https://dc.lft.to/lastmile_qr_scan", "ios": "https://dc.lft.to/lastmile_qr_scan"}, "is_reserved": 0, "is_disabled": 0, "type": "electric_scooter", "bike_id": "be7d5d678d34776c8c74966c5aa35d93"}, {"lon": -76.991683, "lat": 38.8792515, "name": "39a96197630d165c202757e1a00704ce", "fusion_lat": 0.0, "fusion_lon": 0.0, "rental_uris": {"android": "https://dc.lft.to/lastmile_qr_scan", "ios": "https://dc.lft.to/lastmile_qr_scan"}, "is_reserved": 0, "is_disabled": 0, "type": "electric_scooter", "bike_id": "39a96197630d165c202757e1a00704ce"}, {"lon": -77.03462333333333, "lat": 38.904771833333335, "name": "9836b0725fc0fc2f6e0f2dc8d966436f", "fusion_lat": 0.0, "fusion_lon": 0.0, "rental_uris": {"android": "https://dc.lft.to/lastmile_qr_scan", "ios": "https://dc.lft.to/lastmile_qr_scan"}, "is_reserved": 0, "is_disabled": 0, "type": "electric_scooter", "bike_id": "9836b0725fc0fc2f6e0f2dc8d966436f"}, {"lon": -77.04426, "lat": 38.911301333333334, "name": "dfbf7c541567be878900dcd80abff31b", "fusion_lat": 0.0, "fusion_lon": 0.0, "rental_uris": {"android": "https://dc.lft.to/lastmile_qr_scan", "ios": "https://dc.lft.to/lastmile_qr_scan"}, "is_reserved": 0, "is_disabled": 0, "type": "electric_scooter", "bike_id": "dfbf7c541567be878900dcd80abff31b"}, {"lon": -77.02062683333334, "lat": 38.92019883333333, "name": "21daf3d4c522e7d8efd484d494924be8", "fusion_lat": 0.0, "fusion_lon": 0.0, "rental_uris": {"android": "https://dc.lft.to/lastmile_qr_scan", "ios": "https://dc.lft.to/lastmile_qr_scan"}, "is_reserved": 0, "is_disabled": 0, "type": "electric_scooter", "bike_id": "21daf3d4c522e7d8efd484d494924be8"}, {"lon": -77.03163016666667, "lat": 38.91414983333333, "name": "feeeea2ac10520c8c0953a17a9437f45", "fusion_lat": 0.0, "fusion_lon": 0.0, "rental_uris": {"android": "https://dc.lft.to/lastmile_qr_scan", "ios": "https://dc.lft.to/lastmile_qr_scan"}, "is_reserved": 0, "is_disabled": 0, "type": "electric_scooter", "bike_id": "feeeea2ac10520c8c0953a17a9437f45"}, {"lon": -77.0478585, "lat": 38.893689333333334, "name": "d985f9f33fbee25322d8dd9565195c96", "fusion_lat": 0.0, "fusion_lon": 0.0, "rental_uris": {"android": "https://dc.lft.to/lastmile_qr_scan", "ios": "https://dc.lft.to/lastmile_qr_scan"}, "is_reserved": 0, "is_disabled": 0, "type": "electric_scooter", "bike_id": "d985f9f33fbee25322d8dd9565195c96"}, {"lon": -77.04233483333333, "lat": 38.93857933333334, "name": "372c9efdda92fafe51f7210d7b21fc77", "fusion_lat": 0.0, "fusion_lon": 0.0, "rental_uris": {"android": "https://dc.lft.to/lastmile_qr_scan", "ios": "https://dc.lft.to/lastmile_qr_scan"}, "is_reserved": 0, "is_disabled": 0, "type": "electric_bike", "bike_id": "372c9efdda92fafe51f7210d7b21fc77"}, {"lon": -77.0326365, "lat": 38.9382085, "name": "7745be6d12a4233e22f57199209c9759", "fusion_lat": 0.0, "fusion_lon": 0.0, "rental_uris": {"android": "https://dc.lft.to/lastmile_qr_scan", "ios": "https://dc.lft.to/lastmile_qr_scan"}, "is_reserved": 0, "is_disabled": 0, "type": "electric_scooter", "bike_id": "7745be6d12a4233e22f57199209c9759"}, {"lon": -77.01834933333333, "lat": 38.908786166666665, "name": "51245decd000f8fe4d2df156ae46d7e9", "fusion_lat": 0.0, "fusion_lon": 0.0, "rental_uris": {"android": "https://dc.lft.to/lastmile_qr_scan", "ios": "https://dc.lft.to/lastmile_qr_scan"}, "is_reserved": 0, "is_disabled": 0, "type": "electric_scooter", "bike_id": "51245decd000f8fe4d2df156ae46d7e9"}, {"lon": -77.05318033333333, "lat": 38.902666333333336, "name": "d24c0d76ca502a6b4481a3492564eaa1", "fusion_lat": 0.0, "fusion_lon": 0.0, "rental_uris": {"android": "https://dc.lft.to/lastmile_qr_scan", "ios": "https://dc.lft.to/lastmile_qr_scan"}, "is_reserved": 0, "is_disabled": 0, "type": "electric_scooter", "bike_id": "d24c0d76ca502a6b4481a3492564eaa1"}, {"lon": -77.0441235, "lat": 38.9057655, "name": "ae6edc94a9e0e45295c85f3c1ad95426", "fusion_lat": 0.0, "fusion_lon": 0.0, "rental_uris": {"android": "https://dc.lft.to/lastmile_qr_scan", "ios": "https://dc.lft.to/lastmile_qr_scan"}, "is_reserved": 0, "is_disabled": 0, "type": "electric_scooter", "bike_id": "ae6edc94a9e0e45295c85f3c1ad95426"}, {"lon": -77.01651366666667, "lat": 38.95330116666667, "name": "6f26eba616fb54f0351bd71804496d11", "fusion_lat": 0.0, "fusion_lon": 0.0, "rental_uris": {"android": "https://dc.lft.to/lastmile_qr_scan", "ios": "https://dc.lft.to/lastmile_qr_scan"}, "is_reserved": 0, "is_disabled": 0, "type": "electric_scooter", "bike_id": "6f26eba616fb54f0351bd71804496d11"}, {"lon": -76.99770683333334, "lat": 38.922861166666664, "name": "70c1ba9087a6f6a1a8f938aa225c1efb", "fusion_lat": 0.0, "fusion_lon": 0.0, "rental_uris": {"android": "https://dc.lft.to/lastmile_qr_scan", "ios": "https://dc.lft.to/lastmile_qr_scan"}, "is_reserved": 0, "is_disabled": 0, "type": "electric_scooter", "bike_id": "70c1ba9087a6f6a1a8f938aa225c1efb"}, {"lon": -77.01198033333333, "lat": 38.900228, "name": "cb5c97d5a113350c3686f1c831d9d13d", "fusion_lat": 0.0, "fusion_lon": 0.0, "rental_uris": {"android": "https://dc.lft.to/lastmile_qr_scan", "ios": "https://dc.lft.to/lastmile_qr_scan"}, "is_reserved": 0, "is_disabled": 0, "type": "electric_scooter", "bike_id": "cb5c97d5a113350c3686f1c831d9d13d"}, {"lon": -77.02197733333334, "lat": 38.9312465, "name": "ec7ca9bb9267a0926553d84f8bb219c9", "fusion_lat": 0.0, "fusion_lon": 0.0, "rental_uris": {"android": "https://dc.lft.to/lastmile_qr_scan", "ios": "https://dc.lft.to/lastmile_qr_scan"}, "is_reserved": 0, "is_disabled": 0, "type": "electric_scooter", "bike_id": "ec7ca9bb9267a0926553d84f8bb219c9"}, {"lon": -77.0599785, "lat": 38.902929, "name": "a17b0c89cd01a0d2b77161495aaf955b", "fusion_lat": 0.0, "fusion_lon": 0.0, "rental_uris": {"android": "https://dc.lft.to/lastmile_qr_scan", "ios": "https://dc.lft.to/lastmile_qr_scan"}, "is_reserved": 0, "is_disabled": 0, "type": "electric_bike", "bike_id": "a17b0c89cd01a0d2b77161495aaf955b"}, {"lon": -77.00970933333333, "lat": 38.907849, "name": "e8139dff6cd6088eaa0c896f0e2850a0", "fusion_lat": 0.0, "fusion_lon": 0.0, "rental_uris": {"android": "https://dc.lft.to/lastmile_qr_scan", "ios": "https://dc.lft.to/lastmile_qr_scan"}, "is_reserved": 0, "is_disabled": 0, "type": "electric_scooter", "bike_id": "e8139dff6cd6088eaa0c896f0e2850a0"}, {"lon": -77.0487515, "lat": 38.90160683333333, "name": "8cd045ff584978edb066bf974b89e6ff", "fusion_lat": 0.0, "fusion_lon": 0.0, "rental_uris": {"android": "https://dc.lft.to/lastmile_qr_scan", "ios": "https://dc.lft.to/lastmile_qr_scan"}, "is_reserved": 0, "is_disabled": 0, "type": "electric_scooter", "bike_id": "8cd045ff584978edb066bf974b89e6ff"}, {"lon": -76.99975883333333, "lat": 38.83837033333333, "name": "4fc7c9ba361b5a12818417cc1890688d", "fusion_lat": 0.0, "fusion_lon": 0.0, "rental_uris": {"android": "https://dc.lft.to/lastmile_qr_scan", "ios": "https://dc.lft.to/lastmile_qr_scan"}, "is_reserved": 0, "is_disabled": 0, "type": "electric_scooter", "bike_id": "4fc7c9ba361b5a12818417cc1890688d"}, {"lon": -76.990802, "lat": 38.86049633333333, "name": "0aed6cdc6045275080c9ea288f7c392b", "fusion_lat": 0.0, "fusion_lon": 0.0, "rental_uris": {"android": "https://dc.lft.to/lastmile_qr_scan", "ios": "https://dc.lft.to/lastmile_qr_scan"}, "is_reserved": 0, "is_disabled": 0, "type": "electric_scooter", "bike_id": "0aed6cdc6045275080c9ea288f7c392b"}, {"lon": -76.99003483333334, "lat": 38.86504683333333, "name": "a36ba4fb737e4f0445829480e8cc7ec8", "fusion_lat": 0.0, "fusion_lon": 0.0, "rental_uris": {"android": "https://dc.lft.to/lastmile_qr_scan", "ios": "https://dc.lft.to/lastmile_qr_scan"}, "is_reserved": 0, "is_disabled": 0, "type": "electric_scooter", "bike_id": "a36ba4fb737e4f0445829480e8cc7ec8"}, {"lon": -77.03760816666667, "lat": 38.916897166666665, "name": "d36ae917023b661938a6cd8cff161dc9", "fusion_lat": 0.0, "fusion_lon": 0.0, "rental_uris": {"android": "https://dc.lft.to/lastmile_qr_scan", "ios": "https://dc.lft.to/lastmile_qr_scan"}, "is_reserved": 0, "is_disabled": 0, "type": "electric_scooter", "bike_id": "d36ae917023b661938a6cd8cff161dc9"}, {"lon": -77.03842716666666, "lat": 38.9028245, "name": "2eea97b16ed495a71b81bf79032b70ec", "fusion_lat": 0.0, "fusion_lon": 0.0, "rental_uris": {"android": "https://dc.lft.to/lastmile_qr_scan", "ios": "https://dc.lft.to/lastmile_qr_scan"}, "is_reserved": 0, "is_disabled": 0, "type": "electric_scooter", "bike_id": "2eea97b16ed495a71b81bf79032b70ec"}, {"lon": -77.04032233333334, "lat": 38.904775, "name": "35814a3f30587a452a7e914552b2026c", "fusion_lat": 0.0, "fusion_lon": 0.0, "rental_uris": {"android": "https://dc.lft.to/lastmile_qr_scan", "ios": "https://dc.lft.to/lastmile_qr_scan"}, "is_reserved": 0, "is_disabled": 0, "type": "electric_scooter", "bike_id": "35814a3f30587a452a7e914552b2026c"}, {"lon": -76.99364633333333, "lat": 38.92842533333334, "name": "307ba5cb4d671cb29c03818c867101ce", "fusion_lat": 0.0, "fusion_lon": 0.0, "rental_uris": {"android": "https://dc.lft.to/lastmile_qr_scan", "ios": "https://dc.lft.to/lastmile_qr_scan"}, "is_reserved": 0, "is_disabled": 0, "type": "electric_scooter", "bike_id": "307ba5cb4d671cb29c03818c867101ce"}, {"lon": -77.03902516666666, "lat": 38.92330283333333, "name": "853e2d666bf0eefe2db36a6da4c70937", "fusion_lat": 0.0, "fusion_lon": 0.0, "rental_uris": {"android": "https://dc.lft.to/lastmile_qr_scan", "ios": "https://dc.lft.to/lastmile_qr_scan"}, "is_reserved": 0, "is_disabled": 0, "type": "electric_scooter", "bike_id": "853e2d666bf0eefe2db36a6da4c70937"}, {"lon": -77.0250555, "lat": 38.93412033333333, "name": "e446f12f85d0a9cf8a7322990a9e847b", "fusion_lat": 0.0, "fusion_lon": 0.0, "rental_uris": {"android": "https://dc.lft.to/lastmile_qr_scan", "ios": "https://dc.lft.to/lastmile_qr_scan"}, "is_reserved": 0, "is_disabled": 0, "type": "electric_scooter", "bike_id": "e446f12f85d0a9cf8a7322990a9e847b"}, {"lon": -77.0238745, "lat": 38.91668333333333, "name": "89fe614d9bed11250ca645c373956891", "fusion_lat": 0.0, "fusion_lon": 0.0, "rental_uris": {"android": "https://dc.lft.to/lastmile_qr_scan", "ios": "https://dc.lft.to/lastmile_qr_scan"}, "is_reserved": 0, "is_disabled": 0, "type": "electric_scooter", "bike_id": "89fe614d9bed11250ca645c373956891"}, {"lon": -77.02198183333333, "lat": 38.89752083333333, "name": "895224f78ada44c0e43412247fa451ae", "fusion_lat": 0.0, "fusion_lon": 0.0, "rental_uris": {"android": "https://dc.lft.to/lastmile_qr_scan", "ios": "https://dc.lft.to/lastmile_qr_scan"}, "is_reserved": 0, "is_disabled": 0, "type": "electric_scooter", "bike_id": "895224f78ada44c0e43412247fa451ae"}, {"lon": -76.98732216666667, "lat": 38.867132833333336, "name": "8640c79443570136a6c2146f770e8fb7", "fusion_lat": 0.0, "fusion_lon": 0.0, "rental_uris": {"android": "https://dc.lft.to/lastmile_qr_scan", "ios": "https://dc.lft.to/lastmile_qr_scan"}, "is_reserved": 0, "is_disabled": 0, "type": "electric_scooter", "bike_id": "8640c79443570136a6c2146f770e8fb7"}, {"lon": -77.03258516666666, "lat": 38.908697333333336, "name": "c82b975de2d3f14988d6cc121be559da", "fusion_lat": 0.0, "fusion_lon": 0.0, "rental_uris": {"android": "https://dc.lft.to/lastmile_qr_scan", "ios": "https://dc.lft.to/lastmile_qr_scan"}, "is_reserved": 0, "is_disabled": 0, "type": "electric_scooter", "bike_id": "c82b975de2d3f14988d6cc121be559da"}, {"lon": -76.999332, "lat": 38.896169666666665, "name": "6052cbf48466a28ea0b990274516557f", "fusion_lat": 0.0, "fusion_lon": 0.0, "rental_uris": {"android": "https://dc.lft.to/lastmile_qr_scan", "ios": "https://dc.lft.to/lastmile_qr_scan"}, "is_reserved": 0, "is_disabled": 0, "type": "electric_scooter", "bike_id": "6052cbf48466a28ea0b990274516557f"}, {"lon": -77.0354675, "lat": 38.9232115, "name": "65ab7f1f521e55d3198e2c044b559be1", "fusion_lat": 0.0, "fusion_lon": 0.0, "rental_uris": {"android": "https://dc.lft.to/lastmile_qr_scan", "ios": "https://dc.lft.to/lastmile_qr_scan"}, "is_reserved": 0, "is_disabled": 0, "type": "electric_scooter", "bike_id": "65ab7f1f521e55d3198e2c044b559be1"}, {"lon": -77.02977783333333, "lat": 38.92364516666667, "name": "0524879b521fd3916832b63b46281343", "fusion_lat": 0.0, "fusion_lon": 0.0, "rental_uris": {"android": "https://dc.lft.to/lastmile_qr_scan", "ios": "https://dc.lft.to/lastmile_qr_scan"}, "is_reserved": 0, "is_disabled": 0, "type": "electric_scooter", "bike_id": "0524879b521fd3916832b63b46281343"}, {"lon": -77.02977316666667, "lat": 38.923645666666665, "name": "07c2541b1a1e6ef0fa67e1a19fb18900", "fusion_lat": 0.0, "fusion_lon": 0.0, "rental_uris": {"android": "https://dc.lft.to/lastmile_qr_scan", "ios": "https://dc.lft.to/lastmile_qr_scan"}, "is_reserved": 0, "is_disabled": 0, "type": "electric_scooter", "bike_id": "07c2541b1a1e6ef0fa67e1a19fb18900"}, {"lon": -77.0327885, "lat": 38.90214816666666, "name": "3a50b192de5591eabc610fad902af755", "fusion_lat": 0.0, "fusion_lon": 0.0, "rental_uris": {"android": "https://dc.lft.to/lastmile_qr_scan", "ios": "https://dc.lft.to/lastmile_qr_scan"}, "is_reserved": 0, "is_disabled": 0, "type": "electric_scooter", "bike_id": "3a50b192de5591eabc610fad902af755"}, {"lon": -77.02170216666667, "lat": 38.90570683333333, "name": "9a080491ec59061ef1ed7fed3b2b70c1", "fusion_lat": 0.0, "fusion_lon": 0.0, "rental_uris": {"android": "https://dc.lft.to/lastmile_qr_scan", "ios": "https://dc.lft.to/lastmile_qr_scan"}, "is_reserved": 0, "is_disabled": 0, "type": "electric_scooter", "bike_id": "9a080491ec59061ef1ed7fed3b2b70c1"}, {"lon": -77.04147766666667, "lat": 38.89221766666667, "name": "5642f46619cec4e2a01919ee3066c7c0", "fusion_lat": 0.0, "fusion_lon": 0.0, "rental_uris": {"android": "https://dc.lft.to/lastmile_qr_scan", "ios": "https://dc.lft.to/lastmile_qr_scan"}, "is_reserved": 0, "is_disabled": 0, "type": "electric_scooter", "bike_id": "5642f46619cec4e2a01919ee3066c7c0"}, {"lon": -77.03604383333334, "lat": 38.956170166666666, "name": "01c49450f2a403d0c6604f30b0ed6c75", "fusion_lat": 0.0, "fusion_lon": 0.0, "rental_uris": {"android": "https://dc.lft.to/lastmile_qr_scan", "ios": "https://dc.lft.to/lastmile_qr_scan"}, "is_reserved": 0, "is_disabled": 0, "type": "electric_scooter", "bike_id": "01c49450f2a403d0c6604f30b0ed6c75"}, {"lon": -77.02902966666667, "lat": 38.95843033333333, "name": "0eb7103dae5e4df28861730ff0053b83", "fusion_lat": 0.0, "fusion_lon": 0.0, "rental_uris": {"android": "https://dc.lft.to/lastmile_qr_scan", "ios": "https://dc.lft.to/lastmile_qr_scan"}, "is_reserved": 0, "is_disabled": 0, "type": "electric_scooter", "bike_id": "0eb7103dae5e4df28861730ff0053b83"}, {"lon": -77.04633366666667, "lat": 38.91916716666667, "name": "bd8ea728afc4fafc46ece81f7520eaf6", "fusion_lat": 0.0, "fusion_lon": 0.0, "rental_uris": {"android": "https://dc.lft.to/lastmile_qr_scan", "ios": "https://dc.lft.to/lastmile_qr_scan"}, "is_reserved": 0, "is_disabled": 0, "type": "electric_scooter", "bike_id": "bd8ea728afc4fafc46ece81f7520eaf6"}, {"lon": -77.027642, "lat": 38.89196883333334, "name": "954cb9d3b2a1c408153538118b37e136", "fusion_lat": 0.0, "fusion_lon": 0.0, "rental_uris": {"android": "https://dc.lft.to/lastmile_qr_scan", "ios": "https://dc.lft.to/lastmile_qr_scan"}, "is_reserved": 0, "is_disabled": 0, "type": "electric_scooter", "bike_id": "954cb9d3b2a1c408153538118b37e136"}, {"lon": -77.038369, "lat": 38.91229166666667, "name": "59417bef4c400fd975fff552a22980ec", "fusion_lat": 0.0, "fusion_lon": 0.0, "rental_uris": {"android": "https://dc.lft.to/lastmile_qr_scan", "ios": "https://dc.lft.to/lastmile_qr_scan"}, "is_reserved": 0, "is_disabled": 0, "type": "electric_scooter", "bike_id": "59417bef4c400fd975fff552a22980ec"}, {"lon": -77.0235405, "lat": 38.9331445, "name": "88a5d21e2466ec0debf8d749caffc6fd", "fusion_lat": 0.0, "fusion_lon": 0.0, "rental_uris": {"android": "https://dc.lft.to/lastmile_qr_scan", "ios": "https://dc.lft.to/lastmile_qr_scan"}, "is_reserved": 0, "is_disabled": 0, "type": "electric_scooter", "bike_id": "88a5d21e2466ec0debf8d749caffc6fd"}, {"lon": -77.0498495, "lat": 38.9012485, "name": "99b3fec04dfefdaa2c141159b556b506", "fusion_lat": 0.0, "fusion_lon": 0.0, "rental_uris": {"android": "https://dc.lft.to/lastmile_qr_scan", "ios": "https://dc.lft.to/lastmile_qr_scan"}, "is_reserved": 0, "is_disabled": 0, "type": "electric_scooter", "bike_id": "99b3fec04dfefdaa2c141159b556b506"}, {"lon": -77.0060445, "lat": 38.8745985, "name": "2860c6062940e4282b8e2768ba0b1b47", "fusion_lat": 0.0, "fusion_lon": 0.0, "rental_uris": {"android": "https://dc.lft.to/lastmile_qr_scan", "ios": "https://dc.lft.to/lastmile_qr_scan"}, "is_reserved": 0, "is_disabled": 0, "type": "electric_scooter", "bike_id": "2860c6062940e4282b8e2768ba0b1b47"}, {"lon": -76.93536933333333, "lat": 38.8968125, "name": "d4cbebc64e430d60a2f93e22f502d88c", "fusion_lat": 0.0, "fusion_lon": 0.0, "rental_uris": {"android": "https://dc.lft.to/lastmile_qr_scan", "ios": "https://dc.lft.to/lastmile_qr_scan"}, "is_reserved": 0, "is_disabled": 0, "type": "electric_scooter", "bike_id": "d4cbebc64e430d60a2f93e22f502d88c"}, {"lon": -77.02185416666667, "lat": 38.9113225, "name": "9b650aba78d982ffa515c0aa730ab9b2", "fusion_lat": 0.0, "fusion_lon": 0.0, "rental_uris": {"android": "https://dc.lft.to/lastmile_qr_scan", "ios": "https://dc.lft.to/lastmile_qr_scan"}, "is_reserved": 0, "is_disabled": 0, "type": "electric_scooter", "bike_id": "9b650aba78d982ffa515c0aa730ab9b2"}, {"lon": -77.00159516666666, "lat": 38.9076725, "name": "21c3b916377e27545c96c7c53fc6cf64", "fusion_lat": 0.0, "fusion_lon": 0.0, "rental_uris": {"android": "https://dc.lft.to/lastmile_qr_scan", "ios": "https://dc.lft.to/lastmile_qr_scan"}, "is_reserved": 0, "is_disabled": 0, "type": "electric_scooter", "bike_id": "21c3b916377e27545c96c7c53fc6cf64"}, {"lon": -77.02193483333333, "lat": 38.9109405, "name": "736f7a6539c7241d5c13cccd65120936", "fusion_lat": 0.0, "fusion_lon": 0.0, "rental_uris": {"android": "https://dc.lft.to/lastmile_qr_scan", "ios": "https://dc.lft.to/lastmile_qr_scan"}, "is_reserved": 0, "is_disabled": 0, "type": "electric_scooter", "bike_id": "736f7a6539c7241d5c13cccd65120936"}, {"lon": -77.04827433333334, "lat": 38.9005425, "name": "ef701dc5be3770827c3a9662149edb5c", "fusion_lat": 0.0, "fusion_lon": 0.0, "rental_uris": {"android": "https://dc.lft.to/lastmile_qr_scan", "ios": "https://dc.lft.to/lastmile_qr_scan"}, "is_reserved": 0, "is_disabled": 0, "type": "electric_scooter", "bike_id": "ef701dc5be3770827c3a9662149edb5c"}, {"lon": -77.14119566666666, "lat": 38.81600383333333, "name": "c9ca752a87e9005d752e39b78a5ed396", "fusion_lat": 0.0, "fusion_lon": 0.0, "rental_uris": {"android": "https://dc.lft.to/lastmile_qr_scan", "ios": "https://dc.lft.to/lastmile_qr_scan"}, "is_reserved": 0, "is_disabled": 0, "type": "electric_bike", "bike_id": "c9ca752a87e9005d752e39b78a5ed396"}, {"lon": -77.00675733333334, "lat": 38.87487516666667, "name": "9a424129f7b1f93d002cdba97d2291a3", "fusion_lat": 0.0, "fusion_lon": 0.0, "rental_uris": {"android": "https://dc.lft.to/lastmile_qr_scan", "ios": "https://dc.lft.to/lastmile_qr_scan"}, "is_reserved": 0, "is_disabled": 0, "type": "electric_scooter", "bike_id": "9a424129f7b1f93d002cdba97d2291a3"}, {"lon": -77.06529616666667, "lat": 38.93473133333333, "name": "155391652826ec9048a5a138bc84b8c1", "fusion_lat": 0.0, "fusion_lon": 0.0, "rental_uris": {"android": "https://dc.lft.to/lastmile_qr_scan", "ios": "https://dc.lft.to/lastmile_qr_scan"}, "is_reserved": 0, "is_disabled": 0, "type": "electric_scooter", "bike_id": "155391652826ec9048a5a138bc84b8c1"}, {"lon": -77.02579483333334, "lat": 38.89244716666666, "name": "e3a4810651f30af4bdfa81328e6d4531", "fusion_lat": 0.0, "fusion_lon": 0.0, "rental_uris": {"android": "https://dc.lft.to/lastmile_qr_scan", "ios": "https://dc.lft.to/lastmile_qr_scan"}, "is_reserved": 0, "is_disabled": 0, "type": "electric_scooter", "bike_id": "e3a4810651f30af4bdfa81328e6d4531"}, {"lon": -77.0486425, "lat": 38.904860666666664, "name": "d557da7fa88bcb3e2e162eb1a5eb2cea", "fusion_lat": 0.0, "fusion_lon": 0.0, "rental_uris": {"android": "https://dc.lft.to/lastmile_qr_scan", "ios": "https://dc.lft.to/lastmile_qr_scan"}, "is_reserved": 0, "is_disabled": 0, "type": "electric_scooter", "bike_id": "d557da7fa88bcb3e2e162eb1a5eb2cea"}, {"lon": -77.03453733333333, "lat": 38.9073505, "name": "c392573d391219e201682dcdc00be661", "fusion_lat": 0.0, "fusion_lon": 0.0, "rental_uris": {"android": "https://dc.lft.to/lastmile_qr_scan", "ios": "https://dc.lft.to/lastmile_qr_scan"}, "is_reserved": 0, "is_disabled": 0, "type": "electric_scooter", "bike_id": "c392573d391219e201682dcdc00be661"}, {"lon": -77.02806166666667, "lat": 38.90427433333333, "name": "2faf207f41e66f9112a4faf91e49a84d", "fusion_lat": 0.0, "fusion_lon": 0.0, "rental_uris": {"android": "https://dc.lft.to/lastmile_qr_scan", "ios": "https://dc.lft.to/lastmile_qr_scan"}, "is_reserved": 0, "is_disabled": 0, "type": "electric_scooter", "bike_id": "2faf207f41e66f9112a4faf91e49a84d"}, {"lon": -77.03209266666667, "lat": 38.929705166666665, "name": "9cdebfa629695e2db3a25d00f880d448", "fusion_lat": 0.0, "fusion_lon": 0.0, "rental_uris": {"android": "https://dc.lft.to/lastmile_qr_scan", "ios": "https://dc.lft.to/lastmile_qr_scan"}, "is_reserved": 0, "is_disabled": 0, "type": "electric_scooter", "bike_id": "9cdebfa629695e2db3a25d00f880d448"}, {"lon": -76.98454683333334, "lat": 38.914262666666666, "name": "883a3effac053feb9cb40b71ea033a88", "fusion_lat": 0.0, "fusion_lon": 0.0, "rental_uris": {"android": "https://dc.lft.to/lastmile_qr_scan", "ios": "https://dc.lft.to/lastmile_qr_scan"}, "is_reserved": 0, "is_disabled": 0, "type": "electric_scooter", "bike_id": "883a3effac053feb9cb40b71ea033a88"}, {"lon": -76.90816583333333, "lat": 38.994520666666666, "name": "a297c2ed9f01b7dce44a80d0c29f63c9", "fusion_lat": 0.0, "fusion_lon": 0.0, "rental_uris": {"android": "https://dc.lft.to/lastmile_qr_scan", "ios": "https://dc.lft.to/lastmile_qr_scan"}, "is_reserved": 0, "is_disabled": 0, "type": "electric_bike", "bike_id": "a297c2ed9f01b7dce44a80d0c29f63c9"}, {"lon": -77.04819733333333, "lat": 38.91333, "name": "4f94b551e71cb3b849ed7da274944caa", "fusion_lat": 0.0, "fusion_lon": 0.0, "rental_uris": {"android": "https://dc.lft.to/lastmile_qr_scan", "ios": "https://dc.lft.to/lastmile_qr_scan"}, "is_reserved": 0, "is_disabled": 0, "type": "electric_scooter", "bike_id": "4f94b551e71cb3b849ed7da274944caa"}, {"lon": -77.05730133333333, "lat": 38.933647666666666, "name": "5c5943148f0df39f1f900c388178c60f", "fusion_lat": 0.0, "fusion_lon": 0.0, "rental_uris": {"android": "https://dc.lft.to/lastmile_qr_scan", "ios": "https://dc.lft.to/lastmile_qr_scan"}, "is_reserved": 0, "is_disabled": 0, "type": "electric_scooter", "bike_id": "5c5943148f0df39f1f900c388178c60f"}, {"lon": -77.02976583333333, "lat": 38.962296333333335, "name": "dcfbe97be40e2f95583af2509fc1f1ff", "fusion_lat": 0.0, "fusion_lon": 0.0, "rental_uris": {"android": "https://dc.lft.to/lastmile_qr_scan", "ios": "https://dc.lft.to/lastmile_qr_scan"}, "is_reserved": 0, "is_disabled": 0, "type": "electric_scooter", "bike_id": "dcfbe97be40e2f95583af2509fc1f1ff"}, {"lon": -77.00356383333333, "lat": 38.88250716666667, "name": "698f0f611cbd51c3dbab85099629f26d", "fusion_lat": 0.0, "fusion_lon": 0.0, "rental_uris": {"android": "https://dc.lft.to/lastmile_qr_scan", "ios": "https://dc.lft.to/lastmile_qr_scan"}, "is_reserved": 0, "is_disabled": 0, "type": "electric_scooter", "bike_id": "698f0f611cbd51c3dbab85099629f26d"}, {"lon": -77.03456783333333, "lat": 38.9086365, "name": "61691071b5aeb0a715dcedd63c61b278", "fusion_lat": 0.0, "fusion_lon": 0.0, "rental_uris": {"android": "https://dc.lft.to/lastmile_qr_scan", "ios": "https://dc.lft.to/lastmile_qr_scan"}, "is_reserved": 0, "is_disabled": 0, "type": "electric_scooter", "bike_id": "61691071b5aeb0a715dcedd63c61b278"}, {"lon": -77.06135316666666, "lat": 38.9068395, "name": "379726c6ea5925b124d0be3f1d2f1f7d", "fusion_lat": 0.0, "fusion_lon": 0.0, "rental_uris": {"android": "https://dc.lft.to/lastmile_qr_scan", "ios": "https://dc.lft.to/lastmile_qr_scan"}, "is_reserved": 0, "is_disabled": 0, "type": "electric_scooter", "bike_id": "379726c6ea5925b124d0be3f1d2f1f7d"}, {"lon": -77.00137816666667, "lat": 38.904067, "name": "d48350d03b25f06f702b84baba1e9701", "fusion_lat": 0.0, "fusion_lon": 0.0, "rental_uris": {"android": "https://dc.lft.to/lastmile_qr_scan", "ios": "https://dc.lft.to/lastmile_qr_scan"}, "is_reserved": 0, "is_disabled": 0, "type": "electric_scooter", "bike_id": "d48350d03b25f06f702b84baba1e9701"}, {"lon": -77.02407816666667, "lat": 38.91996983333333, "name": "c54a02ac29ceaa4a9e75b3c960b8881e", "fusion_lat": 0.0, "fusion_lon": 0.0, "rental_uris": {"android": "https://dc.lft.to/lastmile_qr_scan", "ios": "https://dc.lft.to/lastmile_qr_scan"}, "is_reserved": 0, "is_disabled": 0, "type": "electric_scooter", "bike_id": "c54a02ac29ceaa4a9e75b3c960b8881e"}, {"lon": -77.031639, "lat": 38.914170666666664, "name": "66ded1cb8bb5340606c6ac85b0eeb911", "fusion_lat": 0.0, "fusion_lon": 0.0, "rental_uris": {"android": "https://dc.lft.to/lastmile_qr_scan", "ios": "https://dc.lft.to/lastmile_qr_scan"}, "is_reserved": 0, "is_disabled": 0, "type": "electric_scooter", "bike_id": "66ded1cb8bb5340606c6ac85b0eeb911"}, {"lon": -77.02244033333334, "lat": 38.912752, "name": "9fe3df93927f71628723af1709e23d43", "fusion_lat": 0.0, "fusion_lon": 0.0, "rental_uris": {"android": "https://dc.lft.to/lastmile_qr_scan", "ios": "https://dc.lft.to/lastmile_qr_scan"}, "is_reserved": 0, "is_disabled": 0, "type": "electric_scooter", "bike_id": "9fe3df93927f71628723af1709e23d43"}, {"lon": -77.10127516666667, "lat": 38.85207583333333, "name": "1f58ce72fb99ebf88d9bcc3c34059eea", "fusion_lat": 0.0, "fusion_lon": 0.0, "rental_uris": {"android": "https://dc.lft.to/lastmile_qr_scan", "ios": "https://dc.lft.to/lastmile_qr_scan"}, "is_reserved": 0, "is_disabled": 0, "type": "electric_bike", "bike_id": "1f58ce72fb99ebf88d9bcc3c34059eea"}, {"lon": -77.021649, "lat": 38.886297, "name": "8b0d19dffbf942e57dfe93a3a09fd658", "fusion_lat": 0.0, "fusion_lon": 0.0, "rental_uris": {"android": "https://dc.lft.to/lastmile_qr_scan", "ios": "https://dc.lft.to/lastmile_qr_scan"}, "is_reserved": 0, "is_disabled": 0, "type": "electric_scooter", "bike_id": "8b0d19dffbf942e57dfe93a3a09fd658"}, {"lon": -77.04391333333334, "lat": 38.9236175, "name": "26508f0f7737444e14d593d031ce8676", "fusion_lat": 0.0, "fusion_lon": 0.0, "rental_uris": {"android": "https://dc.lft.to/lastmile_qr_scan", "ios": "https://dc.lft.to/lastmile_qr_scan"}, "is_reserved": 0, "is_disabled": 0, "type": "electric_scooter", "bike_id": "26508f0f7737444e14d593d031ce8676"}, {"lon": -76.97251383333334, "lat": 38.95741866666667, "name": "7a8e4d3bb8d7c530ab5f6fcc25d11265", "fusion_lat": 0.0, "fusion_lon": 0.0, "rental_uris": {"android": "https://dc.lft.to/lastmile_qr_scan", "ios": "https://dc.lft.to/lastmile_qr_scan"}, "is_reserved": 0, "is_disabled": 0, "type": "electric_bike", "bike_id": "7a8e4d3bb8d7c530ab5f6fcc25d11265"}, {"lon": -77.03845083333333, "lat": 38.91205216666667, "name": "0b27c03d9194fe3d94cd63ce53f97a0a", "fusion_lat": 0.0, "fusion_lon": 0.0, "rental_uris": {"android": "https://dc.lft.to/lastmile_qr_scan", "ios": "https://dc.lft.to/lastmile_qr_scan"}, "is_reserved": 0, "is_disabled": 0, "type": "electric_scooter", "bike_id": "0b27c03d9194fe3d94cd63ce53f97a0a"}, {"lon": -77.00272816666667, "lat": 38.90748266666667, "name": "e1aa1fa667e5c968169f50c37fe956f6", "fusion_lat": 0.0, "fusion_lon": 0.0, "rental_uris": {"android": "https://dc.lft.to/lastmile_qr_scan", "ios": "https://dc.lft.to/lastmile_qr_scan"}, "is_reserved": 0, "is_disabled": 0, "type": "electric_scooter", "bike_id": "e1aa1fa667e5c968169f50c37fe956f6"}, {"lon": -76.9465455, "lat": 38.8982605, "name": "e8f546d47dabf061cbb7f0b0b38d9825", "fusion_lat": 0.0, "fusion_lon": 0.0, "rental_uris": {"android": "https://dc.lft.to/lastmile_qr_scan", "ios": "https://dc.lft.to/lastmile_qr_scan"}, "is_reserved": 0, "is_disabled": 0, "type": "electric_scooter", "bike_id": "e8f546d47dabf061cbb7f0b0b38d9825"}, {"lon": -77.03341083333333, "lat": 38.89744816666666, "name": "ce05606dfdc4d82cf80834d8788ae2e8", "fusion_lat": 0.0, "fusion_lon": 0.0, "rental_uris": {"android": "https://dc.lft.to/lastmile_qr_scan", "ios": "https://dc.lft.to/lastmile_qr_scan"}, "is_reserved": 0, "is_disabled": 0, "type": "electric_scooter", "bike_id": "ce05606dfdc4d82cf80834d8788ae2e8"}, {"lon": -77.04277366666666, "lat": 38.923101333333335, "name": "d4dd7b6e1b9c0f87de63127f23f8ac96", "fusion_lat": 0.0, "fusion_lon": 0.0, "rental_uris": {"android": "https://dc.lft.to/lastmile_qr_scan", "ios": "https://dc.lft.to/lastmile_qr_scan"}, "is_reserved": 0, "is_disabled": 0, "type": "electric_scooter", "bike_id": "d4dd7b6e1b9c0f87de63127f23f8ac96"}, {"lon": -77.07592583333333, "lat": 38.912147833333336, "name": "a105fe5bd23fe55da23e32346b53b7ec", "fusion_lat": 0.0, "fusion_lon": 0.0, "rental_uris": {"android": "https://dc.lft.to/lastmile_qr_scan", "ios": "https://dc.lft.to/lastmile_qr_scan"}, "is_reserved": 0, "is_disabled": 0, "type": "electric_scooter", "bike_id": "a105fe5bd23fe55da23e32346b53b7ec"}, {"lon": -76.95661216666667, "lat": 38.896067333333335, "name": "b4ca462989be7106194694a5a62fd4d3", "fusion_lat": 0.0, "fusion_lon": 0.0, "rental_uris": {"android": "https://dc.lft.to/lastmile_qr_scan", "ios": "https://dc.lft.to/lastmile_qr_scan"}, "is_reserved": 0, "is_disabled": 0, "type": "electric_scooter", "bike_id": "b4ca462989be7106194694a5a62fd4d3"}, {"lon": -77.03816633333334, "lat": 38.93112633333333, "name": "5edad05d41ab1ff94f4cfdf6574b3f1e", "fusion_lat": 0.0, "fusion_lon": 0.0, "rental_uris": {"android": "https://dc.lft.to/lastmile_qr_scan", "ios": "https://dc.lft.to/lastmile_qr_scan"}, "is_reserved": 0, "is_disabled": 0, "type": "electric_scooter", "bike_id": "5edad05d41ab1ff94f4cfdf6574b3f1e"}, {"lon": -77.35308016666667, "lat": 38.949996166666665, "name": "74cd956bd25f25a144cebcbf8049132d", "fusion_lat": 0.0, "fusion_lon": 0.0, "rental_uris": {"android": "https://dc.lft.to/lastmile_qr_scan", "ios": "https://dc.lft.to/lastmile_qr_scan"}, "is_reserved": 0, "is_disabled": 0, "type": "electric_bike", "bike_id": "74cd956bd25f25a144cebcbf8049132d"}, {"lon": -77.03434983333334, "lat": 38.9027165, "name": "d0533ac288eaf06a8039c3b1ca7df427", "fusion_lat": 0.0, "fusion_lon": 0.0, "rental_uris": {"android": "https://dc.lft.to/lastmile_qr_scan", "ios": "https://dc.lft.to/lastmile_qr_scan"}, "is_reserved": 0, "is_disabled": 0, "type": "electric_scooter", "bike_id": "d0533ac288eaf06a8039c3b1ca7df427"}, {"lon": -77.00752466666667, "lat": 38.871233833333335, "name": "993a7616bf050e20ab581385c9cce8af", "fusion_lat": 0.0, "fusion_lon": 0.0, "rental_uris": {"android": "https://dc.lft.to/lastmile_qr_scan", "ios": "https://dc.lft.to/lastmile_qr_scan"}, "is_reserved": 0, "is_disabled": 0, "type": "electric_scooter", "bike_id": "993a7616bf050e20ab581385c9cce8af"}, {"lon": -77.0383565, "lat": 38.93143383333334, "name": "2a9a762ef90810a219db5344f8e68943", "fusion_lat": 0.0, "fusion_lon": 0.0, "rental_uris": {"android": "https://dc.lft.to/lastmile_qr_scan", "ios": "https://dc.lft.to/lastmile_qr_scan"}, "is_reserved": 0, "is_disabled": 0, "type": "electric_scooter", "bike_id": "2a9a762ef90810a219db5344f8e68943"}, {"lon": -77.00830266666667, "lat": 38.91371733333333, "name": "a6ad01a5438541dae3f4e0afa184839f", "fusion_lat": 0.0, "fusion_lon": 0.0, "rental_uris": {"android": "https://dc.lft.to/lastmile_qr_scan", "ios": "https://dc.lft.to/lastmile_qr_scan"}, "is_reserved": 0, "is_disabled": 0, "type": "electric_scooter", "bike_id": "a6ad01a5438541dae3f4e0afa184839f"}, {"lon": -77.02726133333333, "lat": 38.9512965, "name": "39be5c2fe688ac49d5770123493db6b6", "fusion_lat": 0.0, "fusion_lon": 0.0, "rental_uris": {"android": "https://dc.lft.to/lastmile_qr_scan", "ios": "https://dc.lft.to/lastmile_qr_scan"}, "is_reserved": 0, "is_disabled": 0, "type": "electric_scooter", "bike_id": "39be5c2fe688ac49d5770123493db6b6"}, {"lon": -77.00931166666666, "lat": 38.896045666666666, "name": "7799f51e2947a68008e23d870236cc2d", "fusion_lat": 0.0, "fusion_lon": 0.0, "rental_uris": {"android": "https://dc.lft.to/lastmile_qr_scan", "ios": "https://dc.lft.to/lastmile_qr_scan"}, "is_reserved": 0, "is_disabled": 0, "type": "electric_scooter", "bike_id": "7799f51e2947a68008e23d870236cc2d"}, {"lon": -77.03515616666667, "lat": 38.935993333333336, "name": "cc05e4e22d9a0e2e9fa6014c717d373b", "fusion_lat": 0.0, "fusion_lon": 0.0, "rental_uris": {"android": "https://dc.lft.to/lastmile_qr_scan", "ios": "https://dc.lft.to/lastmile_qr_scan"}, "is_reserved": 0, "is_disabled": 0, "type": "electric_scooter", "bike_id": "cc05e4e22d9a0e2e9fa6014c717d373b"}, {"lon": -77.05216416666667, "lat": 38.9353415, "name": "ba6fe16029ae8485abae9d2d4a479c1d", "fusion_lat": 0.0, "fusion_lon": 0.0, "rental_uris": {"android": "https://dc.lft.to/lastmile_qr_scan", "ios": "https://dc.lft.to/lastmile_qr_scan"}, "is_reserved": 0, "is_disabled": 0, "type": "electric_bike", "bike_id": "ba6fe16029ae8485abae9d2d4a479c1d"}, {"lon": -77.04334116666666, "lat": 38.911973, "name": "a2a587837c408c7aae3f60698ba733ab", "fusion_lat": 0.0, "fusion_lon": 0.0, "rental_uris": {"android": "https://dc.lft.to/lastmile_qr_scan", "ios": "https://dc.lft.to/lastmile_qr_scan"}, "is_reserved": 0, "is_disabled": 0, "type": "electric_scooter", "bike_id": "a2a587837c408c7aae3f60698ba733ab"}, {"lon": -76.98764583333333, "lat": 38.84501233333334, "name": "6940833eb3c9ae46429394e0ee7df944", "fusion_lat": 0.0, "fusion_lon": 0.0, "rental_uris": {"android": "https://dc.lft.to/lastmile_qr_scan", "ios": "https://dc.lft.to/lastmile_qr_scan"}, "is_reserved": 0, "is_disabled": 0, "type": "electric_scooter", "bike_id": "6940833eb3c9ae46429394e0ee7df944"}, {"lon": -77.0324455, "lat": 38.92978683333333, "name": "0db36893ea5610cc82009fd022ea2fd7", "fusion_lat": 0.0, "fusion_lon": 0.0, "rental_uris": {"android": "https://dc.lft.to/lastmile_qr_scan", "ios": "https://dc.lft.to/lastmile_qr_scan"}, "is_reserved": 0, "is_disabled": 0, "type": "electric_scooter", "bike_id": "0db36893ea5610cc82009fd022ea2fd7"}, {"lon": -76.99621016666667, "lat": 38.88563466666667, "name": "68017c5d24d9d522afae31a34b6ec00b", "fusion_lat": 0.0, "fusion_lon": 0.0, "rental_uris": {"android": "https://dc.lft.to/lastmile_qr_scan", "ios": "https://dc.lft.to/lastmile_qr_scan"}, "is_reserved": 0, "is_disabled": 0, "type": "electric_scooter", "bike_id": "68017c5d24d9d522afae31a34b6ec00b"}, {"lon": -77.00203666666667, "lat": 38.900353333333335, "name": "c0d668df7f8d3d57dc4f26373c56021b", "fusion_lat": 0.0, "fusion_lon": 0.0, "rental_uris": {"android": "https://dc.lft.to/lastmile_qr_scan", "ios": "https://dc.lft.to/lastmile_qr_scan"}, "is_reserved": 0, "is_disabled": 0, "type": "electric_scooter", "bike_id": "c0d668df7f8d3d57dc4f26373c56021b"}, {"lon": -77.05690166666666, "lat": 38.923305166666665, "name": "4fc1cc67b0df121eb96e6c306fbc72c0", "fusion_lat": 0.0, "fusion_lon": 0.0, "rental_uris": {"android": "https://dc.lft.to/lastmile_qr_scan", "ios": "https://dc.lft.to/lastmile_qr_scan"}, "is_reserved": 0, "is_disabled": 0, "type": "electric_scooter", "bike_id": "4fc1cc67b0df121eb96e6c306fbc72c0"}, {"lon": -77.03836666666666, "lat": 38.9049795, "name": "22700ddd1ffafc8df6fd2128fc62c2e4", "fusion_lat": 0.0, "fusion_lon": 0.0, "rental_uris": {"android": "https://dc.lft.to/lastmile_qr_scan", "ios": "https://dc.lft.to/lastmile_qr_scan"}, "is_reserved": 0, "is_disabled": 0, "type": "electric_scooter", "bike_id": "22700ddd1ffafc8df6fd2128fc62c2e4"}, {"lon": -76.99092316666666, "lat": 38.8635375, "name": "ac815a217a277c94bfc24f9863ae833a", "fusion_lat": 0.0, "fusion_lon": 0.0, "rental_uris": {"android": "https://dc.lft.to/lastmile_qr_scan", "ios": "https://dc.lft.to/lastmile_qr_scan"}, "is_reserved": 0, "is_disabled": 0, "type": "electric_scooter", "bike_id": "ac815a217a277c94bfc24f9863ae833a"}, {"lon": -77.0282445, "lat": 38.8874085, "name": "e98c782f961aded0cd2c35692ac373cc", "fusion_lat": 0.0, "fusion_lon": 0.0, "rental_uris": {"android": "https://dc.lft.to/lastmile_qr_scan", "ios": "https://dc.lft.to/lastmile_qr_scan"}, "is_reserved": 0, "is_disabled": 0, "type": "electric_scooter", "bike_id": "e98c782f961aded0cd2c35692ac373cc"}, {"lon": -76.98436333333333, "lat": 38.85509366666667, "name": "159a73ab7d1952d94c21066c47872e7d", "fusion_lat": 0.0, "fusion_lon": 0.0, "rental_uris": {"android": "https://dc.lft.to/lastmile_qr_scan", "ios": "https://dc.lft.to/lastmile_qr_scan"}, "is_reserved": 0, "is_disabled": 0, "type": "electric_bike", "bike_id": "159a73ab7d1952d94c21066c47872e7d"}, {"lon": -77.07190066666666, "lat": 38.9199675, "name": "edc47609e92e4b2f8232e74c19a1023e", "fusion_lat": 0.0, "fusion_lon": 0.0, "rental_uris": {"android": "https://dc.lft.to/lastmile_qr_scan", "ios": "https://dc.lft.to/lastmile_qr_scan"}, "is_reserved": 0, "is_disabled": 0, "type": "electric_scooter", "bike_id": "edc47609e92e4b2f8232e74c19a1023e"}, {"lon": -77.029629, "lat": 38.89220733333333, "name": "a2bc44324dcd511e4773a3677b8cce8f", "fusion_lat": 0.0, "fusion_lon": 0.0, "rental_uris": {"android": "https://dc.lft.to/lastmile_qr_scan", "ios": "https://dc.lft.to/lastmile_qr_scan"}, "is_reserved": 0, "is_disabled": 0, "type": "electric_scooter", "bike_id": "a2bc44324dcd511e4773a3677b8cce8f"}, {"lon": -77.03648266666667, "lat": 38.9558975, "name": "a249caa6f0a30bb03606ead9b538053a", "fusion_lat": 0.0, "fusion_lon": 0.0, "rental_uris": {"android": "https://dc.lft.to/lastmile_qr_scan", "ios": "https://dc.lft.to/lastmile_qr_scan"}, "is_reserved": 0, "is_disabled": 0, "type": "electric_scooter", "bike_id": "a249caa6f0a30bb03606ead9b538053a"}, {"lon": -76.96548766666666, "lat": 38.95117333333334, "name": "b582b124af7de0c9b6aac4e7a020ac28", "fusion_lat": 0.0, "fusion_lon": 0.0, "rental_uris": {"android": "https://dc.lft.to/lastmile_qr_scan", "ios": "https://dc.lft.to/lastmile_qr_scan"}, "is_reserved": 0, "is_disabled": 0, "type": "electric_bike", "bike_id": "b582b124af7de0c9b6aac4e7a020ac28"}, {"lon": -77.03128216666667, "lat": 38.91035683333333, "name": "e14bd5be2641f66dbd6327532e286dde", "fusion_lat": 0.0, "fusion_lon": 0.0, "rental_uris": {"android": "https://dc.lft.to/lastmile_qr_scan", "ios": "https://dc.lft.to/lastmile_qr_scan"}, "is_reserved": 0, "is_disabled": 0, "type": "electric_scooter", "bike_id": "e14bd5be2641f66dbd6327532e286dde"}, {"lon": -76.98743116666667, "lat": 38.85790816666667, "name": "f0bd37e9ecc77fcb1c532c7fb591bff3", "fusion_lat": 0.0, "fusion_lon": 0.0, "rental_uris": {"android": "https://dc.lft.to/lastmile_qr_scan", "ios": "https://dc.lft.to/lastmile_qr_scan"}, "is_reserved": 0, "is_disabled": 0, "type": "electric_bike", "bike_id": "f0bd37e9ecc77fcb1c532c7fb591bff3"}, {"lon": -77.12623633333334, "lat": 39.058114333333336, "name": "75139576e96b99658797cf99775fba17", "fusion_lat": 0.0, "fusion_lon": 0.0, "rental_uris": {"android": "https://dc.lft.to/lastmile_qr_scan", "ios": "https://dc.lft.to/lastmile_qr_scan"}, "is_reserved": 0, "is_disabled": 0, "type": "electric_bike", "bike_id": "75139576e96b99658797cf99775fba17"}, {"lon": -76.98399433333333, "lat": 38.9220185, "name": "9c06037ecd6216e9f5756d453d630b3e", "fusion_lat": 0.0, "fusion_lon": 0.0, "rental_uris": {"android": "https://dc.lft.to/lastmile_qr_scan", "ios": "https://dc.lft.to/lastmile_qr_scan"}, "is_reserved": 0, "is_disabled": 0, "type": "electric_bike", "bike_id": "9c06037ecd6216e9f5756d453d630b3e"}, {"lon": -77.053225, "lat": 38.90505733333333, "name": "fd104861c28ac580bb75adc470235c04", "fusion_lat": 0.0, "fusion_lon": 0.0, "rental_uris": {"android": "https://dc.lft.to/lastmile_qr_scan", "ios": "https://dc.lft.to/lastmile_qr_scan"}, "is_reserved": 0, "is_disabled": 0, "type": "electric_scooter", "bike_id": "fd104861c28ac580bb75adc470235c04"}, {"lon": -77.04337766666667, "lat": 38.90359083333333, "name": "7ddb1cc77fd3a4cb32a9e6bdc392ded1", "fusion_lat": 0.0, "fusion_lon": 0.0, "rental_uris": {"android": "https://dc.lft.to/lastmile_qr_scan", "ios": "https://dc.lft.to/lastmile_qr_scan"}, "is_reserved": 0, "is_disabled": 0, "type": "electric_scooter", "bike_id": "7ddb1cc77fd3a4cb32a9e6bdc392ded1"}, {"lon": -77.03273133333333, "lat": 38.8989135, "name": "ce12cd415f7bac45bcd1df09d669e47d", "fusion_lat": 0.0, "fusion_lon": 0.0, "rental_uris": {"android": "https://dc.lft.to/lastmile_qr_scan", "ios": "https://dc.lft.to/lastmile_qr_scan"}, "is_reserved": 0, "is_disabled": 0, "type": "electric_scooter", "bike_id": "ce12cd415f7bac45bcd1df09d669e47d"}, {"lon": -77.01862516666667, "lat": 38.973666, "name": "4b36dc31067a83587368230eefd45449", "fusion_lat": 0.0, "fusion_lon": 0.0, "rental_uris": {"android": "https://dc.lft.to/lastmile_qr_scan", "ios": "https://dc.lft.to/lastmile_qr_scan"}, "is_reserved": 0, "is_disabled": 0, "type": "electric_scooter", "bike_id": "4b36dc31067a83587368230eefd45449"}, {"lon": -77.03298966666667, "lat": 38.90341016666667, "name": "02388b5e0766ce6205ce7fbc22cf82cd", "fusion_lat": 0.0, "fusion_lon": 0.0, "rental_uris": {"android": "https://dc.lft.to/lastmile_qr_scan", "ios": "https://dc.lft.to/lastmile_qr_scan"}, "is_reserved": 0, "is_disabled": 0, "type": "electric_scooter", "bike_id": "02388b5e0766ce6205ce7fbc22cf82cd"}, {"lon": -77.03175166666666, "lat": 38.9192045, "name": "8461acfe8e7b5f8ebc624a13db871c26", "fusion_lat": 0.0, "fusion_lon": 0.0, "rental_uris": {"android": "https://dc.lft.to/lastmile_qr_scan", "ios": "https://dc.lft.to/lastmile_qr_scan"}, "is_reserved": 0, "is_disabled": 0, "type": "electric_scooter", "bike_id": "8461acfe8e7b5f8ebc624a13db871c26"}, {"lon": -76.99829233333334, "lat": 38.8442005, "name": "aefb22bd3bbb0da6a6d5fa84609c92c1", "fusion_lat": 0.0, "fusion_lon": 0.0, "rental_uris": {"android": "https://dc.lft.to/lastmile_qr_scan", "ios": "https://dc.lft.to/lastmile_qr_scan"}, "is_reserved": 0, "is_disabled": 0, "type": "electric_scooter", "bike_id": "aefb22bd3bbb0da6a6d5fa84609c92c1"}, {"lon": -77.0319265, "lat": 38.930701166666665, "name": "b30d8aac73fcbd60e53a7a4181e66784", "fusion_lat": 0.0, "fusion_lon": 0.0, "rental_uris": {"android": "https://dc.lft.to/lastmile_qr_scan", "ios": "https://dc.lft.to/lastmile_qr_scan"}, "is_reserved": 0, "is_disabled": 0, "type": "electric_scooter", "bike_id": "b30d8aac73fcbd60e53a7a4181e66784"}, {"lon": -77.06950516666667, "lat": 38.9904385, "name": "285d7dab94b65e4a6ed4b3e26ea41b50", "fusion_lat": 0.0, "fusion_lon": 0.0, "rental_uris": {"android": "https://dc.lft.to/lastmile_qr_scan", "ios": "https://dc.lft.to/lastmile_qr_scan"}, "is_reserved": 0, "is_disabled": 0, "type": "electric_bike", "bike_id": "285d7dab94b65e4a6ed4b3e26ea41b50"}, {"lon": -77.0053295, "lat": 38.87472316666667, "name": "e698e6cd2d7b3861a2606cb7853d685d", "fusion_lat": 0.0, "fusion_lon": 0.0, "rental_uris": {"android": "https://dc.lft.to/lastmile_qr_scan", "ios": "https://dc.lft.to/lastmile_qr_scan"}, "is_reserved": 0, "is_disabled": 0, "type": "electric_scooter", "bike_id": "e698e6cd2d7b3861a2606cb7853d685d"}, {"lon": -77.02514716666667, "lat": 38.92637216666667, "name": "52691b38e38b9dd0ac4e34c1bf3937f3", "fusion_lat": 0.0, "fusion_lon": 0.0, "rental_uris": {"android": "https://dc.lft.to/lastmile_qr_scan", "ios": "https://dc.lft.to/lastmile_qr_scan"}, "is_reserved": 0, "is_disabled": 0, "type": "electric_scooter", "bike_id": "52691b38e38b9dd0ac4e34c1bf3937f3"}, {"lon": -77.02961416666666, "lat": 38.95423516666666, "name": "ac005c18cd8fb12c88a98ea96815daac", "fusion_lat": 0.0, "fusion_lon": 0.0, "rental_uris": {"android": "https://dc.lft.to/lastmile_qr_scan", "ios": "https://dc.lft.to/lastmile_qr_scan"}, "is_reserved": 0, "is_disabled": 0, "type": "electric_scooter", "bike_id": "ac005c18cd8fb12c88a98ea96815daac"}, {"lon": -77.015375, "lat": 38.89220533333334, "name": "d0ccd01ab7a97ca4b33417dc8a4f6104", "fusion_lat": 0.0, "fusion_lon": 0.0, "rental_uris": {"android": "https://dc.lft.to/lastmile_qr_scan", "ios": "https://dc.lft.to/lastmile_qr_scan"}, "is_reserved": 0, "is_disabled": 0, "type": "electric_scooter", "bike_id": "d0ccd01ab7a97ca4b33417dc8a4f6104"}, {"lon": -76.93761083333334, "lat": 38.899772666666664, "name": "a880fd479c8173565561e320fe9c4e1d", "fusion_lat": 0.0, "fusion_lon": 0.0, "rental_uris": {"android": "https://dc.lft.to/lastmile_qr_scan", "ios": "https://dc.lft.to/lastmile_qr_scan"}, "is_reserved": 0, "is_disabled": 0, "type": "electric_scooter", "bike_id": "a880fd479c8173565561e320fe9c4e1d"}, {"lon": -77.02959366666667, "lat": 38.90494566666667, "name": "159fa35dbf83d03552ec22f25acd8c8f", "fusion_lat": 0.0, "fusion_lon": 0.0, "rental_uris": {"android": "https://dc.lft.to/lastmile_qr_scan", "ios": "https://dc.lft.to/lastmile_qr_scan"}, "is_reserved": 0, "is_disabled": 0, "type": "electric_scooter", "bike_id": "159fa35dbf83d03552ec22f25acd8c8f"}, {"lon": -76.9860595, "lat": 38.906292, "name": "c06522065309665d5b6a8ef10726afd9", "fusion_lat": 0.0, "fusion_lon": 0.0, "rental_uris": {"android": "https://dc.lft.to/lastmile_qr_scan", "ios": "https://dc.lft.to/lastmile_qr_scan"}, "is_reserved": 0, "is_disabled": 0, "type": "electric_bike", "bike_id": "c06522065309665d5b6a8ef10726afd9"}, {"lon": -77.02590216666667, "lat": 38.90423, "name": "15834153bc0764cb476ec1990ed7e8d2", "fusion_lat": 0.0, "fusion_lon": 0.0, "rental_uris": {"android": "https://dc.lft.to/lastmile_qr_scan", "ios": "https://dc.lft.to/lastmile_qr_scan"}, "is_reserved": 0, "is_disabled": 0, "type": "electric_scooter", "bike_id": "15834153bc0764cb476ec1990ed7e8d2"}, {"lon": -77.047318, "lat": 38.91118433333333, "name": "ca567913bb4a997690c04b3789ed8bc8", "fusion_lat": 0.0, "fusion_lon": 0.0, "rental_uris": {"android": "https://dc.lft.to/lastmile_qr_scan", "ios": "https://dc.lft.to/lastmile_qr_scan"}, "is_reserved": 0, "is_disabled": 0, "type": "electric_scooter", "bike_id": "ca567913bb4a997690c04b3789ed8bc8"}, {"lon": -77.0382535, "lat": 38.912686, "name": "2f4c6ab9ba1ed8c868276d7dab48c50d", "fusion_lat": 0.0, "fusion_lon": 0.0, "rental_uris": {"android": "https://dc.lft.to/lastmile_qr_scan", "ios": "https://dc.lft.to/lastmile_qr_scan"}, "is_reserved": 0, "is_disabled": 0, "type": "electric_scooter", "bike_id": "2f4c6ab9ba1ed8c868276d7dab48c50d"}, {"lon": -77.103298, "lat": 38.96506216666667, "name": "20114873105dcd20f8115fc2fa46bcfb", "fusion_lat": 0.0, "fusion_lon": 0.0, "rental_uris": {"android": "https://dc.lft.to/lastmile_qr_scan", "ios": "https://dc.lft.to/lastmile_qr_scan"}, "is_reserved": 0, "is_disabled": 0, "type": "electric_bike", "bike_id": "20114873105dcd20f8115fc2fa46bcfb"}, {"lon": -76.949073, "lat": 38.895561666666666, "name": "5c898c6c75d82ce64b02e183e1c50bd1", "fusion_lat": 0.0, "fusion_lon": 0.0, "rental_uris": {"android": "https://dc.lft.to/lastmile_qr_scan", "ios": "https://dc.lft.to/lastmile_qr_scan"}, "is_reserved": 0, "is_disabled": 0, "type": "electric_scooter", "bike_id": "5c898c6c75d82ce64b02e183e1c50bd1"}, {"lon": -77.01252166666667, "lat": 38.87630216666667, "name": "0fa7bd16e6ee32527b1cc55055707515", "fusion_lat": 0.0, "fusion_lon": 0.0, "rental_uris": {"android": "https://dc.lft.to/lastmile_qr_scan", "ios": "https://dc.lft.to/lastmile_qr_scan"}, "is_reserved": 0, "is_disabled": 0, "type": "electric_scooter", "bike_id": "0fa7bd16e6ee32527b1cc55055707515"}, {"lon": -77.0240975, "lat": 38.92599833333333, "name": "ea0c90557f2d1084dd7d0dac767fe11c", "fusion_lat": 0.0, "fusion_lon": 0.0, "rental_uris": {"android": "https://dc.lft.to/lastmile_qr_scan", "ios": "https://dc.lft.to/lastmile_qr_scan"}, "is_reserved": 0, "is_disabled": 0, "type": "electric_scooter", "bike_id": "ea0c90557f2d1084dd7d0dac767fe11c"}, {"lon": -77.02414716666667, "lat": 38.920765, "name": "dc01dfb9cac4164ada6ffb400375d59b", "fusion_lat": 0.0, "fusion_lon": 0.0, "rental_uris": {"android": "https://dc.lft.to/lastmile_qr_scan", "ios": "https://dc.lft.to/lastmile_qr_scan"}, "is_reserved": 0, "is_disabled": 0, "type": "electric_scooter", "bike_id": "dc01dfb9cac4164ada6ffb400375d59b"}, {"lon": -77.0014155, "lat": 38.907649666666664, "name": "0ef2d7568610fde9084a1132da9c73a0", "fusion_lat": 0.0, "fusion_lon": 0.0, "rental_uris": {"android": "https://dc.lft.to/lastmile_qr_scan", "ios": "https://dc.lft.to/lastmile_qr_scan"}, "is_reserved": 0, "is_disabled": 0, "type": "electric_scooter", "bike_id": "0ef2d7568610fde9084a1132da9c73a0"}, {"lon": -77.02049566666666, "lat": 38.915531, "name": "b074a3ec23b701314aa1916b5a5cae69", "fusion_lat": 0.0, "fusion_lon": 0.0, "rental_uris": {"android": "https://dc.lft.to/lastmile_qr_scan", "ios": "https://dc.lft.to/lastmile_qr_scan"}, "is_reserved": 0, "is_disabled": 0, "type": "electric_scooter", "bike_id": "b074a3ec23b701314aa1916b5a5cae69"}, {"lon": -77.02372, "lat": 38.907200333333336, "name": "4a657d56697be7b6700c1983fc0e4646", "fusion_lat": 0.0, "fusion_lon": 0.0, "rental_uris": {"android": "https://dc.lft.to/lastmile_qr_scan", "ios": "https://dc.lft.to/lastmile_qr_scan"}, "is_reserved": 0, "is_disabled": 0, "type": "electric_scooter", "bike_id": "4a657d56697be7b6700c1983fc0e4646"}, {"lon": -77.01589083333333, "lat": 38.95761616666667, "name": "a41baebab47919498658889eef5234c3", "fusion_lat": 0.0, "fusion_lon": 0.0, "rental_uris": {"android": "https://dc.lft.to/lastmile_qr_scan", "ios": "https://dc.lft.to/lastmile_qr_scan"}, "is_reserved": 0, "is_disabled": 0, "type": "electric_scooter", "bike_id": "a41baebab47919498658889eef5234c3"}, {"lon": -77.03279633333334, "lat": 38.930076, "name": "94afb039eefd7bc8f927d7fb0436a0c3", "fusion_lat": 0.0, "fusion_lon": 0.0, "rental_uris": {"android": "https://dc.lft.to/lastmile_qr_scan", "ios": "https://dc.lft.to/lastmile_qr_scan"}, "is_reserved": 0, "is_disabled": 0, "type": "electric_scooter", "bike_id": "94afb039eefd7bc8f927d7fb0436a0c3"}, {"lon": -77.005834, "lat": 38.905617, "name": "d6dd0aef68add30be6de4c09748c5d15", "fusion_lat": 0.0, "fusion_lon": 0.0, "rental_uris": {"android": "https://dc.lft.to/lastmile_qr_scan", "ios": "https://dc.lft.to/lastmile_qr_scan"}, "is_reserved": 0, "is_disabled": 0, "type": "electric_scooter", "bike_id": "d6dd0aef68add30be6de4c09748c5d15"}, {"lon": -76.95183033333333, "lat": 38.891330833333335, "name": "1dd17c5a123e7ca8c4ce603096b013fa", "fusion_lat": 0.0, "fusion_lon": 0.0, "rental_uris": {"android": "https://dc.lft.to/lastmile_qr_scan", "ios": "https://dc.lft.to/lastmile_qr_scan"}, "is_reserved": 0, "is_disabled": 0, "type": "electric_scooter", "bike_id": "1dd17c5a123e7ca8c4ce603096b013fa"}, {"lon": -77.01640466666667, "lat": 38.9293945, "name": "fc65a10981d93fe914e0f9c1532383b3", "fusion_lat": 0.0, "fusion_lon": 0.0, "rental_uris": {"android": "https://dc.lft.to/lastmile_qr_scan", "ios": "https://dc.lft.to/lastmile_qr_scan"}, "is_reserved": 0, "is_disabled": 0, "type": "electric_scooter", "bike_id": "fc65a10981d93fe914e0f9c1532383b3"}, {"lon": -77.02626416666666, "lat": 38.89218983333333, "name": "7ea970661ca9ed8aa2d9d615d07fe9fb", "fusion_lat": 0.0, "fusion_lon": 0.0, "rental_uris": {"android": "https://dc.lft.to/lastmile_qr_scan", "ios": "https://dc.lft.to/lastmile_qr_scan"}, "is_reserved": 0, "is_disabled": 0, "type": "electric_scooter", "bike_id": "7ea970661ca9ed8aa2d9d615d07fe9fb"}, {"lon": -77.03661716666667, "lat": 38.911727166666665, "name": "e161b1ed387029104977f700dd14d70d", "fusion_lat": 0.0, "fusion_lon": 0.0, "rental_uris": {"android": "https://dc.lft.to/lastmile_qr_scan", "ios": "https://dc.lft.to/lastmile_qr_scan"}, "is_reserved": 0, "is_disabled": 0, "type": "electric_scooter", "bike_id": "e161b1ed387029104977f700dd14d70d"}, {"lon": -77.036166, "lat": 38.929172666666666, "name": "5e8f8dacf635a0b2e4ac5d462535c39d", "fusion_lat": 0.0, "fusion_lon": 0.0, "rental_uris": {"android": "https://dc.lft.to/lastmile_qr_scan", "ios": "https://dc.lft.to/lastmile_qr_scan"}, "is_reserved": 0, "is_disabled": 0, "type": "electric_scooter", "bike_id": "5e8f8dacf635a0b2e4ac5d462535c39d"}, {"lon": -77.05003466666666, "lat": 38.89228133333334, "name": "7b53a193301f74db0623d2040610ea3d", "fusion_lat": 0.0, "fusion_lon": 0.0, "rental_uris": {"android": "https://dc.lft.to/lastmile_qr_scan", "ios": "https://dc.lft.to/lastmile_qr_scan"}, "is_reserved": 0, "is_disabled": 0, "type": "electric_scooter", "bike_id": "7b53a193301f74db0623d2040610ea3d"}, {"lon": -77.02889616666667, "lat": 38.899875, "name": "d588cbeef3480621260d4d6649a1c771", "fusion_lat": 0.0, "fusion_lon": 0.0, "rental_uris": {"android": "https://dc.lft.to/lastmile_qr_scan", "ios": "https://dc.lft.to/lastmile_qr_scan"}, "is_reserved": 0, "is_disabled": 0, "type": "electric_scooter", "bike_id": "d588cbeef3480621260d4d6649a1c771"}, {"lon": -77.03478983333333, "lat": 38.928606333333335, "name": "40970412c480e44ad63f835e7cfd0405", "fusion_lat": 0.0, "fusion_lon": 0.0, "rental_uris": {"android": "https://dc.lft.to/lastmile_qr_scan", "ios": "https://dc.lft.to/lastmile_qr_scan"}, "is_reserved": 0, "is_disabled": 0, "type": "electric_scooter", "bike_id": "40970412c480e44ad63f835e7cfd0405"}, {"lon": -76.98756183333333, "lat": 38.84498166666667, "name": "dbb377edd6b1534d766a18eb5b234016", "fusion_lat": 0.0, "fusion_lon": 0.0, "rental_uris": {"android": "https://dc.lft.to/lastmile_qr_scan", "ios": "https://dc.lft.to/lastmile_qr_scan"}, "is_reserved": 0, "is_disabled": 0, "type": "electric_scooter", "bike_id": "dbb377edd6b1534d766a18eb5b234016"}, {"lon": -77.01443, "lat": 38.877806166666666, "name": "e3cdb0a559d9b42315c7b6a7b6de1ca4", "fusion_lat": 0.0, "fusion_lon": 0.0, "rental_uris": {"android": "https://dc.lft.to/lastmile_qr_scan", "ios": "https://dc.lft.to/lastmile_qr_scan"}, "is_reserved": 0, "is_disabled": 0, "type": "electric_scooter", "bike_id": "e3cdb0a559d9b42315c7b6a7b6de1ca4"}, {"lon": -76.94851366666667, "lat": 38.8830265, "name": "ac862f613d4eba0262893c0ae49a3b65", "fusion_lat": 0.0, "fusion_lon": 0.0, "rental_uris": {"android": "https://dc.lft.to/lastmile_qr_scan", "ios": "https://dc.lft.to/lastmile_qr_scan"}, "is_reserved": 0, "is_disabled": 0, "type": "electric_scooter", "bike_id": "ac862f613d4eba0262893c0ae49a3b65"}, {"lon": -77.13594716666667, "lat": 39.053453, "name": "55b9366190fba4bb68bcc7e3e1658985", "fusion_lat": 0.0, "fusion_lon": 0.0, "rental_uris": {"android": "https://dc.lft.to/lastmile_qr_scan", "ios": "https://dc.lft.to/lastmile_qr_scan"}, "is_reserved": 0, "is_disabled": 0, "type": "electric_bike", "bike_id": "55b9366190fba4bb68bcc7e3e1658985"}, {"lon": -77.02975233333333, "lat": 38.92249316666667, "name": "a9361c4608ed871386baa0d4bf39e67d", "fusion_lat": 0.0, "fusion_lon": 0.0, "rental_uris": {"android": "https://dc.lft.to/lastmile_qr_scan", "ios": "https://dc.lft.to/lastmile_qr_scan"}, "is_reserved": 0, "is_disabled": 0, "type": "electric_scooter", "bike_id": "a9361c4608ed871386baa0d4bf39e67d"}, {"lon": -77.04371916666666, "lat": 38.9037965, "name": "95a1dd8c684226a736efb0d9f202b565", "fusion_lat": 0.0, "fusion_lon": 0.0, "rental_uris": {"android": "https://dc.lft.to/lastmile_qr_scan", "ios": "https://dc.lft.to/lastmile_qr_scan"}, "is_reserved": 0, "is_disabled": 0, "type": "electric_scooter", "bike_id": "95a1dd8c684226a736efb0d9f202b565"}, {"lon": -77.00207216666666, "lat": 38.9021805, "name": "3fbce7e29aedb0586fa606693d0d070e", "fusion_lat": 0.0, "fusion_lon": 0.0, "rental_uris": {"android": "https://dc.lft.to/lastmile_qr_scan", "ios": "https://dc.lft.to/lastmile_qr_scan"}, "is_reserved": 0, "is_disabled": 0, "type": "electric_scooter", "bike_id": "3fbce7e29aedb0586fa606693d0d070e"}, {"lon": -77.01753366666667, "lat": 38.90259283333333, "name": "bf2dc1fa0e5440ece2c8166dfa45bf3b", "fusion_lat": 0.0, "fusion_lon": 0.0, "rental_uris": {"android": "https://dc.lft.to/lastmile_qr_scan", "ios": "https://dc.lft.to/lastmile_qr_scan"}, "is_reserved": 0, "is_disabled": 0, "type": "electric_scooter", "bike_id": "bf2dc1fa0e5440ece2c8166dfa45bf3b"}, {"lon": -77.02694383333333, "lat": 38.91521566666667, "name": "d81ad25d3198d32c6f30d5ba4972cc66", "fusion_lat": 0.0, "fusion_lon": 0.0, "rental_uris": {"android": "https://dc.lft.to/lastmile_qr_scan", "ios": "https://dc.lft.to/lastmile_qr_scan"}, "is_reserved": 0, "is_disabled": 0, "type": "electric_scooter", "bike_id": "d81ad25d3198d32c6f30d5ba4972cc66"}, {"lon": -77.107673, "lat": 38.892253333333336, "name": "8300ebdf67c8ddac6a976f8e110a2c4e", "fusion_lat": 0.0, "fusion_lon": 0.0, "rental_uris": {"android": "https://dc.lft.to/lastmile_qr_scan", "ios": "https://dc.lft.to/lastmile_qr_scan"}, "is_reserved": 0, "is_disabled": 0, "type": "electric_bike", "bike_id": "8300ebdf67c8ddac6a976f8e110a2c4e"}, {"lon": -77.02934266666666, "lat": 38.90362666666667, "name": "d75aad72c075aefc08b8e9cae3d550bf", "fusion_lat": 0.0, "fusion_lon": 0.0, "rental_uris": {"android": "https://dc.lft.to/lastmile_qr_scan", "ios": "https://dc.lft.to/lastmile_qr_scan"}, "is_reserved": 0, "is_disabled": 0, "type": "electric_scooter", "bike_id": "d75aad72c075aefc08b8e9cae3d550bf"}, {"lon": -76.95407883333333, "lat": 38.89159933333333, "name": "b189f29357e5436d361abcec5ec3f25e", "fusion_lat": 0.0, "fusion_lon": 0.0, "rental_uris": {"android": "https://dc.lft.to/lastmile_qr_scan", "ios": "https://dc.lft.to/lastmile_qr_scan"}, "is_reserved": 0, "is_disabled": 0, "type": "electric_scooter", "bike_id": "b189f29357e5436d361abcec5ec3f25e"}, {"lon": -77.04993016666667, "lat": 38.90131383333333, "name": "8641aef79e2fb81435d787fead103332", "fusion_lat": 0.0, "fusion_lon": 0.0, "rental_uris": {"android": "https://dc.lft.to/lastmile_qr_scan", "ios": "https://dc.lft.to/lastmile_qr_scan"}, "is_reserved": 0, "is_disabled": 0, "type": "electric_bike", "bike_id": "8641aef79e2fb81435d787fead103332"}, {"lon": -77.0317855, "lat": 38.919122, "name": "3be73ffd056f74e3c908bc9ba99e9626", "fusion_lat": 0.0, "fusion_lon": 0.0, "rental_uris": {"android": "https://dc.lft.to/lastmile_qr_scan", "ios": "https://dc.lft.to/lastmile_qr_scan"}, "is_reserved": 0, "is_disabled": 0, "type": "electric_scooter", "bike_id": "3be73ffd056f74e3c908bc9ba99e9626"}, {"lon": -76.916489, "lat": 38.86860216666667, "name": "3f0d453d806b1e484a295e9e50467630", "fusion_lat": 0.0, "fusion_lon": 0.0, "rental_uris": {"android": "https://dc.lft.to/lastmile_qr_scan", "ios": "https://dc.lft.to/lastmile_qr_scan"}, "is_reserved": 0, "is_disabled": 0, "type": "electric_bike", "bike_id": "3f0d453d806b1e484a295e9e50467630"}, {"lon": -77.02203516666667, "lat": 38.90166683333333, "name": "baa261069362866f890eb8ad67c26562", "fusion_lat": 0.0, "fusion_lon": 0.0, "rental_uris": {"android": "https://dc.lft.to/lastmile_qr_scan", "ios": "https://dc.lft.to/lastmile_qr_scan"}, "is_reserved": 0, "is_disabled": 0, "type": "electric_scooter", "bike_id": "baa261069362866f890eb8ad67c26562"}, {"lon": -77.07272416666666, "lat": 38.909210333333334, "name": "ded8db7b9535a6209ba16b640349ca7d", "fusion_lat": 0.0, "fusion_lon": 0.0, "rental_uris": {"android": "https://dc.lft.to/lastmile_qr_scan", "ios": "https://dc.lft.to/lastmile_qr_scan"}, "is_reserved": 0, "is_disabled": 0, "type": "electric_scooter", "bike_id": "ded8db7b9535a6209ba16b640349ca7d"}, {"lon": -77.02486483333334, "lat": 38.938671666666664, "name": "878014e60bfa254e033fdf1fa70bdad7", "fusion_lat": 0.0, "fusion_lon": 0.0, "rental_uris": {"android": "https://dc.lft.to/lastmile_qr_scan", "ios": "https://dc.lft.to/lastmile_qr_scan"}, "is_reserved": 0, "is_disabled": 0, "type": "electric_scooter", "bike_id": "878014e60bfa254e033fdf1fa70bdad7"}, {"lon": -77.01551, "lat": 38.89195216666667, "name": "f923ea62d32fbc2bde66b73bf74b4a4a", "fusion_lat": 0.0, "fusion_lon": 0.0, "rental_uris": {"android": "https://dc.lft.to/lastmile_qr_scan", "ios": "https://dc.lft.to/lastmile_qr_scan"}, "is_reserved": 0, "is_disabled": 0, "type": "electric_scooter", "bike_id": "f923ea62d32fbc2bde66b73bf74b4a4a"}, {"lon": -77.0322645, "lat": 38.89224166666666, "name": "982877dd7dd0a2220417ddff5d94090c", "fusion_lat": 0.0, "fusion_lon": 0.0, "rental_uris": {"android": "https://dc.lft.to/lastmile_qr_scan", "ios": "https://dc.lft.to/lastmile_qr_scan"}, "is_reserved": 0, "is_disabled": 0, "type": "electric_scooter", "bike_id": "982877dd7dd0a2220417ddff5d94090c"}, {"lon": -77.03254816666667, "lat": 38.932421833333336, "name": "4d0ae7e21eaef548b0e320b9d59705e5", "fusion_lat": 0.0, "fusion_lon": 0.0, "rental_uris": {"android": "https://dc.lft.to/lastmile_qr_scan", "ios": "https://dc.lft.to/lastmile_qr_scan"}, "is_reserved": 0, "is_disabled": 0, "type": "electric_scooter", "bike_id": "4d0ae7e21eaef548b0e320b9d59705e5"}, {"lon": -77.0228265, "lat": 38.897024333333334, "name": "d55fa6748d604814c11d8bdda72c7199", "fusion_lat": 0.0, "fusion_lon": 0.0, "rental_uris": {"android": "https://dc.lft.to/lastmile_qr_scan", "ios": "https://dc.lft.to/lastmile_qr_scan"}, "is_reserved": 0, "is_disabled": 0, "type": "electric_scooter", "bike_id": "d55fa6748d604814c11d8bdda72c7199"}, {"lon": -76.9730135, "lat": 38.91988333333333, "name": "c0f3504bce53d655d7e342867ade4b64", "fusion_lat": 0.0, "fusion_lon": 0.0, "rental_uris": {"android": "https://dc.lft.to/lastmile_qr_scan", "ios": "https://dc.lft.to/lastmile_qr_scan"}, "is_reserved": 0, "is_disabled": 0, "type": "electric_scooter", "bike_id": "c0f3504bce53d655d7e342867ade4b64"}, {"lon": -76.945702, "lat": 38.86622166666667, "name": "e01b0e858ca95efcfccf2187f3dadd66", "fusion_lat": 0.0, "fusion_lon": 0.0, "rental_uris": {"android": "https://dc.lft.to/lastmile_qr_scan", "ios": "https://dc.lft.to/lastmile_qr_scan"}, "is_reserved": 0, "is_disabled": 0, "type": "electric_bike", "bike_id": "e01b0e858ca95efcfccf2187f3dadd66"}, {"lon": -77.032804, "lat": 38.92907233333333, "name": "acfdac9c6c68b5b698d5bba53405dda8", "fusion_lat": 0.0, "fusion_lon": 0.0, "rental_uris": {"android": "https://dc.lft.to/lastmile_qr_scan", "ios": "https://dc.lft.to/lastmile_qr_scan"}, "is_reserved": 0, "is_disabled": 0, "type": "electric_scooter", "bike_id": "acfdac9c6c68b5b698d5bba53405dda8"}, {"lon": -76.94853866666666, "lat": 38.88307316666667, "name": "4d58fd8be75f850c057113f3dad9d9cd", "fusion_lat": 0.0, "fusion_lon": 0.0, "rental_uris": {"android": "https://dc.lft.to/lastmile_qr_scan", "ios": "https://dc.lft.to/lastmile_qr_scan"}, "is_reserved": 0, "is_disabled": 0, "type": "electric_scooter", "bike_id": "4d58fd8be75f850c057113f3dad9d9cd"}, {"lon": -77.04581833333333, "lat": 38.92127883333333, "name": "af9b9ad42f6138d3d94f5be3ff8d9042", "fusion_lat": 0.0, "fusion_lon": 0.0, "rental_uris": {"android": "https://dc.lft.to/lastmile_qr_scan", "ios": "https://dc.lft.to/lastmile_qr_scan"}, "is_reserved": 0, "is_disabled": 0, "type": "electric_scooter", "bike_id": "af9b9ad42f6138d3d94f5be3ff8d9042"}, {"lon": -76.99516166666666, "lat": 38.894795333333334, "name": "205c260cae00cc339687dbf705680224", "fusion_lat": 0.0, "fusion_lon": 0.0, "rental_uris": {"android": "https://dc.lft.to/lastmile_qr_scan", "ios": "https://dc.lft.to/lastmile_qr_scan"}, "is_reserved": 0, "is_disabled": 0, "type": "electric_scooter", "bike_id": "205c260cae00cc339687dbf705680224"}, {"lon": -77.03668733333333, "lat": 38.92118766666667, "name": "ecb9f5c9336fb7ec45e504275d09db55", "fusion_lat": 0.0, "fusion_lon": 0.0, "rental_uris": {"android": "https://dc.lft.to/lastmile_qr_scan", "ios": "https://dc.lft.to/lastmile_qr_scan"}, "is_reserved": 0, "is_disabled": 0, "type": "electric_scooter", "bike_id": "ecb9f5c9336fb7ec45e504275d09db55"}, {"lon": -77.03426583333334, "lat": 38.9103425, "name": "573eb16a5a2ac841e7adfdacae8b4594", "fusion_lat": 0.0, "fusion_lon": 0.0, "rental_uris": {"android": "https://dc.lft.to/lastmile_qr_scan", "ios": "https://dc.lft.to/lastmile_qr_scan"}, "is_reserved": 0, "is_disabled": 0, "type": "electric_scooter", "bike_id": "573eb16a5a2ac841e7adfdacae8b4594"}, {"lon": -77.01458183333334, "lat": 38.91769383333333, "name": "22990fb86a470c0d6632c70842b8cc50", "fusion_lat": 0.0, "fusion_lon": 0.0, "rental_uris": {"android": "https://dc.lft.to/lastmile_qr_scan", "ios": "https://dc.lft.to/lastmile_qr_scan"}, "is_reserved": 0, "is_disabled": 0, "type": "electric_scooter", "bike_id": "22990fb86a470c0d6632c70842b8cc50"}, {"lon": -77.0529895, "lat": 38.92620016666667, "name": "457d086820ad580d29dbec686222de2f", "fusion_lat": 0.0, "fusion_lon": 0.0, "rental_uris": {"android": "https://dc.lft.to/lastmile_qr_scan", "ios": "https://dc.lft.to/lastmile_qr_scan"}, "is_reserved": 0, "is_disabled": 0, "type": "electric_scooter", "bike_id": "457d086820ad580d29dbec686222de2f"}, {"lon": -77.03355216666667, "lat": 38.885041, "name": "9f20e74d119adbafe365dd5138889113", "fusion_lat": 0.0, "fusion_lon": 0.0, "rental_uris": {"android": "https://dc.lft.to/lastmile_qr_scan", "ios": "https://dc.lft.to/lastmile_qr_scan"}, "is_reserved": 0, "is_disabled": 0, "type": "electric_scooter", "bike_id": "9f20e74d119adbafe365dd5138889113"}, {"lon": -76.93174933333333, "lat": 38.89885483333333, "name": "9562b604f137f109083140d8e00cf443", "fusion_lat": 0.0, "fusion_lon": 0.0, "rental_uris": {"android": "https://dc.lft.to/lastmile_qr_scan", "ios": "https://dc.lft.to/lastmile_qr_scan"}, "is_reserved": 0, "is_disabled": 0, "type": "electric_scooter", "bike_id": "9562b604f137f109083140d8e00cf443"}, {"lon": -76.99324416666667, "lat": 38.8575765, "name": "ad6c0eb055088d853077a04fedf42c5b", "fusion_lat": 0.0, "fusion_lon": 0.0, "rental_uris": {"android": "https://dc.lft.to/lastmile_qr_scan", "ios": "https://dc.lft.to/lastmile_qr_scan"}, "is_reserved": 0, "is_disabled": 0, "type": "electric_scooter", "bike_id": "ad6c0eb055088d853077a04fedf42c5b"}, {"lon": -76.94840616666667, "lat": 38.8948755, "name": "5915bfb1be98b2922ed921b4dbe6bc20", "fusion_lat": 0.0, "fusion_lon": 0.0, "rental_uris": {"android": "https://dc.lft.to/lastmile_qr_scan", "ios": "https://dc.lft.to/lastmile_qr_scan"}, "is_reserved": 0, "is_disabled": 0, "type": "electric_scooter", "bike_id": "5915bfb1be98b2922ed921b4dbe6bc20"}, {"lon": -77.04148266666667, "lat": 38.90732033333333, "name": "af2ae68029ca05a5cb3a406356d63985", "fusion_lat": 0.0, "fusion_lon": 0.0, "rental_uris": {"android": "https://dc.lft.to/lastmile_qr_scan", "ios": "https://dc.lft.to/lastmile_qr_scan"}, "is_reserved": 0, "is_disabled": 0, "type": "electric_scooter", "bike_id": "af2ae68029ca05a5cb3a406356d63985"}, {"lon": -76.992703, "lat": 38.8968955, "name": "4ced7279eabbe9d533dc6e5b057d0da0", "fusion_lat": 0.0, "fusion_lon": 0.0, "rental_uris": {"android": "https://dc.lft.to/lastmile_qr_scan", "ios": "https://dc.lft.to/lastmile_qr_scan"}, "is_reserved": 0, "is_disabled": 0, "type": "electric_scooter", "bike_id": "4ced7279eabbe9d533dc6e5b057d0da0"}, {"lon": -77.03284733333334, "lat": 38.938792, "name": "e47f038312a24f6a01942dd7b7296630", "fusion_lat": 0.0, "fusion_lon": 0.0, "rental_uris": {"android": "https://dc.lft.to/lastmile_qr_scan", "ios": "https://dc.lft.to/lastmile_qr_scan"}, "is_reserved": 0, "is_disabled": 0, "type": "electric_scooter", "bike_id": "e47f038312a24f6a01942dd7b7296630"}, {"lon": -77.03629566666666, "lat": 38.95596483333333, "name": "73761c425e88c1b5a968e24ddaa6dd7c", "fusion_lat": 0.0, "fusion_lon": 0.0, "rental_uris": {"android": "https://dc.lft.to/lastmile_qr_scan", "ios": "https://dc.lft.to/lastmile_qr_scan"}, "is_reserved": 0, "is_disabled": 0, "type": "electric_scooter", "bike_id": "73761c425e88c1b5a968e24ddaa6dd7c"}, {"lon": -77.0241175, "lat": 38.901860666666664, "name": "f6dcea5edd265e028862d0c6193abca3", "fusion_lat": 0.0, "fusion_lon": 0.0, "rental_uris": {"android": "https://dc.lft.to/lastmile_qr_scan", "ios": "https://dc.lft.to/lastmile_qr_scan"}, "is_reserved": 0, "is_disabled": 0, "type": "electric_scooter", "bike_id": "f6dcea5edd265e028862d0c6193abca3"}, {"lon": -77.0013565, "lat": 38.9000235, "name": "50017c9493dd62a246e0814de04a62bf", "fusion_lat": 0.0, "fusion_lon": 0.0, "rental_uris": {"android": "https://dc.lft.to/lastmile_qr_scan", "ios": "https://dc.lft.to/lastmile_qr_scan"}, "is_reserved": 0, "is_disabled": 0, "type": "electric_scooter", "bike_id": "50017c9493dd62a246e0814de04a62bf"}, {"lon": -77.02595633333334, "lat": 38.920318, "name": "5b8e797c3849134ddc27581d405a41cd", "fusion_lat": 0.0, "fusion_lon": 0.0, "rental_uris": {"android": "https://dc.lft.to/lastmile_qr_scan", "ios": "https://dc.lft.to/lastmile_qr_scan"}, "is_reserved": 0, "is_disabled": 0, "type": "electric_scooter", "bike_id": "5b8e797c3849134ddc27581d405a41cd"}, {"lon": -77.00581866666667, "lat": 38.876783, "name": "1e5f18bf995dfe0c86821c86cec5d327", "fusion_lat": 0.0, "fusion_lon": 0.0, "rental_uris": {"android": "https://dc.lft.to/lastmile_qr_scan", "ios": "https://dc.lft.to/lastmile_qr_scan"}, "is_reserved": 0, "is_disabled": 0, "type": "electric_scooter", "bike_id": "1e5f18bf995dfe0c86821c86cec5d327"}, {"lon": -77.11221666666667, "lat": 38.82872616666667, "name": "41045391f8198e3eba06c88cd49065ea", "fusion_lat": 0.0, "fusion_lon": 0.0, "rental_uris": {"android": "https://dc.lft.to/lastmile_qr_scan", "ios": "https://dc.lft.to/lastmile_qr_scan"}, "is_reserved": 0, "is_disabled": 0, "type": "electric_bike", "bike_id": "41045391f8198e3eba06c88cd49065ea"}, {"lon": -77.07683016666667, "lat": 38.83192783333333, "name": "fca50058b9c9c8343756423834d4f472", "fusion_lat": 0.0, "fusion_lon": 0.0, "rental_uris": {"android": "https://dc.lft.to/lastmile_qr_scan", "ios": "https://dc.lft.to/lastmile_qr_scan"}, "is_reserved": 0, "is_disabled": 0, "type": "electric_bike", "bike_id": "fca50058b9c9c8343756423834d4f472"}, {"lon": -77.05641466666667, "lat": 38.924287666666665, "name": "a0bdc618929a7108a7a31906756e7791", "fusion_lat": 0.0, "fusion_lon": 0.0, "rental_uris": {"android": "https://dc.lft.to/lastmile_qr_scan", "ios": "https://dc.lft.to/lastmile_qr_scan"}, "is_reserved": 0, "is_disabled": 0, "type": "electric_scooter", "bike_id": "a0bdc618929a7108a7a31906756e7791"}, {"lon": -77.12262633333333, "lat": 38.8918645, "name": "d96d19c4417f0226cfcaac2ac2e4f6f8", "fusion_lat": 0.0, "fusion_lon": 0.0, "rental_uris": {"android": "https://dc.lft.to/lastmile_qr_scan", "ios": "https://dc.lft.to/lastmile_qr_scan"}, "is_reserved": 0, "is_disabled": 0, "type": "electric_bike", "bike_id": "d96d19c4417f0226cfcaac2ac2e4f6f8"}, {"lon": -76.93538433333333, "lat": 38.9555695, "name": "baccb338fb763182945664d87e0391d2", "fusion_lat": 0.0, "fusion_lon": 0.0, "rental_uris": {"android": "https://dc.lft.to/lastmile_qr_scan", "ios": "https://dc.lft.to/lastmile_qr_scan"}, "is_reserved": 0, "is_disabled": 0, "type": "electric_bike", "bike_id": "baccb338fb763182945664d87e0391d2"}, {"lon": -77.07360316666667, "lat": 38.9335705, "name": "ed75ceb04a979c7f9e1f5ee65df595a6", "fusion_lat": 0.0, "fusion_lon": 0.0, "rental_uris": {"android": "https://dc.lft.to/lastmile_qr_scan", "ios": "https://dc.lft.to/lastmile_qr_scan"}, "is_reserved": 0, "is_disabled": 0, "type": "electric_scooter", "bike_id": "ed75ceb04a979c7f9e1f5ee65df595a6"}, {"lon": -77.0356715, "lat": 38.957201166666664, "name": "7429edec79a9d61d108fbb3e09a219ca", "fusion_lat": 0.0, "fusion_lon": 0.0, "rental_uris": {"android": "https://dc.lft.to/lastmile_qr_scan", "ios": "https://dc.lft.to/lastmile_qr_scan"}, "is_reserved": 0, "is_disabled": 0, "type": "electric_scooter", "bike_id": "7429edec79a9d61d108fbb3e09a219ca"}, {"lon": -77.04874583333333, "lat": 38.90126083333333, "name": "3eb5a5b1b8ffb5af67738f235c10b207", "fusion_lat": 0.0, "fusion_lon": 0.0, "rental_uris": {"android": "https://dc.lft.to/lastmile_qr_scan", "ios": "https://dc.lft.to/lastmile_qr_scan"}, "is_reserved": 0, "is_disabled": 0, "type": "electric_scooter", "bike_id": "3eb5a5b1b8ffb5af67738f235c10b207"}, {"lon": -77.04785183333334, "lat": 38.902104333333334, "name": "f58da2b6a6cb9f76ec5dd50dcda4c303", "fusion_lat": 0.0, "fusion_lon": 0.0, "rental_uris": {"android": "https://dc.lft.to/lastmile_qr_scan", "ios": "https://dc.lft.to/lastmile_qr_scan"}, "is_reserved": 0, "is_disabled": 0, "type": "electric_scooter", "bike_id": "f58da2b6a6cb9f76ec5dd50dcda4c303"}, {"lon": -77.070721, "lat": 38.91935633333333, "name": "aa7985b69469c21441cd25aec5b3441f", "fusion_lat": 0.0, "fusion_lon": 0.0, "rental_uris": {"android": "https://dc.lft.to/lastmile_qr_scan", "ios": "https://dc.lft.to/lastmile_qr_scan"}, "is_reserved": 0, "is_disabled": 0, "type": "electric_scooter", "bike_id": "aa7985b69469c21441cd25aec5b3441f"}, {"lon": -77.03455716666667, "lat": 38.90300916666666, "name": "61426a5cd1c2d1317241f0c33018ce3c", "fusion_lat": 0.0, "fusion_lon": 0.0, "rental_uris": {"android": "https://dc.lft.to/lastmile_qr_scan", "ios": "https://dc.lft.to/lastmile_qr_scan"}, "is_reserved": 0, "is_disabled": 0, "type": "electric_scooter", "bike_id": "61426a5cd1c2d1317241f0c33018ce3c"}, {"lon": -76.98734333333333, "lat": 38.944310333333334, "name": "d8f2c548566f3776090025bf38ecb7d7", "fusion_lat": 0.0, "fusion_lon": 0.0, "rental_uris": {"android": "https://dc.lft.to/lastmile_qr_scan", "ios": "https://dc.lft.to/lastmile_qr_scan"}, "is_reserved": 0, "is_disabled": 0, "type": "electric_bike", "bike_id": "d8f2c548566f3776090025bf38ecb7d7"}, {"lon": -77.01094266666666, "lat": 38.905574, "name": "8423dfa9c2a31aa47209e5918c7daf7b", "fusion_lat": 0.0, "fusion_lon": 0.0, "rental_uris": {"android": "https://dc.lft.to/lastmile_qr_scan", "ios": "https://dc.lft.to/lastmile_qr_scan"}, "is_reserved": 0, "is_disabled": 0, "type": "electric_scooter", "bike_id": "8423dfa9c2a31aa47209e5918c7daf7b"}, {"lon": -77.04769083333333, "lat": 38.9020005, "name": "0d7782da68d676d7f319b6953178e86f", "fusion_lat": 0.0, "fusion_lon": 0.0, "rental_uris": {"android": "https://dc.lft.to/lastmile_qr_scan", "ios": "https://dc.lft.to/lastmile_qr_scan"}, "is_reserved": 0, "is_disabled": 0, "type": "electric_scooter", "bike_id": "0d7782da68d676d7f319b6953178e86f"}, {"lon": -77.0361595, "lat": 38.93255516666667, "name": "b1d294ac4c1a607e982ed4c529583d44", "fusion_lat": 0.0, "fusion_lon": 0.0, "rental_uris": {"android": "https://dc.lft.to/lastmile_qr_scan", "ios": "https://dc.lft.to/lastmile_qr_scan"}, "is_reserved": 0, "is_disabled": 0, "type": "electric_scooter", "bike_id": "b1d294ac4c1a607e982ed4c529583d44"}, {"lon": -77.02693266666667, "lat": 38.9126975, "name": "f12ecc53e654706bf81740747e210318", "fusion_lat": 0.0, "fusion_lon": 0.0, "rental_uris": {"android": "https://dc.lft.to/lastmile_qr_scan", "ios": "https://dc.lft.to/lastmile_qr_scan"}, "is_reserved": 0, "is_disabled": 0, "type": "electric_scooter", "bike_id": "f12ecc53e654706bf81740747e210318"}, {"lon": -77.03251616666667, "lat": 38.95929, "name": "fb12dee2f805f138a6f407b736bb0806", "fusion_lat": 0.0, "fusion_lon": 0.0, "rental_uris": {"android": "https://dc.lft.to/lastmile_qr_scan", "ios": "https://dc.lft.to/lastmile_qr_scan"}, "is_reserved": 0, "is_disabled": 0, "type": "electric_scooter", "bike_id": "fb12dee2f805f138a6f407b736bb0806"}, {"lon": -77.02695666666666, "lat": 38.91272766666667, "name": "4d4b464c6e7df6cfdec6969a7bef1b9d", "fusion_lat": 0.0, "fusion_lon": 0.0, "rental_uris": {"android": "https://dc.lft.to/lastmile_qr_scan", "ios": "https://dc.lft.to/lastmile_qr_scan"}, "is_reserved": 0, "is_disabled": 0, "type": "electric_scooter", "bike_id": "4d4b464c6e7df6cfdec6969a7bef1b9d"}, {"lon": -77.03298816666667, "lat": 38.95641633333334, "name": "ecc1e4e30e1ac531b45321a5db8d8e4a", "fusion_lat": 0.0, "fusion_lon": 0.0, "rental_uris": {"android": "https://dc.lft.to/lastmile_qr_scan", "ios": "https://dc.lft.to/lastmile_qr_scan"}, "is_reserved": 0, "is_disabled": 0, "type": "electric_scooter", "bike_id": "ecc1e4e30e1ac531b45321a5db8d8e4a"}, {"lon": -77.02232183333334, "lat": 38.911039333333335, "name": "0d409cb99d07b9e1e097120205b25cf9", "fusion_lat": 0.0, "fusion_lon": 0.0, "rental_uris": {"android": "https://dc.lft.to/lastmile_qr_scan", "ios": "https://dc.lft.to/lastmile_qr_scan"}, "is_reserved": 0, "is_disabled": 0, "type": "electric_scooter", "bike_id": "0d409cb99d07b9e1e097120205b25cf9"}, {"lon": -77.02163866666666, "lat": 38.91618183333333, "name": "a750ac916b348f35579839b300a648ca", "fusion_lat": 0.0, "fusion_lon": 0.0, "rental_uris": {"android": "https://dc.lft.to/lastmile_qr_scan", "ios": "https://dc.lft.to/lastmile_qr_scan"}, "is_reserved": 0, "is_disabled": 0, "type": "electric_scooter", "bike_id": "a750ac916b348f35579839b300a648ca"}, {"lon": -77.04846916666666, "lat": 38.90056366666666, "name": "63a8dbbc6d44a78033df08448dabcc65", "fusion_lat": 0.0, "fusion_lon": 0.0, "rental_uris": {"android": "https://dc.lft.to/lastmile_qr_scan", "ios": "https://dc.lft.to/lastmile_qr_scan"}, "is_reserved": 0, "is_disabled": 0, "type": "electric_scooter", "bike_id": "63a8dbbc6d44a78033df08448dabcc65"}, {"lon": -77.05634, "lat": 38.9241445, "name": "458864fae0f2e8e0d3cd36b11b7b700b", "fusion_lat": 0.0, "fusion_lon": 0.0, "rental_uris": {"android": "https://dc.lft.to/lastmile_qr_scan", "ios": "https://dc.lft.to/lastmile_qr_scan"}, "is_reserved": 0, "is_disabled": 0, "type": "electric_scooter", "bike_id": "458864fae0f2e8e0d3cd36b11b7b700b"}, {"lon": -77.0283305, "lat": 38.887679, "name": "2714045ebdaf2a699c28732c7f82db16", "fusion_lat": 0.0, "fusion_lon": 0.0, "rental_uris": {"android": "https://dc.lft.to/lastmile_qr_scan", "ios": "https://dc.lft.to/lastmile_qr_scan"}, "is_reserved": 0, "is_disabled": 0, "type": "electric_scooter", "bike_id": "2714045ebdaf2a699c28732c7f82db16"}, {"lon": -77.04257933333334, "lat": 38.9170875, "name": "b760a08880db509ac017d9651a37b6a4", "fusion_lat": 0.0, "fusion_lon": 0.0, "rental_uris": {"android": "https://dc.lft.to/lastmile_qr_scan", "ios": "https://dc.lft.to/lastmile_qr_scan"}, "is_reserved": 0, "is_disabled": 0, "type": "electric_scooter", "bike_id": "b760a08880db509ac017d9651a37b6a4"}, {"lon": -77.03454416666666, "lat": 38.90309283333333, "name": "2b84000ca422be0b09aa3e10899ebd86", "fusion_lat": 0.0, "fusion_lon": 0.0, "rental_uris": {"android": "https://dc.lft.to/lastmile_qr_scan", "ios": "https://dc.lft.to/lastmile_qr_scan"}, "is_reserved": 0, "is_disabled": 0, "type": "electric_scooter", "bike_id": "2b84000ca422be0b09aa3e10899ebd86"}, {"lon": -77.03260983333334, "lat": 38.938217333333334, "name": "dd6244443933a2f9fc4e0ec69aa47a1a", "fusion_lat": 0.0, "fusion_lon": 0.0, "rental_uris": {"android": "https://dc.lft.to/lastmile_qr_scan", "ios": "https://dc.lft.to/lastmile_qr_scan"}, "is_reserved": 0, "is_disabled": 0, "type": "electric_scooter", "bike_id": "dd6244443933a2f9fc4e0ec69aa47a1a"}, {"lon": -77.03958616666667, "lat": 38.9036555, "name": "10c5ed549cf9befdd35702ec0d357929", "fusion_lat": 0.0, "fusion_lon": 0.0, "rental_uris": {"android": "https://dc.lft.to/lastmile_qr_scan", "ios": "https://dc.lft.to/lastmile_qr_scan"}, "is_reserved": 0, "is_disabled": 0, "type": "electric_scooter", "bike_id": "10c5ed549cf9befdd35702ec0d357929"}, {"lon": -77.092171, "lat": 38.917099, "name": "0ef273fda401de88a24cbf525391494e", "fusion_lat": 0.0, "fusion_lon": 0.0, "rental_uris": {"android": "https://dc.lft.to/lastmile_qr_scan", "ios": "https://dc.lft.to/lastmile_qr_scan"}, "is_reserved": 0, "is_disabled": 0, "type": "electric_scooter", "bike_id": "0ef273fda401de88a24cbf525391494e"}, {"lon": -77.06390133333333, "lat": 38.929059333333335, "name": "6bd1e996f3c7314e341aa6e20526dd6e", "fusion_lat": 0.0, "fusion_lon": 0.0, "rental_uris": {"android": "https://dc.lft.to/lastmile_qr_scan", "ios": "https://dc.lft.to/lastmile_qr_scan"}, "is_reserved": 0, "is_disabled": 0, "type": "electric_scooter", "bike_id": "6bd1e996f3c7314e341aa6e20526dd6e"}, {"lon": -77.0276425, "lat": 38.891988, "name": "f777a66cf1641ed5a147f5019cf11161", "fusion_lat": 0.0, "fusion_lon": 0.0, "rental_uris": {"android": "https://dc.lft.to/lastmile_qr_scan", "ios": "https://dc.lft.to/lastmile_qr_scan"}, "is_reserved": 0, "is_disabled": 0, "type": "electric_scooter", "bike_id": "f777a66cf1641ed5a147f5019cf11161"}, {"lon": -77.05292983333334, "lat": 38.898802833333335, "name": "ae968802a1e40526e549769b8c5cb559", "fusion_lat": 0.0, "fusion_lon": 0.0, "rental_uris": {"android": "https://dc.lft.to/lastmile_qr_scan", "ios": "https://dc.lft.to/lastmile_qr_scan"}, "is_reserved": 0, "is_disabled": 0, "type": "electric_scooter", "bike_id": "ae968802a1e40526e549769b8c5cb559"}, {"lon": -76.9941045, "lat": 38.877820666666665, "name": "ab7e4efa127f0970b424c874567a0393", "fusion_lat": 0.0, "fusion_lon": 0.0, "rental_uris": {"android": "https://dc.lft.to/lastmile_qr_scan", "ios": "https://dc.lft.to/lastmile_qr_scan"}, "is_reserved": 0, "is_disabled": 0, "type": "electric_scooter", "bike_id": "ab7e4efa127f0970b424c874567a0393"}, {"lon": -76.99868233333333, "lat": 38.900260833333334, "name": "969b084e967103cee596fea1ad42ca6f", "fusion_lat": 0.0, "fusion_lon": 0.0, "rental_uris": {"android": "https://dc.lft.to/lastmile_qr_scan", "ios": "https://dc.lft.to/lastmile_qr_scan"}, "is_reserved": 0, "is_disabled": 0, "type": "electric_scooter", "bike_id": "969b084e967103cee596fea1ad42ca6f"}, {"lon": -77.0098015, "lat": 38.95346383333333, "name": "f4bee18605379761ba2d700e7534dc68", "fusion_lat": 0.0, "fusion_lon": 0.0, "rental_uris": {"android": "https://dc.lft.to/lastmile_qr_scan", "ios": "https://dc.lft.to/lastmile_qr_scan"}, "is_reserved": 0, "is_disabled": 0, "type": "electric_bike", "bike_id": "f4bee18605379761ba2d700e7534dc68"}, {"lon": -77.037387, "lat": 38.93369033333333, "name": "76ac6bc6d18dd0ff07a4bbe4e866e603", "fusion_lat": 0.0, "fusion_lon": 0.0, "rental_uris": {"android": "https://dc.lft.to/lastmile_qr_scan", "ios": "https://dc.lft.to/lastmile_qr_scan"}, "is_reserved": 0, "is_disabled": 0, "type": "electric_scooter", "bike_id": "76ac6bc6d18dd0ff07a4bbe4e866e603"}, {"lon": -77.031955, "lat": 38.9076775, "name": "c314e5ec22700c2d74e02f03a9c577b9", "fusion_lat": 0.0, "fusion_lon": 0.0, "rental_uris": {"android": "https://dc.lft.to/lastmile_qr_scan", "ios": "https://dc.lft.to/lastmile_qr_scan"}, "is_reserved": 0, "is_disabled": 0, "type": "electric_scooter", "bike_id": "c314e5ec22700c2d74e02f03a9c577b9"}, {"lon": -77.01780516666666, "lat": 38.900772, "name": "f47d51442d89378ac936a11f6b6d42b1", "fusion_lat": 0.0, "fusion_lon": 0.0, "rental_uris": {"android": "https://dc.lft.to/lastmile_qr_scan", "ios": "https://dc.lft.to/lastmile_qr_scan"}, "is_reserved": 0, "is_disabled": 0, "type": "electric_scooter", "bike_id": "f47d51442d89378ac936a11f6b6d42b1"}, {"lon": -77.02699383333334, "lat": 38.918189, "name": "acd2126bf6ca20aac8386c9e5b9c92d3", "fusion_lat": 0.0, "fusion_lon": 0.0, "rental_uris": {"android": "https://dc.lft.to/lastmile_qr_scan", "ios": "https://dc.lft.to/lastmile_qr_scan"}, "is_reserved": 0, "is_disabled": 0, "type": "electric_scooter", "bike_id": "acd2126bf6ca20aac8386c9e5b9c92d3"},