{"data": {"bikes": [{"name": "36f2a2520b13540732f10aea0758fdda", "fusion_lon": 0.0, "lat": 38.92878433333333, "is_reserved": 0, "type": "electric_bike", "bike_id": "36f2a2520b13540732f10aea0758fdda", "is_disabled": 0, "rental_uris": {"android": "https://dc.lft.to/lastmile_qr_scan", "ios": "https://dc.lft.to/lastmile_qr_scan"}, "lon": -77.01239216666667, "fusion_lat": 0.0}, {"name": "4e61f16b8734fddd2dc1e6f20f4a5fde", "fusion_lon": 0.0, "lat": 38.9566705, "is_reserved": 0, "type": "electric_scooter", "bike_id": "4e61f16b8734fddd2dc1e6f20f4a5fde", "is_disabled": 0, "rental_uris": {"android": "https://dc.lft.to/lastmile_qr_scan", "ios": "https://dc.lft.to/lastmile_qr_scan"}, "lon": -77.01039483333334, "fusion_lat": 0.0}, {"name": "31ee37d4ef677ddc026e48916e12c2b0", "fusion_lon": 0.0, "lat": 38.93531516666667, "is_reserved": 0, "type": "electric_scooter", "bike_id": "31ee37d4ef677ddc026e48916e12c2b0", "is_disabled": 0, "rental_uris": {"android": "https://dc.lft.to/lastmile_qr_scan", "ios": "https://dc.lft.to/lastmile_qr_scan"}, "lon": -77.03471266666666, "fusion_lat": 0.0}, {"name": "210a42fa15b85a1e377a7761798584ee", "fusion_lon": 0.0, "lat": 38.908233833333334, "is_reserved": 0, "type": "electric_scooter", "bike_id": "210a42fa15b85a1e377a7761798584ee", "is_disabled": 0, "rental_uris": {"android": "https://dc.lft.to/lastmile_qr_scan", "ios": "https://dc.lft.to/lastmile_qr_scan"}, "lon": -77.04460016666667, "fusion_lat": 0.0}, {"name": "eda467eb32a8669382994803c91069a9", "fusion_lon": 0.0, "lat": 38.9074985, "is_reserved": 0, "type": "electric_scooter", "bike_id": "eda467eb32a8669382994803c91069a9", "is_disabled": 0, "rental_uris": {"android": "https://dc.lft.to/lastmile_qr_scan", "ios": "https://dc.lft.to/lastmile_qr_scan"}, "lon": -76.9988135, "fusion_lat": 0.0}, {"name": "3ade65031567a86eff5dd490c21b5bf6", "fusion_lon": 0.0, "lat": 38.91101366666667, "is_reserved": 0, "type": "electric_scooter", "bike_id": "3ade65031567a86eff5dd490c21b5bf6", "is_disabled": 0, "rental_uris": {"android": "https://dc.lft.to/lastmile_qr_scan", "ios": "https://dc.lft.to/lastmile_qr_scan"}, "lon": -77.0420295, "fusion_lat": 0.0}, {"name": "7a030b50493f9fb4da71b378b99996ff", "fusion_lon": 0.0, "lat": 38.924202, "is_reserved": 0, "type": "electric_scooter", "bike_id": "7a030b50493f9fb4da71b378b99996ff", "is_disabled": 0, "rental_uris": {"android": "https://dc.lft.to/lastmile_qr_scan", "ios": "https://dc.lft.to/lastmile_qr_scan"}, "lon": -77.0194475, "fusion_lat": 0.0}, {"name": "b5ef00611eadcf809f1eecab3c22e752", "fusion_lon": 0.0, "lat": 38.9138545, "is_reserved": 0, "type": "electric_bike", "bike_id": "b5ef00611eadcf809f1eecab3c22e752", "is_disabled": 0, "rental_uris": {"android": "https://dc.lft.to/lastmile_qr_scan", "ios": "https://dc.lft.to/lastmile_qr_scan"}, "lon": -77.08927666666666, "fusion_lat": 0.0}, {"name": "0e9f360dfd5742f80f89555598492e5b", "fusion_lon": 0.0, "lat": 38.834300666666664, "is_reserved": 0, "type": "electric_bike", "bike_id": "0e9f360dfd5742f80f89555598492e5b", "is_disabled": 0, "rental_uris": {"android": "https://dc.lft.to/lastmile_qr_scan", "ios": "https://dc.lft.to/lastmile_qr_scan"}, "lon": -77.10350783333334, "fusion_lat": 0.0}, {"name": "51103038ae81f15e8993d5859e1703e8", "fusion_lon": 0.0, "lat": 38.925060333333334, "is_reserved": 0, "type": "electric_scooter", "bike_id": "51103038ae81f15e8993d5859e1703e8", "is_disabled": 0, "rental_uris": {"android": "https://dc.lft.to/lastmile_qr_scan", "ios": "https://dc.lft.to/lastmile_qr_scan"}, "lon": -77.02702, "fusion_lat": 0.0}, {"name": "d6133bfcf8894a7a9a6640ae3124c0f5", "fusion_lon": 0.0, "lat": 38.844323333333335, "is_reserved": 0, "type": "electric_scooter", "bike_id": "d6133bfcf8894a7a9a6640ae3124c0f5", "is_disabled": 0, "rental_uris": {"android": "https://dc.lft.to/lastmile_qr_scan", "ios": "https://dc.lft.to/lastmile_qr_scan"}, "lon": -76.99813116666667, "fusion_lat": 0.0}, {"name": "5a1883960d1185f12f233fbea5598fe7", "fusion_lon": 0.0, "lat": 38.928240333333335, "is_reserved": 0, "type": "electric_scooter", "bike_id": "5a1883960d1185f12f233fbea5598fe7", "is_disabled": 0, "rental_uris": {"android": "https://dc.lft.to/lastmile_qr_scan", "ios": "https://dc.lft.to/lastmile_qr_scan"}, "lon": -77.01379533333333, "fusion_lat": 0.0}, {"name": "c5f86c21b4b9aa9d368ea8b84d1d9943", "fusion_lon": 0.0, "lat": 38.919828333333335, "is_reserved": 0, "type": "electric_scooter", "bike_id": "c5f86c21b4b9aa9d368ea8b84d1d9943", "is_disabled": 0, "rental_uris": {"android": "https://dc.lft.to/lastmile_qr_scan", "ios": "https://dc.lft.to/lastmile_qr_scan"}, "lon": -77.076954, "fusion_lat": 0.0}, {"name": "9e2739174ece26c340a010736d8c96e0", "fusion_lon": 0.0, "lat": 38.9172685, "is_reserved": 0, "type": "electric_scooter", "bike_id": "9e2739174ece26c340a010736d8c96e0", "is_disabled": 0, "rental_uris": {"android": "https://dc.lft.to/lastmile_qr_scan", "ios": "https://dc.lft.to/lastmile_qr_scan"}, "lon": -77.02503716666666, "fusion_lat": 0.0}, {"name": "9f392783951fbdea15e58aedc40f8408", "fusion_lon": 0.0, "lat": 38.92260866666667, "is_reserved": 0, "type": "electric_scooter", "bike_id": "9f392783951fbdea15e58aedc40f8408", "is_disabled": 0, "rental_uris": {"android": "https://dc.lft.to/lastmile_qr_scan", "ios": "https://dc.lft.to/lastmile_qr_scan"}, "lon": -77.073249, "fusion_lat": 0.0}, {"name": "31b6867edc13618777297b46c630c70d", "fusion_lon": 0.0, "lat": 38.917671666666664, "is_reserved": 0, "type": "electric_scooter", "bike_id": "31b6867edc13618777297b46c630c70d", "is_disabled": 0, "rental_uris": {"android": "https://dc.lft.to/lastmile_qr_scan", "ios": "https://dc.lft.to/lastmile_qr_scan"}, "lon": -77.04052233333333, "fusion_lat": 0.0}, {"name": "f14bbf669ed4d9034f52e0e74e280671", "fusion_lon": 0.0, "lat": 38.90726866666667, "is_reserved": 0, "type": "electric_scooter", "bike_id": "f14bbf669ed4d9034f52e0e74e280671", "is_disabled": 0, "rental_uris": {"android": "https://dc.lft.to/lastmile_qr_scan", "ios": "https://dc.lft.to/lastmile_qr_scan"}, "lon": -77.04334766666666, "fusion_lat": 0.0}, {"name": "80ccaf29f2796693abe36583096781fd", "fusion_lon": 0.0, "lat": 38.861882, "is_reserved": 0, "type": "electric_scooter", "bike_id": "80ccaf29f2796693abe36583096781fd", "is_disabled": 0, "rental_uris": {"android": "https://dc.lft.to/lastmile_qr_scan", "ios": "https://dc.lft.to/lastmile_qr_scan"}, "lon": -77.088314, "fusion_lat": 0.0}, {"name": "4049d7f511d2bfd8d2a4267dd38520b6", "fusion_lon": 0.0, "lat": 38.907776166666665, "is_reserved": 0, "type": "electric_scooter", "bike_id": "4049d7f511d2bfd8d2a4267dd38520b6", "is_disabled": 0, "rental_uris": {"android": "https://dc.lft.to/lastmile_qr_scan", "ios": "https://dc.lft.to/lastmile_qr_scan"}, "lon": -77.03831466666666, "fusion_lat": 0.0}, {"name": "1cb6b2a45d2c79841e9832b06111a2ef", "fusion_lon": 0.0, "lat": 38.916378, "is_reserved": 0, "type": "electric_scooter", "bike_id": "1cb6b2a45d2c79841e9832b06111a2ef", "is_disabled": 0, "rental_uris": {"android": "https://dc.lft.to/lastmile_qr_scan", "ios": "https://dc.lft.to/lastmile_qr_scan"}, "lon": -77.026922, "fusion_lat": 0.0}, {"name": "69ad7891012271253b5ae60c05df2f95", "fusion_lon": 0.0, "lat": 38.896084333333334, "is_reserved": 0, "type": "electric_scooter", "bike_id": "69ad7891012271253b5ae60c05df2f95", "is_disabled": 0, "rental_uris": {"android": "https://dc.lft.to/lastmile_qr_scan", "ios": "https://dc.lft.to/lastmile_qr_scan"}, "lon": -77.0543835, "fusion_lat": 0.0}, {"name": "583acc091760f7b13df848d9357c83b6", "fusion_lon": 0.0, "lat": 38.8764025, "is_reserved": 0, "type": "electric_scooter", "bike_id": "583acc091760f7b13df848d9357c83b6", "is_disabled": 0, "rental_uris": {"android": "https://dc.lft.to/lastmile_qr_scan", "ios": "https://dc.lft.to/lastmile_qr_scan"}, "lon": -77.00449316666666, "fusion_lat": 0.0}, {"name": "75c73cf5223fe9340ea54ef808db633c", "fusion_lon": 0.0, "lat": 38.9518305, "is_reserved": 0, "type": "electric_scooter", "bike_id": "75c73cf5223fe9340ea54ef808db633c", "is_disabled": 0, "rental_uris": {"android": "https://dc.lft.to/lastmile_qr_scan", "ios": "https://dc.lft.to/lastmile_qr_scan"}, "lon": -77.0261595, "fusion_lat": 0.0}, {"name": "91ad51ee46f21c6b54650faeeddad7fc", "fusion_lon": 0.0, "lat": 38.9587195, "is_reserved": 0, "type": "electric_bike", "bike_id": "91ad51ee46f21c6b54650faeeddad7fc", "is_disabled": 0, "rental_uris": {"android": "https://dc.lft.to/lastmile_qr_scan", "ios": "https://dc.lft.to/lastmile_qr_scan"}, "lon": -77.0013285, "fusion_lat": 0.0}, {"name": "a3e522d0d41cd5398c14ee02b98c3121", "fusion_lon": 0.0, "lat": 38.91320966666667, "is_reserved": 0, "type": "electric_scooter", "bike_id": "a3e522d0d41cd5398c14ee02b98c3121", "is_disabled": 0, "rental_uris": {"android": "https://dc.lft.to/lastmile_qr_scan", "ios": "https://dc.lft.to/lastmile_qr_scan"}, "lon": -77.06248383333333, "fusion_lat": 0.0}, {"name": "3e51aa514c24b07987cc2ee7c18f7569", "fusion_lon": 0.0, "lat": 38.9322765, "is_reserved": 0, "type": "electric_bike", "bike_id": "3e51aa514c24b07987cc2ee7c18f7569", "is_disabled": 0, "rental_uris": {"android": "https://dc.lft.to/lastmile_qr_scan", "ios": "https://dc.lft.to/lastmile_qr_scan"}, "lon": -77.18120466666667, "fusion_lat": 0.0}, {"name": "871aa7dec4e66d632343bc82e9c4c0da", "fusion_lon": 0.0, "lat": 38.90972466666667, "is_reserved": 0, "type": "electric_scooter", "bike_id": "871aa7dec4e66d632343bc82e9c4c0da", "is_disabled": 0, "rental_uris": {"android": "https://dc.lft.to/lastmile_qr_scan", "ios": "https://dc.lft.to/lastmile_qr_scan"}, "lon": -77.0384575, "fusion_lat": 0.0}, {"name": "0e27e59da35541848a149ecfa773e850", "fusion_lon": 0.0, "lat": 38.91551366666667, "is_reserved": 0, "type": "electric_scooter", "bike_id": "0e27e59da35541848a149ecfa773e850", "is_disabled": 0, "rental_uris": {"android": "https://dc.lft.to/lastmile_qr_scan", "ios": "https://dc.lft.to/lastmile_qr_scan"}, "lon": -77.0412465, "fusion_lat": 0.0}, {"name": "42f7e9f0a21b502f7139ebf09540b941", "fusion_lon": 0.0, "lat": 38.892245, "is_reserved": 0, "type": "electric_scooter", "bike_id": "42f7e9f0a21b502f7139ebf09540b941", "is_disabled": 0, "rental_uris": {"android": "https://dc.lft.to/lastmile_qr_scan", "ios": "https://dc.lft.to/lastmile_qr_scan"}, "lon": -77.02365033333334, "fusion_lat": 0.0}, {"name": "4526a90ddd0026937e755109af8e2814", "fusion_lon": 0.0, "lat": 38.91891016666667, "is_reserved": 0, "type": "electric_scooter", "bike_id": "4526a90ddd0026937e755109af8e2814", "is_disabled": 0, "rental_uris": {"android": "https://dc.lft.to/lastmile_qr_scan", "ios": "https://dc.lft.to/lastmile_qr_scan"}, "lon": -77.0229775, "fusion_lat": 0.0}, {"name": "665b69fe4e55a2a87833c197ff3925e3", "fusion_lon": 0.0, "lat": 38.918472333333334, "is_reserved": 0, "type": "electric_scooter", "bike_id": "665b69fe4e55a2a87833c197ff3925e3", "is_disabled": 0, "rental_uris": {"android": "https://dc.lft.to/lastmile_qr_scan", "ios": "https://dc.lft.to/lastmile_qr_scan"}, "lon": -77.03871766666667, "fusion_lat": 0.0}, {"name": "c318d956bbd61463b63af8b22db7da2d", "fusion_lon": 0.0, "lat": 38.913137, "is_reserved": 0, "type": "electric_scooter", "bike_id": "c318d956bbd61463b63af8b22db7da2d", "is_disabled": 0, "rental_uris": {"android": "https://dc.lft.to/lastmile_qr_scan", "ios": "https://dc.lft.to/lastmile_qr_scan"}, "lon": -77.01429483333334, "fusion_lat": 0.0}, {"name": "1896c1c3384be23cbe14f0e1c3cecaea", "fusion_lon": 0.0, "lat": 38.907731, "is_reserved": 0, "type": "electric_scooter", "bike_id": "1896c1c3384be23cbe14f0e1c3cecaea", "is_disabled": 0, "rental_uris": {"android": "https://dc.lft.to/lastmile_qr_scan", "ios": "https://dc.lft.to/lastmile_qr_scan"}, "lon": -76.97824933333334, "fusion_lat": 0.0}, {"name": "23affde37c0ad6e12b93712d63d24133", "fusion_lon": 0.0, "lat": 38.897803833333334, "is_reserved": 0, "type": "electric_scooter", "bike_id": "23affde37c0ad6e12b93712d63d24133", "is_disabled": 0, "rental_uris": {"android": "https://dc.lft.to/lastmile_qr_scan", "ios": "https://dc.lft.to/lastmile_qr_scan"}, "lon": -77.05121333333334, "fusion_lat": 0.0}, {"name": "180b94e96342fd024bac2cf1bcd557c5", "fusion_lon": 0.0, "lat": 38.94627633333333, "is_reserved": 0, "type": "electric_scooter", "bike_id": "180b94e96342fd024bac2cf1bcd557c5", "is_disabled": 0, "rental_uris": {"android": "https://dc.lft.to/lastmile_qr_scan", "ios": "https://dc.lft.to/lastmile_qr_scan"}, "lon": -77.0184245, "fusion_lat": 0.0}, {"name": "a52ffe74f28bebef0b64be8651c989e3", "fusion_lon": 0.0, "lat": 38.9043055, "is_reserved": 0, "type": "electric_scooter", "bike_id": "a52ffe74f28bebef0b64be8651c989e3", "is_disabled": 0, "rental_uris": {"android": "https://dc.lft.to/lastmile_qr_scan", "ios": "https://dc.lft.to/lastmile_qr_scan"}, "lon": -77.02533316666667, "fusion_lat": 0.0}, {"name": "4fe697d34612d82fae0838980105f94f", "fusion_lon": 0.0, "lat": 38.9169125, "is_reserved": 0, "type": "electric_scooter", "bike_id": "4fe697d34612d82fae0838980105f94f", "is_disabled": 0, "rental_uris": {"android": "https://dc.lft.to/lastmile_qr_scan", "ios": "https://dc.lft.to/lastmile_qr_scan"}, "lon": -77.03119, "fusion_lat": 0.0}, {"name": "942ef58f1527acf75d2aa2b55ac75e2e", "fusion_lon": 0.0, "lat": 38.900742, "is_reserved": 0, "type": "electric_scooter", "bike_id": "942ef58f1527acf75d2aa2b55ac75e2e", "is_disabled": 0, "rental_uris": {"android": "https://dc.lft.to/lastmile_qr_scan", "ios": "https://dc.lft.to/lastmile_qr_scan"}, "lon": -77.046908, "fusion_lat": 0.0}, {"name": "7a93ebd85dc4d395ad173381596b72ca", "fusion_lon": 0.0, "lat": 38.898688, "is_reserved": 0, "type": "electric_scooter", "bike_id": "7a93ebd85dc4d395ad173381596b72ca", "is_disabled": 0, "rental_uris": {"android": "https://dc.lft.to/lastmile_qr_scan", "ios": "https://dc.lft.to/lastmile_qr_scan"}, "lon": -76.94662266666667, "fusion_lat": 0.0}, {"name": "003b7c7cf229aade87633835c83b7a41", "fusion_lon": 0.0, "lat": 38.919023833333334, "is_reserved": 0, "type": "electric_scooter", "bike_id": "003b7c7cf229aade87633835c83b7a41", "is_disabled": 0, "rental_uris": {"android": "https://dc.lft.to/lastmile_qr_scan", "ios": "https://dc.lft.to/lastmile_qr_scan"}, "lon": -76.987455, "fusion_lat": 0.0}, {"name": "86da7ca0616396f1e1914f85b9440087", "fusion_lon": 0.0, "lat": 38.86242816666667, "is_reserved": 0, "type": "electric_scooter", "bike_id": "86da7ca0616396f1e1914f85b9440087", "is_disabled": 0, "rental_uris": {"android": "https://dc.lft.to/lastmile_qr_scan", "ios": "https://dc.lft.to/lastmile_qr_scan"}, "lon": -76.99493316666667, "fusion_lat": 0.0}, {"name": "7193c039092ad76c252764075777d545", "fusion_lon": 0.0, "lat": 38.92469283333333, "is_reserved": 0, "type": "electric_scooter", "bike_id": "7193c039092ad76c252764075777d545", "is_disabled": 0, "rental_uris": {"android": "https://dc.lft.to/lastmile_qr_scan", "ios": "https://dc.lft.to/lastmile_qr_scan"}, "lon": -77.04008883333333, "fusion_lat": 0.0}, {"name": "adcf8e5fdf22e90eed8a67acacfdb40f", "fusion_lon": 0.0, "lat": 38.8936585, "is_reserved": 0, "type": "electric_scooter", "bike_id": "adcf8e5fdf22e90eed8a67acacfdb40f", "is_disabled": 0, "rental_uris": {"android": "https://dc.lft.to/lastmile_qr_scan", "ios": "https://dc.lft.to/lastmile_qr_scan"}, "lon": -77.03160966666667, "fusion_lat": 0.0}, {"name": "c5be26222aa431e8ecc2218e24d2196c", "fusion_lon": 0.0, "lat": 38.89457783333334, "is_reserved": 0, "type": "electric_scooter", "bike_id": "c5be26222aa431e8ecc2218e24d2196c", "is_disabled": 0, "rental_uris": {"android": "https://dc.lft.to/lastmile_qr_scan", "ios": "https://dc.lft.to/lastmile_qr_scan"}, "lon": -77.02806866666667, "fusion_lat": 0.0}, {"name": "ae85705505e8de6731345a5486ebf64b", "fusion_lon": 0.0, "lat": 38.90532733333333, "is_reserved": 0, "type": "electric_scooter", "bike_id": "ae85705505e8de6731345a5486ebf64b", "is_disabled": 0, "rental_uris": {"android": "https://dc.lft.to/lastmile_qr_scan", "ios": "https://dc.lft.to/lastmile_qr_scan"}, "lon": -76.98105383333333, "fusion_lat": 0.0}, {"name": "0038ad5172ecc9ef29a05b6a72f2d384", "fusion_lon": 0.0, "lat": 38.88772933333333, "is_reserved": 0, "type": "electric_scooter", "bike_id": "0038ad5172ecc9ef29a05b6a72f2d384", "is_disabled": 0, "rental_uris": {"android": "https://dc.lft.to/lastmile_qr_scan", "ios": "https://dc.lft.to/lastmile_qr_scan"}, "lon": -76.95528333333333, "fusion_lat": 0.0}, {"name": "7a9c6b4bd973b8250236bfccad6abaab", "fusion_lon": 0.0, "lat": 38.87640016666667, "is_reserved": 0, "type": "electric_scooter", "bike_id": "7a9c6b4bd973b8250236bfccad6abaab", "is_disabled": 0, "rental_uris": {"android": "https://dc.lft.to/lastmile_qr_scan", "ios": "https://dc.lft.to/lastmile_qr_scan"}, "lon": -77.00451133333334, "fusion_lat": 0.0}, {"name": "f1175afce6d2bc00e5079f75b821c399", "fusion_lon": 0.0, "lat": 38.8605795, "is_reserved": 0, "type": "electric_scooter", "bike_id": "f1175afce6d2bc00e5079f75b821c399", "is_disabled": 0, "rental_uris": {"android": "https://dc.lft.to/lastmile_qr_scan", "ios": "https://dc.lft.to/lastmile_qr_scan"}, "lon": -76.98420066666667, "fusion_lat": 0.0}, {"name": "5098020c1d35a2c98dac4ac3a6494da9", "fusion_lon": 0.0, "lat": 38.87571483333333, "is_reserved": 0, "type": "electric_scooter", "bike_id": "5098020c1d35a2c98dac4ac3a6494da9", "is_disabled": 0, "rental_uris": {"android": "https://dc.lft.to/lastmile_qr_scan", "ios": "https://dc.lft.to/lastmile_qr_scan"}, "lon": -77.0057495, "fusion_lat": 0.0}, {"name": "567289f04bd5ffe11b4392e822caefa4", "fusion_lon": 0.0, "lat": 38.91895933333333, "is_reserved": 0, "type": "electric_scooter", "bike_id": "567289f04bd5ffe11b4392e822caefa4", "is_disabled": 0, "rental_uris": {"android": "https://dc.lft.to/lastmile_qr_scan", "ios": "https://dc.lft.to/lastmile_qr_scan"}, "lon": -77.03496566666666, "fusion_lat": 0.0}, {"name": "e2ff56cd2133af9fb4da8db6b7fbb8be", "fusion_lon": 0.0, "lat": 38.899589666666664, "is_reserved": 0, "type": "electric_scooter", "bike_id": "e2ff56cd2133af9fb4da8db6b7fbb8be", "is_disabled": 0, "rental_uris": {"android": "https://dc.lft.to/lastmile_qr_scan", "ios": "https://dc.lft.to/lastmile_qr_scan"}, "lon": -77.016248, "fusion_lat": 0.0}, {"name": "cd17048ec0d6be17d43d3d160df16d4c", "fusion_lon": 0.0, "lat": 38.93090733333333, "is_reserved": 0, "type": "electric_scooter", "bike_id": "cd17048ec0d6be17d43d3d160df16d4c", "is_disabled": 0, "rental_uris": {"android": "https://dc.lft.to/lastmile_qr_scan", "ios": "https://dc.lft.to/lastmile_qr_scan"}, "lon": -77.034382, "fusion_lat": 0.0}, {"name": "d49674e9cfee42e0a74401006c290ebb", "fusion_lon": 0.0, "lat": 38.8935355, "is_reserved": 0, "type": "electric_scooter", "bike_id": "d49674e9cfee42e0a74401006c290ebb", "is_disabled": 0, "rental_uris": {"android": "https://dc.lft.to/lastmile_qr_scan", "ios": "https://dc.lft.to/lastmile_qr_scan"}, "lon": -77.00330016666666, "fusion_lat": 0.0}, {"name": "61cab1bb9db0e95a24d68c7b641a1b26", "fusion_lon": 0.0, "lat": 38.91682633333333, "is_reserved": 0, "type": "electric_scooter", "bike_id": "61cab1bb9db0e95a24d68c7b641a1b26", "is_disabled": 0, "rental_uris": {"android": "https://dc.lft.to/lastmile_qr_scan", "ios": "https://dc.lft.to/lastmile_qr_scan"}, "lon": -77.02525883333334, "fusion_lat": 0.0}, {"name": "ee59a57326628e6b92d24c966aefcd6c", "fusion_lon": 0.0, "lat": 38.90366083333333, "is_reserved": 0, "type": "electric_scooter", "bike_id": "ee59a57326628e6b92d24c966aefcd6c", "is_disabled": 0, "rental_uris": {"android": "https://dc.lft.to/lastmile_qr_scan", "ios": "https://dc.lft.to/lastmile_qr_scan"}, "lon": -77.038354, "fusion_lat": 0.0}, {"name": "10acadde73ce9b93d3fa5ebe5668a2dd", "fusion_lon": 0.0, "lat": 38.905655, "is_reserved": 0, "type": "electric_scooter", "bike_id": "10acadde73ce9b93d3fa5ebe5668a2dd", "is_disabled": 0, "rental_uris": {"android": "https://dc.lft.to/lastmile_qr_scan", "ios": "https://dc.lft.to/lastmile_qr_scan"}, "lon": -77.005914, "fusion_lat": 0.0}, {"name": "f2cb8321eb8d1a8d76f02102205a5f9f", "fusion_lon": 0.0, "lat": 38.91011566666667, "is_reserved": 0, "type": "electric_scooter", "bike_id": "f2cb8321eb8d1a8d76f02102205a5f9f", "is_disabled": 0, "rental_uris": {"android": "https://dc.lft.to/lastmile_qr_scan", "ios": "https://dc.lft.to/lastmile_qr_scan"}, "lon": -77.02218683333334, "fusion_lat": 0.0}, {"name": "225645e3e92119dadf35051b4685d0ed", "fusion_lon": 0.0, "lat": 38.9289375, "is_reserved": 0, "type": "electric_scooter", "bike_id": "225645e3e92119dadf35051b4685d0ed", "is_disabled": 0, "rental_uris": {"android": "https://dc.lft.to/lastmile_qr_scan", "ios": "https://dc.lft.to/lastmile_qr_scan"}, "lon": -77.02749816666666, "fusion_lat": 0.0}, {"name": "74d55b416c7fe39cf2da3858d40b4ddb", "fusion_lon": 0.0, "lat": 38.8980045, "is_reserved": 0, "type": "electric_scooter", "bike_id": "74d55b416c7fe39cf2da3858d40b4ddb", "is_disabled": 0, "rental_uris": {"android": "https://dc.lft.to/lastmile_qr_scan", "ios": "https://dc.lft.to/lastmile_qr_scan"}, "lon": -77.05455133333334, "fusion_lat": 0.0}, {"name": "9a139daaf72b8ed06640fccd30512be7", "fusion_lon": 0.0, "lat": 38.9176775, "is_reserved": 0, "type": "electric_scooter", "bike_id": "9a139daaf72b8ed06640fccd30512be7", "is_disabled": 0, "rental_uris": {"android": "https://dc.lft.to/lastmile_qr_scan", "ios": "https://dc.lft.to/lastmile_qr_scan"}, "lon": -77.04058516666667, "fusion_lat": 0.0}, {"name": "80d4631a602653646ce9c9f837fbf004", "fusion_lon": 0.0, "lat": 38.90332766666667, "is_reserved": 0, "type": "electric_scooter", "bike_id": "80d4631a602653646ce9c9f837fbf004", "is_disabled": 0, "rental_uris": {"android": "https://dc.lft.to/lastmile_qr_scan", "ios": "https://dc.lft.to/lastmile_qr_scan"}, "lon": -76.97587066666667, "fusion_lat": 0.0}, {"name": "5350baf74e3e356da967a85add902297", "fusion_lon": 0.0, "lat": 38.87069783333333, "is_reserved": 0, "type": "electric_scooter", "bike_id": "5350baf74e3e356da967a85add902297", "is_disabled": 0, "rental_uris": {"android": "https://dc.lft.to/lastmile_qr_scan", "ios": "https://dc.lft.to/lastmile_qr_scan"}, "lon": -76.989138, "fusion_lat": 0.0}, {"name": "fcdec3271a628eb2a344437ab4a29526", "fusion_lon": 0.0, "lat": 38.920319, "is_reserved": 0, "type": "electric_scooter", "bike_id": "fcdec3271a628eb2a344437ab4a29526", "is_disabled": 0, "rental_uris": {"android": "https://dc.lft.to/lastmile_qr_scan", "ios": "https://dc.lft.to/lastmile_qr_scan"}, "lon": -77.025857, "fusion_lat": 0.0}, {"name": "0fe764ab843771abe09f9f85394ced29", "fusion_lon": 0.0, "lat": 38.906791, "is_reserved": 0, "type": "electric_scooter", "bike_id": "0fe764ab843771abe09f9f85394ced29", "is_disabled": 0, "rental_uris": {"android": "https://dc.lft.to/lastmile_qr_scan", "ios": "https://dc.lft.to/lastmile_qr_scan"}, "lon": -77.071515, "fusion_lat": 0.0}, {"name": "48f3369ae5f6b4ab7c18be57a23eba5e", "fusion_lon": 0.0, "lat": 38.9224075, "is_reserved": 0, "type": "electric_scooter", "bike_id": "48f3369ae5f6b4ab7c18be57a23eba5e", "is_disabled": 0, "rental_uris": {"android": "https://dc.lft.to/lastmile_qr_scan", "ios": "https://dc.lft.to/lastmile_qr_scan"}, "lon": -77.03888666666667, "fusion_lat": 0.0}, {"name": "9d24cec901ac430ea722173932ccddd1", "fusion_lon": 0.0, "lat": 38.919682, "is_reserved": 0, "type": "electric_scooter", "bike_id": "9d24cec901ac430ea722173932ccddd1", "is_disabled": 0, "rental_uris": {"android": "https://dc.lft.to/lastmile_qr_scan", "ios": "https://dc.lft.to/lastmile_qr_scan"}, "lon": -77.04215133333334, "fusion_lat": 0.0}, {"name": "5df61ea476c7ff2579089a10b6c5ab5a", "fusion_lon": 0.0, "lat": 38.928253, "is_reserved": 0, "type": "electric_scooter", "bike_id": "5df61ea476c7ff2579089a10b6c5ab5a", "is_disabled": 0, "rental_uris": {"android": "https://dc.lft.to/lastmile_qr_scan", "ios": "https://dc.lft.to/lastmile_qr_scan"}, "lon": -77.02619066666666, "fusion_lat": 0.0}, {"name": "851f90dbad835bed31a15842f268e0be", "fusion_lon": 0.0, "lat": 38.8996015, "is_reserved": 0, "type": "electric_scooter", "bike_id": "851f90dbad835bed31a15842f268e0be", "is_disabled": 0, "rental_uris": {"android": "https://dc.lft.to/lastmile_qr_scan", "ios": "https://dc.lft.to/lastmile_qr_scan"}, "lon": -77.01602483333333, "fusion_lat": 0.0}, {"name": "addbe9bac0841877999f6ea1969666b2", "fusion_lon": 0.0, "lat": 38.924202, "is_reserved": 0, "type": "electric_scooter", "bike_id": "addbe9bac0841877999f6ea1969666b2", "is_disabled": 0, "rental_uris": {"android": "https://dc.lft.to/lastmile_qr_scan", "ios": "https://dc.lft.to/lastmile_qr_scan"}, "lon": -77.0194675, "fusion_lat": 0.0}, {"name": "34e4d6495f2ffdf1925bc1263cf3acc8", "fusion_lon": 0.0, "lat": 38.92305066666667, "is_reserved": 0, "type": "electric_scooter", "bike_id": "34e4d6495f2ffdf1925bc1263cf3acc8", "is_disabled": 0, "rental_uris": {"android": "https://dc.lft.to/lastmile_qr_scan", "ios": "https://dc.lft.to/lastmile_qr_scan"}, "lon": -77.0312005, "fusion_lat": 0.0}, {"name": "437f84d91b1989802396a96076ebc5f1", "fusion_lon": 0.0, "lat": 38.9451715, "is_reserved": 0, "type": "electric_scooter", "bike_id": "437f84d91b1989802396a96076ebc5f1", "is_disabled": 0, "rental_uris": {"android": "https://dc.lft.to/lastmile_qr_scan", "ios": "https://dc.lft.to/lastmile_qr_scan"}, "lon": -77.019768, "fusion_lat": 0.0}, {"name": "f4778195153e1ad6946cb1016b0529da", "fusion_lon": 0.0, "lat": 38.896652333333336, "is_reserved": 0, "type": "electric_scooter", "bike_id": "f4778195153e1ad6946cb1016b0529da", "is_disabled": 0, "rental_uris": {"android": "https://dc.lft.to/lastmile_qr_scan", "ios": "https://dc.lft.to/lastmile_qr_scan"}, "lon": -76.98811133333334, "fusion_lat": 0.0}, {"name": "4d233b8d2e2b5520dda851a5789963d9", "fusion_lon": 0.0, "lat": 38.920895, "is_reserved": 0, "type": "electric_scooter", "bike_id": "4d233b8d2e2b5520dda851a5789963d9", "is_disabled": 0, "rental_uris": {"android": "https://dc.lft.to/lastmile_qr_scan", "ios": "https://dc.lft.to/lastmile_qr_scan"}, "lon": -77.0241905, "fusion_lat": 0.0}, {"name": "ded5ca834fc788e4576c239b261dedf0", "fusion_lon": 0.0, "lat": 38.9238675, "is_reserved": 0, "type": "electric_scooter", "bike_id": "ded5ca834fc788e4576c239b261dedf0", "is_disabled": 0, "rental_uris": {"android": "https://dc.lft.to/lastmile_qr_scan", "ios": "https://dc.lft.to/lastmile_qr_scan"}, "lon": -77.03649533333333, "fusion_lat": 0.0}, {"name": "b09469bc6e7859d7320fb96fa6d1a028", "fusion_lon": 0.0, "lat": 38.92460483333333, "is_reserved": 0, "type": "electric_scooter", "bike_id": "b09469bc6e7859d7320fb96fa6d1a028", "is_disabled": 0, "rental_uris": {"android": "https://dc.lft.to/lastmile_qr_scan", "ios": "https://dc.lft.to/lastmile_qr_scan"}, "lon": -77.04113716666667, "fusion_lat": 0.0}, {"name": "c74ed21fd2e305626a52279c2dc52334", "fusion_lon": 0.0, "lat": 38.872134, "is_reserved": 0, "type": "electric_scooter", "bike_id": "c74ed21fd2e305626a52279c2dc52334", "is_disabled": 0, "rental_uris": {"android": "https://dc.lft.to/lastmile_qr_scan", "ios": "https://dc.lft.to/lastmile_qr_scan"}, "lon": -77.01635166666667, "fusion_lat": 0.0}, {"name": "6adc25a879adb8db697a5c83ae7603b5", "fusion_lon": 0.0, "lat": 38.899928833333334, "is_reserved": 0, "type": "electric_scooter", "bike_id": "6adc25a879adb8db697a5c83ae7603b5", "is_disabled": 0, "rental_uris": {"android": "https://dc.lft.to/lastmile_qr_scan", "ios": "https://dc.lft.to/lastmile_qr_scan"}, "lon": -77.00677233333333, "fusion_lat": 0.0}, {"name": "25070e95396b2ae1f99503f92c7af04f", "fusion_lon": 0.0, "lat": 38.91912466666667, "is_reserved": 0, "type": "electric_scooter", "bike_id": "25070e95396b2ae1f99503f92c7af04f", "is_disabled": 0, "rental_uris": {"android": "https://dc.lft.to/lastmile_qr_scan", "ios": "https://dc.lft.to/lastmile_qr_scan"}, "lon": -77.02615416666667, "fusion_lat": 0.0}, {"name": "f5e72822f79662165dfb0ad5610e8a2e", "fusion_lon": 0.0, "lat": 38.90149516666666, "is_reserved": 0, "type": "electric_scooter", "bike_id": "f5e72822f79662165dfb0ad5610e8a2e", "is_disabled": 0, "rental_uris": {"android": "https://dc.lft.to/lastmile_qr_scan", "ios": "https://dc.lft.to/lastmile_qr_scan"}, "lon": -77.02384983333333, "fusion_lat": 0.0}, {"name": "4ee094f3377f4d42d0d395c5f86109bb", "fusion_lon": 0.0, "lat": 38.902767, "is_reserved": 0, "type": "electric_scooter", "bike_id": "4ee094f3377f4d42d0d395c5f86109bb", "is_disabled": 0, "rental_uris": {"android": "https://dc.lft.to/lastmile_qr_scan", "ios": "https://dc.lft.to/lastmile_qr_scan"}, "lon": -77.01771583333333, "fusion_lat": 0.0}, {"name": "a4f14bf682a5404d61f894c1ee1534cc", "fusion_lon": 0.0, "lat": 38.9005835, "is_reserved": 0, "type": "electric_scooter", "bike_id": "a4f14bf682a5404d61f894c1ee1534cc", "is_disabled": 0, "rental_uris": {"android": "https://dc.lft.to/lastmile_qr_scan", "ios": "https://dc.lft.to/lastmile_qr_scan"}, "lon": -76.98709166666667, "fusion_lat": 0.0}, {"name": "cfe2ad00c88c742373fdda8a971d5637", "fusion_lon": 0.0, "lat": 38.92086833333333, "is_reserved": 0, "type": "electric_scooter", "bike_id": "cfe2ad00c88c742373fdda8a971d5637", "is_disabled": 0, "rental_uris": {"android": "https://dc.lft.to/lastmile_qr_scan", "ios": "https://dc.lft.to/lastmile_qr_scan"}, "lon": -77.02289366666666, "fusion_lat": 0.0}, {"name": "4f10ed82f9cd1c74d59cea6712792bba", "fusion_lon": 0.0, "lat": 38.90438066666667, "is_reserved": 0, "type": "electric_scooter", "bike_id": "4f10ed82f9cd1c74d59cea6712792bba", "is_disabled": 0, "rental_uris": {"android": "https://dc.lft.to/lastmile_qr_scan", "ios": "https://dc.lft.to/lastmile_qr_scan"}, "lon": -77.062878, "fusion_lat": 0.0}, {"name": "ca45741ccfd183a39e45484f03c2d98d", "fusion_lon": 0.0, "lat": 38.904091333333334, "is_reserved": 0, "type": "electric_scooter", "bike_id": "ca45741ccfd183a39e45484f03c2d98d", "is_disabled": 0, "rental_uris": {"android": "https://dc.lft.to/lastmile_qr_scan", "ios": "https://dc.lft.to/lastmile_qr_scan"}, "lon": -76.97332666666667, "fusion_lat": 0.0}, {"name": "c6edc1bd56bb02dbe0005c73b2023589", "fusion_lon": 0.0, "lat": 38.89225666666667, "is_reserved": 0, "type": "electric_scooter", "bike_id": "c6edc1bd56bb02dbe0005c73b2023589", "is_disabled": 0, "rental_uris": {"android": "https://dc.lft.to/lastmile_qr_scan", "ios": "https://dc.lft.to/lastmile_qr_scan"}, "lon": -77.0486315, "fusion_lat": 0.0}, {"name": "ff773c893ddbf95306ee01fe029a6a74", "fusion_lon": 0.0, "lat": 38.898428333333335, "is_reserved": 0, "type": "electric_scooter", "bike_id": "ff773c893ddbf95306ee01fe029a6a74", "is_disabled": 0, "rental_uris": {"android": "https://dc.lft.to/lastmile_qr_scan", "ios": "https://dc.lft.to/lastmile_qr_scan"}, "lon": -77.02273633333333, "fusion_lat": 0.0}, {"name": "4b60833130ac6d2d02af103114fa8d7e", "fusion_lon": 0.0, "lat": 38.90867816666667, "is_reserved": 0, "type": "electric_scooter", "bike_id": "4b60833130ac6d2d02af103114fa8d7e", "is_disabled": 0, "rental_uris": {"android": "https://dc.lft.to/lastmile_qr_scan", "ios": "https://dc.lft.to/lastmile_qr_scan"}, "lon": -77.0858805, "fusion_lat": 0.0}, {"name": "9a52e7aee5701a148db6ef17e732341b", "fusion_lon": 0.0, "lat": 38.903462, "is_reserved": 0, "type": "electric_scooter", "bike_id": "9a52e7aee5701a148db6ef17e732341b", "is_disabled": 0, "rental_uris": {"android": "https://dc.lft.to/lastmile_qr_scan", "ios": "https://dc.lft.to/lastmile_qr_scan"}, "lon": -77.03341316666666, "fusion_lat": 0.0}, {"name": "525c1ffcd62a637277714fc73ec1221e", "fusion_lon": 0.0, "lat": 38.95147716666666, "is_reserved": 0, "type": "electric_scooter", "bike_id": "525c1ffcd62a637277714fc73ec1221e", "is_disabled": 0, "rental_uris": {"android": "https://dc.lft.to/lastmile_qr_scan", "ios": "https://dc.lft.to/lastmile_qr_scan"}, "lon": -77.01868116666667, "fusion_lat": 0.0}, {"name": "152adc0eb204e25099e562a072248807", "fusion_lon": 0.0, "lat": 38.92174133333333, "is_reserved": 0, "type": "electric_scooter", "bike_id": "152adc0eb204e25099e562a072248807", "is_disabled": 0, "rental_uris": {"android": "https://dc.lft.to/lastmile_qr_scan", "ios": "https://dc.lft.to/lastmile_qr_scan"}, "lon": -77.01915616666666, "fusion_lat": 0.0}, {"name": "00a8a3e7e61bda3872b5e3909eeab010", "fusion_lon": 0.0, "lat": 38.918918, "is_reserved": 0, "type": "electric_scooter", "bike_id": "00a8a3e7e61bda3872b5e3909eeab010", "is_disabled": 0, "rental_uris": {"android": "https://dc.lft.to/lastmile_qr_scan", "ios": "https://dc.lft.to/lastmile_qr_scan"}, "lon": -77.02295983333333, "fusion_lat": 0.0}, {"name": "50ec691703ec6054575d61f77f1816cf", "fusion_lon": 0.0, "lat": 38.899374333333334, "is_reserved": 0, "type": "electric_scooter", "bike_id": "50ec691703ec6054575d61f77f1816cf", "is_disabled": 0, "rental_uris": {"android": "https://dc.lft.to/lastmile_qr_scan", "ios": "https://dc.lft.to/lastmile_qr_scan"}, "lon": -77.021707, "fusion_lat": 0.0}, {"name": "e7e54ee7825d0eb39bd655953c6b813c", "fusion_lon": 0.0, "lat": 38.93485116666667, "is_reserved": 0, "type": "electric_bike", "bike_id": "e7e54ee7825d0eb39bd655953c6b813c", "is_disabled": 0, "rental_uris": {"android": "https://dc.lft.to/lastmile_qr_scan", "ios": "https://dc.lft.to/lastmile_qr_scan"}, "lon": -77.03017433333333, "fusion_lat": 0.0}, {"name": "250107090b08a3f2ab92986e9d3e442b", "fusion_lon": 0.0, "lat": 38.957324666666665, "is_reserved": 0, "type": "electric_scooter", "bike_id": "250107090b08a3f2ab92986e9d3e442b", "is_disabled": 0, "rental_uris": {"android": "https://dc.lft.to/lastmile_qr_scan", "ios": "https://dc.lft.to/lastmile_qr_scan"}, "lon": -77.0240085, "fusion_lat": 0.0}, {"name": "10e81fc7c838e0dfbf99282079c5e6aa", "fusion_lon": 0.0, "lat": 38.95688416666667, "is_reserved": 0, "type": "electric_bike", "bike_id": "10e81fc7c838e0dfbf99282079c5e6aa", "is_disabled": 0, "rental_uris": {"android": "https://dc.lft.to/lastmile_qr_scan", "ios": "https://dc.lft.to/lastmile_qr_scan"}, "lon": -77.02228383333333, "fusion_lat": 0.0}, {"name": "0d947e207854125548357ecc6aa64aee", "fusion_lon": 0.0, "lat": 38.923225, "is_reserved": 0, "type": "electric_scooter", "bike_id": "0d947e207854125548357ecc6aa64aee", "is_disabled": 0, "rental_uris": {"android": "https://dc.lft.to/lastmile_qr_scan", "ios": "https://dc.lft.to/lastmile_qr_scan"}, "lon": -77.04345083333334, "fusion_lat": 0.0}, {"name": "21b05d24f32e744033938b30ec205d13", "fusion_lon": 0.0, "lat": 38.9005995, "is_reserved": 0, "type": "electric_scooter", "bike_id": "21b05d24f32e744033938b30ec205d13", "is_disabled": 0, "rental_uris": {"android": "https://dc.lft.to/lastmile_qr_scan", "ios": "https://dc.lft.to/lastmile_qr_scan"}, "lon": -76.92738233333333, "fusion_lat": 0.0}, {"name": "130ba28a9f6d7be3185120176d0b8d5d", "fusion_lon": 0.0, "lat": 38.917685, "is_reserved": 0, "type": "electric_scooter", "bike_id": "130ba28a9f6d7be3185120176d0b8d5d", "is_disabled": 0, "rental_uris": {"android": "https://dc.lft.to/lastmile_qr_scan", "ios": "https://dc.lft.to/lastmile_qr_scan"}, "lon": -77.04171383333333, "fusion_lat": 0.0}, {"name": "ac67c2f020b01d19651c15f7b42d4d4d", "fusion_lon": 0.0, "lat": 38.9166795, "is_reserved": 0, "type": "electric_scooter", "bike_id": "ac67c2f020b01d19651c15f7b42d4d4d", "is_disabled": 0, "rental_uris": {"android": "https://dc.lft.to/lastmile_qr_scan", "ios": "https://dc.lft.to/lastmile_qr_scan"}, "lon": -77.02970633333334, "fusion_lat": 0.0}, {"name": "0756156aeb2f81916fa0c794e2591707", "fusion_lon": 0.0, "lat": 38.9609745, "is_reserved": 0, "type": "electric_bike", "bike_id": "0756156aeb2f81916fa0c794e2591707", "is_disabled": 0, "rental_uris": {"android": "https://dc.lft.to/lastmile_qr_scan", "ios": "https://dc.lft.to/lastmile_qr_scan"}, "lon": -77.069377, "fusion_lat": 0.0}, {"name": "6b6af66fbefe691680583909b4a5f0f8", "fusion_lon": 0.0, "lat": 38.91402633333333, "is_reserved": 0, "type": "electric_scooter", "bike_id": "6b6af66fbefe691680583909b4a5f0f8", "is_disabled": 0, "rental_uris": {"android": "https://dc.lft.to/lastmile_qr_scan", "ios": "https://dc.lft.to/lastmile_qr_scan"}, "lon": -77.0266025, "fusion_lat": 0.0}, {"name": "884d731194a88ff10468c913dc6f01a2", "fusion_lon": 0.0, "lat": 38.945003666666665, "is_reserved": 0, "type": "electric_scooter", "bike_id": "884d731194a88ff10468c913dc6f01a2", "is_disabled": 0, "rental_uris": {"android": "https://dc.lft.to/lastmile_qr_scan", "ios": "https://dc.lft.to/lastmile_qr_scan"}, "lon": -77.03497283333333, "fusion_lat": 0.0}, {"name": "ee07b627a41dbf9cccefe685b64ea25c", "fusion_lon": 0.0, "lat": 38.93182383333333, "is_reserved": 0, "type": "electric_scooter", "bike_id": "ee07b627a41dbf9cccefe685b64ea25c", "is_disabled": 0, "rental_uris": {"android": "https://dc.lft.to/lastmile_qr_scan", "ios": "https://dc.lft.to/lastmile_qr_scan"}, "lon": -77.036576, "fusion_lat": 0.0}, {"name": "d321dd971d4b672cb7cb2e9c62732bc9", "fusion_lon": 0.0, "lat": 38.900848, "is_reserved": 0, "type": "electric_scooter", "bike_id": "d321dd971d4b672cb7cb2e9c62732bc9", "is_disabled": 0, "rental_uris": {"android": "https://dc.lft.to/lastmile_qr_scan", "ios": "https://dc.lft.to/lastmile_qr_scan"}, "lon": -76.9302635, "fusion_lat": 0.0}, {"name": "9ca03a90c09c65ceaece1c7883c8d6b5", "fusion_lon": 0.0, "lat": 38.95527583333333, "is_reserved": 0, "type": "electric_bike", "bike_id": "9ca03a90c09c65ceaece1c7883c8d6b5", "is_disabled": 0, "rental_uris": {"android": "https://dc.lft.to/lastmile_qr_scan", "ios": "https://dc.lft.to/lastmile_qr_scan"}, "lon": -77.06980783333333, "fusion_lat": 0.0}, {"name": "7dc846eb7dff669126b0494344dbcb35", "fusion_lon": 0.0, "lat": 38.92206183333333, "is_reserved": 0, "type": "electric_bike", "bike_id": "7dc846eb7dff669126b0494344dbcb35", "is_disabled": 0, "rental_uris": {"android": "https://dc.lft.to/lastmile_qr_scan", "ios": "https://dc.lft.to/lastmile_qr_scan"}, "lon": -77.08192633333333, "fusion_lat": 0.0}, {"name": "020b69c59112428fca3f5dde35a198c3", "fusion_lon": 0.0, "lat": 38.884985666666665, "is_reserved": 0, "type": "electric_scooter", "bike_id": "020b69c59112428fca3f5dde35a198c3", "is_disabled": 0, "rental_uris": {"android": "https://dc.lft.to/lastmile_qr_scan", "ios": "https://dc.lft.to/lastmile_qr_scan"}, "lon": -77.00877416666667, "fusion_lat": 0.0}, {"name": "ec9a09d88183d398e89dff227583eb86", "fusion_lon": 0.0, "lat": 38.9429035, "is_reserved": 0, "type": "electric_scooter", "bike_id": "ec9a09d88183d398e89dff227583eb86", "is_disabled": 0, "rental_uris": {"android": "https://dc.lft.to/lastmile_qr_scan", "ios": "https://dc.lft.to/lastmile_qr_scan"}, "lon": -77.02168283333333, "fusion_lat": 0.0}, {"name": "356eabb01aede3f303ca17492de182fc", "fusion_lon": 0.0, "lat": 38.91270683333333, "is_reserved": 0, "type": "electric_scooter", "bike_id": "356eabb01aede3f303ca17492de182fc", "is_disabled": 0, "rental_uris": {"android": "https://dc.lft.to/lastmile_qr_scan", "ios": "https://dc.lft.to/lastmile_qr_scan"}, "lon": -77.02224916666667, "fusion_lat": 0.0}, {"name": "1e2c1545ae0359c1c89ce3a1b048e024", "fusion_lon": 0.0, "lat": 38.9297135, "is_reserved": 0, "type": "electric_scooter", "bike_id": "1e2c1545ae0359c1c89ce3a1b048e024", "is_disabled": 0, "rental_uris": {"android": "https://dc.lft.to/lastmile_qr_scan", "ios": "https://dc.lft.to/lastmile_qr_scan"}, "lon": -77.01685316666666, "fusion_lat": 0.0}, {"name": "440f9eb0bcb98b525dd5d9fe101874d1", "fusion_lon": 0.0, "lat": 38.91910683333333, "is_reserved": 0, "type": "electric_scooter", "bike_id": "440f9eb0bcb98b525dd5d9fe101874d1", "is_disabled": 0, "rental_uris": {"android": "https://dc.lft.to/lastmile_qr_scan", "ios": "https://dc.lft.to/lastmile_qr_scan"}, "lon": -77.015365, "fusion_lat": 0.0}, {"name": "2d37082b2599b92cffccc34bcb724555", "fusion_lon": 0.0, "lat": 38.9236945, "is_reserved": 0, "type": "electric_scooter", "bike_id": "2d37082b2599b92cffccc34bcb724555", "is_disabled": 0, "rental_uris": {"android": "https://dc.lft.to/lastmile_qr_scan", "ios": "https://dc.lft.to/lastmile_qr_scan"}, "lon": -77.035303, "fusion_lat": 0.0}, {"name": "75c0cfb459cd34a399ed3dff005bdae7", "fusion_lon": 0.0, "lat": 38.95355833333333, "is_reserved": 0, "type": "electric_bike", "bike_id": "75c0cfb459cd34a399ed3dff005bdae7", "is_disabled": 0, "rental_uris": {"android": "https://dc.lft.to/lastmile_qr_scan", "ios": "https://dc.lft.to/lastmile_qr_scan"}, "lon": -76.980847, "fusion_lat": 0.0}, {"name": "ea1ad245ec7ee09ddf63079cb1d84917", "fusion_lon": 0.0, "lat": 38.90509433333333, "is_reserved": 0, "type": "electric_scooter", "bike_id": "ea1ad245ec7ee09ddf63079cb1d84917", "is_disabled": 0, "rental_uris": {"android": "https://dc.lft.to/lastmile_qr_scan", "ios": "https://dc.lft.to/lastmile_qr_scan"}, "lon": -77.07015016666666, "fusion_lat": 0.0}, {"name": "5c1348c8cfc97dcabe6140ef10cd017c", "fusion_lon": 0.0, "lat": 38.907253, "is_reserved": 0, "type": "electric_scooter", "bike_id": "5c1348c8cfc97dcabe6140ef10cd017c", "is_disabled": 0, "rental_uris": {"android": "https://dc.lft.to/lastmile_qr_scan", "ios": "https://dc.lft.to/lastmile_qr_scan"}, "lon": -77.04332783333334, "fusion_lat": 0.0}, {"name": "e4dce7367ec1d9a3438bd0b698de7126", "fusion_lon": 0.0, "lat": 38.918128333333335, "is_reserved": 0, "type": "electric_scooter", "bike_id": "e4dce7367ec1d9a3438bd0b698de7126", "is_disabled": 0, "rental_uris": {"android": "https://dc.lft.to/lastmile_qr_scan", "ios": "https://dc.lft.to/lastmile_qr_scan"}, "lon": -77.089588, "fusion_lat": 0.0}, {"name": "84ff2accdbf39695459ab3d23392e47d", "fusion_lon": 0.0, "lat": 38.895981166666665, "is_reserved": 0, "type": "electric_scooter", "bike_id": "84ff2accdbf39695459ab3d23392e47d", "is_disabled": 0, "rental_uris": {"android": "https://dc.lft.to/lastmile_qr_scan", "ios": "https://dc.lft.to/lastmile_qr_scan"}, "lon": -77.02213966666666, "fusion_lat": 0.0}, {"name": "613905561164341360552ad685f79aea", "fusion_lon": 0.0, "lat": 38.90463883333334, "is_reserved": 0, "type": "electric_scooter", "bike_id": "613905561164341360552ad685f79aea", "is_disabled": 0, "rental_uris": {"android": "https://dc.lft.to/lastmile_qr_scan", "ios": "https://dc.lft.to/lastmile_qr_scan"}, "lon": -77.04158133333334, "fusion_lat": 0.0}, {"name": "564ea711db0cdc24407225db8914da8a", "fusion_lon": 0.0, "lat": 38.91732983333333, "is_reserved": 0, "type": "electric_scooter", "bike_id": "564ea711db0cdc24407225db8914da8a", "is_disabled": 0, "rental_uris": {"android": "https://dc.lft.to/lastmile_qr_scan", "ios": "https://dc.lft.to/lastmile_qr_scan"}, "lon": -77.03447783333333, "fusion_lat": 0.0}, {"name": "09d4a876ff569f4f5ce9e1316f58ebe8", "fusion_lon": 0.0, "lat": 38.938556, "is_reserved": 0, "type": "electric_scooter", "bike_id": "09d4a876ff569f4f5ce9e1316f58ebe8", "is_disabled": 0, "rental_uris": {"android": "https://dc.lft.to/lastmile_qr_scan", "ios": "https://dc.lft.to/lastmile_qr_scan"}, "lon": -77.02588483333334, "fusion_lat": 0.0}, {"name": "104b74227bee9e41a925d92f64c6014a", "fusion_lon": 0.0, "lat": 38.963053, "is_reserved": 0, "type": "electric_bike", "bike_id": "104b74227bee9e41a925d92f64c6014a", "is_disabled": 0, "rental_uris": {"android": "https://dc.lft.to/lastmile_qr_scan", "ios": "https://dc.lft.to/lastmile_qr_scan"}, "lon": -77.01105483333333, "fusion_lat": 0.0}, {"name": "349d423f613f928ff5dc75a93b387227", "fusion_lon": 0.0, "lat": 38.96321916666667, "is_reserved": 0, "type": "electric_bike", "bike_id": "349d423f613f928ff5dc75a93b387227", "is_disabled": 0, "rental_uris": {"android": "https://dc.lft.to/lastmile_qr_scan", "ios": "https://dc.lft.to/lastmile_qr_scan"}, "lon": -76.97357883333333, "fusion_lat": 0.0}, {"name": "dd15a3436c24b36fe2f2d5a0fe9fbf0e", "fusion_lon": 0.0, "lat": 38.9147375, "is_reserved": 0, "type": "electric_scooter", "bike_id": "dd15a3436c24b36fe2f2d5a0fe9fbf0e", "is_disabled": 0, "rental_uris": {"android": "https://dc.lft.to/lastmile_qr_scan", "ios": "https://dc.lft.to/lastmile_qr_scan"}, "lon": -77.03186666666667, "fusion_lat": 0.0}, {"name": "f68b2563fc72eabdb09a2b29790004a1", "fusion_lon": 0.0, "lat": 38.86385833333333, "is_reserved": 0, "type": "electric_scooter", "bike_id": "f68b2563fc72eabdb09a2b29790004a1", "is_disabled": 0, "rental_uris": {"android": "https://dc.lft.to/lastmile_qr_scan", "ios": "https://dc.lft.to/lastmile_qr_scan"}, "lon": -76.99042016666667, "fusion_lat": 0.0}, {"name": "e31a32fe54b7389263cc4dae05ea1949", "fusion_lon": 0.0, "lat": 38.90392833333333, "is_reserved": 0, "type": "electric_scooter", "bike_id": "e31a32fe54b7389263cc4dae05ea1949", "is_disabled": 0, "rental_uris": {"android": "https://dc.lft.to/lastmile_qr_scan", "ios": "https://dc.lft.to/lastmile_qr_scan"}, "lon": -77.06767116666667, "fusion_lat": 0.0}, {"name": "b2b6e04432ebda8796342409af38f050", "fusion_lon": 0.0, "lat": 38.90245433333333, "is_reserved": 0, "type": "electric_scooter", "bike_id": "b2b6e04432ebda8796342409af38f050", "is_disabled": 0, "rental_uris": {"android": "https://dc.lft.to/lastmile_qr_scan", "ios": "https://dc.lft.to/lastmile_qr_scan"}, "lon": -77.00198216666666, "fusion_lat": 0.0}, {"name": "9faf3b3008b9c642098b170c9024c78f", "fusion_lon": 0.0, "lat": 38.9386385, "is_reserved": 0, "type": "electric_scooter", "bike_id": "9faf3b3008b9c642098b170c9024c78f", "is_disabled": 0, "rental_uris": {"android": "https://dc.lft.to/lastmile_qr_scan", "ios": "https://dc.lft.to/lastmile_qr_scan"}, "lon": -77.0307955, "fusion_lat": 0.0}, {"name": "5b790293486f3cc6ebd48eb1cdf516da", "fusion_lon": 0.0, "lat": 38.913583333333335, "is_reserved": 0, "type": "electric_scooter", "bike_id": "5b790293486f3cc6ebd48eb1cdf516da", "is_disabled": 0, "rental_uris": {"android": "https://dc.lft.to/lastmile_qr_scan", "ios": "https://dc.lft.to/lastmile_qr_scan"}, "lon": -77.0693205, "fusion_lat": 0.0}, {"name": "da6f0cc8dd81d34c6300fb48db3a1243", "fusion_lon": 0.0, "lat": 38.917007, "is_reserved": 0, "type": "electric_scooter", "bike_id": "da6f0cc8dd81d34c6300fb48db3a1243", "is_disabled": 0, "rental_uris": {"android": "https://dc.lft.to/lastmile_qr_scan", "ios": "https://dc.lft.to/lastmile_qr_scan"}, "lon": -77.0217545, "fusion_lat": 0.0}, {"name": "b1ad024e45c4c9aa909e5766ec67d1e8", "fusion_lon": 0.0, "lat": 38.93115483333333, "is_reserved": 0, "type": "electric_scooter", "bike_id": "b1ad024e45c4c9aa909e5766ec67d1e8", "is_disabled": 0, "rental_uris": {"android": "https://dc.lft.to/lastmile_qr_scan", "ios": "https://dc.lft.to/lastmile_qr_scan"}, "lon": -77.0302795, "fusion_lat": 0.0}, {"name": "b8501b9b487ebdd523118e679431dfee", "fusion_lon": 0.0, "lat": 38.916516, "is_reserved": 0, "type": "electric_scooter", "bike_id": "b8501b9b487ebdd523118e679431dfee", "is_disabled": 0, "rental_uris": {"android": "https://dc.lft.to/lastmile_qr_scan", "ios": "https://dc.lft.to/lastmile_qr_scan"}, "lon": -77.02010516666667, "fusion_lat": 0.0}, {"name": "67bdcf639b52f64b62177c7872ca7e33", "fusion_lon": 0.0, "lat": 38.92827183333333, "is_reserved": 0, "type": "electric_scooter", "bike_id": "67bdcf639b52f64b62177c7872ca7e33", "is_disabled": 0, "rental_uris": {"android": "https://dc.lft.to/lastmile_qr_scan", "ios": "https://dc.lft.to/lastmile_qr_scan"}, "lon": -77.03723416666666, "fusion_lat": 0.0}, {"name": "bc387cba009f20a9dd4e2bbb1b0fdb80", "fusion_lon": 0.0, "lat": 38.9003495, "is_reserved": 0, "type": "electric_scooter", "bike_id": "bc387cba009f20a9dd4e2bbb1b0fdb80", "is_disabled": 0, "rental_uris": {"android": "https://dc.lft.to/lastmile_qr_scan", "ios": "https://dc.lft.to/lastmile_qr_scan"}, "lon": -76.98818383333334, "fusion_lat": 0.0}, {"name": "62f740c5a2104bf49611cb757eccc5d8", "fusion_lon": 0.0, "lat": 38.865044166666664, "is_reserved": 0, "type": "electric_scooter", "bike_id": "62f740c5a2104bf49611cb757eccc5d8", "is_disabled": 0, "rental_uris": {"android": "https://dc.lft.to/lastmile_qr_scan", "ios": "https://dc.lft.to/lastmile_qr_scan"}, "lon": -76.990004, "fusion_lat": 0.0}, {"name": "6bf355439a3159b1f95d3eab15ea121d", "fusion_lon": 0.0, "lat": 38.93268416666667, "is_reserved": 0, "type": "electric_scooter", "bike_id": "6bf355439a3159b1f95d3eab15ea121d", "is_disabled": 0, "rental_uris": {"android": "https://dc.lft.to/lastmile_qr_scan", "ios": "https://dc.lft.to/lastmile_qr_scan"}, "lon": -77.04532716666667, "fusion_lat": 0.0}, {"name": "aef2c629704510afd8043326ff6b6c9e", "fusion_lon": 0.0, "lat": 38.906399, "is_reserved": 0, "type": "electric_scooter", "bike_id": "aef2c629704510afd8043326ff6b6c9e", "is_disabled": 0, "rental_uris": {"android": "https://dc.lft.to/lastmile_qr_scan", "ios": "https://dc.lft.to/lastmile_qr_scan"}, "lon": -77.00172833333333, "fusion_lat": 0.0}, {"name": "19935ff78dc6edd77855a19b9d822f50", "fusion_lon": 0.0, "lat": 38.910985, "is_reserved": 0, "type": "electric_scooter", "bike_id": "19935ff78dc6edd77855a19b9d822f50", "is_disabled": 0, "rental_uris": {"android": "https://dc.lft.to/lastmile_qr_scan", "ios": "https://dc.lft.to/lastmile_qr_scan"}, "lon": -77.04823866666666, "fusion_lat": 0.0}, {"name": "60b7ea15870239b2e71d3971487eb6a0", "fusion_lon": 0.0, "lat": 38.9008815, "is_reserved": 0, "type": "electric_scooter", "bike_id": "60b7ea15870239b2e71d3971487eb6a0", "is_disabled": 0, "rental_uris": {"android": "https://dc.lft.to/lastmile_qr_scan", "ios": "https://dc.lft.to/lastmile_qr_scan"}, "lon": -77.04768116666666, "fusion_lat": 0.0}, {"name": "d7d7d2f8c9b5bc0a73486aad41a32a96", "fusion_lon": 0.0, "lat": 39.013684833333336, "is_reserved": 0, "type": "electric_bike", "bike_id": "d7d7d2f8c9b5bc0a73486aad41a32a96", "is_disabled": 0, "rental_uris": {"android": "https://dc.lft.to/lastmile_qr_scan", "ios": "https://dc.lft.to/lastmile_qr_scan"}, "lon": -76.92131233333333, "fusion_lat": 0.0}, {"name": "cd5e505c0a452485153c2ba7b5f9e960", "fusion_lon": 0.0, "lat": 38.91926816666667, "is_reserved": 0, "type": "electric_bike", "bike_id": "cd5e505c0a452485153c2ba7b5f9e960", "is_disabled": 0, "rental_uris": {"android": "https://dc.lft.to/lastmile_qr_scan", "ios": "https://dc.lft.to/lastmile_qr_scan"}, "lon": -77.07377533333333, "fusion_lat": 0.0}, {"name": "9edaa59e7bb33a6d2be677e799f2ac7f", "fusion_lon": 0.0, "lat": 38.90027883333333, "is_reserved": 0, "type": "electric_scooter", "bike_id": "9edaa59e7bb33a6d2be677e799f2ac7f", "is_disabled": 0, "rental_uris": {"android": "https://dc.lft.to/lastmile_qr_scan", "ios": "https://dc.lft.to/lastmile_qr_scan"}, "lon": -77.001948, "fusion_lat": 0.0}, {"name": "cbdaa392a0cad264a2219862d90dd5aa", "fusion_lon": 0.0, "lat": 38.8922245, "is_reserved": 0, "type": "electric_scooter", "bike_id": "cbdaa392a0cad264a2219862d90dd5aa", "is_disabled": 0, "rental_uris": {"android": "https://dc.lft.to/lastmile_qr_scan", "ios": "https://dc.lft.to/lastmile_qr_scan"}, "lon": -77.04804583333333, "fusion_lat": 0.0}, {"name": "a43df322284554acc8de95afd0d608bd", "fusion_lon": 0.0, "lat": 38.91604316666667, "is_reserved": 0, "type": "electric_scooter", "bike_id": "a43df322284554acc8de95afd0d608bd", "is_disabled": 0, "rental_uris": {"android": "https://dc.lft.to/lastmile_qr_scan", "ios": "https://dc.lft.to/lastmile_qr_scan"}, "lon": -77.00061016666666, "fusion_lat": 0.0}, {"name": "7892d26049077f964dcec392f106752f", "fusion_lon": 0.0, "lat": 38.94281766666667, "is_reserved": 0, "type": "electric_bike", "bike_id": "7892d26049077f964dcec392f106752f", "is_disabled": 0, "rental_uris": {"android": "https://dc.lft.to/lastmile_qr_scan", "ios": "https://dc.lft.to/lastmile_qr_scan"}, "lon": -76.987856, "fusion_lat": 0.0}, {"name": "9905a240a23a13dce3e24c3549c5e0da", "fusion_lon": 0.0, "lat": 38.882761, "is_reserved": 0, "type": "electric_scooter", "bike_id": "9905a240a23a13dce3e24c3549c5e0da", "is_disabled": 0, "rental_uris": {"android": "https://dc.lft.to/lastmile_qr_scan", "ios": "https://dc.lft.to/lastmile_qr_scan"}, "lon": -77.00860933333334, "fusion_lat": 0.0}, {"name": "ef2516b558533be93ecccee2257ce974", "fusion_lon": 0.0, "lat": 38.92319416666667, "is_reserved": 0, "type": "electric_scooter", "bike_id": "ef2516b558533be93ecccee2257ce974", "is_disabled": 0, "rental_uris": {"android": "https://dc.lft.to/lastmile_qr_scan", "ios": "https://dc.lft.to/lastmile_qr_scan"}, "lon": -77.041793, "fusion_lat": 0.0}, {"name": "518c1447b87673de8c101474f1aafad8", "fusion_lon": 0.0, "lat": 38.91777366666667, "is_reserved": 0, "type": "electric_scooter", "bike_id": "518c1447b87673de8c101474f1aafad8", "is_disabled": 0, "rental_uris": {"android": "https://dc.lft.to/lastmile_qr_scan", "ios": "https://dc.lft.to/lastmile_qr_scan"}, "lon": -77.01790016666666, "fusion_lat": 0.0}, {"name": "62573226b54d97e1b5948f4e558dfcaa", "fusion_lon": 0.0, "lat": 38.9110265, "is_reserved": 0, "type": "electric_scooter", "bike_id": "62573226b54d97e1b5948f4e558dfcaa", "is_disabled": 0, "rental_uris": {"android": "https://dc.lft.to/lastmile_qr_scan", "ios": "https://dc.lft.to/lastmile_qr_scan"}, "lon": -77.04804783333333, "fusion_lat": 0.0}, {"name": "459040da25f2eb141a95fe321075596c", "fusion_lon": 0.0, "lat": 38.91679366666666, "is_reserved": 0, "type": "electric_scooter", "bike_id": "459040da25f2eb141a95fe321075596c", "is_disabled": 0, "rental_uris": {"android": "https://dc.lft.to/lastmile_qr_scan", "ios": "https://dc.lft.to/lastmile_qr_scan"}, "lon": -77.02345216666667, "fusion_lat": 0.0}, {"name": "5a6fd375aebc0df136edf181e538751e", "fusion_lon": 0.0, "lat": 38.919646666666665, "is_reserved": 0, "type": "electric_scooter", "bike_id": "5a6fd375aebc0df136edf181e538751e", "is_disabled": 0, "rental_uris": {"android": "https://dc.lft.to/lastmile_qr_scan", "ios": "https://dc.lft.to/lastmile_qr_scan"}, "lon": -77.03849316666667, "fusion_lat": 0.0}, {"name": "49fe02b09f2c58c5d1f924675c9d5647", "fusion_lon": 0.0, "lat": 38.888707, "is_reserved": 0, "type": "electric_scooter", "bike_id": "49fe02b09f2c58c5d1f924675c9d5647", "is_disabled": 0, "rental_uris": {"android": "https://dc.lft.to/lastmile_qr_scan", "ios": "https://dc.lft.to/lastmile_qr_scan"}, "lon": -76.990324, "fusion_lat": 0.0}, {"name": "5301580ca24ca9ab8cfc072e31cd1e45", "fusion_lon": 0.0, "lat": 38.878178, "is_reserved": 0, "type": "electric_scooter", "bike_id": "5301580ca24ca9ab8cfc072e31cd1e45", "is_disabled": 0, "rental_uris": {"android": "https://dc.lft.to/lastmile_qr_scan", "ios": "https://dc.lft.to/lastmile_qr_scan"}, "lon": -76.93102216666666, "fusion_lat": 0.0}, {"name": "3d78ed4a25227f277d5cf1fcf595ebfc", "fusion_lon": 0.0, "lat": 38.928823333333334, "is_reserved": 0, "type": "electric_scooter", "bike_id": "3d78ed4a25227f277d5cf1fcf595ebfc", "is_disabled": 0, "rental_uris": {"android": "https://dc.lft.to/lastmile_qr_scan", "ios": "https://dc.lft.to/lastmile_qr_scan"}, "lon": -77.01363283333333, "fusion_lat": 0.0}, {"name": "dc8e066edc5312693738868c852b4951", "fusion_lon": 0.0, "lat": 38.904062, "is_reserved": 0, "type": "electric_scooter", "bike_id": "dc8e066edc5312693738868c852b4951", "is_disabled": 0, "rental_uris": {"android": "https://dc.lft.to/lastmile_qr_scan", "ios": "https://dc.lft.to/lastmile_qr_scan"}, "lon": -76.9732425, "fusion_lat": 0.0}, {"name": "daaf88e2c7ef2f114deae57af543a2d8", "fusion_lon": 0.0, "lat": 38.87857366666667, "is_reserved": 0, "type": "electric_bike", "bike_id": "daaf88e2c7ef2f114deae57af543a2d8", "is_disabled": 0, "rental_uris": {"android": "https://dc.lft.to/lastmile_qr_scan", "ios": "https://dc.lft.to/lastmile_qr_scan"}, "lon": -77.01750433333333, "fusion_lat": 0.0}, {"name": "bcbefded0168c30b131b72b2c9fe65ea", "fusion_lon": 0.0, "lat": 38.905603, "is_reserved": 0, "type": "electric_scooter", "bike_id": "bcbefded0168c30b131b72b2c9fe65ea", "is_disabled": 0, "rental_uris": {"android": "https://dc.lft.to/lastmile_qr_scan", "ios": "https://dc.lft.to/lastmile_qr_scan"}, "lon": -77.04343533333333, "fusion_lat": 0.0}, {"name": "b7514f85f31f34a454087b4ef2918abc", "fusion_lon": 0.0, "lat": 39.000259666666665, "is_reserved": 0, "type": "electric_bike", "bike_id": "b7514f85f31f34a454087b4ef2918abc", "is_disabled": 0, "rental_uris": {"android": "https://dc.lft.to/lastmile_qr_scan", "ios": "https://dc.lft.to/lastmile_qr_scan"}, "lon": -77.04739516666666, "fusion_lat": 0.0}, {"name": "cd709e806c0c9ad9331d51322453dd72", "fusion_lon": 0.0, "lat": 38.872947833333335, "is_reserved": 0, "type": "electric_bike", "bike_id": "cd709e806c0c9ad9331d51322453dd72", "is_disabled": 0, "rental_uris": {"android": "https://dc.lft.to/lastmile_qr_scan", "ios": "https://dc.lft.to/lastmile_qr_scan"}, "lon": -76.96978433333334, "fusion_lat": 0.0}, {"name": "1fe24d7d87ad177f9a4d66d257ced866", "fusion_lon": 0.0, "lat": 38.949838, "is_reserved": 0, "type": "electric_scooter", "bike_id": "1fe24d7d87ad177f9a4d66d257ced866", "is_disabled": 0, "rental_uris": {"android": "https://dc.lft.to/lastmile_qr_scan", "ios": "https://dc.lft.to/lastmile_qr_scan"}, "lon": -77.02699583333333, "fusion_lat": 0.0}, {"name": "4aa28077143382551744eb7a9e75e330", "fusion_lon": 0.0, "lat": 38.911198, "is_reserved": 0, "type": "electric_scooter", "bike_id": "4aa28077143382551744eb7a9e75e330", "is_disabled": 0, "rental_uris": {"android": "https://dc.lft.to/lastmile_qr_scan", "ios": "https://dc.lft.to/lastmile_qr_scan"}, "lon": -77.02239433333334, "fusion_lat": 0.0}, {"name": "bd3bf2e4d106a4b3e45e9e5cf3a7d4fe", "fusion_lon": 0.0, "lat": 38.88395283333333, "is_reserved": 0, "type": "electric_scooter", "bike_id": "bd3bf2e4d106a4b3e45e9e5cf3a7d4fe", "is_disabled": 0, "rental_uris": {"android": "https://dc.lft.to/lastmile_qr_scan", "ios": "https://dc.lft.to/lastmile_qr_scan"}, "lon": -77.0256785, "fusion_lat": 0.0}, {"name": "a5e1d6cfae3d9f492ae259da53f9a836", "fusion_lon": 0.0, "lat": 38.971858, "is_reserved": 0, "type": "electric_scooter", "bike_id": "a5e1d6cfae3d9f492ae259da53f9a836", "is_disabled": 0, "rental_uris": {"android": "https://dc.lft.to/lastmile_qr_scan", "ios": "https://dc.lft.to/lastmile_qr_scan"}, "lon": -77.026795, "fusion_lat": 0.0}, {"name": "9b1aa191cbe40feea6917fbeb066607a", "fusion_lon": 0.0, "lat": 38.91841733333333, "is_reserved": 0, "type": "electric_scooter", "bike_id": "9b1aa191cbe40feea6917fbeb066607a", "is_disabled": 0, "rental_uris": {"android": "https://dc.lft.to/lastmile_qr_scan", "ios": "https://dc.lft.to/lastmile_qr_scan"}, "lon": -77.059505, "fusion_lat": 0.0}, {"name": "12ab1db775ad57707a177dab9e524430", "fusion_lon": 0.0, "lat": 38.88608716666667, "is_reserved": 0, "type": "electric_scooter", "bike_id": "12ab1db775ad57707a177dab9e524430", "is_disabled": 0, "rental_uris": {"android": "https://dc.lft.to/lastmile_qr_scan", "ios": "https://dc.lft.to/lastmile_qr_scan"}, "lon": -77.00138583333333, "fusion_lat": 0.0}, {"name": "59164eae6363426e49dd1c870a8add57", "fusion_lon": 0.0, "lat": 38.94979, "is_reserved": 0, "type": "electric_scooter", "bike_id": "59164eae6363426e49dd1c870a8add57", "is_disabled": 0, "rental_uris": {"android": "https://dc.lft.to/lastmile_qr_scan", "ios": "https://dc.lft.to/lastmile_qr_scan"}, "lon": -77.02646716666666, "fusion_lat": 0.0}, {"name": "644dd3143e1366049bbb5f7f90565f25", "fusion_lon": 0.0, "lat": 38.9180985, "is_reserved": 0, "type": "electric_scooter", "bike_id": "644dd3143e1366049bbb5f7f90565f25", "is_disabled": 0, "rental_uris": {"android": "https://dc.lft.to/lastmile_qr_scan", "ios": "https://dc.lft.to/lastmile_qr_scan"}, "lon": -77.03651816666667, "fusion_lat": 0.0}, {"name": "777da054a56c14047544059e4268077d", "fusion_lon": 0.0, "lat": 38.95847466666667, "is_reserved": 0, "type": "electric_scooter", "bike_id": "777da054a56c14047544059e4268077d", "is_disabled": 0, "rental_uris": {"android": "https://dc.lft.to/lastmile_qr_scan", "ios": "https://dc.lft.to/lastmile_qr_scan"}, "lon": -77.02737616666667, "fusion_lat": 0.0}, {"name": "8e07bd96675060228b2e1ee6b52faff7", "fusion_lon": 0.0, "lat": 38.82366833333333, "is_reserved": 0, "type": "electric_bike", "bike_id": "8e07bd96675060228b2e1ee6b52faff7", "is_disabled": 0, "rental_uris": {"android": "https://dc.lft.to/lastmile_qr_scan", "ios": "https://dc.lft.to/lastmile_qr_scan"}, "lon": -77.002144, "fusion_lat": 0.0}, {"name": "cabe806f1521fc5dd5410d773e9683be", "fusion_lon": 0.0, "lat": 38.91864433333333, "is_reserved": 0, "type": "electric_scooter", "bike_id": "cabe806f1521fc5dd5410d773e9683be", "is_disabled": 0, "rental_uris": {"android": "https://dc.lft.to/lastmile_qr_scan", "ios": "https://dc.lft.to/lastmile_qr_scan"}, "lon": -77.04375483333334, "fusion_lat": 0.0}, {"name": "0188c8589bfafc3ed87fe25d612eee4d", "fusion_lon": 0.0, "lat": 38.9222915, "is_reserved": 0, "type": "electric_scooter", "bike_id": "0188c8589bfafc3ed87fe25d612eee4d", "is_disabled": 0, "rental_uris": {"android": "https://dc.lft.to/lastmile_qr_scan", "ios": "https://dc.lft.to/lastmile_qr_scan"}, "lon": -77.047056, "fusion_lat": 0.0}, {"name": "72d067b2d7879f209d2f374cd819c640", "fusion_lon": 0.0, "lat": 38.916941333333334, "is_reserved": 0, "type": "electric_scooter", "bike_id": "72d067b2d7879f209d2f374cd819c640", "is_disabled": 0, "rental_uris": {"android": "https://dc.lft.to/lastmile_qr_scan", "ios": "https://dc.lft.to/lastmile_qr_scan"}, "lon": -77.02513766666667, "fusion_lat": 0.0}, {"name": "b68e5bd036516c126a50857d1490cb95", "fusion_lon": 0.0, "lat": 38.9217475, "is_reserved": 0, "type": "electric_scooter", "bike_id": "b68e5bd036516c126a50857d1490cb95", "is_disabled": 0, "rental_uris": {"android": "https://dc.lft.to/lastmile_qr_scan", "ios": "https://dc.lft.to/lastmile_qr_scan"}, "lon": -77.04243766666667, "fusion_lat": 0.0}, {"name": "032fcebf2736c6dfa49afb2ab33fd348", "fusion_lon": 0.0, "lat": 38.920543, "is_reserved": 0, "type": "electric_scooter", "bike_id": "032fcebf2736c6dfa49afb2ab33fd348", "is_disabled": 0, "rental_uris": {"android": "https://dc.lft.to/lastmile_qr_scan", "ios": "https://dc.lft.to/lastmile_qr_scan"}, "lon": -77.02982383333334, "fusion_lat": 0.0}, {"name": "c4224216172228e91943e89e49f9b186", "fusion_lon": 0.0, "lat": 38.9220875, "is_reserved": 0, "type": "electric_scooter", "bike_id": "c4224216172228e91943e89e49f9b186", "is_disabled": 0, "rental_uris": {"android": "https://dc.lft.to/lastmile_qr_scan", "ios": "https://dc.lft.to/lastmile_qr_scan"}, "lon": -77.03280233333334, "fusion_lat": 0.0}, {"name": "ac50ae4833fa895d11c40e51b17d30b7", "fusion_lon": 0.0, "lat": 38.941855333333336, "is_reserved": 0, "type": "electric_scooter", "bike_id": "ac50ae4833fa895d11c40e51b17d30b7", "is_disabled": 0, "rental_uris": {"android": "https://dc.lft.to/lastmile_qr_scan", "ios": "https://dc.lft.to/lastmile_qr_scan"}, "lon": -77.0248865, "fusion_lat": 0.0}, {"name": "3d49f6f7f9f14b18d467a9fa2e87cb92", "fusion_lon": 0.0, "lat": 38.926999333333335, "is_reserved": 0, "type": "electric_scooter", "bike_id": "3d49f6f7f9f14b18d467a9fa2e87cb92", "is_disabled": 0, "rental_uris": {"android": "https://dc.lft.to/lastmile_qr_scan", "ios": "https://dc.lft.to/lastmile_qr_scan"}, "lon": -77.02420416666666, "fusion_lat": 0.0}, {"name": "8aa3f22c774506733c755d1ace3309f7", "fusion_lon": 0.0, "lat": 38.919559, "is_reserved": 0, "type": "electric_scooter", "bike_id": "8aa3f22c774506733c755d1ace3309f7", "is_disabled": 0, "rental_uris": {"android": "https://dc.lft.to/lastmile_qr_scan", "ios": "https://dc.lft.to/lastmile_qr_scan"}, "lon": -77.0347815, "fusion_lat": 0.0}, {"name": "7ef3e6b34fcddac1c646901d2ec72116", "fusion_lon": 0.0, "lat": 38.99341966666667, "is_reserved": 0, "type": "electric_bike", "bike_id": "7ef3e6b34fcddac1c646901d2ec72116", "is_disabled": 0, "rental_uris": {"android": "https://dc.lft.to/lastmile_qr_scan", "ios": "https://dc.lft.to/lastmile_qr_scan"}, "lon": -77.11577733333333, "fusion_lat": 0.0}, {"name": "9baec59619965589c432ee63f27b70d6", "fusion_lon": 0.0, "lat": 38.80759366666667, "is_reserved": 0, "type": "electric_bike", "bike_id": "9baec59619965589c432ee63f27b70d6", "is_disabled": 0, "rental_uris": {"android": "https://dc.lft.to/lastmile_qr_scan", "ios": "https://dc.lft.to/lastmile_qr_scan"}, "lon": -77.09462883333333, "fusion_lat": 0.0}, {"name": "abd132595468e6e2fbdf9be0c9fd6538", "fusion_lon": 0.0, "lat": 38.89840683333333, "is_reserved": 0, "type": "electric_scooter", "bike_id": "abd132595468e6e2fbdf9be0c9fd6538", "is_disabled": 0, "rental_uris": {"android": "https://dc.lft.to/lastmile_qr_scan", "ios": "https://dc.lft.to/lastmile_qr_scan"}, "lon": -77.02388533333334, "fusion_lat": 0.0}, {"name": "be723b78163078e0561a38b0ca01657b", "fusion_lon": 0.0, "lat": 38.946198333333335, "is_reserved": 0, "type": "electric_scooter", "bike_id": "be723b78163078e0561a38b0ca01657b", "is_disabled": 0, "rental_uris": {"android": "https://dc.lft.to/lastmile_qr_scan", "ios": "https://dc.lft.to/lastmile_qr_scan"}, "lon": -77.02169783333333, "fusion_lat": 0.0}, {"name": "236d96b3654a326ba1ab76dd2e27b0a3", "fusion_lon": 0.0, "lat": 38.86504633333333, "is_reserved": 0, "type": "electric_scooter", "bike_id": "236d96b3654a326ba1ab76dd2e27b0a3", "is_disabled": 0, "rental_uris": {"android": "https://dc.lft.to/lastmile_qr_scan", "ios": "https://dc.lft.to/lastmile_qr_scan"}, "lon": -76.99001383333334, "fusion_lat": 0.0}, {"name": "69ddb7c56377c1b6f919ebe8857448c6", "fusion_lon": 0.0, "lat": 38.907424, "is_reserved": 0, "type": "electric_scooter", "bike_id": "69ddb7c56377c1b6f919ebe8857448c6", "is_disabled": 0, "rental_uris": {"android": "https://dc.lft.to/lastmile_qr_scan", "ios": "https://dc.lft.to/lastmile_qr_scan"}, "lon": -77.04198383333333, "fusion_lat": 0.0}, {"name": "e60157d5996bcbab389c9732a17f9371", "fusion_lon": 0.0, "lat": 38.91629966666667, "is_reserved": 0, "type": "electric_scooter", "bike_id": "e60157d5996bcbab389c9732a17f9371", "is_disabled": 0, "rental_uris": {"android": "https://dc.lft.to/lastmile_qr_scan", "ios": "https://dc.lft.to/lastmile_qr_scan"}, "lon": -77.03989516666667, "fusion_lat": 0.0}, {"name": "3965c1b2957ec367c1f7f83070023097", "fusion_lon": 0.0, "lat": 38.92282216666667, "is_reserved": 0, "type": "electric_scooter", "bike_id": "3965c1b2957ec367c1f7f83070023097", "is_disabled": 0, "rental_uris": {"android": "https://dc.lft.to/lastmile_qr_scan", "ios": "https://dc.lft.to/lastmile_qr_scan"}, "lon": -77.03661733333334, "fusion_lat": 0.0}, {"name": "a4d7e47b71cdff6fdf65407a96aaeff9", "fusion_lon": 0.0, "lat": 38.92369433333333, "is_reserved": 0, "type": "electric_scooter", "bike_id": "a4d7e47b71cdff6fdf65407a96aaeff9", "is_disabled": 0, "rental_uris": {"android": "https://dc.lft.to/lastmile_qr_scan", "ios": "https://dc.lft.to/lastmile_qr_scan"}, "lon": -77.03044666666666, "fusion_lat": 0.0}, {"name": "c737177cddba07344b3823924608b4c8", "fusion_lon": 0.0, "lat": 38.914535, "is_reserved": 0, "type": "electric_scooter", "bike_id": "c737177cddba07344b3823924608b4c8", "is_disabled": 0, "rental_uris": {"android": "https://dc.lft.to/lastmile_qr_scan", "ios": "https://dc.lft.to/lastmile_qr_scan"}, "lon": -77.07126916666667, "fusion_lat": 0.0}, {"name": "f8a61de5f01bc07a140f0519344e0ff0", "fusion_lon": 0.0, "lat": 38.882685333333335, "is_reserved": 0, "type": "electric_scooter", "bike_id": "f8a61de5f01bc07a140f0519344e0ff0", "is_disabled": 0, "rental_uris": {"android": "https://dc.lft.to/lastmile_qr_scan", "ios": "https://dc.lft.to/lastmile_qr_scan"}, "lon": -76.99253883333333, "fusion_lat": 0.0}, {"name": "0ec01a628e6a25ea5fa3bb23b68088e9", "fusion_lon": 0.0, "lat": 38.90567583333333, "is_reserved": 0, "type": "electric_scooter", "bike_id": "0ec01a628e6a25ea5fa3bb23b68088e9", "is_disabled": 0, "rental_uris": {"android": "https://dc.lft.to/lastmile_qr_scan", "ios": "https://dc.lft.to/lastmile_qr_scan"}, "lon": -77.00291916666667, "fusion_lat": 0.0}, {"name": "9c7f1f42af2409892923d8cfb07cc55b", "fusion_lon": 0.0, "lat": 38.908385833333334, "is_reserved": 0, "type": "electric_scooter", "bike_id": "9c7f1f42af2409892923d8cfb07cc55b", "is_disabled": 0, "rental_uris": {"android": "https://dc.lft.to/lastmile_qr_scan", "ios": "https://dc.lft.to/lastmile_qr_scan"}, "lon": -77.02383233333333, "fusion_lat": 0.0}, {"name": "b7410abe70e37be5664aaccc4b76acaa", "fusion_lon": 0.0, "lat": 38.927052833333335, "is_reserved": 0, "type": "electric_scooter", "bike_id": "b7410abe70e37be5664aaccc4b76acaa", "is_disabled": 0, "rental_uris": {"android": "https://dc.lft.to/lastmile_qr_scan", "ios": "https://dc.lft.to/lastmile_qr_scan"}, "lon": -77.0148935, "fusion_lat": 0.0}, {"name": "c77da3d58e0308f8c25547af7ea60b49", "fusion_lon": 0.0, "lat": 38.91563, "is_reserved": 0, "type": "electric_scooter", "bike_id": "c77da3d58e0308f8c25547af7ea60b49", "is_disabled": 0, "rental_uris": {"android": "https://dc.lft.to/lastmile_qr_scan", "ios": "https://dc.lft.to/lastmile_qr_scan"}, "lon": -77.01040383333333, "fusion_lat": 0.0}, {"name": "e380efe8a395f4a7b3ca9f9cc19c8949", "fusion_lon": 0.0, "lat": 38.90022583333333, "is_reserved": 0, "type": "electric_scooter", "bike_id": "e380efe8a395f4a7b3ca9f9cc19c8949", "is_disabled": 0, "rental_uris": {"android": "https://dc.lft.to/lastmile_qr_scan", "ios": "https://dc.lft.to/lastmile_qr_scan"}, "lon": -77.00195866666667, "fusion_lat": 0.0}, {"name": "5e950625c42a8b534cc47a9e1f1d4d87", "fusion_lon": 0.0, "lat": 38.9224845, "is_reserved": 0, "type": "electric_scooter", "bike_id": "5e950625c42a8b534cc47a9e1f1d4d87", "is_disabled": 0, "rental_uris": {"android": "https://dc.lft.to/lastmile_qr_scan", "ios": "https://dc.lft.to/lastmile_qr_scan"}, "lon": -77.030232, "fusion_lat": 0.0}, {"name": "75671351beada7447f8236983db52506", "fusion_lon": 0.0, "lat": 38.8992655, "is_reserved": 0, "type": "electric_scooter", "bike_id": "75671351beada7447f8236983db52506", "is_disabled": 0, "rental_uris": {"android": "https://dc.lft.to/lastmile_qr_scan", "ios": "https://dc.lft.to/lastmile_qr_scan"}, "lon": -77.07062416666666, "fusion_lat": 0.0}, {"name": "9827d50a862670639a9eaccb9a0625fc", "fusion_lon": 0.0, "lat": 38.8984205, "is_reserved": 0, "type": "electric_scooter", "bike_id": "9827d50a862670639a9eaccb9a0625fc", "is_disabled": 0, "rental_uris": {"android": "https://dc.lft.to/lastmile_qr_scan", "ios": "https://dc.lft.to/lastmile_qr_scan"}, "lon": -77.02385216666667, "fusion_lat": 0.0}, {"name": "cc9b5ebe329d5ce24724c376551cdbb9", "fusion_lon": 0.0, "lat": 38.91552083333333, "is_reserved": 0, "type": "electric_scooter", "bike_id": "cc9b5ebe329d5ce24724c376551cdbb9", "is_disabled": 0, "rental_uris": {"android": "https://dc.lft.to/lastmile_qr_scan", "ios": "https://dc.lft.to/lastmile_qr_scan"}, "lon": -77.04178333333333, "fusion_lat": 0.0}, {"name": "afef25f6537daace7fc3483c7e95665f", "fusion_lon": 0.0, "lat": 38.916324333333336, "is_reserved": 0, "type": "electric_scooter", "bike_id": "afef25f6537daace7fc3483c7e95665f", "is_disabled": 0, "rental_uris": {"android": "https://dc.lft.to/lastmile_qr_scan", "ios": "https://dc.lft.to/lastmile_qr_scan"}, "lon": -77.02384783333333, "fusion_lat": 0.0}, {"name": "147427861208c5249c8f63137eb04849", "fusion_lon": 0.0, "lat": 38.91987016666667, "is_reserved": 0, "type": "electric_scooter", "bike_id": "147427861208c5249c8f63137eb04849", "is_disabled": 0, "rental_uris": {"android": "https://dc.lft.to/lastmile_qr_scan", "ios": "https://dc.lft.to/lastmile_qr_scan"}, "lon": -77.03211916666666, "fusion_lat": 0.0}, {"name": "bdec895bf6ba2ccfd22c412a7c5d7b18", "fusion_lon": 0.0, "lat": 38.896990833333334, "is_reserved": 0, "type": "electric_scooter", "bike_id": "bdec895bf6ba2ccfd22c412a7c5d7b18", "is_disabled": 0, "rental_uris": {"android": "https://dc.lft.to/lastmile_qr_scan", "ios": "https://dc.lft.to/lastmile_qr_scan"}, "lon": -76.9299965, "fusion_lat": 0.0}, {"name": "fa004b7c4183f47e23787b83b39778f3", "fusion_lon": 0.0, "lat": 38.899526, "is_reserved": 0, "type": "electric_bike", "bike_id": "fa004b7c4183f47e23787b83b39778f3", "is_disabled": 0, "rental_uris": {"android": "https://dc.lft.to/lastmile_qr_scan", "ios": "https://dc.lft.to/lastmile_qr_scan"}, "lon": -76.98552666666667, "fusion_lat": 0.0}, {"name": "967fc76ea71727cd401158e68b265fab", "fusion_lon": 0.0, "lat": 38.86623616666667, "is_reserved": 0, "type": "electric_scooter", "bike_id": "967fc76ea71727cd401158e68b265fab", "is_disabled": 0, "rental_uris": {"android": "https://dc.lft.to/lastmile_qr_scan", "ios": "https://dc.lft.to/lastmile_qr_scan"}, "lon": -76.98897933333333, "fusion_lat": 0.0}, {"name": "5c4458834858fd55bfd0346e94fceebc", "fusion_lon": 0.0, "lat": 38.90361566666667, "is_reserved": 0, "type": "electric_scooter", "bike_id": "5c4458834858fd55bfd0346e94fceebc", "is_disabled": 0, "rental_uris": {"android": "https://dc.lft.to/lastmile_qr_scan", "ios": "https://dc.lft.to/lastmile_qr_scan"}, "lon": -77.0450185, "fusion_lat": 0.0}, {"name": "323371fe2dca2f7c85b25382cd6dd6dc", "fusion_lon": 0.0, "lat": 38.92363683333333, "is_reserved": 0, "type": "electric_scooter", "bike_id": "323371fe2dca2f7c85b25382cd6dd6dc", "is_disabled": 0, "rental_uris": {"android": "https://dc.lft.to/lastmile_qr_scan", "ios": "https://dc.lft.to/lastmile_qr_scan"}, "lon": -77.03089933333334, "fusion_lat": 0.0}, {"name": "b4cfc0c55fc24381faccae0e134e8668", "fusion_lon": 0.0, "lat": 38.91821233333334, "is_reserved": 0, "type": "electric_scooter", "bike_id": "b4cfc0c55fc24381faccae0e134e8668", "is_disabled": 0, "rental_uris": {"android": "https://dc.lft.to/lastmile_qr_scan", "ios": "https://dc.lft.to/lastmile_qr_scan"}, "lon": -77.04001383333333, "fusion_lat": 0.0}, {"name": "38e9e813d6218020cbe114bfac8d9c61", "fusion_lon": 0.0, "lat": 38.8295275, "is_reserved": 0, "type": "electric_bike", "bike_id": "38e9e813d6218020cbe114bfac8d9c61", "is_disabled": 0, "rental_uris": {"android": "https://dc.lft.to/lastmile_qr_scan", "ios": "https://dc.lft.to/lastmile_qr_scan"}, "lon": -77.123576, "fusion_lat": 0.0}, {"name": "1490ab3adcf875baf13710ca397ea3c8", "fusion_lon": 0.0, "lat": 38.91211583333333, "is_reserved": 0, "type": "electric_scooter", "bike_id": "1490ab3adcf875baf13710ca397ea3c8", "is_disabled": 0, "rental_uris": {"android": "https://dc.lft.to/lastmile_qr_scan", "ios": "https://dc.lft.to/lastmile_qr_scan"}, "lon": -77.03838516666667, "fusion_lat": 0.0}, {"name": "3c70718e25448819fff425642286eded", "fusion_lon": 0.0, "lat": 38.90769783333333, "is_reserved": 0, "type": "electric_scooter", "bike_id": "3c70718e25448819fff425642286eded", "is_disabled": 0, "rental_uris": {"android": "https://dc.lft.to/lastmile_qr_scan", "ios": "https://dc.lft.to/lastmile_qr_scan"}, "lon": -77.01211683333334, "fusion_lat": 0.0}, {"name": "4e5b4d193fc017d5c66a9a88de0a6c08", "fusion_lon": 0.0, "lat": 38.908162, "is_reserved": 0, "type": "electric_scooter", "bike_id": "4e5b4d193fc017d5c66a9a88de0a6c08", "is_disabled": 0, "rental_uris": {"android": "https://dc.lft.to/lastmile_qr_scan", "ios": "https://dc.lft.to/lastmile_qr_scan"}, "lon": -77.0842555, "fusion_lat": 0.0}, {"name": "7ac31a7664288e0d701ad198f7cee7fd", "fusion_lon": 0.0, "lat": 38.9055445, "is_reserved": 0, "type": "electric_scooter", "bike_id": "7ac31a7664288e0d701ad198f7cee7fd", "is_disabled": 0, "rental_uris": {"android": "https://dc.lft.to/lastmile_qr_scan", "ios": "https://dc.lft.to/lastmile_qr_scan"}, "lon": -77.0434, "fusion_lat": 0.0}, {"name": "dc6da7dac312c2ae0fd4e64998776c23", "fusion_lon": 0.0, "lat": 38.90351883333334, "is_reserved": 0, "type": "electric_scooter", "bike_id": "dc6da7dac312c2ae0fd4e64998776c23", "is_disabled": 0, "rental_uris": {"android": "https://dc.lft.to/lastmile_qr_scan", "ios": "https://dc.lft.to/lastmile_qr_scan"}, "lon": -77.03978516666666, "fusion_lat": 0.0}, {"name": "bb9fe98a433de86ffe5df6d1aa99a8f7", "fusion_lon": 0.0, "lat": 38.92693383333334, "is_reserved": 0, "type": "electric_scooter", "bike_id": "bb9fe98a433de86ffe5df6d1aa99a8f7", "is_disabled": 0, "rental_uris": {"android": "https://dc.lft.to/lastmile_qr_scan", "ios": "https://dc.lft.to/lastmile_qr_scan"}, "lon": -77.02132483333334, "fusion_lat": 0.0}, {"name": "089d837aaa0891fa5387a907482635cf", "fusion_lon": 0.0, "lat": 38.859250833333334, "is_reserved": 0, "type": "electric_scooter", "bike_id": "089d837aaa0891fa5387a907482635cf", "is_disabled": 0, "rental_uris": {"android": "https://dc.lft.to/lastmile_qr_scan", "ios": "https://dc.lft.to/lastmile_qr_scan"}, "lon": -76.98978183333334, "fusion_lat": 0.0}, {"name": "29902281757aab788439392c76cca1cb", "fusion_lon": 0.0, "lat": 38.920461, "is_reserved": 0, "type": "electric_scooter", "bike_id": "29902281757aab788439392c76cca1cb", "is_disabled": 0, "rental_uris": {"android": "https://dc.lft.to/lastmile_qr_scan", "ios": "https://dc.lft.to/lastmile_qr_scan"}, "lon": -76.989492, "fusion_lat": 0.0}, {"name": "12ca5025c651ab15bdca98613da15b05", "fusion_lon": 0.0, "lat": 38.92142333333334, "is_reserved": 0, "type": "electric_scooter", "bike_id": "12ca5025c651ab15bdca98613da15b05", "is_disabled": 0, "rental_uris": {"android": "https://dc.lft.to/lastmile_qr_scan", "ios": "https://dc.lft.to/lastmile_qr_scan"}, "lon": -77.04350216666667, "fusion_lat": 0.0}, {"name": "feeeaf546fc3fefdd7911767b8d900c3", "fusion_lon": 0.0, "lat": 38.936999166666666, "is_reserved": 0, "type": "electric_scooter", "bike_id": "feeeaf546fc3fefdd7911767b8d900c3", "is_disabled": 0, "rental_uris": {"android": "https://dc.lft.to/lastmile_qr_scan", "ios": "https://dc.lft.to/lastmile_qr_scan"}, "lon": -77.06097666666666, "fusion_lat": 0.0}, {"name": "54364c37fd29df45350d2a427660e34b", "fusion_lon": 0.0, "lat": 38.9157435, "is_reserved": 0, "type": "electric_scooter", "bike_id": "54364c37fd29df45350d2a427660e34b", "is_disabled": 0, "rental_uris": {"android": "https://dc.lft.to/lastmile_qr_scan", "ios": "https://dc.lft.to/lastmile_qr_scan"}, "lon": -77.0124835, "fusion_lat": 0.0}, {"name": "5ac13f3b3eacf9b43d55501ff674d28e", "fusion_lon": 0.0, "lat": 38.906796, "is_reserved": 0, "type": "electric_scooter", "bike_id": "5ac13f3b3eacf9b43d55501ff674d28e", "is_disabled": 0, "rental_uris": {"android": "https://dc.lft.to/lastmile_qr_scan", "ios": "https://dc.lft.to/lastmile_qr_scan"}, "lon": -77.071593, "fusion_lat": 0.0}, {"name": "e9f009ae931a0695c3e5ea8b5f2a2bfc", "fusion_lon": 0.0, "lat": 38.8922205, "is_reserved": 0, "type": "electric_scooter", "bike_id": "e9f009ae931a0695c3e5ea8b5f2a2bfc", "is_disabled": 0, "rental_uris": {"android": "https://dc.lft.to/lastmile_qr_scan", "ios": "https://dc.lft.to/lastmile_qr_scan"}, "lon": -77.0468395, "fusion_lat": 0.0}, {"name": "afa428107eee76b8f82e4a65a11980a2", "fusion_lon": 0.0, "lat": 38.90866183333333, "is_reserved": 0, "type": "electric_scooter", "bike_id": "afa428107eee76b8f82e4a65a11980a2", "is_disabled": 0, "rental_uris": {"android": "https://dc.lft.to/lastmile_qr_scan", "ios": "https://dc.lft.to/lastmile_qr_scan"}, "lon": -77.01264816666666, "fusion_lat": 0.0}, {"name": "03f71f688ce14eb2d44ec430d00d3c37", "fusion_lon": 0.0, "lat": 38.911821833333335, "is_reserved": 0, "type": "electric_scooter", "bike_id": "03f71f688ce14eb2d44ec430d00d3c37", "is_disabled": 0, "rental_uris": {"android": "https://dc.lft.to/lastmile_qr_scan", "ios": "https://dc.lft.to/lastmile_qr_scan"}, "lon": -77.035001, "fusion_lat": 0.0}, {"name": "905f819211dcbd8ee91c635d0b0bee07", "fusion_lon": 0.0, "lat": 38.90566883333334, "is_reserved": 0, "type": "electric_scooter", "bike_id": "905f819211dcbd8ee91c635d0b0bee07", "is_disabled": 0, "rental_uris": {"android": "https://dc.lft.to/lastmile_qr_scan", "ios": "https://dc.lft.to/lastmile_qr_scan"}, "lon": -77.03445916666666, "fusion_lat": 0.0}, {"name": "43fe9c46e0f4a1f574638c588d1d0182", "fusion_lon": 0.0, "lat": 39.05635216666667, "is_reserved": 0, "type": "electric_bike", "bike_id": "43fe9c46e0f4a1f574638c588d1d0182", "is_disabled": 0, "rental_uris": {"android": "https://dc.lft.to/lastmile_qr_scan", "ios": "https://dc.lft.to/lastmile_qr_scan"}, "lon": -77.12525566666666, "fusion_lat": 0.0}, {"name": "6392003acb70c2ac70f89bdde8940750", "fusion_lon": 0.0, "lat": 38.90960233333333, "is_reserved": 0, "type": "electric_scooter", "bike_id": "6392003acb70c2ac70f89bdde8940750", "is_disabled": 0, "rental_uris": {"android": "https://dc.lft.to/lastmile_qr_scan", "ios": "https://dc.lft.to/lastmile_qr_scan"}, "lon": -77.009322, "fusion_lat": 0.0}, {"name": "4a66f3fb218f9d74f422d01937f463a8", "fusion_lon": 0.0, "lat": 38.923145, "is_reserved": 0, "type": "electric_scooter", "bike_id": "4a66f3fb218f9d74f422d01937f463a8", "is_disabled": 0, "rental_uris": {"android": "https://dc.lft.to/lastmile_qr_scan", "ios": "https://dc.lft.to/lastmile_qr_scan"}, "lon": -77.0297025, "fusion_lat": 0.0}, {"name": "921fb00f7fa5838a57b65cb3794b6cb0", "fusion_lon": 0.0, "lat": 38.96626366666667, "is_reserved": 0, "type": "electric_scooter", "bike_id": "921fb00f7fa5838a57b65cb3794b6cb0", "is_disabled": 0, "rental_uris": {"android": "https://dc.lft.to/lastmile_qr_scan", "ios": "https://dc.lft.to/lastmile_qr_scan"}, "lon": -77.022512, "fusion_lat": 0.0}, {"name": "9651434475ac948ecbd60f202f47cca9", "fusion_lon": 0.0, "lat": 38.900847166666665, "is_reserved": 0, "type": "electric_scooter", "bike_id": "9651434475ac948ecbd60f202f47cca9", "is_disabled": 0, "rental_uris": {"android": "https://dc.lft.to/lastmile_qr_scan", "ios": "https://dc.lft.to/lastmile_qr_scan"}, "lon": -77.0307195, "fusion_lat": 0.0}, {"name": "35d682c3333683ab616977fe5c69f549", "fusion_lon": 0.0, "lat": 38.878793333333334, "is_reserved": 0, "type": "electric_scooter", "bike_id": "35d682c3333683ab616977fe5c69f549", "is_disabled": 0, "rental_uris": {"android": "https://dc.lft.to/lastmile_qr_scan", "ios": "https://dc.lft.to/lastmile_qr_scan"}, "lon": -77.02293683333333, "fusion_lat": 0.0}, {"name": "d898c392b4923aa4660d8029941b5649", "fusion_lon": 0.0, "lat": 38.91316283333333, "is_reserved": 0, "type": "electric_scooter", "bike_id": "d898c392b4923aa4660d8029941b5649", "is_disabled": 0, "rental_uris": {"android": "https://dc.lft.to/lastmile_qr_scan", "ios": "https://dc.lft.to/lastmile_qr_scan"}, "lon": -76.9848095, "fusion_lat": 0.0}, {"name": "675ad8ebdd91ebbcf1aab246d33e7e26", "fusion_lon": 0.0, "lat": 38.89876666666667, "is_reserved": 0, "type": "electric_scooter", "bike_id": "675ad8ebdd91ebbcf1aab246d33e7e26", "is_disabled": 0, "rental_uris": {"android": "https://dc.lft.to/lastmile_qr_scan", "ios": "https://dc.lft.to/lastmile_qr_scan"}, "lon": -76.93187, "fusion_lat": 0.0}, {"name": "77700ff6146beeb5c7d1e752863ed2a0", "fusion_lon": 0.0, "lat": 38.83784583333333, "is_reserved": 0, "type": "electric_bike", "bike_id": "77700ff6146beeb5c7d1e752863ed2a0", "is_disabled": 0, "rental_uris": {"android": "https://dc.lft.to/lastmile_qr_scan", "ios": "https://dc.lft.to/lastmile_qr_scan"}, "lon": -76.99744216666667, "fusion_lat": 0.0}, {"name": "11ad84c952a80e476f4c4025a2cff114", "fusion_lon": 0.0, "lat": 38.87454833333334, "is_reserved": 0, "type": "electric_scooter", "bike_id": "11ad84c952a80e476f4c4025a2cff114", "is_disabled": 0, "rental_uris": {"android": "https://dc.lft.to/lastmile_qr_scan", "ios": "https://dc.lft.to/lastmile_qr_scan"}, "lon": -77.00315183333333, "fusion_lat": 0.0}, {"name": "d4322e365bfe038bc478f19f6bc347a3", "fusion_lon": 0.0, "lat": 38.920889, "is_reserved": 0, "type": "electric_scooter", "bike_id": "d4322e365bfe038bc478f19f6bc347a3", "is_disabled": 0, "rental_uris": {"android": "https://dc.lft.to/lastmile_qr_scan", "ios": "https://dc.lft.to/lastmile_qr_scan"}, "lon": -77.024141, "fusion_lat": 0.0}, {"name": "fac50caf6f13148f0163fd3214188896", "fusion_lon": 0.0, "lat": 38.902093666666666, "is_reserved": 0, "type": "electric_scooter", "bike_id": "fac50caf6f13148f0163fd3214188896", "is_disabled": 0, "rental_uris": {"android": "https://dc.lft.to/lastmile_qr_scan", "ios": "https://dc.lft.to/lastmile_qr_scan"}, "lon": -77.02160933333333, "fusion_lat": 0.0}, {"name": "80fef88e51017ec51f48c392d81a3e4c", "fusion_lon": 0.0, "lat": 38.881349166666666, "is_reserved": 0, "type": "electric_scooter", "bike_id": "80fef88e51017ec51f48c392d81a3e4c", "is_disabled": 0, "rental_uris": {"android": "https://dc.lft.to/lastmile_qr_scan", "ios": "https://dc.lft.to/lastmile_qr_scan"}, "lon": -77.013362, "fusion_lat": 0.0}, {"name": "86d2693be1c7bb3f823a25da1bd08a92", "fusion_lon": 0.0, "lat": 38.92449283333333, "is_reserved": 0, "type": "electric_bike", "bike_id": "86d2693be1c7bb3f823a25da1bd08a92", "is_disabled": 0, "rental_uris": {"android": "https://dc.lft.to/lastmile_qr_scan", "ios": "https://dc.lft.to/lastmile_qr_scan"}, "lon": -77.225477, "fusion_lat": 0.0}, {"name": "723e818cebc78929d529a112e9145160", "fusion_lon": 0.0, "lat": 38.95181083333333, "is_reserved": 0, "type": "electric_scooter", "bike_id": "723e818cebc78929d529a112e9145160", "is_disabled": 0, "rental_uris": {"android": "https://dc.lft.to/lastmile_qr_scan", "ios": "https://dc.lft.to/lastmile_qr_scan"}, "lon": -77.0272565, "fusion_lat": 0.0}, {"name": "0f50cfa04656e7f1a8a84e7653e1c0e5", "fusion_lon": 0.0, "lat": 38.92384833333333, "is_reserved": 0, "type": "electric_scooter", "bike_id": "0f50cfa04656e7f1a8a84e7653e1c0e5", "is_disabled": 0, "rental_uris": {"android": "https://dc.lft.to/lastmile_qr_scan", "ios": "https://dc.lft.to/lastmile_qr_scan"}, "lon": -77.02562033333334, "fusion_lat": 0.0}, {"name": "147b8f5a5086d63970bf0eb787c536a2", "fusion_lon": 0.0, "lat": 38.92603483333333, "is_reserved": 0, "type": "electric_scooter", "bike_id": "147b8f5a5086d63970bf0eb787c536a2", "is_disabled": 0, "rental_uris": {"android": "https://dc.lft.to/lastmile_qr_scan", "ios": "https://dc.lft.to/lastmile_qr_scan"}, "lon": -77.066254, "fusion_lat": 0.0}, {"name": "5b64f540b6e6f3c7650ec6c1a3f363b6", "fusion_lon": 0.0, "lat": 38.92794116666666, "is_reserved": 0, "type": "electric_scooter", "bike_id": "5b64f540b6e6f3c7650ec6c1a3f363b6", "is_disabled": 0, "rental_uris": {"android": "https://dc.lft.to/lastmile_qr_scan", "ios": "https://dc.lft.to/lastmile_qr_scan"}, "lon": -77.03020916666667, "fusion_lat": 0.0}, {"name": "8b724170bc5767069e1f706797b54753", "fusion_lon": 0.0, "lat": 38.95752816666667, "is_reserved": 0, "type": "electric_scooter", "bike_id": "8b724170bc5767069e1f706797b54753", "is_disabled": 0, "rental_uris": {"android": "https://dc.lft.to/lastmile_qr_scan", "ios": "https://dc.lft.to/lastmile_qr_scan"}, "lon": -77.02095183333333, "fusion_lat": 0.0}, {"name": "5f48515dbc8b05789e32a9f43d6accaa", "fusion_lon": 0.0, "lat": 38.90182216666667, "is_reserved": 0, "type": "electric_scooter", "bike_id": "5f48515dbc8b05789e32a9f43d6accaa", "is_disabled": 0, "rental_uris": {"android": "https://dc.lft.to/lastmile_qr_scan", "ios": "https://dc.lft.to/lastmile_qr_scan"}, "lon": -77.0248, "fusion_lat": 0.0}, {"name": "5c39dce7c46ff4adbbafeaf43c0607a9", "fusion_lon": 0.0, "lat": 38.834530666666666, "is_reserved": 0, "type": "electric_scooter", "bike_id": "5c39dce7c46ff4adbbafeaf43c0607a9", "is_disabled": 0, "rental_uris": {"android": "https://dc.lft.to/lastmile_qr_scan", "ios": "https://dc.lft.to/lastmile_qr_scan"}, "lon": -76.99075166666667, "fusion_lat": 0.0}, {"name": "07a18fd6d5395c5ea56ee245caa11029", "fusion_lon": 0.0, "lat": 38.9044025, "is_reserved": 0, "type": "electric_scooter", "bike_id": "07a18fd6d5395c5ea56ee245caa11029", "is_disabled": 0, "rental_uris": {"android": "https://dc.lft.to/lastmile_qr_scan", "ios": "https://dc.lft.to/lastmile_qr_scan"}, "lon": -76.98491216666666, "fusion_lat": 0.0}, {"name": "b4a13133dd9546cfae56d0d188977b7b", "fusion_lon": 0.0, "lat": 38.896267333333334, "is_reserved": 0, "type": "electric_scooter", "bike_id": "b4a13133dd9546cfae56d0d188977b7b", "is_disabled": 0, "rental_uris": {"android": "https://dc.lft.to/lastmile_qr_scan", "ios": "https://dc.lft.to/lastmile_qr_scan"}, "lon": -77.0299425, "fusion_lat": 0.0}, {"name": "67c5cfa36bfb771acb2cc0ab983ef0ef", "fusion_lon": 0.0, "lat": 38.90048633333333, "is_reserved": 0, "type": "electric_scooter", "bike_id": "67c5cfa36bfb771acb2cc0ab983ef0ef", "is_disabled": 0, "rental_uris": {"android": "https://dc.lft.to/lastmile_qr_scan", "ios": "https://dc.lft.to/lastmile_qr_scan"}, "lon": -77.0178505, "fusion_lat": 0.0}, {"name": "9b9eb1316c1a5b173a9b18dfa959a1dc", "fusion_lon": 0.0, "lat": 38.90013916666667, "is_reserved": 0, "type": "electric_scooter", "bike_id": "9b9eb1316c1a5b173a9b18dfa959a1dc", "is_disabled": 0, "rental_uris": {"android": "https://dc.lft.to/lastmile_qr_scan", "ios": "https://dc.lft.to/lastmile_qr_scan"}, "lon": -76.99700016666667, "fusion_lat": 0.0}, {"name": "aeb144d0e6902a9db7a83a25c725aa5b", "fusion_lon": 0.0, "lat": 38.911914, "is_reserved": 0, "type": "electric_scooter", "bike_id": "aeb144d0e6902a9db7a83a25c725aa5b", "is_disabled": 0, "rental_uris": {"android": "https://dc.lft.to/lastmile_qr_scan", "ios": "https://dc.lft.to/lastmile_qr_scan"}, "lon": -77.01777083333333, "fusion_lat": 0.0}, {"name": "14aeaaace6c655546a22fac6831462a5", "fusion_lon": 0.0, "lat": 38.9002765, "is_reserved": 0, "type": "electric_scooter", "bike_id": "14aeaaace6c655546a22fac6831462a5", "is_disabled": 0, "rental_uris": {"android": "https://dc.lft.to/lastmile_qr_scan", "ios": "https://dc.lft.to/lastmile_qr_scan"}, "lon": -76.9804935, "fusion_lat": 0.0}, {"name": "836baa4f341a44f125dc1f08812b0250", "fusion_lon": 0.0, "lat": 38.910334666666664, "is_reserved": 0, "type": "electric_scooter", "bike_id": "836baa4f341a44f125dc1f08812b0250", "is_disabled": 0, "rental_uris": {"android": "https://dc.lft.to/lastmile_qr_scan", "ios": "https://dc.lft.to/lastmile_qr_scan"}, "lon": -77.02925016666667, "fusion_lat": 0.0}, {"name": "109be1e6b56db14844606a03fcffd2b3", "fusion_lon": 0.0, "lat": 38.9085365, "is_reserved": 0, "type": "electric_scooter", "bike_id": "109be1e6b56db14844606a03fcffd2b3", "is_disabled": 0, "rental_uris": {"android": "https://dc.lft.to/lastmile_qr_scan", "ios": "https://dc.lft.to/lastmile_qr_scan"}, "lon": -77.010129, "fusion_lat": 0.0}, {"name": "50af39ca1ad2ca6ebb6110cf61d5af83", "fusion_lon": 0.0, "lat": 38.92063016666667, "is_reserved": 0, "type": "electric_scooter", "bike_id": "50af39ca1ad2ca6ebb6110cf61d5af83", "is_disabled": 0, "rental_uris": {"android": "https://dc.lft.to/lastmile_qr_scan", "ios": "https://dc.lft.to/lastmile_qr_scan"}, "lon": -77.0346455, "fusion_lat": 0.0}, {"name": "fd4fb5c938b56f1b9052adc1dd30d4b1", "fusion_lon": 0.0, "lat": 38.898559, "is_reserved": 0, "type": "electric_scooter", "bike_id": "fd4fb5c938b56f1b9052adc1dd30d4b1", "is_disabled": 0, "rental_uris": {"android": "https://dc.lft.to/lastmile_qr_scan", "ios": "https://dc.lft.to/lastmile_qr_scan"}, "lon": -77.039457, "fusion_lat": 0.0}, {"name": "0fea0fb6c4e9b765f646f51dabd847d1", "fusion_lon": 0.0, "lat": 38.93882166666667, "is_reserved": 0, "type": "electric_scooter", "bike_id": "0fea0fb6c4e9b765f646f51dabd847d1", "is_disabled": 0, "rental_uris": {"android": "https://dc.lft.to/lastmile_qr_scan", "ios": "https://dc.lft.to/lastmile_qr_scan"}, "lon": -77.0248115, "fusion_lat": 0.0}, {"name": "8a96f31fa1b66873538307ec33ed3603", "fusion_lon": 0.0, "lat": 38.884146, "is_reserved": 0, "type": "electric_scooter", "bike_id": "8a96f31fa1b66873538307ec33ed3603", "is_disabled": 0, "rental_uris": {"android": "https://dc.lft.to/lastmile_qr_scan", "ios": "https://dc.lft.to/lastmile_qr_scan"}, "lon": -77.0173655, "fusion_lat": 0.0}, {"name": "4ed5197cd91b3fd82c409f6d74ca77a7", "fusion_lon": 0.0, "lat": 38.89546283333333, "is_reserved": 0, "type": "electric_scooter", "bike_id": "4ed5197cd91b3fd82c409f6d74ca77a7", "is_disabled": 0, "rental_uris": {"android": "https://dc.lft.to/lastmile_qr_scan", "ios": "https://dc.lft.to/lastmile_qr_scan"}, "lon": -77.056605, "fusion_lat": 0.0}, {"name": "c841f144401c97b35232757496b72d35", "fusion_lon": 0.0, "lat": 38.91064633333333, "is_reserved": 0, "type": "electric_scooter", "bike_id": "c841f144401c97b35232757496b72d35", "is_disabled": 0, "rental_uris": {"android": "https://dc.lft.to/lastmile_qr_scan", "ios": "https://dc.lft.to/lastmile_qr_scan"}, "lon": -77.07395866666667, "fusion_lat": 0.0}, {"name": "2133b0e25b523d3fbc808003ecf4f470", "fusion_lon": 0.0, "lat": 38.902175166666666, "is_reserved": 0, "type": "electric_scooter", "bike_id": "2133b0e25b523d3fbc808003ecf4f470", "is_disabled": 0, "rental_uris": {"android": "https://dc.lft.to/lastmile_qr_scan", "ios": "https://dc.lft.to/lastmile_qr_scan"}, "lon": -77.02158016666667, "fusion_lat": 0.0}, {"name": "0aad9ffdc75c059e92bb0933a75a8ebb", "fusion_lon": 0.0, "lat": 38.92408866666667, "is_reserved": 0, "type": "electric_scooter", "bike_id": "0aad9ffdc75c059e92bb0933a75a8ebb", "is_disabled": 0, "rental_uris": {"android": "https://dc.lft.to/lastmile_qr_scan", "ios": "https://dc.lft.to/lastmile_qr_scan"}, "lon": -77.02258916666666, "fusion_lat": 0.0}, {"name": "931d21f6b714b7aa2817de10aa278f25", "fusion_lon": 0.0, "lat": 38.879678, "is_reserved": 0, "type": "electric_bike", "bike_id": "931d21f6b714b7aa2817de10aa278f25", "is_disabled": 0, "rental_uris": {"android": "https://dc.lft.to/lastmile_qr_scan", "ios": "https://dc.lft.to/lastmile_qr_scan"}, "lon": -76.91605116666666, "fusion_lat": 0.0}, {"name": "f5d15d8587169723d40f89eae6334889", "fusion_lon": 0.0, "lat": 39.05496, "is_reserved": 0, "type": "electric_bike", "bike_id": "f5d15d8587169723d40f89eae6334889", "is_disabled": 0, "rental_uris": {"android": "https://dc.lft.to/lastmile_qr_scan", "ios": "https://dc.lft.to/lastmile_qr_scan"}, "lon": -77.11786833333333, "fusion_lat": 0.0}, {"name": "ce118e99dd020c6ba3131a75911ccbd0", "fusion_lon": 0.0, "lat": 38.90469233333334, "is_reserved": 0, "type": "electric_scooter", "bike_id": "ce118e99dd020c6ba3131a75911ccbd0", "is_disabled": 0, "rental_uris": {"android": "https://dc.lft.to/lastmile_qr_scan", "ios": "https://dc.lft.to/lastmile_qr_scan"}, "lon": -77.02701783333333, "fusion_lat": 0.0}, {"name": "833b2461dff97685661ee813f0514c64", "fusion_lon": 0.0, "lat": 38.900002, "is_reserved": 0, "type": "electric_scooter", "bike_id": "833b2461dff97685661ee813f0514c64", "is_disabled": 0, "rental_uris": {"android": "https://dc.lft.to/lastmile_qr_scan", "ios": "https://dc.lft.to/lastmile_qr_scan"}, "lon": -76.9934445, "fusion_lat": 0.0}, {"name": "b4fac9668dae79106ab4a19bca6c5edf", "fusion_lon": 0.0, "lat": 38.88458966666666, "is_reserved": 0, "type": "electric_scooter", "bike_id": "b4fac9668dae79106ab4a19bca6c5edf", "is_disabled": 0, "rental_uris": {"android": "https://dc.lft.to/lastmile_qr_scan", "ios": "https://dc.lft.to/lastmile_qr_scan"}, "lon": -76.95743116666667, "fusion_lat": 0.0}, {"name": "777af64bb2bb4e67b9a9f6fda981246d", "fusion_lon": 0.0, "lat": 38.9265955, "is_reserved": 0, "type": "electric_scooter", "bike_id": "777af64bb2bb4e67b9a9f6fda981246d", "is_disabled": 0, "rental_uris": {"android": "https://dc.lft.to/lastmile_qr_scan", "ios": "https://dc.lft.to/lastmile_qr_scan"}, "lon": -77.0086765, "fusion_lat": 0.0}, {"name": "31955c871bb2274e4c5a80f8e71ead05", "fusion_lon": 0.0, "lat": 39.034313166666664, "is_reserved": 0, "type": "electric_bike", "bike_id": "31955c871bb2274e4c5a80f8e71ead05", "is_disabled": 0, "rental_uris": {"android": "https://dc.lft.to/lastmile_qr_scan", "ios": "https://dc.lft.to/lastmile_qr_scan"}, "lon": -77.04245966666667, "fusion_lat": 0.0}, {"name": "2e3425bc24ff7c4d0fcec77f4e470e80", "fusion_lon": 0.0, "lat": 38.91406516666667, "is_reserved": 0, "type": "electric_scooter", "bike_id": "2e3425bc24ff7c4d0fcec77f4e470e80", "is_disabled": 0, "rental_uris": {"android": "https://dc.lft.to/lastmile_qr_scan", "ios": "https://dc.lft.to/lastmile_qr_scan"}, "lon": -77.03222766666667, "fusion_lat": 0.0}, {"name": "993b35d97c306721da561dcd2dac457b", "fusion_lon": 0.0, "lat": 38.881346666666666, "is_reserved": 0, "type": "electric_scooter", "bike_id": "993b35d97c306721da561dcd2dac457b", "is_disabled": 0, "rental_uris": {"android": "https://dc.lft.to/lastmile_qr_scan", "ios": "https://dc.lft.to/lastmile_qr_scan"}, "lon": -76.99568516666666, "fusion_lat": 0.0}, {"name": "df966afe469a77af4ec3c5d3886dabde", "fusion_lon": 0.0, "lat": 38.908621833333335, "is_reserved": 0, "type": "electric_bike", "bike_id": "df966afe469a77af4ec3c5d3886dabde", "is_disabled": 0, "rental_uris": {"android": "https://dc.lft.to/lastmile_qr_scan", "ios": "https://dc.lft.to/lastmile_qr_scan"}, "lon": -76.99136433333334, "fusion_lat": 0.0}, {"name": "80be3dc364a70a056cebcda0b0e6e178", "fusion_lon": 0.0, "lat": 38.8794085, "is_reserved": 0, "type": "electric_scooter", "bike_id": "80be3dc364a70a056cebcda0b0e6e178", "is_disabled": 0, "rental_uris": {"android": "https://dc.lft.to/lastmile_qr_scan", "ios": "https://dc.lft.to/lastmile_qr_scan"}, "lon": -77.00402533333333, "fusion_lat": 0.0}, {"name": "6409951e0e2d82772b89e5a4912584df", "fusion_lon": 0.0, "lat": 38.9109995, "is_reserved": 0, "type": "electric_scooter", "bike_id": "6409951e0e2d82772b89e5a4912584df", "is_disabled": 0, "rental_uris": {"android": "https://dc.lft.to/lastmile_qr_scan", "ios": "https://dc.lft.to/lastmile_qr_scan"}, "lon": -77.01144966666666, "fusion_lat": 0.0}, {"name": "4ca0bfbaaf3a86678be249ee9cf2ef59", "fusion_lon": 0.0, "lat": 38.912737, "is_reserved": 0, "type": "electric_scooter", "bike_id": "4ca0bfbaaf3a86678be249ee9cf2ef59", "is_disabled": 0, "rental_uris": {"android": "https://dc.lft.to/lastmile_qr_scan", "ios": "https://dc.lft.to/lastmile_qr_scan"}, "lon": -77.0268645, "fusion_lat": 0.0}, {"name": "b72bf5218ee609fc1921983662b4410e", "fusion_lon": 0.0, "lat": 38.8882245, "is_reserved": 0, "type": "electric_scooter", "bike_id": "b72bf5218ee609fc1921983662b4410e", "is_disabled": 0, "rental_uris": {"android": "https://dc.lft.to/lastmile_qr_scan", "ios": "https://dc.lft.to/lastmile_qr_scan"}, "lon": -76.95097883333334, "fusion_lat": 0.0}, {"name": "5950f9e682243cfe59e795c44e4fa754", "fusion_lon": 0.0, "lat": 38.906284166666666, "is_reserved": 0, "type": "electric_scooter", "bike_id": "5950f9e682243cfe59e795c44e4fa754", "is_disabled": 0, "rental_uris": {"android": "https://dc.lft.to/lastmile_qr_scan", "ios": "https://dc.lft.to/lastmile_qr_scan"}, "lon": -77.03821733333334, "fusion_lat": 0.0}, {"name": "7c58fb4a58187b742ee49a04c4f6601d", "fusion_lon": 0.0, "lat": 38.874484, "is_reserved": 0, "type": "electric_scooter", "bike_id": "7c58fb4a58187b742ee49a04c4f6601d", "is_disabled": 0, "rental_uris": {"android": "https://dc.lft.to/lastmile_qr_scan", "ios": "https://dc.lft.to/lastmile_qr_scan"}, "lon": -77.0185335, "fusion_lat": 0.0}, {"name": "63056875edcf7e07aa1d6ca0347b2c77", "fusion_lon": 0.0, "lat": 38.932398, "is_reserved": 0, "type": "electric_scooter", "bike_id": "63056875edcf7e07aa1d6ca0347b2c77", "is_disabled": 0, "rental_uris": {"android": "https://dc.lft.to/lastmile_qr_scan", "ios": "https://dc.lft.to/lastmile_qr_scan"}, "lon": -77.02045116666666, "fusion_lat": 0.0}, {"name": "799c162cffaf077dc32408d0f3af48e5", "fusion_lon": 0.0, "lat": 39.050514166666666, "is_reserved": 0, "type": "electric_bike", "bike_id": "799c162cffaf077dc32408d0f3af48e5", "is_disabled": 0, "rental_uris": {"android": "https://dc.lft.to/lastmile_qr_scan", "ios": "https://dc.lft.to/lastmile_qr_scan"}, "lon": -77.051499, "fusion_lat": 0.0}, {"name": "22cd03ab2b42f85b8a5887ec8b14106e", "fusion_lon": 0.0, "lat": 38.832357, "is_reserved": 0, "type": "electric_bike", "bike_id": "22cd03ab2b42f85b8a5887ec8b14106e", "is_disabled": 0, "rental_uris": {"android": "https://dc.lft.to/lastmile_qr_scan", "ios": "https://dc.lft.to/lastmile_qr_scan"}, "lon": -76.94615116666667, "fusion_lat": 0.0}, {"name": "2b443872e81fe3a59a4ee9c791b7c37d", "fusion_lon": 0.0, "lat": 38.93024166666667, "is_reserved": 0, "type": "electric_scooter", "bike_id": "2b443872e81fe3a59a4ee9c791b7c37d", "is_disabled": 0, "rental_uris": {"android": "https://dc.lft.to/lastmile_qr_scan", "ios": "https://dc.lft.to/lastmile_qr_scan"}, "lon": -77.0630595, "fusion_lat": 0.0}, {"name": "284e5af6197821b43e113a8a352fcc4c", "fusion_lon": 0.0, "lat": 38.8981255, "is_reserved": 0, "type": "electric_bike", "bike_id": "284e5af6197821b43e113a8a352fcc4c", "is_disabled": 0, "rental_uris": {"android": "https://dc.lft.to/lastmile_qr_scan", "ios": "https://dc.lft.to/lastmile_qr_scan"}, "lon": -76.9907155, "fusion_lat": 0.0}, {"name": "a15fc45690af0b2111bdbe9204e90ae2", "fusion_lon": 0.0, "lat": 38.92734433333333, "is_reserved": 0, "type": "electric_scooter", "bike_id": "a15fc45690af0b2111bdbe9204e90ae2", "is_disabled": 0, "rental_uris": {"android": "https://dc.lft.to/lastmile_qr_scan", "ios": "https://dc.lft.to/lastmile_qr_scan"}, "lon": -77.05243916666667, "fusion_lat": 0.0}, {"name": "b67e707f720f23c3dbb1a2bd360d9b2c", "fusion_lon": 0.0, "lat": 38.93250483333333, "is_reserved": 0, "type": "electric_scooter", "bike_id": "b67e707f720f23c3dbb1a2bd360d9b2c", "is_disabled": 0, "rental_uris": {"android": "https://dc.lft.to/lastmile_qr_scan", "ios": "https://dc.lft.to/lastmile_qr_scan"}, "lon": -77.03848983333333, "fusion_lat": 0.0}, {"name": "3185bc2bf84ce866912020e8a8fe6d4c", "fusion_lon": 0.0, "lat": 38.923002333333336, "is_reserved": 0, "type": "electric_scooter", "bike_id": "3185bc2bf84ce866912020e8a8fe6d4c", "is_disabled": 0, "rental_uris": {"android": "https://dc.lft.to/lastmile_qr_scan", "ios": "https://dc.lft.to/lastmile_qr_scan"}, "lon": -77.029643, "fusion_lat": 0.0},