{"data": {"bikes": [{"lat": 38.96560366666667, "lon": -77.02819316666667, "is_disabled": 0, "fusion_lon": 0.0, "is_reserved": 0, "name": "d58ce257b16eae7fbbf928671b1510bc", "type": "electric_bike", "bike_id": "d58ce257b16eae7fbbf928671b1510bc", "rental_uris": {"ios": "https://dc.lft.to/lastmile_qr_scan", "android": "https://dc.lft.to/lastmile_qr_scan"}, "fusion_lat": 0.0}, {"lat": 38.88728183333333, "lon": -76.98359366666666, "is_disabled": 0, "fusion_lon": 0.0, "is_reserved": 0, "name": "91c4832d93b2f2d968591ca29ab400a3", "type": "electric_scooter", "bike_id": "91c4832d93b2f2d968591ca29ab400a3", "rental_uris": {"ios": "https://dc.lft.to/lastmile_qr_scan", "android": "https://dc.lft.to/lastmile_qr_scan"}, "fusion_lat": 0.0}, {"lat": 38.907232, "lon": -77.03184183333333, "is_disabled": 0, "fusion_lon": 0.0, "is_reserved": 0, "name": "c311797b996d508ff48a50e95a16e1e4", "type": "electric_scooter", "bike_id": "c311797b996d508ff48a50e95a16e1e4", "rental_uris": {"ios": "https://dc.lft.to/lastmile_qr_scan", "android": "https://dc.lft.to/lastmile_qr_scan"}, "fusion_lat": 0.0}, {"lat": 38.90412933333333, "lon": -77.05324866666666, "is_disabled": 0, "fusion_lon": 0.0, "is_reserved": 0, "name": "1bf344c04f2b4e6dac345a168ba7317b", "type": "electric_scooter", "bike_id": "1bf344c04f2b4e6dac345a168ba7317b", "rental_uris": {"ios": "https://dc.lft.to/lastmile_qr_scan", "android": "https://dc.lft.to/lastmile_qr_scan"}, "fusion_lat": 0.0}, {"lat": 38.915548, "lon": -77.0318275, "is_disabled": 0, "fusion_lon": 0.0, "is_reserved": 0, "name": "2f1179cc7886cf939a93ccc7b38a7aa6", "type": "electric_scooter", "bike_id": "2f1179cc7886cf939a93ccc7b38a7aa6", "rental_uris": {"ios": "https://dc.lft.to/lastmile_qr_scan", "android": "https://dc.lft.to/lastmile_qr_scan"}, "fusion_lat": 0.0}, {"lat": 38.97502383333333, "lon": -77.01665616666666, "is_disabled": 0, "fusion_lon": 0.0, "is_reserved": 0, "name": "ace1c2128128f6069646a761173f00d9", "type": "electric_scooter", "bike_id": "ace1c2128128f6069646a761173f00d9", "rental_uris": {"ios": "https://dc.lft.to/lastmile_qr_scan", "android": "https://dc.lft.to/lastmile_qr_scan"}, "fusion_lat": 0.0}, {"lat": 38.94495033333333, "lon": -77.03627966666667, "is_disabled": 0, "fusion_lon": 0.0, "is_reserved": 0, "name": "db9321be14e3d738d76f8eb9842ccdf0", "type": "electric_scooter", "bike_id": "db9321be14e3d738d76f8eb9842ccdf0", "rental_uris": {"ios": "https://dc.lft.to/lastmile_qr_scan", "android": "https://dc.lft.to/lastmile_qr_scan"}, "fusion_lat": 0.0}, {"lat": 38.9166835, "lon": -77.022828, "is_disabled": 0, "fusion_lon": 0.0, "is_reserved": 0, "name": "b41c3a089d1191612e63a59f89dcddce", "type": "electric_scooter", "bike_id": "b41c3a089d1191612e63a59f89dcddce", "rental_uris": {"ios": "https://dc.lft.to/lastmile_qr_scan", "android": "https://dc.lft.to/lastmile_qr_scan"}, "fusion_lat": 0.0}, {"lat": 38.9418355, "lon": -77.02492, "is_disabled": 0, "fusion_lon": 0.0, "is_reserved": 0, "name": "043f7f649015fd0c68be7c7d0661891c", "type": "electric_scooter", "bike_id": "043f7f649015fd0c68be7c7d0661891c", "rental_uris": {"ios": "https://dc.lft.to/lastmile_qr_scan", "android": "https://dc.lft.to/lastmile_qr_scan"}, "fusion_lat": 0.0}, {"lat": 38.91684133333333, "lon": -77.01577783333333, "is_disabled": 0, "fusion_lon": 0.0, "is_reserved": 0, "name": "0ab461fcd28fbc66ac7103e8fa4c5b0a", "type": "electric_scooter", "bike_id": "0ab461fcd28fbc66ac7103e8fa4c5b0a", "rental_uris": {"ios": "https://dc.lft.to/lastmile_qr_scan", "android": "https://dc.lft.to/lastmile_qr_scan"}, "fusion_lat": 0.0}, {"lat": 38.92188866666667, "lon": -77.0402245, "is_disabled": 0, "fusion_lon": 0.0, "is_reserved": 0, "name": "93d42735a025cba7c45419443ff4473c", "type": "electric_scooter", "bike_id": "93d42735a025cba7c45419443ff4473c", "rental_uris": {"ios": "https://dc.lft.to/lastmile_qr_scan", "android": "https://dc.lft.to/lastmile_qr_scan"}, "fusion_lat": 0.0}, {"lat": 38.89774883333333, "lon": -76.99157416666667, "is_disabled": 0, "fusion_lon": 0.0, "is_reserved": 0, "name": "b57cb2b6cc7a57014df6dcc2a18247b3", "type": "electric_scooter", "bike_id": "b57cb2b6cc7a57014df6dcc2a18247b3", "rental_uris": {"ios": "https://dc.lft.to/lastmile_qr_scan", "android": "https://dc.lft.to/lastmile_qr_scan"}, "fusion_lat": 0.0}, {"lat": 38.87968466666667, "lon": -76.91614683333333, "is_disabled": 0, "fusion_lon": 0.0, "is_reserved": 0, "name": "b04a42699f78187a20545f7b72532c4b", "type": "electric_bike", "bike_id": "b04a42699f78187a20545f7b72532c4b", "rental_uris": {"ios": "https://dc.lft.to/lastmile_qr_scan", "android": "https://dc.lft.to/lastmile_qr_scan"}, "fusion_lat": 0.0}, {"lat": 38.88739366666667, "lon": -77.03067733333333, "is_disabled": 0, "fusion_lon": 0.0, "is_reserved": 0, "name": "56eb2ab480e6db22f23937a39168b79c", "type": "electric_scooter", "bike_id": "56eb2ab480e6db22f23937a39168b79c", "rental_uris": {"ios": "https://dc.lft.to/lastmile_qr_scan", "android": "https://dc.lft.to/lastmile_qr_scan"}, "fusion_lat": 0.0}, {"lat": 38.927983, "lon": -77.02446183333333, "is_disabled": 0, "fusion_lon": 0.0, "is_reserved": 0, "name": "021e9e048d03a0bac88b50030364898b", "type": "electric_scooter", "bike_id": "021e9e048d03a0bac88b50030364898b", "rental_uris": {"ios": "https://dc.lft.to/lastmile_qr_scan", "android": "https://dc.lft.to/lastmile_qr_scan"}, "fusion_lat": 0.0}, {"lat": 38.902398833333336, "lon": -77.02593783333333, "is_disabled": 0, "fusion_lon": 0.0, "is_reserved": 0, "name": "65aa3a28233789be49e515bfcc95dc38", "type": "electric_scooter", "bike_id": "65aa3a28233789be49e515bfcc95dc38", "rental_uris": {"ios": "https://dc.lft.to/lastmile_qr_scan", "android": "https://dc.lft.to/lastmile_qr_scan"}, "fusion_lat": 0.0}, {"lat": 38.923783666666665, "lon": -77.030941, "is_disabled": 0, "fusion_lon": 0.0, "is_reserved": 0, "name": "24258c5b836859b1c6573f5851327a2f", "type": "electric_scooter", "bike_id": "24258c5b836859b1c6573f5851327a2f", "rental_uris": {"ios": "https://dc.lft.to/lastmile_qr_scan", "android": "https://dc.lft.to/lastmile_qr_scan"}, "fusion_lat": 0.0}, {"lat": 38.91388966666667, "lon": -76.98408316666666, "is_disabled": 0, "fusion_lon": 0.0, "is_reserved": 0, "name": "8f228aaaec135f29e35b7df0cf8bc22e", "type": "electric_scooter", "bike_id": "8f228aaaec135f29e35b7df0cf8bc22e", "rental_uris": {"ios": "https://dc.lft.to/lastmile_qr_scan", "android": "https://dc.lft.to/lastmile_qr_scan"}, "fusion_lat": 0.0}, {"lat": 38.924325833333334, "lon": -76.9973215, "is_disabled": 0, "fusion_lon": 0.0, "is_reserved": 0, "name": "e849d302f9b63d6838163fc1af945e81", "type": "electric_scooter", "bike_id": "e849d302f9b63d6838163fc1af945e81", "rental_uris": {"ios": "https://dc.lft.to/lastmile_qr_scan", "android": "https://dc.lft.to/lastmile_qr_scan"}, "fusion_lat": 0.0}, {"lat": 38.973512166666666, "lon": -77.02787416666666, "is_disabled": 0, "fusion_lon": 0.0, "is_reserved": 0, "name": "9df0b696b9a4f65def21d50bb7e1c427", "type": "electric_scooter", "bike_id": "9df0b696b9a4f65def21d50bb7e1c427", "rental_uris": {"ios": "https://dc.lft.to/lastmile_qr_scan", "android": "https://dc.lft.to/lastmile_qr_scan"}, "fusion_lat": 0.0}, {"lat": 38.9096735, "lon": -77.05192166666667, "is_disabled": 0, "fusion_lon": 0.0, "is_reserved": 0, "name": "c10ae4af14797714cc0112da54303cab", "type": "electric_scooter", "bike_id": "c10ae4af14797714cc0112da54303cab", "rental_uris": {"ios": "https://dc.lft.to/lastmile_qr_scan", "android": "https://dc.lft.to/lastmile_qr_scan"}, "fusion_lat": 0.0}, {"lat": 38.88745083333333, "lon": -77.02128883333333, "is_disabled": 0, "fusion_lon": 0.0, "is_reserved": 0, "name": "5f5b13728aa36c3d4cbd05266954ed21", "type": "electric_scooter", "bike_id": "5f5b13728aa36c3d4cbd05266954ed21", "rental_uris": {"ios": "https://dc.lft.to/lastmile_qr_scan", "android": "https://dc.lft.to/lastmile_qr_scan"}, "fusion_lat": 0.0}, {"lat": 38.8639575, "lon": -77.20110366666667, "is_disabled": 0, "fusion_lon": 0.0, "is_reserved": 0, "name": "d6f693d53343c60821fcc3444fdb2593", "type": "electric_bike", "bike_id": "d6f693d53343c60821fcc3444fdb2593", "rental_uris": {"ios": "https://dc.lft.to/lastmile_qr_scan", "android": "https://dc.lft.to/lastmile_qr_scan"}, "fusion_lat": 0.0}, {"lat": 38.8419545, "lon": -77.0675705, "is_disabled": 0, "fusion_lon": 0.0, "is_reserved": 0, "name": "a5fcdb8ec074d622c48ada2e0a965cbe", "type": "electric_bike", "bike_id": "a5fcdb8ec074d622c48ada2e0a965cbe", "rental_uris": {"ios": "https://dc.lft.to/lastmile_qr_scan", "android": "https://dc.lft.to/lastmile_qr_scan"}, "fusion_lat": 0.0}, {"lat": 38.91799433333333, "lon": -77.02485383333334, "is_disabled": 0, "fusion_lon": 0.0, "is_reserved": 0, "name": "85ba8adf80ba0ae6027d3c16bf53f494", "type": "electric_scooter", "bike_id": "85ba8adf80ba0ae6027d3c16bf53f494", "rental_uris": {"ios": "https://dc.lft.to/lastmile_qr_scan", "android": "https://dc.lft.to/lastmile_qr_scan"}, "fusion_lat": 0.0}, {"lat": 38.89357916666667, "lon": -77.00333416666666, "is_disabled": 0, "fusion_lon": 0.0, "is_reserved": 0, "name": "c3e8abb0bd3c72f31883b432433ef21f", "type": "electric_scooter", "bike_id": "c3e8abb0bd3c72f31883b432433ef21f", "rental_uris": {"ios": "https://dc.lft.to/lastmile_qr_scan", "android": "https://dc.lft.to/lastmile_qr_scan"}, "fusion_lat": 0.0}, {"lat": 38.96595933333333, "lon": -77.01602933333334, "is_disabled": 0, "fusion_lon": 0.0, "is_reserved": 0, "name": "a43334c06af7cc65a8c536481b43a49e", "type": "electric_scooter", "bike_id": "a43334c06af7cc65a8c536481b43a49e", "rental_uris": {"ios": "https://dc.lft.to/lastmile_qr_scan", "android": "https://dc.lft.to/lastmile_qr_scan"}, "fusion_lat": 0.0}, {"lat": 38.907354833333336, "lon": -77.05710166666667, "is_disabled": 0, "fusion_lon": 0.0, "is_reserved": 0, "name": "da73270d1b19011fe6a8e03f64747cea", "type": "electric_scooter", "bike_id": "da73270d1b19011fe6a8e03f64747cea", "rental_uris": {"ios": "https://dc.lft.to/lastmile_qr_scan", "android": "https://dc.lft.to/lastmile_qr_scan"}, "fusion_lat": 0.0}, {"lat": 38.936469333333335, "lon": -77.03669633333334, "is_disabled": 0, "fusion_lon": 0.0, "is_reserved": 0, "name": "ba37fbe7613331d00e6a3d099252762c", "type": "electric_bike", "bike_id": "ba37fbe7613331d00e6a3d099252762c", "rental_uris": {"ios": "https://dc.lft.to/lastmile_qr_scan", "android": "https://dc.lft.to/lastmile_qr_scan"}, "fusion_lat": 0.0}, {"lat": 38.9130745, "lon": -77.03649816666666, "is_disabled": 0, "fusion_lon": 0.0, "is_reserved": 0, "name": "bea1f44c1dcb63443b7c27ddd88d7c4c", "type": "electric_scooter", "bike_id": "bea1f44c1dcb63443b7c27ddd88d7c4c", "rental_uris": {"ios": "https://dc.lft.to/lastmile_qr_scan", "android": "https://dc.lft.to/lastmile_qr_scan"}, "fusion_lat": 0.0}, {"lat": 38.926862, "lon": -77.02776516666667, "is_disabled": 0, "fusion_lon": 0.0, "is_reserved": 0, "name": "8dab543e63c04fe5aac5630ed408410c", "type": "electric_scooter", "bike_id": "8dab543e63c04fe5aac5630ed408410c", "rental_uris": {"ios": "https://dc.lft.to/lastmile_qr_scan", "android": "https://dc.lft.to/lastmile_qr_scan"}, "fusion_lat": 0.0}, {"lat": 38.91568566666667, "lon": -77.02524566666666, "is_disabled": 0, "fusion_lon": 0.0, "is_reserved": 0, "name": "f853be8eb5922c3fb260e291c027f741", "type": "electric_scooter", "bike_id": "f853be8eb5922c3fb260e291c027f741", "rental_uris": {"ios": "https://dc.lft.to/lastmile_qr_scan", "android": "https://dc.lft.to/lastmile_qr_scan"}, "fusion_lat": 0.0}, {"lat": 38.91669866666667, "lon": -77.034624, "is_disabled": 0, "fusion_lon": 0.0, "is_reserved": 0, "name": "626a254162429b272afc35be2d3deaf8", "type": "electric_scooter", "bike_id": "626a254162429b272afc35be2d3deaf8", "rental_uris": {"ios": "https://dc.lft.to/lastmile_qr_scan", "android": "https://dc.lft.to/lastmile_qr_scan"}, "fusion_lat": 0.0}, {"lat": 38.92291, "lon": -77.0270985, "is_disabled": 0, "fusion_lon": 0.0, "is_reserved": 0, "name": "cab3f1b571ef32a95ab24542a7789353", "type": "electric_scooter", "bike_id": "cab3f1b571ef32a95ab24542a7789353", "rental_uris": {"ios": "https://dc.lft.to/lastmile_qr_scan", "android": "https://dc.lft.to/lastmile_qr_scan"}, "fusion_lat": 0.0}, {"lat": 38.921383666666664, "lon": -77.018114, "is_disabled": 0, "fusion_lon": 0.0, "is_reserved": 0, "name": "6d4be461fe6f5d314579864a181d0e4d", "type": "electric_scooter", "bike_id": "6d4be461fe6f5d314579864a181d0e4d", "rental_uris": {"ios": "https://dc.lft.to/lastmile_qr_scan", "android": "https://dc.lft.to/lastmile_qr_scan"}, "fusion_lat": 0.0}, {"lat": 38.877132833333334, "lon": -77.01835866666667, "is_disabled": 0, "fusion_lon": 0.0, "is_reserved": 0, "name": "cc2fd664712d1905e488de3d20ad12ef", "type": "electric_scooter", "bike_id": "cc2fd664712d1905e488de3d20ad12ef", "rental_uris": {"ios": "https://dc.lft.to/lastmile_qr_scan", "android": "https://dc.lft.to/lastmile_qr_scan"}, "fusion_lat": 0.0}, {"lat": 38.88496283333333, "lon": -76.99734483333333, "is_disabled": 0, "fusion_lon": 0.0, "is_reserved": 0, "name": "f8ae601f7abb9a3a92f5a0387328190e", "type": "electric_scooter", "bike_id": "f8ae601f7abb9a3a92f5a0387328190e", "rental_uris": {"ios": "https://dc.lft.to/lastmile_qr_scan", "android": "https://dc.lft.to/lastmile_qr_scan"}, "fusion_lat": 0.0}, {"lat": 38.897267, "lon": -77.05521583333334, "is_disabled": 0, "fusion_lon": 0.0, "is_reserved": 0, "name": "ab4729d12a8e18928f7250bb831d59e7", "type": "electric_scooter", "bike_id": "ab4729d12a8e18928f7250bb831d59e7", "rental_uris": {"ios": "https://dc.lft.to/lastmile_qr_scan", "android": "https://dc.lft.to/lastmile_qr_scan"}, "fusion_lat": 0.0}, {"lat": 38.90975783333333, "lon": -77.03195466666666, "is_disabled": 0, "fusion_lon": 0.0, "is_reserved": 0, "name": "8670af04f218ed4f44781b079778f992", "type": "electric_scooter", "bike_id": "8670af04f218ed4f44781b079778f992", "rental_uris": {"ios": "https://dc.lft.to/lastmile_qr_scan", "android": "https://dc.lft.to/lastmile_qr_scan"}, "fusion_lat": 0.0}, {"lat": 38.9076285, "lon": -77.00105983333333, "is_disabled": 0, "fusion_lon": 0.0, "is_reserved": 0, "name": "ba188e1b611f87cc9ddd387815e1267e", "type": "electric_scooter", "bike_id": "ba188e1b611f87cc9ddd387815e1267e", "rental_uris": {"ios": "https://dc.lft.to/lastmile_qr_scan", "android": "https://dc.lft.to/lastmile_qr_scan"}, "fusion_lat": 0.0}, {"lat": 38.895544666666666, "lon": -77.07840916666666, "is_disabled": 0, "fusion_lon": 0.0, "is_reserved": 0, "name": "14f85e20568ca28b465e667f9a3ad6bf", "type": "electric_bike", "bike_id": "14f85e20568ca28b465e667f9a3ad6bf", "rental_uris": {"ios": "https://dc.lft.to/lastmile_qr_scan", "android": "https://dc.lft.to/lastmile_qr_scan"}, "fusion_lat": 0.0}, {"lat": 38.901518, "lon": -76.99023583333333, "is_disabled": 0, "fusion_lon": 0.0, "is_reserved": 0, "name": "ed75cb9c54e8b3630b6a51ed6ba09412", "type": "electric_scooter", "bike_id": "ed75cb9c54e8b3630b6a51ed6ba09412", "rental_uris": {"ios": "https://dc.lft.to/lastmile_qr_scan", "android": "https://dc.lft.to/lastmile_qr_scan"}, "fusion_lat": 0.0}, {"lat": 38.90399, "lon": -77.04862466666667, "is_disabled": 0, "fusion_lon": 0.0, "is_reserved": 0, "name": "893453f213dd9d7e24f338c737a46c1e", "type": "electric_scooter", "bike_id": "893453f213dd9d7e24f338c737a46c1e", "rental_uris": {"ios": "https://dc.lft.to/lastmile_qr_scan", "android": "https://dc.lft.to/lastmile_qr_scan"}, "fusion_lat": 0.0}, {"lat": 38.90566883333334, "lon": -77.00428316666667, "is_disabled": 0, "fusion_lon": 0.0, "is_reserved": 0, "name": "cc1acbb084c280f208eea61690ee30c0", "type": "electric_scooter", "bike_id": "cc1acbb084c280f208eea61690ee30c0", "rental_uris": {"ios": "https://dc.lft.to/lastmile_qr_scan", "android": "https://dc.lft.to/lastmile_qr_scan"}, "fusion_lat": 0.0}, {"lat": 38.875297833333335, "lon": -77.00559616666666, "is_disabled": 0, "fusion_lon": 0.0, "is_reserved": 0, "name": "318cfa409d2b6f3d573b7d6466b38642", "type": "electric_scooter", "bike_id": "318cfa409d2b6f3d573b7d6466b38642", "rental_uris": {"ios": "https://dc.lft.to/lastmile_qr_scan", "android": "https://dc.lft.to/lastmile_qr_scan"}, "fusion_lat": 0.0}, {"lat": 38.89755233333333, "lon": -77.02773616666667, "is_disabled": 0, "fusion_lon": 0.0, "is_reserved": 0, "name": "631e2b719cb595ec5b3352e8c16a27b8", "type": "electric_scooter", "bike_id": "631e2b719cb595ec5b3352e8c16a27b8", "rental_uris": {"ios": "https://dc.lft.to/lastmile_qr_scan", "android": "https://dc.lft.to/lastmile_qr_scan"}, "fusion_lat": 0.0}, {"lat": 38.884360666666666, "lon": -77.01746666666666, "is_disabled": 0, "fusion_lon": 0.0, "is_reserved": 0, "name": "97218f9bcdbc3d1f55212595fd67430f", "type": "electric_scooter", "bike_id": "97218f9bcdbc3d1f55212595fd67430f", "rental_uris": {"ios": "https://dc.lft.to/lastmile_qr_scan", "android": "https://dc.lft.to/lastmile_qr_scan"}, "fusion_lat": 0.0}, {"lat": 38.914141, "lon": -77.02095983333334, "is_disabled": 0, "fusion_lon": 0.0, "is_reserved": 0, "name": "647ec251bd2ac5e0aacd95548a312f48", "type": "electric_scooter", "bike_id": "647ec251bd2ac5e0aacd95548a312f48", "rental_uris": {"ios": "https://dc.lft.to/lastmile_qr_scan", "android": "https://dc.lft.to/lastmile_qr_scan"}, "fusion_lat": 0.0}, {"lat": 38.927919833333334, "lon": -77.02111016666667, "is_disabled": 0, "fusion_lon": 0.0, "is_reserved": 0, "name": "ef21189eb1ca84622fa5bb1e134a92f3", "type": "electric_scooter", "bike_id": "ef21189eb1ca84622fa5bb1e134a92f3", "rental_uris": {"ios": "https://dc.lft.to/lastmile_qr_scan", "android": "https://dc.lft.to/lastmile_qr_scan"}, "fusion_lat": 0.0}, {"lat": 38.89220983333333, "lon": -77.0432245, "is_disabled": 0, "fusion_lon": 0.0, "is_reserved": 0, "name": "5fc8559f9735a17953cb9f71be9b60fc", "type": "electric_scooter", "bike_id": "5fc8559f9735a17953cb9f71be9b60fc", "rental_uris": {"ios": "https://dc.lft.to/lastmile_qr_scan", "android": "https://dc.lft.to/lastmile_qr_scan"}, "fusion_lat": 0.0}, {"lat": 38.819875, "lon": -76.99812, "is_disabled": 0, "fusion_lon": 0.0, "is_reserved": 0, "name": "ae595bc80e69c0904cb6e00760cb32f8", "type": "electric_bike", "bike_id": "ae595bc80e69c0904cb6e00760cb32f8", "rental_uris": {"ios": "https://dc.lft.to/lastmile_qr_scan", "android": "https://dc.lft.to/lastmile_qr_scan"}, "fusion_lat": 0.0}, {"lat": 38.919406, "lon": -77.02497633333333, "is_disabled": 0, "fusion_lon": 0.0, "is_reserved": 0, "name": "c3ec37de241fc12dbb67578bcf180cbc", "type": "electric_scooter", "bike_id": "c3ec37de241fc12dbb67578bcf180cbc", "rental_uris": {"ios": "https://dc.lft.to/lastmile_qr_scan", "android": "https://dc.lft.to/lastmile_qr_scan"}, "fusion_lat": 0.0}, {"lat": 38.925517166666666, "lon": -76.98148683333334, "is_disabled": 0, "fusion_lon": 0.0, "is_reserved": 0, "name": "10190629cce53e09e83925ffdb7552fd", "type": "electric_scooter", "bike_id": "10190629cce53e09e83925ffdb7552fd", "rental_uris": {"ios": "https://dc.lft.to/lastmile_qr_scan", "android": "https://dc.lft.to/lastmile_qr_scan"}, "fusion_lat": 0.0}, {"lat": 38.92763683333333, "lon": -77.05258716666667, "is_disabled": 0, "fusion_lon": 0.0, "is_reserved": 0, "name": "b2b255577bab18dc21454fdca9944b25", "type": "electric_scooter", "bike_id": "b2b255577bab18dc21454fdca9944b25", "rental_uris": {"ios": "https://dc.lft.to/lastmile_qr_scan", "android": "https://dc.lft.to/lastmile_qr_scan"}, "fusion_lat": 0.0}, {"lat": 38.907259833333335, "lon": -77.03473516666666, "is_disabled": 0, "fusion_lon": 0.0, "is_reserved": 0, "name": "fb465e318c9192f1b234f8cdb9916c1e", "type": "electric_scooter", "bike_id": "fb465e318c9192f1b234f8cdb9916c1e", "rental_uris": {"ios": "https://dc.lft.to/lastmile_qr_scan", "android": "https://dc.lft.to/lastmile_qr_scan"}, "fusion_lat": 0.0}, {"lat": 38.90329933333334, "lon": -77.02143616666666, "is_disabled": 0, "fusion_lon": 0.0, "is_reserved": 0, "name": "ef8b4110f3880d903dc53042f9592b1a", "type": "electric_scooter", "bike_id": "ef8b4110f3880d903dc53042f9592b1a", "rental_uris": {"ios": "https://dc.lft.to/lastmile_qr_scan", "android": "https://dc.lft.to/lastmile_qr_scan"}, "fusion_lat": 0.0}, {"lat": 38.89173666666667, "lon": -76.92649983333334, "is_disabled": 0, "fusion_lon": 0.0, "is_reserved": 0, "name": "bf12b83151f55ddcb5cabdd1eb8d8f42", "type": "electric_scooter", "bike_id": "bf12b83151f55ddcb5cabdd1eb8d8f42", "rental_uris": {"ios": "https://dc.lft.to/lastmile_qr_scan", "android": "https://dc.lft.to/lastmile_qr_scan"}, "fusion_lat": 0.0}, {"lat": 38.903188166666666, "lon": -77.00571266666667, "is_disabled": 0, "fusion_lon": 0.0, "is_reserved": 0, "name": "813e477fb6daca54714859a05148e90e", "type": "electric_scooter", "bike_id": "813e477fb6daca54714859a05148e90e", "rental_uris": {"ios": "https://dc.lft.to/lastmile_qr_scan", "android": "https://dc.lft.to/lastmile_qr_scan"}, "fusion_lat": 0.0}, {"lat": 38.924441333333334, "lon": -76.9898735, "is_disabled": 0, "fusion_lon": 0.0, "is_reserved": 0, "name": "4d1af52488e041788dd572acdb89a160", "type": "electric_scooter", "bike_id": "4d1af52488e041788dd572acdb89a160", "rental_uris": {"ios": "https://dc.lft.to/lastmile_qr_scan", "android": "https://dc.lft.to/lastmile_qr_scan"}, "fusion_lat": 0.0}, {"lat": 38.925160166666664, "lon": -77.05036116666666, "is_disabled": 0, "fusion_lon": 0.0, "is_reserved": 0, "name": "cae9249b51472b2a396ced26d7dd3574", "type": "electric_scooter", "bike_id": "cae9249b51472b2a396ced26d7dd3574", "rental_uris": {"ios": "https://dc.lft.to/lastmile_qr_scan", "android": "https://dc.lft.to/lastmile_qr_scan"}, "fusion_lat": 0.0}, {"lat": 38.9082605, "lon": -77.03190033333334, "is_disabled": 0, "fusion_lon": 0.0, "is_reserved": 0, "name": "4834d95105330f5c8972eaf8882b35cf", "type": "electric_scooter", "bike_id": "4834d95105330f5c8972eaf8882b35cf", "rental_uris": {"ios": "https://dc.lft.to/lastmile_qr_scan", "android": "https://dc.lft.to/lastmile_qr_scan"}, "fusion_lat": 0.0}, {"lat": 38.931987166666666, "lon": -77.02817616666667, "is_disabled": 0, "fusion_lon": 0.0, "is_reserved": 0, "name": "4c7fb804270c9c1e99f94a08f3fdd828", "type": "electric_scooter", "bike_id": "4c7fb804270c9c1e99f94a08f3fdd828", "rental_uris": {"ios": "https://dc.lft.to/lastmile_qr_scan", "android": "https://dc.lft.to/lastmile_qr_scan"}, "fusion_lat": 0.0}, {"lat": 38.917061, "lon": -77.03593016666666, "is_disabled": 0, "fusion_lon": 0.0, "is_reserved": 0, "name": "6ff507b13bab067a2d6f0ed306be92dd", "type": "electric_scooter", "bike_id": "6ff507b13bab067a2d6f0ed306be92dd", "rental_uris": {"ios": "https://dc.lft.to/lastmile_qr_scan", "android": "https://dc.lft.to/lastmile_qr_scan"}, "fusion_lat": 0.0}, {"lat": 38.9278555, "lon": -77.053095, "is_disabled": 0, "fusion_lon": 0.0, "is_reserved": 0, "name": "bbfa11481b407ad277a5aac538a41cc5", "type": "electric_scooter", "bike_id": "bbfa11481b407ad277a5aac538a41cc5", "rental_uris": {"ios": "https://dc.lft.to/lastmile_qr_scan", "android": "https://dc.lft.to/lastmile_qr_scan"}, "fusion_lat": 0.0}, {"lat": 38.899673, "lon": -77.051013, "is_disabled": 0, "fusion_lon": 0.0, "is_reserved": 0, "name": "4f60afb3e9147aa6cc57cbe1c5251751", "type": "electric_scooter", "bike_id": "4f60afb3e9147aa6cc57cbe1c5251751", "rental_uris": {"ios": "https://dc.lft.to/lastmile_qr_scan", "android": "https://dc.lft.to/lastmile_qr_scan"}, "fusion_lat": 0.0}, {"lat": 38.927695, "lon": -77.07009433333333, "is_disabled": 0, "fusion_lon": 0.0, "is_reserved": 0, "name": "1649c7f23f21041503e3586424905541", "type": "electric_bike", "bike_id": "1649c7f23f21041503e3586424905541", "rental_uris": {"ios": "https://dc.lft.to/lastmile_qr_scan", "android": "https://dc.lft.to/lastmile_qr_scan"}, "fusion_lat": 0.0}, {"lat": 38.852055666666665, "lon": -76.962983, "is_disabled": 0, "fusion_lon": 0.0, "is_reserved": 0, "name": "5e6ba5ffe42f37de7f938e801f88f256", "type": "electric_bike", "bike_id": "5e6ba5ffe42f37de7f938e801f88f256", "rental_uris": {"ios": "https://dc.lft.to/lastmile_qr_scan", "android": "https://dc.lft.to/lastmile_qr_scan"}, "fusion_lat": 0.0}, {"lat": 38.917201666666664, "lon": -77.0289825, "is_disabled": 0, "fusion_lon": 0.0, "is_reserved": 0, "name": "7134435c6cd6a9ce50e38fdf246ef71c", "type": "electric_scooter", "bike_id": "7134435c6cd6a9ce50e38fdf246ef71c", "rental_uris": {"ios": "https://dc.lft.to/lastmile_qr_scan", "android": "https://dc.lft.to/lastmile_qr_scan"}, "fusion_lat": 0.0}, {"lat": 38.920614, "lon": -77.023928, "is_disabled": 0, "fusion_lon": 0.0, "is_reserved": 0, "name": "1ef0308a6710bd180f114520373a2083", "type": "electric_scooter", "bike_id": "1ef0308a6710bd180f114520373a2083", "rental_uris": {"ios": "https://dc.lft.to/lastmile_qr_scan", "android": "https://dc.lft.to/lastmile_qr_scan"}, "fusion_lat": 0.0}, {"lat": 38.928539666666666, "lon": -77.03318083333333, "is_disabled": 0, "fusion_lon": 0.0, "is_reserved": 0, "name": "3a9104446580501092aff8e18aa3ad01", "type": "electric_scooter", "bike_id": "3a9104446580501092aff8e18aa3ad01", "rental_uris": {"ios": "https://dc.lft.to/lastmile_qr_scan", "android": "https://dc.lft.to/lastmile_qr_scan"}, "fusion_lat": 0.0}, {"lat": 38.928606333333335, "lon": -77.05430833333334, "is_disabled": 0, "fusion_lon": 0.0, "is_reserved": 0, "name": "7dd55ce2fd17d9d4533ca21fa3adbd2a", "type": "electric_scooter", "bike_id": "7dd55ce2fd17d9d4533ca21fa3adbd2a", "rental_uris": {"ios": "https://dc.lft.to/lastmile_qr_scan", "android": "https://dc.lft.to/lastmile_qr_scan"}, "fusion_lat": 0.0}, {"lat": 38.90791266666667, "lon": -77.0386465, "is_disabled": 0, "fusion_lon": 0.0, "is_reserved": 0, "name": "f9882a46485d3f8734c087729e6a2172", "type": "electric_scooter", "bike_id": "f9882a46485d3f8734c087729e6a2172", "rental_uris": {"ios": "https://dc.lft.to/lastmile_qr_scan", "android": "https://dc.lft.to/lastmile_qr_scan"}, "fusion_lat": 0.0}, {"lat": 38.8972475, "lon": -77.049924, "is_disabled": 0, "fusion_lon": 0.0, "is_reserved": 0, "name": "612321710210aaa1af02ebec7b5713b0", "type": "electric_scooter", "bike_id": "612321710210aaa1af02ebec7b5713b0", "rental_uris": {"ios": "https://dc.lft.to/lastmile_qr_scan", "android": "https://dc.lft.to/lastmile_qr_scan"}, "fusion_lat": 0.0}, {"lat": 38.875127, "lon": -77.001632, "is_disabled": 0, "fusion_lon": 0.0, "is_reserved": 0, "name": "acaa6b88e87501b396582dd41bbe289d", "type": "electric_scooter", "bike_id": "acaa6b88e87501b396582dd41bbe289d", "rental_uris": {"ios": "https://dc.lft.to/lastmile_qr_scan", "android": "https://dc.lft.to/lastmile_qr_scan"}, "fusion_lat": 0.0}, {"lat": 38.887417166666665, "lon": -77.021263, "is_disabled": 0, "fusion_lon": 0.0, "is_reserved": 0, "name": "22dbb474bf147ea927f112f73f16c006", "type": "electric_scooter", "bike_id": "22dbb474bf147ea927f112f73f16c006", "rental_uris": {"ios": "https://dc.lft.to/lastmile_qr_scan", "android": "https://dc.lft.to/lastmile_qr_scan"}, "fusion_lat": 0.0}, {"lat": 38.90473183333334, "lon": -77.0344415, "is_disabled": 0, "fusion_lon": 0.0, "is_reserved": 0, "name": "82f6398dc84ee1b487a63e51dae6ee70", "type": "electric_scooter", "bike_id": "82f6398dc84ee1b487a63e51dae6ee70", "rental_uris": {"ios": "https://dc.lft.to/lastmile_qr_scan", "android": "https://dc.lft.to/lastmile_qr_scan"}, "fusion_lat": 0.0}, {"lat": 38.847664, "lon": -76.96629916666667, "is_disabled": 0, "fusion_lon": 0.0, "is_reserved": 0, "name": "1edbb7c56b5381bae5b3d472558d7b7c", "type": "electric_bike", "bike_id": "1edbb7c56b5381bae5b3d472558d7b7c", "rental_uris": {"ios": "https://dc.lft.to/lastmile_qr_scan", "android": "https://dc.lft.to/lastmile_qr_scan"}, "fusion_lat": 0.0}, {"lat": 38.90925933333333, "lon": -76.99979, "is_disabled": 0, "fusion_lon": 0.0, "is_reserved": 0, "name": "12d2483bf306e9443ff9d6b5d2b9c996", "type": "electric_scooter", "bike_id": "12d2483bf306e9443ff9d6b5d2b9c996", "rental_uris": {"ios": "https://dc.lft.to/lastmile_qr_scan", "android": "https://dc.lft.to/lastmile_qr_scan"}, "fusion_lat": 0.0}, {"lat": 38.909843333333335, "lon": -77.02293833333333, "is_disabled": 0, "fusion_lon": 0.0, "is_reserved": 0, "name": "a1f724ea0223dd90c2ba234f73e06487", "type": "electric_scooter", "bike_id": "a1f724ea0223dd90c2ba234f73e06487", "rental_uris": {"ios": "https://dc.lft.to/lastmile_qr_scan", "android": "https://dc.lft.to/lastmile_qr_scan"}, "fusion_lat": 0.0}, {"lat": 38.907294666666665, "lon": -77.03443983333334, "is_disabled": 0, "fusion_lon": 0.0, "is_reserved": 0, "name": "a7a6aa6be8051de969d36f90f8a38ec8", "type": "electric_scooter", "bike_id": "a7a6aa6be8051de969d36f90f8a38ec8", "rental_uris": {"ios": "https://dc.lft.to/lastmile_qr_scan", "android": "https://dc.lft.to/lastmile_qr_scan"}, "fusion_lat": 0.0}, {"lat": 38.902579333333335, "lon": -77.017248, "is_disabled": 0, "fusion_lon": 0.0, "is_reserved": 0, "name": "a2d3dec667fe9df96391af5c4387e64e", "type": "electric_scooter", "bike_id": "a2d3dec667fe9df96391af5c4387e64e", "rental_uris": {"ios": "https://dc.lft.to/lastmile_qr_scan", "android": "https://dc.lft.to/lastmile_qr_scan"}, "fusion_lat": 0.0}, {"lat": 38.916709166666664, "lon": -77.02707533333333, "is_disabled": 0, "fusion_lon": 0.0, "is_reserved": 0, "name": "b0cc2b165d773a118aceb9cbf85c203f", "type": "electric_scooter", "bike_id": "b0cc2b165d773a118aceb9cbf85c203f", "rental_uris": {"ios": "https://dc.lft.to/lastmile_qr_scan", "android": "https://dc.lft.to/lastmile_qr_scan"}, "fusion_lat": 0.0}, {"lat": 38.89917366666667, "lon": -77.02367316666667, "is_disabled": 0, "fusion_lon": 0.0, "is_reserved": 0, "name": "c63fb1a6a74477da736b5d608e707932", "type": "electric_scooter", "bike_id": "c63fb1a6a74477da736b5d608e707932", "rental_uris": {"ios": "https://dc.lft.to/lastmile_qr_scan", "android": "https://dc.lft.to/lastmile_qr_scan"}, "fusion_lat": 0.0}, {"lat": 38.84424633333333, "lon": -76.99779683333334, "is_disabled": 0, "fusion_lon": 0.0, "is_reserved": 0, "name": "43a532da7afc045abb198452ccf6a517", "type": "electric_scooter", "bike_id": "43a532da7afc045abb198452ccf6a517", "rental_uris": {"ios": "https://dc.lft.to/lastmile_qr_scan", "android": "https://dc.lft.to/lastmile_qr_scan"}, "fusion_lat": 0.0}, {"lat": 38.905147, "lon": -77.06586633333333, "is_disabled": 0, "fusion_lon": 0.0, "is_reserved": 0, "name": "300cf98f45b7d68723a4da49b236c1ec", "type": "electric_scooter", "bike_id": "300cf98f45b7d68723a4da49b236c1ec", "rental_uris": {"ios": "https://dc.lft.to/lastmile_qr_scan", "android": "https://dc.lft.to/lastmile_qr_scan"}, "fusion_lat": 0.0}, {"lat": 39.00481, "lon": -77.02185033333333, "is_disabled": 0, "fusion_lon": 0.0, "is_reserved": 0, "name": "40c74f460012f891bfcfcbae58d12eb4", "type": "electric_bike", "bike_id": "40c74f460012f891bfcfcbae58d12eb4", "rental_uris": {"ios": "https://dc.lft.to/lastmile_qr_scan", "android": "https://dc.lft.to/lastmile_qr_scan"}, "fusion_lat": 0.0}, {"lat": 38.90168233333333, "lon": -77.01608783333333, "is_disabled": 0, "fusion_lon": 0.0, "is_reserved": 0, "name": "a68d1fb79374bdfc999528969691ba22", "type": "electric_scooter", "bike_id": "a68d1fb79374bdfc999528969691ba22", "rental_uris": {"ios": "https://dc.lft.to/lastmile_qr_scan", "android": "https://dc.lft.to/lastmile_qr_scan"}, "fusion_lat": 0.0}, {"lat": 38.87100266666667, "lon": -76.94199766666667, "is_disabled": 0, "fusion_lon": 0.0, "is_reserved": 0, "name": "434f72a5dee4ad53dd16b18a0f785f07", "type": "electric_scooter", "bike_id": "434f72a5dee4ad53dd16b18a0f785f07", "rental_uris": {"ios": "https://dc.lft.to/lastmile_qr_scan", "android": "https://dc.lft.to/lastmile_qr_scan"}, "fusion_lat": 0.0}, {"lat": 38.898016166666665, "lon": -77.01902966666667, "is_disabled": 0, "fusion_lon": 0.0, "is_reserved": 0, "name": "0f2f39af6057733321d7fa460350fd03", "type": "electric_scooter", "bike_id": "0f2f39af6057733321d7fa460350fd03", "rental_uris": {"ios": "https://dc.lft.to/lastmile_qr_scan", "android": "https://dc.lft.to/lastmile_qr_scan"}, "fusion_lat": 0.0}, {"lat": 38.883989166666666, "lon": -76.96058383333333, "is_disabled": 0, "fusion_lon": 0.0, "is_reserved": 0, "name": "fdf67ac4a8ddf935640a96d5c0ee2082", "type": "electric_bike", "bike_id": "fdf67ac4a8ddf935640a96d5c0ee2082", "rental_uris": {"ios": "https://dc.lft.to/lastmile_qr_scan", "android": "https://dc.lft.to/lastmile_qr_scan"}, "fusion_lat": 0.0}, {"lat": 38.927358166666664, "lon": -76.99554383333333, "is_disabled": 0, "fusion_lon": 0.0, "is_reserved": 0, "name": "acd677e4ae4c9df47a6abae318e599db", "type": "electric_scooter", "bike_id": "acd677e4ae4c9df47a6abae318e599db", "rental_uris": {"ios": "https://dc.lft.to/lastmile_qr_scan", "android": "https://dc.lft.to/lastmile_qr_scan"}, "fusion_lat": 0.0}, {"lat": 38.917987333333336, "lon": -77.04011416666667, "is_disabled": 0, "fusion_lon": 0.0, "is_reserved": 0, "name": "ce9688a0305fa6192bd2e44ba2e65c81", "type": "electric_scooter", "bike_id": "ce9688a0305fa6192bd2e44ba2e65c81", "rental_uris": {"ios": "https://dc.lft.to/lastmile_qr_scan", "android": "https://dc.lft.to/lastmile_qr_scan"}, "fusion_lat": 0.0}, {"lat": 38.91361933333334, "lon": -77.02050366666667, "is_disabled": 0, "fusion_lon": 0.0, "is_reserved": 0, "name": "3c5ba83878443fe72dbc939e6b419fc7", "type": "electric_scooter", "bike_id": "3c5ba83878443fe72dbc939e6b419fc7", "rental_uris": {"ios": "https://dc.lft.to/lastmile_qr_scan", "android": "https://dc.lft.to/lastmile_qr_scan"}, "fusion_lat": 0.0}, {"lat": 38.90351966666667, "lon": -77.03962966666667, "is_disabled": 0, "fusion_lon": 0.0, "is_reserved": 0, "name": "02306857d7456691b47af6c96fdae197", "type": "electric_scooter", "bike_id": "02306857d7456691b47af6c96fdae197", "rental_uris": {"ios": "https://dc.lft.to/lastmile_qr_scan", "android": "https://dc.lft.to/lastmile_qr_scan"}, "fusion_lat": 0.0}, {"lat": 38.835826, "lon": -76.99008366666666, "is_disabled": 0, "fusion_lon": 0.0, "is_reserved": 0, "name": "7c47eba343702a9bbd3afb1502595473", "type": "electric_bike", "bike_id": "7c47eba343702a9bbd3afb1502595473", "rental_uris": {"ios": "https://dc.lft.to/lastmile_qr_scan", "android": "https://dc.lft.to/lastmile_qr_scan"}, "fusion_lat": 0.0}, {"lat": 38.917918, "lon": -77.04427366666667, "is_disabled": 0, "fusion_lon": 0.0, "is_reserved": 0, "name": "66888bffa0a7f26744b444278e4c4419", "type": "electric_scooter", "bike_id": "66888bffa0a7f26744b444278e4c4419", "rental_uris": {"ios": "https://dc.lft.to/lastmile_qr_scan", "android": "https://dc.lft.to/lastmile_qr_scan"}, "fusion_lat": 0.0}, {"lat": 38.89893816666667, "lon": -76.98495883333334, "is_disabled": 0, "fusion_lon": 0.0, "is_reserved": 0, "name": "e7c7605407e8c15681cfeffb36518726", "type": "electric_scooter", "bike_id": "e7c7605407e8c15681cfeffb36518726", "rental_uris": {"ios": "https://dc.lft.to/lastmile_qr_scan", "android": "https://dc.lft.to/lastmile_qr_scan"}, "fusion_lat": 0.0}, {"lat": 38.9056615, "lon": -77.0089185, "is_disabled": 0, "fusion_lon": 0.0, "is_reserved": 0, "name": "9f437dc8122a58c1a2fa831367ae4e6e", "type": "electric_scooter", "bike_id": "9f437dc8122a58c1a2fa831367ae4e6e", "rental_uris": {"ios": "https://dc.lft.to/lastmile_qr_scan", "android": "https://dc.lft.to/lastmile_qr_scan"}, "fusion_lat": 0.0}, {"lat": 38.892489, "lon": -76.988407, "is_disabled": 0, "fusion_lon": 0.0, "is_reserved": 0, "name": "89842e935affbd0a47040c912a260ad9", "type": "electric_scooter", "bike_id": "89842e935affbd0a47040c912a260ad9", "rental_uris": {"ios": "https://dc.lft.to/lastmile_qr_scan", "android": "https://dc.lft.to/lastmile_qr_scan"}, "fusion_lat": 0.0}, {"lat": 38.90989533333333, "lon": -77.02179366666667, "is_disabled": 0, "fusion_lon": 0.0, "is_reserved": 0, "name": "6c51b8d40de63b21aff9f1c9a79429d2", "type": "electric_scooter", "bike_id": "6c51b8d40de63b21aff9f1c9a79429d2", "rental_uris": {"ios": "https://dc.lft.to/lastmile_qr_scan", "android": "https://dc.lft.to/lastmile_qr_scan"}, "fusion_lat": 0.0}, {"lat": 38.91405016666667, "lon": -77.03216916666666, "is_disabled": 0, "fusion_lon": 0.0, "is_reserved": 0, "name": "82056386c98d4c912eec76f2bf8b7564", "type": "electric_scooter", "bike_id": "82056386c98d4c912eec76f2bf8b7564", "rental_uris": {"ios": "https://dc.lft.to/lastmile_qr_scan", "android": "https://dc.lft.to/lastmile_qr_scan"}, "fusion_lat": 0.0}, {"lat": 38.91918916666667, "lon": -77.02733233333333, "is_disabled": 0, "fusion_lon": 0.0, "is_reserved": 0, "name": "044a59b3bfbe6e906daea48c92e3e174", "type": "electric_scooter", "bike_id": "044a59b3bfbe6e906daea48c92e3e174", "rental_uris": {"ios": "https://dc.lft.to/lastmile_qr_scan", "android": "https://dc.lft.to/lastmile_qr_scan"}, "fusion_lat": 0.0}, {"lat": 38.86889216666667, "lon": -76.9900175, "is_disabled": 0, "fusion_lon": 0.0, "is_reserved": 0, "name": "33d4460b663ec378b51647687883ebbd", "type": "electric_scooter", "bike_id": "33d4460b663ec378b51647687883ebbd", "rental_uris": {"ios": "https://dc.lft.to/lastmile_qr_scan", "android": "https://dc.lft.to/lastmile_qr_scan"}, "fusion_lat": 0.0}, {"lat": 38.8999315, "lon": -77.0555585, "is_disabled": 0, "fusion_lon": 0.0, "is_reserved": 0, "name": "5768394fed9973872693304464ea0956", "type": "electric_scooter", "bike_id": "5768394fed9973872693304464ea0956", "rental_uris": {"ios": "https://dc.lft.to/lastmile_qr_scan", "android": "https://dc.lft.to/lastmile_qr_scan"}, "fusion_lat": 0.0}, {"lat": 38.87481483333333, "lon": -77.00605716666666, "is_disabled": 0, "fusion_lon": 0.0, "is_reserved": 0, "name": "2d1ff15cf1e9cf754de88c795f34af5d", "type": "electric_scooter", "bike_id": "2d1ff15cf1e9cf754de88c795f34af5d", "rental_uris": {"ios": "https://dc.lft.to/lastmile_qr_scan", "android": "https://dc.lft.to/lastmile_qr_scan"}, "fusion_lat": 0.0}, {"lat": 38.902589666666664, "lon": -77.03243833333333, "is_disabled": 0, "fusion_lon": 0.0, "is_reserved": 0, "name": "042a54039e6b90f4fe9b3103c5857975", "type": "electric_scooter", "bike_id": "042a54039e6b90f4fe9b3103c5857975", "rental_uris": {"ios": "https://dc.lft.to/lastmile_qr_scan", "android": "https://dc.lft.to/lastmile_qr_scan"}, "fusion_lat": 0.0}, {"lat": 38.898114, "lon": -77.0152105, "is_disabled": 0, "fusion_lon": 0.0, "is_reserved": 0, "name": "5c9d8df8cd24363a599cf950c2c7e56f", "type": "electric_scooter", "bike_id": "5c9d8df8cd24363a599cf950c2c7e56f", "rental_uris": {"ios": "https://dc.lft.to/lastmile_qr_scan", "android": "https://dc.lft.to/lastmile_qr_scan"}, "fusion_lat": 0.0}, {"lat": 38.8977105, "lon": -76.98465316666666, "is_disabled": 0, "fusion_lon": 0.0, "is_reserved": 0, "name": "e3ca7883def25d709561c9453c8dca03", "type": "electric_scooter", "bike_id": "e3ca7883def25d709561c9453c8dca03", "rental_uris": {"ios": "https://dc.lft.to/lastmile_qr_scan", "android": "https://dc.lft.to/lastmile_qr_scan"}, "fusion_lat": 0.0}, {"lat": 38.876579666666665, "lon": -76.99458883333334, "is_disabled": 0, "fusion_lon": 0.0, "is_reserved": 0, "name": "2fa175e4f8a5fbd62d7bdfdf0f3887cd", "type": "electric_scooter", "bike_id": "2fa175e4f8a5fbd62d7bdfdf0f3887cd", "rental_uris": {"ios": "https://dc.lft.to/lastmile_qr_scan", "android": "https://dc.lft.to/lastmile_qr_scan"}, "fusion_lat": 0.0}, {"lat": 38.92099016666667, "lon": -77.02550366666667, "is_disabled": 0, "fusion_lon": 0.0, "is_reserved": 0, "name": "1ccf243b72eaf81453bc69f4a6cead64", "type": "electric_scooter", "bike_id": "1ccf243b72eaf81453bc69f4a6cead64", "rental_uris": {"ios": "https://dc.lft.to/lastmile_qr_scan", "android": "https://dc.lft.to/lastmile_qr_scan"}, "fusion_lat": 0.0}, {"lat": 38.9042865, "lon": -77.02771733333333, "is_disabled": 0, "fusion_lon": 0.0, "is_reserved": 0, "name": "abffb58a7d131bf7d944928471ff5174", "type": "electric_scooter", "bike_id": "abffb58a7d131bf7d944928471ff5174", "rental_uris": {"ios": "https://dc.lft.to/lastmile_qr_scan", "android": "https://dc.lft.to/lastmile_qr_scan"}, "fusion_lat": 0.0}, {"lat": 38.91405983333333, "lon": -77.03221966666666, "is_disabled": 0, "fusion_lon": 0.0, "is_reserved": 0, "name": "891adc96a05fb1a545bc1b6ef513dab9", "type": "electric_scooter", "bike_id": "891adc96a05fb1a545bc1b6ef513dab9", "rental_uris": {"ios": "https://dc.lft.to/lastmile_qr_scan", "android": "https://dc.lft.to/lastmile_qr_scan"}, "fusion_lat": 0.0}, {"lat": 38.9275985, "lon": -77.02774366666667, "is_disabled": 0, "fusion_lon": 0.0, "is_reserved": 0, "name": "cb3e167f5c23e93f853b6dc4f123cf1f", "type": "electric_scooter", "bike_id": "cb3e167f5c23e93f853b6dc4f123cf1f", "rental_uris": {"ios": "https://dc.lft.to/lastmile_qr_scan", "android": "https://dc.lft.to/lastmile_qr_scan"}, "fusion_lat": 0.0}, {"lat": 39.034212, "lon": -77.04285766666666, "is_disabled": 0, "fusion_lon": 0.0, "is_reserved": 0, "name": "e74878066f25d1cb2e40e4319a6caa18", "type": "electric_bike", "bike_id": "e74878066f25d1cb2e40e4319a6caa18", "rental_uris": {"ios": "https://dc.lft.to/lastmile_qr_scan", "android": "https://dc.lft.to/lastmile_qr_scan"}, "fusion_lat": 0.0}, {"lat": 38.922836333333336, "lon": -77.036623, "is_disabled": 0, "fusion_lon": 0.0, "is_reserved": 0, "name": "92300d3368d04035ec12b366b3991568", "type": "electric_scooter", "bike_id": "92300d3368d04035ec12b366b3991568", "rental_uris": {"ios": "https://dc.lft.to/lastmile_qr_scan", "android": "https://dc.lft.to/lastmile_qr_scan"}, "fusion_lat": 0.0}, {"lat": 38.9239275, "lon": -77.02736666666667, "is_disabled": 0, "fusion_lon": 0.0, "is_reserved": 0, "name": "1de176124c996d4e5265780193b9f441", "type": "electric_scooter", "bike_id": "1de176124c996d4e5265780193b9f441", "rental_uris": {"ios": "https://dc.lft.to/lastmile_qr_scan", "android": "https://dc.lft.to/lastmile_qr_scan"}, "fusion_lat": 0.0}, {"lat": 38.92063383333333, "lon": -77.04222316666667, "is_disabled": 0, "fusion_lon": 0.0, "is_reserved": 0, "name": "29babb6d1089cab96e2f4eef30d659de", "type": "electric_scooter", "bike_id": "29babb6d1089cab96e2f4eef30d659de", "rental_uris": {"ios": "https://dc.lft.to/lastmile_qr_scan", "android": "https://dc.lft.to/lastmile_qr_scan"}, "fusion_lat": 0.0}, {"lat": 38.923826166666665, "lon": -77.0304855, "is_disabled": 0, "fusion_lon": 0.0, "is_reserved": 0, "name": "d241e2cd4c29168952f63239c3ea868d", "type": "electric_scooter", "bike_id": "d241e2cd4c29168952f63239c3ea868d", "rental_uris": {"ios": "https://dc.lft.to/lastmile_qr_scan", "android": "https://dc.lft.to/lastmile_qr_scan"}, "fusion_lat": 0.0}, {"lat": 38.85333583333333, "lon": -77.11503066666667, "is_disabled": 0, "fusion_lon": 0.0, "is_reserved": 0, "name": "14ee3b34a9a095feb917bcbcf4dc11de", "type": "electric_bike", "bike_id": "14ee3b34a9a095feb917bcbcf4dc11de", "rental_uris": {"ios": "https://dc.lft.to/lastmile_qr_scan", "android": "https://dc.lft.to/lastmile_qr_scan"}, "fusion_lat": 0.0}, {"lat": 38.922805333333336, "lon": -77.03655516666667, "is_disabled": 0, "fusion_lon": 0.0, "is_reserved": 0, "name": "6e43ef68933030e293b3949d89f5ea47", "type": "electric_scooter", "bike_id": "6e43ef68933030e293b3949d89f5ea47", "rental_uris": {"ios": "https://dc.lft.to/lastmile_qr_scan", "android": "https://dc.lft.to/lastmile_qr_scan"}, "fusion_lat": 0.0}, {"lat": 38.92329466666666, "lon": -77.02287533333333, "is_disabled": 0, "fusion_lon": 0.0, "is_reserved": 0, "name": "11b1ca2571aa7807a5ef0ff64e461bfb", "type": "electric_scooter", "bike_id": "11b1ca2571aa7807a5ef0ff64e461bfb", "rental_uris": {"ios": "https://dc.lft.to/lastmile_qr_scan", "android": "https://dc.lft.to/lastmile_qr_scan"}, "fusion_lat": 0.0}, {"lat": 38.9212695, "lon": -77.04561083333333, "is_disabled": 0, "fusion_lon": 0.0, "is_reserved": 0, "name": "c7d9df91141f6d592f534569f32c3e0a", "type": "electric_scooter", "bike_id": "c7d9df91141f6d592f534569f32c3e0a", "rental_uris": {"ios": "https://dc.lft.to/lastmile_qr_scan", "android": "https://dc.lft.to/lastmile_qr_scan"}, "fusion_lat": 0.0}, {"lat": 38.86059616666667, "lon": -76.96713383333334, "is_disabled": 0, "fusion_lon": 0.0, "is_reserved": 0, "name": "6c10a5a5b5084bd0a2e35517e0f090ed", "type": "electric_scooter", "bike_id": "6c10a5a5b5084bd0a2e35517e0f090ed", "rental_uris": {"ios": "https://dc.lft.to/lastmile_qr_scan", "android": "https://dc.lft.to/lastmile_qr_scan"}, "fusion_lat": 0.0}, {"lat": 38.867509166666665, "lon": -76.94528933333333, "is_disabled": 0, "fusion_lon": 0.0, "is_reserved": 0, "name": "d2441d534c9d12dc309ba097cbdf1b3e", "type": "electric_bike", "bike_id": "d2441d534c9d12dc309ba097cbdf1b3e", "rental_uris": {"ios": "https://dc.lft.to/lastmile_qr_scan", "android": "https://dc.lft.to/lastmile_qr_scan"}, "fusion_lat": 0.0}, {"lat": 38.90640366666667, "lon": -77.01432666666666, "is_disabled": 0, "fusion_lon": 0.0, "is_reserved": 0, "name": "eaa98d436e5785d420e4042f4ae7dc20", "type": "electric_scooter", "bike_id": "eaa98d436e5785d420e4042f4ae7dc20", "rental_uris": {"ios": "https://dc.lft.to/lastmile_qr_scan", "android": "https://dc.lft.to/lastmile_qr_scan"}, "fusion_lat": 0.0}, {"lat": 38.893887666666664, "lon": -76.92306066666667, "is_disabled": 0, "fusion_lon": 0.0, "is_reserved": 0, "name": "b3c605d2856649a921378b8ac0351810", "type": "electric_scooter", "bike_id": "b3c605d2856649a921378b8ac0351810", "rental_uris": {"ios": "https://dc.lft.to/lastmile_qr_scan", "android": "https://dc.lft.to/lastmile_qr_scan"}, "fusion_lat": 0.0}, {"lat": 38.8766875, "lon": -76.99271083333333, "is_disabled": 0, "fusion_lon": 0.0, "is_reserved": 0, "name": "4e6dd54dcfee20b151dda0b14eec80de", "type": "electric_scooter", "bike_id": "4e6dd54dcfee20b151dda0b14eec80de", "rental_uris": {"ios": "https://dc.lft.to/lastmile_qr_scan", "android": "https://dc.lft.to/lastmile_qr_scan"}, "fusion_lat": 0.0}, {"lat": 38.9647195, "lon": -77.03568816666667, "is_disabled": 0, "fusion_lon": 0.0, "is_reserved": 0, "name": "9a41444cb5976ce5d469eca482d3c2ba", "type": "electric_bike", "bike_id": "9a41444cb5976ce5d469eca482d3c2ba", "rental_uris": {"ios": "https://dc.lft.to/lastmile_qr_scan", "android": "https://dc.lft.to/lastmile_qr_scan"}, "fusion_lat": 0.0}, {"lat": 38.90438816666666, "lon": -77.02845316666667, "is_disabled": 0, "fusion_lon": 0.0, "is_reserved": 0, "name": "84fa57b07b6709cd59cd0d6a5e6579d6", "type": "electric_scooter", "bike_id": "84fa57b07b6709cd59cd0d6a5e6579d6", "rental_uris": {"ios": "https://dc.lft.to/lastmile_qr_scan", "android": "https://dc.lft.to/lastmile_qr_scan"}, "fusion_lat": 0.0}, {"lat": 38.90012333333333, "lon": -76.98905916666666, "is_disabled": 0, "fusion_lon": 0.0, "is_reserved": 0, "name": "3b121186fb02ea14001585a458760790", "type": "electric_scooter", "bike_id": "3b121186fb02ea14001585a458760790", "rental_uris": {"ios": "https://dc.lft.to/lastmile_qr_scan", "android": "https://dc.lft.to/lastmile_qr_scan"}, "fusion_lat": 0.0}, {"lat": 38.95359716666667, "lon": -76.98097233333333, "is_disabled": 0, "fusion_lon": 0.0, "is_reserved": 0, "name": "287dce390a61aa9b1a2434b854955d25", "type": "electric_bike", "bike_id": "287dce390a61aa9b1a2434b854955d25", "rental_uris": {"ios": "https://dc.lft.to/lastmile_qr_scan", "android": "https://dc.lft.to/lastmile_qr_scan"}, "fusion_lat": 0.0}, {"lat": 38.92455183333333, "lon": -77.03962366666667, "is_disabled": 0, "fusion_lon": 0.0, "is_reserved": 0, "name": "31c4b81a5645e65b9a2d1e690fd2c910", "type": "electric_scooter", "bike_id": "31c4b81a5645e65b9a2d1e690fd2c910", "rental_uris": {"ios": "https://dc.lft.to/lastmile_qr_scan", "android": "https://dc.lft.to/lastmile_qr_scan"}, "fusion_lat": 0.0}, {"lat": 38.933225666666665, "lon": -77.0327005, "is_disabled": 0, "fusion_lon": 0.0, "is_reserved": 0, "name": "ee6cc3af9cb5d6bd5e92b2c0ea91cc72", "type": "electric_scooter", "bike_id": "ee6cc3af9cb5d6bd5e92b2c0ea91cc72", "rental_uris": {"ios": "https://dc.lft.to/lastmile_qr_scan", "android": "https://dc.lft.to/lastmile_qr_scan"}, "fusion_lat": 0.0}, {"lat": 38.94336916666666, "lon": -76.98314, "is_disabled": 0, "fusion_lon": 0.0, "is_reserved": 0, "name": "a1deca54cc774586ee7cbf3e256ce1e3", "type": "electric_scooter", "bike_id": "a1deca54cc774586ee7cbf3e256ce1e3", "rental_uris": {"ios": "https://dc.lft.to/lastmile_qr_scan", "android": "https://dc.lft.to/lastmile_qr_scan"}, "fusion_lat": 0.0}, {"lat": 38.919179666666665, "lon": -77.03199383333333, "is_disabled": 0, "fusion_lon": 0.0, "is_reserved": 0, "name": "6dbbcc63a6113fb202fa0ef8c25e4f35", "type": "electric_scooter", "bike_id": "6dbbcc63a6113fb202fa0ef8c25e4f35", "rental_uris": {"ios": "https://dc.lft.to/lastmile_qr_scan", "android": "https://dc.lft.to/lastmile_qr_scan"}, "fusion_lat": 0.0}, {"lat": 38.875415333333336, "lon": -77.00538466666667, "is_disabled": 0, "fusion_lon": 0.0, "is_reserved": 0, "name": "512e93a6f82a7edf246ba214d3cc6b0a", "type": "electric_scooter", "bike_id": "512e93a6f82a7edf246ba214d3cc6b0a", "rental_uris": {"ios": "https://dc.lft.to/lastmile_qr_scan", "android": "https://dc.lft.to/lastmile_qr_scan"}, "fusion_lat": 0.0}, {"lat": 38.923432166666665, "lon": -77.05182616666667, "is_disabled": 0, "fusion_lon": 0.0, "is_reserved": 0, "name": "a45440609ab016955ca4bd0eea2c2591", "type": "electric_scooter", "bike_id": "a45440609ab016955ca4bd0eea2c2591", "rental_uris": {"ios": "https://dc.lft.to/lastmile_qr_scan", "android": "https://dc.lft.to/lastmile_qr_scan"}, "fusion_lat": 0.0}, {"lat": 38.914254166666666, "lon": -77.03190683333334, "is_disabled": 0, "fusion_lon": 0.0, "is_reserved": 0, "name": "becfd348238d3d420fb4d4c4b680394b", "type": "electric_scooter", "bike_id": "becfd348238d3d420fb4d4c4b680394b", "rental_uris": {"ios": "https://dc.lft.to/lastmile_qr_scan", "android": "https://dc.lft.to/lastmile_qr_scan"}, "fusion_lat": 0.0}, {"lat": 38.9660725, "lon": -77.027409, "is_disabled": 0, "fusion_lon": 0.0, "is_reserved": 0, "name": "fdc1374511a2b5dd9c5038d48b917dbe", "type": "electric_scooter", "bike_id": "fdc1374511a2b5dd9c5038d48b917dbe", "rental_uris": {"ios": "https://dc.lft.to/lastmile_qr_scan", "android": "https://dc.lft.to/lastmile_qr_scan"}, "fusion_lat": 0.0}, {"lat": 38.87704166666666, "lon": -77.00329466666666, "is_disabled": 0, "fusion_lon": 0.0, "is_reserved": 0, "name": "8f83c5f472c1207149b6d15d7823d58f", "type": "electric_scooter", "bike_id": "8f83c5f472c1207149b6d15d7823d58f", "rental_uris": {"ios": "https://dc.lft.to/lastmile_qr_scan", "android": "https://dc.lft.to/lastmile_qr_scan"}, "fusion_lat": 0.0}, {"lat": 38.91702633333333, "lon": -77.03089933333334, "is_disabled": 0, "fusion_lon": 0.0, "is_reserved": 0, "name": "f50fce31c72b7deabadf116a09314e01", "type": "electric_scooter", "bike_id": "f50fce31c72b7deabadf116a09314e01", "rental_uris": {"ios": "https://dc.lft.to/lastmile_qr_scan", "android": "https://dc.lft.to/lastmile_qr_scan"}, "fusion_lat": 0.0}, {"lat": 38.914228333333334, "lon": -77.01798, "is_disabled": 0, "fusion_lon": 0.0, "is_reserved": 0, "name": "07ae05e69c12109234d793b40eb54d63", "type": "electric_scooter", "bike_id": "07ae05e69c12109234d793b40eb54d63", "rental_uris": {"ios": "https://dc.lft.to/lastmile_qr_scan", "android": "https://dc.lft.to/lastmile_qr_scan"}, "fusion_lat": 0.0}, {"lat": 38.93875366666666, "lon": -77.0248195, "is_disabled": 0, "fusion_lon": 0.0, "is_reserved": 0, "name": "d27c5a079fb123d9baab6c76c641a8eb", "type": "electric_scooter", "bike_id": "d27c5a079fb123d9baab6c76c641a8eb", "rental_uris": {"ios": "https://dc.lft.to/lastmile_qr_scan", "android": "https://dc.lft.to/lastmile_qr_scan"}, "fusion_lat": 0.0}, {"lat": 38.899649, "lon": -77.02195266666666, "is_disabled": 0, "fusion_lon": 0.0, "is_reserved": 0, "name": "31df01f0edd0bf1c37fe84a80842c56a", "type": "electric_scooter", "bike_id": "31df01f0edd0bf1c37fe84a80842c56a", "rental_uris": {"ios": "https://dc.lft.to/lastmile_qr_scan", "android": "https://dc.lft.to/lastmile_qr_scan"}, "fusion_lat": 0.0}, {"lat": 38.89662766666667, "lon": -76.98833266666666, "is_disabled": 0, "fusion_lon": 0.0, "is_reserved": 0, "name": "6d89f6d01e5d8b7491cccdfdb8326a65", "type": "electric_scooter", "bike_id": "6d89f6d01e5d8b7491cccdfdb8326a65", "rental_uris": {"ios": "https://dc.lft.to/lastmile_qr_scan", "android": "https://dc.lft.to/lastmile_qr_scan"}, "fusion_lat": 0.0}, {"lat": 38.855117, "lon": -76.98422616666667, "is_disabled": 0, "fusion_lon": 0.0, "is_reserved": 0, "name": "9a91eb5275ed73ab9792c3fef9025932", "type": "electric_bike", "bike_id": "9a91eb5275ed73ab9792c3fef9025932", "rental_uris": {"ios": "https://dc.lft.to/lastmile_qr_scan", "android": "https://dc.lft.to/lastmile_qr_scan"}, "fusion_lat": 0.0}, {"lat": 38.92555483333334, "lon": -77.05284066666667, "is_disabled": 0, "fusion_lon": 0.0, "is_reserved": 0, "name": "da48acac86c9ef941d853a6b3603de9e", "type": "electric_scooter", "bike_id": "da48acac86c9ef941d853a6b3603de9e", "rental_uris": {"ios": "https://dc.lft.to/lastmile_qr_scan", "android": "https://dc.lft.to/lastmile_qr_scan"}, "fusion_lat": 0.0}, {"lat": 38.896958833333336, "lon": -77.02656883333333, "is_disabled": 0, "fusion_lon": 0.0, "is_reserved": 0, "name": "159f025f9c37df4bf674b7182a43e3d0", "type": "electric_scooter", "bike_id": "159f025f9c37df4bf674b7182a43e3d0", "rental_uris": {"ios": "https://dc.lft.to/lastmile_qr_scan", "android": "https://dc.lft.to/lastmile_qr_scan"}, "fusion_lat": 0.0}, {"lat": 38.91817733333333, "lon": -77.04177783333333, "is_disabled": 0, "fusion_lon": 0.0, "is_reserved": 0, "name": "202d100ce117999a3f390adac9241491", "type": "electric_scooter", "bike_id": "202d100ce117999a3f390adac9241491", "rental_uris": {"ios": "https://dc.lft.to/lastmile_qr_scan", "android": "https://dc.lft.to/lastmile_qr_scan"}, "fusion_lat": 0.0}, {"lat": 38.92117233333333, "lon": -77.04126233333334, "is_disabled": 0, "fusion_lon": 0.0, "is_reserved": 0, "name": "8802194720cdb661242f0c1280d96680", "type": "electric_scooter", "bike_id": "8802194720cdb661242f0c1280d96680", "rental_uris": {"ios": "https://dc.lft.to/lastmile_qr_scan", "android": "https://dc.lft.to/lastmile_qr_scan"}, "fusion_lat": 0.0}, {"lat": 38.9181735, "lon": -77.04173183333333, "is_disabled": 0, "fusion_lon": 0.0, "is_reserved": 0, "name": "cc06b0db9b9ed6b807540786ab37f5fd", "type": "electric_scooter", "bike_id": "cc06b0db9b9ed6b807540786ab37f5fd", "rental_uris": {"ios": "https://dc.lft.to/lastmile_qr_scan", "android": "https://dc.lft.to/lastmile_qr_scan"}, "fusion_lat": 0.0}, {"lat": 38.95634866666666, "lon": -77.0231695, "is_disabled": 0, "fusion_lon": 0.0, "is_reserved": 0, "name": "770c2b7c912de3dac1a54cf0a0755d9e", "type": "electric_bike", "bike_id": "770c2b7c912de3dac1a54cf0a0755d9e", "rental_uris": {"ios": "https://dc.lft.to/lastmile_qr_scan", "android": "https://dc.lft.to/lastmile_qr_scan"}, "fusion_lat": 0.0}, {"lat": 38.9170865, "lon": -77.0333525, "is_disabled": 0, "fusion_lon": 0.0, "is_reserved": 0, "name": "ae0687f93e33473ebbaa84c0f97c2b84", "type": "electric_scooter", "bike_id": "ae0687f93e33473ebbaa84c0f97c2b84", "rental_uris": {"ios": "https://dc.lft.to/lastmile_qr_scan", "android": "https://dc.lft.to/lastmile_qr_scan"}, "fusion_lat": 0.0}, {"lat": 38.92802233333333, "lon": -77.0271635, "is_disabled": 0, "fusion_lon": 0.0, "is_reserved": 0, "name": "42cf576e530e7372642b448010c121d2", "type": "electric_scooter", "bike_id": "42cf576e530e7372642b448010c121d2", "rental_uris": {"ios": "https://dc.lft.to/lastmile_qr_scan", "android": "https://dc.lft.to/lastmile_qr_scan"}, "fusion_lat": 0.0}, {"lat": 38.9191285, "lon": -77.03261866666666, "is_disabled": 0, "fusion_lon": 0.0, "is_reserved": 0, "name": "cae772b2a8d20d4883e81c3cee18eda4", "type": "electric_scooter", "bike_id": "cae772b2a8d20d4883e81c3cee18eda4", "rental_uris": {"ios": "https://dc.lft.to/lastmile_qr_scan", "android": "https://dc.lft.to/lastmile_qr_scan"}, "fusion_lat": 0.0}, {"lat": 38.870228, "lon": -77.228972, "is_disabled": 0, "fusion_lon": 0.0, "is_reserved": 0, "name": "6d6bad7124ae9c11b298b383fd8e25e0", "type": "electric_bike", "bike_id": "6d6bad7124ae9c11b298b383fd8e25e0", "rental_uris": {"ios": "https://dc.lft.to/lastmile_qr_scan", "android": "https://dc.lft.to/lastmile_qr_scan"}, "fusion_lat": 0.0}, {"lat": 38.92070916666667, "lon": -77.0242595, "is_disabled": 0, "fusion_lon": 0.0, "is_reserved": 0, "name": "950f66707b5d9a12dcef90712bf230cf", "type": "electric_bike", "bike_id": "950f66707b5d9a12dcef90712bf230cf", "rental_uris": {"ios": "https://dc.lft.to/lastmile_qr_scan", "android": "https://dc.lft.to/lastmile_qr_scan"}, "fusion_lat": 0.0}, {"lat": 38.942718666666664, "lon": -77.03259433333334, "is_disabled": 0, "fusion_lon": 0.0, "is_reserved": 0, "name": "e2faa844a31382c7c1004bee5ce13bfe", "type": "electric_scooter", "bike_id": "e2faa844a31382c7c1004bee5ce13bfe", "rental_uris": {"ios": "https://dc.lft.to/lastmile_qr_scan", "android": "https://dc.lft.to/lastmile_qr_scan"}, "fusion_lat": 0.0}, {"lat": 38.90722316666667, "lon": -77.02518783333333, "is_disabled": 0, "fusion_lon": 0.0, "is_reserved": 0, "name": "2e0cf76295d491e74b9d5986fb2a8334", "type": "electric_scooter", "bike_id": "2e0cf76295d491e74b9d5986fb2a8334", "rental_uris": {"ios": "https://dc.lft.to/lastmile_qr_scan", "android": "https://dc.lft.to/lastmile_qr_scan"}, "fusion_lat": 0.0}, {"lat": 38.896393333333336, "lon": -77.01333983333333, "is_disabled": 0, "fusion_lon": 0.0, "is_reserved": 0, "name": "c3c2f81fd20adc599624f20a77f0e506", "type": "electric_scooter", "bike_id": "c3c2f81fd20adc599624f20a77f0e506", "rental_uris": {"ios": "https://dc.lft.to/lastmile_qr_scan", "android": "https://dc.lft.to/lastmile_qr_scan"}, "fusion_lat": 0.0}, {"lat": 38.973497333333334, "lon": -77.027862, "is_disabled": 0, "fusion_lon": 0.0, "is_reserved": 0, "name": "4ca4a0e33fbfc465ba8169a3ed3b01a7", "type": "electric_scooter", "bike_id": "4ca4a0e33fbfc465ba8169a3ed3b01a7", "rental_uris": {"ios": "https://dc.lft.to/lastmile_qr_scan", "android": "https://dc.lft.to/lastmile_qr_scan"}, "fusion_lat": 0.0}, {"lat": 38.9073895, "lon": -77.03304316666667, "is_disabled": 0, "fusion_lon": 0.0, "is_reserved": 0, "name": "06ce73720f960de8161c513b3a44c088", "type": "electric_scooter", "bike_id": "06ce73720f960de8161c513b3a44c088", "rental_uris": {"ios": "https://dc.lft.to/lastmile_qr_scan", "android": "https://dc.lft.to/lastmile_qr_scan"}, "fusion_lat": 0.0}, {"lat": 38.90803366666667, "lon": -77.029521, "is_disabled": 0, "fusion_lon": 0.0, "is_reserved": 0, "name": "cfae592d763c0538b6fba1a9b3a9b93b", "type": "electric_scooter", "bike_id": "cfae592d763c0538b6fba1a9b3a9b93b", "rental_uris": {"ios": "https://dc.lft.to/lastmile_qr_scan", "android": "https://dc.lft.to/lastmile_qr_scan"}, "fusion_lat": 0.0}, {"lat": 38.925507, "lon": -77.00068683333333, "is_disabled": 0, "fusion_lon": 0.0, "is_reserved": 0, "name": "205c84693a3cc0f08cfa8adf60fbd295", "type": "electric_scooter", "bike_id": "205c84693a3cc0f08cfa8adf60fbd295", "rental_uris": {"ios": "https://dc.lft.to/lastmile_qr_scan", "android": "https://dc.lft.to/lastmile_qr_scan"}, "fusion_lat": 0.0}, {"lat": 38.90557, "lon": -77.02497083333333, "is_disabled": 0, "fusion_lon": 0.0, "is_reserved": 0, "name": "a8fe6f19cec94e5162706bb0f1285f1f", "type": "electric_scooter", "bike_id": "a8fe6f19cec94e5162706bb0f1285f1f", "rental_uris": {"ios": "https://dc.lft.to/lastmile_qr_scan", "android": "https://dc.lft.to/lastmile_qr_scan"}, "fusion_lat": 0.0}, {"lat": 38.92105983333333, "lon": -77.03255216666666, "is_disabled": 0, "fusion_lon": 0.0, "is_reserved": 0, "name": "97fbeffb6dc04ae106f3afc75185a5ea", "type": "electric_scooter", "bike_id": "97fbeffb6dc04ae106f3afc75185a5ea", "rental_uris": {"ios": "https://dc.lft.to/lastmile_qr_scan", "android": "https://dc.lft.to/lastmile_qr_scan"}, "fusion_lat": 0.0}, {"lat": 38.909276, "lon": -76.999785, "is_disabled": 0, "fusion_lon": 0.0, "is_reserved": 0, "name": "cdb93995693ea8f7051554cb78f37e77", "type": "electric_scooter", "bike_id": "cdb93995693ea8f7051554cb78f37e77", "rental_uris": {"ios": "https://dc.lft.to/lastmile_qr_scan", "android": "https://dc.lft.to/lastmile_qr_scan"}, "fusion_lat": 0.0}, {"lat": 38.917957, "lon": -77.03442366666667, "is_disabled": 0, "fusion_lon": 0.0, "is_reserved": 0, "name": "62e7c6ee6ccb20367f3b0e09ae4ed08f", "type": "electric_scooter", "bike_id": "62e7c6ee6ccb20367f3b0e09ae4ed08f", "rental_uris": {"ios": "https://dc.lft.to/lastmile_qr_scan", "android": "https://dc.lft.to/lastmile_qr_scan"}, "fusion_lat": 0.0}, {"lat": 38.90032, "lon": -76.9985955, "is_disabled": 0, "fusion_lon": 0.0, "is_reserved": 0, "name": "726bd4d364e2a958a72042b7b511bb2f", "type": "electric_scooter", "bike_id": "726bd4d364e2a958a72042b7b511bb2f", "rental_uris": {"ios": "https://dc.lft.to/lastmile_qr_scan", "android": "https://dc.lft.to/lastmile_qr_scan"}, "fusion_lat": 0.0}, {"lat": 38.918949166666664, "lon": -77.03182816666667, "is_disabled": 0, "fusion_lon": 0.0, "is_reserved": 0, "name": "cbc4bf6ba7d1e75b060b27f918954a29", "type": "electric_scooter", "bike_id": "cbc4bf6ba7d1e75b060b27f918954a29", "rental_uris": {"ios": "https://dc.lft.to/lastmile_qr_scan", "android": "https://dc.lft.to/lastmile_qr_scan"}, "fusion_lat": 0.0}, {"lat": 38.893465166666665, "lon": -76.95229616666667, "is_disabled": 0, "fusion_lon": 0.0, "is_reserved": 0, "name": "9eba18a0b211e53442bea287b3fcc005", "type": "electric_scooter", "bike_id": "9eba18a0b211e53442bea287b3fcc005", "rental_uris": {"ios": "https://dc.lft.to/lastmile_qr_scan", "android": "https://dc.lft.to/lastmile_qr_scan"}, "fusion_lat": 0.0}, {"lat": 38.92951716666666, "lon": -77.04405366666667, "is_disabled": 0, "fusion_lon": 0.0, "is_reserved": 0, "name": "d14d60b47a374e1a6074a556fb052a11", "type": "electric_scooter", "bike_id": "d14d60b47a374e1a6074a556fb052a11", "rental_uris": {"ios": "https://dc.lft.to/lastmile_qr_scan", "android": "https://dc.lft.to/lastmile_qr_scan"}, "fusion_lat": 0.0}, {"lat": 38.90013183333333, "lon": -77.000646, "is_disabled": 0, "fusion_lon": 0.0, "is_reserved": 0, "name": "6ea4f863534ff564f751d70684760f48", "type": "electric_scooter", "bike_id": "6ea4f863534ff564f751d70684760f48", "rental_uris": {"ios": "https://dc.lft.to/lastmile_qr_scan", "android": "https://dc.lft.to/lastmile_qr_scan"}, "fusion_lat": 0.0}, {"lat": 38.889925166666664, "lon": -76.91415983333333, "is_disabled": 0, "fusion_lon": 0.0, "is_reserved": 0, "name": "4990d0af2ca99733269c3b686b7ab6a9", "type": "electric_scooter", "bike_id": "4990d0af2ca99733269c3b686b7ab6a9", "rental_uris": {"ios": "https://dc.lft.to/lastmile_qr_scan", "android": "https://dc.lft.to/lastmile_qr_scan"}, "fusion_lat": 0.0}, {"lat": 38.929694166666664, "lon": -77.024033, "is_disabled": 0, "fusion_lon": 0.0, "is_reserved": 0, "name": "a5b60ba342f95965335f5df086036ea8", "type": "electric_bike", "bike_id": "a5b60ba342f95965335f5df086036ea8", "rental_uris": {"ios": "https://dc.lft.to/lastmile_qr_scan", "android": "https://dc.lft.to/lastmile_qr_scan"}, "fusion_lat": 0.0}, {"lat": 38.90617866666667, "lon": -77.00552933333333, "is_disabled": 0, "fusion_lon": 0.0, "is_reserved": 0, "name": "2d6e91bfa08e46554f9009ab79e48fdd", "type": "electric_scooter", "bike_id": "2d6e91bfa08e46554f9009ab79e48fdd", "rental_uris": {"ios": "https://dc.lft.to/lastmile_qr_scan", "android": "https://dc.lft.to/lastmile_qr_scan"}, "fusion_lat": 0.0}, {"lat": 38.9304335, "lon": -77.0729965, "is_disabled": 0, "fusion_lon": 0.0, "is_reserved": 0, "name": "a62249d4193096866a743874e57d344a", "type": "electric_scooter", "bike_id": "a62249d4193096866a743874e57d344a", "rental_uris": {"ios": "https://dc.lft.to/lastmile_qr_scan", "android": "https://dc.lft.to/lastmile_qr_scan"}, "fusion_lat": 0.0}, {"lat": 38.907557833333335, "lon": -77.030769, "is_disabled": 0, "fusion_lon": 0.0, "is_reserved": 0, "name": "8def7f93e6b46ad9f9c41f1e8cae449e", "type": "electric_scooter", "bike_id": "8def7f93e6b46ad9f9c41f1e8cae449e", "rental_uris": {"ios": "https://dc.lft.to/lastmile_qr_scan", "android": "https://dc.lft.to/lastmile_qr_scan"}, "fusion_lat": 0.0}, {"lat": 38.92618483333333, "lon": -77.03699666666667, "is_disabled": 0, "fusion_lon": 0.0, "is_reserved": 0, "name": "865e1491ba8135137b9b9984465cefc4", "type": "electric_scooter", "bike_id": "865e1491ba8135137b9b9984465cefc4", "rental_uris": {"ios": "https://dc.lft.to/lastmile_qr_scan", "android": "https://dc.lft.to/lastmile_qr_scan"}, "fusion_lat": 0.0}, {"lat": 38.93324616666666, "lon": -77.03273783333333, "is_disabled": 0, "fusion_lon": 0.0, "is_reserved": 0, "name": "fe72c830abacad1fda07d74ff56cf293", "type": "electric_scooter", "bike_id": "fe72c830abacad1fda07d74ff56cf293", "rental_uris": {"ios": "https://dc.lft.to/lastmile_qr_scan", "android": "https://dc.lft.to/lastmile_qr_scan"}, "fusion_lat": 0.0}, {"lat": 38.896953333333336, "lon": -77.04327116666667, "is_disabled": 0, "fusion_lon": 0.0, "is_reserved": 0, "name": "93825d9f488e9ec87dbbf9abb606fee0", "type": "electric_scooter", "bike_id": "93825d9f488e9ec87dbbf9abb606fee0", "rental_uris": {"ios": "https://dc.lft.to/lastmile_qr_scan", "android": "https://dc.lft.to/lastmile_qr_scan"}, "fusion_lat": 0.0}, {"lat": 38.90253766666667, "lon": -77.01770783333333, "is_disabled": 0, "fusion_lon": 0.0, "is_reserved": 0, "name": "e7433368c187c2188072e6ffca3ec54c", "type": "electric_scooter", "bike_id": "e7433368c187c2188072e6ffca3ec54c", "rental_uris": {"ios": "https://dc.lft.to/lastmile_qr_scan", "android": "https://dc.lft.to/lastmile_qr_scan"}, "fusion_lat": 0.0}, {"lat": 38.948031666666665, "lon": -76.95970016666666, "is_disabled": 0, "fusion_lon": 0.0, "is_reserved": 0, "name": "628cb066f61be9fe95b20cd78058e728", "type": "electric_bike", "bike_id": "628cb066f61be9fe95b20cd78058e728", "rental_uris": {"ios": "https://dc.lft.to/lastmile_qr_scan", "android": "https://dc.lft.to/lastmile_qr_scan"}, "fusion_lat": 0.0}, {"lat": 38.899559333333336, "lon": -76.98557583333333, "is_disabled": 0, "fusion_lon": 0.0, "is_reserved": 0, "name": "ca69c3fb7d350d9a69574a85a5da6dd2", "type": "electric_scooter", "bike_id": "ca69c3fb7d350d9a69574a85a5da6dd2", "rental_uris": {"ios": "https://dc.lft.to/lastmile_qr_scan", "android": "https://dc.lft.to/lastmile_qr_scan"}, "fusion_lat": 0.0}, {"lat": 38.95506316666667, "lon": -77.0291745, "is_disabled": 0, "fusion_lon": 0.0, "is_reserved": 0, "name": "845506146824982a8b854184e51d6bbd", "type": "electric_bike", "bike_id": "845506146824982a8b854184e51d6bbd", "rental_uris": {"ios": "https://dc.lft.to/lastmile_qr_scan", "android": "https://dc.lft.to/lastmile_qr_scan"}, "fusion_lat": 0.0}, {"lat": 38.9143695, "lon": -77.0447245, "is_disabled": 0, "fusion_lon": 0.0, "is_reserved": 0, "name": "17426db14d114222f359b1e4776f359e", "type": "electric_scooter", "bike_id": "17426db14d114222f359b1e4776f359e", "rental_uris": {"ios": "https://dc.lft.to/lastmile_qr_scan", "android": "https://dc.lft.to/lastmile_qr_scan"}, "fusion_lat": 0.0}, {"lat": 38.92336183333333, "lon": -77.0506005, "is_disabled": 0, "fusion_lon": 0.0, "is_reserved": 0, "name": "aae626994e87be6b3070585502b3db05", "type": "electric_scooter", "bike_id": "aae626994e87be6b3070585502b3db05", "rental_uris": {"ios": "https://dc.lft.to/lastmile_qr_scan", "android": "https://dc.lft.to/lastmile_qr_scan"}, "fusion_lat": 0.0}, {"lat": 38.899005833333334, "lon": -76.99958066666667, "is_disabled": 0, "fusion_lon": 0.0, "is_reserved": 0, "name": "0963147d058c60f0617b1172e37c8421", "type": "electric_scooter", "bike_id": "0963147d058c60f0617b1172e37c8421", "rental_uris": {"ios": "https://dc.lft.to/lastmile_qr_scan", "android": "https://dc.lft.to/lastmile_qr_scan"}, "fusion_lat": 0.0}, {"lat": 38.8968745, "lon": -76.93710166666666, "is_disabled": 0, "fusion_lon": 0.0, "is_reserved": 0, "name": "3743cc4cb336ceef2478c931584efae1", "type": "electric_scooter", "bike_id": "3743cc4cb336ceef2478c931584efae1", "rental_uris": {"ios": "https://dc.lft.to/lastmile_qr_scan", "android": "https://dc.lft.to/lastmile_qr_scan"}, "fusion_lat": 0.0}, {"lat": 38.925897666666664, "lon": -77.0968115, "is_disabled": 0, "fusion_lon": 0.0, "is_reserved": 0, "name": "4c90bdfca73b68ef41b5f58fdde82ec1", "type": "electric_scooter", "bike_id": "4c90bdfca73b68ef41b5f58fdde82ec1", "rental_uris": {"ios": "https://dc.lft.to/lastmile_qr_scan", "android": "https://dc.lft.to/lastmile_qr_scan"}, "fusion_lat": 0.0}, {"lat": 38.90566833333333, "lon": -77.034505, "is_disabled": 0, "fusion_lon": 0.0, "is_reserved": 0, "name": "781d8d434ecdc1ae656b182ced15fe56", "type": "electric_scooter", "bike_id": "781d8d434ecdc1ae656b182ced15fe56", "rental_uris": {"ios": "https://dc.lft.to/lastmile_qr_scan", "android": "https://dc.lft.to/lastmile_qr_scan"}, "fusion_lat": 0.0}, {"lat": 38.9505675, "lon": -77.08025666666667, "is_disabled": 0, "fusion_lon": 0.0, "is_reserved": 0, "name": "6302b9ef1e6aacc0af385c945746f671", "type": "electric_scooter", "bike_id": "6302b9ef1e6aacc0af385c945746f671", "rental_uris": {"ios": "https://dc.lft.to/lastmile_qr_scan", "android": "https://dc.lft.to/lastmile_qr_scan"}, "fusion_lat": 0.0}, {"lat": 38.91734616666667, "lon": -77.02579733333333, "is_disabled": 0, "fusion_lon": 0.0, "is_reserved": 0, "name": "3440d82f43ebfa13b21bcdf3a8055bf0", "type": "electric_scooter", "bike_id": "3440d82f43ebfa13b21bcdf3a8055bf0", "rental_uris": {"ios": "https://dc.lft.to/lastmile_qr_scan", "android": "https://dc.lft.to/lastmile_qr_scan"}, "fusion_lat": 0.0}, {"lat": 38.93443766666667, "lon": -77.09057616666666, "is_disabled": 0, "fusion_lon": 0.0, "is_reserved": 0, "name": "4a449110fb4230252203a6c92e3368fc", "type": "electric_scooter", "bike_id": "4a449110fb4230252203a6c92e3368fc", "rental_uris": {"ios": "https://dc.lft.to/lastmile_qr_scan", "android": "https://dc.lft.to/lastmile_qr_scan"}, "fusion_lat": 0.0}, {"lat": 38.914146833333334, "lon": -77.008793, "is_disabled": 0, "fusion_lon": 0.0, "is_reserved": 0, "name": "c2d298b326bf7274224ed17d5aa73147", "type": "electric_scooter", "bike_id": "c2d298b326bf7274224ed17d5aa73147", "rental_uris": {"ios": "https://dc.lft.to/lastmile_qr_scan", "android": "https://dc.lft.to/lastmile_qr_scan"}, "fusion_lat": 0.0}, {"lat": 38.87579866666667, "lon": -77.23411466666667, "is_disabled": 0, "fusion_lon": 0.0, "is_reserved": 0, "name": "054b0d782fc6fad4c3a8112dfb1155b8", "type": "electric_bike", "bike_id": "054b0d782fc6fad4c3a8112dfb1155b8", "rental_uris": {"ios": "https://dc.lft.to/lastmile_qr_scan", "android": "https://dc.lft.to/lastmile_qr_scan"}, "fusion_lat": 0.0}, {"lat": 38.90719683333333, "lon": -77.026768, "is_disabled": 0, "fusion_lon": 0.0, "is_reserved": 0, "name": "339c420ac46db68aab97298b378052bb", "type": "electric_scooter", "bike_id": "339c420ac46db68aab97298b378052bb", "rental_uris": {"ios": "https://dc.lft.to/lastmile_qr_scan", "android": "https://dc.lft.to/lastmile_qr_scan"}, "fusion_lat": 0.0}, {"lat": 38.90570133333333, "lon": -77.0091455, "is_disabled": 0, "fusion_lon": 0.0, "is_reserved": 0, "name": "a10266c5c43988057ae2ef94d6c9de5a", "type": "electric_scooter", "bike_id": "a10266c5c43988057ae2ef94d6c9de5a", "rental_uris": {"ios": "https://dc.lft.to/lastmile_qr_scan", "android": "https://dc.lft.to/lastmile_qr_scan"}, "fusion_lat": 0.0}, {"lat": 38.899790833333334, "lon": -77.02702583333334, "is_disabled": 0, "fusion_lon": 0.0, "is_reserved": 0, "name": "d093816f1e6753a5637c37847bf387e7", "type": "electric_scooter", "bike_id": "d093816f1e6753a5637c37847bf387e7", "rental_uris": {"ios": "https://dc.lft.to/lastmile_qr_scan", "android": "https://dc.lft.to/lastmile_qr_scan"}, "fusion_lat": 0.0}, {"lat": 38.900349, "lon": -76.99831766666667, "is_disabled": 0, "fusion_lon": 0.0, "is_reserved": 0, "name": "2f7f0806a9d6bc6b190da8d1e830c36f", "type": "electric_scooter", "bike_id": "2f7f0806a9d6bc6b190da8d1e830c36f", "rental_uris": {"ios": "https://dc.lft.to/lastmile_qr_scan", "android": "https://dc.lft.to/lastmile_qr_scan"}, "fusion_lat": 0.0}, {"lat": 38.928707333333335, "lon": -77.03453733333333, "is_disabled": 0, "fusion_lon": 0.0, "is_reserved": 0, "name": "419466663a1b3071a9141bc1d855df27", "type": "electric_scooter", "bike_id": "419466663a1b3071a9141bc1d855df27", "rental_uris": {"ios": "https://dc.lft.to/lastmile_qr_scan", "android": "https://dc.lft.to/lastmile_qr_scan"}, "fusion_lat": 0.0}, {"lat": 38.911852833333334, "lon": -77.03494633333334, "is_disabled": 0, "fusion_lon": 0.0, "is_reserved": 0, "name": "b99984c0d101571a20ef5e7ae0163fd1", "type": "electric_scooter", "bike_id": "b99984c0d101571a20ef5e7ae0163fd1", "rental_uris": {"ios": "https://dc.lft.to/lastmile_qr_scan", "android": "https://dc.lft.to/lastmile_qr_scan"}, "fusion_lat": 0.0}, {"lat": 38.89908783333333, "lon": -76.94560416666667, "is_disabled": 0, "fusion_lon": 0.0, "is_reserved": 0, "name": "6d9accbb54a0d7478018ed98b8950831", "type": "electric_scooter", "bike_id": "6d9accbb54a0d7478018ed98b8950831", "rental_uris": {"ios": "https://dc.lft.to/lastmile_qr_scan", "android": "https://dc.lft.to/lastmile_qr_scan"}, "fusion_lat": 0.0}, {"lat": 38.917989166666665, "lon": -77.02486283333333, "is_disabled": 0, "fusion_lon": 0.0, "is_reserved": 0, "name": "bf3447a3f7e740a23a0b9f2ca886e887", "type": "electric_scooter", "bike_id": "bf3447a3f7e740a23a0b9f2ca886e887", "rental_uris": {"ios": "https://dc.lft.to/lastmile_qr_scan", "android": "https://dc.lft.to/lastmile_qr_scan"}, "fusion_lat": 0.0}, {"lat": 38.9152565, "lon": -77.04866, "is_disabled": 0, "fusion_lon": 0.0, "is_reserved": 0, "name": "7c871a8dff53eb38fcbb5e5f4fff9f38", "type": "electric_scooter", "bike_id": "7c871a8dff53eb38fcbb5e5f4fff9f38", "rental_uris": {"ios": "https://dc.lft.to/lastmile_qr_scan", "android": "https://dc.lft.to/lastmile_qr_scan"}, "fusion_lat": 0.0}, {"lat": 38.90233933333333, "lon": -77.04691166666667, "is_disabled": 0, "fusion_lon": 0.0, "is_reserved": 0, "name": "ec1790cfeddd40d342d8f005d96d8bdd", "type": "electric_scooter", "bike_id": "ec1790cfeddd40d342d8f005d96d8bdd", "rental_uris": {"ios": "https://dc.lft.to/lastmile_qr_scan", "android": "https://dc.lft.to/lastmile_qr_scan"}, "fusion_lat": 0.0}, {"lat": 38.87368716666667, "lon": -77.0016385, "is_disabled": 0, "fusion_lon": 0.0, "is_reserved": 0, "name": "d0c87abd8a13f71dcf8fb7bebf1205c0", "type": "electric_scooter", "bike_id": "d0c87abd8a13f71dcf8fb7bebf1205c0", "rental_uris": {"ios": "https://dc.lft.to/lastmile_qr_scan", "android": "https://dc.lft.to/lastmile_qr_scan"}, "fusion_lat": 0.0}, {"lat": 38.88434616666667, "lon": -77.01741616666666, "is_disabled": 0, "fusion_lon": 0.0, "is_reserved": 0, "name": "fa5c69b4f82d73964e508946b16946bd", "type": "electric_scooter", "bike_id": "fa5c69b4f82d73964e508946b16946bd", "rental_uris": {"ios": "https://dc.lft.to/lastmile_qr_scan", "android": "https://dc.lft.to/lastmile_qr_scan"}, "fusion_lat": 0.0}, {"lat": 38.93120966666667, "lon": -77.03034283333334, "is_disabled": 0, "fusion_lon": 0.0, "is_reserved": 0, "name": "fefed39414e1c83a936ed240b340bac3", "type": "electric_scooter", "bike_id": "fefed39414e1c83a936ed240b340bac3", "rental_uris": {"ios": "https://dc.lft.to/lastmile_qr_scan", "android": "https://dc.lft.to/lastmile_qr_scan"}, "fusion_lat": 0.0}, {"lat": 38.914637166666665, "lon": -77.03837183333333, "is_disabled": 0, "fusion_lon": 0.0, "is_reserved": 0, "name": "69e5ff7e8e192f610b20ed868a3d237c", "type": "electric_scooter", "bike_id": "69e5ff7e8e192f610b20ed868a3d237c", "rental_uris": {"ios": "https://dc.lft.to/lastmile_qr_scan", "android": "https://dc.lft.to/lastmile_qr_scan"}, "fusion_lat": 0.0}, {"lat": 38.92631216666667, "lon": -77.04199833333334, "is_disabled": 0, "fusion_lon": 0.0, "is_reserved": 0, "name": "2916cb440cd76f4e789fb71e19f3c4f6", "type": "electric_scooter", "bike_id": "2916cb440cd76f4e789fb71e19f3c4f6", "rental_uris": {"ios": "https://dc.lft.to/lastmile_qr_scan", "android": "https://dc.lft.to/lastmile_qr_scan"}, "fusion_lat": 0.0}, {"lat": 38.919197833333335, "lon": -77.023731, "is_disabled": 0, "fusion_lon": 0.0, "is_reserved": 0, "name": "57839634a495e1f7a3be6f95a0ba7e60", "type": "electric_scooter", "bike_id": "57839634a495e1f7a3be6f95a0ba7e60", "rental_uris": {"ios": "https://dc.lft.to/lastmile_qr_scan", "android": "https://dc.lft.to/lastmile_qr_scan"}, "fusion_lat": 0.0}, {"lat": 38.9191735, "lon": -77.0241285, "is_disabled": 0, "fusion_lon": 0.0, "is_reserved": 0, "name": "dff0fe1253b830fb9ce42f219ec161c1", "type": "electric_scooter", "bike_id": "dff0fe1253b830fb9ce42f219ec161c1", "rental_uris": {"ios": "https://dc.lft.to/lastmile_qr_scan", "android": "https://dc.lft.to/lastmile_qr_scan"}, "fusion_lat": 0.0}, {"lat": 38.8982765, "lon": -77.03171816666666, "is_disabled": 0, "fusion_lon": 0.0, "is_reserved": 0, "name": "1076c0ffe1329b167533b4f77919a7b8", "type": "electric_scooter", "bike_id": "1076c0ffe1329b167533b4f77919a7b8", "rental_uris": {"ios": "https://dc.lft.to/lastmile_qr_scan", "android": "https://dc.lft.to/lastmile_qr_scan"}, "fusion_lat": 0.0}, {"lat": 38.9750515, "lon": -77.01664833333334, "is_disabled": 0, "fusion_lon": 0.0, "is_reserved": 0, "name": "b851d07232c1d341a9126b7c897c1fde", "type": "electric_scooter", "bike_id": "b851d07232c1d341a9126b7c897c1fde", "rental_uris": {"ios": "https://dc.lft.to/lastmile_qr_scan", "android": "https://dc.lft.to/lastmile_qr_scan"}, "fusion_lat": 0.0}, {"lat": 38.912040166666664, "lon": -77.04123216666666, "is_disabled": 0, "fusion_lon": 0.0, "is_reserved": 0, "name": "976ef9a74199f2a1dd6eff18ac5e9336", "type": "electric_scooter", "bike_id": "976ef9a74199f2a1dd6eff18ac5e9336", "rental_uris": {"ios": "https://dc.lft.to/lastmile_qr_scan", "android": "https://dc.lft.to/lastmile_qr_scan"}, "fusion_lat": 0.0}, {"lat": 38.85084416666667, "lon": -76.95703516666667, "is_disabled": 0, "fusion_lon": 0.0, "is_reserved": 0, "name": "f9fbd92002e3f44c4d34613e71c0c160", "type": "electric_bike", "bike_id": "f9fbd92002e3f44c4d34613e71c0c160", "rental_uris": {"ios": "https://dc.lft.to/lastmile_qr_scan", "android": "https://dc.lft.to/lastmile_qr_scan"}, "fusion_lat": 0.0}, {"lat": 38.93070066666667, "lon": -77.02158783333333, "is_disabled": 0, "fusion_lon": 0.0, "is_reserved": 0, "name": "6d9ced20e4cb0190197405b65befc8b0", "type": "electric_scooter", "bike_id": "6d9ced20e4cb0190197405b65befc8b0", "rental_uris": {"ios": "https://dc.lft.to/lastmile_qr_scan", "android": "https://dc.lft.to/lastmile_qr_scan"}, "fusion_lat": 0.0}, {"lat": 38.91813916666667, "lon": -77.0417165, "is_disabled": 0, "fusion_lon": 0.0, "is_reserved": 0, "name": "e9a34946a02b8261ef666b47ba290ac6", "type": "electric_scooter", "bike_id": "e9a34946a02b8261ef666b47ba290ac6", "rental_uris": {"ios": "https://dc.lft.to/lastmile_qr_scan", "android": "https://dc.lft.to/lastmile_qr_scan"}, "fusion_lat": 0.0}, {"lat": 38.874585, "lon": -77.005404, "is_disabled": 0, "fusion_lon": 0.0, "is_reserved": 0, "name": "e68cea991172459efdd15f78af6301d1", "type": "electric_scooter", "bike_id": "e68cea991172459efdd15f78af6301d1", "rental_uris": {"ios": "https://dc.lft.to/lastmile_qr_scan", "android": "https://dc.lft.to/lastmile_qr_scan"}, "fusion_lat": 0.0}, {"lat": 38.8813075, "lon": -77.0166715, "is_disabled": 0, "fusion_lon": 0.0, "is_reserved": 0, "name": "c22c761ed5b1ec6db1a2c7d6805c2c7d", "type": "electric_scooter", "bike_id": "c22c761ed5b1ec6db1a2c7d6805c2c7d", "rental_uris": {"ios": "https://dc.lft.to/lastmile_qr_scan", "android": "https://dc.lft.to/lastmile_qr_scan"}, "fusion_lat": 0.0}, {"lat": 38.923783, "lon": -77.0352945, "is_disabled": 0, "fusion_lon": 0.0, "is_reserved": 0, "name": "4e9c3241c30dc920c0bf528ca1d1f750", "type": "electric_scooter", "bike_id": "4e9c3241c30dc920c0bf528ca1d1f750", "rental_uris": {"ios": "https://dc.lft.to/lastmile_qr_scan", "android": "https://dc.lft.to/lastmile_qr_scan"}, "fusion_lat": 0.0}, {"lat": 38.9219115, "lon": -77.04009416666666, "is_disabled": 0, "fusion_lon": 0.0, "is_reserved": 0, "name": "82b2a4a9ae708bf1c84d5b32a5dc3dfb", "type": "electric_scooter", "bike_id": "82b2a4a9ae708bf1c84d5b32a5dc3dfb", "rental_uris": {"ios": "https://dc.lft.to/lastmile_qr_scan", "android": "https://dc.lft.to/lastmile_qr_scan"}, "fusion_lat": 0.0}, {"lat": 38.91821366666667, "lon": -77.01212733333334, "is_disabled": 0, "fusion_lon": 0.0, "is_reserved": 0, "name": "b3958fe1ed4ccc51d7172888fdc684a3", "type": "electric_scooter", "bike_id": "b3958fe1ed4ccc51d7172888fdc684a3", "rental_uris": {"ios": "https://dc.lft.to/lastmile_qr_scan", "android": "https://dc.lft.to/lastmile_qr_scan"}, "fusion_lat": 0.0}, {"lat": 38.91632383333334, "lon": -77.042324, "is_disabled": 0, "fusion_lon": 0.0, "is_reserved": 0, "name": "8f6970e2cd8d97a85cadc3c5883dff10", "type": "electric_scooter", "bike_id": "8f6970e2cd8d97a85cadc3c5883dff10", "rental_uris": {"ios": "https://dc.lft.to/lastmile_qr_scan", "android": "https://dc.lft.to/lastmile_qr_scan"}, "fusion_lat": 0.0}, {"lat": 38.93896516666667, "lon": -76.98608083333333, "is_disabled": 0, "fusion_lon": 0.0, "is_reserved": 0, "name": "fdf8a33b4215355cfe3cf589d5d04002", "type": "electric_scooter", "bike_id": "fdf8a33b4215355cfe3cf589d5d04002", "rental_uris": {"ios": "https://dc.lft.to/lastmile_qr_scan", "android": "https://dc.lft.to/lastmile_qr_scan"}, "fusion_lat": 0.0}, {"lat": 38.90262333333333, "lon": -77.05316783333333, "is_disabled": 0, "fusion_lon": 0.0, "is_reserved": 0, "name": "01fb9f05ac8df75e1f70119a949680e1", "type": "electric_scooter", "bike_id": "01fb9f05ac8df75e1f70119a949680e1", "rental_uris": {"ios": "https://dc.lft.to/lastmile_qr_scan", "android": "https://dc.lft.to/lastmile_qr_scan"}, "fusion_lat": 0.0}, {"lat": 38.91771033333333, "lon": -77.0398915, "is_disabled": 0, "fusion_lon": 0.0, "is_reserved": 0, "name": "2ab43e9d2e232ab5ffb18f109f000856", "type": "electric_scooter", "bike_id": "2ab43e9d2e232ab5ffb18f109f000856", "rental_uris": {"ios": "https://dc.lft.to/lastmile_qr_scan", "android": "https://dc.lft.to/lastmile_qr_scan"}, "fusion_lat": 0.0}, {"lat": 38.897319833333334, "lon": -77.0496065, "is_disabled": 0, "fusion_lon": 0.0, "is_reserved": 0, "name": "f80a87bbecfdb637791a03ceebaffad7", "type": "electric_scooter", "bike_id": "f80a87bbecfdb637791a03ceebaffad7", "rental_uris": {"ios": "https://dc.lft.to/lastmile_qr_scan", "android": "https://dc.lft.to/lastmile_qr_scan"}, "fusion_lat": 0.0}, {"lat": 38.916974833333335, "lon": -77.03034133333334, "is_disabled": 0, "fusion_lon": 0.0, "is_reserved": 0, "name": "1a648f8cb0ae1a88734af70165bc4847", "type": "electric_scooter", "bike_id": "1a648f8cb0ae1a88734af70165bc4847", "rental_uris": {"ios": "https://dc.lft.to/lastmile_qr_scan", "android": "https://dc.lft.to/lastmile_qr_scan"}, "fusion_lat": 0.0}, {"lat": 38.905069833333336, "lon": -77.05908883333333, "is_disabled": 0, "fusion_lon": 0.0, "is_reserved": 0, "name": "d60a8c13d49bcda80aac203af4a766be", "type": "electric_scooter", "bike_id": "d60a8c13d49bcda80aac203af4a766be", "rental_uris": {"ios": "https://dc.lft.to/lastmile_qr_scan", "android": "https://dc.lft.to/lastmile_qr_scan"}, "fusion_lat": 0.0}, {"lat": 38.898471666666666, "lon": -76.942551, "is_disabled": 0, "fusion_lon": 0.0, "is_reserved": 0, "name": "3296b12cee7aa4c4c9777de3c757c18b", "type": "electric_scooter", "bike_id": "3296b12cee7aa4c4c9777de3c757c18b", "rental_uris": {"ios": "https://dc.lft.to/lastmile_qr_scan", "android": "https://dc.lft.to/lastmile_qr_scan"}, "fusion_lat": 0.0}, {"lat": 38.94261, "lon": -76.990696, "is_disabled": 0, "fusion_lon": 0.0, "is_reserved": 0, "name": "89d86d439407ad1047f0a5046a3db941", "type": "electric_bike", "bike_id": "89d86d439407ad1047f0a5046a3db941", "rental_uris": {"ios": "https://dc.lft.to/lastmile_qr_scan", "android": "https://dc.lft.to/lastmile_qr_scan"}, "fusion_lat": 0.0}, {"lat": 38.922768833333336, "lon": -76.99778266666667, "is_disabled": 0, "fusion_lon": 0.0, "is_reserved": 0, "name": "55198ae72007c9e9874c201d1479fc98", "type": "electric_scooter", "bike_id": "55198ae72007c9e9874c201d1479fc98", "rental_uris": {"ios": "https://dc.lft.to/lastmile_qr_scan", "android": "https://dc.lft.to/lastmile_qr_scan"}, "fusion_lat": 0.0}, {"lat": 38.916275166666665, "lon": -77.026946, "is_disabled": 0, "fusion_lon": 0.0, "is_reserved": 0, "name": "253c20f422f645ffb29926df28301d69", "type": "electric_scooter", "bike_id": "253c20f422f645ffb29926df28301d69", "rental_uris": {"ios": "https://dc.lft.to/lastmile_qr_scan", "android": "https://dc.lft.to/lastmile_qr_scan"}, "fusion_lat": 0.0}, {"lat": 38.90342166666667, "lon": -77.02932733333333, "is_disabled": 0, "fusion_lon": 0.0, "is_reserved": 0, "name": "ea3c977511c2822fa7d1df5a37c093a5", "type": "electric_scooter", "bike_id": "ea3c977511c2822fa7d1df5a37c093a5", "rental_uris": {"ios": "https://dc.lft.to/lastmile_qr_scan", "android": "https://dc.lft.to/lastmile_qr_scan"}, "fusion_lat": 0.0}, {"lat": 38.921104666666665, "lon": -77.23681216666667, "is_disabled": 0, "fusion_lon": 0.0, "is_reserved": 0, "name": "d5d91c8bcdfa0183992184b22bff388d", "type": "electric_bike", "bike_id": "d5d91c8bcdfa0183992184b22bff388d", "rental_uris": {"ios": "https://dc.lft.to/lastmile_qr_scan", "android": "https://dc.lft.to/lastmile_qr_scan"}, "fusion_lat": 0.0}, {"lat": 38.920611, "lon": -77.03466716666667, "is_disabled": 0, "fusion_lon": 0.0, "is_reserved": 0, "name": "e0428085d492fe42d9c0198c2c8f6bd5", "type": "electric_scooter", "bike_id": "e0428085d492fe42d9c0198c2c8f6bd5", "rental_uris": {"ios": "https://dc.lft.to/lastmile_qr_scan", "android": "https://dc.lft.to/lastmile_qr_scan"}, "fusion_lat": 0.0}, {"lat": 38.91944616666667, "lon": -77.02509483333333, "is_disabled": 0, "fusion_lon": 0.0, "is_reserved": 0, "name": "905911646f269a1e442fb672440ad296", "type": "electric_scooter", "bike_id": "905911646f269a1e442fb672440ad296", "rental_uris": {"ios": "https://dc.lft.to/lastmile_qr_scan", "android": "https://dc.lft.to/lastmile_qr_scan"}, "fusion_lat": 0.0}, {"lat": 38.918036666666666, "lon": -77.040162, "is_disabled": 0, "fusion_lon": 0.0, "is_reserved": 0, "name": "73314af22be53122795cbdb05ef4855e", "type": "electric_scooter", "bike_id": "73314af22be53122795cbdb05ef4855e", "rental_uris": {"ios": "https://dc.lft.to/lastmile_qr_scan", "android": "https://dc.lft.to/lastmile_qr_scan"}, "fusion_lat": 0.0}, {"lat": 38.899042333333334, "lon": -77.02706066666667, "is_disabled": 0, "fusion_lon": 0.0, "is_reserved": 0, "name": "224260b68cc1ead0e7f782e6b7dc32f2", "type": "electric_scooter", "bike_id": "224260b68cc1ead0e7f782e6b7dc32f2", "rental_uris": {"ios": "https://dc.lft.to/lastmile_qr_scan", "android": "https://dc.lft.to/lastmile_qr_scan"}, "fusion_lat": 0.0}, {"lat": 38.906498, "lon": -77.031629, "is_disabled": 0, "fusion_lon": 0.0, "is_reserved": 0, "name": "ca1af41d6a53b72463fbdab3bf3d00d9", "type": "electric_scooter", "bike_id": "ca1af41d6a53b72463fbdab3bf3d00d9", "rental_uris": {"ios": "https://dc.lft.to/lastmile_qr_scan", "android": "https://dc.lft.to/lastmile_qr_scan"}, "fusion_lat": 0.0}, {"lat": 38.938433833333335, "lon": -77.0338385, "is_disabled": 0, "fusion_lon": 0.0, "is_reserved": 0, "name": "c73017463f8e6908b6700795e02d333e", "type": "electric_scooter", "bike_id": "c73017463f8e6908b6700795e02d333e", "rental_uris": {"ios": "https://dc.lft.to/lastmile_qr_scan", "android": "https://dc.lft.to/lastmile_qr_scan"}, "fusion_lat": 0.0}, {"lat": 38.92758033333333, "lon": -77.032811, "is_disabled": 0, "fusion_lon": 0.0, "is_reserved": 0, "name": "61ad203f89e16afe6d595464463c7726", "type": "electric_scooter", "bike_id": "61ad203f89e16afe6d595464463c7726", "rental_uris": {"ios": "https://dc.lft.to/lastmile_qr_scan", "android": "https://dc.lft.to/lastmile_qr_scan"}, "fusion_lat": 0.0}, {"lat": 38.9433665, "lon": -77.01548866666667, "is_disabled": 0, "fusion_lon": 0.0, "is_reserved": 0, "name": "f93cae81fe830d86bdcfd5582a0fc12e", "type": "electric_scooter", "bike_id": "f93cae81fe830d86bdcfd5582a0fc12e", "rental_uris": {"ios": "https://dc.lft.to/lastmile_qr_scan", "android": "https://dc.lft.to/lastmile_qr_scan"}, "fusion_lat": 0.0}, {"lat": 38.876558333333335, "lon": -77.00326966666667, "is_disabled": 0, "fusion_lon": 0.0, "is_reserved": 0, "name": "9a62d2836552be7dd71e842cfdf8aa89", "type": "electric_scooter", "bike_id": "9a62d2836552be7dd71e842cfdf8aa89", "rental_uris": {"ios": "https://dc.lft.to/lastmile_qr_scan", "android": "https://dc.lft.to/lastmile_qr_scan"}, "fusion_lat": 0.0}, {"lat": 38.892254666666666, "lon": -77.04894083333333, "is_disabled": 0, "fusion_lon": 0.0, "is_reserved": 0, "name": "0907cadb8bb2d1ea27c6b07d8afb23d2", "type": "electric_scooter", "bike_id": "0907cadb8bb2d1ea27c6b07d8afb23d2", "rental_uris": {"ios": "https://dc.lft.to/lastmile_qr_scan", "android": "https://dc.lft.to/lastmile_qr_scan"}, "fusion_lat": 0.0}, {"lat": 38.939748, "lon": -77.03698, "is_disabled": 0, "fusion_lon": 0.0, "is_reserved": 0, "name": "433faf38320b25d637ee01a19a43acef", "type": "electric_scooter", "bike_id": "433faf38320b25d637ee01a19a43acef", "rental_uris": {"ios": "https://dc.lft.to/lastmile_qr_scan", "android": "https://dc.lft.to/lastmile_qr_scan"}, "fusion_lat": 0.0}, {"lat": 38.9470165, "lon": -77.019433, "is_disabled": 0, "fusion_lon": 0.0, "is_reserved": 0, "name": "a44f224efd3bcb78661b3b70a7553968", "type": "electric_scooter", "bike_id": "a44f224efd3bcb78661b3b70a7553968", "rental_uris": {"ios": "https://dc.lft.to/lastmile_qr_scan", "android": "https://dc.lft.to/lastmile_qr_scan"}, "fusion_lat": 0.0}, {"lat": 38.89896983333333, "lon": -76.98086433333333, "is_disabled": 0, "fusion_lon": 0.0, "is_reserved": 0, "name": "6a7cb40cd0b88b24157d4cfde978e19c", "type": "electric_scooter", "bike_id": "6a7cb40cd0b88b24157d4cfde978e19c", "rental_uris": {"ios": "https://dc.lft.to/lastmile_qr_scan", "android": "https://dc.lft.to/lastmile_qr_scan"}, "fusion_lat": 0.0}, {"lat": 38.90016383333333, "lon": -77.0393975, "is_disabled": 0, "fusion_lon": 0.0, "is_reserved": 0, "name": "12cf669daf01bd2ba511ec083ae7b485", "type": "electric_scooter", "bike_id": "12cf669daf01bd2ba511ec083ae7b485", "rental_uris": {"ios": "https://dc.lft.to/lastmile_qr_scan", "android": "https://dc.lft.to/lastmile_qr_scan"}, "fusion_lat": 0.0}, {"lat": 38.90049483333333, "lon": -77.007143, "is_disabled": 0, "fusion_lon": 0.0, "is_reserved": 0, "name": "074828b7ef2c3e8254036e8e97b732b3", "type": "electric_scooter", "bike_id": "074828b7ef2c3e8254036e8e97b732b3", "rental_uris": {"ios": "https://dc.lft.to/lastmile_qr_scan", "android": "https://dc.lft.to/lastmile_qr_scan"}, "fusion_lat": 0.0}, {"lat": 38.900068, "lon": -77.00209566666666, "is_disabled": 0, "fusion_lon": 0.0, "is_reserved": 0, "name": "59c584605c2604372c538b20a8bb86ec", "type": "electric_scooter", "bike_id": "59c584605c2604372c538b20a8bb86ec", "rental_uris": {"ios": "https://dc.lft.to/lastmile_qr_scan", "android": "https://dc.lft.to/lastmile_qr_scan"}, "fusion_lat": 0.0}, {"lat": 38.9148995, "lon": -77.04243816666667, "is_disabled": 0, "fusion_lon": 0.0, "is_reserved": 0, "name": "450865ce38de8d9b7cfe2b796987f786", "type": "electric_scooter", "bike_id": "450865ce38de8d9b7cfe2b796987f786", "rental_uris": {"ios": "https://dc.lft.to/lastmile_qr_scan", "android": "https://dc.lft.to/lastmile_qr_scan"}, "fusion_lat": 0.0}, {"lat": 38.9123705, "lon": -77.04871716666666, "is_disabled": 0, "fusion_lon": 0.0, "is_reserved": 0, "name": "fb960758773063228df0b4b3563ea5bb", "type": "electric_scooter", "bike_id": "fb960758773063228df0b4b3563ea5bb", "rental_uris": {"ios": "https://dc.lft.to/lastmile_qr_scan", "android": "https://dc.lft.to/lastmile_qr_scan"}, "fusion_lat": 0.0}, {"lat": 39.07058416666667, "lon": -77.11521916666666, "is_disabled": 0, "fusion_lon": 0.0, "is_reserved": 0, "name": "3cbe96c6274d9315ab4b41be459d75e1", "type": "electric_bike", "bike_id": "3cbe96c6274d9315ab4b41be459d75e1", "rental_uris": {"ios": "https://dc.lft.to/lastmile_qr_scan", "android": "https://dc.lft.to/lastmile_qr_scan"}, "fusion_lat": 0.0}, {"lat": 38.920728833333335, "lon": -77.0419575, "is_disabled": 0, "fusion_lon": 0.0, "is_reserved": 0, "name": "ab0ea6eaf271ed6d38e8d43568e5ca6a", "type": "electric_scooter", "bike_id": "ab0ea6eaf271ed6d38e8d43568e5ca6a", "rental_uris": {"ios": "https://dc.lft.to/lastmile_qr_scan", "android": "https://dc.lft.to/lastmile_qr_scan"}, "fusion_lat": 0.0}, {"lat": 38.915783166666664, "lon": -77.01234683333334, "is_disabled": 0, "fusion_lon": 0.0, "is_reserved": 0, "name": "a378eef2b9788c26cec5766dfcef4c22", "type": "electric_scooter", "bike_id": "a378eef2b9788c26cec5766dfcef4c22", "rental_uris": {"ios": "https://dc.lft.to/lastmile_qr_scan", "android": "https://dc.lft.to/lastmile_qr_scan"}, "fusion_lat": 0.0}, {"lat": 38.91122983333333, "lon": -77.02197316666667, "is_disabled": 0, "fusion_lon": 0.0, "is_reserved": 0, "name": "6a1c099b8529d355d5c00b2d389f98b3", "type": "electric_scooter", "bike_id": "6a1c099b8529d355d5c00b2d389f98b3", "rental_uris": {"ios": "https://dc.lft.to/lastmile_qr_scan", "android": "https://dc.lft.to/lastmile_qr_scan"}, "fusion_lat": 0.0}, {"lat": 38.9171595, "lon": -77.03249216666667, "is_disabled": 0, "fusion_lon": 0.0, "is_reserved": 0, "name": "1e07df6437b3a62922fe73656a00a1c3", "type": "electric_scooter", "bike_id": "1e07df6437b3a62922fe73656a00a1c3", "rental_uris": {"ios": "https://dc.lft.to/lastmile_qr_scan", "android": "https://dc.lft.to/lastmile_qr_scan"}, "fusion_lat": 0.0}, {"lat": 38.915519, "lon": -77.04156716666667, "is_disabled": 0, "fusion_lon": 0.0, "is_reserved": 0, "name": "971b33e9c794fee84ce229f199ee0560", "type": "electric_scooter", "bike_id": "971b33e9c794fee84ce229f199ee0560", "rental_uris": {"ios": "https://dc.lft.to/lastmile_qr_scan", "android": "https://dc.lft.to/lastmile_qr_scan"}, "fusion_lat": 0.0}, {"lat": 38.9563555, "lon": -77.01934283333334, "is_disabled": 0, "fusion_lon": 0.0, "is_reserved": 0, "name": "2f17e072f736c5a9ac27a2850a5106a5", "type": "electric_bike", "bike_id": "2f17e072f736c5a9ac27a2850a5106a5", "rental_uris": {"ios": "https://dc.lft.to/lastmile_qr_scan", "android": "https://dc.lft.to/lastmile_qr_scan"}, "fusion_lat": 0.0}, {"lat": 38.877982833333334, "lon": -76.994199, "is_disabled": 0, "fusion_lon": 0.0, "is_reserved": 0, "name": "d7a7cfbe402329439bc53f97fec85ea4", "type": "electric_scooter", "bike_id": "d7a7cfbe402329439bc53f97fec85ea4", "rental_uris": {"ios": "https://dc.lft.to/lastmile_qr_scan", "android": "https://dc.lft.to/lastmile_qr_scan"}, "fusion_lat": 0.0}, {"lat": 38.909017, "lon": -77.03181083333334, "is_disabled": 0, "fusion_lon": 0.0, "is_reserved": 0, "name": "640a037e58976ad7f17252a264e511c5", "type": "electric_scooter", "bike_id": "640a037e58976ad7f17252a264e511c5", "rental_uris": {"ios": "https://dc.lft.to/lastmile_qr_scan", "android": "https://dc.lft.to/lastmile_qr_scan"}, "fusion_lat": 0.0}, {"lat": 38.89232916666667, "lon": -77.03211266666666, "is_disabled": 0, "fusion_lon": 0.0, "is_reserved": 0, "name": "0d4a339ce417a7ae3c32cc48ea4aea0c", "type": "electric_scooter", "bike_id": "0d4a339ce417a7ae3c32cc48ea4aea0c", "rental_uris": {"ios": "https://dc.lft.to/lastmile_qr_scan", "android": "https://dc.lft.to/lastmile_qr_scan"}, "fusion_lat": 0.0}, {"lat": 38.844137833333335, "lon": -77.07822766666666, "is_disabled": 0, "fusion_lon": 0.0, "is_reserved": 0, "name": "ca89dc95a76d828089f2f62a4344480c", "type": "electric_bike", "bike_id": "ca89dc95a76d828089f2f62a4344480c", "rental_uris": {"ios": "https://dc.lft.to/lastmile_qr_scan", "android": "https://dc.lft.to/lastmile_qr_scan"}, "fusion_lat": 0.0}, {"lat": 38.90082133333333, "lon": -77.0590815, "is_disabled": 0, "fusion_lon": 0.0, "is_reserved": 0, "name": "b27ceb434d6538d4a4502406a81fe98d", "type": "electric_bike", "bike_id": "b27ceb434d6538d4a4502406a81fe98d", "rental_uris": {"ios": "https://dc.lft.to/lastmile_qr_scan", "android": "https://dc.lft.to/lastmile_qr_scan"}, "fusion_lat": 0.0}, {"lat": 38.907666166666665, "lon": -77.03531366666667, "is_disabled": 0, "fusion_lon": 0.0, "is_reserved": 0, "name": "2f839cc759c306689ba49797e6baa612", "type": "electric_scooter", "bike_id": "2f839cc759c306689ba49797e6baa612", "rental_uris": {"ios": "https://dc.lft.to/lastmile_qr_scan", "android": "https://dc.lft.to/lastmile_qr_scan"}, "fusion_lat": 0.0}, {"lat": 38.90919366666667, "lon": -76.9997785, "is_disabled": 0, "fusion_lon": 0.0, "is_reserved": 0, "name": "86bbd9f3b58a920b7e94da35cb45bd28", "type": "electric_scooter", "bike_id": "86bbd9f3b58a920b7e94da35cb45bd28", "rental_uris": {"ios": "https://dc.lft.to/lastmile_qr_scan", "android": "https://dc.lft.to/lastmile_qr_scan"}, "fusion_lat": 0.0}, {"lat": 38.90007583333333, "lon": -76.9880475, "is_disabled": 0, "fusion_lon": 0.0, "is_reserved": 0, "name": "ab0841b84e8aae696d6dfa93ade3df26", "type": "electric_bike", "bike_id": "ab0841b84e8aae696d6dfa93ade3df26", "rental_uris": {"ios": "https://dc.lft.to/lastmile_qr_scan", "android": "https://dc.lft.to/lastmile_qr_scan"}, "fusion_lat": 0.0}, {"lat": 38.91823, "lon": -77.01209633333333, "is_disabled": 0, "fusion_lon": 0.0, "is_reserved": 0, "name": "b66fcb8e181dab01827b950581dcfdfa", "type": "electric_scooter", "bike_id": "b66fcb8e181dab01827b950581dcfdfa", "rental_uris": {"ios": "https://dc.lft.to/lastmile_qr_scan", "android": "https://dc.lft.to/lastmile_qr_scan"}, "fusion_lat": 0.0}, {"lat": 38.90975, "lon": -77.01998416666666, "is_disabled": 0, "fusion_lon": 0.0, "is_reserved": 0, "name": "509a294234bcf1e863ec6513545ecd27", "type": "electric_scooter", "bike_id": "509a294234bcf1e863ec6513545ecd27", "rental_uris": {"ios": "https://dc.lft.to/lastmile_qr_scan", "android": "https://dc.lft.to/lastmile_qr_scan"}, "fusion_lat": 0.0}, {"lat": 38.93567816666667, "lon": -77.08764666666667, "is_disabled": 0, "fusion_lon": 0.0, "is_reserved": 0, "name": "620c9c588c3f35f570f4f13f173fb720", "type": "electric_scooter", "bike_id": "620c9c588c3f35f570f4f13f173fb720", "rental_uris": {"ios": "https://dc.lft.to/lastmile_qr_scan", "android": "https://dc.lft.to/lastmile_qr_scan"}, "fusion_lat": 0.0}, {"lat": 38.9568135, "lon": -77.0223065, "is_disabled": 0, "fusion_lon": 0.0, "is_reserved": 0, "name": "165e5ce928be3c75c41ecaf97cb4cbe0", "type": "electric_bike", "bike_id": "165e5ce928be3c75c41ecaf97cb4cbe0", "rental_uris": {"ios": "https://dc.lft.to/lastmile_qr_scan", "android": "https://dc.lft.to/lastmile_qr_scan"}, "fusion_lat": 0.0}, {"lat": 38.94067116666667, "lon": -76.9946675, "is_disabled": 0, "fusion_lon": 0.0, "is_reserved": 0, "name": "fc1eb24ba0d2778a7dbfee4ce2f03ccc", "type": "electric_scooter", "bike_id": "fc1eb24ba0d2778a7dbfee4ce2f03ccc", "rental_uris": {"ios": "https://dc.lft.to/lastmile_qr_scan", "android": "https://dc.lft.to/lastmile_qr_scan"}, "fusion_lat": 0.0}, {"lat": 38.93863116666667, "lon": -77.02480966666667, "is_disabled": 0, "fusion_lon": 0.0, "is_reserved": 0, "name": "4e09b0116f92505b314e3d2c91d605bc", "type": "electric_bike", "bike_id": "4e09b0116f92505b314e3d2c91d605bc", "rental_uris": {"ios": "https://dc.lft.to/lastmile_qr_scan", "android": "https://dc.lft.to/lastmile_qr_scan"}, "fusion_lat": 0.0}, {"lat": 38.92087333333333, "lon": -77.03175266666666, "is_disabled": 0, "fusion_lon": 0.0, "is_reserved": 0, "name": "25e75f1e1daac8d167a4ea7395141761", "type": "electric_scooter", "bike_id": "25e75f1e1daac8d167a4ea7395141761", "rental_uris": {"ios": "https://dc.lft.to/lastmile_qr_scan", "android": "https://dc.lft.to/lastmile_qr_scan"}, "fusion_lat": 0.0}, {"lat": 38.92465883333333, "lon": -77.0224615, "is_disabled": 0, "fusion_lon": 0.0, "is_reserved": 0, "name": "e2413ba0e5550da8aaf1924e339cc74a", "type": "electric_scooter", "bike_id": "e2413ba0e5550da8aaf1924e339cc74a", "rental_uris": {"ios": "https://dc.lft.to/lastmile_qr_scan", "android": "https://dc.lft.to/lastmile_qr_scan"}, "fusion_lat": 0.0}, {"lat": 38.919427166666665, "lon": -77.04541166666667, "is_disabled": 0, "fusion_lon": 0.0, "is_reserved": 0, "name": "369c38bb38350f7016cb23558272dff4", "type": "electric_scooter", "bike_id": "369c38bb38350f7016cb23558272dff4", "rental_uris": {"ios": "https://dc.lft.to/lastmile_qr_scan", "android": "https://dc.lft.to/lastmile_qr_scan"}, "fusion_lat": 0.0}, {"lat": 38.91415666666666, "lon": -77.02095416666667, "is_disabled": 0, "fusion_lon": 0.0, "is_reserved": 0, "name": "863bdd6cfdc68af8a9782952aa1bd317", "type": "electric_scooter", "bike_id": "863bdd6cfdc68af8a9782952aa1bd317", "rental_uris": {"ios": "https://dc.lft.to/lastmile_qr_scan", "android": "https://dc.lft.to/lastmile_qr_scan"}, "fusion_lat": 0.0}, {"lat": 38.90243666666667, "lon": -77.027782, "is_disabled": 0, "fusion_lon": 0.0, "is_reserved": 0, "name": "7ec93b9a653a64ec805073a083fa1117", "type": "electric_scooter", "bike_id": "7ec93b9a653a64ec805073a083fa1117", "rental_uris": {"ios": "https://dc.lft.to/lastmile_qr_scan", "android": "https://dc.lft.to/lastmile_qr_scan"}, "fusion_lat": 0.0}, {"lat": 38.91067666666667, "lon": -77.00459516666666, "is_disabled": 0, "fusion_lon": 0.0, "is_reserved": 0, "name": "26bb5100492e0be19a29cf05f23bbc04", "type": "electric_scooter", "bike_id": "26bb5100492e0be19a29cf05f23bbc04", "rental_uris": {"ios": "https://dc.lft.to/lastmile_qr_scan", "android": "https://dc.lft.to/lastmile_qr_scan"}, "fusion_lat": 0.0},