{"data": {"bikes": [{"fusion_lat": 0.0, "lat": 38.902025333333334, "rental_uris": {"ios": "https://dc.lft.to/lastmile_qr_scan", "android": "https://dc.lft.to/lastmile_qr_scan"}, "name": "cb76bdd8280c0d2315f6de0bfea904dd", "type": "electric_scooter", "fusion_lon": 0.0, "is_disabled": 0, "is_reserved": 0, "bike_id": "cb76bdd8280c0d2315f6de0bfea904dd", "lon": -77.0347205}, {"fusion_lat": 0.0, "lat": 38.9173685, "rental_uris": {"ios": "https://dc.lft.to/lastmile_qr_scan", "android": "https://dc.lft.to/lastmile_qr_scan"}, "name": "7bb98f6f8e93a23699e82efc4a8b1741", "type": "electric_bike", "fusion_lon": 0.0, "is_disabled": 0, "is_reserved": 0, "bike_id": "7bb98f6f8e93a23699e82efc4a8b1741", "lon": -77.00756266666667}, {"fusion_lat": 0.0, "lat": 38.9157015, "rental_uris": {"ios": "https://dc.lft.to/lastmile_qr_scan", "android": "https://dc.lft.to/lastmile_qr_scan"}, "name": "14db97999abd5d4e76e083b7b75e2dd5", "type": "electric_scooter", "fusion_lon": 0.0, "is_disabled": 0, "is_reserved": 0, "bike_id": "14db97999abd5d4e76e083b7b75e2dd5", "lon": -77.02173683333334}, {"fusion_lat": 0.0, "lat": 38.8650235, "rental_uris": {"ios": "https://dc.lft.to/lastmile_qr_scan", "android": "https://dc.lft.to/lastmile_qr_scan"}, "name": "e527dce47e041ff77d91015f0017f068", "type": "electric_scooter", "fusion_lon": 0.0, "is_disabled": 0, "is_reserved": 0, "bike_id": "e527dce47e041ff77d91015f0017f068", "lon": -76.99003216666667}, {"fusion_lat": 0.0, "lat": 38.89864466666667, "rental_uris": {"ios": "https://dc.lft.to/lastmile_qr_scan", "android": "https://dc.lft.to/lastmile_qr_scan"}, "name": "748f4ad380f5de48e24a50fdbf7c9662", "type": "electric_scooter", "fusion_lon": 0.0, "is_disabled": 0, "is_reserved": 0, "bike_id": "748f4ad380f5de48e24a50fdbf7c9662", "lon": -77.02377633333333}, {"fusion_lat": 0.0, "lat": 38.92976683333333, "rental_uris": {"ios": "https://dc.lft.to/lastmile_qr_scan", "android": "https://dc.lft.to/lastmile_qr_scan"}, "name": "cd9db5a8807594bfd09dff063ff74ffa", "type": "electric_scooter", "fusion_lon": 0.0, "is_disabled": 0, "is_reserved": 0, "bike_id": "cd9db5a8807594bfd09dff063ff74ffa", "lon": -77.055}, {"fusion_lat": 0.0, "lat": 38.90966916666667, "rental_uris": {"ios": "https://dc.lft.to/lastmile_qr_scan", "android": "https://dc.lft.to/lastmile_qr_scan"}, "name": "203763b7591b051bfaa94daf94eeb782", "type": "electric_scooter", "fusion_lon": 0.0, "is_disabled": 0, "is_reserved": 0, "bike_id": "203763b7591b051bfaa94daf94eeb782", "lon": -77.01105733333333}, {"fusion_lat": 0.0, "lat": 38.900475, "rental_uris": {"ios": "https://dc.lft.to/lastmile_qr_scan", "android": "https://dc.lft.to/lastmile_qr_scan"}, "name": "7e4b533cd1dadc7a20fbde8a69a06b92", "type": "electric_scooter", "fusion_lon": 0.0, "is_disabled": 0, "is_reserved": 0, "bike_id": "7e4b533cd1dadc7a20fbde8a69a06b92", "lon": -77.002074}, {"fusion_lat": 0.0, "lat": 38.8922275, "rental_uris": {"ios": "https://dc.lft.to/lastmile_qr_scan", "android": "https://dc.lft.to/lastmile_qr_scan"}, "name": "c5a9221630013c34e25cb886b409e9c4", "type": "electric_scooter", "fusion_lon": 0.0, "is_disabled": 0, "is_reserved": 0, "bike_id": "c5a9221630013c34e25cb886b409e9c4", "lon": -77.043801}, {"fusion_lat": 0.0, "lat": 38.901642, "rental_uris": {"ios": "https://dc.lft.to/lastmile_qr_scan", "android": "https://dc.lft.to/lastmile_qr_scan"}, "name": "51fe52a0f833166763a0480ea98b1cd2", "type": "electric_scooter", "fusion_lon": 0.0, "is_disabled": 0, "is_reserved": 0, "bike_id": "51fe52a0f833166763a0480ea98b1cd2", "lon": -77.01346283333334}, {"fusion_lat": 0.0, "lat": 38.89231016666667, "rental_uris": {"ios": "https://dc.lft.to/lastmile_qr_scan", "android": "https://dc.lft.to/lastmile_qr_scan"}, "name": "e3729f3cba4d7a951691fa7d3e9b0acd", "type": "electric_scooter", "fusion_lon": 0.0, "is_disabled": 0, "is_reserved": 0, "bike_id": "e3729f3cba4d7a951691fa7d3e9b0acd", "lon": -77.03316683333334}, {"fusion_lat": 0.0, "lat": 38.973792, "rental_uris": {"ios": "https://dc.lft.to/lastmile_qr_scan", "android": "https://dc.lft.to/lastmile_qr_scan"}, "name": "ecbd8bb41e5321dcd598760c991509c2", "type": "electric_scooter", "fusion_lon": 0.0, "is_disabled": 0, "is_reserved": 0, "bike_id": "ecbd8bb41e5321dcd598760c991509c2", "lon": -77.01808}, {"fusion_lat": 0.0, "lat": 38.90008366666667, "rental_uris": {"ios": "https://dc.lft.to/lastmile_qr_scan", "android": "https://dc.lft.to/lastmile_qr_scan"}, "name": "76914c4375c376161d4831393cc27529", "type": "electric_scooter", "fusion_lon": 0.0, "is_disabled": 0, "is_reserved": 0, "bike_id": "76914c4375c376161d4831393cc27529", "lon": -77.0464315}, {"fusion_lat": 0.0, "lat": 38.9122985, "rental_uris": {"ios": "https://dc.lft.to/lastmile_qr_scan", "android": "https://dc.lft.to/lastmile_qr_scan"}, "name": "3e060eb574080282371346d3f98c3d9f", "type": "electric_scooter", "fusion_lon": 0.0, "is_disabled": 0, "is_reserved": 0, "bike_id": "3e060eb574080282371346d3f98c3d9f", "lon": -76.98778533333333}, {"fusion_lat": 0.0, "lat": 38.8979945, "rental_uris": {"ios": "https://dc.lft.to/lastmile_qr_scan", "android": "https://dc.lft.to/lastmile_qr_scan"}, "name": "23fc8fe8239a7bbab345c7c60b811075", "type": "electric_scooter", "fusion_lon": 0.0, "is_disabled": 0, "is_reserved": 0, "bike_id": "23fc8fe8239a7bbab345c7c60b811075", "lon": -76.93106116666667}, {"fusion_lat": 0.0, "lat": 38.87551633333333, "rental_uris": {"ios": "https://dc.lft.to/lastmile_qr_scan", "android": "https://dc.lft.to/lastmile_qr_scan"}, "name": "50d15e1885896a1fb9889661fa6f946d", "type": "electric_scooter", "fusion_lon": 0.0, "is_disabled": 0, "is_reserved": 0, "bike_id": "50d15e1885896a1fb9889661fa6f946d", "lon": -77.00567483333333}, {"fusion_lat": 0.0, "lat": 38.914825666666665, "rental_uris": {"ios": "https://dc.lft.to/lastmile_qr_scan", "android": "https://dc.lft.to/lastmile_qr_scan"}, "name": "a7dc82feefd76e511e52b070df6eff71", "type": "electric_scooter", "fusion_lon": 0.0, "is_disabled": 0, "is_reserved": 0, "bike_id": "a7dc82feefd76e511e52b070df6eff71", "lon": -77.00881083333333}, {"fusion_lat": 0.0, "lat": 38.88722116666667, "rental_uris": {"ios": "https://dc.lft.to/lastmile_qr_scan", "android": "https://dc.lft.to/lastmile_qr_scan"}, "name": "0ea39000f6a95eb68b340273f464c1b2", "type": "electric_scooter", "fusion_lon": 0.0, "is_disabled": 0, "is_reserved": 0, "bike_id": "0ea39000f6a95eb68b340273f464c1b2", "lon": -76.99613133333334}, {"fusion_lat": 0.0, "lat": 38.9367935, "rental_uris": {"ios": "https://dc.lft.to/lastmile_qr_scan", "android": "https://dc.lft.to/lastmile_qr_scan"}, "name": "ec3811f755ec9785e8405a1fd0ed290a", "type": "electric_scooter", "fusion_lon": 0.0, "is_disabled": 0, "is_reserved": 0, "bike_id": "ec3811f755ec9785e8405a1fd0ed290a", "lon": -77.036353}, {"fusion_lat": 0.0, "lat": 38.93536983333333, "rental_uris": {"ios": "https://dc.lft.to/lastmile_qr_scan", "android": "https://dc.lft.to/lastmile_qr_scan"}, "name": "5d066a910c2e2f7c4a4ef295ada994f7", "type": "electric_scooter", "fusion_lon": 0.0, "is_disabled": 0, "is_reserved": 0, "bike_id": "5d066a910c2e2f7c4a4ef295ada994f7", "lon": -77.0582635}, {"fusion_lat": 0.0, "lat": 39.08443783333333, "rental_uris": {"ios": "https://dc.lft.to/lastmile_qr_scan", "android": "https://dc.lft.to/lastmile_qr_scan"}, "name": "10a8851799a1db294da062342541fd0f", "type": "electric_bike", "fusion_lon": 0.0, "is_disabled": 0, "is_reserved": 0, "bike_id": "10a8851799a1db294da062342541fd0f", "lon": -76.95201616666667}, {"fusion_lat": 0.0, "lat": 38.93490333333333, "rental_uris": {"ios": "https://dc.lft.to/lastmile_qr_scan", "android": "https://dc.lft.to/lastmile_qr_scan"}, "name": "0b6bcdaf9d1b42e1df129f23a959ecde", "type": "electric_scooter", "fusion_lon": 0.0, "is_disabled": 0, "is_reserved": 0, "bike_id": "0b6bcdaf9d1b42e1df129f23a959ecde", "lon": -77.0454205}, {"fusion_lat": 0.0, "lat": 38.9005935, "rental_uris": {"ios": "https://dc.lft.to/lastmile_qr_scan", "android": "https://dc.lft.to/lastmile_qr_scan"}, "name": "c951914256f514aea187ed94c17fc4b7", "type": "electric_scooter", "fusion_lon": 0.0, "is_disabled": 0, "is_reserved": 0, "bike_id": "c951914256f514aea187ed94c17fc4b7", "lon": -77.04759033333333}, {"fusion_lat": 0.0, "lat": 38.892411, "rental_uris": {"ios": "https://dc.lft.to/lastmile_qr_scan", "android": "https://dc.lft.to/lastmile_qr_scan"}, "name": "6dbe3de1f25b56976189bf5f8d45ec00", "type": "electric_scooter", "fusion_lon": 0.0, "is_disabled": 0, "is_reserved": 0, "bike_id": "6dbe3de1f25b56976189bf5f8d45ec00", "lon": -77.03955933333333}, {"fusion_lat": 0.0, "lat": 38.893524166666666, "rental_uris": {"ios": "https://dc.lft.to/lastmile_qr_scan", "android": "https://dc.lft.to/lastmile_qr_scan"}, "name": "ddbb99721431c3b52b483d9f9f7ed7f1", "type": "electric_bike", "fusion_lon": 0.0, "is_disabled": 0, "is_reserved": 0, "bike_id": "ddbb99721431c3b52b483d9f9f7ed7f1", "lon": -77.18739033333334}, {"fusion_lat": 0.0, "lat": 38.90693566666667, "rental_uris": {"ios": "https://dc.lft.to/lastmile_qr_scan", "android": "https://dc.lft.to/lastmile_qr_scan"}, "name": "2939c2cabeb5e37b874a3bbe00ca3d5d", "type": "electric_scooter", "fusion_lon": 0.0, "is_disabled": 0, "is_reserved": 0, "bike_id": "2939c2cabeb5e37b874a3bbe00ca3d5d", "lon": -77.05723616666667}, {"fusion_lat": 0.0, "lat": 38.956179, "rental_uris": {"ios": "https://dc.lft.to/lastmile_qr_scan", "android": "https://dc.lft.to/lastmile_qr_scan"}, "name": "35a796bb7f218ff615e3ca7fd0d8e358", "type": "electric_scooter", "fusion_lon": 0.0, "is_disabled": 0, "is_reserved": 0, "bike_id": "35a796bb7f218ff615e3ca7fd0d8e358", "lon": -77.028245}, {"fusion_lat": 0.0, "lat": 38.926504333333334, "rental_uris": {"ios": "https://dc.lft.to/lastmile_qr_scan", "android": "https://dc.lft.to/lastmile_qr_scan"}, "name": "3cbb801ca1274f43d77d45200e68fc1a", "type": "electric_scooter", "fusion_lon": 0.0, "is_disabled": 0, "is_reserved": 0, "bike_id": "3cbb801ca1274f43d77d45200e68fc1a", "lon": -77.04303633333333}, {"fusion_lat": 0.0, "lat": 38.90013316666667, "rental_uris": {"ios": "https://dc.lft.to/lastmile_qr_scan", "android": "https://dc.lft.to/lastmile_qr_scan"}, "name": "ad5ed298cf2ccb252d5d9e587d99dbc8", "type": "electric_scooter", "fusion_lon": 0.0, "is_disabled": 0, "is_reserved": 0, "bike_id": "ad5ed298cf2ccb252d5d9e587d99dbc8", "lon": -76.9878845}, {"fusion_lat": 0.0, "lat": 38.90422183333333, "rental_uris": {"ios": "https://dc.lft.to/lastmile_qr_scan", "android": "https://dc.lft.to/lastmile_qr_scan"}, "name": "23f363fb7dbd609b25d8baefc0c310e7", "type": "electric_scooter", "fusion_lon": 0.0, "is_disabled": 0, "is_reserved": 0, "bike_id": "23f363fb7dbd609b25d8baefc0c310e7", "lon": -77.04653316666666}, {"fusion_lat": 0.0, "lat": 38.844365333333336, "rental_uris": {"ios": "https://dc.lft.to/lastmile_qr_scan", "android": "https://dc.lft.to/lastmile_qr_scan"}, "name": "1e3c2c1045d4cfb9836ace1594f82f2b", "type": "electric_scooter", "fusion_lon": 0.0, "is_disabled": 0, "is_reserved": 0, "bike_id": "1e3c2c1045d4cfb9836ace1594f82f2b", "lon": -76.997769}, {"fusion_lat": 0.0, "lat": 38.952387, "rental_uris": {"ios": "https://dc.lft.to/lastmile_qr_scan", "android": "https://dc.lft.to/lastmile_qr_scan"}, "name": "54b1ccf895822906efc37b2d99f98389", "type": "electric_bike", "fusion_lon": 0.0, "is_disabled": 0, "is_reserved": 0, "bike_id": "54b1ccf895822906efc37b2d99f98389", "lon": -77.00270916666666}, {"fusion_lat": 0.0, "lat": 38.914239, "rental_uris": {"ios": "https://dc.lft.to/lastmile_qr_scan", "android": "https://dc.lft.to/lastmile_qr_scan"}, "name": "c81319df299d46155eef9190673f725d", "type": "electric_scooter", "fusion_lon": 0.0, "is_disabled": 0, "is_reserved": 0, "bike_id": "c81319df299d46155eef9190673f725d", "lon": -77.0318415}, {"fusion_lat": 0.0, "lat": 38.923585833333334, "rental_uris": {"ios": "https://dc.lft.to/lastmile_qr_scan", "android": "https://dc.lft.to/lastmile_qr_scan"}, "name": "caa7803f2aee014ac410700294706b90", "type": "electric_scooter", "fusion_lon": 0.0, "is_disabled": 0, "is_reserved": 0, "bike_id": "caa7803f2aee014ac410700294706b90", "lon": -77.05124366666666}, {"fusion_lat": 0.0, "lat": 38.91673483333334, "rental_uris": {"ios": "https://dc.lft.to/lastmile_qr_scan", "android": "https://dc.lft.to/lastmile_qr_scan"}, "name": "220f34b8fd19d9a6232c6c032c84142b", "type": "electric_scooter", "fusion_lon": 0.0, "is_disabled": 0, "is_reserved": 0, "bike_id": "220f34b8fd19d9a6232c6c032c84142b", "lon": -77.024033}, {"fusion_lat": 0.0, "lat": 38.920404166666664, "rental_uris": {"ios": "https://dc.lft.to/lastmile_qr_scan", "android": "https://dc.lft.to/lastmile_qr_scan"}, "name": "48635aa8a80e3d06382709938c90b207", "type": "electric_scooter", "fusion_lon": 0.0, "is_disabled": 0, "is_reserved": 0, "bike_id": "48635aa8a80e3d06382709938c90b207", "lon": -77.016765}, {"fusion_lat": 0.0, "lat": 38.926568, "rental_uris": {"ios": "https://dc.lft.to/lastmile_qr_scan", "android": "https://dc.lft.to/lastmile_qr_scan"}, "name": "1936f104e68a9fb229f9fb9e4d8b7e7c", "type": "electric_scooter", "fusion_lon": 0.0, "is_disabled": 0, "is_reserved": 0, "bike_id": "1936f104e68a9fb229f9fb9e4d8b7e7c", "lon": -77.02387066666667}, {"fusion_lat": 0.0, "lat": 38.904875833333335, "rental_uris": {"ios": "https://dc.lft.to/lastmile_qr_scan", "android": "https://dc.lft.to/lastmile_qr_scan"}, "name": "46ba05ed6fb80f366ec7daf9d0b5c508", "type": "electric_scooter", "fusion_lon": 0.0, "is_disabled": 0, "is_reserved": 0, "bike_id": "46ba05ed6fb80f366ec7daf9d0b5c508", "lon": -77.05369133333333}, {"fusion_lat": 0.0, "lat": 38.914383, "rental_uris": {"ios": "https://dc.lft.to/lastmile_qr_scan", "android": "https://dc.lft.to/lastmile_qr_scan"}, "name": "8392d5f08ba70d50176321d1aa6cbed6", "type": "electric_scooter", "fusion_lon": 0.0, "is_disabled": 0, "is_reserved": 0, "bike_id": "8392d5f08ba70d50176321d1aa6cbed6", "lon": -77.022902}, {"fusion_lat": 0.0, "lat": 38.906207333333334, "rental_uris": {"ios": "https://dc.lft.to/lastmile_qr_scan", "android": "https://dc.lft.to/lastmile_qr_scan"}, "name": "20fd783c50123fafab032c5725a96b53", "type": "electric_scooter", "fusion_lon": 0.0, "is_disabled": 0, "is_reserved": 0, "bike_id": "20fd783c50123fafab032c5725a96b53", "lon": -77.050223}, {"fusion_lat": 0.0, "lat": 38.903831833333335, "rental_uris": {"ios": "https://dc.lft.to/lastmile_qr_scan", "android": "https://dc.lft.to/lastmile_qr_scan"}, "name": "b06f39a3b9328094a8afa4528583f9de", "type": "electric_scooter", "fusion_lon": 0.0, "is_disabled": 0, "is_reserved": 0, "bike_id": "b06f39a3b9328094a8afa4528583f9de", "lon": -77.01641033333334}, {"fusion_lat": 0.0, "lat": 38.898492833333336, "rental_uris": {"ios": "https://dc.lft.to/lastmile_qr_scan", "android": "https://dc.lft.to/lastmile_qr_scan"}, "name": "23ad95d667f1c2161d51959eee99c43d", "type": "electric_scooter", "fusion_lon": 0.0, "is_disabled": 0, "is_reserved": 0, "bike_id": "23ad95d667f1c2161d51959eee99c43d", "lon": -77.00739016666667}, {"fusion_lat": 0.0, "lat": 38.9013695, "rental_uris": {"ios": "https://dc.lft.to/lastmile_qr_scan", "android": "https://dc.lft.to/lastmile_qr_scan"}, "name": "f9ccb430d70994ddc3d0b6bd7f46478d", "type": "electric_scooter", "fusion_lon": 0.0, "is_disabled": 0, "is_reserved": 0, "bike_id": "f9ccb430d70994ddc3d0b6bd7f46478d", "lon": -77.03641983333333}, {"fusion_lat": 0.0, "lat": 38.910155333333336, "rental_uris": {"ios": "https://dc.lft.to/lastmile_qr_scan", "android": "https://dc.lft.to/lastmile_qr_scan"}, "name": "0fb3e022ff3ab3b9c43ffb07435db87d", "type": "electric_scooter", "fusion_lon": 0.0, "is_disabled": 0, "is_reserved": 0, "bike_id": "0fb3e022ff3ab3b9c43ffb07435db87d", "lon": -77.0220795}, {"fusion_lat": 0.0, "lat": 38.90180133333333, "rental_uris": {"ios": "https://dc.lft.to/lastmile_qr_scan", "android": "https://dc.lft.to/lastmile_qr_scan"}, "name": "9202461efb728feb48130a6852198fe7", "type": "electric_scooter", "fusion_lon": 0.0, "is_disabled": 0, "is_reserved": 0, "bike_id": "9202461efb728feb48130a6852198fe7", "lon": -76.94146733333334}, {"fusion_lat": 0.0, "lat": 38.89731916666667, "rental_uris": {"ios": "https://dc.lft.to/lastmile_qr_scan", "android": "https://dc.lft.to/lastmile_qr_scan"}, "name": "304e1ef80f5d0201c6616f49684fe373", "type": "electric_scooter", "fusion_lon": 0.0, "is_disabled": 0, "is_reserved": 0, "bike_id": "304e1ef80f5d0201c6616f49684fe373", "lon": -77.0333335}, {"fusion_lat": 0.0, "lat": 38.935119666666665, "rental_uris": {"ios": "https://dc.lft.to/lastmile_qr_scan", "android": "https://dc.lft.to/lastmile_qr_scan"}, "name": "84b191af0610b2835e962676f64a77f1", "type": "electric_scooter", "fusion_lon": 0.0, "is_disabled": 0, "is_reserved": 0, "bike_id": "84b191af0610b2835e962676f64a77f1", "lon": -77.07416533333334}, {"fusion_lat": 0.0, "lat": 38.89620733333334, "rental_uris": {"ios": "https://dc.lft.to/lastmile_qr_scan", "android": "https://dc.lft.to/lastmile_qr_scan"}, "name": "c87582e6c4413e3b7a74c1488d729509", "type": "electric_scooter", "fusion_lon": 0.0, "is_disabled": 0, "is_reserved": 0, "bike_id": "c87582e6c4413e3b7a74c1488d729509", "lon": -76.99333733333333}, {"fusion_lat": 0.0, "lat": 38.887181, "rental_uris": {"ios": "https://dc.lft.to/lastmile_qr_scan", "android": "https://dc.lft.to/lastmile_qr_scan"}, "name": "91e4b6963a27fc63282b6b6ec1bcd1fb", "type": "electric_scooter", "fusion_lon": 0.0, "is_disabled": 0, "is_reserved": 0, "bike_id": "91e4b6963a27fc63282b6b6ec1bcd1fb", "lon": -77.001907}, {"fusion_lat": 0.0, "lat": 38.9013865, "rental_uris": {"ios": "https://dc.lft.to/lastmile_qr_scan", "android": "https://dc.lft.to/lastmile_qr_scan"}, "name": "c355ca28afe2b8d953de6e3035dfe39c", "type": "electric_scooter", "fusion_lon": 0.0, "is_disabled": 0, "is_reserved": 0, "bike_id": "c355ca28afe2b8d953de6e3035dfe39c", "lon": -76.98965883333334}, {"fusion_lat": 0.0, "lat": 38.887400666666665, "rental_uris": {"ios": "https://dc.lft.to/lastmile_qr_scan", "android": "https://dc.lft.to/lastmile_qr_scan"}, "name": "0bb9e8bfb75c54222fcb562fb98e08da", "type": "electric_scooter", "fusion_lon": 0.0, "is_disabled": 0, "is_reserved": 0, "bike_id": "0bb9e8bfb75c54222fcb562fb98e08da", "lon": -77.02583283333334}, {"fusion_lat": 0.0, "lat": 38.86177683333333, "rental_uris": {"ios": "https://dc.lft.to/lastmile_qr_scan", "android": "https://dc.lft.to/lastmile_qr_scan"}, "name": "d17d29113a146303ad37b817420c0b7b", "type": "electric_scooter", "fusion_lon": 0.0, "is_disabled": 0, "is_reserved": 0, "bike_id": "d17d29113a146303ad37b817420c0b7b", "lon": -76.997127}, {"fusion_lat": 0.0, "lat": 38.916811333333335, "rental_uris": {"ios": "https://dc.lft.to/lastmile_qr_scan", "android": "https://dc.lft.to/lastmile_qr_scan"}, "name": "6e7be3d69f2a4798412f15f4b8b7d1fd", "type": "electric_scooter", "fusion_lon": 0.0, "is_disabled": 0, "is_reserved": 0, "bike_id": "6e7be3d69f2a4798412f15f4b8b7d1fd", "lon": -77.029676}, {"fusion_lat": 0.0, "lat": 38.9205015, "rental_uris": {"ios": "https://dc.lft.to/lastmile_qr_scan", "android": "https://dc.lft.to/lastmile_qr_scan"}, "name": "339109d1c32cf1e89cf151734594270a", "type": "electric_scooter", "fusion_lon": 0.0, "is_disabled": 0, "is_reserved": 0, "bike_id": "339109d1c32cf1e89cf151734594270a", "lon": -77.02579216666666}, {"fusion_lat": 0.0, "lat": 38.86469133333333, "rental_uris": {"ios": "https://dc.lft.to/lastmile_qr_scan", "android": "https://dc.lft.to/lastmile_qr_scan"}, "name": "094c4ca5d9fd78ba96ce0230abdc191a", "type": "electric_scooter", "fusion_lon": 0.0, "is_disabled": 0, "is_reserved": 0, "bike_id": "094c4ca5d9fd78ba96ce0230abdc191a", "lon": -76.9823285}, {"fusion_lat": 0.0, "lat": 38.884442166666666, "rental_uris": {"ios": "https://dc.lft.to/lastmile_qr_scan", "android": "https://dc.lft.to/lastmile_qr_scan"}, "name": "f25132313c96b2743ac062c5f3889676", "type": "electric_scooter", "fusion_lon": 0.0, "is_disabled": 0, "is_reserved": 0, "bike_id": "f25132313c96b2743ac062c5f3889676", "lon": -76.996295}, {"fusion_lat": 0.0, "lat": 38.90028216666666, "rental_uris": {"ios": "https://dc.lft.to/lastmile_qr_scan", "android": "https://dc.lft.to/lastmile_qr_scan"}, "name": "d7a62862b2b561fa2a8e543b82e6c87f", "type": "electric_scooter", "fusion_lon": 0.0, "is_disabled": 0, "is_reserved": 0, "bike_id": "d7a62862b2b561fa2a8e543b82e6c87f", "lon": -77.0272485}, {"fusion_lat": 0.0, "lat": 38.900812, "rental_uris": {"ios": "https://dc.lft.to/lastmile_qr_scan", "android": "https://dc.lft.to/lastmile_qr_scan"}, "name": "f037b173486cbd3524e92f0503e146f4", "type": "electric_scooter", "fusion_lon": 0.0, "is_disabled": 0, "is_reserved": 0, "bike_id": "f037b173486cbd3524e92f0503e146f4", "lon": -76.980307}, {"fusion_lat": 0.0, "lat": 38.908373, "rental_uris": {"ios": "https://dc.lft.to/lastmile_qr_scan", "android": "https://dc.lft.to/lastmile_qr_scan"}, "name": "75dca5a4bf8b7da539bf21caab1e2410", "type": "electric_scooter", "fusion_lon": 0.0, "is_disabled": 0, "is_reserved": 0, "bike_id": "75dca5a4bf8b7da539bf21caab1e2410", "lon": -76.99241083333334}, {"fusion_lat": 0.0, "lat": 38.912222, "rental_uris": {"ios": "https://dc.lft.to/lastmile_qr_scan", "android": "https://dc.lft.to/lastmile_qr_scan"}, "name": "ccb18521de4004051e8ac6fd77c58e13", "type": "electric_scooter", "fusion_lon": 0.0, "is_disabled": 0, "is_reserved": 0, "bike_id": "ccb18521de4004051e8ac6fd77c58e13", "lon": -77.07700216666667}, {"fusion_lat": 0.0, "lat": 38.9078615, "rental_uris": {"ios": "https://dc.lft.to/lastmile_qr_scan", "android": "https://dc.lft.to/lastmile_qr_scan"}, "name": "b33d81e19faa0d399175610c3c25bf36", "type": "electric_scooter", "fusion_lon": 0.0, "is_disabled": 0, "is_reserved": 0, "bike_id": "b33d81e19faa0d399175610c3c25bf36", "lon": -77.00020616666667}, {"fusion_lat": 0.0, "lat": 38.89889866666667, "rental_uris": {"ios": "https://dc.lft.to/lastmile_qr_scan", "android": "https://dc.lft.to/lastmile_qr_scan"}, "name": "2b16da074efd108790550624eb6d1fd7", "type": "electric_scooter", "fusion_lon": 0.0, "is_disabled": 0, "is_reserved": 0, "bike_id": "2b16da074efd108790550624eb6d1fd7", "lon": -77.02720883333333}, {"fusion_lat": 0.0, "lat": 38.92496516666667, "rental_uris": {"ios": "https://dc.lft.to/lastmile_qr_scan", "android": "https://dc.lft.to/lastmile_qr_scan"}, "name": "086fa8e3fa7f1cb35aecdcfbf109aa38", "type": "electric_scooter", "fusion_lon": 0.0, "is_disabled": 0, "is_reserved": 0, "bike_id": "086fa8e3fa7f1cb35aecdcfbf109aa38", "lon": -77.05106533333333}, {"fusion_lat": 0.0, "lat": 38.932627, "rental_uris": {"ios": "https://dc.lft.to/lastmile_qr_scan", "android": "https://dc.lft.to/lastmile_qr_scan"}, "name": "87083592ad1108b256e8a342d1b0ccb9", "type": "electric_scooter", "fusion_lon": 0.0, "is_disabled": 0, "is_reserved": 0, "bike_id": "87083592ad1108b256e8a342d1b0ccb9", "lon": -77.0310785}, {"fusion_lat": 0.0, "lat": 38.901292833333336, "rental_uris": {"ios": "https://dc.lft.to/lastmile_qr_scan", "android": "https://dc.lft.to/lastmile_qr_scan"}, "name": "79f137f736ea2ded917e230accebd7ac", "type": "electric_scooter", "fusion_lon": 0.0, "is_disabled": 0, "is_reserved": 0, "bike_id": "79f137f736ea2ded917e230accebd7ac", "lon": -77.0186655}, {"fusion_lat": 0.0, "lat": 38.90447366666667, "rental_uris": {"ios": "https://dc.lft.to/lastmile_qr_scan", "android": "https://dc.lft.to/lastmile_qr_scan"}, "name": "4e7575d49f0b059726762488bed22192", "type": "electric_scooter", "fusion_lon": 0.0, "is_disabled": 0, "is_reserved": 0, "bike_id": "4e7575d49f0b059726762488bed22192", "lon": -76.97423783333333}, {"fusion_lat": 0.0, "lat": 38.908706, "rental_uris": {"ios": "https://dc.lft.to/lastmile_qr_scan", "android": "https://dc.lft.to/lastmile_qr_scan"}, "name": "61c094b5bb7a49e23b34b0909cc782ed", "type": "electric_scooter", "fusion_lon": 0.0, "is_disabled": 0, "is_reserved": 0, "bike_id": "61c094b5bb7a49e23b34b0909cc782ed", "lon": -77.07165433333333}, {"fusion_lat": 0.0, "lat": 38.89915, "rental_uris": {"ios": "https://dc.lft.to/lastmile_qr_scan", "android": "https://dc.lft.to/lastmile_qr_scan"}, "name": "2362064be82a694cb5edde5308660082", "type": "electric_scooter", "fusion_lon": 0.0, "is_disabled": 0, "is_reserved": 0, "bike_id": "2362064be82a694cb5edde5308660082", "lon": -77.03231183333334}, {"fusion_lat": 0.0, "lat": 38.918328, "rental_uris": {"ios": "https://dc.lft.to/lastmile_qr_scan", "android": "https://dc.lft.to/lastmile_qr_scan"}, "name": "a1c57a17ccf010481816e62b673c8010", "type": "electric_scooter", "fusion_lon": 0.0, "is_disabled": 0, "is_reserved": 0, "bike_id": "a1c57a17ccf010481816e62b673c8010", "lon": -77.01210483333334}, {"fusion_lat": 0.0, "lat": 38.878809, "rental_uris": {"ios": "https://dc.lft.to/lastmile_qr_scan", "android": "https://dc.lft.to/lastmile_qr_scan"}, "name": "977451f30759eaad6f16a6d1f3b737ab", "type": "electric_scooter", "fusion_lon": 0.0, "is_disabled": 0, "is_reserved": 0, "bike_id": "977451f30759eaad6f16a6d1f3b737ab", "lon": -77.001297}, {"fusion_lat": 0.0, "lat": 38.935612166666665, "rental_uris": {"ios": "https://dc.lft.to/lastmile_qr_scan", "android": "https://dc.lft.to/lastmile_qr_scan"}, "name": "68ecc66c63d948e0a1f89c0d16804404", "type": "electric_bike", "fusion_lon": 0.0, "is_disabled": 0, "is_reserved": 0, "bike_id": "68ecc66c63d948e0a1f89c0d16804404", "lon": -77.037013}, {"fusion_lat": 0.0, "lat": 38.91566616666667, "rental_uris": {"ios": "https://dc.lft.to/lastmile_qr_scan", "android": "https://dc.lft.to/lastmile_qr_scan"}, "name": "5c913f2450f2576e02dff162d7953afe", "type": "electric_scooter", "fusion_lon": 0.0, "is_disabled": 0, "is_reserved": 0, "bike_id": "5c913f2450f2576e02dff162d7953afe", "lon": -77.0319025}, {"fusion_lat": 0.0, "lat": 38.916848333333334, "rental_uris": {"ios": "https://dc.lft.to/lastmile_qr_scan", "android": "https://dc.lft.to/lastmile_qr_scan"}, "name": "868ee9809f4ad73ee6acc913e7b697dc", "type": "electric_scooter", "fusion_lon": 0.0, "is_disabled": 0, "is_reserved": 0, "bike_id": "868ee9809f4ad73ee6acc913e7b697dc", "lon": -77.02965616666667}, {"fusion_lat": 0.0, "lat": 38.91809033333333, "rental_uris": {"ios": "https://dc.lft.to/lastmile_qr_scan", "android": "https://dc.lft.to/lastmile_qr_scan"}, "name": "d31df24b728e9108d44140633a4324d8", "type": "electric_scooter", "fusion_lon": 0.0, "is_disabled": 0, "is_reserved": 0, "bike_id": "d31df24b728e9108d44140633a4324d8", "lon": -77.03718966666666}, {"fusion_lat": 0.0, "lat": 38.91704383333333, "rental_uris": {"ios": "https://dc.lft.to/lastmile_qr_scan", "android": "https://dc.lft.to/lastmile_qr_scan"}, "name": "3b831403c220314cad8a2f67835b3fa1", "type": "electric_scooter", "fusion_lon": 0.0, "is_disabled": 0, "is_reserved": 0, "bike_id": "3b831403c220314cad8a2f67835b3fa1", "lon": -77.03145716666667}, {"fusion_lat": 0.0, "lat": 38.90302616666666, "rental_uris": {"ios": "https://dc.lft.to/lastmile_qr_scan", "android": "https://dc.lft.to/lastmile_qr_scan"}, "name": "cd0e493da60a90ec924a1f20d1a763f9", "type": "electric_scooter", "fusion_lon": 0.0, "is_disabled": 0, "is_reserved": 0, "bike_id": "cd0e493da60a90ec924a1f20d1a763f9", "lon": -77.02142133333334}, {"fusion_lat": 0.0, "lat": 38.87899916666667, "rental_uris": {"ios": "https://dc.lft.to/lastmile_qr_scan", "android": "https://dc.lft.to/lastmile_qr_scan"}, "name": "f8bf46fc88ad958d13879f44b96ed491", "type": "electric_scooter", "fusion_lon": 0.0, "is_disabled": 0, "is_reserved": 0, "bike_id": "f8bf46fc88ad958d13879f44b96ed491", "lon": -77.01377066666667}, {"fusion_lat": 0.0, "lat": 38.90336166666667, "rental_uris": {"ios": "https://dc.lft.to/lastmile_qr_scan", "android": "https://dc.lft.to/lastmile_qr_scan"}, "name": "9687724de6ad2e8a49185c2a834badc1", "type": "electric_scooter", "fusion_lon": 0.0, "is_disabled": 0, "is_reserved": 0, "bike_id": "9687724de6ad2e8a49185c2a834badc1", "lon": -77.020135}, {"fusion_lat": 0.0, "lat": 38.912601, "rental_uris": {"ios": "https://dc.lft.to/lastmile_qr_scan", "android": "https://dc.lft.to/lastmile_qr_scan"}, "name": "2a36088fb14050758ac9a41a1ab48cb1", "type": "electric_scooter", "fusion_lon": 0.0, "is_disabled": 0, "is_reserved": 0, "bike_id": "2a36088fb14050758ac9a41a1ab48cb1", "lon": -77.022296}, {"fusion_lat": 0.0, "lat": 38.9112, "rental_uris": {"ios": "https://dc.lft.to/lastmile_qr_scan", "android": "https://dc.lft.to/lastmile_qr_scan"}, "name": "f9fef51b600f57242ab108c49424b72c", "type": "electric_scooter", "fusion_lon": 0.0, "is_disabled": 0, "is_reserved": 0, "bike_id": "f9fef51b600f57242ab108c49424b72c", "lon": -77.04359116666667}, {"fusion_lat": 0.0, "lat": 38.934264, "rental_uris": {"ios": "https://dc.lft.to/lastmile_qr_scan", "android": "https://dc.lft.to/lastmile_qr_scan"}, "name": "1b8905ed996655f36ccce3d462022665", "type": "electric_scooter", "fusion_lon": 0.0, "is_disabled": 0, "is_reserved": 0, "bike_id": "1b8905ed996655f36ccce3d462022665", "lon": -77.04000166666667}, {"fusion_lat": 0.0, "lat": 38.97239866666666, "rental_uris": {"ios": "https://dc.lft.to/lastmile_qr_scan", "android": "https://dc.lft.to/lastmile_qr_scan"}, "name": "fafa44c097301151cb752cb915ed428d", "type": "electric_scooter", "fusion_lon": 0.0, "is_disabled": 0, "is_reserved": 0, "bike_id": "fafa44c097301151cb752cb915ed428d", "lon": -77.0271435}, {"fusion_lat": 0.0, "lat": 38.90325166666667, "rental_uris": {"ios": "https://dc.lft.to/lastmile_qr_scan", "android": "https://dc.lft.to/lastmile_qr_scan"}, "name": "3809584fe9a4cf0aee335d6bbdde2aa6", "type": "electric_scooter", "fusion_lon": 0.0, "is_disabled": 0, "is_reserved": 0, "bike_id": "3809584fe9a4cf0aee335d6bbdde2aa6", "lon": -77.03838733333333}, {"fusion_lat": 0.0, "lat": 38.8992915, "rental_uris": {"ios": "https://dc.lft.to/lastmile_qr_scan", "android": "https://dc.lft.to/lastmile_qr_scan"}, "name": "d765dce82e6f3f6e4f187a3321986a9d", "type": "electric_scooter", "fusion_lon": 0.0, "is_disabled": 0, "is_reserved": 0, "bike_id": "d765dce82e6f3f6e4f187a3321986a9d", "lon": -77.031805}, {"fusion_lat": 0.0, "lat": 38.917154833333335, "rental_uris": {"ios": "https://dc.lft.to/lastmile_qr_scan", "android": "https://dc.lft.to/lastmile_qr_scan"}, "name": "afd4245a8caf3ab9b684bb7a358d567d", "type": "electric_scooter", "fusion_lon": 0.0, "is_disabled": 0, "is_reserved": 0, "bike_id": "afd4245a8caf3ab9b684bb7a358d567d", "lon": -77.04037883333334}, {"fusion_lat": 0.0, "lat": 38.894941333333335, "rental_uris": {"ios": "https://dc.lft.to/lastmile_qr_scan", "android": "https://dc.lft.to/lastmile_qr_scan"}, "name": "a916b72fa11fdf4720f77a42dd088e23", "type": "electric_scooter", "fusion_lon": 0.0, "is_disabled": 0, "is_reserved": 0, "bike_id": "a916b72fa11fdf4720f77a42dd088e23", "lon": -77.010925}, {"fusion_lat": 0.0, "lat": 38.936974, "rental_uris": {"ios": "https://dc.lft.to/lastmile_qr_scan", "android": "https://dc.lft.to/lastmile_qr_scan"}, "name": "30987a02ed5740dd6f95ad4c773457dc", "type": "electric_scooter", "fusion_lon": 0.0, "is_disabled": 0, "is_reserved": 0, "bike_id": "30987a02ed5740dd6f95ad4c773457dc", "lon": -77.03283666666667}, {"fusion_lat": 0.0, "lat": 38.921586, "rental_uris": {"ios": "https://dc.lft.to/lastmile_qr_scan", "android": "https://dc.lft.to/lastmile_qr_scan"}, "name": "c2a63a6330cafd9335a03370229ca03b", "type": "electric_scooter", "fusion_lon": 0.0, "is_disabled": 0, "is_reserved": 0, "bike_id": "c2a63a6330cafd9335a03370229ca03b", "lon": -77.046983}, {"fusion_lat": 0.0, "lat": 38.89645566666667, "rental_uris": {"ios": "https://dc.lft.to/lastmile_qr_scan", "android": "https://dc.lft.to/lastmile_qr_scan"}, "name": "00551ac9994714c7f1eaf1aff57c039c", "type": "electric_scooter", "fusion_lon": 0.0, "is_disabled": 0, "is_reserved": 0, "bike_id": "00551ac9994714c7f1eaf1aff57c039c", "lon": -77.00923816666666}, {"fusion_lat": 0.0, "lat": 38.89744916666667, "rental_uris": {"ios": "https://dc.lft.to/lastmile_qr_scan", "android": "https://dc.lft.to/lastmile_qr_scan"}, "name": "3c3183ff97a30e2eb9ca2f3cda39736a", "type": "electric_scooter", "fusion_lon": 0.0, "is_disabled": 0, "is_reserved": 0, "bike_id": "3c3183ff97a30e2eb9ca2f3cda39736a", "lon": -76.97977133333333}, {"fusion_lat": 0.0, "lat": 38.89827416666667, "rental_uris": {"ios": "https://dc.lft.to/lastmile_qr_scan", "android": "https://dc.lft.to/lastmile_qr_scan"}, "name": "19b47afd1a5c620e00406955264a5bf0", "type": "electric_scooter", "fusion_lon": 0.0, "is_disabled": 0, "is_reserved": 0, "bike_id": "19b47afd1a5c620e00406955264a5bf0", "lon": -77.02432516666667}, {"fusion_lat": 0.0, "lat": 38.892194, "rental_uris": {"ios": "https://dc.lft.to/lastmile_qr_scan", "android": "https://dc.lft.to/lastmile_qr_scan"}, "name": "aa4628a809be1520b06d7113261d82d2", "type": "electric_scooter", "fusion_lon": 0.0, "is_disabled": 0, "is_reserved": 0, "bike_id": "aa4628a809be1520b06d7113261d82d2", "lon": -77.04512433333333}, {"fusion_lat": 0.0, "lat": 38.92094433333333, "rental_uris": {"ios": "https://dc.lft.to/lastmile_qr_scan", "android": "https://dc.lft.to/lastmile_qr_scan"}, "name": "ec4aa44d7ae24358c41534e0123bbc5b", "type": "electric_scooter", "fusion_lon": 0.0, "is_disabled": 0, "is_reserved": 0, "bike_id": "ec4aa44d7ae24358c41534e0123bbc5b", "lon": -77.02236533333334}, {"fusion_lat": 0.0, "lat": 38.900577, "rental_uris": {"ios": "https://dc.lft.to/lastmile_qr_scan", "android": "https://dc.lft.to/lastmile_qr_scan"}, "name": "6e4e05d1e17733fe83cc145ab1c4da25", "type": "electric_scooter", "fusion_lon": 0.0, "is_disabled": 0, "is_reserved": 0, "bike_id": "6e4e05d1e17733fe83cc145ab1c4da25", "lon": -77.029687}, {"fusion_lat": 0.0, "lat": 38.91988683333334, "rental_uris": {"ios": "https://dc.lft.to/lastmile_qr_scan", "android": "https://dc.lft.to/lastmile_qr_scan"}, "name": "9e5b6ba6a6ca7e7d2a1285b880fa1868", "type": "electric_scooter", "fusion_lon": 0.0, "is_disabled": 0, "is_reserved": 0, "bike_id": "9e5b6ba6a6ca7e7d2a1285b880fa1868", "lon": -77.02529533333333}, {"fusion_lat": 0.0, "lat": 38.94525516666667, "rental_uris": {"ios": "https://dc.lft.to/lastmile_qr_scan", "android": "https://dc.lft.to/lastmile_qr_scan"}, "name": "443d39470a20e7a9c3fa2797b375ae0a", "type": "electric_scooter", "fusion_lon": 0.0, "is_disabled": 0, "is_reserved": 0, "bike_id": "443d39470a20e7a9c3fa2797b375ae0a", "lon": -77.06403233333333}, {"fusion_lat": 0.0, "lat": 38.8873105, "rental_uris": {"ios": "https://dc.lft.to/lastmile_qr_scan", "android": "https://dc.lft.to/lastmile_qr_scan"}, "name": "90aaad11011410055901cf616bf3f40b", "type": "electric_scooter", "fusion_lon": 0.0, "is_disabled": 0, "is_reserved": 0, "bike_id": "90aaad11011410055901cf616bf3f40b", "lon": -77.02580483333334}, {"fusion_lat": 0.0, "lat": 38.901523166666664, "rental_uris": {"ios": "https://dc.lft.to/lastmile_qr_scan", "android": "https://dc.lft.to/lastmile_qr_scan"}, "name": "581e694c57c964307573fef6bb440898", "type": "electric_scooter", "fusion_lon": 0.0, "is_disabled": 0, "is_reserved": 0, "bike_id": "581e694c57c964307573fef6bb440898", "lon": -77.03561883333333}, {"fusion_lat": 0.0, "lat": 38.86687833333333, "rental_uris": {"ios": "https://dc.lft.to/lastmile_qr_scan", "android": "https://dc.lft.to/lastmile_qr_scan"}, "name": "560035c2914ae06b10297a1d08f32aa3", "type": "electric_scooter", "fusion_lon": 0.0, "is_disabled": 0, "is_reserved": 0, "bike_id": "560035c2914ae06b10297a1d08f32aa3", "lon": -76.98573316666666}, {"fusion_lat": 0.0, "lat": 38.9060515, "rental_uris": {"ios": "https://dc.lft.to/lastmile_qr_scan", "android": "https://dc.lft.to/lastmile_qr_scan"}, "name": "314ea2f7e576b74377241462577ee177", "type": "electric_scooter", "fusion_lon": 0.0, "is_disabled": 0, "is_reserved": 0, "bike_id": "314ea2f7e576b74377241462577ee177", "lon": -77.05693033333333}, {"fusion_lat": 0.0, "lat": 38.914284, "rental_uris": {"ios": "https://dc.lft.to/lastmile_qr_scan", "android": "https://dc.lft.to/lastmile_qr_scan"}, "name": "f7baa08ae0441d14b4c9591b6a0f3527", "type": "electric_scooter", "fusion_lon": 0.0, "is_disabled": 0, "is_reserved": 0, "bike_id": "f7baa08ae0441d14b4c9591b6a0f3527", "lon": -77.03182733333334}, {"fusion_lat": 0.0, "lat": 38.932415, "rental_uris": {"ios": "https://dc.lft.to/lastmile_qr_scan", "android": "https://dc.lft.to/lastmile_qr_scan"}, "name": "24514b3303684978ec07b183d2dd20c2", "type": "electric_scooter", "fusion_lon": 0.0, "is_disabled": 0, "is_reserved": 0, "bike_id": "24514b3303684978ec07b183d2dd20c2", "lon": -77.03420116666666}, {"fusion_lat": 0.0, "lat": 38.93187866666667, "rental_uris": {"ios": "https://dc.lft.to/lastmile_qr_scan", "android": "https://dc.lft.to/lastmile_qr_scan"}, "name": "bec4934dd736c421af7e900af4d3093b", "type": "electric_scooter", "fusion_lon": 0.0, "is_disabled": 0, "is_reserved": 0, "bike_id": "bec4934dd736c421af7e900af4d3093b", "lon": -77.07347033333333}, {"fusion_lat": 0.0, "lat": 38.898435666666664, "rental_uris": {"ios": "https://dc.lft.to/lastmile_qr_scan", "android": "https://dc.lft.to/lastmile_qr_scan"}, "name": "2a13750ce81388c2c4386ef5b412fed8", "type": "electric_scooter", "fusion_lon": 0.0, "is_disabled": 0, "is_reserved": 0, "bike_id": "2a13750ce81388c2c4386ef5b412fed8", "lon": -77.0415765}, {"fusion_lat": 0.0, "lat": 38.89616683333333, "rental_uris": {"ios": "https://dc.lft.to/lastmile_qr_scan", "android": "https://dc.lft.to/lastmile_qr_scan"}, "name": "403644cba3d227b92a3e3e8d2d6c1915", "type": "electric_bike", "fusion_lon": 0.0, "is_disabled": 0, "is_reserved": 0, "bike_id": "403644cba3d227b92a3e3e8d2d6c1915", "lon": -76.90744083333334}, {"fusion_lat": 0.0, "lat": 38.9267525, "rental_uris": {"ios": "https://dc.lft.to/lastmile_qr_scan", "android": "https://dc.lft.to/lastmile_qr_scan"}, "name": "fad12a55315e91487dd54fe280444459", "type": "electric_scooter", "fusion_lon": 0.0, "is_disabled": 0, "is_reserved": 0, "bike_id": "fad12a55315e91487dd54fe280444459", "lon": -77.01487816666666}, {"fusion_lat": 0.0, "lat": 38.91032883333333, "rental_uris": {"ios": "https://dc.lft.to/lastmile_qr_scan", "android": "https://dc.lft.to/lastmile_qr_scan"}, "name": "e488c38c2923de47e78ecb4769b5864f", "type": "electric_scooter", "fusion_lon": 0.0, "is_disabled": 0, "is_reserved": 0, "bike_id": "e488c38c2923de47e78ecb4769b5864f", "lon": -77.02927216666667}, {"fusion_lat": 0.0, "lat": 38.8045285, "rental_uris": {"ios": "https://dc.lft.to/lastmile_qr_scan", "android": "https://dc.lft.to/lastmile_qr_scan"}, "name": "c4718d95aecd9338a6249749974ffecc", "type": "electric_bike", "fusion_lon": 0.0, "is_disabled": 0, "is_reserved": 0, "bike_id": "c4718d95aecd9338a6249749974ffecc", "lon": -77.053921}, {"fusion_lat": 0.0, "lat": 38.88720166666667, "rental_uris": {"ios": "https://dc.lft.to/lastmile_qr_scan", "android": "https://dc.lft.to/lastmile_qr_scan"}, "name": "60be2204dca7f7e1a677e36fa28863f2", "type": "electric_scooter", "fusion_lon": 0.0, "is_disabled": 0, "is_reserved": 0, "bike_id": "60be2204dca7f7e1a677e36fa28863f2", "lon": -76.99687216666666}, {"fusion_lat": 0.0, "lat": 38.9156, "rental_uris": {"ios": "https://dc.lft.to/lastmile_qr_scan", "android": "https://dc.lft.to/lastmile_qr_scan"}, "name": "9963b4a4c46566c6ffbac8653d518a0d", "type": "electric_scooter", "fusion_lon": 0.0, "is_disabled": 0, "is_reserved": 0, "bike_id": "9963b4a4c46566c6ffbac8653d518a0d", "lon": -77.03946133333334}, {"fusion_lat": 0.0, "lat": 38.927235833333334, "rental_uris": {"ios": "https://dc.lft.to/lastmile_qr_scan", "android": "https://dc.lft.to/lastmile_qr_scan"}, "name": "0609b643202af51dfa882f0028839c22", "type": "electric_scooter", "fusion_lon": 0.0, "is_disabled": 0, "is_reserved": 0, "bike_id": "0609b643202af51dfa882f0028839c22", "lon": -77.03248916666666}, {"fusion_lat": 0.0, "lat": 38.888703, "rental_uris": {"ios": "https://dc.lft.to/lastmile_qr_scan", "android": "https://dc.lft.to/lastmile_qr_scan"}, "name": "7d8ed31a8724f038e220d82c06bb6642", "type": "electric_bike", "fusion_lon": 0.0, "is_disabled": 0, "is_reserved": 0, "bike_id": "7d8ed31a8724f038e220d82c06bb6642", "lon": -77.03999466666667}, {"fusion_lat": 0.0, "lat": 38.897330833333335, "rental_uris": {"ios": "https://dc.lft.to/lastmile_qr_scan", "android": "https://dc.lft.to/lastmile_qr_scan"}, "name": "a6320ad7fd9f7be199f8026d99297264", "type": "electric_scooter", "fusion_lon": 0.0, "is_disabled": 0, "is_reserved": 0, "bike_id": "a6320ad7fd9f7be199f8026d99297264", "lon": -77.05523133333334}, {"fusion_lat": 0.0, "lat": 39.03428266666667, "rental_uris": {"ios": "https://dc.lft.to/lastmile_qr_scan", "android": "https://dc.lft.to/lastmile_qr_scan"}, "name": "4d68b6f7b5f0267f61a47a347da5e7be", "type": "electric_bike", "fusion_lon": 0.0, "is_disabled": 0, "is_reserved": 0, "bike_id": "4d68b6f7b5f0267f61a47a347da5e7be", "lon": -77.04292383333333}, {"fusion_lat": 0.0, "lat": 38.950703833333336, "rental_uris": {"ios": "https://dc.lft.to/lastmile_qr_scan", "android": "https://dc.lft.to/lastmile_qr_scan"}, "name": "301e83dd4d5e53c91d01a8dca2283ec8", "type": "electric_scooter", "fusion_lon": 0.0, "is_disabled": 0, "is_reserved": 0, "bike_id": "301e83dd4d5e53c91d01a8dca2283ec8", "lon": -76.99616433333334}, {"fusion_lat": 0.0, "lat": 38.905115333333335, "rental_uris": {"ios": "https://dc.lft.to/lastmile_qr_scan", "android": "https://dc.lft.to/lastmile_qr_scan"}, "name": "f18691bfb9223bd1e621156abba98cbf", "type": "electric_scooter", "fusion_lon": 0.0, "is_disabled": 0, "is_reserved": 0, "bike_id": "f18691bfb9223bd1e621156abba98cbf", "lon": -77.06137183333334}, {"fusion_lat": 0.0, "lat": 38.9350525, "rental_uris": {"ios": "https://dc.lft.to/lastmile_qr_scan", "android": "https://dc.lft.to/lastmile_qr_scan"}, "name": "9094bbc076bc8b4231713834aa69ec09", "type": "electric_scooter", "fusion_lon": 0.0, "is_disabled": 0, "is_reserved": 0, "bike_id": "9094bbc076bc8b4231713834aa69ec09", "lon": -77.02407733333334}, {"fusion_lat": 0.0, "lat": 38.9725895, "rental_uris": {"ios": "https://dc.lft.to/lastmile_qr_scan", "android": "https://dc.lft.to/lastmile_qr_scan"}, "name": "fb6bc2822a09947009543d08f47ef21d", "type": "electric_bike", "fusion_lon": 0.0, "is_disabled": 0, "is_reserved": 0, "bike_id": "fb6bc2822a09947009543d08f47ef21d", "lon": -76.992737}, {"fusion_lat": 0.0, "lat": 38.9192555, "rental_uris": {"ios": "https://dc.lft.to/lastmile_qr_scan", "android": "https://dc.lft.to/lastmile_qr_scan"}, "name": "0f908aaf6cddcbf5830ff96ae7b5c48d", "type": "electric_scooter", "fusion_lon": 0.0, "is_disabled": 0, "is_reserved": 0, "bike_id": "0f908aaf6cddcbf5830ff96ae7b5c48d", "lon": -77.02413066666666}, {"fusion_lat": 0.0, "lat": 38.925401, "rental_uris": {"ios": "https://dc.lft.to/lastmile_qr_scan", "android": "https://dc.lft.to/lastmile_qr_scan"}, "name": "02f0d62f31f98825225c70e0c32acadb", "type": "electric_scooter", "fusion_lon": 0.0, "is_disabled": 0, "is_reserved": 0, "bike_id": "02f0d62f31f98825225c70e0c32acadb", "lon": -77.0338195}, {"fusion_lat": 0.0, "lat": 38.89837283333333, "rental_uris": {"ios": "https://dc.lft.to/lastmile_qr_scan", "android": "https://dc.lft.to/lastmile_qr_scan"}, "name": "2e3a435cc7da021afd429a10ef5109c7", "type": "electric_scooter", "fusion_lon": 0.0, "is_disabled": 0, "is_reserved": 0, "bike_id": "2e3a435cc7da021afd429a10ef5109c7", "lon": -77.03178183333333}, {"fusion_lat": 0.0, "lat": 38.896141666666665, "rental_uris": {"ios": "https://dc.lft.to/lastmile_qr_scan", "android": "https://dc.lft.to/lastmile_qr_scan"}, "name": "6186395e58f2e116546acd768d8d7fcd", "type": "electric_scooter", "fusion_lon": 0.0, "is_disabled": 0, "is_reserved": 0, "bike_id": "6186395e58f2e116546acd768d8d7fcd", "lon": -77.04095816666667}, {"fusion_lat": 0.0, "lat": 38.9038325, "rental_uris": {"ios": "https://dc.lft.to/lastmile_qr_scan", "android": "https://dc.lft.to/lastmile_qr_scan"}, "name": "f96a40e5e23c440e3d84885476f91f95", "type": "electric_scooter", "fusion_lon": 0.0, "is_disabled": 0, "is_reserved": 0, "bike_id": "f96a40e5e23c440e3d84885476f91f95", "lon": -77.06514783333333}, {"fusion_lat": 0.0, "lat": 38.9234665, "rental_uris": {"ios": "https://dc.lft.to/lastmile_qr_scan", "android": "https://dc.lft.to/lastmile_qr_scan"}, "name": "d30a91be73253e349086c4c7de7974eb", "type": "electric_scooter", "fusion_lon": 0.0, "is_disabled": 0, "is_reserved": 0, "bike_id": "d30a91be73253e349086c4c7de7974eb", "lon": -77.05121216666667}, {"fusion_lat": 0.0, "lat": 38.88301, "rental_uris": {"ios": "https://dc.lft.to/lastmile_qr_scan", "android": "https://dc.lft.to/lastmile_qr_scan"}, "name": "eb9152cb9ff6e50c677079b4641e965d", "type": "electric_scooter", "fusion_lon": 0.0, "is_disabled": 0, "is_reserved": 0, "bike_id": "eb9152cb9ff6e50c677079b4641e965d", "lon": -77.0174865}, {"fusion_lat": 0.0, "lat": 38.924678, "rental_uris": {"ios": "https://dc.lft.to/lastmile_qr_scan", "android": "https://dc.lft.to/lastmile_qr_scan"}, "name": "37603a6909d934225ff8d5d71b8cef5e", "type": "electric_scooter", "fusion_lon": 0.0, "is_disabled": 0, "is_reserved": 0, "bike_id": "37603a6909d934225ff8d5d71b8cef5e", "lon": -77.02152066666666}, {"fusion_lat": 0.0, "lat": 38.8675395, "rental_uris": {"ios": "https://dc.lft.to/lastmile_qr_scan", "android": "https://dc.lft.to/lastmile_qr_scan"}, "name": "787232df833860c5471da0b27259032f", "type": "electric_bike", "fusion_lon": 0.0, "is_disabled": 0, "is_reserved": 0, "bike_id": "787232df833860c5471da0b27259032f", "lon": -76.945365}, {"fusion_lat": 0.0, "lat": 38.89472383333333, "rental_uris": {"ios": "https://dc.lft.to/lastmile_qr_scan", "android": "https://dc.lft.to/lastmile_qr_scan"}, "name": "4f668b527c575a6c4d8811ac5a2c6de6", "type": "electric_scooter", "fusion_lon": 0.0, "is_disabled": 0, "is_reserved": 0, "bike_id": "4f668b527c575a6c4d8811ac5a2c6de6", "lon": -77.01661283333334}, {"fusion_lat": 0.0, "lat": 38.90437716666667, "rental_uris": {"ios": "https://dc.lft.to/lastmile_qr_scan", "android": "https://dc.lft.to/lastmile_qr_scan"}, "name": "67854c6256bb21d5fd39e5354d82cf4b", "type": "electric_scooter", "fusion_lon": 0.0, "is_disabled": 0, "is_reserved": 0, "bike_id": "67854c6256bb21d5fd39e5354d82cf4b", "lon": -77.06016366666667}, {"fusion_lat": 0.0, "lat": 38.902446833333336, "rental_uris": {"ios": "https://dc.lft.to/lastmile_qr_scan", "android": "https://dc.lft.to/lastmile_qr_scan"}, "name": "f43e00fa6cae47363ea6926f4f9ec126", "type": "electric_scooter", "fusion_lon": 0.0, "is_disabled": 0, "is_reserved": 0, "bike_id": "f43e00fa6cae47363ea6926f4f9ec126", "lon": -77.03414166666667}, {"fusion_lat": 0.0, "lat": 38.923252166666664, "rental_uris": {"ios": "https://dc.lft.to/lastmile_qr_scan", "android": "https://dc.lft.to/lastmile_qr_scan"}, "name": "9e185bd81faf6c49611bc7426a6a7124", "type": "electric_scooter", "fusion_lon": 0.0, "is_disabled": 0, "is_reserved": 0, "bike_id": "9e185bd81faf6c49611bc7426a6a7124", "lon": -77.02901266666667}, {"fusion_lat": 0.0, "lat": 38.897266333333334, "rental_uris": {"ios": "https://dc.lft.to/lastmile_qr_scan", "android": "https://dc.lft.to/lastmile_qr_scan"}, "name": "35bb6af8397f9f23102fdd48267f3095", "type": "electric_scooter", "fusion_lon": 0.0, "is_disabled": 0, "is_reserved": 0, "bike_id": "35bb6af8397f9f23102fdd48267f3095", "lon": -76.994702}, {"fusion_lat": 0.0, "lat": 38.8861445, "rental_uris": {"ios": "https://dc.lft.to/lastmile_qr_scan", "android": "https://dc.lft.to/lastmile_qr_scan"}, "name": "8761931f89041e1d473e0b1685699800", "type": "electric_scooter", "fusion_lon": 0.0, "is_disabled": 0, "is_reserved": 0, "bike_id": "8761931f89041e1d473e0b1685699800", "lon": -77.0124895}, {"fusion_lat": 0.0, "lat": 38.884946666666664, "rental_uris": {"ios": "https://dc.lft.to/lastmile_qr_scan", "android": "https://dc.lft.to/lastmile_qr_scan"}, "name": "c38054e168893ef012bab5b10c9f643a", "type": "electric_bike", "fusion_lon": 0.0, "is_disabled": 0, "is_reserved": 0, "bike_id": "c38054e168893ef012bab5b10c9f643a", "lon": -76.956687}, {"fusion_lat": 0.0, "lat": 38.91496883333333, "rental_uris": {"ios": "https://dc.lft.to/lastmile_qr_scan", "android": "https://dc.lft.to/lastmile_qr_scan"}, "name": "566ddbe3618554ec696226c439701e48", "type": "electric_scooter", "fusion_lon": 0.0, "is_disabled": 0, "is_reserved": 0, "bike_id": "566ddbe3618554ec696226c439701e48", "lon": -76.983713}, {"fusion_lat": 0.0, "lat": 38.9103665, "rental_uris": {"ios": "https://dc.lft.to/lastmile_qr_scan", "android": "https://dc.lft.to/lastmile_qr_scan"}, "name": "139f12318abfdbd6a42148563933158a", "type": "electric_scooter", "fusion_lon": 0.0, "is_disabled": 0, "is_reserved": 0, "bike_id": "139f12318abfdbd6a42148563933158a", "lon": -77.07574583333333}, {"fusion_lat": 0.0, "lat": 38.881517333333335, "rental_uris": {"ios": "https://dc.lft.to/lastmile_qr_scan", "android": "https://dc.lft.to/lastmile_qr_scan"}, "name": "21f462fb23d351dd457673eb428727b4", "type": "electric_scooter", "fusion_lon": 0.0, "is_disabled": 0, "is_reserved": 0, "bike_id": "21f462fb23d351dd457673eb428727b4", "lon": -77.02734}, {"fusion_lat": 0.0, "lat": 38.8798775, "rental_uris": {"ios": "https://dc.lft.to/lastmile_qr_scan", "android": "https://dc.lft.to/lastmile_qr_scan"}, "name": "408c235ce0aa43b0eeec6f3cc492def2", "type": "electric_scooter", "fusion_lon": 0.0, "is_disabled": 0, "is_reserved": 0, "bike_id": "408c235ce0aa43b0eeec6f3cc492def2", "lon": -77.024125}, {"fusion_lat": 0.0, "lat": 38.9234525, "rental_uris": {"ios": "https://dc.lft.to/lastmile_qr_scan", "android": "https://dc.lft.to/lastmile_qr_scan"}, "name": "d620533a63aa9afd1bd7cfaa8c7087f2", "type": "electric_scooter", "fusion_lon": 0.0, "is_disabled": 0, "is_reserved": 0, "bike_id": "d620533a63aa9afd1bd7cfaa8c7087f2", "lon": -77.051188}, {"fusion_lat": 0.0, "lat": 38.798571333333335, "rental_uris": {"ios": "https://dc.lft.to/lastmile_qr_scan", "android": "https://dc.lft.to/lastmile_qr_scan"}, "name": "2525c466b55aba2d21fc299f925e0010", "type": "electric_bike", "fusion_lon": 0.0, "is_disabled": 0, "is_reserved": 0, "bike_id": "2525c466b55aba2d21fc299f925e0010", "lon": -77.06306566666666}, {"fusion_lat": 0.0, "lat": 38.857739, "rental_uris": {"ios": "https://dc.lft.to/lastmile_qr_scan", "android": "https://dc.lft.to/lastmile_qr_scan"}, "name": "baade9ddc2b9624db8b1e6a85d4dee3c", "type": "electric_bike", "fusion_lon": 0.0, "is_disabled": 0, "is_reserved": 0, "bike_id": "baade9ddc2b9624db8b1e6a85d4dee3c", "lon": -76.987586}, {"fusion_lat": 0.0, "lat": 38.9170895, "rental_uris": {"ios": "https://dc.lft.to/lastmile_qr_scan", "android": "https://dc.lft.to/lastmile_qr_scan"}, "name": "ff1f0e78340586f1635231df3079517d", "type": "electric_scooter", "fusion_lon": 0.0, "is_disabled": 0, "is_reserved": 0, "bike_id": "ff1f0e78340586f1635231df3079517d", "lon": -77.03144766666666}, {"fusion_lat": 0.0, "lat": 38.947556666666664, "rental_uris": {"ios": "https://dc.lft.to/lastmile_qr_scan", "android": "https://dc.lft.to/lastmile_qr_scan"}, "name": "87a1226f8dbd174d934594bbd65b9f11", "type": "electric_scooter", "fusion_lon": 0.0, "is_disabled": 0, "is_reserved": 0, "bike_id": "87a1226f8dbd174d934594bbd65b9f11", "lon": -77.00719933333333}, {"fusion_lat": 0.0, "lat": 38.90561183333333, "rental_uris": {"ios": "https://dc.lft.to/lastmile_qr_scan", "android": "https://dc.lft.to/lastmile_qr_scan"}, "name": "801b0de7eed4efc17b3cac24a961aecf", "type": "electric_scooter", "fusion_lon": 0.0, "is_disabled": 0, "is_reserved": 0, "bike_id": "801b0de7eed4efc17b3cac24a961aecf", "lon": -77.0347745}, {"fusion_lat": 0.0, "lat": 38.8417845, "rental_uris": {"ios": "https://dc.lft.to/lastmile_qr_scan", "android": "https://dc.lft.to/lastmile_qr_scan"}, "name": "dea32983043d9388a2af55b43517fb4d", "type": "electric_scooter", "fusion_lon": 0.0, "is_disabled": 0, "is_reserved": 0, "bike_id": "dea32983043d9388a2af55b43517fb4d", "lon": -76.99786533333334}, {"fusion_lat": 0.0, "lat": 38.9050365, "rental_uris": {"ios": "https://dc.lft.to/lastmile_qr_scan", "android": "https://dc.lft.to/lastmile_qr_scan"}, "name": "01372ba07e112f4f8107d34d19ce00ac", "type": "electric_scooter", "fusion_lon": 0.0, "is_disabled": 0, "is_reserved": 0, "bike_id": "01372ba07e112f4f8107d34d19ce00ac", "lon": -77.00103216666666}, {"fusion_lat": 0.0, "lat": 38.944325, "rental_uris": {"ios": "https://dc.lft.to/lastmile_qr_scan", "android": "https://dc.lft.to/lastmile_qr_scan"}, "name": "55a11ffb52f467a6eb0f170acb3e69f3", "type": "electric_bike", "fusion_lon": 0.0, "is_disabled": 0, "is_reserved": 0, "bike_id": "55a11ffb52f467a6eb0f170acb3e69f3", "lon": -77.02604333333333}, {"fusion_lat": 0.0, "lat": 38.9107745, "rental_uris": {"ios": "https://dc.lft.to/lastmile_qr_scan", "android": "https://dc.lft.to/lastmile_qr_scan"}, "name": "ece1f510024953568eb04e3346719d31", "type": "electric_scooter", "fusion_lon": 0.0, "is_disabled": 0, "is_reserved": 0, "bike_id": "ece1f510024953568eb04e3346719d31", "lon": -77.03026633333333}, {"fusion_lat": 0.0, "lat": 38.91733466666667, "rental_uris": {"ios": "https://dc.lft.to/lastmile_qr_scan", "android": "https://dc.lft.to/lastmile_qr_scan"}, "name": "ad0777f9c5e090250136591c886f29a1", "type": "electric_scooter", "fusion_lon": 0.0, "is_disabled": 0, "is_reserved": 0, "bike_id": "ad0777f9c5e090250136591c886f29a1", "lon": -77.02809533333334}, {"fusion_lat": 0.0, "lat": 38.9470355, "rental_uris": {"ios": "https://dc.lft.to/lastmile_qr_scan", "android": "https://dc.lft.to/lastmile_qr_scan"}, "name": "8b59b1e2399ab57a73b23614282c36e2", "type": "electric_scooter", "fusion_lon": 0.0, "is_disabled": 0, "is_reserved": 0, "bike_id": "8b59b1e2399ab57a73b23614282c36e2", "lon": -77.01938683333333}, {"fusion_lat": 0.0, "lat": 38.9111785, "rental_uris": {"ios": "https://dc.lft.to/lastmile_qr_scan", "android": "https://dc.lft.to/lastmile_qr_scan"}, "name": "25111b26275616576d460853e21db5b8", "type": "electric_scooter", "fusion_lon": 0.0, "is_disabled": 0, "is_reserved": 0, "bike_id": "25111b26275616576d460853e21db5b8", "lon": -77.022399}, {"fusion_lat": 0.0, "lat": 38.902848166666665, "rental_uris": {"ios": "https://dc.lft.to/lastmile_qr_scan", "android": "https://dc.lft.to/lastmile_qr_scan"}, "name": "b792758250448d8ab9be853555e0a199", "type": "electric_scooter", "fusion_lon": 0.0, "is_disabled": 0, "is_reserved": 0, "bike_id": "b792758250448d8ab9be853555e0a199", "lon": -77.04565233333334}, {"fusion_lat": 0.0, "lat": 38.895227, "rental_uris": {"ios": "https://dc.lft.to/lastmile_qr_scan", "android": "https://dc.lft.to/lastmile_qr_scan"}, "name": "f00001839b7642ddb1e5bad3f979fc38", "type": "electric_scooter", "fusion_lon": 0.0, "is_disabled": 0, "is_reserved": 0, "bike_id": "f00001839b7642ddb1e5bad3f979fc38", "lon": -77.02280516666667}, {"fusion_lat": 0.0, "lat": 38.887339, "rental_uris": {"ios": "https://dc.lft.to/lastmile_qr_scan", "android": "https://dc.lft.to/lastmile_qr_scan"}, "name": "a030d4bdf23392793b8e046c6c8ae3ee", "type": "electric_scooter", "fusion_lon": 0.0, "is_disabled": 0, "is_reserved": 0, "bike_id": "a030d4bdf23392793b8e046c6c8ae3ee", "lon": -77.02831833333333}, {"fusion_lat": 0.0, "lat": 38.86660366666667, "rental_uris": {"ios": "https://dc.lft.to/lastmile_qr_scan", "android": "https://dc.lft.to/lastmile_qr_scan"}, "name": "78bfea7ef1a8ac7c09769b580482448d", "type": "electric_scooter", "fusion_lon": 0.0, "is_disabled": 0, "is_reserved": 0, "bike_id": "78bfea7ef1a8ac7c09769b580482448d", "lon": -76.98881983333334}, {"fusion_lat": 0.0, "lat": 38.857947, "rental_uris": {"ios": "https://dc.lft.to/lastmile_qr_scan", "android": "https://dc.lft.to/lastmile_qr_scan"}, "name": "548ac28508f52dcfc4be942d409bf569", "type": "electric_scooter", "fusion_lon": 0.0, "is_disabled": 0, "is_reserved": 0, "bike_id": "548ac28508f52dcfc4be942d409bf569", "lon": -76.98911783333334}, {"fusion_lat": 0.0, "lat": 38.91374966666667, "rental_uris": {"ios": "https://dc.lft.to/lastmile_qr_scan", "android": "https://dc.lft.to/lastmile_qr_scan"}, "name": "dabe7f887d4eef8fa989dc3970e94109", "type": "electric_scooter", "fusion_lon": 0.0, "is_disabled": 0, "is_reserved": 0, "bike_id": "dabe7f887d4eef8fa989dc3970e94109", "lon": -77.04495083333333}, {"fusion_lat": 0.0, "lat": 38.92438716666667, "rental_uris": {"ios": "https://dc.lft.to/lastmile_qr_scan", "android": "https://dc.lft.to/lastmile_qr_scan"}, "name": "0789f49229c41bc05d73e82b40be5133", "type": "electric_scooter", "fusion_lon": 0.0, "is_disabled": 0, "is_reserved": 0, "bike_id": "0789f49229c41bc05d73e82b40be5133", "lon": -77.034086}, {"fusion_lat": 0.0, "lat": 38.865502, "rental_uris": {"ios": "https://dc.lft.to/lastmile_qr_scan", "android": "https://dc.lft.to/lastmile_qr_scan"}, "name": "385047130e3cc7a5a7967ff42ec67e4e", "type": "electric_scooter", "fusion_lon": 0.0, "is_disabled": 0, "is_reserved": 0, "bike_id": "385047130e3cc7a5a7967ff42ec67e4e", "lon": -76.978637}, {"fusion_lat": 0.0, "lat": 38.92448366666667, "rental_uris": {"ios": "https://dc.lft.to/lastmile_qr_scan", "android": "https://dc.lft.to/lastmile_qr_scan"}, "name": "c87544c6aaa98693e2acd994a2835ef4", "type": "electric_scooter", "fusion_lon": 0.0, "is_disabled": 0, "is_reserved": 0, "bike_id": "c87544c6aaa98693e2acd994a2835ef4", "lon": -77.02142533333334}, {"fusion_lat": 0.0, "lat": 38.9305645, "rental_uris": {"ios": "https://dc.lft.to/lastmile_qr_scan", "android": "https://dc.lft.to/lastmile_qr_scan"}, "name": "4aac031df344a2883c1f6aa0b5611883", "type": "electric_scooter", "fusion_lon": 0.0, "is_disabled": 0, "is_reserved": 0, "bike_id": "4aac031df344a2883c1f6aa0b5611883", "lon": -77.01865333333333}, {"fusion_lat": 0.0, "lat": 38.89045216666667, "rental_uris": {"ios": "https://dc.lft.to/lastmile_qr_scan", "android": "https://dc.lft.to/lastmile_qr_scan"}, "name": "f9e2c94bcea434b8266d81cdb397fa88", "type": "electric_scooter", "fusion_lon": 0.0, "is_disabled": 0, "is_reserved": 0, "bike_id": "f9e2c94bcea434b8266d81cdb397fa88", "lon": -76.9524535}, {"fusion_lat": 0.0, "lat": 38.900213666666666, "rental_uris": {"ios": "https://dc.lft.to/lastmile_qr_scan", "android": "https://dc.lft.to/lastmile_qr_scan"}, "name": "a4fb2fa611c7a0c7fdb8e6f6858f4927", "type": "electric_scooter", "fusion_lon": 0.0, "is_disabled": 0, "is_reserved": 0, "bike_id": "a4fb2fa611c7a0c7fdb8e6f6858f4927", "lon": -77.04503766666667}, {"fusion_lat": 0.0, "lat": 38.92784433333333, "rental_uris": {"ios": "https://dc.lft.to/lastmile_qr_scan", "android": "https://dc.lft.to/lastmile_qr_scan"}, "name": "18cd361de3570cb367497d67a5d030c3", "type": "electric_scooter", "fusion_lon": 0.0, "is_disabled": 0, "is_reserved": 0, "bike_id": "18cd361de3570cb367497d67a5d030c3", "lon": -77.020973}, {"fusion_lat": 0.0, "lat": 38.90972333333333, "rental_uris": {"ios": "https://dc.lft.to/lastmile_qr_scan", "android": "https://dc.lft.to/lastmile_qr_scan"}, "name": "8ba9600f4a16a0be4025c05a2aea50b5", "type": "electric_scooter", "fusion_lon": 0.0, "is_disabled": 0, "is_reserved": 0, "bike_id": "8ba9600f4a16a0be4025c05a2aea50b5", "lon": -77.04523083333333}, {"fusion_lat": 0.0, "lat": 38.89947083333333, "rental_uris": {"ios": "https://dc.lft.to/lastmile_qr_scan", "android": "https://dc.lft.to/lastmile_qr_scan"}, "name": "7be7538c0924a81fd9facc81e1408654", "type": "electric_scooter", "fusion_lon": 0.0, "is_disabled": 0, "is_reserved": 0, "bike_id": "7be7538c0924a81fd9facc81e1408654", "lon": -76.98163583333333}, {"fusion_lat": 0.0, "lat": 38.929310666666666, "rental_uris": {"ios": "https://dc.lft.to/lastmile_qr_scan", "android": "https://dc.lft.to/lastmile_qr_scan"}, "name": "fed0bc332a4cb0dca85551807f4afdca", "type": "electric_scooter", "fusion_lon": 0.0, "is_disabled": 0, "is_reserved": 0, "bike_id": "fed0bc332a4cb0dca85551807f4afdca", "lon": -77.03260233333333}, {"fusion_lat": 0.0, "lat": 38.907847833333335, "rental_uris": {"ios": "https://dc.lft.to/lastmile_qr_scan", "android": "https://dc.lft.to/lastmile_qr_scan"}, "name": "21194601629bf411a4ba21a5dc5718b0", "type": "electric_scooter", "fusion_lon": 0.0, "is_disabled": 0, "is_reserved": 0, "bike_id": "21194601629bf411a4ba21a5dc5718b0", "lon": -77.02714616666667}, {"fusion_lat": 0.0, "lat": 38.91927583333333, "rental_uris": {"ios": "https://dc.lft.to/lastmile_qr_scan", "android": "https://dc.lft.to/lastmile_qr_scan"}, "name": "35d9e77704d591cc951165c940105f33", "type": "electric_scooter", "fusion_lon": 0.0, "is_disabled": 0, "is_reserved": 0, "bike_id": "35d9e77704d591cc951165c940105f33", "lon": -77.028193}, {"fusion_lat": 0.0, "lat": 38.796992833333334, "rental_uris": {"ios": "https://dc.lft.to/lastmile_qr_scan", "android": "https://dc.lft.to/lastmile_qr_scan"}, "name": "c268b43e8c5ce7b7b1257ca902a24426", "type": "electric_bike", "fusion_lon": 0.0, "is_disabled": 0, "is_reserved": 0, "bike_id": "c268b43e8c5ce7b7b1257ca902a24426", "lon": -77.0037165}, {"fusion_lat": 0.0, "lat": 38.887212166666664, "rental_uris": {"ios": "https://dc.lft.to/lastmile_qr_scan", "android": "https://dc.lft.to/lastmile_qr_scan"}, "name": "75ad079d2091c5b4e82ab70eadd25c91", "type": "electric_scooter", "fusion_lon": 0.0, "is_disabled": 0, "is_reserved": 0, "bike_id": "75ad079d2091c5b4e82ab70eadd25c91", "lon": -76.99689416666666}, {"fusion_lat": 0.0, "lat": 38.9157535, "rental_uris": {"ios": "https://dc.lft.to/lastmile_qr_scan", "android": "https://dc.lft.to/lastmile_qr_scan"}, "name": "54af86b8e7db7ab0caf42f6d52c0ee73", "type": "electric_scooter", "fusion_lon": 0.0, "is_disabled": 0, "is_reserved": 0, "bike_id": "54af86b8e7db7ab0caf42f6d52c0ee73", "lon": -77.03183216666666}, {"fusion_lat": 0.0, "lat": 38.908644, "rental_uris": {"ios": "https://dc.lft.to/lastmile_qr_scan", "android": "https://dc.lft.to/lastmile_qr_scan"}, "name": "93c61596eb642bc0cb451aa0c03c3998", "type": "electric_scooter", "fusion_lon": 0.0, "is_disabled": 0, "is_reserved": 0, "bike_id": "93c61596eb642bc0cb451aa0c03c3998", "lon": -77.04267966666667}, {"fusion_lat": 0.0, "lat": 38.935346333333335, "rental_uris": {"ios": "https://dc.lft.to/lastmile_qr_scan", "android": "https://dc.lft.to/lastmile_qr_scan"}, "name": "6f3ddda1df3c760fbc5087dd9724cc24", "type": "electric_scooter", "fusion_lon": 0.0, "is_disabled": 0, "is_reserved": 0, "bike_id": "6f3ddda1df3c760fbc5087dd9724cc24", "lon": -77.023554}, {"fusion_lat": 0.0, "lat": 38.896793, "rental_uris": {"ios": "https://dc.lft.to/lastmile_qr_scan", "android": "https://dc.lft.to/lastmile_qr_scan"}, "name": "f2067bfd3940a8dab74265f493c7f17d", "type": "electric_scooter", "fusion_lon": 0.0, "is_disabled": 0, "is_reserved": 0, "bike_id": "f2067bfd3940a8dab74265f493c7f17d", "lon": -77.0489645}, {"fusion_lat": 0.0, "lat": 38.8874675, "rental_uris": {"ios": "https://dc.lft.to/lastmile_qr_scan", "android": "https://dc.lft.to/lastmile_qr_scan"}, "name": "4eaa1ac97f60ca6e3759d12938dbaeba", "type": "electric_scooter", "fusion_lon": 0.0, "is_disabled": 0, "is_reserved": 0, "bike_id": "4eaa1ac97f60ca6e3759d12938dbaeba", "lon": -77.02845016666667}, {"fusion_lat": 0.0, "lat": 38.90037783333333, "rental_uris": {"ios": "https://dc.lft.to/lastmile_qr_scan", "android": "https://dc.lft.to/lastmile_qr_scan"}, "name": "a4e6dbcdd9693c407259b42bac960a6b", "type": "electric_scooter", "fusion_lon": 0.0, "is_disabled": 0, "is_reserved": 0, "bike_id": "a4e6dbcdd9693c407259b42bac960a6b", "lon": -76.98559616666667}, {"fusion_lat": 0.0, "lat": 38.9204485, "rental_uris": {"ios": "https://dc.lft.to/lastmile_qr_scan", "android": "https://dc.lft.to/lastmile_qr_scan"}, "name": "9eab036dfb6d9b9d3a873a7d646d57d5", "type": "electric_scooter", "fusion_lon": 0.0, "is_disabled": 0, "is_reserved": 0, "bike_id": "9eab036dfb6d9b9d3a873a7d646d57d5", "lon": -77.0167405}, {"fusion_lat": 0.0, "lat": 38.921518666666664, "rental_uris": {"ios": "https://dc.lft.to/lastmile_qr_scan", "android": "https://dc.lft.to/lastmile_qr_scan"}, "name": "e9816df07872a449c5fcff6aa4b1b4a4", "type": "electric_scooter", "fusion_lon": 0.0, "is_disabled": 0, "is_reserved": 0, "bike_id": "e9816df07872a449c5fcff6aa4b1b4a4", "lon": -77.04235183333333}, {"fusion_lat": 0.0, "lat": 38.89235216666667, "rental_uris": {"ios": "https://dc.lft.to/lastmile_qr_scan", "android": "https://dc.lft.to/lastmile_qr_scan"}, "name": "877f839567ee30ff87dd3515b76bb855", "type": "electric_scooter", "fusion_lon": 0.0, "is_disabled": 0, "is_reserved": 0, "bike_id": "877f839567ee30ff87dd3515b76bb855", "lon": -77.02181183333333}, {"fusion_lat": 0.0, "lat": 38.90028916666667, "rental_uris": {"ios": "https://dc.lft.to/lastmile_qr_scan", "android": "https://dc.lft.to/lastmile_qr_scan"}, "name": "902de330451c0f3269c9d036bf7f8a77", "type": "electric_scooter", "fusion_lon": 0.0, "is_disabled": 0, "is_reserved": 0, "bike_id": "902de330451c0f3269c9d036bf7f8a77", "lon": -77.00202483333334}, {"fusion_lat": 0.0, "lat": 38.90194116666667, "rental_uris": {"ios": "https://dc.lft.to/lastmile_qr_scan", "android": "https://dc.lft.to/lastmile_qr_scan"}, "name": "d1c328f532444f88e6669f6ff7d88372", "type": "electric_scooter", "fusion_lon": 0.0, "is_disabled": 0, "is_reserved": 0, "bike_id": "d1c328f532444f88e6669f6ff7d88372", "lon": -77.02130733333334}, {"fusion_lat": 0.0, "lat": 38.92553816666667, "rental_uris": {"ios": "https://dc.lft.to/lastmile_qr_scan", "android": "https://dc.lft.to/lastmile_qr_scan"}, "name": "3febf3a1b7c86b2f0955886423101c3d", "type": "electric_scooter", "fusion_lon": 0.0, "is_disabled": 0, "is_reserved": 0, "bike_id": "3febf3a1b7c86b2f0955886423101c3d", "lon": -77.0006855}, {"fusion_lat": 0.0, "lat": 38.914173166666664, "rental_uris": {"ios": "https://dc.lft.to/lastmile_qr_scan", "android": "https://dc.lft.to/lastmile_qr_scan"}, "name": "891045742dc542b023a64ccd5a238cc2", "type": "electric_bike", "fusion_lon": 0.0, "is_disabled": 0, "is_reserved": 0, "bike_id": "891045742dc542b023a64ccd5a238cc2", "lon": -77.03174166666666}, {"fusion_lat": 0.0, "lat": 38.91711016666667, "rental_uris": {"ios": "https://dc.lft.to/lastmile_qr_scan", "android": "https://dc.lft.to/lastmile_qr_scan"}, "name": "22efa02830df34ac80532169a6048659", "type": "electric_scooter", "fusion_lon": 0.0, "is_disabled": 0, "is_reserved": 0, "bike_id": "22efa02830df34ac80532169a6048659", "lon": -77.04127483333333}, {"fusion_lat": 0.0, "lat": 38.944868666666665, "rental_uris": {"ios": "https://dc.lft.to/lastmile_qr_scan", "android": "https://dc.lft.to/lastmile_qr_scan"}, "name": "a85b01cbe0263d993b0d72b08201d7e7", "type": "electric_scooter", "fusion_lon": 0.0, "is_disabled": 0, "is_reserved": 0, "bike_id": "a85b01cbe0263d993b0d72b08201d7e7", "lon": -77.06390366666666}, {"fusion_lat": 0.0, "lat": 38.9221205, "rental_uris": {"ios": "https://dc.lft.to/lastmile_qr_scan", "android": "https://dc.lft.to/lastmile_qr_scan"}, "name": "8588f1bd6c0df202c1773a2362c5e682", "type": "electric_scooter", "fusion_lon": 0.0, "is_disabled": 0, "is_reserved": 0, "bike_id": "8588f1bd6c0df202c1773a2362c5e682", "lon": -77.03658416666667}, {"fusion_lat": 0.0, "lat": 38.89625183333333, "rental_uris": {"ios": "https://dc.lft.to/lastmile_qr_scan", "android": "https://dc.lft.to/lastmile_qr_scan"}, "name": "b0e20a4b870a682863b9d998c5200333", "type": "electric_scooter", "fusion_lon": 0.0, "is_disabled": 0, "is_reserved": 0, "bike_id": "b0e20a4b870a682863b9d998c5200333", "lon": -77.014869}, {"fusion_lat": 0.0, "lat": 38.89849616666667, "rental_uris": {"ios": "https://dc.lft.to/lastmile_qr_scan", "android": "https://dc.lft.to/lastmile_qr_scan"}, "name": "c59bd8889e7a8bd8d7bd328f7428cfc6", "type": "electric_scooter", "fusion_lon": 0.0, "is_disabled": 0, "is_reserved": 0, "bike_id": "c59bd8889e7a8bd8d7bd328f7428cfc6", "lon": -77.028727}, {"fusion_lat": 0.0, "lat": 39.00386483333333, "rental_uris": {"ios": "https://dc.lft.to/lastmile_qr_scan", "android": "https://dc.lft.to/lastmile_qr_scan"}, "name": "0918974e06eec4615d4a9a95292ccb05", "type": "electric_bike", "fusion_lon": 0.0, "is_disabled": 0, "is_reserved": 0, "bike_id": "0918974e06eec4615d4a9a95292ccb05", "lon": -77.0128255}, {"fusion_lat": 0.0, "lat": 38.884687666666665, "rental_uris": {"ios": "https://dc.lft.to/lastmile_qr_scan", "android": "https://dc.lft.to/lastmile_qr_scan"}, "name": "96ca537a4c0cf8aa00f6dfaf8b415677", "type": "electric_scooter", "fusion_lon": 0.0, "is_disabled": 0, "is_reserved": 0, "bike_id": "96ca537a4c0cf8aa00f6dfaf8b415677", "lon": -77.01519283333333}, {"fusion_lat": 0.0, "lat": 38.935309, "rental_uris": {"ios": "https://dc.lft.to/lastmile_qr_scan", "android": "https://dc.lft.to/lastmile_qr_scan"}, "name": "a524678bf580654328a5617662078321", "type": "electric_scooter", "fusion_lon": 0.0, "is_disabled": 0, "is_reserved": 0, "bike_id": "a524678bf580654328a5617662078321", "lon": -77.07289783333333}, {"fusion_lat": 0.0, "lat": 38.91563566666667, "rental_uris": {"ios": "https://dc.lft.to/lastmile_qr_scan", "android": "https://dc.lft.to/lastmile_qr_scan"}, "name": "1af20e2c89b37c566ae8e373e42f9818", "type": "electric_scooter", "fusion_lon": 0.0, "is_disabled": 0, "is_reserved": 0, "bike_id": "1af20e2c89b37c566ae8e373e42f9818", "lon": -77.01581083333333}, {"fusion_lat": 0.0, "lat": 38.919332833333335, "rental_uris": {"ios": "https://dc.lft.to/lastmile_qr_scan", "android": "https://dc.lft.to/lastmile_qr_scan"}, "name": "2f2b41e02a71726e0335c2851f40c768", "type": "electric_scooter", "fusion_lon": 0.0, "is_disabled": 0, "is_reserved": 0, "bike_id": "2f2b41e02a71726e0335c2851f40c768", "lon": -77.02060416666667}, {"fusion_lat": 0.0, "lat": 39.01221266666667, "rental_uris": {"ios": "https://dc.lft.to/lastmile_qr_scan", "android": "https://dc.lft.to/lastmile_qr_scan"}, "name": "d486809176eacda577642c4b6a4ab4ae", "type": "electric_bike", "fusion_lon": 0.0, "is_disabled": 0, "is_reserved": 0, "bike_id": "d486809176eacda577642c4b6a4ab4ae", "lon": -77.11084016666666}, {"fusion_lat": 0.0, "lat": 38.912777166666665, "rental_uris": {"ios": "https://dc.lft.to/lastmile_qr_scan", "android": "https://dc.lft.to/lastmile_qr_scan"}, "name": "7639c054980c93a7e50446097bbc51b4", "type": "electric_scooter", "fusion_lon": 0.0, "is_disabled": 0, "is_reserved": 0, "bike_id": "7639c054980c93a7e50446097bbc51b4", "lon": -76.984684}, {"fusion_lat": 0.0, "lat": 38.92366483333333, "rental_uris": {"ios": "https://dc.lft.to/lastmile_qr_scan", "android": "https://dc.lft.to/lastmile_qr_scan"}, "name": "688bafc77e6c545742acb3bb4704df9a", "type": "electric_scooter", "fusion_lon": 0.0, "is_disabled": 0, "is_reserved": 0, "bike_id": "688bafc77e6c545742acb3bb4704df9a", "lon": -77.0502735}, {"fusion_lat": 0.0, "lat": 38.923706833333334, "rental_uris": {"ios": "https://dc.lft.to/lastmile_qr_scan", "android": "https://dc.lft.to/lastmile_qr_scan"}, "name": "b2f8f0232185bf4b9c06a2922e394757", "type": "electric_scooter", "fusion_lon": 0.0, "is_disabled": 0, "is_reserved": 0, "bike_id": "b2f8f0232185bf4b9c06a2922e394757", "lon": -77.019039}, {"fusion_lat": 0.0, "lat": 38.939911, "rental_uris": {"ios": "https://dc.lft.to/lastmile_qr_scan", "android": "https://dc.lft.to/lastmile_qr_scan"}, "name": "d03f0c9b2435d06efc5f51ec688c9b67", "type": "electric_scooter", "fusion_lon": 0.0, "is_disabled": 0, "is_reserved": 0, "bike_id": "d03f0c9b2435d06efc5f51ec688c9b67", "lon": -77.01890166666666}, {"fusion_lat": 0.0, "lat": 38.917188833333334, "rental_uris": {"ios": "https://dc.lft.to/lastmile_qr_scan", "android": "https://dc.lft.to/lastmile_qr_scan"}, "name": "96011334d7778a2ca53aeea5fbd4dc9b", "type": "electric_scooter", "fusion_lon": 0.0, "is_disabled": 0, "is_reserved": 0, "bike_id": "96011334d7778a2ca53aeea5fbd4dc9b", "lon": -77.01209933333334}, {"fusion_lat": 0.0, "lat": 38.89516366666667, "rental_uris": {"ios": "https://dc.lft.to/lastmile_qr_scan", "android": "https://dc.lft.to/lastmile_qr_scan"}, "name": "becfa82f97a3faa515622f4d1b5d5b11", "type": "electric_scooter", "fusion_lon": 0.0, "is_disabled": 0, "is_reserved": 0, "bike_id": "becfa82f97a3faa515622f4d1b5d5b11", "lon": -77.02694316666667}, {"fusion_lat": 0.0, "lat": 38.89496966666667, "rental_uris": {"ios": "https://dc.lft.to/lastmile_qr_scan", "android": "https://dc.lft.to/lastmile_qr_scan"}, "name": "ca63b66cf44f04a27286bb402a79155c", "type": "electric_scooter", "fusion_lon": 0.0, "is_disabled": 0, "is_reserved": 0, "bike_id": "ca63b66cf44f04a27286bb402a79155c", "lon": -77.01539283333334}, {"fusion_lat": 0.0, "lat": 38.907792666666666, "rental_uris": {"ios": "https://dc.lft.to/lastmile_qr_scan", "android": "https://dc.lft.to/lastmile_qr_scan"}, "name": "08c93b48598871f0578e947292cf3fc3", "type": "electric_scooter", "fusion_lon": 0.0, "is_disabled": 0, "is_reserved": 0, "bike_id": "08c93b48598871f0578e947292cf3fc3", "lon": -77.032082}, {"fusion_lat": 0.0, "lat": 38.9369775, "rental_uris": {"ios": "https://dc.lft.to/lastmile_qr_scan", "android": "https://dc.lft.to/lastmile_qr_scan"}, "name": "d6e5c4862a0d3958142c772bb93167dc", "type": "electric_scooter", "fusion_lon": 0.0, "is_disabled": 0, "is_reserved": 0, "bike_id": "d6e5c4862a0d3958142c772bb93167dc", "lon": -77.03286566666667}, {"fusion_lat": 0.0, "lat": 38.9283195, "rental_uris": {"ios": "https://dc.lft.to/lastmile_qr_scan", "android": "https://dc.lft.to/lastmile_qr_scan"}, "name": "342a8dd7a63399fb18946fd8b7f0192a", "type": "electric_scooter", "fusion_lon": 0.0, "is_disabled": 0, "is_reserved": 0, "bike_id": "342a8dd7a63399fb18946fd8b7f0192a", "lon": -77.021899}, {"fusion_lat": 0.0, "lat": 38.887431166666666, "rental_uris": {"ios": "https://dc.lft.to/lastmile_qr_scan", "android": "https://dc.lft.to/lastmile_qr_scan"}, "name": "428e9ecddf109183ed52361d36e5f5df", "type": "electric_scooter", "fusion_lon": 0.0, "is_disabled": 0, "is_reserved": 0, "bike_id": "428e9ecddf109183ed52361d36e5f5df", "lon": -77.00206133333333}, {"fusion_lat": 0.0, "lat": 38.924989, "rental_uris": {"ios": "https://dc.lft.to/lastmile_qr_scan", "android": "https://dc.lft.to/lastmile_qr_scan"}, "name": "0253fd732b2758a3d0bf121c4c6a5805", "type": "electric_scooter", "fusion_lon": 0.0, "is_disabled": 0, "is_reserved": 0, "bike_id": "0253fd732b2758a3d0bf121c4c6a5805", "lon": -77.0353835}, {"fusion_lat": 0.0, "lat": 38.908228, "rental_uris": {"ios": "https://dc.lft.to/lastmile_qr_scan", "android": "https://dc.lft.to/lastmile_qr_scan"}, "name": "1820f72ad6f470cf52f1330174b77216", "type": "electric_scooter", "fusion_lon": 0.0, "is_disabled": 0, "is_reserved": 0, "bike_id": "1820f72ad6f470cf52f1330174b77216", "lon": -77.05496016666666}, {"fusion_lat": 0.0, "lat": 38.9138665, "rental_uris": {"ios": "https://dc.lft.to/lastmile_qr_scan", "android": "https://dc.lft.to/lastmile_qr_scan"}, "name": "98d896ebabcec28179d80461c1309f4e", "type": "electric_scooter", "fusion_lon": 0.0, "is_disabled": 0, "is_reserved": 0, "bike_id": "98d896ebabcec28179d80461c1309f4e", "lon": -77.0320885}, {"fusion_lat": 0.0, "lat": 38.93327283333333, "rental_uris": {"ios": "https://dc.lft.to/lastmile_qr_scan", "android": "https://dc.lft.to/lastmile_qr_scan"}, "name": "ee28eb085f2718ab4526268a71438f5c", "type": "electric_scooter", "fusion_lon": 0.0, "is_disabled": 0, "is_reserved": 0, "bike_id": "ee28eb085f2718ab4526268a71438f5c", "lon": -77.02368966666667}, {"fusion_lat": 0.0, "lat": 38.93877766666667, "rental_uris": {"ios": "https://dc.lft.to/lastmile_qr_scan", "android": "https://dc.lft.to/lastmile_qr_scan"}, "name": "4ffc17afd4fc79bfd804486ed25addb0", "type": "electric_scooter", "fusion_lon": 0.0, "is_disabled": 0, "is_reserved": 0, "bike_id": "4ffc17afd4fc79bfd804486ed25addb0", "lon": -77.02471633333333}, {"fusion_lat": 0.0, "lat": 38.89778333333334, "rental_uris": {"ios": "https://dc.lft.to/lastmile_qr_scan", "android": "https://dc.lft.to/lastmile_qr_scan"}, "name": "19fd9f5d09c52769aa74d6aac9629408", "type": "electric_bike", "fusion_lon": 0.0, "is_disabled": 0, "is_reserved": 0, "bike_id": "19fd9f5d09c52769aa74d6aac9629408", "lon": -77.03169533333333}, {"fusion_lat": 0.0, "lat": 38.91650416666667, "rental_uris": {"ios": "https://dc.lft.to/lastmile_qr_scan", "android": "https://dc.lft.to/lastmile_qr_scan"}, "name": "b27d78ebc22ec3b5a772912ec6d8b2bd", "type": "electric_scooter", "fusion_lon": 0.0, "is_disabled": 0, "is_reserved": 0, "bike_id": "b27d78ebc22ec3b5a772912ec6d8b2bd", "lon": -77.02813766666667}, {"fusion_lat": 0.0, "lat": 38.914225, "rental_uris": {"ios": "https://dc.lft.to/lastmile_qr_scan", "android": "https://dc.lft.to/lastmile_qr_scan"}, "name": "aa9aa1d4e85543273201c8a297b8de63", "type": "electric_scooter", "fusion_lon": 0.0, "is_disabled": 0, "is_reserved": 0, "bike_id": "aa9aa1d4e85543273201c8a297b8de63", "lon": -77.0344665}, {"fusion_lat": 0.0, "lat": 38.92841766666667, "rental_uris": {"ios": "https://dc.lft.to/lastmile_qr_scan", "android": "https://dc.lft.to/lastmile_qr_scan"}, "name": "4c5704cbb1097a9a80ce8bb9b7543e49", "type": "electric_scooter", "fusion_lon": 0.0, "is_disabled": 0, "is_reserved": 0, "bike_id": "4c5704cbb1097a9a80ce8bb9b7543e49", "lon": -77.05422333333334}, {"fusion_lat": 0.0, "lat": 38.92277516666667, "rental_uris": {"ios": "https://dc.lft.to/lastmile_qr_scan", "android": "https://dc.lft.to/lastmile_qr_scan"}, "name": "7b63ef8ddc4a20ecb4483bed49c734bc", "type": "electric_scooter", "fusion_lon": 0.0, "is_disabled": 0, "is_reserved": 0, "bike_id": "7b63ef8ddc4a20ecb4483bed49c734bc", "lon": -77.02118066666667}, {"fusion_lat": 0.0, "lat": 38.8996385, "rental_uris": {"ios": "https://dc.lft.to/lastmile_qr_scan", "android": "https://dc.lft.to/lastmile_qr_scan"}, "name": "a1e6db192880d329fa1e2b18c878ef4d", "type": "electric_bike", "fusion_lon": 0.0, "is_disabled": 0, "is_reserved": 0, "bike_id": "a1e6db192880d329fa1e2b18c878ef4d", "lon": -76.9867625}, {"fusion_lat": 0.0, "lat": 38.900251833333336, "rental_uris": {"ios": "https://dc.lft.to/lastmile_qr_scan", "android": "https://dc.lft.to/lastmile_qr_scan"}, "name": "ee7aebee0bd83a727bd8a2981208aeb5", "type": "electric_scooter", "fusion_lon": 0.0, "is_disabled": 0, "is_reserved": 0, "bike_id": "ee7aebee0bd83a727bd8a2981208aeb5", "lon": -76.9739915}, {"fusion_lat": 0.0, "lat": 38.913379, "rental_uris": {"ios": "https://dc.lft.to/lastmile_qr_scan", "android": "https://dc.lft.to/lastmile_qr_scan"}, "name": "fef26859cab8d09aea3b22fafc6bfecc", "type": "electric_scooter", "fusion_lon": 0.0, "is_disabled": 0, "is_reserved": 0, "bike_id": "fef26859cab8d09aea3b22fafc6bfecc", "lon": -77.048652}, {"fusion_lat": 0.0, "lat": 38.931898, "rental_uris": {"ios": "https://dc.lft.to/lastmile_qr_scan", "android": "https://dc.lft.to/lastmile_qr_scan"}, "name": "bdbd49e71233aad209db0e3a29ecce4a", "type": "electric_scooter", "fusion_lon": 0.0, "is_disabled": 0, "is_reserved": 0, "bike_id": "bdbd49e71233aad209db0e3a29ecce4a", "lon": -77.07231083333333}, {"fusion_lat": 0.0, "lat": 38.8873355, "rental_uris": {"ios": "https://dc.lft.to/lastmile_qr_scan", "android": "https://dc.lft.to/lastmile_qr_scan"}, "name": "76f58e793da08f4418addd734e3f6ee7", "type": "electric_scooter", "fusion_lon": 0.0, "is_disabled": 0, "is_reserved": 0, "bike_id": "76f58e793da08f4418addd734e3f6ee7", "lon": -77.0150925}, {"fusion_lat": 0.0, "lat": 38.92090733333333, "rental_uris": {"ios": "https://dc.lft.to/lastmile_qr_scan", "android": "https://dc.lft.to/lastmile_qr_scan"}, "name": "07c916437ed4a287c1eedb2c3500160d", "type": "electric_scooter", "fusion_lon": 0.0, "is_disabled": 0, "is_reserved": 0, "bike_id": "07c916437ed4a287c1eedb2c3500160d", "lon": -77.03913516666667}, {"fusion_lat": 0.0, "lat": 38.929896, "rental_uris": {"ios": "https://dc.lft.to/lastmile_qr_scan", "android": "https://dc.lft.to/lastmile_qr_scan"}, "name": "5ccb0d0009b8c78d29461cddd3e17114", "type": "electric_scooter", "fusion_lon": 0.0, "is_disabled": 0, "is_reserved": 0, "bike_id": "5ccb0d0009b8c78d29461cddd3e17114", "lon": -77.03264583333333}, {"fusion_lat": 0.0, "lat": 38.90499116666667, "rental_uris": {"ios": "https://dc.lft.to/lastmile_qr_scan", "android": "https://dc.lft.to/lastmile_qr_scan"}, "name": "73050e3030d0020c7d3ae24c0d299f79", "type": "electric_scooter", "fusion_lon": 0.0, "is_disabled": 0, "is_reserved": 0, "bike_id": "73050e3030d0020c7d3ae24c0d299f79", "lon": -76.98138483333334}, {"fusion_lat": 0.0, "lat": 38.93190883333333, "rental_uris": {"ios": "https://dc.lft.to/lastmile_qr_scan", "android": "https://dc.lft.to/lastmile_qr_scan"}, "name": "d8aaf2ae6bcb59e8221a53a0f343c101", "type": "electric_scooter", "fusion_lon": 0.0, "is_disabled": 0, "is_reserved": 0, "bike_id": "d8aaf2ae6bcb59e8221a53a0f343c101", "lon": -77.01990216666667}, {"fusion_lat": 0.0, "lat": 38.9034275, "rental_uris": {"ios": "https://dc.lft.to/lastmile_qr_scan", "android": "https://dc.lft.to/lastmile_qr_scan"}, "name": "beb7d7067209f0dbfad2341c0a8ac463", "type": "electric_scooter", "fusion_lon": 0.0, "is_disabled": 0, "is_reserved": 0, "bike_id": "beb7d7067209f0dbfad2341c0a8ac463", "lon": -77.04334266666666}, {"fusion_lat": 0.0, "lat": 38.88487166666667, "rental_uris": {"ios": "https://dc.lft.to/lastmile_qr_scan", "android": "https://dc.lft.to/lastmile_qr_scan"}, "name": "ea3e645555d55cc92cc19838f182b4e2", "type": "electric_scooter", "fusion_lon": 0.0, "is_disabled": 0, "is_reserved": 0, "bike_id": "ea3e645555d55cc92cc19838f182b4e2", "lon": -77.00711633333333}, {"fusion_lat": 0.0, "lat": 38.95233233333333, "rental_uris": {"ios": "https://dc.lft.to/lastmile_qr_scan", "android": "https://dc.lft.to/lastmile_qr_scan"}, "name": "855be32254f14f47db175614016dd30e", "type": "electric_scooter", "fusion_lon": 0.0, "is_disabled": 0, "is_reserved": 0, "bike_id": "855be32254f14f47db175614016dd30e", "lon": -77.01376733333333}, {"fusion_lat": 0.0, "lat": 38.86761116666667, "rental_uris": {"ios": "https://dc.lft.to/lastmile_qr_scan", "android": "https://dc.lft.to/lastmile_qr_scan"}, "name": "a7cde167ab93e3fcf37792d4c2741bbc", "type": "electric_scooter", "fusion_lon": 0.0, "is_disabled": 0, "is_reserved": 0, "bike_id": "a7cde167ab93e3fcf37792d4c2741bbc", "lon": -76.98278466666666}, {"fusion_lat": 0.0, "lat": 38.924768666666665, "rental_uris": {"ios": "https://dc.lft.to/lastmile_qr_scan", "android": "https://dc.lft.to/lastmile_qr_scan"}, "name": "af0c2b3e075580001a1a6716528c5d2b", "type": "electric_scooter", "fusion_lon": 0.0, "is_disabled": 0, "is_reserved": 0, "bike_id": "af0c2b3e075580001a1a6716528c5d2b", "lon": -77.02651616666667}, {"fusion_lat": 0.0, "lat": 38.896346333333334, "rental_uris": {"ios": "https://dc.lft.to/lastmile_qr_scan", "android": "https://dc.lft.to/lastmile_qr_scan"}, "name": "b16bc3b1813509a65946a85a480dcf41", "type": "electric_scooter", "fusion_lon": 0.0, "is_disabled": 0, "is_reserved": 0, "bike_id": "b16bc3b1813509a65946a85a480dcf41", "lon": -77.0400675}, {"fusion_lat": 0.0, "lat": 38.91678733333333, "rental_uris": {"ios": "https://dc.lft.to/lastmile_qr_scan", "android": "https://dc.lft.to/lastmile_qr_scan"}, "name": "b229b7fad3a0a75bef6014cbf368a9c9", "type": "electric_scooter", "fusion_lon": 0.0, "is_disabled": 0, "is_reserved": 0, "bike_id": "b229b7fad3a0a75bef6014cbf368a9c9", "lon": -77.00345166666666}, {"fusion_lat": 0.0, "lat": 38.919981666666665, "rental_uris": {"ios": "https://dc.lft.to/lastmile_qr_scan", "android": "https://dc.lft.to/lastmile_qr_scan"}, "name": "b8ad45a248b7748f44fee07976dd442d", "type": "electric_scooter", "fusion_lon": 0.0, "is_disabled": 0, "is_reserved": 0, "bike_id": "b8ad45a248b7748f44fee07976dd442d", "lon": -77.0417615}, {"fusion_lat": 0.0, "lat": 38.911432, "rental_uris": {"ios": "https://dc.lft.to/lastmile_qr_scan", "android": "https://dc.lft.to/lastmile_qr_scan"}, "name": "9de2e5ee514f5b4cb818cfb6e7dcfde6", "type": "electric_scooter", "fusion_lon": 0.0, "is_disabled": 0, "is_reserved": 0, "bike_id": "9de2e5ee514f5b4cb818cfb6e7dcfde6", "lon": -77.03840183333334}, {"fusion_lat": 0.0, "lat": 38.914949666666665, "rental_uris": {"ios": "https://dc.lft.to/lastmile_qr_scan", "android": "https://dc.lft.to/lastmile_qr_scan"}, "name": "33fd3f5cff2b29fd9ff801c0ff501276", "type": "electric_scooter", "fusion_lon": 0.0, "is_disabled": 0, "is_reserved": 0, "bike_id": "33fd3f5cff2b29fd9ff801c0ff501276", "lon": -77.02177583333334}, {"fusion_lat": 0.0, "lat": 38.895239333333336, "rental_uris": {"ios": "https://dc.lft.to/lastmile_qr_scan", "android": "https://dc.lft.to/lastmile_qr_scan"}, "name": "3bfd598bdb76cc4780a1b52f8a4df1dc", "type": "electric_scooter", "fusion_lon": 0.0, "is_disabled": 0, "is_reserved": 0, "bike_id": "3bfd598bdb76cc4780a1b52f8a4df1dc", "lon": -77.02677}, {"fusion_lat": 0.0, "lat": 38.896680833333335, "rental_uris": {"ios": "https://dc.lft.to/lastmile_qr_scan", "android": "https://dc.lft.to/lastmile_qr_scan"}, "name": "d4ad26a12abcbc77eaf4ea05bacefa0d", "type": "electric_scooter", "fusion_lon": 0.0, "is_disabled": 0, "is_reserved": 0, "bike_id": "d4ad26a12abcbc77eaf4ea05bacefa0d", "lon": -76.93211183333334}, {"fusion_lat": 0.0, "lat": 38.896255333333336, "rental_uris": {"ios": "https://dc.lft.to/lastmile_qr_scan", "android": "https://dc.lft.to/lastmile_qr_scan"}, "name": "881e36c0a3febca2fc3755900b76c245", "type": "electric_scooter", "fusion_lon": 0.0, "is_disabled": 0, "is_reserved": 0, "bike_id": "881e36c0a3febca2fc3755900b76c245", "lon": -77.04074583333333}, {"fusion_lat": 0.0, "lat": 38.91114983333333, "rental_uris": {"ios": "https://dc.lft.to/lastmile_qr_scan", "android": "https://dc.lft.to/lastmile_qr_scan"}, "name": "5e57e279c9d4b36aba182d4a749b28ca", "type": "electric_scooter", "fusion_lon": 0.0, "is_disabled": 0, "is_reserved": 0, "bike_id": "5e57e279c9d4b36aba182d4a749b28ca", "lon": -77.04395733333334}, {"fusion_lat": 0.0, "lat": 38.914091, "rental_uris": {"ios": "https://dc.lft.to/lastmile_qr_scan", "android": "https://dc.lft.to/lastmile_qr_scan"}, "name": "a9819076305b6c528522c31ee3429285", "type": "electric_scooter", "fusion_lon": 0.0, "is_disabled": 0, "is_reserved": 0, "bike_id": "a9819076305b6c528522c31ee3429285", "lon": -77.0323135}, {"fusion_lat": 0.0, "lat": 38.917940333333334, "rental_uris": {"ios": "https://dc.lft.to/lastmile_qr_scan", "android": "https://dc.lft.to/lastmile_qr_scan"}, "name": "4b4ae300db5b3a7c18348f21f4497b55", "type": "electric_scooter", "fusion_lon": 0.0, "is_disabled": 0, "is_reserved": 0, "bike_id": "4b4ae300db5b3a7c18348f21f4497b55", "lon": -77.03208016666666}, {"fusion_lat": 0.0, "lat": 38.903533333333336, "rental_uris": {"ios": "https://dc.lft.to/lastmile_qr_scan", "android": "https://dc.lft.to/lastmile_qr_scan"}, "name": "0f78ac92c3ab960c381d82c061d2ede0", "type": "electric_scooter", "fusion_lon": 0.0, "is_disabled": 0, "is_reserved": 0, "bike_id": "0f78ac92c3ab960c381d82c061d2ede0", "lon": -76.974772}, {"fusion_lat": 0.0, "lat": 38.89894066666667, "rental_uris": {"ios": "https://dc.lft.to/lastmile_qr_scan", "android": "https://dc.lft.to/lastmile_qr_scan"}, "name": "2a1a356645926abc210d00e8f29cf7da", "type": "electric_scooter", "fusion_lon": 0.0, "is_disabled": 0, "is_reserved": 0, "bike_id": "2a1a356645926abc210d00e8f29cf7da", "lon": -77.00732966666666}, {"fusion_lat": 0.0, "lat": 38.930223833333336, "rental_uris": {"ios": "https://dc.lft.to/lastmile_qr_scan", "android": "https://dc.lft.to/lastmile_qr_scan"}, "name": "1cc9d58d82845c148fe1535c1b9ab822", "type": "electric_scooter", "fusion_lon": 0.0, "is_disabled": 0, "is_reserved": 0, "bike_id": "1cc9d58d82845c148fe1535c1b9ab822", "lon": -77.03804133333334}, {"fusion_lat": 0.0, "lat": 38.92880066666667, "rental_uris": {"ios": "https://dc.lft.to/lastmile_qr_scan", "android": "https://dc.lft.to/lastmile_qr_scan"}, "name": "b114903ba9319c0563fee334758ee484", "type": "electric_scooter", "fusion_lon": 0.0, "is_disabled": 0, "is_reserved": 0, "bike_id": "b114903ba9319c0563fee334758ee484", "lon": -77.03500016666666}, {"fusion_lat": 0.0, "lat": 38.904586, "rental_uris": {"ios": "https://dc.lft.to/lastmile_qr_scan", "android": "https://dc.lft.to/lastmile_qr_scan"}, "name": "03f1fe6766f55e9a8ffb64597f1ec1df", "type": "electric_scooter", "fusion_lon": 0.0, "is_disabled": 0, "is_reserved": 0, "bike_id": "03f1fe6766f55e9a8ffb64597f1ec1df", "lon": -76.99487916666666}, {"fusion_lat": 0.0, "lat": 38.90285866666667, "rental_uris": {"ios": "https://dc.lft.to/lastmile_qr_scan", "android": "https://dc.lft.to/lastmile_qr_scan"}, "name": "5ad84a3d2a5fb1480b8d9088f1124643", "type": "electric_scooter", "fusion_lon": 0.0, "is_disabled": 0, "is_reserved": 0, "bike_id": "5ad84a3d2a5fb1480b8d9088f1124643", "lon": -77.03868033333333}, {"fusion_lat": 0.0, "lat": 38.86388566666667, "rental_uris": {"ios": "https://dc.lft.to/lastmile_qr_scan", "android": "https://dc.lft.to/lastmile_qr_scan"}, "name": "c41078479c828ddb6348db86c2183463", "type": "electric_scooter", "fusion_lon": 0.0, "is_disabled": 0, "is_reserved": 0, "bike_id": "c41078479c828ddb6348db86c2183463", "lon": -76.9903855}, {"fusion_lat": 0.0, "lat": 38.912002, "rental_uris": {"ios": "https://dc.lft.to/lastmile_qr_scan", "android": "https://dc.lft.to/lastmile_qr_scan"}, "name": "cf0923085df2ccc5ea7d22acb14f48a3", "type": "electric_scooter", "fusion_lon": 0.0, "is_disabled": 0, "is_reserved": 0, "bike_id": "cf0923085df2ccc5ea7d22acb14f48a3", "lon": -77.0323465}, {"fusion_lat": 0.0, "lat": 38.902590000000004, "rental_uris": {"ios": "https://dc.lft.to/lastmile_qr_scan", "android": "https://dc.lft.to/lastmile_qr_scan"}, "name": "a3d13f7d479d56fec19d34f01c28e1e4", "type": "electric_scooter", "fusion_lon": 0.0, "is_disabled": 0, "is_reserved": 0, "bike_id": "a3d13f7d479d56fec19d34f01c28e1e4", "lon": -77.02476816666666}, {"fusion_lat": 0.0, "lat": 38.89726683333333, "rental_uris": {"ios": "https://dc.lft.to/lastmile_qr_scan", "android": "https://dc.lft.to/lastmile_qr_scan"}, "name": "a7033fcdb91c17c048dbb127390e1a0f", "type": "electric_scooter", "fusion_lon": 0.0, "is_disabled": 0, "is_reserved": 0, "bike_id": "a7033fcdb91c17c048dbb127390e1a0f", "lon": -76.947022}, {"fusion_lat": 0.0, "lat": 38.88394533333334, "rental_uris": {"ios": "https://dc.lft.to/lastmile_qr_scan", "android": "https://dc.lft.to/lastmile_qr_scan"}, "name": "289470c065566a980d86a9d41e600bb6", "type": "electric_bike", "fusion_lon": 0.0, "is_disabled": 0, "is_reserved": 0, "bike_id": "289470c065566a980d86a9d41e600bb6", "lon": -76.9605315}, {"fusion_lat": 0.0, "lat": 38.89605066666667, "rental_uris": {"ios": "https://dc.lft.to/lastmile_qr_scan", "android": "https://dc.lft.to/lastmile_qr_scan"}, "name": "2575f4d76698a86328007c6f61061698", "type": "electric_scooter", "fusion_lon": 0.0, "is_disabled": 0, "is_reserved": 0, "bike_id": "2575f4d76698a86328007c6f61061698", "lon": -77.00930183333334}, {"fusion_lat": 0.0, "lat": 38.902327166666666, "rental_uris": {"ios": "https://dc.lft.to/lastmile_qr_scan", "android": "https://dc.lft.to/lastmile_qr_scan"}, "name": "19cbb7b5e9e7e0ace8a6d403508bedad", "type": "electric_scooter", "fusion_lon": 0.0, "is_disabled": 0, "is_reserved": 0, "bike_id": "19cbb7b5e9e7e0ace8a6d403508bedad", "lon": -77.03467616666667}, {"fusion_lat": 0.0, "lat": 38.86030983333333, "rental_uris": {"ios": "https://dc.lft.to/lastmile_qr_scan", "android": "https://dc.lft.to/lastmile_qr_scan"}, "name": "f0203a11544d04c6441d642a02b42c90", "type": "electric_scooter", "fusion_lon": 0.0, "is_disabled": 0, "is_reserved": 0, "bike_id": "f0203a11544d04c6441d642a02b42c90", "lon": -76.98372233333333}, {"fusion_lat": 0.0, "lat": 38.9041325, "rental_uris": {"ios": "https://dc.lft.to/lastmile_qr_scan", "android": "https://dc.lft.to/lastmile_qr_scan"}, "name": "5b5fb7342bf9d5ac86d7472d4a2428c4", "type": "electric_scooter", "fusion_lon": 0.0, "is_disabled": 0, "is_reserved": 0, "bike_id": "5b5fb7342bf9d5ac86d7472d4a2428c4", "lon": -77.04341833333334}, {"fusion_lat": 0.0, "lat": 38.89628283333333, "rental_uris": {"ios": "https://dc.lft.to/lastmile_qr_scan", "android": "https://dc.lft.to/lastmile_qr_scan"}, "name": "6418ffe49aa256e5dda92c96b477b127", "type": "electric_scooter", "fusion_lon": 0.0, "is_disabled": 0, "is_reserved": 0, "bike_id": "6418ffe49aa256e5dda92c96b477b127", "lon": -77.02942333333333}, {"fusion_lat": 0.0, "lat": 38.907314666666664, "rental_uris": {"ios": "https://dc.lft.to/lastmile_qr_scan", "android": "https://dc.lft.to/lastmile_qr_scan"}, "name": "fa2e13ca82c0da9db6cccd273d382deb", "type": "electric_scooter", "fusion_lon": 0.0, "is_disabled": 0, "is_reserved": 0, "bike_id": "fa2e13ca82c0da9db6cccd273d382deb", "lon": -77.04505633333333}, {"fusion_lat": 0.0, "lat": 38.9197565, "rental_uris": {"ios": "https://dc.lft.to/lastmile_qr_scan", "android": "https://dc.lft.to/lastmile_qr_scan"}, "name": "2b75bb27a57d8dea3cdbd40c1a6e6a58", "type": "electric_scooter", "fusion_lon": 0.0, "is_disabled": 0, "is_reserved": 0, "bike_id": "2b75bb27a57d8dea3cdbd40c1a6e6a58", "lon": -77.02186066666667}, {"fusion_lat": 0.0, "lat": 38.87713566666667, "rental_uris": {"ios": "https://dc.lft.to/lastmile_qr_scan", "android": "https://dc.lft.to/lastmile_qr_scan"}, "name": "a45e968d692002205d85a93d571f6a2a", "type": "electric_scooter", "fusion_lon": 0.0, "is_disabled": 0, "is_reserved": 0, "bike_id": "a45e968d692002205d85a93d571f6a2a", "lon": -77.00443283333334}, {"fusion_lat": 0.0, "lat": 38.887462, "rental_uris": {"ios": "https://dc.lft.to/lastmile_qr_scan", "android": "https://dc.lft.to/lastmile_qr_scan"}, "name": "b4c7e2f7fb91aeaa9fa897ed1806eef4", "type": "electric_scooter", "fusion_lon": 0.0, "is_disabled": 0, "is_reserved": 0, "bike_id": "b4c7e2f7fb91aeaa9fa897ed1806eef4", "lon": -77.02845233333333}, {"fusion_lat": 0.0, "lat": 38.89525733333333, "rental_uris": {"ios": "https://dc.lft.to/lastmile_qr_scan", "android": "https://dc.lft.to/lastmile_qr_scan"}, "name": "82911a6d81689066adea353f9fb67350", "type": "electric_scooter", "fusion_lon": 0.0, "is_disabled": 0, "is_reserved": 0, "bike_id": "82911a6d81689066adea353f9fb67350", "lon": -77.0484815}, {"fusion_lat": 0.0, "lat": 38.864459, "rental_uris": {"ios": "https://dc.lft.to/lastmile_qr_scan", "android": "https://dc.lft.to/lastmile_qr_scan"}, "name": "a0a82ff3955a39944859b13ee30a81db", "type": "electric_bike", "fusion_lon": 0.0, "is_disabled": 0, "is_reserved": 0, "bike_id": "a0a82ff3955a39944859b13ee30a81db", "lon": -77.10687083333333}, {"fusion_lat": 0.0, "lat": 38.87699283333333, "rental_uris": {"ios": "https://dc.lft.to/lastmile_qr_scan", "android": "https://dc.lft.to/lastmile_qr_scan"}, "name": "a6f4fab42b915691a49f19f770f444e7", "type": "electric_scooter", "fusion_lon": 0.0, "is_disabled": 0, "is_reserved": 0, "bike_id": "a6f4fab42b915691a49f19f770f444e7", "lon": -77.00432866666667}, {"fusion_lat": 0.0, "lat": 38.934754833333336, "rental_uris": {"ios": "https://dc.lft.to/lastmile_qr_scan", "android": "https://dc.lft.to/lastmile_qr_scan"}, "name": "971e2c92491b8ac9c4fb72213b167f47", "type": "electric_scooter", "fusion_lon": 0.0, "is_disabled": 0, "is_reserved": 0, "bike_id": "971e2c92491b8ac9c4fb72213b167f47", "lon": -77.0866235}, {"fusion_lat": 0.0, "lat": 38.939312666666666, "rental_uris": {"ios": "https://dc.lft.to/lastmile_qr_scan", "android": "https://dc.lft.to/lastmile_qr_scan"}, "name": "6944831d1f509ec09c16ea9ba3b2cf4b", "type": "electric_scooter", "fusion_lon": 0.0, "is_disabled": 0, "is_reserved": 0, "bike_id": "6944831d1f509ec09c16ea9ba3b2cf4b", "lon": -77.02794433333334}, {"fusion_lat": 0.0, "lat": 38.934306166666666, "rental_uris": {"ios": "https://dc.lft.to/lastmile_qr_scan", "android": "https://dc.lft.to/lastmile_qr_scan"}, "name": "27b65afd6644e4ae369da598697e94b2", "type": "electric_scooter", "fusion_lon": 0.0, "is_disabled": 0, "is_reserved": 0, "bike_id": "27b65afd6644e4ae369da598697e94b2", "lon": -77.05587533333333}, {"fusion_lat": 0.0, "lat": 38.906469, "rental_uris": {"ios": "https://dc.lft.to/lastmile_qr_scan", "android": "https://dc.lft.to/lastmile_qr_scan"}, "name": "093ce2bead8ad17dc3e9a5d601ed92b4", "type": "electric_scooter", "fusion_lon": 0.0, "is_disabled": 0, "is_reserved": 0, "bike_id": "093ce2bead8ad17dc3e9a5d601ed92b4", "lon": -77.01020516666667}, {"fusion_lat": 0.0, "lat": 38.902659166666666, "rental_uris": {"ios": "https://dc.lft.to/lastmile_qr_scan", "android": "https://dc.lft.to/lastmile_qr_scan"}, "name": "70ebf5690de29f424e7e32b4cbe7f637", "type": "electric_scooter", "fusion_lon": 0.0, "is_disabled": 0, "is_reserved": 0, "bike_id": "70ebf5690de29f424e7e32b4cbe7f637", "lon": -77.03007383333333}, {"fusion_lat": 0.0, "lat": 38.90095183333333, "rental_uris": {"ios": "https://dc.lft.to/lastmile_qr_scan", "android": "https://dc.lft.to/lastmile_qr_scan"}, "name": "421c7d874b42c25a2fb5ef67c91dadf6", "type": "electric_scooter", "fusion_lon": 0.0, "is_disabled": 0, "is_reserved": 0, "bike_id": "421c7d874b42c25a2fb5ef67c91dadf6", "lon": -77.0269575}, {"fusion_lat": 0.0, "lat": 38.908676666666665, "rental_uris": {"ios": "https://dc.lft.to/lastmile_qr_scan", "android": "https://dc.lft.to/lastmile_qr_scan"}, "name": "aac1a5535b950237a236aa5820911211", "type": "electric_scooter", "fusion_lon": 0.0, "is_disabled": 0, "is_reserved": 0, "bike_id": "aac1a5535b950237a236aa5820911211", "lon": -77.0716715}, {"fusion_lat": 0.0, "lat": 38.9170985, "rental_uris": {"ios": "https://dc.lft.to/lastmile_qr_scan", "android": "https://dc.lft.to/lastmile_qr_scan"}, "name": "ab8c88ca3b0bec6ac25f5dc0f3d1cc56", "type": "electric_scooter", "fusion_lon": 0.0, "is_disabled": 0, "is_reserved": 0, "bike_id": "ab8c88ca3b0bec6ac25f5dc0f3d1cc56", "lon": -77.02306766666666}, {"fusion_lat": 0.0, "lat": 38.937082833333335, "rental_uris": {"ios": "https://dc.lft.to/lastmile_qr_scan", "android": "https://dc.lft.to/lastmile_qr_scan"}, "name": "0d5df257dc108f37bcd3ab33ebd61bb1", "type": "electric_scooter", "fusion_lon": 0.0, "is_disabled": 0, "is_reserved": 0, "bike_id": "0d5df257dc108f37bcd3ab33ebd61bb1", "lon": -77.0323035}, {"fusion_lat": 0.0, "lat": 38.9049415, "rental_uris": {"ios": "https://dc.lft.to/lastmile_qr_scan", "android": "https://dc.lft.to/lastmile_qr_scan"}, "name": "c3f51a54579332d86dc4d2d1f75a2ab8", "type": "electric_bike", "fusion_lon": 0.0, "is_disabled": 0, "is_reserved": 0, "bike_id": "c3f51a54579332d86dc4d2d1f75a2ab8", "lon": -76.974269}, {"fusion_lat": 0.0, "lat": 38.900285333333336, "rental_uris": {"ios": "https://dc.lft.to/lastmile_qr_scan", "android": "https://dc.lft.to/lastmile_qr_scan"}, "name": "f94156df32746d77d2317fc08f6242e4", "type": "electric_scooter", "fusion_lon": 0.0, "is_disabled": 0, "is_reserved": 0, "bike_id": "f94156df32746d77d2317fc08f6242e4", "lon": -76.98815566666667}, {"fusion_lat": 0.0, "lat": 38.927945333333334, "rental_uris": {"ios": "https://dc.lft.to/lastmile_qr_scan", "android": "https://dc.lft.to/lastmile_qr_scan"}, "name": "53537e96f11febb95608cc5fe900e761", "type": "electric_bike", "fusion_lon": 0.0, "is_disabled": 0, "is_reserved": 0, "bike_id": "53537e96f11febb95608cc5fe900e761", "lon": -77.053577}, {"fusion_lat": 0.0, "lat": 38.902928, "rental_uris": {"ios": "https://dc.lft.to/lastmile_qr_scan", "android": "https://dc.lft.to/lastmile_qr_scan"}, "name": "42d0d521c795d40b3777ae2cfc753272", "type": "electric_scooter", "fusion_lon": 0.0, "is_disabled": 0, "is_reserved": 0, "bike_id": "42d0d521c795d40b3777ae2cfc753272", "lon": -77.04668933333333}, {"fusion_lat": 0.0, "lat": 38.8625935, "rental_uris": {"ios": "https://dc.lft.to/lastmile_qr_scan", "android": "https://dc.lft.to/lastmile_qr_scan"}, "name": "584e738ab58cf9003d5c6786927dfb28", "type": "electric_bike", "fusion_lon": 0.0, "is_disabled": 0, "is_reserved": 0, "bike_id": "584e738ab58cf9003d5c6786927dfb28", "lon": -76.98350433333333}, {"fusion_lat": 0.0, "lat": 38.900108833333334, "rental_uris": {"ios": "https://dc.lft.to/lastmile_qr_scan", "android": "https://dc.lft.to/lastmile_qr_scan"}, "name": "3663bc54b79e659f29d6fab93e684be4", "type": "electric_scooter", "fusion_lon": 0.0, "is_disabled": 0, "is_reserved": 0, "bike_id": "3663bc54b79e659f29d6fab93e684be4", "lon": -77.01123183333333}, {"fusion_lat": 0.0, "lat": 38.932213833333336, "rental_uris": {"ios": "https://dc.lft.to/lastmile_qr_scan", "android": "https://dc.lft.to/lastmile_qr_scan"}, "name": "3bab19b595e7e10d6f81e76a04f13efe", "type": "electric_scooter", "fusion_lon": 0.0, "is_disabled": 0, "is_reserved": 0, "bike_id": "3bab19b595e7e10d6f81e76a04f13efe", "lon": -77.03263}, {"fusion_lat": 0.0, "lat": 38.908152, "rental_uris": {"ios": "https://dc.lft.to/lastmile_qr_scan", "android": "https://dc.lft.to/lastmile_qr_scan"}, "name": "f8e7c9a5dd182cddb28e48571487600a", "type": "electric_scooter", "fusion_lon": 0.0, "is_disabled": 0, "is_reserved": 0, "bike_id": "f8e7c9a5dd182cddb28e48571487600a", "lon": -77.0547575}, {"fusion_lat": 0.0, "lat": 38.89826633333333, "rental_uris": {"ios": "https://dc.lft.to/lastmile_qr_scan", "android": "https://dc.lft.to/lastmile_qr_scan"}, "name": "5128b52a47248a76875ca331444b46a2", "type": "electric_scooter", "fusion_lon": 0.0, "is_disabled": 0, "is_reserved": 0, "bike_id": "5128b52a47248a76875ca331444b46a2", "lon": -77.04358}, {"fusion_lat": 0.0, "lat": 38.94914966666666, "rental_uris": {"ios": "https://dc.lft.to/lastmile_qr_scan", "android": "https://dc.lft.to/lastmile_qr_scan"},