{"data": {"bikes": [{"lon": -77.01807983333333, "bike_id": "f9424b9096c6c3de425a087b4f332462", "lat": 38.9648175, "fusion_lon": 0.0, "fusion_lat": 0.0, "type": "electric_scooter", "name": "f9424b9096c6c3de425a087b4f332462", "is_disabled": 0, "rental_uris": {"ios": "https://dc.lft.to/lastmile_qr_scan", "android": "https://dc.lft.to/lastmile_qr_scan"}, "is_reserved": 0}, {"lon": -77.03882383333334, "bike_id": "4dac891cd71c6a272954f65d9e419c96", "lat": 38.948719833333335, "fusion_lon": 0.0, "fusion_lat": 0.0, "type": "electric_scooter", "name": "4dac891cd71c6a272954f65d9e419c96", "is_disabled": 0, "rental_uris": {"ios": "https://dc.lft.to/lastmile_qr_scan", "android": "https://dc.lft.to/lastmile_qr_scan"}, "is_reserved": 0}, {"lon": -77.057421, "bike_id": "0ef3908458dea8240fa8a47e611b313f", "lat": 38.9339045, "fusion_lon": 0.0, "fusion_lat": 0.0, "type": "electric_scooter", "name": "0ef3908458dea8240fa8a47e611b313f", "is_disabled": 0, "rental_uris": {"ios": "https://dc.lft.to/lastmile_qr_scan", "android": "https://dc.lft.to/lastmile_qr_scan"}, "is_reserved": 0}, {"lon": -77.0559365, "bike_id": "701993ded90d8b805aacce03f2ffd99a", "lat": 38.93143633333333, "fusion_lon": 0.0, "fusion_lat": 0.0, "type": "electric_scooter", "name": "701993ded90d8b805aacce03f2ffd99a", "is_disabled": 0, "rental_uris": {"ios": "https://dc.lft.to/lastmile_qr_scan", "android": "https://dc.lft.to/lastmile_qr_scan"}, "is_reserved": 0}, {"lon": -77.0275055, "bike_id": "7f7de8a137eb00cb46c929e8b33da24a", "lat": 38.965681833333335, "fusion_lon": 0.0, "fusion_lat": 0.0, "type": "electric_bike", "name": "7f7de8a137eb00cb46c929e8b33da24a", "is_disabled": 0, "rental_uris": {"ios": "https://dc.lft.to/lastmile_qr_scan", "android": "https://dc.lft.to/lastmile_qr_scan"}, "is_reserved": 0}, {"lon": -76.98823233333333, "bike_id": "f0e093a93c05e536f476608074d5bcf7", "lat": 38.89076, "fusion_lon": 0.0, "fusion_lat": 0.0, "type": "electric_scooter", "name": "f0e093a93c05e536f476608074d5bcf7", "is_disabled": 0, "rental_uris": {"ios": "https://dc.lft.to/lastmile_qr_scan", "android": "https://dc.lft.to/lastmile_qr_scan"}, "is_reserved": 0}, {"lon": -76.96135166666667, "bike_id": "d8f7ea34acf6cd15df9e68c515382eaa", "lat": 38.942063833333336, "fusion_lon": 0.0, "fusion_lat": 0.0, "type": "electric_bike", "name": "d8f7ea34acf6cd15df9e68c515382eaa", "is_disabled": 0, "rental_uris": {"ios": "https://dc.lft.to/lastmile_qr_scan", "android": "https://dc.lft.to/lastmile_qr_scan"}, "is_reserved": 0}, {"lon": -77.033929, "bike_id": "d37e0f742d1278dd40c9c3620f11de26", "lat": 38.90964066666667, "fusion_lon": 0.0, "fusion_lat": 0.0, "type": "electric_scooter", "name": "d37e0f742d1278dd40c9c3620f11de26", "is_disabled": 0, "rental_uris": {"ios": "https://dc.lft.to/lastmile_qr_scan", "android": "https://dc.lft.to/lastmile_qr_scan"}, "is_reserved": 0}, {"lon": -77.0465295, "bike_id": "d781f0c0a76bf93f7e853b4f71040079", "lat": 39.05497966666667, "fusion_lon": 0.0, "fusion_lat": 0.0, "type": "electric_bike", "name": "d781f0c0a76bf93f7e853b4f71040079", "is_disabled": 0, "rental_uris": {"ios": "https://dc.lft.to/lastmile_qr_scan", "android": "https://dc.lft.to/lastmile_qr_scan"}, "is_reserved": 0}, {"lon": -77.03995316666666, "bike_id": "6585b7e24e63a6135b6d86f186f93f32", "lat": 38.90370466666667, "fusion_lon": 0.0, "fusion_lat": 0.0, "type": "electric_scooter", "name": "6585b7e24e63a6135b6d86f186f93f32", "is_disabled": 0, "rental_uris": {"ios": "https://dc.lft.to/lastmile_qr_scan", "android": "https://dc.lft.to/lastmile_qr_scan"}, "is_reserved": 0}, {"lon": -77.00479783333333, "bike_id": "9c1fdac7373af5b5877278f369d8582d", "lat": 38.895823, "fusion_lon": 0.0, "fusion_lat": 0.0, "type": "electric_scooter", "name": "9c1fdac7373af5b5877278f369d8582d", "is_disabled": 0, "rental_uris": {"ios": "https://dc.lft.to/lastmile_qr_scan", "android": "https://dc.lft.to/lastmile_qr_scan"}, "is_reserved": 0}, {"lon": -77.01781183333334, "bike_id": "b0a5a7c0b3c6924be46e024fbd36fef4", "lat": 38.901379166666665, "fusion_lon": 0.0, "fusion_lat": 0.0, "type": "electric_scooter", "name": "b0a5a7c0b3c6924be46e024fbd36fef4", "is_disabled": 0, "rental_uris": {"ios": "https://dc.lft.to/lastmile_qr_scan", "android": "https://dc.lft.to/lastmile_qr_scan"}, "is_reserved": 0}, {"lon": -76.9565925, "bike_id": "11a6c7f97d3c3905a13154de2ee06b69", "lat": 38.896239666666666, "fusion_lon": 0.0, "fusion_lat": 0.0, "type": "electric_scooter", "name": "11a6c7f97d3c3905a13154de2ee06b69", "is_disabled": 0, "rental_uris": {"ios": "https://dc.lft.to/lastmile_qr_scan", "android": "https://dc.lft.to/lastmile_qr_scan"}, "is_reserved": 0}, {"lon": -77.12736783333334, "bike_id": "6fa63317f0a4afbfda29436748aec267", "lat": 38.89557666666666, "fusion_lon": 0.0, "fusion_lat": 0.0, "type": "electric_bike", "name": "6fa63317f0a4afbfda29436748aec267", "is_disabled": 0, "rental_uris": {"ios": "https://dc.lft.to/lastmile_qr_scan", "android": "https://dc.lft.to/lastmile_qr_scan"}, "is_reserved": 0}, {"lon": -76.88399633333333, "bike_id": "e15b4e4c9cf8262c6b287bbd5e1f1220", "lat": 38.93169233333333, "fusion_lon": 0.0, "fusion_lat": 0.0, "type": "electric_bike", "name": "e15b4e4c9cf8262c6b287bbd5e1f1220", "is_disabled": 0, "rental_uris": {"ios": "https://dc.lft.to/lastmile_qr_scan", "android": "https://dc.lft.to/lastmile_qr_scan"}, "is_reserved": 0}, {"lon": -77.017654, "bike_id": "babd7600b8487d3be0471fd51122b754", "lat": 38.900878166666665, "fusion_lon": 0.0, "fusion_lat": 0.0, "type": "electric_scooter", "name": "babd7600b8487d3be0471fd51122b754", "is_disabled": 0, "rental_uris": {"ios": "https://dc.lft.to/lastmile_qr_scan", "android": "https://dc.lft.to/lastmile_qr_scan"}, "is_reserved": 0}, {"lon": -76.98082783333334, "bike_id": "d43b91cb72d66f8f907b3f39cab74f0d", "lat": 38.907083, "fusion_lon": 0.0, "fusion_lat": 0.0, "type": "electric_scooter", "name": "d43b91cb72d66f8f907b3f39cab74f0d", "is_disabled": 0, "rental_uris": {"ios": "https://dc.lft.to/lastmile_qr_scan", "android": "https://dc.lft.to/lastmile_qr_scan"}, "is_reserved": 0}, {"lon": -77.03283316666666, "bike_id": "0f311cf64be4ea2b5c67babc90ae33e6", "lat": 38.94170966666667, "fusion_lon": 0.0, "fusion_lat": 0.0, "type": "electric_scooter", "name": "0f311cf64be4ea2b5c67babc90ae33e6", "is_disabled": 0, "rental_uris": {"ios": "https://dc.lft.to/lastmile_qr_scan", "android": "https://dc.lft.to/lastmile_qr_scan"}, "is_reserved": 0}, {"lon": -77.0683225, "bike_id": "9cbb1f2b4fc16acde08fe631b5180769", "lat": 38.80566783333333, "fusion_lon": 0.0, "fusion_lat": 0.0, "type": "electric_bike", "name": "9cbb1f2b4fc16acde08fe631b5180769", "is_disabled": 0, "rental_uris": {"ios": "https://dc.lft.to/lastmile_qr_scan", "android": "https://dc.lft.to/lastmile_qr_scan"}, "is_reserved": 0}, {"lon": -77.04353, "bike_id": "cefaf833e298b823b868262ce0d563b4", "lat": 38.9077755, "fusion_lon": 0.0, "fusion_lat": 0.0, "type": "electric_scooter", "name": "cefaf833e298b823b868262ce0d563b4", "is_disabled": 0, "rental_uris": {"ios": "https://dc.lft.to/lastmile_qr_scan", "android": "https://dc.lft.to/lastmile_qr_scan"}, "is_reserved": 0}, {"lon": -77.03267683333333, "bike_id": "63d09601c4b7d92ee7b484fbecd15028", "lat": 38.937210666666665, "fusion_lon": 0.0, "fusion_lat": 0.0, "type": "electric_scooter", "name": "63d09601c4b7d92ee7b484fbecd15028", "is_disabled": 0, "rental_uris": {"ios": "https://dc.lft.to/lastmile_qr_scan", "android": "https://dc.lft.to/lastmile_qr_scan"}, "is_reserved": 0}, {"lon": -76.9875875, "bike_id": "8d9c8fbb11a6222de384d2e1a95570c0", "lat": 38.857653666666664, "fusion_lon": 0.0, "fusion_lat": 0.0, "type": "electric_bike", "name": "8d9c8fbb11a6222de384d2e1a95570c0", "is_disabled": 0, "rental_uris": {"ios": "https://dc.lft.to/lastmile_qr_scan", "android": "https://dc.lft.to/lastmile_qr_scan"}, "is_reserved": 0}, {"lon": -77.027642, "bike_id": "f81296a75ded22d91496bfb6750fa7dd", "lat": 38.95427266666667, "fusion_lon": 0.0, "fusion_lat": 0.0, "type": "electric_scooter", "name": "f81296a75ded22d91496bfb6750fa7dd", "is_disabled": 0, "rental_uris": {"ios": "https://dc.lft.to/lastmile_qr_scan", "android": "https://dc.lft.to/lastmile_qr_scan"}, "is_reserved": 0}, {"lon": -77.0333635, "bike_id": "a422b9ba2bb8a0b08ab6ec10861b5700", "lat": 38.9156505, "fusion_lon": 0.0, "fusion_lat": 0.0, "type": "electric_scooter", "name": "a422b9ba2bb8a0b08ab6ec10861b5700", "is_disabled": 0, "rental_uris": {"ios": "https://dc.lft.to/lastmile_qr_scan", "android": "https://dc.lft.to/lastmile_qr_scan"}, "is_reserved": 0}, {"lon": -77.06725916666667, "bike_id": "cbfd45f0dda9782cb06d0ff61a04764e", "lat": 38.914928, "fusion_lon": 0.0, "fusion_lat": 0.0, "type": "electric_scooter", "name": "cbfd45f0dda9782cb06d0ff61a04764e", "is_disabled": 0, "rental_uris": {"ios": "https://dc.lft.to/lastmile_qr_scan", "android": "https://dc.lft.to/lastmile_qr_scan"}, "is_reserved": 0}, {"lon": -77.00333816666667, "bike_id": "01f5a141cd9e2add8914bb2a1278fbcc", "lat": 38.89725933333333, "fusion_lon": 0.0, "fusion_lat": 0.0, "type": "electric_scooter", "name": "01f5a141cd9e2add8914bb2a1278fbcc", "is_disabled": 0, "rental_uris": {"ios": "https://dc.lft.to/lastmile_qr_scan", "android": "https://dc.lft.to/lastmile_qr_scan"}, "is_reserved": 0}, {"lon": -77.0328275, "bike_id": "cbe071c1552f404f07b557d54aefab1a", "lat": 38.9363565, "fusion_lon": 0.0, "fusion_lat": 0.0, "type": "electric_scooter", "name": "cbe071c1552f404f07b557d54aefab1a", "is_disabled": 0, "rental_uris": {"ios": "https://dc.lft.to/lastmile_qr_scan", "android": "https://dc.lft.to/lastmile_qr_scan"}, "is_reserved": 0}, {"lon": -77.03295916666667, "bike_id": "946cb73ece304ae60979786a98fac54a", "lat": 38.9564775, "fusion_lon": 0.0, "fusion_lat": 0.0, "type": "electric_scooter", "name": "946cb73ece304ae60979786a98fac54a", "is_disabled": 0, "rental_uris": {"ios": "https://dc.lft.to/lastmile_qr_scan", "android": "https://dc.lft.to/lastmile_qr_scan"}, "is_reserved": 0}, {"lon": -77.02604416666667, "bike_id": "80b7bd3685e2d05a0e28bb36b5eb1fad", "lat": 38.9023875, "fusion_lon": 0.0, "fusion_lat": 0.0, "type": "electric_scooter", "name": "80b7bd3685e2d05a0e28bb36b5eb1fad", "is_disabled": 0, "rental_uris": {"ios": "https://dc.lft.to/lastmile_qr_scan", "android": "https://dc.lft.to/lastmile_qr_scan"}, "is_reserved": 0}, {"lon": -77.00204683333334, "bike_id": "86a10e99b7afe6e7748d8c0ed181550e", "lat": 38.900271833333335, "fusion_lon": 0.0, "fusion_lat": 0.0, "type": "electric_scooter", "name": "86a10e99b7afe6e7748d8c0ed181550e", "is_disabled": 0, "rental_uris": {"ios": "https://dc.lft.to/lastmile_qr_scan", "android": "https://dc.lft.to/lastmile_qr_scan"}, "is_reserved": 0}, {"lon": -77.17840433333333, "bike_id": "92fb96206b6c8c34ee8c04b15d40bde4", "lat": 39.08856383333333, "fusion_lon": 0.0, "fusion_lat": 0.0, "type": "electric_bike", "name": "92fb96206b6c8c34ee8c04b15d40bde4", "is_disabled": 0, "rental_uris": {"ios": "https://dc.lft.to/lastmile_qr_scan", "android": "https://dc.lft.to/lastmile_qr_scan"}, "is_reserved": 0}, {"lon": -77.05939283333333, "bike_id": "870a7754af8014bbe2e9c6034baa3d6f", "lat": 38.911840833333336, "fusion_lon": 0.0, "fusion_lat": 0.0, "type": "electric_bike", "name": "870a7754af8014bbe2e9c6034baa3d6f", "is_disabled": 0, "rental_uris": {"ios": "https://dc.lft.to/lastmile_qr_scan", "android": "https://dc.lft.to/lastmile_qr_scan"}, "is_reserved": 0}, {"lon": -77.07348583333334, "bike_id": "a4640742374100f56564d8128af05213", "lat": 38.934815666666665, "fusion_lon": 0.0, "fusion_lat": 0.0, "type": "electric_scooter", "name": "a4640742374100f56564d8128af05213", "is_disabled": 0, "rental_uris": {"ios": "https://dc.lft.to/lastmile_qr_scan", "android": "https://dc.lft.to/lastmile_qr_scan"}, "is_reserved": 0}, {"lon": -77.02219983333333, "bike_id": "95a3b89d9cf535aeb12ecbb0d6737cf7", "lat": 38.878971, "fusion_lon": 0.0, "fusion_lat": 0.0, "type": "electric_bike", "name": "95a3b89d9cf535aeb12ecbb0d6737cf7", "is_disabled": 0, "rental_uris": {"ios": "https://dc.lft.to/lastmile_qr_scan", "android": "https://dc.lft.to/lastmile_qr_scan"}, "is_reserved": 0}, {"lon": -76.99170733333334, "bike_id": "f859441d8a198e27e9be60a37f49b5fd", "lat": 38.90966433333333, "fusion_lon": 0.0, "fusion_lat": 0.0, "type": "electric_scooter", "name": "f859441d8a198e27e9be60a37f49b5fd", "is_disabled": 0, "rental_uris": {"ios": "https://dc.lft.to/lastmile_qr_scan", "android": "https://dc.lft.to/lastmile_qr_scan"}, "is_reserved": 0}, {"lon": -76.95652266666667, "bike_id": "9d8a95fe2ef63774934f584c858a515f", "lat": 38.8955285, "fusion_lon": 0.0, "fusion_lat": 0.0, "type": "electric_scooter", "name": "9d8a95fe2ef63774934f584c858a515f", "is_disabled": 0, "rental_uris": {"ios": "https://dc.lft.to/lastmile_qr_scan", "android": "https://dc.lft.to/lastmile_qr_scan"}, "is_reserved": 0}, {"lon": -77.04602983333334, "bike_id": "5b925ef1317bd401cd55ab0cb56b57b3", "lat": 38.85309066666667, "fusion_lon": 0.0, "fusion_lat": 0.0, "type": "electric_bike", "name": "5b925ef1317bd401cd55ab0cb56b57b3", "is_disabled": 0, "rental_uris": {"ios": "https://dc.lft.to/lastmile_qr_scan", "android": "https://dc.lft.to/lastmile_qr_scan"}, "is_reserved": 0}, {"lon": -77.0241775, "bike_id": "0f3b66ab74e645950fbb2519b31204a8", "lat": 38.917750166666664, "fusion_lon": 0.0, "fusion_lat": 0.0, "type": "electric_scooter", "name": "0f3b66ab74e645950fbb2519b31204a8", "is_disabled": 0, "rental_uris": {"ios": "https://dc.lft.to/lastmile_qr_scan", "android": "https://dc.lft.to/lastmile_qr_scan"}, "is_reserved": 0}, {"lon": -77.02969066666667, "bike_id": "a3bd6914479e3f24c1eff48000b32fef", "lat": 38.912471333333336, "fusion_lon": 0.0, "fusion_lat": 0.0, "type": "electric_scooter", "name": "a3bd6914479e3f24c1eff48000b32fef", "is_disabled": 0, "rental_uris": {"ios": "https://dc.lft.to/lastmile_qr_scan", "android": "https://dc.lft.to/lastmile_qr_scan"}, "is_reserved": 0}, {"lon": -77.02487416666666, "bike_id": "00ad4ec7b1e1295f9dd766494d4ab349", "lat": 38.901718333333335, "fusion_lon": 0.0, "fusion_lat": 0.0, "type": "electric_scooter", "name": "00ad4ec7b1e1295f9dd766494d4ab349", "is_disabled": 0, "rental_uris": {"ios": "https://dc.lft.to/lastmile_qr_scan", "android": "https://dc.lft.to/lastmile_qr_scan"}, "is_reserved": 0}, {"lon": -77.022845, "bike_id": "1e2e66a7d792f95188e209176e5819e1", "lat": 38.91623966666667, "fusion_lon": 0.0, "fusion_lat": 0.0, "type": "electric_scooter", "name": "1e2e66a7d792f95188e209176e5819e1", "is_disabled": 0, "rental_uris": {"ios": "https://dc.lft.to/lastmile_qr_scan", "android": "https://dc.lft.to/lastmile_qr_scan"}, "is_reserved": 0}, {"lon": -77.0236265, "bike_id": "f671e8411f301009e176fe22b3b72cd1", "lat": 38.892157166666664, "fusion_lon": 0.0, "fusion_lat": 0.0, "type": "electric_scooter", "name": "f671e8411f301009e176fe22b3b72cd1", "is_disabled": 0, "rental_uris": {"ios": "https://dc.lft.to/lastmile_qr_scan", "android": "https://dc.lft.to/lastmile_qr_scan"}, "is_reserved": 0}, {"lon": -77.057241, "bike_id": "032a9b1f0f29bc95b250907f40079ba5", "lat": 38.933651166666664, "fusion_lon": 0.0, "fusion_lat": 0.0, "type": "electric_scooter", "name": "032a9b1f0f29bc95b250907f40079ba5", "is_disabled": 0, "rental_uris": {"ios": "https://dc.lft.to/lastmile_qr_scan", "android": "https://dc.lft.to/lastmile_qr_scan"}, "is_reserved": 0}, {"lon": -76.98842033333334, "bike_id": "941039b3eb7bc68a9c7ddc01ed98d5ef", "lat": 38.84270816666667, "fusion_lon": 0.0, "fusion_lat": 0.0, "type": "electric_bike", "name": "941039b3eb7bc68a9c7ddc01ed98d5ef", "is_disabled": 0, "rental_uris": {"ios": "https://dc.lft.to/lastmile_qr_scan", "android": "https://dc.lft.to/lastmile_qr_scan"}, "is_reserved": 0}, {"lon": -77.017614, "bike_id": "4d955f48aa7a73c530c0c84c8b5199f4", "lat": 38.90257616666667, "fusion_lon": 0.0, "fusion_lat": 0.0, "type": "electric_scooter", "name": "4d955f48aa7a73c530c0c84c8b5199f4", "is_disabled": 0, "rental_uris": {"ios": "https://dc.lft.to/lastmile_qr_scan", "android": "https://dc.lft.to/lastmile_qr_scan"}, "is_reserved": 0}, {"lon": -77.0014955, "bike_id": "69707e8d4dd998eb59836dd5cdc15a60", "lat": 38.88985783333333, "fusion_lon": 0.0, "fusion_lat": 0.0, "type": "electric_scooter", "name": "69707e8d4dd998eb59836dd5cdc15a60", "is_disabled": 0, "rental_uris": {"ios": "https://dc.lft.to/lastmile_qr_scan", "android": "https://dc.lft.to/lastmile_qr_scan"}, "is_reserved": 0}, {"lon": -76.97055416666667, "bike_id": "d0b583f774172141cb522265e56a3ef6", "lat": 38.897703166666666, "fusion_lon": 0.0, "fusion_lat": 0.0, "type": "electric_scooter", "name": "d0b583f774172141cb522265e56a3ef6", "is_disabled": 0, "rental_uris": {"ios": "https://dc.lft.to/lastmile_qr_scan", "android": "https://dc.lft.to/lastmile_qr_scan"}, "is_reserved": 0}, {"lon": -77.00054783333333, "bike_id": "e2cd55f5dac866d9d44134825b1b3800", "lat": 38.923975, "fusion_lon": 0.0, "fusion_lat": 0.0, "type": "electric_scooter", "name": "e2cd55f5dac866d9d44134825b1b3800", "is_disabled": 0, "rental_uris": {"ios": "https://dc.lft.to/lastmile_qr_scan", "android": "https://dc.lft.to/lastmile_qr_scan"}, "is_reserved": 0}, {"lon": -77.03446583333333, "bike_id": "7f19917bd89d8e0ec4743bd53ae35d8d", "lat": 38.907345, "fusion_lon": 0.0, "fusion_lat": 0.0, "type": "electric_scooter", "name": "7f19917bd89d8e0ec4743bd53ae35d8d", "is_disabled": 0, "rental_uris": {"ios": "https://dc.lft.to/lastmile_qr_scan", "android": "https://dc.lft.to/lastmile_qr_scan"}, "is_reserved": 0}, {"lon": -77.02745283333333, "bike_id": "1f0c1442c24228cbd1ef3df37c523b64", "lat": 38.9276775, "fusion_lon": 0.0, "fusion_lat": 0.0, "type": "electric_scooter", "name": "1f0c1442c24228cbd1ef3df37c523b64", "is_disabled": 0, "rental_uris": {"ios": "https://dc.lft.to/lastmile_qr_scan", "android": "https://dc.lft.to/lastmile_qr_scan"}, "is_reserved": 0}, {"lon": -77.04618716666667, "bike_id": "25f1fd7c74f38139e14dad185b508b27", "lat": 38.905545833333335, "fusion_lon": 0.0, "fusion_lat": 0.0, "type": "electric_scooter", "name": "25f1fd7c74f38139e14dad185b508b27", "is_disabled": 0, "rental_uris": {"ios": "https://dc.lft.to/lastmile_qr_scan", "android": "https://dc.lft.to/lastmile_qr_scan"}, "is_reserved": 0}, {"lon": -77.04218566666667, "bike_id": "ee55703e7d44c5b9cda2acfc5756b293", "lat": 38.9111765, "fusion_lon": 0.0, "fusion_lat": 0.0, "type": "electric_scooter", "name": "ee55703e7d44c5b9cda2acfc5756b293", "is_disabled": 0, "rental_uris": {"ios": "https://dc.lft.to/lastmile_qr_scan", "android": "https://dc.lft.to/lastmile_qr_scan"}, "is_reserved": 0}, {"lon": -76.987125, "bike_id": "5e77dc809f516d7880411b7d779ca26e", "lat": 38.8662275, "fusion_lon": 0.0, "fusion_lat": 0.0, "type": "electric_scooter", "name": "5e77dc809f516d7880411b7d779ca26e", "is_disabled": 0, "rental_uris": {"ios": "https://dc.lft.to/lastmile_qr_scan", "android": "https://dc.lft.to/lastmile_qr_scan"}, "is_reserved": 0}, {"lon": -77.05438033333333, "bike_id": "1f586a10e0b87a232709882284173ef0", "lat": 38.9286895, "fusion_lon": 0.0, "fusion_lat": 0.0, "type": "electric_scooter", "name": "1f586a10e0b87a232709882284173ef0", "is_disabled": 0, "rental_uris": {"ios": "https://dc.lft.to/lastmile_qr_scan", "android": "https://dc.lft.to/lastmile_qr_scan"}, "is_reserved": 0}, {"lon": -77.02260216666667, "bike_id": "b77cdd85aed31fa54eb1454875fe1cb2", "lat": 38.893762833333334, "fusion_lon": 0.0, "fusion_lat": 0.0, "type": "electric_scooter", "name": "b77cdd85aed31fa54eb1454875fe1cb2", "is_disabled": 0, "rental_uris": {"ios": "https://dc.lft.to/lastmile_qr_scan", "android": "https://dc.lft.to/lastmile_qr_scan"}, "is_reserved": 0}, {"lon": -77.033532, "bike_id": "dedc7a230753118997bdb7d36887c4a3", "lat": 38.9071125, "fusion_lon": 0.0, "fusion_lat": 0.0, "type": "electric_scooter", "name": "dedc7a230753118997bdb7d36887c4a3", "is_disabled": 0, "rental_uris": {"ios": "https://dc.lft.to/lastmile_qr_scan", "android": "https://dc.lft.to/lastmile_qr_scan"}, "is_reserved": 0}, {"lon": -76.96059866666667, "bike_id": "54788f96797c84e18fddcd2974a4952c", "lat": 38.8840775, "fusion_lon": 0.0, "fusion_lat": 0.0, "type": "electric_bike", "name": "54788f96797c84e18fddcd2974a4952c", "is_disabled": 0, "rental_uris": {"ios": "https://dc.lft.to/lastmile_qr_scan", "android": "https://dc.lft.to/lastmile_qr_scan"}, "is_reserved": 0}, {"lon": -76.95408, "bike_id": "9ecb9378e14cbc33cbe7f55b889a37c3", "lat": 38.884648166666665, "fusion_lon": 0.0, "fusion_lat": 0.0, "type": "electric_scooter", "name": "9ecb9378e14cbc33cbe7f55b889a37c3", "is_disabled": 0, "rental_uris": {"ios": "https://dc.lft.to/lastmile_qr_scan", "android": "https://dc.lft.to/lastmile_qr_scan"}, "is_reserved": 0}, {"lon": -77.014312, "bike_id": "9f35332a8deca3ab5ccd82442f00b020", "lat": 38.877507333333334, "fusion_lon": 0.0, "fusion_lat": 0.0, "type": "electric_scooter", "name": "9f35332a8deca3ab5ccd82442f00b020", "is_disabled": 0, "rental_uris": {"ios": "https://dc.lft.to/lastmile_qr_scan", "android": "https://dc.lft.to/lastmile_qr_scan"}, "is_reserved": 0}, {"lon": -77.02187666666667, "bike_id": "ed13a7e53fc0b476c714f5e8e83bf7f6", "lat": 38.91477916666667, "fusion_lon": 0.0, "fusion_lat": 0.0, "type": "electric_scooter", "name": "ed13a7e53fc0b476c714f5e8e83bf7f6", "is_disabled": 0, "rental_uris": {"ios": "https://dc.lft.to/lastmile_qr_scan", "android": "https://dc.lft.to/lastmile_qr_scan"}, "is_reserved": 0}, {"lon": -76.9954285, "bike_id": "5a1fe237f7376d4704c816e9afcd82fd", "lat": 38.86252416666667, "fusion_lon": 0.0, "fusion_lat": 0.0, "type": "electric_scooter", "name": "5a1fe237f7376d4704c816e9afcd82fd", "is_disabled": 0, "rental_uris": {"ios": "https://dc.lft.to/lastmile_qr_scan", "android": "https://dc.lft.to/lastmile_qr_scan"}, "is_reserved": 0}, {"lon": -76.9954505, "bike_id": "ec8f1ccfd7d8d46d8d067a72e4f1b0f6", "lat": 38.926699166666666, "fusion_lon": 0.0, "fusion_lat": 0.0, "type": "electric_scooter", "name": "ec8f1ccfd7d8d46d8d067a72e4f1b0f6", "is_disabled": 0, "rental_uris": {"ios": "https://dc.lft.to/lastmile_qr_scan", "android": "https://dc.lft.to/lastmile_qr_scan"}, "is_reserved": 0}, {"lon": -77.03854666666666, "bike_id": "cba3b2224fed7f8fb181fa845c40f63e", "lat": 38.931282833333334, "fusion_lon": 0.0, "fusion_lat": 0.0, "type": "electric_scooter", "name": "cba3b2224fed7f8fb181fa845c40f63e", "is_disabled": 0, "rental_uris": {"ios": "https://dc.lft.to/lastmile_qr_scan", "android": "https://dc.lft.to/lastmile_qr_scan"}, "is_reserved": 0}, {"lon": -77.02619933333334, "bike_id": "8345e320592926c219f56354d89d5859", "lat": 38.8961675, "fusion_lon": 0.0, "fusion_lat": 0.0, "type": "electric_scooter", "name": "8345e320592926c219f56354d89d5859", "is_disabled": 0, "rental_uris": {"ios": "https://dc.lft.to/lastmile_qr_scan", "android": "https://dc.lft.to/lastmile_qr_scan"}, "is_reserved": 0}, {"lon": -76.93739066666667, "bike_id": "4d878900393b666782830fe88d337538", "lat": 38.890048166666666, "fusion_lon": 0.0, "fusion_lat": 0.0, "type": "electric_scooter", "name": "4d878900393b666782830fe88d337538", "is_disabled": 0, "rental_uris": {"ios": "https://dc.lft.to/lastmile_qr_scan", "android": "https://dc.lft.to/lastmile_qr_scan"}, "is_reserved": 0}, {"lon": -77.02993866666667, "bike_id": "d4dfd659b158b511ce83c30f625f4028", "lat": 38.9246635, "fusion_lon": 0.0, "fusion_lat": 0.0, "type": "electric_scooter", "name": "d4dfd659b158b511ce83c30f625f4028", "is_disabled": 0, "rental_uris": {"ios": "https://dc.lft.to/lastmile_qr_scan", "android": "https://dc.lft.to/lastmile_qr_scan"}, "is_reserved": 0}, {"lon": -76.93131416666667, "bike_id": "717a8719cbc4e247b8c05341cff51b9c", "lat": 38.876113, "fusion_lon": 0.0, "fusion_lat": 0.0, "type": "electric_scooter", "name": "717a8719cbc4e247b8c05341cff51b9c", "is_disabled": 0, "rental_uris": {"ios": "https://dc.lft.to/lastmile_qr_scan", "android": "https://dc.lft.to/lastmile_qr_scan"}, "is_reserved": 0}, {"lon": -77.05433233333333, "bike_id": "2f6648b52698ecb4209888297c23fcc6", "lat": 38.928594, "fusion_lon": 0.0, "fusion_lat": 0.0, "type": "electric_scooter", "name": "2f6648b52698ecb4209888297c23fcc6", "is_disabled": 0, "rental_uris": {"ios": "https://dc.lft.to/lastmile_qr_scan", "android": "https://dc.lft.to/lastmile_qr_scan"}, "is_reserved": 0}, {"lon": -77.03161033333333, "bike_id": "5516d4f5664390649aa6bb1bf1815577", "lat": 38.892132, "fusion_lon": 0.0, "fusion_lat": 0.0, "type": "electric_scooter", "name": "5516d4f5664390649aa6bb1bf1815577", "is_disabled": 0, "rental_uris": {"ios": "https://dc.lft.to/lastmile_qr_scan", "android": "https://dc.lft.to/lastmile_qr_scan"}, "is_reserved": 0}, {"lon": -77.0239915, "bike_id": "44372040bb8db5319aff6b884653ab7a", "lat": 38.936985166666666, "fusion_lon": 0.0, "fusion_lat": 0.0, "type": "electric_scooter", "name": "44372040bb8db5319aff6b884653ab7a", "is_disabled": 0, "rental_uris": {"ios": "https://dc.lft.to/lastmile_qr_scan", "android": "https://dc.lft.to/lastmile_qr_scan"}, "is_reserved": 0}, {"lon": -77.03190766666667, "bike_id": "0bd981c6f4b8fe6b6b61c975f3c63cb1", "lat": 38.913285333333334, "fusion_lon": 0.0, "fusion_lat": 0.0, "type": "electric_scooter", "name": "0bd981c6f4b8fe6b6b61c975f3c63cb1", "is_disabled": 0, "rental_uris": {"ios": "https://dc.lft.to/lastmile_qr_scan", "android": "https://dc.lft.to/lastmile_qr_scan"}, "is_reserved": 0}, {"lon": -77.0491365, "bike_id": "f2fc804b24910a8c9a5061f53488b099", "lat": 38.90342, "fusion_lon": 0.0, "fusion_lat": 0.0, "type": "electric_scooter", "name": "f2fc804b24910a8c9a5061f53488b099", "is_disabled": 0, "rental_uris": {"ios": "https://dc.lft.to/lastmile_qr_scan", "android": "https://dc.lft.to/lastmile_qr_scan"}, "is_reserved": 0}, {"lon": -77.01627966666666, "bike_id": "817d794e8b0b7f40a5860280f07b1bf0", "lat": 38.928991333333336, "fusion_lon": 0.0, "fusion_lat": 0.0, "type": "electric_scooter", "name": "817d794e8b0b7f40a5860280f07b1bf0", "is_disabled": 0, "rental_uris": {"ios": "https://dc.lft.to/lastmile_qr_scan", "android": "https://dc.lft.to/lastmile_qr_scan"}, "is_reserved": 0}, {"lon": -77.00196016666666, "bike_id": "ba7d0ffc622ec6a1fb913989d9b8bd23", "lat": 38.9119375, "fusion_lon": 0.0, "fusion_lat": 0.0, "type": "electric_scooter", "name": "ba7d0ffc622ec6a1fb913989d9b8bd23", "is_disabled": 0, "rental_uris": {"ios": "https://dc.lft.to/lastmile_qr_scan", "android": "https://dc.lft.to/lastmile_qr_scan"}, "is_reserved": 0}, {"lon": -77.06348066666666, "bike_id": "c29172c74e1a7dd812a1500cd5212c05", "lat": 38.94452883333334, "fusion_lon": 0.0, "fusion_lat": 0.0, "type": "electric_scooter", "name": "c29172c74e1a7dd812a1500cd5212c05", "is_disabled": 0, "rental_uris": {"ios": "https://dc.lft.to/lastmile_qr_scan", "android": "https://dc.lft.to/lastmile_qr_scan"}, "is_reserved": 0}, {"lon": -77.06191433333333, "bike_id": "4887e000e75933db06773837859638a6", "lat": 38.910554, "fusion_lon": 0.0, "fusion_lat": 0.0, "type": "electric_scooter", "name": "4887e000e75933db06773837859638a6", "is_disabled": 0, "rental_uris": {"ios": "https://dc.lft.to/lastmile_qr_scan", "android": "https://dc.lft.to/lastmile_qr_scan"}, "is_reserved": 0}, {"lon": -77.00315983333333, "bike_id": "7cab04a72b67f914d9c896ce15d164dc", "lat": 38.91898783333333, "fusion_lon": 0.0, "fusion_lat": 0.0, "type": "electric_bike", "name": "7cab04a72b67f914d9c896ce15d164dc", "is_disabled": 0, "rental_uris": {"ios": "https://dc.lft.to/lastmile_qr_scan", "android": "https://dc.lft.to/lastmile_qr_scan"}, "is_reserved": 0}, {"lon": -77.03853466666666, "bike_id": "dcf0fe4bf790312b3a7607b466f7e5ed", "lat": 38.917460166666665, "fusion_lon": 0.0, "fusion_lat": 0.0, "type": "electric_scooter", "name": "dcf0fe4bf790312b3a7607b466f7e5ed", "is_disabled": 0, "rental_uris": {"ios": "https://dc.lft.to/lastmile_qr_scan", "android": "https://dc.lft.to/lastmile_qr_scan"}, "is_reserved": 0}, {"lon": -77.04477216666666, "bike_id": "9a9d2b50aeeba9d8897373ac14a6da38", "lat": 38.9213735, "fusion_lon": 0.0, "fusion_lat": 0.0, "type": "electric_scooter", "name": "9a9d2b50aeeba9d8897373ac14a6da38", "is_disabled": 0, "rental_uris": {"ios": "https://dc.lft.to/lastmile_qr_scan", "android": "https://dc.lft.to/lastmile_qr_scan"}, "is_reserved": 0}, {"lon": -76.94151383333333, "bike_id": "ebc0f1c671cf19427436922ef85ce692", "lat": 38.87905583333333, "fusion_lon": 0.0, "fusion_lat": 0.0, "type": "electric_scooter", "name": "ebc0f1c671cf19427436922ef85ce692", "is_disabled": 0, "rental_uris": {"ios": "https://dc.lft.to/lastmile_qr_scan", "android": "https://dc.lft.to/lastmile_qr_scan"}, "is_reserved": 0}, {"lon": -77.04604233333333, "bike_id": "b6838b5a361af3e79f1dc8c3eb45c72f", "lat": 38.921756, "fusion_lon": 0.0, "fusion_lat": 0.0, "type": "electric_scooter", "name": "b6838b5a361af3e79f1dc8c3eb45c72f", "is_disabled": 0, "rental_uris": {"ios": "https://dc.lft.to/lastmile_qr_scan", "android": "https://dc.lft.to/lastmile_qr_scan"}, "is_reserved": 0}, {"lon": -76.99268116666667, "bike_id": "5a0600356b12812773c0b46d8a48c7be", "lat": 38.897652, "fusion_lon": 0.0, "fusion_lat": 0.0, "type": "electric_scooter", "name": "5a0600356b12812773c0b46d8a48c7be", "is_disabled": 0, "rental_uris": {"ios": "https://dc.lft.to/lastmile_qr_scan", "android": "https://dc.lft.to/lastmile_qr_scan"}, "is_reserved": 0}, {"lon": -77.00709383333333, "bike_id": "c22c7cc3f0e6124094de9e7c3762c6cf", "lat": 38.88492816666667, "fusion_lon": 0.0, "fusion_lat": 0.0, "type": "electric_scooter", "name": "c22c7cc3f0e6124094de9e7c3762c6cf", "is_disabled": 0, "rental_uris": {"ios": "https://dc.lft.to/lastmile_qr_scan", "android": "https://dc.lft.to/lastmile_qr_scan"}, "is_reserved": 0}, {"lon": -77.02213066666667, "bike_id": "e82d8054be7ea1a71e06bd5f87df4ef2", "lat": 38.90544916666666, "fusion_lon": 0.0, "fusion_lat": 0.0, "type": "electric_scooter", "name": "e82d8054be7ea1a71e06bd5f87df4ef2", "is_disabled": 0, "rental_uris": {"ios": "https://dc.lft.to/lastmile_qr_scan", "android": "https://dc.lft.to/lastmile_qr_scan"}, "is_reserved": 0}, {"lon": -76.98077783333333, "bike_id": "87e68b7b6d168e1bea7fd62fa8500844", "lat": 38.90171816666667, "fusion_lon": 0.0, "fusion_lat": 0.0, "type": "electric_scooter", "name": "87e68b7b6d168e1bea7fd62fa8500844", "is_disabled": 0, "rental_uris": {"ios": "https://dc.lft.to/lastmile_qr_scan", "android": "https://dc.lft.to/lastmile_qr_scan"}, "is_reserved": 0}, {"lon": -77.03310466666667, "bike_id": "dbf191fd8fe57008f6093e4eab377d77", "lat": 38.92872583333333, "fusion_lon": 0.0, "fusion_lat": 0.0, "type": "electric_scooter", "name": "dbf191fd8fe57008f6093e4eab377d77", "is_disabled": 0, "rental_uris": {"ios": "https://dc.lft.to/lastmile_qr_scan", "android": "https://dc.lft.to/lastmile_qr_scan"}, "is_reserved": 0}, {"lon": -77.00750783333334, "bike_id": "f1ca5354a36f0b19ae1742cbb0269d10", "lat": 38.87619766666667, "fusion_lon": 0.0, "fusion_lat": 0.0, "type": "electric_scooter", "name": "f1ca5354a36f0b19ae1742cbb0269d10", "is_disabled": 0, "rental_uris": {"ios": "https://dc.lft.to/lastmile_qr_scan", "android": "https://dc.lft.to/lastmile_qr_scan"}, "is_reserved": 0}, {"lon": -77.02202133333333, "bike_id": "22868ef2a5b4c1220bda0969cba5c676", "lat": 38.905429166666664, "fusion_lon": 0.0, "fusion_lat": 0.0, "type": "electric_scooter", "name": "22868ef2a5b4c1220bda0969cba5c676", "is_disabled": 0, "rental_uris": {"ios": "https://dc.lft.to/lastmile_qr_scan", "android": "https://dc.lft.to/lastmile_qr_scan"}, "is_reserved": 0}, {"lon": -77.005312, "bike_id": "fa40a5f9e8217340db7ec52780dcc623", "lat": 38.9095415, "fusion_lon": 0.0, "fusion_lat": 0.0, "type": "electric_scooter", "name": "fa40a5f9e8217340db7ec52780dcc623", "is_disabled": 0, "rental_uris": {"ios": "https://dc.lft.to/lastmile_qr_scan", "android": "https://dc.lft.to/lastmile_qr_scan"}, "is_reserved": 0}, {"lon": -76.98332683333334, "bike_id": "7fa6af51c2fcfd2f01ea551f674f4988", "lat": 38.90083766666667, "fusion_lon": 0.0, "fusion_lat": 0.0, "type": "electric_scooter", "name": "7fa6af51c2fcfd2f01ea551f674f4988", "is_disabled": 0, "rental_uris": {"ios": "https://dc.lft.to/lastmile_qr_scan", "android": "https://dc.lft.to/lastmile_qr_scan"}, "is_reserved": 0}, {"lon": -76.99624933333334, "bike_id": "df60d67ac7c8b7e338aa6cb5ef2fefeb", "lat": 38.900568666666665, "fusion_lon": 0.0, "fusion_lat": 0.0, "type": "electric_scooter", "name": "df60d67ac7c8b7e338aa6cb5ef2fefeb", "is_disabled": 0, "rental_uris": {"ios": "https://dc.lft.to/lastmile_qr_scan", "android": "https://dc.lft.to/lastmile_qr_scan"}, "is_reserved": 0}, {"lon": -77.03874816666666, "bike_id": "b1f5d818bc860ef717ec5ee8e5d78d6e", "lat": 38.90263183333333, "fusion_lon": 0.0, "fusion_lat": 0.0, "type": "electric_scooter", "name": "b1f5d818bc860ef717ec5ee8e5d78d6e", "is_disabled": 0, "rental_uris": {"ios": "https://dc.lft.to/lastmile_qr_scan", "android": "https://dc.lft.to/lastmile_qr_scan"}, "is_reserved": 0}, {"lon": -77.0340425, "bike_id": "1a317da12132301e0d8e0c5b59636b70", "lat": 38.93419033333333, "fusion_lon": 0.0, "fusion_lat": 0.0, "type": "electric_scooter", "name": "1a317da12132301e0d8e0c5b59636b70", "is_disabled": 0, "rental_uris": {"ios": "https://dc.lft.to/lastmile_qr_scan", "android": "https://dc.lft.to/lastmile_qr_scan"}, "is_reserved": 0}, {"lon": -76.99185733333333, "bike_id": "e092c10cdecb9f13e967b9547195328f", "lat": 38.90507866666667, "fusion_lon": 0.0, "fusion_lat": 0.0, "type": "electric_scooter", "name": "e092c10cdecb9f13e967b9547195328f", "is_disabled": 0, "rental_uris": {"ios": "https://dc.lft.to/lastmile_qr_scan", "android": "https://dc.lft.to/lastmile_qr_scan"}, "is_reserved": 0}, {"lon": -76.98724383333334, "bike_id": "146ffede8057e1b249df2f777bdda371", "lat": 38.867121166666664, "fusion_lon": 0.0, "fusion_lat": 0.0, "type": "electric_scooter", "name": "146ffede8057e1b249df2f777bdda371", "is_disabled": 0, "rental_uris": {"ios": "https://dc.lft.to/lastmile_qr_scan", "android": "https://dc.lft.to/lastmile_qr_scan"}, "is_reserved": 0}, {"lon": -77.0273145, "bike_id": "e6e03e9582543fb8048c370e5de21673", "lat": 38.89787483333333, "fusion_lon": 0.0, "fusion_lat": 0.0, "type": "electric_scooter", "name": "e6e03e9582543fb8048c370e5de21673", "is_disabled": 0, "rental_uris": {"ios": "https://dc.lft.to/lastmile_qr_scan", "android": "https://dc.lft.to/lastmile_qr_scan"}, "is_reserved": 0}, {"lon": -77.02981333333334, "bike_id": "702608e438be97d049b7c61aa97dd567", "lat": 38.94738983333333, "fusion_lon": 0.0, "fusion_lat": 0.0, "type": "electric_scooter", "name": "702608e438be97d049b7c61aa97dd567", "is_disabled": 0, "rental_uris": {"ios": "https://dc.lft.to/lastmile_qr_scan", "android": "https://dc.lft.to/lastmile_qr_scan"}, "is_reserved": 0}, {"lon": -77.03123783333334, "bike_id": "997634f82d1544b4dc6cd1a43136b05e", "lat": 38.916864833333335, "fusion_lon": 0.0, "fusion_lat": 0.0, "type": "electric_scooter", "name": "997634f82d1544b4dc6cd1a43136b05e", "is_disabled": 0, "rental_uris": {"ios": "https://dc.lft.to/lastmile_qr_scan", "android": "https://dc.lft.to/lastmile_qr_scan"}, "is_reserved": 0}, {"lon": -77.10600383333333, "bike_id": "4914d90cf04717025fed0d2101c2ba7f", "lat": 38.92891066666667, "fusion_lon": 0.0, "fusion_lat": 0.0, "type": "electric_bike", "name": "4914d90cf04717025fed0d2101c2ba7f", "is_disabled": 0, "rental_uris": {"ios": "https://dc.lft.to/lastmile_qr_scan", "android": "https://dc.lft.to/lastmile_qr_scan"}, "is_reserved": 0}, {"lon": -77.03198566666667, "bike_id": "e2d867e41e4ee86a2b0f356af4acd77a", "lat": 38.9096615, "fusion_lon": 0.0, "fusion_lat": 0.0, "type": "electric_scooter", "name": "e2d867e41e4ee86a2b0f356af4acd77a", "is_disabled": 0, "rental_uris": {"ios": "https://dc.lft.to/lastmile_qr_scan", "android": "https://dc.lft.to/lastmile_qr_scan"}, "is_reserved": 0}, {"lon": -76.98587816666667, "bike_id": "f6e250dd5b71b8bc44f7d27e1ebe127f", "lat": 38.86235816666667, "fusion_lon": 0.0, "fusion_lat": 0.0, "type": "electric_scooter", "name": "f6e250dd5b71b8bc44f7d27e1ebe127f", "is_disabled": 0, "rental_uris": {"ios": "https://dc.lft.to/lastmile_qr_scan", "android": "https://dc.lft.to/lastmile_qr_scan"}, "is_reserved": 0}, {"lon": -77.029651, "bike_id": "645897baf1cc31fb6b39f946b2e73f5a", "lat": 38.931947, "fusion_lon": 0.0, "fusion_lat": 0.0, "type": "electric_scooter", "name": "645897baf1cc31fb6b39f946b2e73f5a", "is_disabled": 0, "rental_uris": {"ios": "https://dc.lft.to/lastmile_qr_scan", "android": "https://dc.lft.to/lastmile_qr_scan"}, "is_reserved": 0}, {"lon": -76.96154483333333, "bike_id": "9a387b300d33a2859c1c8c02a1ce97ec", "lat": 38.883622, "fusion_lon": 0.0, "fusion_lat": 0.0, "type": "electric_scooter", "name": "9a387b300d33a2859c1c8c02a1ce97ec", "is_disabled": 0, "rental_uris": {"ios": "https://dc.lft.to/lastmile_qr_scan", "android": "https://dc.lft.to/lastmile_qr_scan"}, "is_reserved": 0}, {"lon": -76.98537616666667, "bike_id": "230dc2aaf8c633bcdbe32555c23ca075", "lat": 38.91020433333333, "fusion_lon": 0.0, "fusion_lat": 0.0, "type": "electric_scooter", "name": "230dc2aaf8c633bcdbe32555c23ca075", "is_disabled": 0, "rental_uris": {"ios": "https://dc.lft.to/lastmile_qr_scan", "android": "https://dc.lft.to/lastmile_qr_scan"}, "is_reserved": 0}, {"lon": -77.0468965, "bike_id": "6ec33f6db60f3b7b4e709d2126e546c9", "lat": 38.921133166666664, "fusion_lon": 0.0, "fusion_lat": 0.0, "type": "electric_scooter", "name": "6ec33f6db60f3b7b4e709d2126e546c9", "is_disabled": 0, "rental_uris": {"ios": "https://dc.lft.to/lastmile_qr_scan", "android": "https://dc.lft.to/lastmile_qr_scan"}, "is_reserved": 0}, {"lon": -77.0104905, "bike_id": "d4866181dd711e620e62843791e9e192", "lat": 38.963465166666666, "fusion_lon": 0.0, "fusion_lat": 0.0, "type": "electric_scooter", "name": "d4866181dd711e620e62843791e9e192", "is_disabled": 0, "rental_uris": {"ios": "https://dc.lft.to/lastmile_qr_scan", "android": "https://dc.lft.to/lastmile_qr_scan"}, "is_reserved": 0}, {"lon": -77.02601383333334, "bike_id": "15333cf3eb5fbc19caaceb5a7fdbd6ce", "lat": 38.92795016666667, "fusion_lon": 0.0, "fusion_lat": 0.0, "type": "electric_scooter", "name": "15333cf3eb5fbc19caaceb5a7fdbd6ce", "is_disabled": 0, "rental_uris": {"ios": "https://dc.lft.to/lastmile_qr_scan", "android": "https://dc.lft.to/lastmile_qr_scan"}, "is_reserved": 0}, {"lon": -77.01219133333333, "bike_id": "6f5cc25d9afa4e136c228e1985717eb4", "lat": 38.9006575, "fusion_lon": 0.0, "fusion_lat": 0.0, "type": "electric_scooter", "name": "6f5cc25d9afa4e136c228e1985717eb4", "is_disabled": 0, "rental_uris": {"ios": "https://dc.lft.to/lastmile_qr_scan", "android": "https://dc.lft.to/lastmile_qr_scan"}, "is_reserved": 0}, {"lon": -77.0058855, "bike_id": "4e98add7e434d07b30833542cc495719", "lat": 38.8768345, "fusion_lon": 0.0, "fusion_lat": 0.0, "type": "electric_scooter", "name": "4e98add7e434d07b30833542cc495719", "is_disabled": 0, "rental_uris": {"ios": "https://dc.lft.to/lastmile_qr_scan", "android": "https://dc.lft.to/lastmile_qr_scan"}, "is_reserved": 0}, {"lon": -77.0461965, "bike_id": "b1697391fde3fc38e7570f1b0f24b656", "lat": 38.916314, "fusion_lon": 0.0, "fusion_lat": 0.0, "type": "electric_scooter", "name": "b1697391fde3fc38e7570f1b0f24b656", "is_disabled": 0, "rental_uris": {"ios": "https://dc.lft.to/lastmile_qr_scan", "android": "https://dc.lft.to/lastmile_qr_scan"}, "is_reserved": 0}, {"lon": -77.01887416666666, "bike_id": "e8b1fba9af0bebdb0adb6151b93e1cc9", "lat": 38.87460466666667, "fusion_lon": 0.0, "fusion_lat": 0.0, "type": "electric_scooter", "name": "e8b1fba9af0bebdb0adb6151b93e1cc9", "is_disabled": 0, "rental_uris": {"ios": "https://dc.lft.to/lastmile_qr_scan", "android": "https://dc.lft.to/lastmile_qr_scan"}, "is_reserved": 0}, {"lon": -77.0533335, "bike_id": "5e5aad715f35cd2dc5305970b56917b8", "lat": 38.898766333333334, "fusion_lon": 0.0, "fusion_lat": 0.0, "type": "electric_scooter", "name": "5e5aad715f35cd2dc5305970b56917b8", "is_disabled": 0, "rental_uris": {"ios": "https://dc.lft.to/lastmile_qr_scan", "android": "https://dc.lft.to/lastmile_qr_scan"}, "is_reserved": 0}, {"lon": -77.119183, "bike_id": "2cac2f86e0b5bababad5b6f37d1c0dd2", "lat": 38.87638666666667, "fusion_lon": 0.0, "fusion_lat": 0.0, "type": "electric_bike", "name": "2cac2f86e0b5bababad5b6f37d1c0dd2", "is_disabled": 0, "rental_uris": {"ios": "https://dc.lft.to/lastmile_qr_scan", "android": "https://dc.lft.to/lastmile_qr_scan"}, "is_reserved": 0}, {"lon": -77.0202995, "bike_id": "43addf484fb1a9b5f4071886ab35d917", "lat": 38.91650166666667, "fusion_lon": 0.0, "fusion_lat": 0.0, "type": "electric_scooter", "name": "43addf484fb1a9b5f4071886ab35d917", "is_disabled": 0, "rental_uris": {"ios": "https://dc.lft.to/lastmile_qr_scan", "android": "https://dc.lft.to/lastmile_qr_scan"}, "is_reserved": 0}, {"lon": -77.00221566666667, "bike_id": "597600f5804d822c604b02b770040f74", "lat": 38.902399833333334, "fusion_lon": 0.0, "fusion_lat": 0.0, "type": "electric_scooter", "name": "597600f5804d822c604b02b770040f74", "is_disabled": 0, "rental_uris": {"ios": "https://dc.lft.to/lastmile_qr_scan", "android": "https://dc.lft.to/lastmile_qr_scan"}, "is_reserved": 0}, {"lon": -77.03255066666667, "bike_id": "f27f94075a90b59cdf745c671694dcef", "lat": 38.942720333333334, "fusion_lon": 0.0, "fusion_lat": 0.0, "type": "electric_scooter", "name": "f27f94075a90b59cdf745c671694dcef", "is_disabled": 0, "rental_uris": {"ios": "https://dc.lft.to/lastmile_qr_scan", "android": "https://dc.lft.to/lastmile_qr_scan"}, "is_reserved": 0}, {"lon": -77.02979, "bike_id": "239e62ed498c3dd4139b75167b67baea", "lat": 38.921935833333336, "fusion_lon": 0.0, "fusion_lat": 0.0, "type": "electric_scooter", "name": "239e62ed498c3dd4139b75167b67baea", "is_disabled": 0, "rental_uris": {"ios": "https://dc.lft.to/lastmile_qr_scan", "android": "https://dc.lft.to/lastmile_qr_scan"}, "is_reserved": 0}, {"lon": -77.020995, "bike_id": "d82b571e0c91514a8fd2b3953b3e5f93", "lat": 38.909729666666664, "fusion_lon": 0.0, "fusion_lat": 0.0, "type": "electric_scooter", "name": "d82b571e0c91514a8fd2b3953b3e5f93", "is_disabled": 0, "rental_uris": {"ios": "https://dc.lft.to/lastmile_qr_scan", "android": "https://dc.lft.to/lastmile_qr_scan"}, "is_reserved": 0}, {"lon": -77.0344975, "bike_id": "131999b0b92b5f576ec7ccb7fd3886bd", "lat": 38.902808666666665, "fusion_lon": 0.0, "fusion_lat": 0.0, "type": "electric_scooter", "name": "131999b0b92b5f576ec7ccb7fd3886bd", "is_disabled": 0, "rental_uris": {"ios": "https://dc.lft.to/lastmile_qr_scan", "android": "https://dc.lft.to/lastmile_qr_scan"}, "is_reserved": 0}, {"lon": -77.02439333333334, "bike_id": "9594f63eb43d451c0165096c4d2c333e", "lat": 38.9249265, "fusion_lon": 0.0, "fusion_lat": 0.0, "type": "electric_scooter", "name": "9594f63eb43d451c0165096c4d2c333e", "is_disabled": 0, "rental_uris": {"ios": "https://dc.lft.to/lastmile_qr_scan", "android": "https://dc.lft.to/lastmile_qr_scan"}, "is_reserved": 0}, {"lon": -76.99544216666666, "bike_id": "bec32e521ab3ee3303b29c0150df9337", "lat": 38.862563333333334, "fusion_lon": 0.0, "fusion_lat": 0.0, "type": "electric_scooter", "name": "bec32e521ab3ee3303b29c0150df9337", "is_disabled": 0, "rental_uris": {"ios": "https://dc.lft.to/lastmile_qr_scan", "android": "https://dc.lft.to/lastmile_qr_scan"}, "is_reserved": 0}, {"lon": -76.987213, "bike_id": "ef09b726f3e2cb1a0d71d7509671c1e2", "lat": 38.900123, "fusion_lon": 0.0, "fusion_lat": 0.0, "type": "electric_scooter", "name": "ef09b726f3e2cb1a0d71d7509671c1e2", "is_disabled": 0, "rental_uris": {"ios": "https://dc.lft.to/lastmile_qr_scan", "android": "https://dc.lft.to/lastmile_qr_scan"}, "is_reserved": 0}, {"lon": -76.9638395, "bike_id": "9c710f54c5e1ff3c82d7092891c535ad", "lat": 38.95180533333333, "fusion_lon": 0.0, "fusion_lat": 0.0, "type": "electric_bike", "name": "9c710f54c5e1ff3c82d7092891c535ad", "is_disabled": 0, "rental_uris": {"ios": "https://dc.lft.to/lastmile_qr_scan", "android": "https://dc.lft.to/lastmile_qr_scan"}, "is_reserved": 0}, {"lon": -77.02810416666667, "bike_id": "76e7bf79556b29eff163993e3c8cc6d6", "lat": 38.881773333333335, "fusion_lon": 0.0, "fusion_lat": 0.0, "type": "electric_scooter", "name": "76e7bf79556b29eff163993e3c8cc6d6", "is_disabled": 0, "rental_uris": {"ios": "https://dc.lft.to/lastmile_qr_scan", "android": "https://dc.lft.to/lastmile_qr_scan"}, "is_reserved": 0}, {"lon": -77.0005255, "bike_id": "c5b0bd04494d331614c638a0924d2b51", "lat": 38.908614666666665, "fusion_lon": 0.0, "fusion_lat": 0.0, "type": "electric_scooter", "name": "c5b0bd04494d331614c638a0924d2b51", "is_disabled": 0, "rental_uris": {"ios": "https://dc.lft.to/lastmile_qr_scan", "android": "https://dc.lft.to/lastmile_qr_scan"}, "is_reserved": 0}, {"lon": -76.99128533333334, "bike_id": "52852a0aefb8b299270a93cf143f1956", "lat": 38.92269916666667, "fusion_lon": 0.0, "fusion_lat": 0.0, "type": "electric_scooter", "name": "52852a0aefb8b299270a93cf143f1956", "is_disabled": 0, "rental_uris": {"ios": "https://dc.lft.to/lastmile_qr_scan", "android": "https://dc.lft.to/lastmile_qr_scan"}, "is_reserved": 0}, {"lon": -77.048146, "bike_id": "3e793b56b82a880dbf43a83e7357181e", "lat": 38.9163925, "fusion_lon": 0.0, "fusion_lat": 0.0, "type": "electric_scooter", "name": "3e793b56b82a880dbf43a83e7357181e", "is_disabled": 0, "rental_uris": {"ios": "https://dc.lft.to/lastmile_qr_scan", "android": "https://dc.lft.to/lastmile_qr_scan"}, "is_reserved": 0}, {"lon": -77.026889, "bike_id": "e7d43c1ee9b9a56a688d38048cd67fac", "lat": 38.98452366666667, "fusion_lon": 0.0, "fusion_lat": 0.0, "type": "electric_scooter", "name": "e7d43c1ee9b9a56a688d38048cd67fac", "is_disabled": 0, "rental_uris": {"ios": "https://dc.lft.to/lastmile_qr_scan", "android": "https://dc.lft.to/lastmile_qr_scan"}, "is_reserved": 0}, {"lon": -77.02378566666667, "bike_id": "eb4bdcb20aa2f7274f1b3343732d885c", "lat": 38.902031666666666, "fusion_lon": 0.0, "fusion_lat": 0.0, "type": "electric_scooter", "name": "eb4bdcb20aa2f7274f1b3343732d885c", "is_disabled": 0, "rental_uris": {"ios": "https://dc.lft.to/lastmile_qr_scan", "android": "https://dc.lft.to/lastmile_qr_scan"}, "is_reserved": 0}, {"lon": -77.02000233333334, "bike_id": "a6fd04e668cab3a7f72b96f569b0e6ed", "lat": 38.90445166666667, "fusion_lon": 0.0, "fusion_lat": 0.0, "type": "electric_scooter", "name": "a6fd04e668cab3a7f72b96f569b0e6ed", "is_disabled": 0, "rental_uris": {"ios": "https://dc.lft.to/lastmile_qr_scan", "android": "https://dc.lft.to/lastmile_qr_scan"}, "is_reserved": 0}, {"lon": -76.9857015, "bike_id": "2351ff85661a783e1e5449af17532556", "lat": 38.89613933333333, "fusion_lon": 0.0, "fusion_lat": 0.0, "type": "electric_scooter", "name": "2351ff85661a783e1e5449af17532556", "is_disabled": 0, "rental_uris": {"ios": "https://dc.lft.to/lastmile_qr_scan", "android": "https://dc.lft.to/lastmile_qr_scan"}, "is_reserved": 0}, {"lon": -77.0318315, "bike_id": "8654c5c00bf2199b8b70f5f438340e60", "lat": 38.93601266666667, "fusion_lon": 0.0, "fusion_lat": 0.0, "type": "electric_scooter", "name": "8654c5c00bf2199b8b70f5f438340e60", "is_disabled": 0, "rental_uris": {"ios": "https://dc.lft.to/lastmile_qr_scan", "android": "https://dc.lft.to/lastmile_qr_scan"}, "is_reserved": 0}, {"lon": -77.0092035, "bike_id": "b277abf3253732730960aaee6fdac93f", "lat": 38.910650833333335, "fusion_lon": 0.0, "fusion_lat": 0.0, "type": "electric_scooter", "name": "b277abf3253732730960aaee6fdac93f", "is_disabled": 0, "rental_uris": {"ios": "https://dc.lft.to/lastmile_qr_scan", "android": "https://dc.lft.to/lastmile_qr_scan"}, "is_reserved": 0}, {"lon": -77.0386725, "bike_id": "2133b1bcc196af54000cd2be530a0f3e", "lat": 38.9170855, "fusion_lon": 0.0, "fusion_lat": 0.0, "type": "electric_scooter", "name": "2133b1bcc196af54000cd2be530a0f3e", "is_disabled": 0, "rental_uris": {"ios": "https://dc.lft.to/lastmile_qr_scan", "android": "https://dc.lft.to/lastmile_qr_scan"}, "is_reserved": 0}, {"lon": -77.03775466666667, "bike_id": "ad974a0c4bbba3c7b49cfa19bc87d881", "lat": 38.925755333333335, "fusion_lon": 0.0, "fusion_lat": 0.0, "type": "electric_scooter", "name": "ad974a0c4bbba3c7b49cfa19bc87d881", "is_disabled": 0, "rental_uris": {"ios": "https://dc.lft.to/lastmile_qr_scan", "android": "https://dc.lft.to/lastmile_qr_scan"}, "is_reserved": 0}, {"lon": -77.0402385, "bike_id": "6f35044afde052258aaaddbdfa7acf8b", "lat": 38.916056833333336, "fusion_lon": 0.0, "fusion_lat": 0.0, "type": "electric_scooter", "name": "6f35044afde052258aaaddbdfa7acf8b", "is_disabled": 0, "rental_uris": {"ios": "https://dc.lft.to/lastmile_qr_scan", "android": "https://dc.lft.to/lastmile_qr_scan"}, "is_reserved": 0}, {"lon": -77.04502483333333, "bike_id": "0393abc14e82727c102b0e8e52472a85", "lat": 38.90711566666667, "fusion_lon": 0.0, "fusion_lat": 0.0, "type": "electric_scooter", "name": "0393abc14e82727c102b0e8e52472a85", "is_disabled": 0, "rental_uris": {"ios": "https://dc.lft.to/lastmile_qr_scan", "android": "https://dc.lft.to/lastmile_qr_scan"}, "is_reserved": 0}, {"lon": -76.98839783333334, "bike_id": "e3e8ad8438e61096e9588b9cf30fe3fa", "lat": 38.90064816666667, "fusion_lon": 0.0, "fusion_lat": 0.0, "type": "electric_scooter", "name": "e3e8ad8438e61096e9588b9cf30fe3fa", "is_disabled": 0, "rental_uris": {"ios": "https://dc.lft.to/lastmile_qr_scan", "android": "https://dc.lft.to/lastmile_qr_scan"}, "is_reserved": 0}, {"lon": -77.051627, "bike_id": "f332a42a1ae8432061009ea1f1538514", "lat": 38.90313916666667, "fusion_lon": 0.0, "fusion_lat": 0.0, "type": "electric_scooter", "name": "f332a42a1ae8432061009ea1f1538514", "is_disabled": 0, "rental_uris": {"ios": "https://dc.lft.to/lastmile_qr_scan", "android": "https://dc.lft.to/lastmile_qr_scan"}, "is_reserved": 0}, {"lon": -77.0247405, "bike_id": "fcd13ec1490ab006f7516ae10629b1e8", "lat": 38.91700566666667, "fusion_lon": 0.0, "fusion_lat": 0.0, "type": "electric_scooter", "name": "fcd13ec1490ab006f7516ae10629b1e8", "is_disabled": 0, "rental_uris": {"ios": "https://dc.lft.to/lastmile_qr_scan", "android": "https://dc.lft.to/lastmile_qr_scan"}, "is_reserved": 0}, {"lon": -77.02594883333333, "bike_id": "ee5abd48f4d765c07bca3649a067f67b", "lat": 38.901791333333335, "fusion_lon": 0.0, "fusion_lat": 0.0, "type": "electric_scooter", "name": "ee5abd48f4d765c07bca3649a067f67b", "is_disabled": 0, "rental_uris": {"ios": "https://dc.lft.to/lastmile_qr_scan", "android": "https://dc.lft.to/lastmile_qr_scan"}, "is_reserved": 0}, {"lon": -77.02167233333333, "bike_id": "431d6251c1d7eb4cf7c655a6315dbaa5", "lat": 38.901913666666665, "fusion_lon": 0.0, "fusion_lat": 0.0, "type": "electric_scooter", "name": "431d6251c1d7eb4cf7c655a6315dbaa5", "is_disabled": 0, "rental_uris": {"ios": "https://dc.lft.to/lastmile_qr_scan", "android": "https://dc.lft.to/lastmile_qr_scan"}, "is_reserved": 0}, {"lon": -77.06102733333333, "bike_id": "e6873001ce82a84e7067ba109eebcc89", "lat": 38.94373233333334, "fusion_lon": 0.0, "fusion_lat": 0.0, "type": "electric_scooter", "name": "e6873001ce82a84e7067ba109eebcc89", "is_disabled": 0, "rental_uris": {"ios": "https://dc.lft.to/lastmile_qr_scan", "android": "https://dc.lft.to/lastmile_qr_scan"}, "is_reserved": 0}, {"lon": -76.9837145, "bike_id": "6408c6c3e4bd6f85e8e27dee0c6fc030", "lat": 38.891436, "fusion_lon": 0.0, "fusion_lat": 0.0, "type": "electric_scooter", "name": "6408c6c3e4bd6f85e8e27dee0c6fc030", "is_disabled": 0, "rental_uris": {"ios": "https://dc.lft.to/lastmile_qr_scan", "android": "https://dc.lft.to/lastmile_qr_scan"}, "is_reserved": 0}, {"lon": -76.9968145, "bike_id": "54c73f0b0c9c2f70115b2810fc8354ff", "lat": 38.881205333333334, "fusion_lon": 0.0, "fusion_lat": 0.0, "type": "electric_scooter", "name": "54c73f0b0c9c2f70115b2810fc8354ff", "is_disabled": 0, "rental_uris": {"ios": "https://dc.lft.to/lastmile_qr_scan", "android": "https://dc.lft.to/lastmile_qr_scan"}, "is_reserved": 0}, {"lon": -77.032007, "bike_id": "0d18b96a4b61dc8a826aa26a8aaff933", "lat": 38.91674233333333, "fusion_lon": 0.0, "fusion_lat": 0.0, "type": "electric_scooter", "name": "0d18b96a4b61dc8a826aa26a8aaff933", "is_disabled": 0, "rental_uris": {"ios": "https://dc.lft.to/lastmile_qr_scan", "android": "https://dc.lft.to/lastmile_qr_scan"}, "is_reserved": 0}, {"lon": -77.0345935, "bike_id": "9a74fdb10c70713fd276a792a8a68594", "lat": 38.934323166666665, "fusion_lon": 0.0, "fusion_lat": 0.0, "type": "electric_scooter", "name": "9a74fdb10c70713fd276a792a8a68594", "is_disabled": 0, "rental_uris": {"ios": "https://dc.lft.to/lastmile_qr_scan", "android": "https://dc.lft.to/lastmile_qr_scan"}, "is_reserved": 0}, {"lon": -77.0344545, "bike_id": "37e706829bb124d6a3100146b15bc7f9", "lat": 38.909545666666666, "fusion_lon": 0.0, "fusion_lat": 0.0, "type": "electric_scooter", "name": "37e706829bb124d6a3100146b15bc7f9", "is_disabled": 0, "rental_uris": {"ios": "https://dc.lft.to/lastmile_qr_scan", "android": "https://dc.lft.to/lastmile_qr_scan"}, "is_reserved": 0}, {"lon": -77.0124925, "bike_id": "b951257752f22f9149f094918ff288da", "lat": 38.91571233333333, "fusion_lon": 0.0, "fusion_lat": 0.0, "type": "electric_scooter", "name": "b951257752f22f9149f094918ff288da", "is_disabled": 0, "rental_uris": {"ios": "https://dc.lft.to/lastmile_qr_scan", "android": "https://dc.lft.to/lastmile_qr_scan"}, "is_reserved": 0}, {"lon": -77.0344605, "bike_id": "0de24980801896ac10373779e8b50cea", "lat": 38.916586, "fusion_lon": 0.0, "fusion_lat": 0.0, "type": "electric_scooter", "name": "0de24980801896ac10373779e8b50cea", "is_disabled": 0, "rental_uris": {"ios": "https://dc.lft.to/lastmile_qr_scan", "android": "https://dc.lft.to/lastmile_qr_scan"}, "is_reserved": 0}, {"lon": -77.01998666666667, "bike_id": "e3c2579fb0582e4bc4d743e781e995bf", "lat": 38.9114045, "fusion_lon": 0.0, "fusion_lat": 0.0, "type": "electric_scooter", "name": "e3c2579fb0582e4bc4d743e781e995bf", "is_disabled": 0, "rental_uris": {"ios": "https://dc.lft.to/lastmile_qr_scan", "android": "https://dc.lft.to/lastmile_qr_scan"}, "is_reserved": 0}, {"lon": -77.02980833333334, "bike_id": "7c4d60d7f71dfe9c9ea26ca38c137e4a", "lat": 38.92194083333333, "fusion_lon": 0.0, "fusion_lat": 0.0, "type": "electric_scooter", "name": "7c4d60d7f71dfe9c9ea26ca38c137e4a", "is_disabled": 0, "rental_uris": {"ios": "https://dc.lft.to/lastmile_qr_scan", "android": "https://dc.lft.to/lastmile_qr_scan"}, "is_reserved": 0}, {"lon": -77.0483185, "bike_id": "a3a81539354b3b08e3f1856e1ab71fdf", "lat": 38.8974545, "fusion_lon": 0.0, "fusion_lat": 0.0, "type": "electric_scooter", "name": "a3a81539354b3b08e3f1856e1ab71fdf", "is_disabled": 0, "rental_uris": {"ios": "https://dc.lft.to/lastmile_qr_scan", "android": "https://dc.lft.to/lastmile_qr_scan"}, "is_reserved": 0}, {"lon": -77.04501683333334, "bike_id": "1e2cf99c661eb9b2f57e046a2a6a9c87", "lat": 38.91108533333333, "fusion_lon": 0.0, "fusion_lat": 0.0, "type": "electric_scooter", "name": "1e2cf99c661eb9b2f57e046a2a6a9c87", "is_disabled": 0, "rental_uris": {"ios": "https://dc.lft.to/lastmile_qr_scan", "android": "https://dc.lft.to/lastmile_qr_scan"}, "is_reserved": 0}, {"lon": -77.02204116666667, "bike_id": "c33e0481a41cc090cf82e03017e9db5b", "lat": 38.91047066666667, "fusion_lon": 0.0, "fusion_lat": 0.0, "type": "electric_scooter", "name": "c33e0481a41cc090cf82e03017e9db5b", "is_disabled": 0, "rental_uris": {"ios": "https://dc.lft.to/lastmile_qr_scan", "android": "https://dc.lft.to/lastmile_qr_scan"}, "is_reserved": 0}, {"lon": -77.0223815, "bike_id": "8c34f6743f48241ef2b333a31e79b5dd", "lat": 38.915635, "fusion_lon": 0.0, "fusion_lat": 0.0, "type": "electric_scooter", "name": "8c34f6743f48241ef2b333a31e79b5dd", "is_disabled": 0, "rental_uris": {"ios": "https://dc.lft.to/lastmile_qr_scan", "android": "https://dc.lft.to/lastmile_qr_scan"}, "is_reserved": 0}, {"lon": -77.022322, "bike_id": "c650ce8064385f90d89fa6f4e7358cff", "lat": 38.962075666666664, "fusion_lon": 0.0, "fusion_lat": 0.0, "type": "electric_scooter", "name": "c650ce8064385f90d89fa6f4e7358cff", "is_disabled": 0, "rental_uris": {"ios": "https://dc.lft.to/lastmile_qr_scan", "android": "https://dc.lft.to/lastmile_qr_scan"}, "is_reserved": 0}, {"lon": -77.02107366666667, "bike_id": "57cb429cdbf170a999d76a9447254f4b", "lat": 38.9217735, "fusion_lon": 0.0, "fusion_lat": 0.0, "type": "electric_scooter", "name": "57cb429cdbf170a999d76a9447254f4b", "is_disabled": 0, "rental_uris": {"ios": "https://dc.lft.to/lastmile_qr_scan", "android": "https://dc.lft.to/lastmile_qr_scan"}, "is_reserved": 0}, {"lon": -76.92987583333333, "bike_id": "5384d2b42f7bcd276f1e75e4d014e0d1", "lat": 38.893265166666666, "fusion_lon": 0.0, "fusion_lat": 0.0, "type": "electric_scooter", "name": "5384d2b42f7bcd276f1e75e4d014e0d1", "is_disabled": 0, "rental_uris": {"ios": "https://dc.lft.to/lastmile_qr_scan", "android": "https://dc.lft.to/lastmile_qr_scan"}, "is_reserved": 0}, {"lon": -77.03533466666667, "bike_id": "17a78841b8b4703a6b3a4f9121d9d795", "lat": 38.923426666666664, "fusion_lon": 0.0, "fusion_lat": 0.0, "type": "electric_scooter", "name": "17a78841b8b4703a6b3a4f9121d9d795", "is_disabled": 0, "rental_uris": {"ios": "https://dc.lft.to/lastmile_qr_scan", "android": "https://dc.lft.to/lastmile_qr_scan"}, "is_reserved": 0}, {"lon": -77.02498516666667, "bike_id": "1d29c34b4a1c1a7d40bc475896fab58c", "lat": 38.919197, "fusion_lon": 0.0, "fusion_lat": 0.0, "type": "electric_scooter", "name": "1d29c34b4a1c1a7d40bc475896fab58c", "is_disabled": 0, "rental_uris": {"ios": "https://dc.lft.to/lastmile_qr_scan", "android": "https://dc.lft.to/lastmile_qr_scan"}, "is_reserved": 0}, {"lon": -76.99887683333333, "bike_id": "b3604569256b187482d10685bfd5fc7e", "lat": 38.909471833333335, "fusion_lon": 0.0, "fusion_lat": 0.0, "type": "electric_scooter", "name": "b3604569256b187482d10685bfd5fc7e", "is_disabled": 0, "rental_uris": {"ios": "https://dc.lft.to/lastmile_qr_scan", "android": "https://dc.lft.to/lastmile_qr_scan"}, "is_reserved": 0}, {"lon": -76.98235183333334, "bike_id": "7a5f499495ffdc1796984bb8c4b16851", "lat": 38.91650383333333, "fusion_lon": 0.0, "fusion_lat": 0.0, "type": "electric_scooter", "name": "7a5f499495ffdc1796984bb8c4b16851", "is_disabled": 0, "rental_uris": {"ios": "https://dc.lft.to/lastmile_qr_scan", "android": "https://dc.lft.to/lastmile_qr_scan"}, "is_reserved": 0}, {"lon": -76.990327, "bike_id": "5cb940e056cf06e6a837b03377c98d00", "lat": 38.89800733333333, "fusion_lon": 0.0, "fusion_lat": 0.0, "type": "electric_scooter", "name": "5cb940e056cf06e6a837b03377c98d00", "is_disabled": 0, "rental_uris": {"ios": "https://dc.lft.to/lastmile_qr_scan", "android": "https://dc.lft.to/lastmile_qr_scan"}, "is_reserved": 0}, {"lon": -76.9976965, "bike_id": "c336de80d91793e69f576e58d96c24a7", "lat": 38.92451066666667, "fusion_lon": 0.0, "fusion_lat": 0.0, "type": "electric_scooter", "name": "c336de80d91793e69f576e58d96c24a7", "is_disabled": 0, "rental_uris": {"ios": "https://dc.lft.to/lastmile_qr_scan", "android": "https://dc.lft.to/lastmile_qr_scan"}, "is_reserved": 0}, {"lon": -77.04867733333333, "bike_id": "9cfb010a1d7858136d4a613e3b71bcad", "lat": 38.892190666666664, "fusion_lon": 0.0, "fusion_lat": 0.0, "type": "electric_scooter", "name": "9cfb010a1d7858136d4a613e3b71bcad", "is_disabled": 0, "rental_uris": {"ios": "https://dc.lft.to/lastmile_qr_scan", "android": "https://dc.lft.to/lastmile_qr_scan"}, "is_reserved": 0}, {"lon": -77.02990233333334, "bike_id": "25b98d2fa30eb42dba6acb9e4ac2f7c6", "lat": 38.974407666666664, "fusion_lon": 0.0, "fusion_lat": 0.0, "type": "electric_bike", "name": "25b98d2fa30eb42dba6acb9e4ac2f7c6", "is_disabled": 0, "rental_uris": {"ios": "https://dc.lft.to/lastmile_qr_scan", "android": "https://dc.lft.to/lastmile_qr_scan"}, "is_reserved": 0}, {"lon": -77.0345895, "bike_id": "e202c41eaa70dec53cf2597f2bd31179", "lat": 38.905528833333335, "fusion_lon": 0.0, "fusion_lat": 0.0, "type": "electric_scooter", "name": "e202c41eaa70dec53cf2597f2bd31179", "is_disabled": 0, "rental_uris": {"ios": "https://dc.lft.to/lastmile_qr_scan", "android": "https://dc.lft.to/lastmile_qr_scan"}, "is_reserved": 0}, {"lon": -77.0231695, "bike_id": "abff5ff60df2cfaaa22f76659d649252", "lat": 38.90958933333334, "fusion_lon": 0.0, "fusion_lat": 0.0, "type": "electric_scooter", "name": "abff5ff60df2cfaaa22f76659d649252", "is_disabled": 0, "rental_uris": {"ios": "https://dc.lft.to/lastmile_qr_scan", "android": "https://dc.lft.to/lastmile_qr_scan"}, "is_reserved": 0}, {"lon": -77.051303, "bike_id": "de52792b14668b2073be8d720f4b5fe1", "lat": 38.9236335, "fusion_lon": 0.0, "fusion_lat": 0.0, "type": "electric_scooter", "name": "de52792b14668b2073be8d720f4b5fe1", "is_disabled": 0, "rental_uris": {"ios": "https://dc.lft.to/lastmile_qr_scan", "android": "https://dc.lft.to/lastmile_qr_scan"}, "is_reserved": 0}, {"lon": -77.003413, "bike_id": "1e1e5e272607c063e094a78d42a5d2d2", "lat": 38.895232166666666, "fusion_lon": 0.0, "fusion_lat": 0.0, "type": "electric_scooter", "name": "1e1e5e272607c063e094a78d42a5d2d2", "is_disabled": 0, "rental_uris": {"ios": "https://dc.lft.to/lastmile_qr_scan", "android": "https://dc.lft.to/lastmile_qr_scan"}, "is_reserved": 0}, {"lon": -77.05858783333333, "bike_id": "0c222f8f190e407b9a124bf6d1df0d31", "lat": 38.936027333333335, "fusion_lon": 0.0, "fusion_lat": 0.0, "type": "electric_scooter", "name": "0c222f8f190e407b9a124bf6d1df0d31", "is_disabled": 0, "rental_uris": {"ios": "https://dc.lft.to/lastmile_qr_scan", "android": "https://dc.lft.to/lastmile_qr_scan"}, "is_reserved": 0}, {"lon": -77.03069233333333, "bike_id": "e208e8c95f48fb74be8ca05533e05706", "lat": 38.886012666666666, "fusion_lon": 0.0, "fusion_lat": 0.0, "type": "electric_scooter", "name": "e208e8c95f48fb74be8ca05533e05706", "is_disabled": 0, "rental_uris": {"ios": "https://dc.lft.to/lastmile_qr_scan", "android": "https://dc.lft.to/lastmile_qr_scan"}, "is_reserved": 0}, {"lon": -77.050249, "bike_id": "38fe6e8eb0bab79f4f8bf9c8e26da1a4", "lat": 38.89789783333333, "fusion_lon": 0.0, "fusion_lat": 0.0, "type": "electric_scooter", "name": "38fe6e8eb0bab79f4f8bf9c8e26da1a4", "is_disabled": 0, "rental_uris": {"ios": "https://dc.lft.to/lastmile_qr_scan", "android": "https://dc.lft.to/lastmile_qr_scan"}, "is_reserved": 0}, {"lon": -76.92373683333334, "bike_id": "4507179910e27d66395fc87f4c4e81dd", "lat": 38.8837445, "fusion_lon": 0.0, "fusion_lat": 0.0, "type": "electric_bike", "name": "4507179910e27d66395fc87f4c4e81dd", "is_disabled": 0, "rental_uris": {"ios": "https://dc.lft.to/lastmile_qr_scan", "android": "https://dc.lft.to/lastmile_qr_scan"}, "is_reserved": 0}, {"lon": -77.00337616666667, "bike_id": "b24d39bc461a7df9fcad1123e8bef032", "lat": 38.895190666666664, "fusion_lon": 0.0, "fusion_lat": 0.0, "type": "electric_scooter", "name": "b24d39bc461a7df9fcad1123e8bef032", "is_disabled": 0, "rental_uris": {"ios": "https://dc.lft.to/lastmile_qr_scan", "android": "https://dc.lft.to/lastmile_qr_scan"}, "is_reserved": 0}, {"lon": -76.99936066666666, "bike_id": "859af55bd015056ae3d81855c13f8b00", "lat": 38.84300183333333, "fusion_lon": 0.0, "fusion_lat": 0.0, "type": "electric_scooter", "name": "859af55bd015056ae3d81855c13f8b00", "is_disabled": 0, "rental_uris": {"ios": "https://dc.lft.to/lastmile_qr_scan", "android": "https://dc.lft.to/lastmile_qr_scan"}, "is_reserved": 0}, {"lon": -77.07009683333334, "bike_id": "87e531fd6cdb2e19c76770f245852c65", "lat": 38.95853016666667, "fusion_lon": 0.0, "fusion_lat": 0.0, "type": "electric_scooter", "name": "87e531fd6cdb2e19c76770f245852c65", "is_disabled": 0, "rental_uris": {"ios": "https://dc.lft.to/lastmile_qr_scan", "android": "https://dc.lft.to/lastmile_qr_scan"}, "is_reserved": 0}, {"lon": -76.94883866666666, "bike_id": "2145fd8966fd2fe587f59a6879256374", "lat": 38.89543183333333, "fusion_lon": 0.0, "fusion_lat": 0.0, "type": "electric_scooter", "name": "2145fd8966fd2fe587f59a6879256374", "is_disabled": 0, "rental_uris": {"ios": "https://dc.lft.to/lastmile_qr_scan", "android": "https://dc.lft.to/lastmile_qr_scan"}, "is_reserved": 0}, {"lon": -77.03124483333333, "bike_id": "7e513c5b6dfd2bd64de3afcc61849c61", "lat": 38.916888666666665, "fusion_lon": 0.0, "fusion_lat": 0.0, "type": "electric_scooter", "name": "7e513c5b6dfd2bd64de3afcc61849c61", "is_disabled": 0, "rental_uris": {"ios": "https://dc.lft.to/lastmile_qr_scan", "android": "https://dc.lft.to/lastmile_qr_scan"}, "is_reserved": 0}, {"lon": -77.080691, "bike_id": "a5dfddcd7731cacbce6d1a3bbc43799b", "lat": 38.963142500000004, "fusion_lon": 0.0, "fusion_lat": 0.0, "type": "electric_bike", "name": "a5dfddcd7731cacbce6d1a3bbc43799b", "is_disabled": 0, "rental_uris": {"ios": "https://dc.lft.to/lastmile_qr_scan", "android": "https://dc.lft.to/lastmile_qr_scan"}, "is_reserved": 0}, {"lon": -76.99376816666667, "bike_id": "9a159b08ba9d8f1da3a33c0873f9fd2c", "lat": 38.971837666666666, "fusion_lon": 0.0, "fusion_lat": 0.0, "type": "electric_bike", "name": "9a159b08ba9d8f1da3a33c0873f9fd2c", "is_disabled": 0, "rental_uris": {"ios": "https://dc.lft.to/lastmile_qr_scan", "android": "https://dc.lft.to/lastmile_qr_scan"}, "is_reserved": 0}, {"lon": -77.03756283333334, "bike_id": "27d88fc7486808050740955f4ffd07e3", "lat": 38.90275233333333, "fusion_lon": 0.0, "fusion_lat": 0.0, "type": "electric_scooter", "name": "27d88fc7486808050740955f4ffd07e3", "is_disabled": 0, "rental_uris": {"ios": "https://dc.lft.to/lastmile_qr_scan", "android": "https://dc.lft.to/lastmile_qr_scan"}, "is_reserved": 0}, {"lon": -77.02092633333334, "bike_id": "7e26cb31ce95ada5a4906228ad2bda83", "lat": 38.945288833333336, "fusion_lon": 0.0, "fusion_lat": 0.0, "type": "electric_scooter", "name": "7e26cb31ce95ada5a4906228ad2bda83", "is_disabled": 0, "rental_uris": {"ios": "https://dc.lft.to/lastmile_qr_scan", "android": "https://dc.lft.to/lastmile_qr_scan"}, "is_reserved": 0}, {"lon": -77.03161216666666, "bike_id": "f3127be16f686dc091d6bc4a6d61581c", "lat": 38.93597533333333, "fusion_lon": 0.0, "fusion_lat": 0.0, "type": "electric_scooter", "name": "f3127be16f686dc091d6bc4a6d61581c", "is_disabled": 0, "rental_uris": {"ios": "https://dc.lft.to/lastmile_qr_scan", "android": "https://dc.lft.to/lastmile_qr_scan"}, "is_reserved": 0}, {"lon": -77.01753566666666, "bike_id": "a993baf86046d81496f0a48a5c34c41c", "lat": 38.90371566666666, "fusion_lon": 0.0, "fusion_lat": 0.0, "type": "electric_scooter", "name": "a993baf86046d81496f0a48a5c34c41c", "is_disabled": 0, "rental_uris": {"ios": "https://dc.lft.to/lastmile_qr_scan", "android": "https://dc.lft.to/lastmile_qr_scan"}, "is_reserved": 0}, {"lon": -77.05256583333333, "bike_id": "9ce917bac34b1f906a5fb71f41323f43", "lat": 38.923689333333336, "fusion_lon": 0.0, "fusion_lat": 0.0, "type": "electric_scooter", "name": "9ce917bac34b1f906a5fb71f41323f43", "is_disabled": 0, "rental_uris": {"ios": "https://dc.lft.to/lastmile_qr_scan", "android": "https://dc.lft.to/lastmile_qr_scan"}, "is_reserved": 0}, {"lon": -77.02436783333333, "bike_id": "2077822b00448a858ea51d6202695011", "lat": 38.9169465, "fusion_lon": 0.0, "fusion_lat": 0.0, "type": "electric_scooter", "name": "2077822b00448a858ea51d6202695011", "is_disabled": 0, "rental_uris": {"ios": "https://dc.lft.to/lastmile_qr_scan", "android": "https://dc.lft.to/lastmile_qr_scan"}, "is_reserved": 0}, {"lon": -77.0434315, "bike_id": "52fd471220a91e4fd7f6c6e55f40bac4", "lat": 38.9044535, "fusion_lon": 0.0, "fusion_lat": 0.0, "type": "electric_bike", "name": "52fd471220a91e4fd7f6c6e55f40bac4", "is_disabled": 0, "rental_uris": {"ios": "https://dc.lft.to/lastmile_qr_scan", "android": "https://dc.lft.to/lastmile_qr_scan"}, "is_reserved": 0}, {"lon": -77.0141635, "bike_id": "cda4a8bba54ff7ca2350b8e20b896592", "lat": 38.906521166666664, "fusion_lon": 0.0, "fusion_lat": 0.0, "type": "electric_scooter", "name": "cda4a8bba54ff7ca2350b8e20b896592", "is_disabled": 0, "rental_uris": {"ios": "https://dc.lft.to/lastmile_qr_scan", "android": "https://dc.lft.to/lastmile_qr_scan"}, "is_reserved": 0}, {"lon": -77.02294366666666, "bike_id": "0128b1273691aa2b42097111fd8adf61", "lat": 38.91677816666667, "fusion_lon": 0.0, "fusion_lat": 0.0, "type": "electric_scooter", "name": "0128b1273691aa2b42097111fd8adf61", "is_disabled": 0, "rental_uris": {"ios": "https://dc.lft.to/lastmile_qr_scan", "android": "https://dc.lft.to/lastmile_qr_scan"}, "is_reserved": 0}, {"lon": -77.00094783333333, "bike_id": "2ee387bf3ff538f1b9212236501afc2e", "lat": 38.90015066666667, "fusion_lon": 0.0, "fusion_lat": 0.0, "type": "electric_scooter", "name": "2ee387bf3ff538f1b9212236501afc2e", "is_disabled": 0, "rental_uris": {"ios": "https://dc.lft.to/lastmile_qr_scan", "android": "https://dc.lft.to/lastmile_qr_scan"}, "is_reserved": 0}, {"lon": -77.02282733333334, "bike_id": "fc5c96a2bed12c2fa7bd31614b5abe97", "lat": 38.91654533333333, "fusion_lon": 0.0, "fusion_lat": 0.0, "type": "electric_scooter", "name": "fc5c96a2bed12c2fa7bd31614b5abe97", "is_disabled": 0, "rental_uris": {"ios": "https://dc.lft.to/lastmile_qr_scan", "android": "https://dc.lft.to/lastmile_qr_scan"}, "is_reserved": 0}, {"lon": -77.00211283333333, "bike_id": "50d945e53a3f5590f9b08bcba748284c", "lat": 38.89538016666667, "fusion_lon": 0.0, "fusion_lat": 0.0, "type": "electric_scooter", "name": "50d945e53a3f5590f9b08bcba748284c", "is_disabled": 0, "rental_uris": {"ios": "https://dc.lft.to/lastmile_qr_scan", "android": "https://dc.lft.to/lastmile_qr_scan"}, "is_reserved": 0}, {"lon": -77.00528633333333, "bike_id": "86f53fe78bdf64568352ab1793e7e216", "lat": 38.929768833333334, "fusion_lon": 0.0, "fusion_lat": 0.0, "type": "electric_scooter", "name": "86f53fe78bdf64568352ab1793e7e216", "is_disabled": 0, "rental_uris": {"ios": "https://dc.lft.to/lastmile_qr_scan", "android": "https://dc.lft.to/lastmile_qr_scan"}, "is_reserved": 0}, {"lon": -77.034529, "bike_id": "f24ac2bc81b91c5ad8c4d4ba712a4da5", "lat": 38.917429166666665, "fusion_lon": 0.0, "fusion_lat": 0.0, "type": "electric_scooter", "name": "f24ac2bc81b91c5ad8c4d4ba712a4da5", "is_disabled": 0, "rental_uris": {"ios": "https://dc.lft.to/lastmile_qr_scan", "android": "https://dc.lft.to/lastmile_qr_scan"}, "is_reserved": 0}, {"lon": -77.02827716666667, "bike_id": "04355cf8441754a091770e91bcfe325c", "lat": 38.887278, "fusion_lon": 0.0, "fusion_lat": 0.0, "type": "electric_scooter", "name": "04355cf8441754a091770e91bcfe325c", "is_disabled": 0, "rental_uris": {"ios": "https://dc.lft.to/lastmile_qr_scan", "android": "https://dc.lft.to/lastmile_qr_scan"}, "is_reserved": 0}, {"lon": -77.02209816666667, "bike_id": "39ad65a718446f39e7a3a2d0f8b47ed7", "lat": 38.91302983333333, "fusion_lon": 0.0, "fusion_lat": 0.0, "type": "electric_scooter", "name": "39ad65a718446f39e7a3a2d0f8b47ed7", "is_disabled": 0, "rental_uris": {"ios": "https://dc.lft.to/lastmile_qr_scan", "android": "https://dc.lft.to/lastmile_qr_scan"}, "is_reserved": 0}, {"lon": -77.0246565, "bike_id": "b67d0cd180e5d3dd19273bdf40ed2d25", "lat": 38.938723833333334, "fusion_lon": 0.0, "fusion_lat": 0.0, "type": "electric_scooter", "name": "b67d0cd180e5d3dd19273bdf40ed2d25", "is_disabled": 0, "rental_uris": {"ios": "https://dc.lft.to/lastmile_qr_scan", "android": "https://dc.lft.to/lastmile_qr_scan"}, "is_reserved": 0}, {"lon": -77.04649316666666, "bike_id": "53632c4486daf822d551a7d9e4b832cf", "lat": 38.909719333333335, "fusion_lon": 0.0, "fusion_lat": 0.0, "type": "electric_scooter", "name": "53632c4486daf822d551a7d9e4b832cf", "is_disabled": 0, "rental_uris": {"ios": "https://dc.lft.to/lastmile_qr_scan", "android": "https://dc.lft.to/lastmile_qr_scan"}, "is_reserved": 0}, {"lon": -76.937405, "bike_id": "b4fb29f4543cbc23cfecec7925054216", "lat": 38.8900855, "fusion_lon": 0.0, "fusion_lat": 0.0, "type": "electric_scooter", "name": "b4fb29f4543cbc23cfecec7925054216", "is_disabled": 0, "rental_uris": {"ios": "https://dc.lft.to/lastmile_qr_scan", "android": "https://dc.lft.to/lastmile_qr_scan"}, "is_reserved": 0}, {"lon": -77.02613716666667, "bike_id": "2dbc9f7b7b874c0af4f54945fc7261da", "lat": 38.90015666666667, "fusion_lon": 0.0, "fusion_lat": 0.0, "type": "electric_scooter", "name": "2dbc9f7b7b874c0af4f54945fc7261da", "is_disabled": 0, "rental_uris": {"ios": "https://dc.lft.to/lastmile_qr_scan", "android": "https://dc.lft.to/lastmile_qr_scan"}, "is_reserved": 0}, {"lon": -76.99498166666666, "bike_id": "e8169284d4f2bf9f77f4e3f504665a01", "lat": 38.922652, "fusion_lon": 0.0, "fusion_lat": 0.0, "type": "electric_scooter", "name": "e8169284d4f2bf9f77f4e3f504665a01", "is_disabled": 0, "rental_uris": {"ios": "https://dc.lft.to/lastmile_qr_scan", "android": "https://dc.lft.to/lastmile_qr_scan"}, "is_reserved": 0}, {"lon": -77.06472016666666, "bike_id": "4b8f7c746d92ca20f165b223dd123a07", "lat": 38.9465245, "fusion_lon": 0.0, "fusion_lat": 0.0, "type": "electric_scooter", "name": "4b8f7c746d92ca20f165b223dd123a07", "is_disabled": 0, "rental_uris": {"ios": "https://dc.lft.to/lastmile_qr_scan", "android": "https://dc.lft.to/lastmile_qr_scan"}, "is_reserved": 0}, {"lon": -76.97599016666666, "bike_id": "c68e2f99a37462bb62525062830c5201", "lat": 38.90566183333333, "fusion_lon": 0.0, "fusion_lat": 0.0, "type": "electric_scooter", "name": "c68e2f99a37462bb62525062830c5201", "is_disabled": 0, "rental_uris": {"ios": "https://dc.lft.to/lastmile_qr_scan", "android": "https://dc.lft.to/lastmile_qr_scan"}, "is_reserved": 0}, {"lon": -77.00750083333334, "bike_id": "42f8e73f8604666cdedcdd30ec987707", "lat": 38.897322, "fusion_lon": 0.0, "fusion_lat": 0.0, "type": "electric_scooter", "name": "42f8e73f8604666cdedcdd30ec987707", "is_disabled": 0, "rental_uris": {"ios": "https://dc.lft.to/lastmile_qr_scan", "android": "https://dc.lft.to/lastmile_qr_scan"}, "is_reserved": 0}, {"lon": -77.02873616666666, "bike_id": "61bbac3f85a121ae61557ad0ee86e2ca", "lat": 38.88492083333333, "fusion_lon": 0.0, "fusion_lat": 0.0, "type": "electric_scooter", "name": "61bbac3f85a121ae61557ad0ee86e2ca", "is_disabled": 0, "rental_uris": {"ios": "https://dc.lft.to/lastmile_qr_scan", "android": "https://dc.lft.to/lastmile_qr_scan"}, "is_reserved": 0}, {"lon": -77.0343015, "bike_id": "b3f64f0824678fc90bdf127cc690af13", "lat": 38.91931316666667, "fusion_lon": 0.0, "fusion_lat": 0.0, "type": "electric_scooter", "name": "b3f64f0824678fc90bdf127cc690af13", "is_disabled": 0, "rental_uris": {"ios": "https://dc.lft.to/lastmile_qr_scan", "android": "https://dc.lft.to/lastmile_qr_scan"}, "is_reserved": 0}, {"lon": -77.0066105, "bike_id": "ad5296b01ff4e19d3ea52c2e08ddeb10", "lat": 38.944599, "fusion_lon": 0.0, "fusion_lat": 0.0, "type": "electric_scooter", "name": "ad5296b01ff4e19d3ea52c2e08ddeb10", "is_disabled": 0, "rental_uris": {"ios": "https://dc.lft.to/lastmile_qr_scan", "android": "https://dc.lft.to/lastmile_qr_scan"}, "is_reserved": 0}, {"lon": -77.0433885, "bike_id": "d2f5a0c7e88cc6a69a777a38f008dba1", "lat": 38.9133745, "fusion_lon": 0.0, "fusion_lat": 0.0, "type": "electric_scooter", "name": "d2f5a0c7e88cc6a69a777a38f008dba1", "is_disabled": 0, "rental_uris": {"ios": "https://dc.lft.to/lastmile_qr_scan", "android": "https://dc.lft.to/lastmile_qr_scan"}, "is_reserved": 0}, {"lon": -77.01457483333333, "bike_id": "0215a10010d1bfa1188d5f3013bc21c4", "lat": 38.876743, "fusion_lon": 0.0, "fusion_lat": 0.0, "type": "electric_bike", "name": "0215a10010d1bfa1188d5f3013bc21c4", "is_disabled": 0, "rental_uris": {"ios": "https://dc.lft.to/lastmile_qr_scan", "android": "https://dc.lft.to/lastmile_qr_scan"}, "is_reserved": 0}, {"lon": -77.0385975, "bike_id": "3d61d05ff4289be8070424311ce1f24a", "lat": 38.903777833333336, "fusion_lon": 0.0, "fusion_lat": 0.0, "type": "electric_scooter", "name": "3d61d05ff4289be8070424311ce1f24a", "is_disabled": 0, "rental_uris": {"ios": "https://dc.lft.to/lastmile_qr_scan", "android": "https://dc.lft.to/lastmile_qr_scan"}, "is_reserved": 0}, {"lon": -77.03870616666667, "bike_id": "6193f5030cf74e41466b168aedd6432a", "lat": 38.915564, "fusion_lon": 0.0, "fusion_lat": 0.0, "type": "electric_scooter", "name": "6193f5030cf74e41466b168aedd6432a", "is_disabled": 0, "rental_uris": {"ios": "https://dc.lft.to/lastmile_qr_scan", "android": "https://dc.lft.to/lastmile_qr_scan"}, "is_reserved": 0}, {"lon": -76.97238266666666, "bike_id": "948c2af8dd4be9654c66ed3b8bd89ea3", "lat": 38.94901516666667, "fusion_lon": 0.0, "fusion_lat": 0.0, "type": "electric_bike", "name": "948c2af8dd4be9654c66ed3b8bd89ea3", "is_disabled": 0, "rental_uris": {"ios": "https://dc.lft.to/lastmile_qr_scan", "android": "https://dc.lft.to/lastmile_qr_scan"}, "is_reserved": 0}, {"lon": -77.05468216666667, "bike_id": "2a06a884c16313df97c83b08e91d6f88", "lat": 38.855515833333335, "fusion_lon": 0.0, "fusion_lat": 0.0, "type": "electric_bike", "name": "2a06a884c16313df97c83b08e91d6f88", "is_disabled": 0, "rental_uris": {"ios": "https://dc.lft.to/lastmile_qr_scan", "android": "https://dc.lft.to/lastmile_qr_scan"}, "is_reserved": 0}, {"lon": -77.02931133333334, "bike_id": "d1d54ee2520303f8a36a4a30db0470df", "lat": 38.934617833333334, "fusion_lon": 0.0, "fusion_lat": 0.0, "type": "electric_scooter", "name": "d1d54ee2520303f8a36a4a30db0470df", "is_disabled": 0, "rental_uris": {"ios": "https://dc.lft.to/lastmile_qr_scan", "android": "https://dc.lft.to/lastmile_qr_scan"}, "is_reserved": 0}, {"lon": -77.00672366666667, "bike_id": "37c5169d3db32e0dab5a5de4a6f5b299", "lat": 38.90013316666667, "fusion_lon": 0.0, "fusion_lat": 0.0, "type": "electric_scooter", "name": "37c5169d3db32e0dab5a5de4a6f5b299", "is_disabled": 0, "rental_uris": {"ios": "https://dc.lft.to/lastmile_qr_scan", "android": "https://dc.lft.to/lastmile_qr_scan"}, "is_reserved": 0}, {"lon": -77.12658733333333, "bike_id": "e39645d29bfebcaa3f77d0cc4edc3efc", "lat": 38.815148666666666, "fusion_lon": 0.0, "fusion_lat": 0.0, "type": "electric_bike", "name": "e39645d29bfebcaa3f77d0cc4edc3efc", "is_disabled": 0, "rental_uris": {"ios": "https://dc.lft.to/lastmile_qr_scan", "android": "https://dc.lft.to/lastmile_qr_scan"}, "is_reserved": 0}, {"lon": -77.05457283333334, "bike_id": "66add98bec0337da5414b000ad33e1fe", "lat": 38.904345166666666, "fusion_lon": 0.0, "fusion_lat": 0.0, "type": "electric_scooter", "name": "66add98bec0337da5414b000ad33e1fe", "is_disabled": 0, "rental_uris": {"ios": "https://dc.lft.to/lastmile_qr_scan", "android": "https://dc.lft.to/lastmile_qr_scan"}, "is_reserved": 0}, {"lon": -77.02763316666666, "bike_id": "d5e033bb7d186117c6340c56c8bf7389", "lat": 38.95425633333333, "fusion_lon": 0.0, "fusion_lat": 0.0, "type": "electric_scooter", "name": "d5e033bb7d186117c6340c56c8bf7389", "is_disabled": 0, "rental_uris": {"ios": "https://dc.lft.to/lastmile_qr_scan", "android": "https://dc.lft.to/lastmile_qr_scan"}, "is_reserved": 0}, {"lon": -77.014852, "bike_id": "85c8bd34d66ce586f881e54fec3e64c1", "lat": 38.92688366666667, "fusion_lon": 0.0, "fusion_lat": 0.0, "type": "electric_scooter", "name": "85c8bd34d66ce586f881e54fec3e64c1", "is_disabled": 0, "rental_uris": {"ios": "https://dc.lft.to/lastmile_qr_scan", "android": "https://dc.lft.to/lastmile_qr_scan"}, "is_reserved": 0}, {"lon": -77.04866666666666, "bike_id": "1de719838a14d1eae60895adf26d3866", "lat": 38.892179, "fusion_lon": 0.0, "fusion_lat": 0.0, "type": "electric_scooter", "name": "1de719838a14d1eae60895adf26d3866", "is_disabled": 0, "rental_uris": {"ios": "https://dc.lft.to/lastmile_qr_scan", "android": "https://dc.lft.to/lastmile_qr_scan"}, "is_reserved": 0}, {"lon": -77.01645233333333, "bike_id": "9f33fed472d96fbbd5d1bfaab617bb32", "lat": 38.87708383333333, "fusion_lon": 0.0, "fusion_lat": 0.0, "type": "electric_scooter", "name": "9f33fed472d96fbbd5d1bfaab617bb32", "is_disabled": 0, "rental_uris": {"ios": "https://dc.lft.to/lastmile_qr_scan", "android": "https://dc.lft.to/lastmile_qr_scan"}, "is_reserved": 0}, {"lon": -77.01958333333333, "bike_id": "4742aca4fb2f60a0d064d596386889c2", "lat": 38.900854333333335, "fusion_lon": 0.0, "fusion_lat": 0.0, "type": "electric_scooter", "name": "4742aca4fb2f60a0d064d596386889c2", "is_disabled": 0, "rental_uris": {"ios": "https://dc.lft.to/lastmile_qr_scan", "android": "https://dc.lft.to/lastmile_qr_scan"}, "is_reserved": 0}, {"lon": -77.01997466666667, "bike_id": "ad360b8a5354852341d8e8400eec6387", "lat": 38.96625733333333, "fusion_lon": 0.0, "fusion_lat": 0.0, "type": "electric_scooter", "name": "ad360b8a5354852341d8e8400eec6387", "is_disabled": 0, "rental_uris": {"ios": "https://dc.lft.to/lastmile_qr_scan", "android": "https://dc.lft.to/lastmile_qr_scan"}, "is_reserved": 0}, {"lon": -77.02717383333334, "bike_id": "e9342f8e68ae432062e3416dbd5c7c30", "lat": 38.9106945, "fusion_lon": 0.0, "fusion_lat": 0.0, "type": "electric_scooter", "name": "e9342f8e68ae432062e3416dbd5c7c30", "is_disabled": 0, "rental_uris": {"ios": "https://dc.lft.to/lastmile_qr_scan", "android": "https://dc.lft.to/lastmile_qr_scan"}, "is_reserved": 0}, {"lon": -76.98468016666666, "bike_id": "88ed34ed724db253ea5b8aedbb6c3a2d", "lat": 38.903958, "fusion_lon": 0.0, "fusion_lat": 0.0, "type": "electric_scooter", "name": "88ed34ed724db253ea5b8aedbb6c3a2d", "is_disabled": 0, "rental_uris": {"ios": "https://dc.lft.to/lastmile_qr_scan", "android": "https://dc.lft.to/lastmile_qr_scan"}, "is_reserved": 0}, {"lon": -77.0362315, "bike_id": "be3a37af09764b2b18591beced8412dc", "lat": 38.93677533333333, "fusion_lon": 0.0, "fusion_lat": 0.0, "type": "electric_scooter", "name": "be3a37af09764b2b18591beced8412dc", "is_disabled": 0, "rental_uris": {"ios": "https://dc.lft.to/lastmile_qr_scan", "android": "https://dc.lft.to/lastmile_qr_scan"}, "is_reserved": 0}, {"lon": -77.01870166666667, "bike_id": "b1d912ec639c7a7e6c5de393006ab076", "lat": 38.898588333333336, "fusion_lon": 0.0, "fusion_lat": 0.0, "type": "electric_scooter", "name": "b1d912ec639c7a7e6c5de393006ab076", "is_disabled": 0, "rental_uris": {"ios": "https://dc.lft.to/lastmile_qr_scan", "android": "https://dc.lft.to/lastmile_qr_scan"}, "is_reserved": 0}, {"lon": -77.02208183333333, "bike_id": "19f067dd3fd52aa6639b582d5210c7ef", "lat": 38.90537233333333, "fusion_lon": 0.0, "fusion_lat": 0.0, "type": "electric_scooter", "name": "19f067dd3fd52aa6639b582d5210c7ef", "is_disabled": 0, "rental_uris": {"ios": "https://dc.lft.to/lastmile_qr_scan", "android": "https://dc.lft.to/lastmile_qr_scan"}, "is_reserved": 0}, {"lon": -76.99455783333333, "bike_id": "760f67012c62c4c0ed63fbf8fde52882", "lat": 38.862183333333334, "fusion_lon": 0.0, "fusion_lat": 0.0, "type": "electric_scooter", "name": "760f67012c62c4c0ed63fbf8fde52882", "is_disabled": 0, "rental_uris": {"ios": "https://dc.lft.to/lastmile_qr_scan", "android": "https://dc.lft.to/lastmile_qr_scan"}, "is_reserved": 0}, {"lon": -77.028141, "bike_id": "fafb9298508a661fbb550cd8ada272f6", "lat": 38.881743, "fusion_lon": 0.0, "fusion_lat": 0.0, "type": "electric_scooter", "name": "fafb9298508a661fbb550cd8ada272f6", "is_disabled": 0, "rental_uris": {"ios": "https://dc.lft.to/lastmile_qr_scan", "android": "https://dc.lft.to/lastmile_qr_scan"}, "is_reserved": 0}, {"lon": -77.03192266666667, "bike_id": "cdaa6720f9ed10bd00f03d48966deea1", "lat": 38.913303666666664, "fusion_lon": 0.0, "fusion_lat": 0.0, "type": "electric_scooter", "name": "cdaa6720f9ed10bd00f03d48966deea1", "is_disabled": 0, "rental_uris": {"ios": "https://dc.lft.to/lastmile_qr_scan", "android": "https://dc.lft.to/lastmile_qr_scan"}, "is_reserved": 0}, {"lon": -77.0334355, "bike_id": "e146d4f47e4b4fb97329b789ca5e0a4a", "lat": 38.89842316666667, "fusion_lon": 0.0, "fusion_lat": 0.0, "type": "electric_scooter", "name": "e146d4f47e4b4fb97329b789ca5e0a4a", "is_disabled": 0, "rental_uris": {"ios": "https://dc.lft.to/lastmile_qr_scan", "android": "https://dc.lft.to/lastmile_qr_scan"}, "is_reserved": 0}, {"lon": -77.02200233333333, "bike_id": "3c11ad933df1816bbbd506a6c1e3ae11", "lat": 38.91132783333333, "fusion_lon": 0.0, "fusion_lat": 0.0, "type": "electric_scooter", "name": "3c11ad933df1816bbbd506a6c1e3ae11", "is_disabled": 0, "rental_uris": {"ios": "https://dc.lft.to/lastmile_qr_scan", "android": "https://dc.lft.to/lastmile_qr_scan"}, "is_reserved": 0}, {"lon": -77.0277815, "bike_id": "32cbfca42794c9fbcb562bb4434fa9f1", "lat": 38.962216833333336, "fusion_lon": 0.0, "fusion_lat": 0.0, "type": "electric_scooter", "name": "32cbfca42794c9fbcb562bb4434fa9f1", "is_disabled": 0, "rental_uris": {"ios": "https://dc.lft.to/lastmile_qr_scan", "android": "https://dc.lft.to/lastmile_qr_scan"}, "is_reserved": 0}, {"lon": -77.04353833333333, "bike_id": "5810f7d8d969b9d74253a3a0d7c2439a", "lat": 38.908059, "fusion_lon": 0.0, "fusion_lat": 0.0, "type": "electric_scooter", "name": "5810f7d8d969b9d74253a3a0d7c2439a", "is_disabled": 0, "rental_uris": {"ios": "https://dc.lft.to/lastmile_qr_scan", "android": "https://dc.lft.to/lastmile_qr_scan"}, "is_reserved": 0}, {"lon": -77.03458916666666, "bike_id": "64ee518ee27c0fff47d1c3cd6ea3bd29", "lat": 38.90551716666667, "fusion_lon": 0.0, "fusion_lat": 0.0, "type": "electric_scooter", "name": "64ee518ee27c0fff47d1c3cd6ea3bd29", "is_disabled": 0, "rental_uris": {"ios": "https://dc.lft.to/lastmile_qr_scan", "android": "https://dc.lft.to/lastmile_qr_scan"}, "is_reserved": 0}, {"lon": -77.05115333333333, "bike_id": "e10aae46094397c3bd23d1d51f9716a1", "lat": 38.92303366666667, "fusion_lon": 0.0, "fusion_lat": 0.0, "type": "electric_scooter", "name": "e10aae46094397c3bd23d1d51f9716a1", "is_disabled": 0, "rental_uris": {"ios": "https://dc.lft.to/lastmile_qr_scan", "android": "https://dc.lft.to/lastmile_qr_scan"}, "is_reserved": 0}, {"lon": -77.03197966666667, "bike_id": "6e4a8fb2560b866f62ee06bd1b67fdf8", "lat": 38.91119333333333, "fusion_lon": 0.0, "fusion_lat": 0.0, "type": "electric_scooter", "name": "6e4a8fb2560b866f62ee06bd1b67fdf8", "is_disabled": 0, "rental_uris": {"ios": "https://dc.lft.to/lastmile_qr_scan", "android": "https://dc.lft.to/lastmile_qr_scan"}, "is_reserved": 0}, {"lon": -77.05479633333333, "bike_id": "84a082d02d5e6759aef4a47adbbe228e", "lat": 38.89789916666667, "fusion_lon": 0.0, "fusion_lat": 0.0, "type": "electric_scooter", "name": "84a082d02d5e6759aef4a47adbbe228e", "is_disabled": 0, "rental_uris": {"ios": "https://dc.lft.to/lastmile_qr_scan", "android": "https://dc.lft.to/lastmile_qr_scan"}, "is_reserved": 0}, {"lon": -77.0064335, "bike_id": "a552fb6636ba91629ad75d82f016bff9", "lat": 38.88077933333334, "fusion_lon": 0.0, "fusion_lat": 0.0, "type": "electric_scooter", "name": "a552fb6636ba91629ad75d82f016bff9", "is_disabled": 0, "rental_uris": {"ios": "https://dc.lft.to/lastmile_qr_scan", "android": "https://dc.lft.to/lastmile_qr_scan"}, "is_reserved": 0}, {"lon": -77.026148, "bike_id": "b099cfed65e609517a34a140d93be41e", "lat": 38.9298715, "fusion_lon": 0.0, "fusion_lat": 0.0, "type": "electric_scooter", "name": "b099cfed65e609517a34a140d93be41e", "is_disabled": 0, "rental_uris": {"ios": "https://dc.lft.to/lastmile_qr_scan", "android": "https://dc.lft.to/lastmile_qr_scan"}, "is_reserved": 0}, {"lon": -76.99367066666667, "bike_id": "767442895d3af1bce11b5f6d3a0def05", "lat": 38.940233166666665, "fusion_lon": 0.0, "fusion_lat": 0.0, "type": "electric_scooter", "name": "767442895d3af1bce11b5f6d3a0def05", "is_disabled": 0, "rental_uris": {"ios": "https://dc.lft.to/lastmile_qr_scan", "android": "https://dc.lft.to/lastmile_qr_scan"}, "is_reserved": 0}, {"lon": -77.001266, "bike_id": "2025da1c831dd20070b7ba495660ae8a", "lat": 38.90503833333333, "fusion_lon": 0.0, "fusion_lat": 0.0, "type": "electric_scooter", "name": "2025da1c831dd20070b7ba495660ae8a", "is_disabled": 0, "rental_uris": {"ios": "https://dc.lft.to/lastmile_qr_scan", "android": "https://dc.lft.to/lastmile_qr_scan"}, "is_reserved": 0}, {"lon": -77.03293483333333, "bike_id": "ebe5ebfe9218c4a776243cf903db727b", "lat": 38.956529, "fusion_lon": 0.0, "fusion_lat": 0.0, "type": "electric_scooter", "name": "ebe5ebfe9218c4a776243cf903db727b", "is_disabled": 0, "rental_uris": {"ios": "https://dc.lft.to/lastmile_qr_scan", "android": "https://dc.lft.to/lastmile_qr_scan"}, "is_reserved": 0}, {"lon": -77.03864133333333, "bike_id": "dddab6eeaacb51704032a2dc04a984c1", "lat": 38.9201155, "fusion_lon": 0.0, "fusion_lat": 0.0, "type": "electric_scooter", "name": "dddab6eeaacb51704032a2dc04a984c1", "is_disabled": 0, "rental_uris": {"ios": "https://dc.lft.to/lastmile_qr_scan", "android": "https://dc.lft.to/lastmile_qr_scan"}, "is_reserved": 0}, {"lon": -76.945027, "bike_id": "454b1f28b7b08103b95da1c23a36e01c", "lat": 38.864779166666665, "fusion_lon": 0.0, "fusion_lat": 0.0, "type": "electric_bike", "name": "454b1f28b7b08103b95da1c23a36e01c", "is_disabled": 0, "rental_uris": {"ios": "https://dc.lft.to/lastmile_qr_scan", "android": "https://dc.lft.to/lastmile_qr_scan"}, "is_reserved": 0}, {"lon": -76.9376575, "bike_id": "48bb9707ff17bcf0af779d90b5462da4", "lat": 38.87859066666667, "fusion_lon": 0.0, "fusion_lat": 0.0, "type": "electric_scooter", "name": "48bb9707ff17bcf0af779d90b5462da4", "is_disabled": 0, "rental_uris": {"ios": "https://dc.lft.to/lastmile_qr_scan", "android": "https://dc.lft.to/lastmile_qr_scan"}, "is_reserved": 0}, {"lon": -77.02297516666667, "bike_id": "f261dbfd436f3e8ed46cf2e28edf2a27", "lat": 38.908892, "fusion_lon": 0.0, "fusion_lat": 0.0, "type": "electric_scooter", "name": "f261dbfd436f3e8ed46cf2e28edf2a27", "is_disabled": 0, "rental_uris": {"ios": "https://dc.lft.to/lastmile_qr_scan", "android": "https://dc.lft.to/lastmile_qr_scan"}, "is_reserved": 0}, {"lon": -76.93772633333333, "bike_id": "d9f00d352b24b78d456f998cdb9a706a", "lat": 38.8996675, "fusion_lon": 0.0, "fusion_lat": 0.0, "type": "electric_scooter", "name": "d9f00d352b24b78d456f998cdb9a706a", "is_disabled": 0, "rental_uris": {"ios": "https://dc.lft.to/lastmile_qr_scan", "android": "https://dc.lft.to/lastmile_qr_scan"}, "is_reserved": 0}, {"lon": -76.99860083333333, "bike_id": "3c83a54fa2a309f0a7c7750332be8f8d", "lat": 38.89413283333333, "fusion_lon": 0.0, "fusion_lat": 0.0, "type": "electric_scooter", "name": "3c83a54fa2a309f0a7c7750332be8f8d", "is_disabled": 0, "rental_uris": {"ios": "https://dc.lft.to/lastmile_qr_scan", "android": "https://dc.lft.to/lastmile_qr_scan"}, "is_reserved": 0}, {"lon": -77.0497985, "bike_id": "840c61bdbe5b17891ef7938ef98d94e4", "lat": 39.0629535, "fusion_lon": 0.0, "fusion_lat": 0.0, "type": "electric_bike", "name": "840c61bdbe5b17891ef7938ef98d94e4", "is_disabled": 0, "rental_uris": {"ios": "https://dc.lft.to/lastmile_qr_scan", "android": "https://dc.lft.to/lastmile_qr_scan"}, "is_reserved": 0}, {"lon": -76.99014333333334, "bike_id": "5f5b7d9d9c9b0a68ec40b407e09e5efd", "lat": 38.94599, "fusion_lon": 0.0, "fusion_lat": 0.0, "type": "electric_scooter", "name": "5f5b7d9d9c9b0a68ec40b407e09e5efd", "is_disabled": 0, "rental_uris": {"ios": "https://dc.lft.to/lastmile_qr_scan", "android": "https://dc.lft.to/lastmile_qr_scan"}, "is_reserved": 0}, {"lon": -77.0514505, "bike_id": "303f60cb518f2eba34888da3659ecba4", "lat": 38.898639, "fusion_lon": 0.0, "fusion_lat": 0.0, "type": "electric_scooter", "name": "303f60cb518f2eba34888da3659ecba4", "is_disabled": 0, "rental_uris": {"ios": "https://dc.lft.to/lastmile_qr_scan", "android": "https://dc.lft.to/lastmile_qr_scan"}, "is_reserved": 0}, {"lon": -77.0448135, "bike_id": "1ea9e6fddcba6cd798ea64c7cceff3af", "lat": 38.903652, "fusion_lon": 0.0, "fusion_lat": 0.0, "type": "electric_scooter", "name": "1ea9e6fddcba6cd798ea64c7cceff3af", "is_disabled": 0, "rental_uris": {"ios": "https://dc.lft.to/lastmile_qr_scan", "android": "https://dc.lft.to/lastmile_qr_scan"}, "is_reserved": 0}, {"lon": -77.04117083333334, "bike_id": "3d2df4bbc6f62aef8ce5e5db2f31e4f0", "lat": 38.93467016666666, "fusion_lon": 0.0, "fusion_lat": 0.0, "type": "electric_scooter", "name": "3d2df4bbc6f62aef8ce5e5db2f31e4f0", "is_disabled": 0, "rental_uris": {"ios": "https://dc.lft.to/lastmile_qr_scan", "android": "https://dc.lft.to/lastmile_qr_scan"}, "is_reserved": 0}, {"lon": -77.02201966666667, "bike_id": "d6612ef904470cc7f76946498d525aea", "lat": 38.9112595, "fusion_lon": 0.0, "fusion_lat": 0.0, "type": "electric_scooter", "name": "d6612ef904470cc7f76946498d525aea", "is_disabled": 0, "rental_uris": {"ios": "https://dc.lft.to/lastmile_qr_scan", "android": "https://dc.lft.to/lastmile_qr_scan"}, "is_reserved": 0}, {"lon": -77.0079675, "bike_id": "1f72f9b4092a726c1405523437b74840", "lat": 38.896417, "fusion_lon": 0.0, "fusion_lat": 0.0, "type": "electric_scooter", "name": "1f72f9b4092a726c1405523437b74840", "is_disabled": 0, "rental_uris": {"ios": "https://dc.lft.to/lastmile_qr_scan", "android": "https://dc.lft.to/lastmile_qr_scan"}, "is_reserved": 0}, {"lon": -77.02846216666667, "bike_id": "c699028259fc98c56c6fadcf71e07dd4", "lat": 38.92761616666667, "fusion_lon": 0.0, "fusion_lat": 0.0, "type": "electric_scooter", "name": "c699028259fc98c56c6fadcf71e07dd4", "is_disabled": 0, "rental_uris": {"ios": "https://dc.lft.to/lastmile_qr_scan", "android": "https://dc.lft.to/lastmile_qr_scan"}, "is_reserved": 0}, {"lon": -77.08776216666666, "bike_id": "370502b9e054e620aa3ebe02f9a112dc", "lat": 38.83898833333333, "fusion_lon": 0.0, "fusion_lat": 0.0, "type": "electric_bike", "name": "370502b9e054e620aa3ebe02f9a112dc", "is_disabled": 0, "rental_uris": {"ios": "https://dc.lft.to/lastmile_qr_scan", "android": "https://dc.lft.to/lastmile_qr_scan"}, "is_reserved": 0}, {"lon": -77.0363455, "bike_id": "26124d9045cd13a19fc7b2743d9ed4a4", "lat": 38.94495283333333, "fusion_lon": 0.0, "fusion_lat": 0.0, "type": "electric_scooter", "name": "26124d9045cd13a19fc7b2743d9ed4a4", "is_disabled": 0, "rental_uris": {"ios": "https://dc.lft.to/lastmile_qr_scan", "android": "https://dc.lft.to/lastmile_qr_scan"}, "is_reserved": 0}, {"lon": -76.98347683333333, "bike_id": "dc4894d61e48033ea8898c3b172d3d1e", "lat": 38.90450283333333, "fusion_lon": 0.0, "fusion_lat": 0.0, "type": "electric_scooter", "name": "dc4894d61e48033ea8898c3b172d3d1e", "is_disabled": 0, "rental_uris": {"ios": "https://dc.lft.to/lastmile_qr_scan", "android": "https://dc.lft.to/lastmile_qr_scan"}, "is_reserved": 0}, {"lon": -77.033604, "bike_id": "fe948f32662f75464a846a0d3c6afbfc", "lat": 38.935744166666666, "fusion_lon": 0.0, "fusion_lat": 0.0, "type": "electric_scooter", "name": "fe948f32662f75464a846a0d3c6afbfc", "is_disabled": 0, "rental_uris": {"ios": "https://dc.lft.to/lastmile_qr_scan", "android": "https://dc.lft.to/lastmile_qr_scan"}, "is_reserved": 0}, {"lon": -76.99610633333333, "bike_id": "9a1f119a40b71cd83cd5cc7742f7383e", "lat": 38.88747716666666, "fusion_lon": 0.0, "fusion_lat": 0.0, "type": "electric_scooter", "name": "9a1f119a40b71cd83cd5cc7742f7383e", "is_disabled": 0, "rental_uris": {"ios": "https://dc.lft.to/lastmile_qr_scan", "android": "https://dc.lft.to/lastmile_qr_scan"}, "is_reserved": 0}, {"lon": -77.0265405, "bike_id": "6b4e07db502132075d88ebb992c421bb", "lat": 38.978077166666665, "fusion_lon": 0.0, "fusion_lat": 0.0, "type": "electric_scooter", "name": "6b4e07db502132075d88ebb992c421bb", "is_disabled": 0, "rental_uris": {"ios": "https://dc.lft.to/lastmile_qr_scan", "android": "https://dc.lft.to/lastmile_qr_scan"}, "is_reserved": 0}, {"lon": -76.977121, "bike_id": "fe7940a01fbb86b3de5a1234b36835c1", "lat": 38.887773833333334, "fusion_lon": 0.0, "fusion_lat": 0.0, "type": "electric_scooter", "name": "fe7940a01fbb86b3de5a1234b36835c1", "is_disabled": 0, "rental_uris": {"ios": "https://dc.lft.to/lastmile_qr_scan", "android": "https://dc.lft.to/lastmile_qr_scan"}, "is_reserved": 0}, {"lon": -76.97871366666666, "bike_id": "4a2262af3738d08083ae00cea42f489b", "lat": 38.88303616666666, "fusion_lon": 0.0, "fusion_lat": 0.0, "type": "electric_scooter", "name": "4a2262af3738d08083ae00cea42f489b", "is_disabled": 0, "rental_uris": {"ios": "https://dc.lft.to/lastmile_qr_scan", "android": "https://dc.lft.to/lastmile_qr_scan"}, "is_reserved": 0}, {"lon": -77.01359833333333, "bike_id": "c3a2a80d6081dfbeb52892a63dc86388", "lat": 38.8971215, "fusion_lon": 0.0, "fusion_lat": 0.0, "type": "electric_scooter", "name": "c3a2a80d6081dfbeb52892a63dc86388", "is_disabled": 0, "rental_uris": {"ios": "https://dc.lft.to/lastmile_qr_scan", "android": "https://dc.lft.to/lastmile_qr_scan"}, "is_reserved": 0}, {"lon": -77.03994783333333, "bike_id": "491c9c2925c19d6fe61257fad3b6fb86", "lat": 38.9245665, "fusion_lon": 0.0, "fusion_lat": 0.0, "type": "electric_scooter", "name": "491c9c2925c19d6fe61257fad3b6fb86", "is_disabled": 0, "rental_uris": {"ios": "https://dc.lft.to/lastmile_qr_scan", "android": "https://dc.lft.to/lastmile_qr_scan"}, "is_reserved": 0}, {"lon": -77.083144, "bike_id": "6d145b1ca1f855f5155553308b56d6c7", "lat": 38.929897, "fusion_lon": 0.0, "fusion_lat": 0.0, "type": "electric_scooter", "name": "6d145b1ca1f855f5155553308b56d6c7", "is_disabled": 0, "rental_uris": {"ios": "https://dc.lft.to/lastmile_qr_scan", "android": "https://dc.lft.to/lastmile_qr_scan"}, "is_reserved": 0}, {"lon": -77.034513, "bike_id": "77a9b820e1bfddbe65543481f3297ec9", "lat": 38.9090005, "fusion_lon": 0.0, "fusion_lat": 0.0, "type": "electric_scooter", "name": "77a9b820e1bfddbe65543481f3297ec9", "is_disabled": 0, "rental_uris": {"ios": "https://dc.lft.to/lastmile_qr_scan", "android": "https://dc.lft.to/lastmile_qr_scan"}, "is_reserved": 0}, {"lon": -77.0447745, "bike_id": "f8d4194b4907dff56729d7889e6db9d0", "lat": 38.91557783333333, "fusion_lon": 0.0, "fusion_lat": 0.0, "type": "electric_scooter", "name": "f8d4194b4907dff56729d7889e6db9d0", "is_disabled": 0, "rental_uris": {"ios": "https://dc.lft.to/lastmile_qr_scan", "android": "https://dc.lft.to/lastmile_qr_scan"}, "is_reserved": 0}, {"lon": -77.1265405, "bike_id": "2837130c36d0e3f53c2e31d6c3fbbcc3", "lat": 38.81515533333334, "fusion_lon": 0.0, "fusion_lat": 0.0, "type": "electric_bike", "name": "2837130c36d0e3f53c2e31d6c3fbbcc3", "is_disabled": 0, "rental_uris": {"ios": "https://dc.lft.to/lastmile_qr_scan", "android": "https://dc.lft.to/lastmile_qr_scan"}, "is_reserved": 0}, {"lon": -77.02235566666667, "bike_id": "7c8a833d6f2a29fe363d35872cbde2e4", "lat": 38.910048333333336, "fusion_lon": 0.0, "fusion_lat": 0.0, "type": "electric_scooter", "name": "7c8a833d6f2a29fe363d35872cbde2e4", "is_disabled": 0, "rental_uris": {"ios": "https://dc.lft.to/lastmile_qr_scan", "android": "https://dc.lft.to/lastmile_qr_scan"}, "is_reserved": 0}, {"lon": -77.05176183333333, "bike_id": "ad9e447e2ec7355b29ee49e644cfd04b", "lat": 38.923418166666664, "fusion_lon": 0.0, "fusion_lat": 0.0, "type": "electric_scooter", "name": "ad9e447e2ec7355b29ee49e644cfd04b", "is_disabled": 0, "rental_uris": {"ios": "https://dc.lft.to/lastmile_qr_scan", "android": "https://dc.lft.to/lastmile_qr_scan"}, "is_reserved": 0}, {"lon": -77.01888833333334, "bike_id": "64425ee9b2f7eda4619dfb3b048c13f2", "lat": 38.904981, "fusion_lon": 0.0, "fusion_lat": 0.0, "type": "electric_scooter", "name": "64425ee9b2f7eda4619dfb3b048c13f2", "is_disabled": 0, "rental_uris": {"ios": "https://dc.lft.to/lastmile_qr_scan", "android": "https://dc.lft.to/lastmile_qr_scan"}, "is_reserved": 0}, {"lon": -76.982887, "bike_id": "da618e798e88edb1fe0e67b4c01e25b8", "lat": 38.9004765, "fusion_lon": 0.0, "fusion_lat": 0.0, "type": "electric_scooter", "name": "da618e798e88edb1fe0e67b4c01e25b8", "is_disabled": 0, "rental_uris": {"ios": "https://dc.lft.to/lastmile_qr_scan", "android": "https://dc.lft.to/lastmile_qr_scan"}, "is_reserved": 0}, {"lon": -77.01430683333334, "bike_id": "b53640b6e7a743632b6d11a903e6f771", "lat": 38.87650883333333, "fusion_lon": 0.0, "fusion_lat": 0.0, "type": "electric_scooter", "name": "b53640b6e7a743632b6d11a903e6f771", "is_disabled": 0, "rental_uris": {"ios": "https://dc.lft.to/lastmile_qr_scan", "android": "https://dc.lft.to/lastmile_qr_scan"}, "is_reserved": 0}, {"lon": -76.985503, "bike_id": "bdf8203e00ed7be921fe2ed93a516e85", "lat": 38.9200475, "fusion_lon": 0.0, "fusion_lat": 0.0, "type": "electric_scooter", "name": "bdf8203e00ed7be921fe2ed93a516e85", "is_disabled": 0, "rental_uris": {"ios": "https://dc.lft.to/lastmile_qr_scan", "android": "https://dc.lft.to/lastmile_qr_scan"}, "is_reserved": 0}, {"lon": -76.92737383333333, "bike_id": "79b2390eaf46fec1e5e88f3d7afd1200", "lat": 38.88964, "fusion_lon": 0.0, "fusion_lat": 0.0, "type": "electric_scooter", "name": "79b2390eaf46fec1e5e88f3d7afd1200", "is_disabled": 0, "rental_uris": {"ios": "https://dc.lft.to/lastmile_qr_scan", "android": "https://dc.lft.to/lastmile_qr_scan"}, "is_reserved": 0}, {"lon": -77.02154616666667, "bike_id": "011794060545d800a6b615040957808d", "lat": 38.92598, "fusion_lon": 0.0, "fusion_lat": 0.0, "type": "electric_bike", "name": "011794060545d800a6b615040957808d", "is_disabled": 0, "rental_uris": {"ios": "https://dc.lft.to/lastmile_qr_scan", "android": "https://dc.lft.to/lastmile_qr_scan"}, "is_reserved": 0},