{"data": {"bikes": [{"rental_uris": {"android": "https://dc.lft.to/lastmile_qr_scan", "ios": "https://dc.lft.to/lastmile_qr_scan"}, "is_reserved": 0, "is_disabled": 0, "bike_id": "b465a71bedc2412db5e0e9fcfe2b2308", "lat": 38.892332, "name": "b465a71bedc2412db5e0e9fcfe2b2308", "fusion_lon": 0.0, "fusion_lat": 0.0, "type": "electric_scooter", "lon": -77.05001283333333}, {"rental_uris": {"android": "https://dc.lft.to/lastmile_qr_scan", "ios": "https://dc.lft.to/lastmile_qr_scan"}, "is_reserved": 0, "is_disabled": 0, "bike_id": "4f9cdb80520d27e14243e6122fdd260d", "lat": 38.9112075, "name": "4f9cdb80520d27e14243e6122fdd260d", "fusion_lon": 0.0, "fusion_lat": 0.0, "type": "electric_scooter", "lon": -77.04219733333333}, {"rental_uris": {"android": "https://dc.lft.to/lastmile_qr_scan", "ios": "https://dc.lft.to/lastmile_qr_scan"}, "is_reserved": 0, "is_disabled": 0, "bike_id": "597b7fa4713243be5ec1097ee605490a", "lat": 38.957332, "name": "597b7fa4713243be5ec1097ee605490a", "fusion_lon": 0.0, "fusion_lat": 0.0, "type": "electric_bike", "lon": -77.02415133333334}, {"rental_uris": {"android": "https://dc.lft.to/lastmile_qr_scan", "ios": "https://dc.lft.to/lastmile_qr_scan"}, "is_reserved": 0, "is_disabled": 0, "bike_id": "7d32c25f3f46f5bd992efa2694bda132", "lat": 38.916669666666664, "name": "7d32c25f3f46f5bd992efa2694bda132", "fusion_lon": 0.0, "fusion_lat": 0.0, "type": "electric_scooter", "lon": -77.03698766666666}, {"rental_uris": {"android": "https://dc.lft.to/lastmile_qr_scan", "ios": "https://dc.lft.to/lastmile_qr_scan"}, "is_reserved": 0, "is_disabled": 0, "bike_id": "777035efe01db5547863ff1b534c42b9", "lat": 38.93211, "name": "777035efe01db5547863ff1b534c42b9", "fusion_lon": 0.0, "fusion_lat": 0.0, "type": "electric_scooter", "lon": -77.02822133333333}, {"rental_uris": {"android": "https://dc.lft.to/lastmile_qr_scan", "ios": "https://dc.lft.to/lastmile_qr_scan"}, "is_reserved": 0, "is_disabled": 0, "bike_id": "93fd42a826528483f5bbf91770b5c970", "lat": 38.89692933333333, "name": "93fd42a826528483f5bbf91770b5c970", "fusion_lon": 0.0, "fusion_lat": 0.0, "type": "electric_scooter", "lon": -77.04470466666666}, {"rental_uris": {"android": "https://dc.lft.to/lastmile_qr_scan", "ios": "https://dc.lft.to/lastmile_qr_scan"}, "is_reserved": 0, "is_disabled": 0, "bike_id": "9c07097878fbcb0c5f1a93412400aa2b", "lat": 38.90281016666667, "name": "9c07097878fbcb0c5f1a93412400aa2b", "fusion_lon": 0.0, "fusion_lat": 0.0, "type": "electric_scooter", "lon": -77.036682}, {"rental_uris": {"android": "https://dc.lft.to/lastmile_qr_scan", "ios": "https://dc.lft.to/lastmile_qr_scan"}, "is_reserved": 0, "is_disabled": 0, "bike_id": "5ba31764a2621a4faf98032149c13138", "lat": 38.899628166666666, "name": "5ba31764a2621a4faf98032149c13138", "fusion_lon": 0.0, "fusion_lat": 0.0, "type": "electric_scooter", "lon": -77.02183483333333}, {"rental_uris": {"android": "https://dc.lft.to/lastmile_qr_scan", "ios": "https://dc.lft.to/lastmile_qr_scan"}, "is_reserved": 0, "is_disabled": 0, "bike_id": "d634d45327a360ebcffc6898c52bbe3a", "lat": 38.866842, "name": "d634d45327a360ebcffc6898c52bbe3a", "fusion_lon": 0.0, "fusion_lat": 0.0, "type": "electric_scooter", "lon": -76.98523716666666}, {"rental_uris": {"android": "https://dc.lft.to/lastmile_qr_scan", "ios": "https://dc.lft.to/lastmile_qr_scan"}, "is_reserved": 0, "is_disabled": 0, "bike_id": "dd2ae93197e9f798d0939d99d1431270", "lat": 38.86705583333333, "name": "dd2ae93197e9f798d0939d99d1431270", "fusion_lon": 0.0, "fusion_lat": 0.0, "type": "electric_scooter", "lon": -76.98713133333334}, {"rental_uris": {"android": "https://dc.lft.to/lastmile_qr_scan", "ios": "https://dc.lft.to/lastmile_qr_scan"}, "is_reserved": 0, "is_disabled": 0, "bike_id": "ec14dc0a628afab45f74bafc07851c73", "lat": 38.89822266666667, "name": "ec14dc0a628afab45f74bafc07851c73", "fusion_lon": 0.0, "fusion_lat": 0.0, "type": "electric_bike", "lon": -76.99077033333333}, {"rental_uris": {"android": "https://dc.lft.to/lastmile_qr_scan", "ios": "https://dc.lft.to/lastmile_qr_scan"}, "is_reserved": 0, "is_disabled": 0, "bike_id": "82e3a087b12814d2c36a79417b5af3d2", "lat": 38.897326666666665, "name": "82e3a087b12814d2c36a79417b5af3d2", "fusion_lon": 0.0, "fusion_lat": 0.0, "type": "electric_scooter", "lon": -77.0471035}, {"rental_uris": {"android": "https://dc.lft.to/lastmile_qr_scan", "ios": "https://dc.lft.to/lastmile_qr_scan"}, "is_reserved": 0, "is_disabled": 0, "bike_id": "e19f3117d0d029a7267d8224654eda9a", "lat": 38.879894666666665, "name": "e19f3117d0d029a7267d8224654eda9a", "fusion_lon": 0.0, "fusion_lat": 0.0, "type": "electric_bike", "lon": -76.915998}, {"rental_uris": {"android": "https://dc.lft.to/lastmile_qr_scan", "ios": "https://dc.lft.to/lastmile_qr_scan"}, "is_reserved": 0, "is_disabled": 0, "bike_id": "aca219ecc9f1078fb00d768d914d0ed3", "lat": 38.8764585, "name": "aca219ecc9f1078fb00d768d914d0ed3", "fusion_lon": 0.0, "fusion_lat": 0.0, "type": "electric_scooter", "lon": -76.9650525}, {"rental_uris": {"android": "https://dc.lft.to/lastmile_qr_scan", "ios": "https://dc.lft.to/lastmile_qr_scan"}, "is_reserved": 0, "is_disabled": 0, "bike_id": "277a70e7639f0e222ad901b8d1d32227", "lat": 38.881213333333335, "name": "277a70e7639f0e222ad901b8d1d32227", "fusion_lon": 0.0, "fusion_lat": 0.0, "type": "electric_scooter", "lon": -77.01637016666666}, {"rental_uris": {"android": "https://dc.lft.to/lastmile_qr_scan", "ios": "https://dc.lft.to/lastmile_qr_scan"}, "is_reserved": 0, "is_disabled": 0, "bike_id": "14ef3649db2bbe97f6f11c7d10e9fee4", "lat": 38.92902816666667, "name": "14ef3649db2bbe97f6f11c7d10e9fee4", "fusion_lon": 0.0, "fusion_lat": 0.0, "type": "electric_scooter", "lon": -77.0041975}, {"rental_uris": {"android": "https://dc.lft.to/lastmile_qr_scan", "ios": "https://dc.lft.to/lastmile_qr_scan"}, "is_reserved": 0, "is_disabled": 0, "bike_id": "4348a9c214a9aba3a0d370eae097add6", "lat": 38.9209335, "name": "4348a9c214a9aba3a0d370eae097add6", "fusion_lon": 0.0, "fusion_lat": 0.0, "type": "electric_scooter", "lon": -77.04377616666666}, {"rental_uris": {"android": "https://dc.lft.to/lastmile_qr_scan", "ios": "https://dc.lft.to/lastmile_qr_scan"}, "is_reserved": 0, "is_disabled": 0, "bike_id": "71eec9c31498a1c22e58c83f976831b5", "lat": 38.917100833333336, "name": "71eec9c31498a1c22e58c83f976831b5", "fusion_lon": 0.0, "fusion_lat": 0.0, "type": "electric_scooter", "lon": -77.0341275}, {"rental_uris": {"android": "https://dc.lft.to/lastmile_qr_scan", "ios": "https://dc.lft.to/lastmile_qr_scan"}, "is_reserved": 0, "is_disabled": 0, "bike_id": "3183cc39ec17906b9c6d20f5c4d5e625", "lat": 38.910084166666664, "name": "3183cc39ec17906b9c6d20f5c4d5e625", "fusion_lon": 0.0, "fusion_lat": 0.0, "type": "electric_scooter", "lon": -77.0384805}, {"rental_uris": {"android": "https://dc.lft.to/lastmile_qr_scan", "ios": "https://dc.lft.to/lastmile_qr_scan"}, "is_reserved": 0, "is_disabled": 0, "bike_id": "b56b2ee9272af9de094d551da008918d", "lat": 38.927471, "name": "b56b2ee9272af9de094d551da008918d", "fusion_lon": 0.0, "fusion_lat": 0.0, "type": "electric_scooter", "lon": -77.03637016666667}, {"rental_uris": {"android": "https://dc.lft.to/lastmile_qr_scan", "ios": "https://dc.lft.to/lastmile_qr_scan"}, "is_reserved": 0, "is_disabled": 0, "bike_id": "b4aa64149d687a03f6d3e071c985ebf8", "lat": 38.95014283333333, "name": "b4aa64149d687a03f6d3e071c985ebf8", "fusion_lon": 0.0, "fusion_lat": 0.0, "type": "electric_scooter", "lon": -77.06696566666666}, {"rental_uris": {"android": "https://dc.lft.to/lastmile_qr_scan", "ios": "https://dc.lft.to/lastmile_qr_scan"}, "is_reserved": 0, "is_disabled": 0, "bike_id": "a24d523c6e5bada209e5563d45c1fd07", "lat": 38.94198266666667, "name": "a24d523c6e5bada209e5563d45c1fd07", "fusion_lon": 0.0, "fusion_lat": 0.0, "type": "electric_scooter", "lon": -77.02590133333334}, {"rental_uris": {"android": "https://dc.lft.to/lastmile_qr_scan", "ios": "https://dc.lft.to/lastmile_qr_scan"}, "is_reserved": 0, "is_disabled": 0, "bike_id": "320f687222fbbed148b83d02fb967e3c", "lat": 38.914855833333334, "name": "320f687222fbbed148b83d02fb967e3c", "fusion_lon": 0.0, "fusion_lat": 0.0, "type": "electric_scooter", "lon": -77.02570916666667}, {"rental_uris": {"android": "https://dc.lft.to/lastmile_qr_scan", "ios": "https://dc.lft.to/lastmile_qr_scan"}, "is_reserved": 0, "is_disabled": 0, "bike_id": "a6462c9bd853e48ceb25986f7abf9fca", "lat": 38.945512, "name": "a6462c9bd853e48ceb25986f7abf9fca", "fusion_lon": 0.0, "fusion_lat": 0.0, "type": "electric_bike", "lon": -76.89538433333334}, {"rental_uris": {"android": "https://dc.lft.to/lastmile_qr_scan", "ios": "https://dc.lft.to/lastmile_qr_scan"}, "is_reserved": 0, "is_disabled": 0, "bike_id": "4524a302d825ac15c3d4469695f28efe", "lat": 38.906535166666664, "name": "4524a302d825ac15c3d4469695f28efe", "fusion_lon": 0.0, "fusion_lat": 0.0, "type": "electric_scooter", "lon": -76.9781785}, {"rental_uris": {"android": "https://dc.lft.to/lastmile_qr_scan", "ios": "https://dc.lft.to/lastmile_qr_scan"}, "is_reserved": 0, "is_disabled": 0, "bike_id": "9c2cce5977a917673efa48d99863cade", "lat": 38.90851516666667, "name": "9c2cce5977a917673efa48d99863cade", "fusion_lon": 0.0, "fusion_lat": 0.0, "type": "electric_scooter", "lon": -77.0251215}, {"rental_uris": {"android": "https://dc.lft.to/lastmile_qr_scan", "ios": "https://dc.lft.to/lastmile_qr_scan"}, "is_reserved": 0, "is_disabled": 0, "bike_id": "c1208d4166a57ccc464a951f00bdc43e", "lat": 38.915602, "name": "c1208d4166a57ccc464a951f00bdc43e", "fusion_lon": 0.0, "fusion_lat": 0.0, "type": "electric_scooter", "lon": -77.02138566666666}, {"rental_uris": {"android": "https://dc.lft.to/lastmile_qr_scan", "ios": "https://dc.lft.to/lastmile_qr_scan"}, "is_reserved": 0, "is_disabled": 0, "bike_id": "27418b6777e87178da48708cc94456dd", "lat": 38.8845125, "name": "27418b6777e87178da48708cc94456dd", "fusion_lon": 0.0, "fusion_lat": 0.0, "type": "electric_scooter", "lon": -76.99390383333333}, {"rental_uris": {"android": "https://dc.lft.to/lastmile_qr_scan", "ios": "https://dc.lft.to/lastmile_qr_scan"}, "is_reserved": 0, "is_disabled": 0, "bike_id": "bc46d122d3f511076ca877f5c49fd80c", "lat": 38.90675733333333, "name": "bc46d122d3f511076ca877f5c49fd80c", "fusion_lon": 0.0, "fusion_lat": 0.0, "type": "electric_scooter", "lon": -77.0271185}, {"rental_uris": {"android": "https://dc.lft.to/lastmile_qr_scan", "ios": "https://dc.lft.to/lastmile_qr_scan"}, "is_reserved": 0, "is_disabled": 0, "bike_id": "95d5fa52de216a07c1ad143ea9e73126", "lat": 38.93361066666667, "name": "95d5fa52de216a07c1ad143ea9e73126", "fusion_lon": 0.0, "fusion_lat": 0.0, "type": "electric_scooter", "lon": -77.0730635}, {"rental_uris": {"android": "https://dc.lft.to/lastmile_qr_scan", "ios": "https://dc.lft.to/lastmile_qr_scan"}, "is_reserved": 0, "is_disabled": 0, "bike_id": "d1afa69bf55fb540ba8105be62cd3e73", "lat": 38.92553233333334, "name": "d1afa69bf55fb540ba8105be62cd3e73", "fusion_lon": 0.0, "fusion_lat": 0.0, "type": "electric_scooter", "lon": -77.05237066666666}, {"rental_uris": {"android": "https://dc.lft.to/lastmile_qr_scan", "ios": "https://dc.lft.to/lastmile_qr_scan"}, "is_reserved": 0, "is_disabled": 0, "bike_id": "d0e495afc640e12737e8bd3aa5995a83", "lat": 38.914146, "name": "d0e495afc640e12737e8bd3aa5995a83", "fusion_lon": 0.0, "fusion_lat": 0.0, "type": "electric_scooter", "lon": -77.04178266666666}, {"rental_uris": {"android": "https://dc.lft.to/lastmile_qr_scan", "ios": "https://dc.lft.to/lastmile_qr_scan"}, "is_reserved": 0, "is_disabled": 0, "bike_id": "82655638498621d8bfa3cee1e08bd54f", "lat": 38.94171033333333, "name": "82655638498621d8bfa3cee1e08bd54f", "fusion_lon": 0.0, "fusion_lat": 0.0, "type": "electric_scooter", "lon": -77.02560783333334}, {"rental_uris": {"android": "https://dc.lft.to/lastmile_qr_scan", "ios": "https://dc.lft.to/lastmile_qr_scan"}, "is_reserved": 0, "is_disabled": 0, "bike_id": "8f1e5c3571966a80696ec1372e5e47fb", "lat": 38.887128833333335, "name": "8f1e5c3571966a80696ec1372e5e47fb", "fusion_lon": 0.0, "fusion_lat": 0.0, "type": "electric_scooter", "lon": -77.03177533333333}, {"rental_uris": {"android": "https://dc.lft.to/lastmile_qr_scan", "ios": "https://dc.lft.to/lastmile_qr_scan"}, "is_reserved": 0, "is_disabled": 0, "bike_id": "e37720b7619eeb053ce9a818340544d8", "lat": 38.9220095, "name": "e37720b7619eeb053ce9a818340544d8", "fusion_lon": 0.0, "fusion_lat": 0.0, "type": "electric_bike", "lon": -77.0818795}, {"rental_uris": {"android": "https://dc.lft.to/lastmile_qr_scan", "ios": "https://dc.lft.to/lastmile_qr_scan"}, "is_reserved": 0, "is_disabled": 0, "bike_id": "4f6bdf1187599074976b7c7d9917f706", "lat": 38.92643016666667, "name": "4f6bdf1187599074976b7c7d9917f706", "fusion_lon": 0.0, "fusion_lat": 0.0, "type": "electric_scooter", "lon": -77.02511416666667}, {"rental_uris": {"android": "https://dc.lft.to/lastmile_qr_scan", "ios": "https://dc.lft.to/lastmile_qr_scan"}, "is_reserved": 0, "is_disabled": 0, "bike_id": "729f23d6c74ea4df5787502a380aafdf", "lat": 38.90863433333333, "name": "729f23d6c74ea4df5787502a380aafdf", "fusion_lon": 0.0, "fusion_lat": 0.0, "type": "electric_scooter", "lon": -77.03221033333334}, {"rental_uris": {"android": "https://dc.lft.to/lastmile_qr_scan", "ios": "https://dc.lft.to/lastmile_qr_scan"}, "is_reserved": 0, "is_disabled": 0, "bike_id": "9cfe6e677295883a8148c7e2072e8998", "lat": 38.919254, "name": "9cfe6e677295883a8148c7e2072e8998", "fusion_lon": 0.0, "fusion_lat": 0.0, "type": "electric_scooter", "lon": -77.03260333333333}, {"rental_uris": {"android": "https://dc.lft.to/lastmile_qr_scan", "ios": "https://dc.lft.to/lastmile_qr_scan"}, "is_reserved": 0, "is_disabled": 0, "bike_id": "f0507ade8f62e03cef0c3916dcf98d54", "lat": 38.897786333333336, "name": "f0507ade8f62e03cef0c3916dcf98d54", "fusion_lon": 0.0, "fusion_lat": 0.0, "type": "electric_scooter", "lon": -77.03946066666667}, {"rental_uris": {"android": "https://dc.lft.to/lastmile_qr_scan", "ios": "https://dc.lft.to/lastmile_qr_scan"}, "is_reserved": 0, "is_disabled": 0, "bike_id": "f6b074fdb558fe97e250b04ce950c39d", "lat": 38.9133235, "name": "f6b074fdb558fe97e250b04ce950c39d", "fusion_lon": 0.0, "fusion_lat": 0.0, "type": "electric_scooter", "lon": -77.04327966666666}, {"rental_uris": {"android": "https://dc.lft.to/lastmile_qr_scan", "ios": "https://dc.lft.to/lastmile_qr_scan"}, "is_reserved": 0, "is_disabled": 0, "bike_id": "54b02e2923193400b9d98c2822cbe2e9", "lat": 38.874106, "name": "54b02e2923193400b9d98c2822cbe2e9", "fusion_lon": 0.0, "fusion_lat": 0.0, "type": "electric_scooter", "lon": -77.00040066666666}, {"rental_uris": {"android": "https://dc.lft.to/lastmile_qr_scan", "ios": "https://dc.lft.to/lastmile_qr_scan"}, "is_reserved": 0, "is_disabled": 0, "bike_id": "94691129ec9751d646ab39e5a57032d7", "lat": 38.9282175, "name": "94691129ec9751d646ab39e5a57032d7", "fusion_lon": 0.0, "fusion_lat": 0.0, "type": "electric_scooter", "lon": -77.02255883333333}, {"rental_uris": {"android": "https://dc.lft.to/lastmile_qr_scan", "ios": "https://dc.lft.to/lastmile_qr_scan"}, "is_reserved": 0, "is_disabled": 0, "bike_id": "ab0083abec750e966e90e4446b76ec94", "lat": 38.898058666666664, "name": "ab0083abec750e966e90e4446b76ec94", "fusion_lon": 0.0, "fusion_lat": 0.0, "type": "electric_scooter", "lon": -77.0465915}, {"rental_uris": {"android": "https://dc.lft.to/lastmile_qr_scan", "ios": "https://dc.lft.to/lastmile_qr_scan"}, "is_reserved": 0, "is_disabled": 0, "bike_id": "1de9297e7d0afac67d1d17f82f07a951", "lat": 38.924977, "name": "1de9297e7d0afac67d1d17f82f07a951", "fusion_lon": 0.0, "fusion_lat": 0.0, "type": "electric_scooter", "lon": -77.032157}, {"rental_uris": {"android": "https://dc.lft.to/lastmile_qr_scan", "ios": "https://dc.lft.to/lastmile_qr_scan"}, "is_reserved": 0, "is_disabled": 0, "bike_id": "fea29316e8faf14beabc77dfdc6ea8b5", "lat": 38.922072666666665, "name": "fea29316e8faf14beabc77dfdc6ea8b5", "fusion_lon": 0.0, "fusion_lat": 0.0, "type": "electric_scooter", "lon": -77.0425345}, {"rental_uris": {"android": "https://dc.lft.to/lastmile_qr_scan", "ios": "https://dc.lft.to/lastmile_qr_scan"}, "is_reserved": 0, "is_disabled": 0, "bike_id": "6571f653192925f4c0bdc8d20f54f38f", "lat": 38.952683, "name": "6571f653192925f4c0bdc8d20f54f38f", "fusion_lon": 0.0, "fusion_lat": 0.0, "type": "electric_scooter", "lon": -76.9988055}, {"rental_uris": {"android": "https://dc.lft.to/lastmile_qr_scan", "ios": "https://dc.lft.to/lastmile_qr_scan"}, "is_reserved": 0, "is_disabled": 0, "bike_id": "49e6e2730431c3d9170d2c3ca7b8f391", "lat": 38.89801716666667, "name": "49e6e2730431c3d9170d2c3ca7b8f391", "fusion_lon": 0.0, "fusion_lat": 0.0, "type": "electric_scooter", "lon": -76.990347}, {"rental_uris": {"android": "https://dc.lft.to/lastmile_qr_scan", "ios": "https://dc.lft.to/lastmile_qr_scan"}, "is_reserved": 0, "is_disabled": 0, "bike_id": "db1d9ef0014b4ee00d00df2891f5e343", "lat": 38.92888333333333, "name": "db1d9ef0014b4ee00d00df2891f5e343", "fusion_lon": 0.0, "fusion_lat": 0.0, "type": "electric_scooter", "lon": -77.032224}, {"rental_uris": {"android": "https://dc.lft.to/lastmile_qr_scan", "ios": "https://dc.lft.to/lastmile_qr_scan"}, "is_reserved": 0, "is_disabled": 0, "bike_id": "74efb0d0d42fc754eccc3c2b6f509084", "lat": 38.94288816666667, "name": "74efb0d0d42fc754eccc3c2b6f509084", "fusion_lon": 0.0, "fusion_lat": 0.0, "type": "electric_scooter", "lon": -77.02798116666666}, {"rental_uris": {"android": "https://dc.lft.to/lastmile_qr_scan", "ios": "https://dc.lft.to/lastmile_qr_scan"}, "is_reserved": 0, "is_disabled": 0, "bike_id": "6db595378e99c2cbfa760195433fcdbe", "lat": 38.919173666666666, "name": "6db595378e99c2cbfa760195433fcdbe", "fusion_lon": 0.0, "fusion_lat": 0.0, "type": "electric_scooter", "lon": -77.02610183333333}, {"rental_uris": {"android": "https://dc.lft.to/lastmile_qr_scan", "ios": "https://dc.lft.to/lastmile_qr_scan"}, "is_reserved": 0, "is_disabled": 0, "bike_id": "eb7bef07fc765a4e5c45a40b97a7e9c4", "lat": 38.906842, "name": "eb7bef07fc765a4e5c45a40b97a7e9c4", "fusion_lon": 0.0, "fusion_lat": 0.0, "type": "electric_scooter", "lon": -77.01617933333333}, {"rental_uris": {"android": "https://dc.lft.to/lastmile_qr_scan", "ios": "https://dc.lft.to/lastmile_qr_scan"}, "is_reserved": 0, "is_disabled": 0, "bike_id": "4d8a495819c4fe5fa9b7746da34ea4b1", "lat": 38.925189833333334, "name": "4d8a495819c4fe5fa9b7746da34ea4b1", "fusion_lon": 0.0, "fusion_lat": 0.0, "type": "electric_scooter", "lon": -77.05041633333333}, {"rental_uris": {"android": "https://dc.lft.to/lastmile_qr_scan", "ios": "https://dc.lft.to/lastmile_qr_scan"}, "is_reserved": 0, "is_disabled": 0, "bike_id": "aed821d8b5bdc11c9ad1c6e2367a3d75", "lat": 38.86247266666667, "name": "aed821d8b5bdc11c9ad1c6e2367a3d75", "fusion_lon": 0.0, "fusion_lat": 0.0, "type": "electric_scooter", "lon": -76.99502683333333}, {"rental_uris": {"android": "https://dc.lft.to/lastmile_qr_scan", "ios": "https://dc.lft.to/lastmile_qr_scan"}, "is_reserved": 0, "is_disabled": 0, "bike_id": "1b572c05f8c6f58006e99c9e61dd80c5", "lat": 38.91563266666667, "name": "1b572c05f8c6f58006e99c9e61dd80c5", "fusion_lon": 0.0, "fusion_lat": 0.0, "type": "electric_scooter", "lon": -77.0408635}, {"rental_uris": {"android": "https://dc.lft.to/lastmile_qr_scan", "ios": "https://dc.lft.to/lastmile_qr_scan"}, "is_reserved": 0, "is_disabled": 0, "bike_id": "4087ccd9b4517185d1cac7c63ec4c891", "lat": 38.92294316666667, "name": "4087ccd9b4517185d1cac7c63ec4c891", "fusion_lon": 0.0, "fusion_lat": 0.0, "type": "electric_scooter", "lon": -77.0420475}, {"rental_uris": {"android": "https://dc.lft.to/lastmile_qr_scan", "ios": "https://dc.lft.to/lastmile_qr_scan"}, "is_reserved": 0, "is_disabled": 0, "bike_id": "86241ce9323db5a53afaaf61def19684", "lat": 38.89229133333333, "name": "86241ce9323db5a53afaaf61def19684", "fusion_lon": 0.0, "fusion_lat": 0.0, "type": "electric_scooter", "lon": -77.0309045}, {"rental_uris": {"android": "https://dc.lft.to/lastmile_qr_scan", "ios": "https://dc.lft.to/lastmile_qr_scan"}, "is_reserved": 0, "is_disabled": 0, "bike_id": "22d527bb009dec73ce6fc1ec9ef4b7fa", "lat": 38.91573366666667, "name": "22d527bb009dec73ce6fc1ec9ef4b7fa", "fusion_lon": 0.0, "fusion_lat": 0.0, "type": "electric_scooter", "lon": -77.02383183333333}, {"rental_uris": {"android": "https://dc.lft.to/lastmile_qr_scan", "ios": "https://dc.lft.to/lastmile_qr_scan"}, "is_reserved": 0, "is_disabled": 0, "bike_id": "56383bb6440543b8c950f5a3ee37da4e", "lat": 38.917072166666664, "name": "56383bb6440543b8c950f5a3ee37da4e", "fusion_lon": 0.0, "fusion_lat": 0.0, "type": "electric_scooter", "lon": -77.0341495}, {"rental_uris": {"android": "https://dc.lft.to/lastmile_qr_scan", "ios": "https://dc.lft.to/lastmile_qr_scan"}, "is_reserved": 0, "is_disabled": 0, "bike_id": "9d8ddbc6f1b96cbf17f6850972b4afcd", "lat": 38.91342866666667, "name": "9d8ddbc6f1b96cbf17f6850972b4afcd", "fusion_lon": 0.0, "fusion_lat": 0.0, "type": "electric_scooter", "lon": -76.9889995}, {"rental_uris": {"android": "https://dc.lft.to/lastmile_qr_scan", "ios": "https://dc.lft.to/lastmile_qr_scan"}, "is_reserved": 0, "is_disabled": 0, "bike_id": "23419a0d5074a49a82efb8ffa19d20b3", "lat": 38.8977575, "name": "23419a0d5074a49a82efb8ffa19d20b3", "fusion_lon": 0.0, "fusion_lat": 0.0, "type": "electric_scooter", "lon": -77.03152333333334}, {"rental_uris": {"android": "https://dc.lft.to/lastmile_qr_scan", "ios": "https://dc.lft.to/lastmile_qr_scan"}, "is_reserved": 0, "is_disabled": 0, "bike_id": "85a903fe40324d8d150fecf0503bfde6", "lat": 38.94296333333333, "name": "85a903fe40324d8d150fecf0503bfde6", "fusion_lon": 0.0, "fusion_lat": 0.0, "type": "electric_scooter", "lon": -77.02170666666666}, {"rental_uris": {"android": "https://dc.lft.to/lastmile_qr_scan", "ios": "https://dc.lft.to/lastmile_qr_scan"}, "is_reserved": 0, "is_disabled": 0, "bike_id": "a4f940ec4faa27124dd9a4092fc4939b", "lat": 38.91767016666667, "name": "a4f940ec4faa27124dd9a4092fc4939b", "fusion_lon": 0.0, "fusion_lat": 0.0, "type": "electric_scooter", "lon": -77.04179633333334}, {"rental_uris": {"android": "https://dc.lft.to/lastmile_qr_scan", "ios": "https://dc.lft.to/lastmile_qr_scan"}, "is_reserved": 0, "is_disabled": 0, "bike_id": "43b0fb8d5437cf467375f58e7f5b8505", "lat": 38.939705000000004, "name": "43b0fb8d5437cf467375f58e7f5b8505", "fusion_lon": 0.0, "fusion_lat": 0.0, "type": "electric_scooter", "lon": -77.03258566666666}, {"rental_uris": {"android": "https://dc.lft.to/lastmile_qr_scan", "ios": "https://dc.lft.to/lastmile_qr_scan"}, "is_reserved": 0, "is_disabled": 0, "bike_id": "22af4d58527bf037fc60ece6ed1c6bca", "lat": 38.907141, "name": "22af4d58527bf037fc60ece6ed1c6bca", "fusion_lon": 0.0, "fusion_lat": 0.0, "type": "electric_scooter", "lon": -77.01629166666666}, {"rental_uris": {"android": "https://dc.lft.to/lastmile_qr_scan", "ios": "https://dc.lft.to/lastmile_qr_scan"}, "is_reserved": 0, "is_disabled": 0, "bike_id": "02d0bce300b5b6878847431170b87bf3", "lat": 38.919357833333336, "name": "02d0bce300b5b6878847431170b87bf3", "fusion_lon": 0.0, "fusion_lat": 0.0, "type": "electric_scooter", "lon": -77.024915}, {"rental_uris": {"android": "https://dc.lft.to/lastmile_qr_scan", "ios": "https://dc.lft.to/lastmile_qr_scan"}, "is_reserved": 0, "is_disabled": 0, "bike_id": "80cd1d2155c3beb7530dffdd5c215c87", "lat": 38.97574316666667, "name": "80cd1d2155c3beb7530dffdd5c215c87", "fusion_lon": 0.0, "fusion_lat": 0.0, "type": "electric_scooter", "lon": -77.0260935}, {"rental_uris": {"android": "https://dc.lft.to/lastmile_qr_scan", "ios": "https://dc.lft.to/lastmile_qr_scan"}, "is_reserved": 0, "is_disabled": 0, "bike_id": "aae47a6d7a0f916bb13d0d36541fcda3", "lat": 38.90133266666667, "name": "aae47a6d7a0f916bb13d0d36541fcda3", "fusion_lon": 0.0, "fusion_lat": 0.0, "type": "electric_scooter", "lon": -77.03346933333333}, {"rental_uris": {"android": "https://dc.lft.to/lastmile_qr_scan", "ios": "https://dc.lft.to/lastmile_qr_scan"}, "is_reserved": 0, "is_disabled": 0, "bike_id": "50fa819dea5682ef315e8f14de801ec9", "lat": 38.876703, "name": "50fa819dea5682ef315e8f14de801ec9", "fusion_lon": 0.0, "fusion_lat": 0.0, "type": "electric_scooter", "lon": -77.0176135}, {"rental_uris": {"android": "https://dc.lft.to/lastmile_qr_scan", "ios": "https://dc.lft.to/lastmile_qr_scan"}, "is_reserved": 0, "is_disabled": 0, "bike_id": "de6b8832bae5e8d8c116ac783036de6c", "lat": 38.929476, "name": "de6b8832bae5e8d8c116ac783036de6c", "fusion_lon": 0.0, "fusion_lat": 0.0, "type": "electric_scooter", "lon": -77.01637383333333}, {"rental_uris": {"android": "https://dc.lft.to/lastmile_qr_scan", "ios": "https://dc.lft.to/lastmile_qr_scan"}, "is_reserved": 0, "is_disabled": 0, "bike_id": "a6a82bce73cfbc465efa1b0710d85b68", "lat": 38.9922605, "name": "a6a82bce73cfbc465efa1b0710d85b68", "fusion_lon": 0.0, "fusion_lat": 0.0, "type": "electric_scooter", "lon": -77.03586416666667}, {"rental_uris": {"android": "https://dc.lft.to/lastmile_qr_scan", "ios": "https://dc.lft.to/lastmile_qr_scan"}, "is_reserved": 0, "is_disabled": 0, "bike_id": "36ed0f4bd9ffce6196b7d0b210eff2d4", "lat": 38.857686, "name": "36ed0f4bd9ffce6196b7d0b210eff2d4", "fusion_lon": 0.0, "fusion_lat": 0.0, "type": "electric_bike", "lon": -76.98762416666666}, {"rental_uris": {"android": "https://dc.lft.to/lastmile_qr_scan", "ios": "https://dc.lft.to/lastmile_qr_scan"}, "is_reserved": 0, "is_disabled": 0, "bike_id": "b8890b6be085aca9e8d4b05b240f19f9", "lat": 38.89764816666667, "name": "b8890b6be085aca9e8d4b05b240f19f9", "fusion_lon": 0.0, "fusion_lat": 0.0, "type": "electric_scooter", "lon": -77.03159733333334}, {"rental_uris": {"android": "https://dc.lft.to/lastmile_qr_scan", "ios": "https://dc.lft.to/lastmile_qr_scan"}, "is_reserved": 0, "is_disabled": 0, "bike_id": "7486273bd3f18588b062cc5f78869e5d", "lat": 38.90141233333333, "name": "7486273bd3f18588b062cc5f78869e5d", "fusion_lon": 0.0, "fusion_lat": 0.0, "type": "electric_scooter", "lon": -77.0433875}, {"rental_uris": {"android": "https://dc.lft.to/lastmile_qr_scan", "ios": "https://dc.lft.to/lastmile_qr_scan"}, "is_reserved": 0, "is_disabled": 0, "bike_id": "755be51d18d4dd33aff833f7fac72ff4", "lat": 38.9140915, "name": "755be51d18d4dd33aff833f7fac72ff4", "fusion_lon": 0.0, "fusion_lat": 0.0, "type": "electric_scooter", "lon": -77.020208}, {"rental_uris": {"android": "https://dc.lft.to/lastmile_qr_scan", "ios": "https://dc.lft.to/lastmile_qr_scan"}, "is_reserved": 0, "is_disabled": 0, "bike_id": "4e51a21fa930e141089cd541db584ba2", "lat": 38.9264495, "name": "4e51a21fa930e141089cd541db584ba2", "fusion_lon": 0.0, "fusion_lat": 0.0, "type": "electric_scooter", "lon": -77.03463366666666}, {"rental_uris": {"android": "https://dc.lft.to/lastmile_qr_scan", "ios": "https://dc.lft.to/lastmile_qr_scan"}, "is_reserved": 0, "is_disabled": 0, "bike_id": "ff3f30e87afd06d1ea301c48f8307aff", "lat": 38.917148, "name": "ff3f30e87afd06d1ea301c48f8307aff", "fusion_lon": 0.0, "fusion_lat": 0.0, "type": "electric_scooter", "lon": -77.03660716666667}, {"rental_uris": {"android": "https://dc.lft.to/lastmile_qr_scan", "ios": "https://dc.lft.to/lastmile_qr_scan"}, "is_reserved": 0, "is_disabled": 0, "bike_id": "0b2fb6fad146d76f9e570abd6ceb111c", "lat": 38.902356, "name": "0b2fb6fad146d76f9e570abd6ceb111c", "fusion_lon": 0.0, "fusion_lat": 0.0, "type": "electric_scooter", "lon": -77.04712116666667}, {"rental_uris": {"android": "https://dc.lft.to/lastmile_qr_scan", "ios": "https://dc.lft.to/lastmile_qr_scan"}, "is_reserved": 0, "is_disabled": 0, "bike_id": "0e1d6d2875f67152fe75a631acc926c9", "lat": 38.84371133333333, "name": "0e1d6d2875f67152fe75a631acc926c9", "fusion_lon": 0.0, "fusion_lat": 0.0, "type": "electric_bike", "lon": -76.97825733333333}, {"rental_uris": {"android": "https://dc.lft.to/lastmile_qr_scan", "ios": "https://dc.lft.to/lastmile_qr_scan"}, "is_reserved": 0, "is_disabled": 0, "bike_id": "5b3ebdd1292f5d9e9a12ef0bfc0bbce7", "lat": 38.907043333333334, "name": "5b3ebdd1292f5d9e9a12ef0bfc0bbce7", "fusion_lon": 0.0, "fusion_lat": 0.0, "type": "electric_scooter", "lon": -77.03422883333333}, {"rental_uris": {"android": "https://dc.lft.to/lastmile_qr_scan", "ios": "https://dc.lft.to/lastmile_qr_scan"}, "is_reserved": 0, "is_disabled": 0, "bike_id": "34be7740e64c0519768339b1da40551f", "lat": 38.90873633333333, "name": "34be7740e64c0519768339b1da40551f", "fusion_lon": 0.0, "fusion_lat": 0.0, "type": "electric_scooter", "lon": -77.03187416666667}, {"rental_uris": {"android": "https://dc.lft.to/lastmile_qr_scan", "ios": "https://dc.lft.to/lastmile_qr_scan"}, "is_reserved": 0, "is_disabled": 0, "bike_id": "cade3975746890bc6b056de712e843b2", "lat": 38.9388585, "name": "cade3975746890bc6b056de712e843b2", "fusion_lon": 0.0, "fusion_lat": 0.0, "type": "electric_scooter", "lon": -77.024851}, {"rental_uris": {"android": "https://dc.lft.to/lastmile_qr_scan", "ios": "https://dc.lft.to/lastmile_qr_scan"}, "is_reserved": 0, "is_disabled": 0, "bike_id": "2bc7ae1f34d8e768710ded4fe2a39ceb", "lat": 38.9198335, "name": "2bc7ae1f34d8e768710ded4fe2a39ceb", "fusion_lon": 0.0, "fusion_lat": 0.0, "type": "electric_scooter", "lon": -77.02251033333333}, {"rental_uris": {"android": "https://dc.lft.to/lastmile_qr_scan", "ios": "https://dc.lft.to/lastmile_qr_scan"}, "is_reserved": 0, "is_disabled": 0, "bike_id": "9cd9cacbdf277f5b4bcfa3af3609dbe3", "lat": 38.88264383333333, "name": "9cd9cacbdf277f5b4bcfa3af3609dbe3", "fusion_lon": 0.0, "fusion_lat": 0.0, "type": "electric_scooter", "lon": -76.99014983333333}, {"rental_uris": {"android": "https://dc.lft.to/lastmile_qr_scan", "ios": "https://dc.lft.to/lastmile_qr_scan"}, "is_reserved": 0, "is_disabled": 0, "bike_id": "1f5f05aa4372b1911a365f40aaca3cf0", "lat": 38.916841833333336, "name": "1f5f05aa4372b1911a365f40aaca3cf0", "fusion_lon": 0.0, "fusion_lat": 0.0, "type": "electric_scooter", "lon": -77.02290366666666}, {"rental_uris": {"android": "https://dc.lft.to/lastmile_qr_scan", "ios": "https://dc.lft.to/lastmile_qr_scan"}, "is_reserved": 0, "is_disabled": 0, "bike_id": "a337ff8f26280ea123762ff163fcf0b7", "lat": 38.9037225, "name": "a337ff8f26280ea123762ff163fcf0b7", "fusion_lon": 0.0, "fusion_lat": 0.0, "type": "electric_scooter", "lon": -77.031936}, {"rental_uris": {"android": "https://dc.lft.to/lastmile_qr_scan", "ios": "https://dc.lft.to/lastmile_qr_scan"}, "is_reserved": 0, "is_disabled": 0, "bike_id": "24a8d4b2586f1bc72e8ce1bc4834dca5", "lat": 38.9031745, "name": "24a8d4b2586f1bc72e8ce1bc4834dca5", "fusion_lon": 0.0, "fusion_lat": 0.0, "type": "electric_scooter", "lon": -77.033056}, {"rental_uris": {"android": "https://dc.lft.to/lastmile_qr_scan", "ios": "https://dc.lft.to/lastmile_qr_scan"}, "is_reserved": 0, "is_disabled": 0, "bike_id": "399745ae2b62d973ebf05142bee60284", "lat": 38.89894483333333, "name": "399745ae2b62d973ebf05142bee60284", "fusion_lon": 0.0, "fusion_lat": 0.0, "type": "electric_scooter", "lon": -77.02596616666666}, {"rental_uris": {"android": "https://dc.lft.to/lastmile_qr_scan", "ios": "https://dc.lft.to/lastmile_qr_scan"}, "is_reserved": 0, "is_disabled": 0, "bike_id": "6d592139d872f9d1dc5bbb80d06a2c12", "lat": 38.895045833333334, "name": "6d592139d872f9d1dc5bbb80d06a2c12", "fusion_lon": 0.0, "fusion_lat": 0.0, "type": "electric_scooter", "lon": -76.93475916666667}, {"rental_uris": {"android": "https://dc.lft.to/lastmile_qr_scan", "ios": "https://dc.lft.to/lastmile_qr_scan"}, "is_reserved": 0, "is_disabled": 0, "bike_id": "0a7b01d364b08338130123e5ee729bbe", "lat": 38.917553833333336, "name": "0a7b01d364b08338130123e5ee729bbe", "fusion_lon": 0.0, "fusion_lat": 0.0, "type": "electric_scooter", "lon": -77.03840566666666}, {"rental_uris": {"android": "https://dc.lft.to/lastmile_qr_scan", "ios": "https://dc.lft.to/lastmile_qr_scan"}, "is_reserved": 0, "is_disabled": 0, "bike_id": "afe6c0ab13a3f9dcfba4a01a58727b60", "lat": 38.91186716666667, "name": "afe6c0ab13a3f9dcfba4a01a58727b60", "fusion_lon": 0.0, "fusion_lat": 0.0, "type": "electric_scooter", "lon": -77.04176683333333}, {"rental_uris": {"android": "https://dc.lft.to/lastmile_qr_scan", "ios": "https://dc.lft.to/lastmile_qr_scan"}, "is_reserved": 0, "is_disabled": 0, "bike_id": "55c8818fa70935926b7ca70dbb58d9cb", "lat": 38.9304835, "name": "55c8818fa70935926b7ca70dbb58d9cb", "fusion_lon": 0.0, "fusion_lat": 0.0, "type": "electric_bike", "lon": -77.038146}, {"rental_uris": {"android": "https://dc.lft.to/lastmile_qr_scan", "ios": "https://dc.lft.to/lastmile_qr_scan"}, "is_reserved": 0, "is_disabled": 0, "bike_id": "91c6040b6ae9485d5bb57331d6ffd26b", "lat": 38.917021, "name": "91c6040b6ae9485d5bb57331d6ffd26b", "fusion_lon": 0.0, "fusion_lat": 0.0, "type": "electric_scooter", "lon": -77.0249285}, {"rental_uris": {"android": "https://dc.lft.to/lastmile_qr_scan", "ios": "https://dc.lft.to/lastmile_qr_scan"}, "is_reserved": 0, "is_disabled": 0, "bike_id": "913f299440932b650d6ef70e917b814a", "lat": 38.93422183333333, "name": "913f299440932b650d6ef70e917b814a", "fusion_lon": 0.0, "fusion_lat": 0.0, "type": "electric_scooter", "lon": -77.028475}, {"rental_uris": {"android": "https://dc.lft.to/lastmile_qr_scan", "ios": "https://dc.lft.to/lastmile_qr_scan"}, "is_reserved": 0, "is_disabled": 0, "bike_id": "c5809fb49101bcf069e5d3cfedc488c8", "lat": 38.94511933333333, "name": "c5809fb49101bcf069e5d3cfedc488c8", "fusion_lon": 0.0, "fusion_lat": 0.0, "type": "electric_scooter", "lon": -77.07449733333333}, {"rental_uris": {"android": "https://dc.lft.to/lastmile_qr_scan", "ios": "https://dc.lft.to/lastmile_qr_scan"}, "is_reserved": 0, "is_disabled": 0, "bike_id": "413c255391e9a861c215711c83b8ebab", "lat": 38.92018816666667, "name": "413c255391e9a861c215711c83b8ebab", "fusion_lon": 0.0, "fusion_lat": 0.0, "type": "electric_scooter", "lon": -77.04401683333333}, {"rental_uris": {"android": "https://dc.lft.to/lastmile_qr_scan", "ios": "https://dc.lft.to/lastmile_qr_scan"}, "is_reserved": 0, "is_disabled": 0, "bike_id": "3897284b62510f5d9f8aaa14a669f5fc", "lat": 38.892224666666664, "name": "3897284b62510f5d9f8aaa14a669f5fc", "fusion_lon": 0.0, "fusion_lat": 0.0, "type": "electric_scooter", "lon": -77.04372516666666}, {"rental_uris": {"android": "https://dc.lft.to/lastmile_qr_scan", "ios": "https://dc.lft.to/lastmile_qr_scan"}, "is_reserved": 0, "is_disabled": 0, "bike_id": "9f22e36d872186744af29d1ef25aa70e", "lat": 38.843154, "name": "9f22e36d872186744af29d1ef25aa70e", "fusion_lon": 0.0, "fusion_lat": 0.0, "type": "electric_scooter", "lon": -76.99931033333333}, {"rental_uris": {"android": "https://dc.lft.to/lastmile_qr_scan", "ios": "https://dc.lft.to/lastmile_qr_scan"}, "is_reserved": 0, "is_disabled": 0, "bike_id": "8875c68ea7a613fcfedd9e5a80a7e6c5", "lat": 38.912715166666665, "name": "8875c68ea7a613fcfedd9e5a80a7e6c5", "fusion_lon": 0.0, "fusion_lat": 0.0, "type": "electric_scooter", "lon": -77.02184783333334}, {"rental_uris": {"android": "https://dc.lft.to/lastmile_qr_scan", "ios": "https://dc.lft.to/lastmile_qr_scan"}, "is_reserved": 0, "is_disabled": 0, "bike_id": "b865dab7be4ad9f3a6a1390824139d50", "lat": 39.05633383333333, "name": "b865dab7be4ad9f3a6a1390824139d50", "fusion_lon": 0.0, "fusion_lat": 0.0, "type": "electric_bike", "lon": -77.12525416666666}, {"rental_uris": {"android": "https://dc.lft.to/lastmile_qr_scan", "ios": "https://dc.lft.to/lastmile_qr_scan"}, "is_reserved": 0, "is_disabled": 0, "bike_id": "77ded365ed656ca6c2389a4cee3d2dec", "lat": 38.902560333333334, "name": "77ded365ed656ca6c2389a4cee3d2dec", "fusion_lon": 0.0, "fusion_lat": 0.0, "type": "electric_scooter", "lon": -76.98089916666666}, {"rental_uris": {"android": "https://dc.lft.to/lastmile_qr_scan", "ios": "https://dc.lft.to/lastmile_qr_scan"}, "is_reserved": 0, "is_disabled": 0, "bike_id": "795229b71104d15624aa4bdeddc9ec1c", "lat": 38.91142083333333, "name": "795229b71104d15624aa4bdeddc9ec1c", "fusion_lon": 0.0, "fusion_lat": 0.0, "type": "electric_scooter", "lon": -77.03202766666666}, {"rental_uris": {"android": "https://dc.lft.to/lastmile_qr_scan", "ios": "https://dc.lft.to/lastmile_qr_scan"}, "is_reserved": 0, "is_disabled": 0, "bike_id": "04b2088dbe337fb65f4a7b60b78a3b64", "lat": 38.94185683333333, "name": "04b2088dbe337fb65f4a7b60b78a3b64", "fusion_lon": 0.0, "fusion_lat": 0.0, "type": "electric_scooter", "lon": -77.02753}, {"rental_uris": {"android": "https://dc.lft.to/lastmile_qr_scan", "ios": "https://dc.lft.to/lastmile_qr_scan"}, "is_reserved": 0, "is_disabled": 0, "bike_id": "ebec7a21502b08f4671140cf1d1c072a", "lat": 38.87182633333333, "name": "ebec7a21502b08f4671140cf1d1c072a", "fusion_lon": 0.0, "fusion_lat": 0.0, "type": "electric_scooter", "lon": -77.00603566666666}, {"rental_uris": {"android": "https://dc.lft.to/lastmile_qr_scan", "ios": "https://dc.lft.to/lastmile_qr_scan"}, "is_reserved": 0, "is_disabled": 0, "bike_id": "d00b56bde4e27b4a86db0ce74832696d", "lat": 38.93533983333333, "name": "d00b56bde4e27b4a86db0ce74832696d", "fusion_lon": 0.0, "fusion_lat": 0.0, "type": "electric_scooter", "lon": -77.03476116666667}, {"rental_uris": {"android": "https://dc.lft.to/lastmile_qr_scan", "ios": "https://dc.lft.to/lastmile_qr_scan"}, "is_reserved": 0, "is_disabled": 0, "bike_id": "9ebf6a0d314becf2a51b8f7bb43570c8", "lat": 38.940376666666666, "name": "9ebf6a0d314becf2a51b8f7bb43570c8", "fusion_lon": 0.0, "fusion_lat": 0.0, "type": "electric_scooter", "lon": -77.02899683333334}, {"rental_uris": {"android": "https://dc.lft.to/lastmile_qr_scan", "ios": "https://dc.lft.to/lastmile_qr_scan"}, "is_reserved": 0, "is_disabled": 0, "bike_id": "173a0b1e01bd14a1833534a25c5e4c45", "lat": 38.905346333333334, "name": "173a0b1e01bd14a1833534a25c5e4c45", "fusion_lon": 0.0, "fusion_lat": 0.0, "type": "electric_scooter", "lon": -77.048636}, {"rental_uris": {"android": "https://dc.lft.to/lastmile_qr_scan", "ios": "https://dc.lft.to/lastmile_qr_scan"}, "is_reserved": 0, "is_disabled": 0, "bike_id": "11208cd38cc1ef70992f7104676eb030", "lat": 38.89288916666667, "name": "11208cd38cc1ef70992f7104676eb030", "fusion_lon": 0.0, "fusion_lat": 0.0, "type": "electric_scooter", "lon": -77.04875133333333}, {"rental_uris": {"android": "https://dc.lft.to/lastmile_qr_scan", "ios": "https://dc.lft.to/lastmile_qr_scan"}, "is_reserved": 0, "is_disabled": 0, "bike_id": "8b86edc054ac9bb69fdfc4b7a845f437", "lat": 38.95762166666667, "name": "8b86edc054ac9bb69fdfc4b7a845f437", "fusion_lon": 0.0, "fusion_lat": 0.0, "type": "electric_scooter", "lon": -77.01493233333333}, {"rental_uris": {"android": "https://dc.lft.to/lastmile_qr_scan", "ios": "https://dc.lft.to/lastmile_qr_scan"}, "is_reserved": 0, "is_disabled": 0, "bike_id": "d2a7b333d9895916180619fa24752e74", "lat": 38.90027366666666, "name": "d2a7b333d9895916180619fa24752e74", "fusion_lon": 0.0, "fusion_lat": 0.0, "type": "electric_scooter", "lon": -76.99854233333333}, {"rental_uris": {"android": "https://dc.lft.to/lastmile_qr_scan", "ios": "https://dc.lft.to/lastmile_qr_scan"}, "is_reserved": 0, "is_disabled": 0, "bike_id": "550aee62c80252fe40098ce4598680b2", "lat": 38.86491633333333, "name": "550aee62c80252fe40098ce4598680b2", "fusion_lon": 0.0, "fusion_lat": 0.0, "type": "electric_bike", "lon": -77.05690733333333}, {"rental_uris": {"android": "https://dc.lft.to/lastmile_qr_scan", "ios": "https://dc.lft.to/lastmile_qr_scan"}, "is_reserved": 0, "is_disabled": 0, "bike_id": "70a4ceccb782da1094cbf797d2c63277", "lat": 38.8923755, "name": "70a4ceccb782da1094cbf797d2c63277", "fusion_lon": 0.0, "fusion_lat": 0.0, "type": "electric_scooter", "lon": -77.02384066666667}, {"rental_uris": {"android": "https://dc.lft.to/lastmile_qr_scan", "ios": "https://dc.lft.to/lastmile_qr_scan"}, "is_reserved": 0, "is_disabled": 0, "bike_id": "b4012a081b771552b55811a21ce76a63", "lat": 38.910809666666665, "name": "b4012a081b771552b55811a21ce76a63", "fusion_lon": 0.0, "fusion_lat": 0.0, "type": "electric_scooter", "lon": -77.03712916666667}, {"rental_uris": {"android": "https://dc.lft.to/lastmile_qr_scan", "ios": "https://dc.lft.to/lastmile_qr_scan"}, "is_reserved": 0, "is_disabled": 0, "bike_id": "b09115d9f34ffb8bdd1929c7c286552d", "lat": 38.89195383333333, "name": "b09115d9f34ffb8bdd1929c7c286552d", "fusion_lon": 0.0, "fusion_lat": 0.0, "type": "electric_scooter", "lon": -77.02235883333333}, {"rental_uris": {"android": "https://dc.lft.to/lastmile_qr_scan", "ios": "https://dc.lft.to/lastmile_qr_scan"}, "is_reserved": 0, "is_disabled": 0, "bike_id": "2bdaf6dc0a7f34ebc2c8b5af43dc8ecf", "lat": 38.929620166666666, "name": "2bdaf6dc0a7f34ebc2c8b5af43dc8ecf", "fusion_lon": 0.0, "fusion_lat": 0.0, "type": "electric_scooter", "lon": -77.03879016666667}, {"rental_uris": {"android": "https://dc.lft.to/lastmile_qr_scan", "ios": "https://dc.lft.to/lastmile_qr_scan"}, "is_reserved": 0, "is_disabled": 0, "bike_id": "e3f5a16697147aed7d95bc16fb0abcae", "lat": 38.90554383333333, "name": "e3f5a16697147aed7d95bc16fb0abcae", "fusion_lon": 0.0, "fusion_lat": 0.0, "type": "electric_scooter", "lon": -77.00589266666667}, {"rental_uris": {"android": "https://dc.lft.to/lastmile_qr_scan", "ios": "https://dc.lft.to/lastmile_qr_scan"}, "is_reserved": 0, "is_disabled": 0, "bike_id": "5198a9460deb2bd9934dbb65b326c94a", "lat": 38.941842, "name": "5198a9460deb2bd9934dbb65b326c94a", "fusion_lon": 0.0, "fusion_lat": 0.0, "type": "electric_scooter", "lon": -77.024924}, {"rental_uris": {"android": "https://dc.lft.to/lastmile_qr_scan", "ios": "https://dc.lft.to/lastmile_qr_scan"}, "is_reserved": 0, "is_disabled": 0, "bike_id": "fd225cf278ff331c4ba14c54caf9da67", "lat": 38.903374, "name": "fd225cf278ff331c4ba14c54caf9da67", "fusion_lon": 0.0, "fusion_lat": 0.0, "type": "electric_scooter", "lon": -76.975939}, {"rental_uris": {"android": "https://dc.lft.to/lastmile_qr_scan", "ios": "https://dc.lft.to/lastmile_qr_scan"}, "is_reserved": 0, "is_disabled": 0, "bike_id": "748bf9b63d12e9e6de9287a49c8fde8c", "lat": 38.911339166666664, "name": "748bf9b63d12e9e6de9287a49c8fde8c", "fusion_lon": 0.0, "fusion_lat": 0.0, "type": "electric_scooter", "lon": -77.02817383333333}, {"rental_uris": {"android": "https://dc.lft.to/lastmile_qr_scan", "ios": "https://dc.lft.to/lastmile_qr_scan"}, "is_reserved": 0, "is_disabled": 0, "bike_id": "de825045a6b97d513c4be7b1a34348ad", "lat": 38.9172925, "name": "de825045a6b97d513c4be7b1a34348ad", "fusion_lon": 0.0, "fusion_lat": 0.0, "type": "electric_scooter", "lon": -77.03189916666666}, {"rental_uris": {"android": "https://dc.lft.to/lastmile_qr_scan", "ios": "https://dc.lft.to/lastmile_qr_scan"}, "is_reserved": 0, "is_disabled": 0, "bike_id": "309245e4e20713e47fd0ed7136ac15ea", "lat": 38.90769616666667, "name": "309245e4e20713e47fd0ed7136ac15ea", "fusion_lon": 0.0, "fusion_lat": 0.0, "type": "electric_scooter", "lon": -77.01102383333334}, {"rental_uris": {"android": "https://dc.lft.to/lastmile_qr_scan", "ios": "https://dc.lft.to/lastmile_qr_scan"}, "is_reserved": 0, "is_disabled": 0, "bike_id": "7216f2ac7a819d06439b718871ca68aa", "lat": 38.968328, "name": "7216f2ac7a819d06439b718871ca68aa", "fusion_lon": 0.0, "fusion_lat": 0.0, "type": "electric_bike", "lon": -77.00051766666667}, {"rental_uris": {"android": "https://dc.lft.to/lastmile_qr_scan", "ios": "https://dc.lft.to/lastmile_qr_scan"}, "is_reserved": 0, "is_disabled": 0, "bike_id": "2bca7f0edc197ead8a121250f80fd358", "lat": 38.92287566666667, "name": "2bca7f0edc197ead8a121250f80fd358", "fusion_lon": 0.0, "fusion_lat": 0.0, "type": "electric_scooter", "lon": -77.03659033333334}, {"rental_uris": {"android": "https://dc.lft.to/lastmile_qr_scan", "ios": "https://dc.lft.to/lastmile_qr_scan"}, "is_reserved": 0, "is_disabled": 0, "bike_id": "e83a5d986df09930464aa4486a9abf0e", "lat": 38.91573533333333, "name": "e83a5d986df09930464aa4486a9abf0e", "fusion_lon": 0.0, "fusion_lat": 0.0, "type": "electric_scooter", "lon": -77.01997133333333}, {"rental_uris": {"android": "https://dc.lft.to/lastmile_qr_scan", "ios": "https://dc.lft.to/lastmile_qr_scan"}, "is_reserved": 0, "is_disabled": 0, "bike_id": "53587510e815eafc3fbef11d45a524e0", "lat": 38.92650016666666, "name": "53587510e815eafc3fbef11d45a524e0", "fusion_lon": 0.0, "fusion_lat": 0.0, "type": "electric_scooter", "lon": -76.976168}, {"rental_uris": {"android": "https://dc.lft.to/lastmile_qr_scan", "ios": "https://dc.lft.to/lastmile_qr_scan"}, "is_reserved": 0, "is_disabled": 0, "bike_id": "3a7d9315824361cdf37f57f5401736df", "lat": 38.91774083333333, "name": "3a7d9315824361cdf37f57f5401736df", "fusion_lon": 0.0, "fusion_lat": 0.0, "type": "electric_scooter", "lon": -77.01458483333333}, {"rental_uris": {"android": "https://dc.lft.to/lastmile_qr_scan", "ios": "https://dc.lft.to/lastmile_qr_scan"}, "is_reserved": 0, "is_disabled": 0, "bike_id": "af7949bc549c225b76ae5edb72b88448", "lat": 38.88014166666667, "name": "af7949bc549c225b76ae5edb72b88448", "fusion_lon": 0.0, "fusion_lat": 0.0, "type": "electric_scooter", "lon": -77.0173825}, {"rental_uris": {"android": "https://dc.lft.to/lastmile_qr_scan", "ios": "https://dc.lft.to/lastmile_qr_scan"}, "is_reserved": 0, "is_disabled": 0, "bike_id": "2a1bf14ac81593e7e32d841ece657f17", "lat": 38.911788, "name": "2a1bf14ac81593e7e32d841ece657f17", "fusion_lon": 0.0, "fusion_lat": 0.0, "type": "electric_bike", "lon": -77.08814233333334}, {"rental_uris": {"android": "https://dc.lft.to/lastmile_qr_scan", "ios": "https://dc.lft.to/lastmile_qr_scan"}, "is_reserved": 0, "is_disabled": 0, "bike_id": "18ef50ee2488c186bea04c84d1b15f86", "lat": 38.89367133333333, "name": "18ef50ee2488c186bea04c84d1b15f86", "fusion_lon": 0.0, "fusion_lat": 0.0, "type": "electric_scooter", "lon": -77.022777}, {"rental_uris": {"android": "https://dc.lft.to/lastmile_qr_scan", "ios": "https://dc.lft.to/lastmile_qr_scan"}, "is_reserved": 0, "is_disabled": 0, "bike_id": "e1423d193bfc5d948fcebae7f5f9454c", "lat": 38.960284, "name": "e1423d193bfc5d948fcebae7f5f9454c", "fusion_lon": 0.0, "fusion_lat": 0.0, "type": "electric_bike", "lon": -77.03317233333334}, {"rental_uris": {"android": "https://dc.lft.to/lastmile_qr_scan", "ios": "https://dc.lft.to/lastmile_qr_scan"}, "is_reserved": 0, "is_disabled": 0, "bike_id": "d7fb69fa4477903d4fff5f538c9082ee", "lat": 38.891009333333336, "name": "d7fb69fa4477903d4fff5f538c9082ee", "fusion_lon": 0.0, "fusion_lat": 0.0, "type": "electric_scooter", "lon": -76.952339}, {"rental_uris": {"android": "https://dc.lft.to/lastmile_qr_scan", "ios": "https://dc.lft.to/lastmile_qr_scan"}, "is_reserved": 0, "is_disabled": 0, "bike_id": "e8e99ec37ae79489c5f03b5fa21778c5", "lat": 38.91814733333333, "name": "e8e99ec37ae79489c5f03b5fa21778c5", "fusion_lon": 0.0, "fusion_lat": 0.0, "type": "electric_scooter", "lon": -77.03691866666666}, {"rental_uris": {"android": "https://dc.lft.to/lastmile_qr_scan", "ios": "https://dc.lft.to/lastmile_qr_scan"}, "is_reserved": 0, "is_disabled": 0, "bike_id": "8d0384aec663cb5eee8181b0d37bedbf", "lat": 38.844285166666666, "name": "8d0384aec663cb5eee8181b0d37bedbf", "fusion_lon": 0.0, "fusion_lat": 0.0, "type": "electric_scooter", "lon": -76.997804}, {"rental_uris": {"android": "https://dc.lft.to/lastmile_qr_scan", "ios": "https://dc.lft.to/lastmile_qr_scan"}, "is_reserved": 0, "is_disabled": 0, "bike_id": "b8388c45c7861cb32fbface9a62d7fc8", "lat": 38.8664615, "name": "b8388c45c7861cb32fbface9a62d7fc8", "fusion_lon": 0.0, "fusion_lat": 0.0, "type": "electric_bike", "lon": -76.98282}, {"rental_uris": {"android": "https://dc.lft.to/lastmile_qr_scan", "ios": "https://dc.lft.to/lastmile_qr_scan"}, "is_reserved": 0, "is_disabled": 0, "bike_id": "b9af1203269e22b7bb32392edbef1ce5", "lat": 38.944880833333336, "name": "b9af1203269e22b7bb32392edbef1ce5", "fusion_lon": 0.0, "fusion_lat": 0.0, "type": "electric_scooter", "lon": -77.00527216666667}, {"rental_uris": {"android": "https://dc.lft.to/lastmile_qr_scan", "ios": "https://dc.lft.to/lastmile_qr_scan"}, "is_reserved": 0, "is_disabled": 0, "bike_id": "6bb2d845a74fb4d1ab0a88122b5f6a7d", "lat": 38.894918, "name": "6bb2d845a74fb4d1ab0a88122b5f6a7d", "fusion_lon": 0.0, "fusion_lat": 0.0, "type": "electric_scooter", "lon": -76.99236833333333}, {"rental_uris": {"android": "https://dc.lft.to/lastmile_qr_scan", "ios": "https://dc.lft.to/lastmile_qr_scan"}, "is_reserved": 0, "is_disabled": 0, "bike_id": "af286b816729f68fa6a26c95b28af0be", "lat": 38.83400983333333, "name": "af286b816729f68fa6a26c95b28af0be", "fusion_lon": 0.0, "fusion_lat": 0.0, "type": "electric_bike", "lon": -76.9895355}, {"rental_uris": {"android": "https://dc.lft.to/lastmile_qr_scan", "ios": "https://dc.lft.to/lastmile_qr_scan"}, "is_reserved": 0, "is_disabled": 0, "bike_id": "06a5b480401f78c0576679a99104ee81", "lat": 38.903837833333334, "name": "06a5b480401f78c0576679a99104ee81", "fusion_lon": 0.0, "fusion_lat": 0.0, "type": "electric_scooter", "lon": -77.0483675}, {"rental_uris": {"android": "https://dc.lft.to/lastmile_qr_scan", "ios": "https://dc.lft.to/lastmile_qr_scan"}, "is_reserved": 0, "is_disabled": 0, "bike_id": "6a848a3619924d029f218450ec39a9b2", "lat": 38.891063333333335, "name": "6a848a3619924d029f218450ec39a9b2", "fusion_lon": 0.0, "fusion_lat": 0.0, "type": "electric_scooter", "lon": -76.99959216666667}, {"rental_uris": {"android": "https://dc.lft.to/lastmile_qr_scan", "ios": "https://dc.lft.to/lastmile_qr_scan"}, "is_reserved": 0, "is_disabled": 0, "bike_id": "5360f34073a83b485a571aa666d137e4", "lat": 38.89226383333333, "name": "5360f34073a83b485a571aa666d137e4", "fusion_lon": 0.0, "fusion_lat": 0.0, "type": "electric_scooter", "lon": -77.02779183333334}, {"rental_uris": {"android": "https://dc.lft.to/lastmile_qr_scan", "ios": "https://dc.lft.to/lastmile_qr_scan"}, "is_reserved": 0, "is_disabled": 0, "bike_id": "f3e7adc2f3547ac7b823aca94f4bf1ba", "lat": 38.89503216666667, "name": "f3e7adc2f3547ac7b823aca94f4bf1ba", "fusion_lon": 0.0, "fusion_lat": 0.0, "type": "electric_bike", "lon": -76.92202766666666}, {"rental_uris": {"android": "https://dc.lft.to/lastmile_qr_scan", "ios": "https://dc.lft.to/lastmile_qr_scan"}, "is_reserved": 0, "is_disabled": 0, "bike_id": "ce8b01282d33f4345d5acc4c04cdffae", "lat": 38.91802783333333, "name": "ce8b01282d33f4345d5acc4c04cdffae", "fusion_lon": 0.0, "fusion_lat": 0.0, "type": "electric_scooter", "lon": -77.03443083333333}, {"rental_uris": {"android": "https://dc.lft.to/lastmile_qr_scan", "ios": "https://dc.lft.to/lastmile_qr_scan"}, "is_reserved": 0, "is_disabled": 0, "bike_id": "3a0293404ba907a9b1063d2bc25d5889", "lat": 38.884304166666666, "name": "3a0293404ba907a9b1063d2bc25d5889", "fusion_lon": 0.0, "fusion_lat": 0.0, "type": "electric_scooter", "lon": -76.95750516666666}, {"rental_uris": {"android": "https://dc.lft.to/lastmile_qr_scan", "ios": "https://dc.lft.to/lastmile_qr_scan"}, "is_reserved": 0, "is_disabled": 0, "bike_id": "dfa03ee068846a6b7b0a84b35d7d789c", "lat": 38.911887, "name": "dfa03ee068846a6b7b0a84b35d7d789c", "fusion_lon": 0.0, "fusion_lat": 0.0, "type": "electric_scooter", "lon": -77.0383135}, {"rental_uris": {"android": "https://dc.lft.to/lastmile_qr_scan", "ios": "https://dc.lft.to/lastmile_qr_scan"}, "is_reserved": 0, "is_disabled": 0, "bike_id": "95369e1ef65fd7689c6f622ce43b2e33", "lat": 38.9011315, "name": "95369e1ef65fd7689c6f622ce43b2e33", "fusion_lon": 0.0, "fusion_lat": 0.0, "type": "electric_scooter", "lon": -77.04484066666667}, {"rental_uris": {"android": "https://dc.lft.to/lastmile_qr_scan", "ios": "https://dc.lft.to/lastmile_qr_scan"}, "is_reserved": 0, "is_disabled": 0, "bike_id": "11d2d8863451838bab144cebf8a51306", "lat": 38.839415833333334, "name": "11d2d8863451838bab144cebf8a51306", "fusion_lon": 0.0, "fusion_lat": 0.0, "type": "electric_bike", "lon": -77.079046}, {"rental_uris": {"android": "https://dc.lft.to/lastmile_qr_scan", "ios": "https://dc.lft.to/lastmile_qr_scan"}, "is_reserved": 0, "is_disabled": 0, "bike_id": "f9408e35b2bcbe0d23aa50fdefb8fc67", "lat": 38.9366385, "name": "f9408e35b2bcbe0d23aa50fdefb8fc67", "fusion_lon": 0.0, "fusion_lat": 0.0, "type": "electric_scooter", "lon": -77.0365325}, {"rental_uris": {"android": "https://dc.lft.to/lastmile_qr_scan", "ios": "https://dc.lft.to/lastmile_qr_scan"}, "is_reserved": 0, "is_disabled": 0, "bike_id": "7fa615d9787a1b5462c9f2c8ea08b58b", "lat": 38.8998105, "name": "7fa615d9787a1b5462c9f2c8ea08b58b", "fusion_lon": 0.0, "fusion_lat": 0.0, "type": "electric_scooter", "lon": -77.029403}, {"rental_uris": {"android": "https://dc.lft.to/lastmile_qr_scan", "ios": "https://dc.lft.to/lastmile_qr_scan"}, "is_reserved": 0, "is_disabled": 0, "bike_id": "1d1aa56a34324a933d242d67f1a3db76", "lat": 38.93484383333333, "name": "1d1aa56a34324a933d242d67f1a3db76", "fusion_lon": 0.0, "fusion_lat": 0.0, "type": "electric_scooter", "lon": -77.03608933333334}, {"rental_uris": {"android": "https://dc.lft.to/lastmile_qr_scan", "ios": "https://dc.lft.to/lastmile_qr_scan"}, "is_reserved": 0, "is_disabled": 0, "bike_id": "f367d95d36149c9b07c46b1cbd70ba8a", "lat": 38.886983666666666, "name": "f367d95d36149c9b07c46b1cbd70ba8a", "fusion_lon": 0.0, "fusion_lat": 0.0, "type": "electric_scooter", "lon": -76.99684033333334}, {"rental_uris": {"android": "https://dc.lft.to/lastmile_qr_scan", "ios": "https://dc.lft.to/lastmile_qr_scan"}, "is_reserved": 0, "is_disabled": 0, "bike_id": "9732d496029f5dc692abbf62bdea6c8e", "lat": 38.917121, "name": "9732d496029f5dc692abbf62bdea6c8e", "fusion_lon": 0.0, "fusion_lat": 0.0, "type": "electric_scooter", "lon": -77.03345616666667}, {"rental_uris": {"android": "https://dc.lft.to/lastmile_qr_scan", "ios": "https://dc.lft.to/lastmile_qr_scan"}, "is_reserved": 0, "is_disabled": 0, "bike_id": "0e3ed698bc5bf2c0cafc0242846ece8d", "lat": 38.9176585, "name": "0e3ed698bc5bf2c0cafc0242846ece8d", "fusion_lon": 0.0, "fusion_lat": 0.0, "type": "electric_scooter", "lon": -77.02342316666666}, {"rental_uris": {"android": "https://dc.lft.to/lastmile_qr_scan", "ios": "https://dc.lft.to/lastmile_qr_scan"}, "is_reserved": 0, "is_disabled": 0, "bike_id": "1e458036b01860fcaf6545caa7a48291", "lat": 38.919182666666664, "name": "1e458036b01860fcaf6545caa7a48291", "fusion_lon": 0.0, "fusion_lat": 0.0, "type": "electric_scooter", "lon": -77.02620016666667}, {"rental_uris": {"android": "https://dc.lft.to/lastmile_qr_scan", "ios": "https://dc.lft.to/lastmile_qr_scan"}, "is_reserved": 0, "is_disabled": 0, "bike_id": "5c2e9da3c582da5d4da57210387690c2", "lat": 38.929795, "name": "5c2e9da3c582da5d4da57210387690c2", "fusion_lon": 0.0, "fusion_lat": 0.0, "type": "electric_scooter", "lon": -77.01449533333333}, {"rental_uris": {"android": "https://dc.lft.to/lastmile_qr_scan", "ios": "https://dc.lft.to/lastmile_qr_scan"}, "is_reserved": 0, "is_disabled": 0, "bike_id": "bb7bd6ba2362dca42e5df514fe8baad8", "lat": 38.914785, "name": "bb7bd6ba2362dca42e5df514fe8baad8", "fusion_lon": 0.0, "fusion_lat": 0.0, "type": "electric_scooter", "lon": -77.02174716666667}, {"rental_uris": {"android": "https://dc.lft.to/lastmile_qr_scan", "ios": "https://dc.lft.to/lastmile_qr_scan"}, "is_reserved": 0, "is_disabled": 0, "bike_id": "6e040b9f4f644da110c15d5376e6de2e", "lat": 38.83559, "name": "6e040b9f4f644da110c15d5376e6de2e", "fusion_lon": 0.0, "fusion_lat": 0.0, "type": "electric_scooter", "lon": -76.9949645}, {"rental_uris": {"android": "https://dc.lft.to/lastmile_qr_scan", "ios": "https://dc.lft.to/lastmile_qr_scan"}, "is_reserved": 0, "is_disabled": 0, "bike_id": "6fe63bf0dea634024dd6c0285bcd2e9b", "lat": 38.887989166666664, "name": "6fe63bf0dea634024dd6c0285bcd2e9b", "fusion_lon": 0.0, "fusion_lat": 0.0, "type": "electric_scooter", "lon": -76.9336065}, {"rental_uris": {"android": "https://dc.lft.to/lastmile_qr_scan", "ios": "https://dc.lft.to/lastmile_qr_scan"}, "is_reserved": 0, "is_disabled": 0, "bike_id": "940d9204885463881114ae32d92543a1", "lat": 38.90967416666667, "name": "940d9204885463881114ae32d92543a1", "fusion_lon": 0.0, "fusion_lat": 0.0, "type": "electric_scooter", "lon": -77.03223283333334}, {"rental_uris": {"android": "https://dc.lft.to/lastmile_qr_scan", "ios": "https://dc.lft.to/lastmile_qr_scan"}, "is_reserved": 0, "is_disabled": 0, "bike_id": "741a1341011d57b362c1c53a8d2834bf", "lat": 38.9224225, "name": "741a1341011d57b362c1c53a8d2834bf", "fusion_lon": 0.0, "fusion_lat": 0.0, "type": "electric_scooter", "lon": -77.0308885}, {"rental_uris": {"android": "https://dc.lft.to/lastmile_qr_scan", "ios": "https://dc.lft.to/lastmile_qr_scan"}, "is_reserved": 0, "is_disabled": 0, "bike_id": "aa268eb8c9cf03f11c1bee95ad9ea77a", "lat": 38.89223633333334, "name": "aa268eb8c9cf03f11c1bee95ad9ea77a", "fusion_lon": 0.0, "fusion_lat": 0.0, "type": "electric_scooter", "lon": -77.04689883333333}, {"rental_uris": {"android": "https://dc.lft.to/lastmile_qr_scan", "ios": "https://dc.lft.to/lastmile_qr_scan"}, "is_reserved": 0, "is_disabled": 0, "bike_id": "e547e638362ab9ac0596c446d389cb0e", "lat": 38.930504166666665, "name": "e547e638362ab9ac0596c446d389cb0e", "fusion_lon": 0.0, "fusion_lat": 0.0, "type": "electric_scooter", "lon": -77.037906}, {"rental_uris": {"android": "https://dc.lft.to/lastmile_qr_scan", "ios": "https://dc.lft.to/lastmile_qr_scan"}, "is_reserved": 0, "is_disabled": 0, "bike_id": "24c7be6d2c6d3554a694a0e3ec4036a6", "lat": 38.92819466666667, "name": "24c7be6d2c6d3554a694a0e3ec4036a6", "fusion_lon": 0.0, "fusion_lat": 0.0, "type": "electric_bike", "lon": -77.03251516666667}, {"rental_uris": {"android": "https://dc.lft.to/lastmile_qr_scan", "ios": "https://dc.lft.to/lastmile_qr_scan"}, "is_reserved": 0, "is_disabled": 0, "bike_id": "950be8dd0afedd44b6f73a39dcc3d699", "lat": 38.9172485, "name": "950be8dd0afedd44b6f73a39dcc3d699", "fusion_lon": 0.0, "fusion_lat": 0.0, "type": "electric_scooter", "lon": -77.03616516666666}, {"rental_uris": {"android": "https://dc.lft.to/lastmile_qr_scan", "ios": "https://dc.lft.to/lastmile_qr_scan"}, "is_reserved": 0, "is_disabled": 0, "bike_id": "de1e86be5f907908a769f19bc59bb264", "lat": 38.92383, "name": "de1e86be5f907908a769f19bc59bb264", "fusion_lon": 0.0, "fusion_lat": 0.0, "type": "electric_scooter", "lon": -77.0354825}, {"rental_uris": {"android": "https://dc.lft.to/lastmile_qr_scan", "ios": "https://dc.lft.to/lastmile_qr_scan"}, "is_reserved": 0, "is_disabled": 0, "bike_id": "c80595f0037781cb4b8c90b16cfbec8f", "lat": 38.92892783333333, "name": "c80595f0037781cb4b8c90b16cfbec8f", "fusion_lon": 0.0, "fusion_lat": 0.0, "type": "electric_scooter", "lon": -77.03317533333333}, {"rental_uris": {"android": "https://dc.lft.to/lastmile_qr_scan", "ios": "https://dc.lft.to/lastmile_qr_scan"}, "is_reserved": 0, "is_disabled": 0, "bike_id": "f55293511131dc673ad87ad86244c4dc", "lat": 38.901055666666664, "name": "f55293511131dc673ad87ad86244c4dc", "fusion_lon": 0.0, "fusion_lat": 0.0, "type": "electric_scooter", "lon": -77.03168266666667}, {"rental_uris": {"android": "https://dc.lft.to/lastmile_qr_scan", "ios": "https://dc.lft.to/lastmile_qr_scan"}, "is_reserved": 0, "is_disabled": 0, "bike_id": "95e61a05a4c2527aa0003e2c25fbf441", "lat": 38.92339583333333, "name": "95e61a05a4c2527aa0003e2c25fbf441", "fusion_lon": 0.0, "fusion_lat": 0.0, "type": "electric_scooter", "lon": -77.03499216666667}, {"rental_uris": {"android": "https://dc.lft.to/lastmile_qr_scan", "ios": "https://dc.lft.to/lastmile_qr_scan"}, "is_reserved": 0, "is_disabled": 0, "bike_id": "b009dc560255623feed0c237d10e3d71", "lat": 38.907083666666665, "name": "b009dc560255623feed0c237d10e3d71", "fusion_lon": 0.0, "fusion_lat": 0.0, "type": "electric_scooter", "lon": -77.02378633333333}, {"rental_uris": {"android": "https://dc.lft.to/lastmile_qr_scan", "ios": "https://dc.lft.to/lastmile_qr_scan"}, "is_reserved": 0, "is_disabled": 0, "bike_id": "8ae0ea09417340d537aa0721f443b0b2", "lat": 38.939182833333334, "name": "8ae0ea09417340d537aa0721f443b0b2", "fusion_lon": 0.0, "fusion_lat": 0.0, "type": "electric_scooter", "lon": -77.06052666666666}, {"rental_uris": {"android": "https://dc.lft.to/lastmile_qr_scan", "ios": "https://dc.lft.to/lastmile_qr_scan"}, "is_reserved": 0, "is_disabled": 0, "bike_id": "d6c20062fde59faaead0a31392a6228f", "lat": 38.880495833333335, "name": "d6c20062fde59faaead0a31392a6228f", "fusion_lon": 0.0, "fusion_lat": 0.0, "type": "electric_scooter", "lon": -77.030647}, {"rental_uris": {"android": "https://dc.lft.to/lastmile_qr_scan", "ios": "https://dc.lft.to/lastmile_qr_scan"}, "is_reserved": 0, "is_disabled": 0, "bike_id": "ccf7855638b27e96aaa8af25bfbb9b01", "lat": 38.89616816666667, "name": "ccf7855638b27e96aaa8af25bfbb9b01", "fusion_lon": 0.0, "fusion_lat": 0.0, "type": "electric_scooter", "lon": -77.031752}, {"rental_uris": {"android": "https://dc.lft.to/lastmile_qr_scan", "ios": "https://dc.lft.to/lastmile_qr_scan"}, "is_reserved": 0, "is_disabled": 0, "bike_id": "dd2239b240fbf8b82fdc5645f3e09acb", "lat": 38.92022866666667, "name": "dd2239b240fbf8b82fdc5645f3e09acb", "fusion_lon": 0.0, "fusion_lat": 0.0, "type": "electric_scooter", "lon": -77.02192216666667}, {"rental_uris": {"android": "https://dc.lft.to/lastmile_qr_scan", "ios": "https://dc.lft.to/lastmile_qr_scan"}, "is_reserved": 0, "is_disabled": 0, "bike_id": "e5cef2ff264fd2927cd9e00d2e3d116c", "lat": 38.92316116666667, "name": "e5cef2ff264fd2927cd9e00d2e3d116c", "fusion_lon": 0.0, "fusion_lat": 0.0, "type": "electric_scooter", "lon": -77.03405633333334}, {"rental_uris": {"android": "https://dc.lft.to/lastmile_qr_scan", "ios": "https://dc.lft.to/lastmile_qr_scan"}, "is_reserved": 0, "is_disabled": 0, "bike_id": "318ac6cb4c59e6f3115df65c212a0192", "lat": 38.924823833333335, "name": "318ac6cb4c59e6f3115df65c212a0192", "fusion_lon": 0.0, "fusion_lat": 0.0, "type": "electric_scooter", "lon": -77.02682483333334}, {"rental_uris": {"android": "https://dc.lft.to/lastmile_qr_scan", "ios": "https://dc.lft.to/lastmile_qr_scan"}, "is_reserved": 0, "is_disabled": 0, "bike_id": "d89aa6f7a991f0413f87b683944e0467", "lat": 38.900730833333334, "name": "d89aa6f7a991f0413f87b683944e0467", "fusion_lon": 0.0, "fusion_lat": 0.0, "type": "electric_scooter", "lon": -77.02716783333334}, {"rental_uris": {"android": "https://dc.lft.to/lastmile_qr_scan", "ios": "https://dc.lft.to/lastmile_qr_scan"}, "is_reserved": 0, "is_disabled": 0, "bike_id": "a2426f50368aefea7334e5a80ab94c8a", "lat": 38.897201333333335, "name": "a2426f50368aefea7334e5a80ab94c8a", "fusion_lon": 0.0, "fusion_lat": 0.0, "type": "electric_scooter", "lon": -77.02154083333333}, {"rental_uris": {"android": "https://dc.lft.to/lastmile_qr_scan", "ios": "https://dc.lft.to/lastmile_qr_scan"}, "is_reserved": 0, "is_disabled": 0, "bike_id": "56c6fdfee70f857a4a402229cf5f78be", "lat": 38.9388025, "name": "56c6fdfee70f857a4a402229cf5f78be", "fusion_lon": 0.0, "fusion_lat": 0.0, "type": "electric_scooter", "lon": -77.024825}, {"rental_uris": {"android": "https://dc.lft.to/lastmile_qr_scan", "ios": "https://dc.lft.to/lastmile_qr_scan"}, "is_reserved": 0, "is_disabled": 0, "bike_id": "09df691d95ef3b3e2ebfa2e80267aaba", "lat": 38.90981016666667, "name": "09df691d95ef3b3e2ebfa2e80267aaba", "fusion_lon": 0.0, "fusion_lat": 0.0, "type": "electric_scooter", "lon": -77.0053155}, {"rental_uris": {"android": "https://dc.lft.to/lastmile_qr_scan", "ios": "https://dc.lft.to/lastmile_qr_scan"}, "is_reserved": 0, "is_disabled": 0, "bike_id": "1efa23ec637d68c3261cabc33dd450df", "lat": 38.900210666666666, "name": "1efa23ec637d68c3261cabc33dd450df", "fusion_lon": 0.0, "fusion_lat": 0.0, "type": "electric_scooter", "lon": -77.00205183333334}, {"rental_uris": {"android": "https://dc.lft.to/lastmile_qr_scan", "ios": "https://dc.lft.to/lastmile_qr_scan"}, "is_reserved": 0, "is_disabled": 0, "bike_id": "7a125387716a51b1e099bbae0eed2310", "lat": 38.89768766666667, "name": "7a125387716a51b1e099bbae0eed2310", "fusion_lon": 0.0, "fusion_lat": 0.0, "type": "electric_scooter", "lon": -77.054385}, {"rental_uris": {"android": "https://dc.lft.to/lastmile_qr_scan", "ios": "https://dc.lft.to/lastmile_qr_scan"}, "is_reserved": 0, "is_disabled": 0, "bike_id": "a66d3255fa315ac44d92db55b6f3de79", "lat": 38.8974255, "name": "a66d3255fa315ac44d92db55b6f3de79", "fusion_lon": 0.0, "fusion_lat": 0.0, "type": "electric_scooter", "lon": -77.02692666666667}, {"rental_uris": {"android": "https://dc.lft.to/lastmile_qr_scan", "ios": "https://dc.lft.to/lastmile_qr_scan"}, "is_reserved": 0, "is_disabled": 0, "bike_id": "969fb0de127575c957a589d59a927fbe", "lat": 38.885227666666665, "name": "969fb0de127575c957a589d59a927fbe", "fusion_lon": 0.0, "fusion_lat": 0.0, "type": "electric_scooter", "lon": -76.97713616666667}, {"rental_uris": {"android": "https://dc.lft.to/lastmile_qr_scan", "ios": "https://dc.lft.to/lastmile_qr_scan"}, "is_reserved": 0, "is_disabled": 0, "bike_id": "57b733df9da004c30419ee497f27b429", "lat": 38.874647, "name": "57b733df9da004c30419ee497f27b429", "fusion_lon": 0.0, "fusion_lat": 0.0, "type": "electric_scooter", "lon": -77.01582933333333}, {"rental_uris": {"android": "https://dc.lft.to/lastmile_qr_scan", "ios": "https://dc.lft.to/lastmile_qr_scan"}, "is_reserved": 0, "is_disabled": 0, "bike_id": "46904cbc2954fdf8e56ba9f6943896e4", "lat": 38.866874833333334, "name": "46904cbc2954fdf8e56ba9f6943896e4", "fusion_lon": 0.0, "fusion_lat": 0.0, "type": "electric_scooter", "lon": -76.985299}, {"rental_uris": {"android": "https://dc.lft.to/lastmile_qr_scan", "ios": "https://dc.lft.to/lastmile_qr_scan"}, "is_reserved": 0, "is_disabled": 0, "bike_id": "bcc4657628dbc3f987bdcb0b83a6a6d5", "lat": 38.9155945, "name": "bcc4657628dbc3f987bdcb0b83a6a6d5", "fusion_lon": 0.0, "fusion_lat": 0.0, "type": "electric_scooter", "lon": -77.038612}, {"rental_uris": {"android": "https://dc.lft.to/lastmile_qr_scan", "ios": "https://dc.lft.to/lastmile_qr_scan"}, "is_reserved": 0, "is_disabled": 0, "bike_id": "fcd6e2e3345da0705277322b3d0032aa", "lat": 38.896195, "name": "fcd6e2e3345da0705277322b3d0032aa", "fusion_lon": 0.0, "fusion_lat": 0.0, "type": "electric_bike", "lon": -76.90744716666667}, {"rental_uris": {"android": "https://dc.lft.to/lastmile_qr_scan", "ios": "https://dc.lft.to/lastmile_qr_scan"}, "is_reserved": 0, "is_disabled": 0, "bike_id": "e5888980e9a1c918b6d48f571f7504b9", "lat": 38.911814, "name": "e5888980e9a1c918b6d48f571f7504b9", "fusion_lon": 0.0, "fusion_lat": 0.0, "type": "electric_scooter", "lon": -77.04171766666667}, {"rental_uris": {"android": "https://dc.lft.to/lastmile_qr_scan", "ios": "https://dc.lft.to/lastmile_qr_scan"}, "is_reserved": 0, "is_disabled": 0, "bike_id": "91605dcefead6c944e14e358257ac6a9", "lat": 38.91702566666667, "name": "91605dcefead6c944e14e358257ac6a9", "fusion_lon": 0.0, "fusion_lat": 0.0, "type": "electric_scooter", "lon": -77.00963283333333}, {"rental_uris": {"android": "https://dc.lft.to/lastmile_qr_scan", "ios": "https://dc.lft.to/lastmile_qr_scan"}, "is_reserved": 0, "is_disabled": 0, "bike_id": "4395e9cdce5535e8f1ee475c2bfe4a17", "lat": 38.89609216666667, "name": "4395e9cdce5535e8f1ee475c2bfe4a17", "fusion_lon": 0.0, "fusion_lat": 0.0, "type": "electric_scooter", "lon": -76.99270116666666}, {"rental_uris": {"android": "https://dc.lft.to/lastmile_qr_scan", "ios": "https://dc.lft.to/lastmile_qr_scan"}, "is_reserved": 0, "is_disabled": 0, "bike_id": "6ab6fa2afefdf191b9ebcdd1effb4aca", "lat": 38.92811416666667, "name": "6ab6fa2afefdf191b9ebcdd1effb4aca", "fusion_lon": 0.0, "fusion_lat": 0.0, "type": "electric_scooter", "lon": -77.02669383333334}, {"rental_uris": {"android": "https://dc.lft.to/lastmile_qr_scan", "ios": "https://dc.lft.to/lastmile_qr_scan"}, "is_reserved": 0, "is_disabled": 0, "bike_id": "c36f3ad4514eea99741fe7aaab508e3f", "lat": 38.89564816666667, "name": "c36f3ad4514eea99741fe7aaab508e3f", "fusion_lon": 0.0, "fusion_lat": 0.0, "type": "electric_scooter", "lon": -77.0467335}, {"rental_uris": {"android": "https://dc.lft.to/lastmile_qr_scan", "ios": "https://dc.lft.to/lastmile_qr_scan"}, "is_reserved": 0, "is_disabled": 0, "bike_id": "eed2e40dae92d9dc67c36eda0e0b44f3", "lat": 38.92475866666667, "name": "eed2e40dae92d9dc67c36eda0e0b44f3", "fusion_lon": 0.0, "fusion_lat": 0.0, "type": "electric_scooter", "lon": -77.021999}, {"rental_uris": {"android": "https://dc.lft.to/lastmile_qr_scan", "ios": "https://dc.lft.to/lastmile_qr_scan"}, "is_reserved": 0, "is_disabled": 0, "bike_id": "651e0b13aaba451b09840e90e69adb8a", "lat": 38.9042975, "name": "651e0b13aaba451b09840e90e69adb8a", "fusion_lon": 0.0, "fusion_lat": 0.0, "type": "electric_bike", "lon": -77.03166}, {"rental_uris": {"android": "https://dc.lft.to/lastmile_qr_scan", "ios": "https://dc.lft.to/lastmile_qr_scan"}, "is_reserved": 0, "is_disabled": 0, "bike_id": "9165606f9e5f92b010c0cef179f3797e", "lat": 38.91234016666667, "name": "9165606f9e5f92b010c0cef179f3797e", "fusion_lon": 0.0, "fusion_lat": 0.0, "type": "electric_scooter", "lon": -77.0448205}, {"rental_uris": {"android": "https://dc.lft.to/lastmile_qr_scan", "ios": "https://dc.lft.to/lastmile_qr_scan"}, "is_reserved": 0, "is_disabled": 0, "bike_id": "f59c936f2edca1d8d1f4dc63436f7dc1", "lat": 38.897363666666664, "name": "f59c936f2edca1d8d1f4dc63436f7dc1", "fusion_lon": 0.0, "fusion_lat": 0.0, "type": "electric_scooter", "lon": -76.94724583333333}, {"rental_uris": {"android": "https://dc.lft.to/lastmile_qr_scan", "ios": "https://dc.lft.to/lastmile_qr_scan"}, "is_reserved": 0, "is_disabled": 0, "bike_id": "df180abdbed6ec89992e09026c13febc", "lat": 38.84426666666667, "name": "df180abdbed6ec89992e09026c13febc", "fusion_lon": 0.0, "fusion_lat": 0.0, "type": "electric_scooter", "lon": -76.9978365}, {"rental_uris": {"android": "https://dc.lft.to/lastmile_qr_scan", "ios": "https://dc.lft.to/lastmile_qr_scan"}, "is_reserved": 0, "is_disabled": 0, "bike_id": "efb445a46ebfba1bc4cf8cab167ef1c0", "lat": 38.936060499999996, "name": "efb445a46ebfba1bc4cf8cab167ef1c0", "fusion_lon": 0.0, "fusion_lat": 0.0, "type": "electric_scooter", "lon": -77.02333}, {"rental_uris": {"android": "https://dc.lft.to/lastmile_qr_scan", "ios": "https://dc.lft.to/lastmile_qr_scan"}, "is_reserved": 0, "is_disabled": 0, "bike_id": "cc4880b42bf357e2f4aee46264563de6", "lat": 38.93869816666667, "name": "cc4880b42bf357e2f4aee46264563de6", "fusion_lon": 0.0, "fusion_lat": 0.0, "type": "electric_scooter", "lon": -77.0309155}, {"rental_uris": {"android": "https://dc.lft.to/lastmile_qr_scan", "ios": "https://dc.lft.to/lastmile_qr_scan"}, "is_reserved": 0, "is_disabled": 0, "bike_id": "d31c0a536969f8a0087c76117b54fe7a", "lat": 38.9967235, "name": "d31c0a536969f8a0087c76117b54fe7a", "fusion_lon": 0.0, "fusion_lat": 0.0, "type": "electric_bike", "lon": -77.0379715}, {"rental_uris": {"android": "https://dc.lft.to/lastmile_qr_scan", "ios": "https://dc.lft.to/lastmile_qr_scan"}, "is_reserved": 0, "is_disabled": 0, "bike_id": "b04a9870586630db249c9f14989bf09c", "lat": 38.9324175, "name": "b04a9870586630db249c9f14989bf09c", "fusion_lon": 0.0, "fusion_lat": 0.0, "type": "electric_bike", "lon": -77.02983633333334}, {"rental_uris": {"android": "https://dc.lft.to/lastmile_qr_scan", "ios": "https://dc.lft.to/lastmile_qr_scan"}, "is_reserved": 0, "is_disabled": 0, "bike_id": "696cbf62526b6cf900e1d9b07275674f", "lat": 38.911091, "name": "696cbf62526b6cf900e1d9b07275674f", "fusion_lon": 0.0, "fusion_lat": 0.0, "type": "electric_scooter", "lon": -77.04670316666666}, {"rental_uris": {"android": "https://dc.lft.to/lastmile_qr_scan", "ios": "https://dc.lft.to/lastmile_qr_scan"}, "is_reserved": 0, "is_disabled": 0, "bike_id": "523bcf7c38797695521829a2bd7a1aad", "lat": 38.932627333333336, "name": "523bcf7c38797695521829a2bd7a1aad", "fusion_lon": 0.0, "fusion_lat": 0.0, "type": "electric_scooter", "lon": -77.02096516666667}, {"rental_uris": {"android": "https://dc.lft.to/lastmile_qr_scan", "ios": "https://dc.lft.to/lastmile_qr_scan"}, "is_reserved": 0, "is_disabled": 0, "bike_id": "ccd7659b755dbdb70ae42369a16e9ab0", "lat": 38.92153316666667, "name": "ccd7659b755dbdb70ae42369a16e9ab0", "fusion_lon": 0.0, "fusion_lat": 0.0, "type": "electric_scooter", "lon": -77.03507483333334}, {"rental_uris": {"android": "https://dc.lft.to/lastmile_qr_scan", "ios": "https://dc.lft.to/lastmile_qr_scan"}, "is_reserved": 0, "is_disabled": 0, "bike_id": "044f502d13ddad796407cb50a2ceed34", "lat": 38.8793955, "name": "044f502d13ddad796407cb50a2ceed34", "fusion_lon": 0.0, "fusion_lat": 0.0, "type": "electric_scooter", "lon": -77.0146345}, {"rental_uris": {"android": "https://dc.lft.to/lastmile_qr_scan", "ios": "https://dc.lft.to/lastmile_qr_scan"}, "is_reserved": 0, "is_disabled": 0, "bike_id": "a43dc9c0587756d9880c710bb5731d05", "lat": 38.94298033333333, "name": "a43dc9c0587756d9880c710bb5731d05", "fusion_lon": 0.0, "fusion_lat": 0.0, "type": "electric_scooter", "lon": -77.02172833333333}, {"rental_uris": {"android": "https://dc.lft.to/lastmile_qr_scan", "ios": "https://dc.lft.to/lastmile_qr_scan"}, "is_reserved": 0, "is_disabled": 0, "bike_id": "d2908002dd85074cc13d8ad495a92ca4", "lat": 38.9274755, "name": "d2908002dd85074cc13d8ad495a92ca4", "fusion_lon": 0.0, "fusion_lat": 0.0, "type": "electric_scooter", "lon": -77.03639783333334}, {"rental_uris": {"android": "https://dc.lft.to/lastmile_qr_scan", "ios": "https://dc.lft.to/lastmile_qr_scan"}, "is_reserved": 0, "is_disabled": 0, "bike_id": "b4b4afb9467778fc45ede15acdc759ee", "lat": 38.931033, "name": "b4b4afb9467778fc45ede15acdc759ee", "fusion_lon": 0.0, "fusion_lat": 0.0, "type": "electric_scooter", "lon": -77.02666533333333}, {"rental_uris": {"android": "https://dc.lft.to/lastmile_qr_scan", "ios": "https://dc.lft.to/lastmile_qr_scan"}, "is_reserved": 0, "is_disabled": 0, "bike_id": "4528129b2ca854ae58d9dd85bfecb1f8", "lat": 38.90483616666667, "name": "4528129b2ca854ae58d9dd85bfecb1f8", "fusion_lon": 0.0, "fusion_lat": 0.0, "type": "electric_scooter", "lon": -77.02578716666666}, {"rental_uris": {"android": "https://dc.lft.to/lastmile_qr_scan", "ios": "https://dc.lft.to/lastmile_qr_scan"}, "is_reserved": 0, "is_disabled": 0, "bike_id": "77823e363b37e5561ab21226630680c3", "lat": 38.9206305, "name": "77823e363b37e5561ab21226630680c3", "fusion_lon": 0.0, "fusion_lat": 0.0, "type": "electric_scooter", "lon": -77.04620966666667}, {"rental_uris": {"android": "https://dc.lft.to/lastmile_qr_scan", "ios": "https://dc.lft.to/lastmile_qr_scan"}, "is_reserved": 0, "is_disabled": 0, "bike_id": "8b95fb20650b807765c00d3c3b8d0920", "lat": 38.90492966666667, "name": "8b95fb20650b807765c00d3c3b8d0920", "fusion_lon": 0.0, "fusion_lat": 0.0, "type": "electric_scooter", "lon": -76.99830683333333}, {"rental_uris": {"android": "https://dc.lft.to/lastmile_qr_scan", "ios": "https://dc.lft.to/lastmile_qr_scan"}, "is_reserved": 0, "is_disabled": 0, "bike_id": "75f64bc71cf03727a1a9631faa931534", "lat": 38.904103166666665, "name": "75f64bc71cf03727a1a9631faa931534", "fusion_lon": 0.0, "fusion_lat": 0.0, "type": "electric_scooter", "lon": -77.06523633333333}, {"rental_uris": {"android": "https://dc.lft.to/lastmile_qr_scan", "ios": "https://dc.lft.to/lastmile_qr_scan"}, "is_reserved": 0, "is_disabled": 0, "bike_id": "1f6d682aaf71ce6bfe1c1433850f42d0", "lat": 38.957845166666665, "name": "1f6d682aaf71ce6bfe1c1433850f42d0", "fusion_lon": 0.0, "fusion_lat": 0.0, "type": "electric_bike", "lon": -77.027417}, {"rental_uris": {"android": "https://dc.lft.to/lastmile_qr_scan", "ios": "https://dc.lft.to/lastmile_qr_scan"}, "is_reserved": 0, "is_disabled": 0, "bike_id": "e25a73fbb30907925a82ba11760ee12f", "lat": 38.89835933333333, "name": "e25a73fbb30907925a82ba11760ee12f", "fusion_lon": 0.0, "fusion_lat": 0.0, "type": "electric_scooter", "lon": -77.03358866666666}, {"rental_uris": {"android": "https://dc.lft.to/lastmile_qr_scan", "ios": "https://dc.lft.to/lastmile_qr_scan"}, "is_reserved": 0, "is_disabled": 0, "bike_id": "a98c08c7c0ea6abcdea382be7039875b", "lat": 38.883040666666666, "name": "a98c08c7c0ea6abcdea382be7039875b", "fusion_lon": 0.0, "fusion_lat": 0.0, "type": "electric_scooter", "lon": -76.986123}, {"rental_uris": {"android": "https://dc.lft.to/lastmile_qr_scan", "ios": "https://dc.lft.to/lastmile_qr_scan"}, "is_reserved": 0, "is_disabled": 0, "bike_id": "8a18054a774f9a2acebded679cb4f6a5", "lat": 38.867047, "name": "8a18054a774f9a2acebded679cb4f6a5", "fusion_lon": 0.0, "fusion_lat": 0.0, "type": "electric_scooter", "lon": -76.98714733333334}, {"rental_uris": {"android": "https://dc.lft.to/lastmile_qr_scan", "ios": "https://dc.lft.to/lastmile_qr_scan"}, "is_reserved": 0, "is_disabled": 0, "bike_id": "5623eb266efdb3e4846653a1e53107d1", "lat": 38.907081, "name": "5623eb266efdb3e4846653a1e53107d1", "fusion_lon": 0.0, "fusion_lat": 0.0, "type": "electric_scooter", "lon": -77.02380783333334}, {"rental_uris": {"android": "https://dc.lft.to/lastmile_qr_scan", "ios": "https://dc.lft.to/lastmile_qr_scan"}, "is_reserved": 0, "is_disabled": 0, "bike_id": "36f96676bfaa18c67ed8b3ba6263566a", "lat": 38.88742933333333, "name": "36f96676bfaa18c67ed8b3ba6263566a", "fusion_lon": 0.0, "fusion_lat": 0.0, "type": "electric_scooter", "lon": -77.02843533333333}, {"rental_uris": {"android": "https://dc.lft.to/lastmile_qr_scan", "ios": "https://dc.lft.to/lastmile_qr_scan"}, "is_reserved": 0, "is_disabled": 0, "bike_id": "923ea1716086b7e3404fb4249cf9e2a5", "lat": 38.916237833333334, "name": "923ea1716086b7e3404fb4249cf9e2a5", "fusion_lon": 0.0, "fusion_lat": 0.0, "type": "electric_scooter", "lon": -77.032587}, {"rental_uris": {"android": "https://dc.lft.to/lastmile_qr_scan", "ios": "https://dc.lft.to/lastmile_qr_scan"}, "is_reserved": 0, "is_disabled": 0, "bike_id": "4722ce683844ff21f71dadca348225b1", "lat": 38.9000295, "name": "4722ce683844ff21f71dadca348225b1", "fusion_lon": 0.0, "fusion_lat": 0.0, "type": "electric_scooter", "lon": -77.027557}, {"rental_uris": {"android": "https://dc.lft.to/lastmile_qr_scan", "ios": "https://dc.lft.to/lastmile_qr_scan"}, "is_reserved": 0, "is_disabled": 0, "bike_id": "b3582a8aed855887e030218be51ef886", "lat": 39.05280716666667, "name": "b3582a8aed855887e030218be51ef886", "fusion_lon": 0.0, "fusion_lat": 0.0, "type": "electric_bike", "lon": -77.08069833333333}, {"rental_uris": {"android": "https://dc.lft.to/lastmile_qr_scan", "ios": "https://dc.lft.to/lastmile_qr_scan"}, "is_reserved": 0, "is_disabled": 0, "bike_id": "bbe36e2b0735a82f8087810656bf41a2", "lat": 38.855398, "name": "bbe36e2b0735a82f8087810656bf41a2", "fusion_lon": 0.0, "fusion_lat": 0.0, "type": "electric_scooter", "lon": -76.98421683333333}, {"rental_uris": {"android": "https://dc.lft.to/lastmile_qr_scan", "ios": "https://dc.lft.to/lastmile_qr_scan"}, "is_reserved": 0, "is_disabled": 0, "bike_id": "fdc3925ebb6c3c79a4c21625e6e03030", "lat": 38.91558966666667, "name": "fdc3925ebb6c3c79a4c21625e6e03030", "fusion_lon": 0.0, "fusion_lat": 0.0, "type": "electric_scooter", "lon": -77.03823866666667}, {"rental_uris": {"android": "https://dc.lft.to/lastmile_qr_scan", "ios": "https://dc.lft.to/lastmile_qr_scan"}, "is_reserved": 0, "is_disabled": 0, "bike_id": "1620aef9c196f96d441be79a98072106", "lat": 38.9440905, "name": "1620aef9c196f96d441be79a98072106", "fusion_lon": 0.0, "fusion_lat": 0.0, "type": "electric_scooter", "lon": -77.02582533333333}, {"rental_uris": {"android": "https://dc.lft.to/lastmile_qr_scan", "ios": "https://dc.lft.to/lastmile_qr_scan"}, "is_reserved": 0, "is_disabled": 0, "bike_id": "101400d3b6f1f036d05df0c674d43676", "lat": 38.90569816666667, "name": "101400d3b6f1f036d05df0c674d43676", "fusion_lon": 0.0, "fusion_lat": 0.0, "type": "electric_scooter", "lon": -77.0057775}, {"rental_uris": {"android": "https://dc.lft.to/lastmile_qr_scan", "ios": "https://dc.lft.to/lastmile_qr_scan"}, "is_reserved": 0, "is_disabled": 0, "bike_id": "5715d024c5efd3ac152b8e12a43fd884", "lat": 38.914085, "name": "5715d024c5efd3ac152b8e12a43fd884", "fusion_lon": 0.0, "fusion_lat": 0.0, "type": "electric_scooter", "lon": -77.04174383333333}, {"rental_uris": {"android": "https://dc.lft.to/lastmile_qr_scan", "ios": "https://dc.lft.to/lastmile_qr_scan"}, "is_reserved": 0, "is_disabled": 0, "bike_id": "05d77cd5eeeece771026a1f2204cf7bc", "lat": 38.884843000000004, "name": "05d77cd5eeeece771026a1f2204cf7bc", "fusion_lon": 0.0, "fusion_lat": 0.0, "type": "electric_scooter", "lon": -76.92617116666666}, {"rental_uris": {"android": "https://dc.lft.to/lastmile_qr_scan", "ios": "https://dc.lft.to/lastmile_qr_scan"}, "is_reserved": 0, "is_disabled": 0, "bike_id": "1622f8a111db0ed977c8cafa286a6858", "lat": 38.90080666666667, "name": "1622f8a111db0ed977c8cafa286a6858", "fusion_lon": 0.0, "fusion_lat": 0.0, "type": "electric_scooter", "lon": -76.93017216666667}, {"rental_uris": {"android": "https://dc.lft.to/lastmile_qr_scan", "ios": "https://dc.lft.to/lastmile_qr_scan"}, "is_reserved": 0, "is_disabled": 0, "bike_id": "572b03a5323ff422679814909fa76367", "lat": 38.943879333333335, "name": "572b03a5323ff422679814909fa76367", "fusion_lon": 0.0, "fusion_lat": 0.0, "type": "electric_bike", "lon": -77.02435466666667}, {"rental_uris": {"android": "https://dc.lft.to/lastmile_qr_scan", "ios": "https://dc.lft.to/lastmile_qr_scan"}, "is_reserved": 0, "is_disabled": 0, "bike_id": "e0480d6d5b7cc64642e12d7961f1f101", "lat": 38.950697, "name": "e0480d6d5b7cc64642e12d7961f1f101", "fusion_lon": 0.0, "fusion_lat": 0.0, "type": "electric_scooter", "lon": -77.08014466666667}, {"rental_uris": {"android": "https://dc.lft.to/lastmile_qr_scan", "ios": "https://dc.lft.to/lastmile_qr_scan"}, "is_reserved": 0, "is_disabled": 0, "bike_id": "8fcc8c6c8839be32ae0c0bf836ad265f", "lat": 38.87628, "name": "8fcc8c6c8839be32ae0c0bf836ad265f", "fusion_lon": 0.0, "fusion_lat": 0.0, "type": "electric_scooter", "lon": -76.96523816666667}, {"rental_uris": {"android": "https://dc.lft.to/lastmile_qr_scan", "ios": "https://dc.lft.to/lastmile_qr_scan"}, "is_reserved": 0, "is_disabled": 0, "bike_id": "9d3986b8363114f2e11bd9bd0ba98f86", "lat": 38.91642983333333, "name": "9d3986b8363114f2e11bd9bd0ba98f86", "fusion_lon": 0.0, "fusion_lat": 0.0, "type": "electric_bike", "lon": -76.973059}, {"rental_uris": {"android": "https://dc.lft.to/lastmile_qr_scan", "ios": "https://dc.lft.to/lastmile_qr_scan"}, "is_reserved": 0, "is_disabled": 0, "bike_id": "a988b8d0171927e2998e85858e870559", "lat": 38.9130895, "name": "a988b8d0171927e2998e85858e870559", "fusion_lon": 0.0, "fusion_lat": 0.0, "type": "electric_bike", "lon": -77.02167266666666}, {"rental_uris": {"android": "https://dc.lft.to/lastmile_qr_scan", "ios": "https://dc.lft.to/lastmile_qr_scan"}, "is_reserved": 0, "is_disabled": 0, "bike_id": "5982497ed2b3c13c584a6d7e4e2480a3", "lat": 38.924065, "name": "5982497ed2b3c13c584a6d7e4e2480a3", "fusion_lon": 0.0, "fusion_lat": 0.0, "type": "electric_scooter", "lon": -77.02697783333333}, {"rental_uris": {"android": "https://dc.lft.to/lastmile_qr_scan", "ios": "https://dc.lft.to/lastmile_qr_scan"}, "is_reserved": 0, "is_disabled": 0, "bike_id": "de4d860c76361dfabb60e61a4def980e", "lat": 38.935464833333334, "name": "de4d860c76361dfabb60e61a4def980e", "fusion_lon": 0.0, "fusion_lat": 0.0, "type": "electric_scooter", "lon": -77.07294033333334}, {"rental_uris": {"android": "https://dc.lft.to/lastmile_qr_scan", "ios": "https://dc.lft.to/lastmile_qr_scan"}, "is_reserved": 0, "is_disabled": 0, "bike_id": "98f7c032be872ef1c2052592536fd077", "lat": 38.892742, "name": "98f7c032be872ef1c2052592536fd077", "fusion_lon": 0.0, "fusion_lat": 0.0, "type": "electric_scooter", "lon": -77.04869733333334}, {"rental_uris": {"android": "https://dc.lft.to/lastmile_qr_scan", "ios": "https://dc.lft.to/lastmile_qr_scan"}, "is_reserved": 0, "is_disabled": 0, "bike_id": "87f49d582150441e8aebc350ceaecb36", "lat": 38.8928735, "name": "87f49d582150441e8aebc350ceaecb36", "fusion_lon": 0.0, "fusion_lat": 0.0, "type": "electric_bike", "lon": -76.972068}, {"rental_uris": {"android": "https://dc.lft.to/lastmile_qr_scan", "ios": "https://dc.lft.to/lastmile_qr_scan"}, "is_reserved": 0, "is_disabled": 0, "bike_id": "9e07f0d8d5b847289729aa1ef57d505a", "lat": 38.910864833333335, "name": "9e07f0d8d5b847289729aa1ef57d505a", "fusion_lon": 0.0, "fusion_lat": 0.0, "type": "electric_scooter", "lon": -77.02196233333333}, {"rental_uris": {"android": "https://dc.lft.to/lastmile_qr_scan", "ios": "https://dc.lft.to/lastmile_qr_scan"}, "is_reserved": 0, "is_disabled": 0, "bike_id": "8103a5fad39b58ca590d2cec04acc952", "lat": 38.93059066666667, "name": "8103a5fad39b58ca590d2cec04acc952", "fusion_lon": 0.0, "fusion_lat": 0.0, "type": "electric_scooter", "lon": -77.05565666666666}, {"rental_uris": {"android": "https://dc.lft.to/lastmile_qr_scan", "ios": "https://dc.lft.to/lastmile_qr_scan"}, "is_reserved": 0, "is_disabled": 0, "bike_id": "7e3d1c4b8ebd642cdf6c55ad3505b0ee", "lat": 38.915797, "name": "7e3d1c4b8ebd642cdf6c55ad3505b0ee", "fusion_lon": 0.0, "fusion_lat": 0.0, "type": "electric_scooter", "lon": -77.0364195}, {"rental_uris": {"android": "https://dc.lft.to/lastmile_qr_scan", "ios": "https://dc.lft.to/lastmile_qr_scan"}, "is_reserved": 0, "is_disabled": 0, "bike_id": "6f93a502f07c9fb5e56c68700fb91a60", "lat": 38.89758583333333, "name": "6f93a502f07c9fb5e56c68700fb91a60", "fusion_lon": 0.0, "fusion_lat": 0.0, "type": "electric_scooter", "lon": -77.03196233333334}, {"rental_uris": {"android": "https://dc.lft.to/lastmile_qr_scan", "ios": "https://dc.lft.to/lastmile_qr_scan"}, "is_reserved": 0, "is_disabled": 0, "bike_id": "5edf511ab3f7db5e1c735426b71719d7", "lat": 38.89567233333333, "name": "5edf511ab3f7db5e1c735426b71719d7", "fusion_lon": 0.0, "fusion_lat": 0.0, "type": "electric_scooter", "lon": -77.0049585}, {"rental_uris": {"android": "https://dc.lft.to/lastmile_qr_scan", "ios": "https://dc.lft.to/lastmile_qr_scan"}, "is_reserved": 0, "is_disabled": 0, "bike_id": "7b4eadfe595cceb5277e4777c81269e4", "lat": 38.85373933333333, "name": "7b4eadfe595cceb5277e4777c81269e4", "fusion_lon": 0.0, "fusion_lat": 0.0, "type": "electric_bike", "lon": -77.12464583333333}, {"rental_uris": {"android": "https://dc.lft.to/lastmile_qr_scan", "ios": "https://dc.lft.to/lastmile_qr_scan"}, "is_reserved": 0, "is_disabled": 0, "bike_id": "3b398d5339ca5184aa69c1d60f3912e9", "lat": 38.88653466666667, "name": "3b398d5339ca5184aa69c1d60f3912e9", "fusion_lon": 0.0, "fusion_lat": 0.0, "type": "electric_scooter", "lon": -76.99873316666667}, {"rental_uris": {"android": "https://dc.lft.to/lastmile_qr_scan", "ios": "https://dc.lft.to/lastmile_qr_scan"}, "is_reserved": 0, "is_disabled": 0, "bike_id": "e15b7976ee77ebd79b9e32bddb36b050", "lat": 38.92120583333333, "name": "e15b7976ee77ebd79b9e32bddb36b050", "fusion_lon": 0.0, "fusion_lat": 0.0, "type": "electric_scooter", "lon": -77.03657183333333}, {"rental_uris": {"android": "https://dc.lft.to/lastmile_qr_scan", "ios": "https://dc.lft.to/lastmile_qr_scan"}, "is_reserved": 0, "is_disabled": 0, "bike_id": "27d5eae7fa68554ab14a437c4ac23c27", "lat": 38.9542785, "name": "27d5eae7fa68554ab14a437c4ac23c27", "fusion_lon": 0.0, "fusion_lat": 0.0, "type": "electric_bike", "lon": -77.023783}, {"rental_uris": {"android": "https://dc.lft.to/lastmile_qr_scan", "ios": "https://dc.lft.to/lastmile_qr_scan"}, "is_reserved": 0, "is_disabled": 0, "bike_id": "37eca016088e8547147e832db5d7aaf8", "lat": 38.921528333333335, "name": "37eca016088e8547147e832db5d7aaf8", "fusion_lon": 0.0, "fusion_lat": 0.0, "type": "electric_scooter", "lon": -77.04237266666667}, {"rental_uris": {"android": "https://dc.lft.to/lastmile_qr_scan", "ios": "https://dc.lft.to/lastmile_qr_scan"}, "is_reserved": 0, "is_disabled": 0, "bike_id": "7a9acbd77a4870d218009c5def32ef5b", "lat": 38.94992333333333, "name": "7a9acbd77a4870d218009c5def32ef5b", "fusion_lon": 0.0, "fusion_lat": 0.0, "type": "electric_scooter", "lon": -77.02703683333333}, {"rental_uris": {"android": "https://dc.lft.to/lastmile_qr_scan", "ios": "https://dc.lft.to/lastmile_qr_scan"}, "is_reserved": 0, "is_disabled": 0, "bike_id": "28a22ff6e08c25e923eefc820931f011", "lat": 38.90071566666667, "name": "28a22ff6e08c25e923eefc820931f011", "fusion_lon": 0.0, "fusion_lat": 0.0, "type": "electric_scooter", "lon": -77.04857616666666}, {"rental_uris": {"android": "https://dc.lft.to/lastmile_qr_scan", "ios": "https://dc.lft.to/lastmile_qr_scan"}, "is_reserved": 0, "is_disabled": 0, "bike_id": "116dd8788e7029435affa68237adc2e8", "lat": 38.872968, "name": "116dd8788e7029435affa68237adc2e8", "fusion_lon": 0.0, "fusion_lat": 0.0, "type": "electric_bike", "lon": -77.13929066666667}, {"rental_uris": {"android": "https://dc.lft.to/lastmile_qr_scan", "ios": "https://dc.lft.to/lastmile_qr_scan"}, "is_reserved": 0, "is_disabled": 0, "bike_id": "3e3b767e74f4263f212b57669ab22f6a", "lat": 38.917056, "name": "3e3b767e74f4263f212b57669ab22f6a", "fusion_lon": 0.0, "fusion_lat": 0.0, "type": "electric_scooter", "lon": -77.03120383333334}, {"rental_uris": {"android": "https://dc.lft.to/lastmile_qr_scan", "ios": "https://dc.lft.to/lastmile_qr_scan"}, "is_reserved": 0, "is_disabled": 0, "bike_id": "8bc2dbcedc4ced7d395d19c38a3dec55", "lat": 38.89225116666667, "name": "8bc2dbcedc4ced7d395d19c38a3dec55", "fusion_lon": 0.0, "fusion_lat": 0.0, "type": "electric_scooter", "lon": -77.0437535}, {"rental_uris": {"android": "https://dc.lft.to/lastmile_qr_scan", "ios": "https://dc.lft.to/lastmile_qr_scan"}, "is_reserved": 0, "is_disabled": 0, "bike_id": "bc0124f3c720716ee6447268e11bbe8f", "lat": 38.8922565, "name": "bc0124f3c720716ee6447268e11bbe8f", "fusion_lon": 0.0, "fusion_lat": 0.0, "type": "electric_scooter", "lon": -77.04501716666667}, {"rental_uris": {"android": "https://dc.lft.to/lastmile_qr_scan", "ios": "https://dc.lft.to/lastmile_qr_scan"}, "is_reserved": 0, "is_disabled": 0, "bike_id": "b544fd2ff9edeefd77977b91cff7b0bd", "lat": 38.92162533333333, "name": "b544fd2ff9edeefd77977b91cff7b0bd", "fusion_lon": 0.0, "fusion_lat": 0.0, "type": "electric_scooter", "lon": -77.0326335}, {"rental_uris": {"android": "https://dc.lft.to/lastmile_qr_scan", "ios": "https://dc.lft.to/lastmile_qr_scan"}, "is_reserved": 0, "is_disabled": 0, "bike_id": "ae1ee3119f0f92f34596d888545a56ab", "lat": 38.912769833333336, "name": "ae1ee3119f0f92f34596d888545a56ab", "fusion_lon": 0.0, "fusion_lat": 0.0, "type": "electric_scooter", "lon": -77.01975766666666}, {"rental_uris": {"android": "https://dc.lft.to/lastmile_qr_scan", "ios": "https://dc.lft.to/lastmile_qr_scan"}, "is_reserved": 0, "is_disabled": 0, "bike_id": "53bfab2ea740d64967e6cdc03ce113f9", "lat": 38.864712833333336, "name": "53bfab2ea740d64967e6cdc03ce113f9", "fusion_lon": 0.0, "fusion_lat": 0.0, "type": "electric_scooter", "lon": -76.982311}, {"rental_uris": {"android": "https://dc.lft.to/lastmile_qr_scan", "ios": "https://dc.lft.to/lastmile_qr_scan"}, "is_reserved": 0, "is_disabled": 0, "bike_id": "64240a5f714884f3723c18a88f015988", "lat": 38.90973566666667, "name": "64240a5f714884f3723c18a88f015988", "fusion_lon": 0.0, "fusion_lat": 0.0, "type": "electric_scooter", "lon": -77.038696}, {"rental_uris": {"android": "https://dc.lft.to/lastmile_qr_scan", "ios": "https://dc.lft.to/lastmile_qr_scan"}, "is_reserved": 0, "is_disabled": 0, "bike_id": "19ed01912d9cb87ac0f5e6369a2f1e88", "lat": 38.92564316666667, "name": "19ed01912d9cb87ac0f5e6369a2f1e88", "fusion_lon": 0.0, "fusion_lat": 0.0, "type": "electric_scooter", "lon": -77.077866}, {"rental_uris": {"android": "https://dc.lft.to/lastmile_qr_scan", "ios": "https://dc.lft.to/lastmile_qr_scan"}, "is_reserved": 0, "is_disabled": 0, "bike_id": "f17e756dec06436d65d6e744f74372d7", "lat": 38.931040333333335, "name": "f17e756dec06436d65d6e744f74372d7", "fusion_lon": 0.0, "fusion_lat": 0.0, "type": "electric_scooter", "lon": -77.03263866666667}, {"rental_uris": {"android": "https://dc.lft.to/lastmile_qr_scan", "ios": "https://dc.lft.to/lastmile_qr_scan"}, "is_reserved": 0, "is_disabled": 0, "bike_id": "2d1d3540be99ac50c5d5d8dbfce67a82", "lat": 38.876684833333336, "name": "2d1d3540be99ac50c5d5d8dbfce67a82", "fusion_lon": 0.0, "fusion_lat": 0.0, "type": "electric_scooter", "lon": -77.01565433333333}, {"rental_uris": {"android": "https://dc.lft.to/lastmile_qr_scan", "ios": "https://dc.lft.to/lastmile_qr_scan"}, "is_reserved": 0, "is_disabled": 0, "bike_id": "567897131a533f1bf84cb59354ef2e41", "lat": 38.92238283333333, "name": "567897131a533f1bf84cb59354ef2e41", "fusion_lon": 0.0, "fusion_lat": 0.0, "type": "electric_scooter", "lon": -77.0307545}, {"rental_uris": {"android": "https://dc.lft.to/lastmile_qr_scan", "ios": "https://dc.lft.to/lastmile_qr_scan"}, "is_reserved": 0, "is_disabled": 0, "bike_id": "5d37b90cea82b7f162974fab6d73eba7", "lat": 38.899452833333335, "name": "5d37b90cea82b7f162974fab6d73eba7", "fusion_lon": 0.0, "fusion_lat": 0.0, "type": "electric_scooter", "lon": -77.041713}, {"rental_uris": {"android": "https://dc.lft.to/lastmile_qr_scan", "ios": "https://dc.lft.to/lastmile_qr_scan"}, "is_reserved": 0, "is_disabled": 0, "bike_id": "a1f4e2f46fda545c968201f6d4e2150e", "lat": 38.941347, "name": "a1f4e2f46fda545c968201f6d4e2150e", "fusion_lon": 0.0, "fusion_lat": 0.0, "type": "electric_scooter", "lon": -77.015439}, {"rental_uris": {"android": "https://dc.lft.to/lastmile_qr_scan", "ios": "https://dc.lft.to/lastmile_qr_scan"}, "is_reserved": 0, "is_disabled": 0, "bike_id": "a9c6a2e84d38d314f33c8561369cf0a3", "lat": 38.93370316666667, "name": "a9c6a2e84d38d314f33c8561369cf0a3", "fusion_lon": 0.0, "fusion_lat": 0.0, "type": "electric_scooter", "lon": -77.05731683333333}, {"rental_uris": {"android": "https://dc.lft.to/lastmile_qr_scan", "ios": "https://dc.lft.to/lastmile_qr_scan"}, "is_reserved": 0, "is_disabled": 0, "bike_id": "3f09845768556347eca685647a9377e4", "lat": 38.973666, "name": "3f09845768556347eca685647a9377e4", "fusion_lon": 0.0, "fusion_lat": 0.0, "type": "electric_scooter", "lon": -77.01850166666667}, {"rental_uris": {"android": "https://dc.lft.to/lastmile_qr_scan", "ios": "https://dc.lft.to/lastmile_qr_scan"}, "is_reserved": 0, "is_disabled": 0, "bike_id": "736d00a0a31130bae23444fb60ecef6a", "lat": 38.8803775, "name": "736d00a0a31130bae23444fb60ecef6a", "fusion_lon": 0.0, "fusion_lat": 0.0, "type": "electric_scooter", "lon": -77.030767}, {"rental_uris": {"android": "https://dc.lft.to/lastmile_qr_scan", "ios": "https://dc.lft.to/lastmile_qr_scan"}, "is_reserved": 0, "is_disabled": 0, "bike_id": "0cb8b12d5f4a3a669f32c1ec15f120e8", "lat": 38.885515166666664, "name": "0cb8b12d5f4a3a669f32c1ec15f120e8", "fusion_lon": 0.0, "fusion_lat": 0.0, "type": "electric_scooter", "lon": -77.01207516666666}, {"rental_uris": {"android": "https://dc.lft.to/lastmile_qr_scan", "ios": "https://dc.lft.to/lastmile_qr_scan"}, "is_reserved": 0, "is_disabled": 0, "bike_id": "ec507cf788c0bcd33dcf578598519ba2", "lat": 38.897327, "name": "ec507cf788c0bcd33dcf578598519ba2", "fusion_lon": 0.0, "fusion_lat": 0.0, "type": "electric_scooter", "lon": -77.02793666666666}, {"rental_uris": {"android": "https://dc.lft.to/lastmile_qr_scan", "ios": "https://dc.lft.to/lastmile_qr_scan"}, "is_reserved": 0, "is_disabled": 0, "bike_id": "8b66386cbc603413bd09807e0478e6d7", "lat": 38.898387666666665, "name": "8b66386cbc603413bd09807e0478e6d7", "fusion_lon": 0.0, "fusion_lat": 0.0, "type": "electric_scooter", "lon": -77.03349783333333}, {"rental_uris": {"android": "https://dc.lft.to/lastmile_qr_scan", "ios": "https://dc.lft.to/lastmile_qr_scan"}, "is_reserved": 0, "is_disabled": 0, "bike_id": "ced09c7bb19dc3da3487bde01063b361", "lat": 38.929529333333335, "name": "ced09c7bb19dc3da3487bde01063b361", "fusion_lon": 0.0, "fusion_lat": 0.0, "type": "electric_scooter", "lon": -77.01326533333334}, {"rental_uris": {"android": "https://dc.lft.to/lastmile_qr_scan", "ios": "https://dc.lft.to/lastmile_qr_scan"}, "is_reserved": 0, "is_disabled": 0, "bike_id": "fbcf5b5932e25ea82aef746e3fb4ab1f", "lat": 38.865533, "name": "fbcf5b5932e25ea82aef746e3fb4ab1f", "fusion_lon": 0.0, "fusion_lat": 0.0, "type": "electric_scooter", "lon": -76.98938683333333}, {"rental_uris": {"android": "https://dc.lft.to/lastmile_qr_scan", "ios": "https://dc.lft.to/lastmile_qr_scan"}, "is_reserved": 0, "is_disabled": 0, "bike_id": "8e7f57a8ec8e1392650fd6904bcc17ff", "lat": 38.92687983333333, "name": "8e7f57a8ec8e1392650fd6904bcc17ff", "fusion_lon": 0.0, "fusion_lat": 0.0, "type": "electric_scooter", "lon": -77.02271216666666}, {"rental_uris": {"android": "https://dc.lft.to/lastmile_qr_scan", "ios": "https://dc.lft.to/lastmile_qr_scan"}, "is_reserved": 0, "is_disabled": 0, "bike_id": "ef936fbbacc4a49f87cf92cdd3166ed7", "lat": 38.96491133333333, "name": "ef936fbbacc4a49f87cf92cdd3166ed7", "fusion_lon": 0.0, "fusion_lat": 0.0, "type": "electric_bike", "lon": -77.10732083333333}, {"rental_uris": {"android": "https://dc.lft.to/lastmile_qr_scan", "ios": "https://dc.lft.to/lastmile_qr_scan"}, "is_reserved": 0, "is_disabled": 0, "bike_id": "fa020431aea9689fdad397efd17bdbae", "lat": 38.9233765, "name": "fa020431aea9689fdad397efd17bdbae", "fusion_lon": 0.0, "fusion_lat": 0.0, "type": "electric_scooter", "lon": -77.03615583333334}, {"rental_uris": {"android": "https://dc.lft.to/lastmile_qr_scan", "ios": "https://dc.lft.to/lastmile_qr_scan"}, "is_reserved": 0, "is_disabled": 0, "bike_id": "b0a7e6c829f77f28f60f2867481fc74b", "lat": 39.035536, "name": "b0a7e6c829f77f28f60f2867481fc74b", "fusion_lon": 0.0, "fusion_lat": 0.0, "type": "electric_bike", "lon": -77.04983533333333}, {"rental_uris": {"android": "https://dc.lft.to/lastmile_qr_scan", "ios": "https://dc.lft.to/lastmile_qr_scan"}, "is_reserved": 0, "is_disabled": 0, "bike_id": "3a7815285c0480bcdacec58872b599c6", "lat": 38.92106783333333, "name": "3a7815285c0480bcdacec58872b599c6", "fusion_lon": 0.0, "fusion_lat": 0.0, "type": "electric_scooter", "lon": -76.992998}, {"rental_uris": {"android": "https://dc.lft.to/lastmile_qr_scan", "ios": "https://dc.lft.to/lastmile_qr_scan"}, "is_reserved": 0, "is_disabled": 0, "bike_id": "489d527b94b40a0981841c3b7eaa3411", "lat": 38.89854783333333, "name": "489d527b94b40a0981841c3b7eaa3411", "fusion_lon": 0.0, "fusion_lat": 0.0, "type": "electric_scooter", "lon": -77.03295866666667}, {"rental_uris": {"android": "https://dc.lft.to/lastmile_qr_scan", "ios": "https://dc.lft.to/lastmile_qr_scan"}, "is_reserved": 0, "is_disabled": 0, "bike_id": "37b76914db9e34423aacf9938390d3c7", "lat": 38.9332765, "name": "37b76914db9e34423aacf9938390d3c7", "fusion_lon": 0.0, "fusion_lat": 0.0, "type": "electric_scooter", "lon": -77.029274}, {"rental_uris": {"android": "https://dc.lft.to/lastmile_qr_scan", "ios": "https://dc.lft.to/lastmile_qr_scan"}, "is_reserved": 0, "is_disabled": 0, "bike_id": "4e81fd1ba97dea6cd8c45aaad58d294b", "lat": 38.92792266666667, "name": "4e81fd1ba97dea6cd8c45aaad58d294b", "fusion_lon": 0.0, "fusion_lat": 0.0, "type": "electric_scooter", "lon": -77.031529}, {"rental_uris": {"android": "https://dc.lft.to/lastmile_qr_scan", "ios": "https://dc.lft.to/lastmile_qr_scan"}, "is_reserved": 0, "is_disabled": 0, "bike_id": "030e3a5f0c0e4696fec772d16bea2771", "lat": 38.942004833333336, "name": "030e3a5f0c0e4696fec772d16bea2771", "fusion_lon": 0.0, "fusion_lat": 0.0, "type": "electric_scooter", "lon": -77.02589633333334}, {"rental_uris": {"android": "https://dc.lft.to/lastmile_qr_scan", "ios": "https://dc.lft.to/lastmile_qr_scan"}, "is_reserved": 0, "is_disabled": 0, "bike_id": "ae02c4a80063f9f56a448dc007683450", "lat": 38.896382333333335, "name": "ae02c4a80063f9f56a448dc007683450", "fusion_lon": 0.0, "fusion_lat": 0.0, "type": "electric_scooter", "lon": -77.03198416666666}, {"rental_uris": {"android": "https://dc.lft.to/lastmile_qr_scan", "ios": "https://dc.lft.to/lastmile_qr_scan"}, "is_reserved": 0, "is_disabled": 0, "bike_id": "34c3ef41e6f510378a9cd91184bf283b", "lat": 38.876944333333334, "name": "34c3ef41e6f510378a9cd91184bf283b", "fusion_lon": 0.0, "fusion_lat": 0.0, "type": "electric_scooter", "lon": -77.016115}, {"rental_uris": {"android": "https://dc.lft.to/lastmile_qr_scan", "ios": "https://dc.lft.to/lastmile_qr_scan"}, "is_reserved": 0, "is_disabled": 0, "bike_id": "4acb0ba7a05d0cb03581ef7f98879d91", "lat": 38.894765, "name": "4acb0ba7a05d0cb03581ef7f98879d91", "fusion_lon": 0.0, "fusion_lat": 0.0, "type": "electric_scooter", "lon": -77.02195533333334}, {"rental_uris": {"android": "https://dc.lft.to/lastmile_qr_scan", "ios": "https://dc.lft.to/lastmile_qr_scan"}, "is_reserved": 0, "is_disabled": 0, "bike_id": "e08880fdd79cc39856219ee65b37a9a8", "lat": 38.90276466666667, "name": "e08880fdd79cc39856219ee65b37a9a8", "fusion_lon": 0.0, "fusion_lat": 0.0, "type": "electric_scooter", "lon": -77.01758783333334}, {"rental_uris": {"android": "https://dc.lft.to/lastmile_qr_scan", "ios": "https://dc.lft.to/lastmile_qr_scan"},