{"data": {"bikes": [{"bike_id": "bf57b638a4336c14102fe81110db1b64", "lat": 38.891692166666665, "is_disabled": 0, "lon": -77.01553416666667, "fusion_lon": 0.0, "is_reserved": 0, "fusion_lat": 0.0, "rental_uris": {"android": "https://dc.lft.to/lastmile_qr_scan", "ios": "https://dc.lft.to/lastmile_qr_scan"}, "type": "electric_scooter", "name": "bf57b638a4336c14102fe81110db1b64"}, {"bike_id": "c15d2759ba4362c2a6c45c98b8d632ef", "lat": 38.91768166666667, "is_disabled": 0, "lon": -77.022165, "fusion_lon": 0.0, "is_reserved": 0, "fusion_lat": 0.0, "rental_uris": {"android": "https://dc.lft.to/lastmile_qr_scan", "ios": "https://dc.lft.to/lastmile_qr_scan"}, "type": "electric_scooter", "name": "c15d2759ba4362c2a6c45c98b8d632ef"}, {"bike_id": "a6613ff3d6c3d6886b9629f2945ac1f8", "lat": 38.900015, "is_disabled": 0, "lon": -77.03349083333333, "fusion_lon": 0.0, "is_reserved": 0, "fusion_lat": 0.0, "rental_uris": {"android": "https://dc.lft.to/lastmile_qr_scan", "ios": "https://dc.lft.to/lastmile_qr_scan"}, "type": "electric_scooter", "name": "a6613ff3d6c3d6886b9629f2945ac1f8"}, {"bike_id": "5ae5066f24aeecb6fbe3e941bd0e371a", "lat": 38.901579166666664, "is_disabled": 0, "lon": -77.03941216666666, "fusion_lon": 0.0, "is_reserved": 0, "fusion_lat": 0.0, "rental_uris": {"android": "https://dc.lft.to/lastmile_qr_scan", "ios": "https://dc.lft.to/lastmile_qr_scan"}, "type": "electric_scooter", "name": "5ae5066f24aeecb6fbe3e941bd0e371a"}, {"bike_id": "01d16cb39f5a6cd9a6e26b0b04bc5b25", "lat": 38.91605666666667, "is_disabled": 0, "lon": -77.03215416666667, "fusion_lon": 0.0, "is_reserved": 0, "fusion_lat": 0.0, "rental_uris": {"android": "https://dc.lft.to/lastmile_qr_scan", "ios": "https://dc.lft.to/lastmile_qr_scan"}, "type": "electric_scooter", "name": "01d16cb39f5a6cd9a6e26b0b04bc5b25"}, {"bike_id": "ecb7048c01e2ff0fd07c7268830300b6", "lat": 38.9175245, "is_disabled": 0, "lon": -77.02399633333333, "fusion_lon": 0.0, "is_reserved": 0, "fusion_lat": 0.0, "rental_uris": {"android": "https://dc.lft.to/lastmile_qr_scan", "ios": "https://dc.lft.to/lastmile_qr_scan"}, "type": "electric_scooter", "name": "ecb7048c01e2ff0fd07c7268830300b6"}, {"bike_id": "c56495bdf6958673ad469d6466dea2d8", "lat": 38.918168666666666, "is_disabled": 0, "lon": -77.0317345, "fusion_lon": 0.0, "is_reserved": 0, "fusion_lat": 0.0, "rental_uris": {"android": "https://dc.lft.to/lastmile_qr_scan", "ios": "https://dc.lft.to/lastmile_qr_scan"}, "type": "electric_scooter", "name": "c56495bdf6958673ad469d6466dea2d8"}, {"bike_id": "1020e8274c8ad0a8e02303347ed037ce", "lat": 38.923306, "is_disabled": 0, "lon": -77.02013566666666, "fusion_lon": 0.0, "is_reserved": 0, "fusion_lat": 0.0, "rental_uris": {"android": "https://dc.lft.to/lastmile_qr_scan", "ios": "https://dc.lft.to/lastmile_qr_scan"}, "type": "electric_scooter", "name": "1020e8274c8ad0a8e02303347ed037ce"}, {"bike_id": "d9f8fbbdbe04306905a1a59e6e032fba", "lat": 38.936755166666664, "is_disabled": 0, "lon": -77.03282533333334, "fusion_lon": 0.0, "is_reserved": 0, "fusion_lat": 0.0, "rental_uris": {"android": "https://dc.lft.to/lastmile_qr_scan", "ios": "https://dc.lft.to/lastmile_qr_scan"}, "type": "electric_scooter", "name": "d9f8fbbdbe04306905a1a59e6e032fba"}, {"bike_id": "f2565b41df19ded13b1c308f7bd71c2f", "lat": 38.89865433333333, "is_disabled": 0, "lon": -77.0329675, "fusion_lon": 0.0, "is_reserved": 0, "fusion_lat": 0.0, "rental_uris": {"android": "https://dc.lft.to/lastmile_qr_scan", "ios": "https://dc.lft.to/lastmile_qr_scan"}, "type": "electric_scooter", "name": "f2565b41df19ded13b1c308f7bd71c2f"}, {"bike_id": "78aeed29c6df0b2a13079a72cf52186b", "lat": 38.9233385, "is_disabled": 0, "lon": -77.03655783333333, "fusion_lon": 0.0, "is_reserved": 0, "fusion_lat": 0.0, "rental_uris": {"android": "https://dc.lft.to/lastmile_qr_scan", "ios": "https://dc.lft.to/lastmile_qr_scan"}, "type": "electric_scooter", "name": "78aeed29c6df0b2a13079a72cf52186b"}, {"bike_id": "302b22b0b0e03ee81438830c76e0d434", "lat": 38.92161316666667, "is_disabled": 0, "lon": -77.03840033333333, "fusion_lon": 0.0, "is_reserved": 0, "fusion_lat": 0.0, "rental_uris": {"android": "https://dc.lft.to/lastmile_qr_scan", "ios": "https://dc.lft.to/lastmile_qr_scan"}, "type": "electric_scooter", "name": "302b22b0b0e03ee81438830c76e0d434"}, {"bike_id": "2a0f7ebcc8c4b689a57c7f5279d6d23a", "lat": 38.905960666666665, "is_disabled": 0, "lon": -77.07006233333334, "fusion_lon": 0.0, "is_reserved": 0, "fusion_lat": 0.0, "rental_uris": {"android": "https://dc.lft.to/lastmile_qr_scan", "ios": "https://dc.lft.to/lastmile_qr_scan"}, "type": "electric_scooter", "name": "2a0f7ebcc8c4b689a57c7f5279d6d23a"}, {"bike_id": "0f4ec287a2348e216601c044cc1c8131", "lat": 38.95425983333333, "is_disabled": 0, "lon": -77.01855466666666, "fusion_lon": 0.0, "is_reserved": 0, "fusion_lat": 0.0, "rental_uris": {"android": "https://dc.lft.to/lastmile_qr_scan", "ios": "https://dc.lft.to/lastmile_qr_scan"}, "type": "electric_scooter", "name": "0f4ec287a2348e216601c044cc1c8131"}, {"bike_id": "9383465ed31ac1d64b3a09e8f5cae6da", "lat": 38.93534566666666, "is_disabled": 0, "lon": -77.023572, "fusion_lon": 0.0, "is_reserved": 0, "fusion_lat": 0.0, "rental_uris": {"android": "https://dc.lft.to/lastmile_qr_scan", "ios": "https://dc.lft.to/lastmile_qr_scan"}, "type": "electric_scooter", "name": "9383465ed31ac1d64b3a09e8f5cae6da"}, {"bike_id": "71898f2b99317f7ff54aa637433020a7", "lat": 38.907274666666666, "is_disabled": 0, "lon": -77.053278, "fusion_lon": 0.0, "is_reserved": 0, "fusion_lat": 0.0, "rental_uris": {"android": "https://dc.lft.to/lastmile_qr_scan", "ios": "https://dc.lft.to/lastmile_qr_scan"}, "type": "electric_scooter", "name": "71898f2b99317f7ff54aa637433020a7"}, {"bike_id": "2ffa0a27fa7a52142d18312583d48271", "lat": 38.9176835, "is_disabled": 0, "lon": -77.02342933333334, "fusion_lon": 0.0, "is_reserved": 0, "fusion_lat": 0.0, "rental_uris": {"android": "https://dc.lft.to/lastmile_qr_scan", "ios": "https://dc.lft.to/lastmile_qr_scan"}, "type": "electric_scooter", "name": "2ffa0a27fa7a52142d18312583d48271"}, {"bike_id": "081d8932f8b87bef10794ac607616647", "lat": 38.9238905, "is_disabled": 0, "lon": -77.04216716666667, "fusion_lon": 0.0, "is_reserved": 0, "fusion_lat": 0.0, "rental_uris": {"android": "https://dc.lft.to/lastmile_qr_scan", "ios": "https://dc.lft.to/lastmile_qr_scan"}, "type": "electric_scooter", "name": "081d8932f8b87bef10794ac607616647"}, {"bike_id": "02a02055e0b08c304a9f66010d5f63bb", "lat": 38.89563733333333, "is_disabled": 0, "lon": -77.09785016666666, "fusion_lon": 0.0, "is_reserved": 0, "fusion_lat": 0.0, "rental_uris": {"android": "https://dc.lft.to/lastmile_qr_scan", "ios": "https://dc.lft.to/lastmile_qr_scan"}, "type": "electric_bike", "name": "02a02055e0b08c304a9f66010d5f63bb"}, {"bike_id": "3cac8b9052485b540cfa83ae9709a518", "lat": 38.92238533333333, "is_disabled": 0, "lon": -77.019727, "fusion_lon": 0.0, "is_reserved": 0, "fusion_lat": 0.0, "rental_uris": {"android": "https://dc.lft.to/lastmile_qr_scan", "ios": "https://dc.lft.to/lastmile_qr_scan"}, "type": "electric_scooter", "name": "3cac8b9052485b540cfa83ae9709a518"}, {"bike_id": "473279f5cf8293834488cacf6946c873", "lat": 38.92179133333333, "is_disabled": 0, "lon": -77.02111916666667, "fusion_lon": 0.0, "is_reserved": 0, "fusion_lat": 0.0, "rental_uris": {"android": "https://dc.lft.to/lastmile_qr_scan", "ios": "https://dc.lft.to/lastmile_qr_scan"}, "type": "electric_scooter", "name": "473279f5cf8293834488cacf6946c873"}, {"bike_id": "ed3da36bd1adc0869ab8ca5dad699283", "lat": 38.90845866666667, "is_disabled": 0, "lon": -77.038875, "fusion_lon": 0.0, "is_reserved": 0, "fusion_lat": 0.0, "rental_uris": {"android": "https://dc.lft.to/lastmile_qr_scan", "ios": "https://dc.lft.to/lastmile_qr_scan"}, "type": "electric_scooter", "name": "ed3da36bd1adc0869ab8ca5dad699283"}, {"bike_id": "db32b0620f8ad320d7d94bcc029a660a", "lat": 38.90592016666667, "is_disabled": 0, "lon": -77.04046166666667, "fusion_lon": 0.0, "is_reserved": 0, "fusion_lat": 0.0, "rental_uris": {"android": "https://dc.lft.to/lastmile_qr_scan", "ios": "https://dc.lft.to/lastmile_qr_scan"}, "type": "electric_scooter", "name": "db32b0620f8ad320d7d94bcc029a660a"}, {"bike_id": "e2d6b605465919405f917699b31c72e6", "lat": 38.92263116666667, "is_disabled": 0, "lon": -77.0188995, "fusion_lon": 0.0, "is_reserved": 0, "fusion_lat": 0.0, "rental_uris": {"android": "https://dc.lft.to/lastmile_qr_scan", "ios": "https://dc.lft.to/lastmile_qr_scan"}, "type": "electric_scooter", "name": "e2d6b605465919405f917699b31c72e6"}, {"bike_id": "a39d777c772c2bf04555d1c788944c56", "lat": 38.89524733333333, "is_disabled": 0, "lon": -77.02190883333333, "fusion_lon": 0.0, "is_reserved": 0, "fusion_lat": 0.0, "rental_uris": {"android": "https://dc.lft.to/lastmile_qr_scan", "ios": "https://dc.lft.to/lastmile_qr_scan"}, "type": "electric_scooter", "name": "a39d777c772c2bf04555d1c788944c56"}, {"bike_id": "09a83fbde91ba0b251dd5f1303eae105", "lat": 38.91434616666667, "is_disabled": 0, "lon": -77.04175316666667, "fusion_lon": 0.0, "is_reserved": 0, "fusion_lat": 0.0, "rental_uris": {"android": "https://dc.lft.to/lastmile_qr_scan", "ios": "https://dc.lft.to/lastmile_qr_scan"}, "type": "electric_scooter", "name": "09a83fbde91ba0b251dd5f1303eae105"}, {"bike_id": "216385aafdfe1ca8949700cd2802535a", "lat": 38.92706033333333, "is_disabled": 0, "lon": -77.023399, "fusion_lon": 0.0, "is_reserved": 0, "fusion_lat": 0.0, "rental_uris": {"android": "https://dc.lft.to/lastmile_qr_scan", "ios": "https://dc.lft.to/lastmile_qr_scan"}, "type": "electric_scooter", "name": "216385aafdfe1ca8949700cd2802535a"}, {"bike_id": "e9fb2c5642905d4e98c742f2c695299d", "lat": 38.89717616666667, "is_disabled": 0, "lon": -77.03026333333334, "fusion_lon": 0.0, "is_reserved": 0, "fusion_lat": 0.0, "rental_uris": {"android": "https://dc.lft.to/lastmile_qr_scan", "ios": "https://dc.lft.to/lastmile_qr_scan"}, "type": "electric_scooter", "name": "e9fb2c5642905d4e98c742f2c695299d"}, {"bike_id": "df314d0e6c91b743ea827f90cdbf2fc9", "lat": 38.902774, "is_disabled": 0, "lon": -77.0461575, "fusion_lon": 0.0, "is_reserved": 0, "fusion_lat": 0.0, "rental_uris": {"android": "https://dc.lft.to/lastmile_qr_scan", "ios": "https://dc.lft.to/lastmile_qr_scan"}, "type": "electric_scooter", "name": "df314d0e6c91b743ea827f90cdbf2fc9"}, {"bike_id": "f3ebc9955f0efa013dfa4145d78df855", "lat": 38.905940333333334, "is_disabled": 0, "lon": -77.00805266666667, "fusion_lon": 0.0, "is_reserved": 0, "fusion_lat": 0.0, "rental_uris": {"android": "https://dc.lft.to/lastmile_qr_scan", "ios": "https://dc.lft.to/lastmile_qr_scan"}, "type": "electric_scooter", "name": "f3ebc9955f0efa013dfa4145d78df855"}, {"bike_id": "3226566f24c93e0345d1ddbf681d9cdb", "lat": 38.931573, "is_disabled": 0, "lon": -77.0288105, "fusion_lon": 0.0, "is_reserved": 0, "fusion_lat": 0.0, "rental_uris": {"android": "https://dc.lft.to/lastmile_qr_scan", "ios": "https://dc.lft.to/lastmile_qr_scan"}, "type": "electric_scooter", "name": "3226566f24c93e0345d1ddbf681d9cdb"}, {"bike_id": "21a402302e25512d52a8bbca099b2419", "lat": 38.900102, "is_disabled": 0, "lon": -76.98895366666666, "fusion_lon": 0.0, "is_reserved": 0, "fusion_lat": 0.0, "rental_uris": {"android": "https://dc.lft.to/lastmile_qr_scan", "ios": "https://dc.lft.to/lastmile_qr_scan"}, "type": "electric_scooter", "name": "21a402302e25512d52a8bbca099b2419"}, {"bike_id": "a756ba41f1a4499a1f9251715932dbba", "lat": 38.897813166666666, "is_disabled": 0, "lon": -77.0135735, "fusion_lon": 0.0, "is_reserved": 0, "fusion_lat": 0.0, "rental_uris": {"android": "https://dc.lft.to/lastmile_qr_scan", "ios": "https://dc.lft.to/lastmile_qr_scan"}, "type": "electric_bike", "name": "a756ba41f1a4499a1f9251715932dbba"}, {"bike_id": "330e418d2a49bbbe6eee6ab13e48d57f", "lat": 38.903582666666665, "is_disabled": 0, "lon": -77.03450983333333, "fusion_lon": 0.0, "is_reserved": 0, "fusion_lat": 0.0, "rental_uris": {"android": "https://dc.lft.to/lastmile_qr_scan", "ios": "https://dc.lft.to/lastmile_qr_scan"}, "type": "electric_scooter", "name": "330e418d2a49bbbe6eee6ab13e48d57f"}, {"bike_id": "719f6a5b2ce1a13c01d7615187a7da49", "lat": 38.918335666666664, "is_disabled": 0, "lon": -77.0228425, "fusion_lon": 0.0, "is_reserved": 0, "fusion_lat": 0.0, "rental_uris": {"android": "https://dc.lft.to/lastmile_qr_scan", "ios": "https://dc.lft.to/lastmile_qr_scan"}, "type": "electric_scooter", "name": "719f6a5b2ce1a13c01d7615187a7da49"}, {"bike_id": "02a02e41debb672b8d0b729458fd566b", "lat": 38.91353633333333, "is_disabled": 0, "lon": -77.04563483333334, "fusion_lon": 0.0, "is_reserved": 0, "fusion_lat": 0.0, "rental_uris": {"android": "https://dc.lft.to/lastmile_qr_scan", "ios": "https://dc.lft.to/lastmile_qr_scan"}, "type": "electric_scooter", "name": "02a02e41debb672b8d0b729458fd566b"}, {"bike_id": "16352d274bc75d19daece47c39d2432f", "lat": 38.895025, "is_disabled": 0, "lon": -76.93476616666666, "fusion_lon": 0.0, "is_reserved": 0, "fusion_lat": 0.0, "rental_uris": {"android": "https://dc.lft.to/lastmile_qr_scan", "ios": "https://dc.lft.to/lastmile_qr_scan"}, "type": "electric_scooter", "name": "16352d274bc75d19daece47c39d2432f"}, {"bike_id": "db3733fba3de6ed4aa6782771c82215a", "lat": 38.89544866666667, "is_disabled": 0, "lon": -76.98336416666666, "fusion_lon": 0.0, "is_reserved": 0, "fusion_lat": 0.0, "rental_uris": {"android": "https://dc.lft.to/lastmile_qr_scan", "ios": "https://dc.lft.to/lastmile_qr_scan"}, "type": "electric_scooter", "name": "db3733fba3de6ed4aa6782771c82215a"}, {"bike_id": "c39ebc47b1e2ce17dfba80907a8bc8b1", "lat": 38.89218416666667, "is_disabled": 0, "lon": -77.027871, "fusion_lon": 0.0, "is_reserved": 0, "fusion_lat": 0.0, "rental_uris": {"android": "https://dc.lft.to/lastmile_qr_scan", "ios": "https://dc.lft.to/lastmile_qr_scan"}, "type": "electric_scooter", "name": "c39ebc47b1e2ce17dfba80907a8bc8b1"}, {"bike_id": "f574299dcd6426581e7bfe76d719206d", "lat": 38.838462, "is_disabled": 0, "lon": -76.99725916666667, "fusion_lon": 0.0, "is_reserved": 0, "fusion_lat": 0.0, "rental_uris": {"android": "https://dc.lft.to/lastmile_qr_scan", "ios": "https://dc.lft.to/lastmile_qr_scan"}, "type": "electric_bike", "name": "f574299dcd6426581e7bfe76d719206d"}, {"bike_id": "b362b1d3267ee7528f5d371a2db30954", "lat": 38.888022166666666, "is_disabled": 0, "lon": -77.09304933333334, "fusion_lon": 0.0, "is_reserved": 0, "fusion_lat": 0.0, "rental_uris": {"android": "https://dc.lft.to/lastmile_qr_scan", "ios": "https://dc.lft.to/lastmile_qr_scan"}, "type": "electric_bike", "name": "b362b1d3267ee7528f5d371a2db30954"}, {"bike_id": "9081cf5f3401465a1f5d3372382584e2", "lat": 38.972527, "is_disabled": 0, "lon": -76.992763, "fusion_lon": 0.0, "is_reserved": 0, "fusion_lat": 0.0, "rental_uris": {"android": "https://dc.lft.to/lastmile_qr_scan", "ios": "https://dc.lft.to/lastmile_qr_scan"}, "type": "electric_bike", "name": "9081cf5f3401465a1f5d3372382584e2"}, {"bike_id": "4bcae58b987d0d04b31763b62082e640", "lat": 38.90144266666667, "is_disabled": 0, "lon": -77.05124833333333, "fusion_lon": 0.0, "is_reserved": 0, "fusion_lat": 0.0, "rental_uris": {"android": "https://dc.lft.to/lastmile_qr_scan", "ios": "https://dc.lft.to/lastmile_qr_scan"}, "type": "electric_scooter", "name": "4bcae58b987d0d04b31763b62082e640"}, {"bike_id": "27fa8aef8e7bf3e3fb1502022125acfa", "lat": 38.89220183333333, "is_disabled": 0, "lon": -77.0262595, "fusion_lon": 0.0, "is_reserved": 0, "fusion_lat": 0.0, "rental_uris": {"android": "https://dc.lft.to/lastmile_qr_scan", "ios": "https://dc.lft.to/lastmile_qr_scan"}, "type": "electric_scooter", "name": "27fa8aef8e7bf3e3fb1502022125acfa"}, {"bike_id": "125db69845e8cb2e3be0096f5eeb1609", "lat": 38.919966333333335, "is_disabled": 0, "lon": -77.038815, "fusion_lon": 0.0, "is_reserved": 0, "fusion_lat": 0.0, "rental_uris": {"android": "https://dc.lft.to/lastmile_qr_scan", "ios": "https://dc.lft.to/lastmile_qr_scan"}, "type": "electric_scooter", "name": "125db69845e8cb2e3be0096f5eeb1609"}, {"bike_id": "8caa05a048fc07ec569d4cbbaadd74e7", "lat": 38.9154125, "is_disabled": 0, "lon": -77.03853733333334, "fusion_lon": 0.0, "is_reserved": 0, "fusion_lat": 0.0, "rental_uris": {"android": "https://dc.lft.to/lastmile_qr_scan", "ios": "https://dc.lft.to/lastmile_qr_scan"}, "type": "electric_scooter", "name": "8caa05a048fc07ec569d4cbbaadd74e7"}, {"bike_id": "990c74da54b6f0fa680b53ac5b89d0a1", "lat": 38.919484833333335, "is_disabled": 0, "lon": -77.01785416666667, "fusion_lon": 0.0, "is_reserved": 0, "fusion_lat": 0.0, "rental_uris": {"android": "https://dc.lft.to/lastmile_qr_scan", "ios": "https://dc.lft.to/lastmile_qr_scan"}, "type": "electric_scooter", "name": "990c74da54b6f0fa680b53ac5b89d0a1"}, {"bike_id": "3c672fb9d046f6f5a79ccf0c50398c23", "lat": 38.8936345, "is_disabled": 0, "lon": -77.04676316666666, "fusion_lon": 0.0, "is_reserved": 0, "fusion_lat": 0.0, "rental_uris": {"android": "https://dc.lft.to/lastmile_qr_scan", "ios": "https://dc.lft.to/lastmile_qr_scan"}, "type": "electric_scooter", "name": "3c672fb9d046f6f5a79ccf0c50398c23"}, {"bike_id": "7b6eff1d282488c0d5ff1ef119f06017", "lat": 38.931055666666666, "is_disabled": 0, "lon": -77.03271, "fusion_lon": 0.0, "is_reserved": 0, "fusion_lat": 0.0, "rental_uris": {"android": "https://dc.lft.to/lastmile_qr_scan", "ios": "https://dc.lft.to/lastmile_qr_scan"}, "type": "electric_scooter", "name": "7b6eff1d282488c0d5ff1ef119f06017"}, {"bike_id": "d5ce0e4fe432c548546f83717ca8ac06", "lat": 38.927612333333336, "is_disabled": 0, "lon": -77.02820433333333, "fusion_lon": 0.0, "is_reserved": 0, "fusion_lat": 0.0, "rental_uris": {"android": "https://dc.lft.to/lastmile_qr_scan", "ios": "https://dc.lft.to/lastmile_qr_scan"}, "type": "electric_scooter", "name": "d5ce0e4fe432c548546f83717ca8ac06"}, {"bike_id": "c979346ca0a5d6c98923ef1f71cf0213", "lat": 38.894936666666666, "is_disabled": 0, "lon": -77.00940133333333, "fusion_lon": 0.0, "is_reserved": 0, "fusion_lat": 0.0, "rental_uris": {"android": "https://dc.lft.to/lastmile_qr_scan", "ios": "https://dc.lft.to/lastmile_qr_scan"}, "type": "electric_scooter", "name": "c979346ca0a5d6c98923ef1f71cf0213"}, {"bike_id": "0526ba8fe99cbda948581ebf14678e5a", "lat": 38.95832466666667, "is_disabled": 0, "lon": -77.08477933333333, "fusion_lon": 0.0, "is_reserved": 0, "fusion_lat": 0.0, "rental_uris": {"android": "https://dc.lft.to/lastmile_qr_scan", "ios": "https://dc.lft.to/lastmile_qr_scan"}, "type": "electric_scooter", "name": "0526ba8fe99cbda948581ebf14678e5a"}, {"bike_id": "4fae3b2378879ac2ee1a4a4857e516f1", "lat": 38.85445216666667, "is_disabled": 0, "lon": -76.97223116666666, "fusion_lon": 0.0, "is_reserved": 0, "fusion_lat": 0.0, "rental_uris": {"android": "https://dc.lft.to/lastmile_qr_scan", "ios": "https://dc.lft.to/lastmile_qr_scan"}, "type": "electric_scooter", "name": "4fae3b2378879ac2ee1a4a4857e516f1"}, {"bike_id": "7def6cd7bd559c4bb2c2acc31ce3a612", "lat": 38.81907233333333, "is_disabled": 0, "lon": -77.12654766666667, "fusion_lon": 0.0, "is_reserved": 0, "fusion_lat": 0.0, "rental_uris": {"android": "https://dc.lft.to/lastmile_qr_scan", "ios": "https://dc.lft.to/lastmile_qr_scan"}, "type": "electric_bike", "name": "7def6cd7bd559c4bb2c2acc31ce3a612"}, {"bike_id": "7d61b05495d66abff73af4ad73914017", "lat": 38.8870345, "is_disabled": 0, "lon": -77.02828116666667, "fusion_lon": 0.0, "is_reserved": 0, "fusion_lat": 0.0, "rental_uris": {"android": "https://dc.lft.to/lastmile_qr_scan", "ios": "https://dc.lft.to/lastmile_qr_scan"}, "type": "electric_scooter", "name": "7d61b05495d66abff73af4ad73914017"}, {"bike_id": "65d06dcb8d32ed075ce53395f3dd1ab4", "lat": 38.90098116666667, "is_disabled": 0, "lon": -77.02465183333334, "fusion_lon": 0.0, "is_reserved": 0, "fusion_lat": 0.0, "rental_uris": {"android": "https://dc.lft.to/lastmile_qr_scan", "ios": "https://dc.lft.to/lastmile_qr_scan"}, "type": "electric_scooter", "name": "65d06dcb8d32ed075ce53395f3dd1ab4"}, {"bike_id": "db0a9d47d2b8a39318178332a0fbcdc2", "lat": 38.933017166666666, "is_disabled": 0, "lon": -77.03583866666666, "fusion_lon": 0.0, "is_reserved": 0, "fusion_lat": 0.0, "rental_uris": {"android": "https://dc.lft.to/lastmile_qr_scan", "ios": "https://dc.lft.to/lastmile_qr_scan"}, "type": "electric_scooter", "name": "db0a9d47d2b8a39318178332a0fbcdc2"}, {"bike_id": "c7c902fa68ec029a17fa0fd401d17d39", "lat": 38.927934, "is_disabled": 0, "lon": -77.03149266666667, "fusion_lon": 0.0, "is_reserved": 0, "fusion_lat": 0.0, "rental_uris": {"android": "https://dc.lft.to/lastmile_qr_scan", "ios": "https://dc.lft.to/lastmile_qr_scan"}, "type": "electric_scooter", "name": "c7c902fa68ec029a17fa0fd401d17d39"}, {"bike_id": "29bee68e125463a5e444315f19ecfde4", "lat": 38.89218366666667, "is_disabled": 0, "lon": -77.0436495, "fusion_lon": 0.0, "is_reserved": 0, "fusion_lat": 0.0, "rental_uris": {"android": "https://dc.lft.to/lastmile_qr_scan", "ios": "https://dc.lft.to/lastmile_qr_scan"}, "type": "electric_scooter", "name": "29bee68e125463a5e444315f19ecfde4"}, {"bike_id": "70ff352b189d7673b47cb17f243c3e3b", "lat": 38.887024833333335, "is_disabled": 0, "lon": -77.02821216666666, "fusion_lon": 0.0, "is_reserved": 0, "fusion_lat": 0.0, "rental_uris": {"android": "https://dc.lft.to/lastmile_qr_scan", "ios": "https://dc.lft.to/lastmile_qr_scan"}, "type": "electric_scooter", "name": "70ff352b189d7673b47cb17f243c3e3b"}, {"bike_id": "b3284cdde841b9bea7304fe49cc8e87a", "lat": 38.8922065, "is_disabled": 0, "lon": -77.0433735, "fusion_lon": 0.0, "is_reserved": 0, "fusion_lat": 0.0, "rental_uris": {"android": "https://dc.lft.to/lastmile_qr_scan", "ios": "https://dc.lft.to/lastmile_qr_scan"}, "type": "electric_scooter", "name": "b3284cdde841b9bea7304fe49cc8e87a"}, {"bike_id": "47e2082f5d5ba7d3b8963fd1cb70e2a9", "lat": 38.920678833333334, "is_disabled": 0, "lon": -77.032585, "fusion_lon": 0.0, "is_reserved": 0, "fusion_lat": 0.0, "rental_uris": {"android": "https://dc.lft.to/lastmile_qr_scan", "ios": "https://dc.lft.to/lastmile_qr_scan"}, "type": "electric_scooter", "name": "47e2082f5d5ba7d3b8963fd1cb70e2a9"}, {"bike_id": "4ae1a7727a02b4e3f805cc81a638f854", "lat": 38.896161666666664, "is_disabled": 0, "lon": -76.9073945, "fusion_lon": 0.0, "is_reserved": 0, "fusion_lat": 0.0, "rental_uris": {"android": "https://dc.lft.to/lastmile_qr_scan", "ios": "https://dc.lft.to/lastmile_qr_scan"}, "type": "electric_bike", "name": "4ae1a7727a02b4e3f805cc81a638f854"}, {"bike_id": "0673bcd1b4d70fdaa47436f32f6ccfd2", "lat": 38.925044666666665, "is_disabled": 0, "lon": -77.03884133333334, "fusion_lon": 0.0, "is_reserved": 0, "fusion_lat": 0.0, "rental_uris": {"android": "https://dc.lft.to/lastmile_qr_scan", "ios": "https://dc.lft.to/lastmile_qr_scan"}, "type": "electric_scooter", "name": "0673bcd1b4d70fdaa47436f32f6ccfd2"}, {"bike_id": "25a464af9a2ee527baf09b80fccc8aed", "lat": 38.91661166666667, "is_disabled": 0, "lon": -77.02284016666667, "fusion_lon": 0.0, "is_reserved": 0, "fusion_lat": 0.0, "rental_uris": {"android": "https://dc.lft.to/lastmile_qr_scan", "ios": "https://dc.lft.to/lastmile_qr_scan"}, "type": "electric_scooter", "name": "25a464af9a2ee527baf09b80fccc8aed"}, {"bike_id": "63cde443bd3d42d691668abcf1334b47", "lat": 38.9204605, "is_disabled": 0, "lon": -77.0317935, "fusion_lon": 0.0, "is_reserved": 0, "fusion_lat": 0.0, "rental_uris": {"android": "https://dc.lft.to/lastmile_qr_scan", "ios": "https://dc.lft.to/lastmile_qr_scan"}, "type": "electric_scooter", "name": "63cde443bd3d42d691668abcf1334b47"}, {"bike_id": "ddc7049c5a89a7be0e6150d832fc5e4f", "lat": 38.92077966666667, "is_disabled": 0, "lon": -77.02394383333333, "fusion_lon": 0.0, "is_reserved": 0, "fusion_lat": 0.0, "rental_uris": {"android": "https://dc.lft.to/lastmile_qr_scan", "ios": "https://dc.lft.to/lastmile_qr_scan"}, "type": "electric_scooter", "name": "ddc7049c5a89a7be0e6150d832fc5e4f"}, {"bike_id": "063cd7357484100a97e825e3f56f170b", "lat": 38.920637666666664, "is_disabled": 0, "lon": -77.02373883333334, "fusion_lon": 0.0, "is_reserved": 0, "fusion_lat": 0.0, "rental_uris": {"android": "https://dc.lft.to/lastmile_qr_scan", "ios": "https://dc.lft.to/lastmile_qr_scan"}, "type": "electric_scooter", "name": "063cd7357484100a97e825e3f56f170b"}, {"bike_id": "d6a8aca8a1dec9d60743a42720729be5", "lat": 38.915657333333336, "is_disabled": 0, "lon": -77.02005483333333, "fusion_lon": 0.0, "is_reserved": 0, "fusion_lat": 0.0, "rental_uris": {"android": "https://dc.lft.to/lastmile_qr_scan", "ios": "https://dc.lft.to/lastmile_qr_scan"}, "type": "electric_scooter", "name": "d6a8aca8a1dec9d60743a42720729be5"}, {"bike_id": "855552bc7b1106370db0dbd51a3426de", "lat": 38.9216145, "is_disabled": 0, "lon": -77.03380416666667, "fusion_lon": 0.0, "is_reserved": 0, "fusion_lat": 0.0, "rental_uris": {"android": "https://dc.lft.to/lastmile_qr_scan", "ios": "https://dc.lft.to/lastmile_qr_scan"}, "type": "electric_scooter", "name": "855552bc7b1106370db0dbd51a3426de"}, {"bike_id": "fb66f96d24ff242d82b1b49356116125", "lat": 38.910596166666664, "is_disabled": 0, "lon": -77.00912183333334, "fusion_lon": 0.0, "is_reserved": 0, "fusion_lat": 0.0, "rental_uris": {"android": "https://dc.lft.to/lastmile_qr_scan", "ios": "https://dc.lft.to/lastmile_qr_scan"}, "type": "electric_scooter", "name": "fb66f96d24ff242d82b1b49356116125"}, {"bike_id": "506fb98d8e5fa8ec9075d193b6d2f3a7", "lat": 38.92407766666667, "is_disabled": 0, "lon": -77.02006033333333, "fusion_lon": 0.0, "is_reserved": 0, "fusion_lat": 0.0, "rental_uris": {"android": "https://dc.lft.to/lastmile_qr_scan", "ios": "https://dc.lft.to/lastmile_qr_scan"}, "type": "electric_scooter", "name": "506fb98d8e5fa8ec9075d193b6d2f3a7"}, {"bike_id": "5c33a2fed1e88a89e2f8602f2547ce1b", "lat": 38.920383333333334, "is_disabled": 0, "lon": -77.033867, "fusion_lon": 0.0, "is_reserved": 0, "fusion_lat": 0.0, "rental_uris": {"android": "https://dc.lft.to/lastmile_qr_scan", "ios": "https://dc.lft.to/lastmile_qr_scan"}, "type": "electric_scooter", "name": "5c33a2fed1e88a89e2f8602f2547ce1b"}, {"bike_id": "341715f2e8a8ab6dbacae8021fed431d", "lat": 38.95921716666667, "is_disabled": 0, "lon": -76.99436316666667, "fusion_lon": 0.0, "is_reserved": 0, "fusion_lat": 0.0, "rental_uris": {"android": "https://dc.lft.to/lastmile_qr_scan", "ios": "https://dc.lft.to/lastmile_qr_scan"}, "type": "electric_scooter", "name": "341715f2e8a8ab6dbacae8021fed431d"}, {"bike_id": "529adfcf65fa4234ce40d5aabbca70a9", "lat": 38.88502716666667, "is_disabled": 0, "lon": -77.005674, "fusion_lon": 0.0, "is_reserved": 0, "fusion_lat": 0.0, "rental_uris": {"android": "https://dc.lft.to/lastmile_qr_scan", "ios": "https://dc.lft.to/lastmile_qr_scan"}, "type": "electric_scooter", "name": "529adfcf65fa4234ce40d5aabbca70a9"}, {"bike_id": "86f2452e775e19e47334a9483e9ab44c", "lat": 38.9012705, "is_disabled": 0, "lon": -77.03817966666666, "fusion_lon": 0.0, "is_reserved": 0, "fusion_lat": 0.0, "rental_uris": {"android": "https://dc.lft.to/lastmile_qr_scan", "ios": "https://dc.lft.to/lastmile_qr_scan"}, "type": "electric_scooter", "name": "86f2452e775e19e47334a9483e9ab44c"}, {"bike_id": "79065d9af5db39e03f815040e978c7fa", "lat": 38.924457333333336, "is_disabled": 0, "lon": -76.99012983333333, "fusion_lon": 0.0, "is_reserved": 0, "fusion_lat": 0.0, "rental_uris": {"android": "https://dc.lft.to/lastmile_qr_scan", "ios": "https://dc.lft.to/lastmile_qr_scan"}, "type": "electric_scooter", "name": "79065d9af5db39e03f815040e978c7fa"}, {"bike_id": "18d850afd2f5bf84e6f4c1a80b2106a2", "lat": 38.915885333333335, "is_disabled": 0, "lon": -77.043434, "fusion_lon": 0.0, "is_reserved": 0, "fusion_lat": 0.0, "rental_uris": {"android": "https://dc.lft.to/lastmile_qr_scan", "ios": "https://dc.lft.to/lastmile_qr_scan"}, "type": "electric_scooter", "name": "18d850afd2f5bf84e6f4c1a80b2106a2"}, {"bike_id": "c280911a34371801f549e224a91fd2d3", "lat": 38.908659166666666, "is_disabled": 0, "lon": -76.9849365, "fusion_lon": 0.0, "is_reserved": 0, "fusion_lat": 0.0, "rental_uris": {"android": "https://dc.lft.to/lastmile_qr_scan", "ios": "https://dc.lft.to/lastmile_qr_scan"}, "type": "electric_scooter", "name": "c280911a34371801f549e224a91fd2d3"}, {"bike_id": "1401f22d65b62c26b52b295e6166b4b2", "lat": 38.9065925, "is_disabled": 0, "lon": -77.02699916666667, "fusion_lon": 0.0, "is_reserved": 0, "fusion_lat": 0.0, "rental_uris": {"android": "https://dc.lft.to/lastmile_qr_scan", "ios": "https://dc.lft.to/lastmile_qr_scan"}, "type": "electric_scooter", "name": "1401f22d65b62c26b52b295e6166b4b2"}, {"bike_id": "5e8fc4f7afba886915cefd51e6da24af", "lat": 38.917256, "is_disabled": 0, "lon": -77.03171216666667, "fusion_lon": 0.0, "is_reserved": 0, "fusion_lat": 0.0, "rental_uris": {"android": "https://dc.lft.to/lastmile_qr_scan", "ios": "https://dc.lft.to/lastmile_qr_scan"}, "type": "electric_scooter", "name": "5e8fc4f7afba886915cefd51e6da24af"}, {"bike_id": "5f25ac7a01450ca38a5572b649fddd84", "lat": 38.92459216666666, "is_disabled": 0, "lon": -77.05752866666667, "fusion_lon": 0.0, "is_reserved": 0, "fusion_lat": 0.0, "rental_uris": {"android": "https://dc.lft.to/lastmile_qr_scan", "ios": "https://dc.lft.to/lastmile_qr_scan"}, "type": "electric_scooter", "name": "5f25ac7a01450ca38a5572b649fddd84"}, {"bike_id": "70d9fce83d54d3cedc1eaf2b329f1808", "lat": 38.92372066666667, "is_disabled": 0, "lon": -77.01986883333333, "fusion_lon": 0.0, "is_reserved": 0, "fusion_lat": 0.0, "rental_uris": {"android": "https://dc.lft.to/lastmile_qr_scan", "ios": "https://dc.lft.to/lastmile_qr_scan"}, "type": "electric_scooter", "name": "70d9fce83d54d3cedc1eaf2b329f1808"}, {"bike_id": "db55092dfc4ba7a7a69a278b71518758", "lat": 38.92224683333333, "is_disabled": 0, "lon": -77.02238083333333, "fusion_lon": 0.0, "is_reserved": 0, "fusion_lat": 0.0, "rental_uris": {"android": "https://dc.lft.to/lastmile_qr_scan", "ios": "https://dc.lft.to/lastmile_qr_scan"}, "type": "electric_scooter", "name": "db55092dfc4ba7a7a69a278b71518758"}, {"bike_id": "6fbd0cee793f2b5e882dc380b809daae", "lat": 38.8619725, "is_disabled": 0, "lon": -76.99506566666666, "fusion_lon": 0.0, "is_reserved": 0, "fusion_lat": 0.0, "rental_uris": {"android": "https://dc.lft.to/lastmile_qr_scan", "ios": "https://dc.lft.to/lastmile_qr_scan"}, "type": "electric_scooter", "name": "6fbd0cee793f2b5e882dc380b809daae"}, {"bike_id": "62e85cf8497cbb7d751941a7b7840ce2", "lat": 38.928688, "is_disabled": 0, "lon": -77.03242966666667, "fusion_lon": 0.0, "is_reserved": 0, "fusion_lat": 0.0, "rental_uris": {"android": "https://dc.lft.to/lastmile_qr_scan", "ios": "https://dc.lft.to/lastmile_qr_scan"}, "type": "electric_scooter", "name": "62e85cf8497cbb7d751941a7b7840ce2"}, {"bike_id": "ab33d98313a7ec0218da5b57f5d7ab64", "lat": 38.844308833333336, "is_disabled": 0, "lon": -76.98849383333334, "fusion_lon": 0.0, "is_reserved": 0, "fusion_lat": 0.0, "rental_uris": {"android": "https://dc.lft.to/lastmile_qr_scan", "ios": "https://dc.lft.to/lastmile_qr_scan"}, "type": "electric_bike", "name": "ab33d98313a7ec0218da5b57f5d7ab64"}, {"bike_id": "5bdc51bcf74c61b4b298107660f69b8b", "lat": 38.923867333333334, "is_disabled": 0, "lon": -77.03622983333334, "fusion_lon": 0.0, "is_reserved": 0, "fusion_lat": 0.0, "rental_uris": {"android": "https://dc.lft.to/lastmile_qr_scan", "ios": "https://dc.lft.to/lastmile_qr_scan"}, "type": "electric_scooter", "name": "5bdc51bcf74c61b4b298107660f69b8b"}, {"bike_id": "12e4eacbdb2d397986fb4c760d8bc5db", "lat": 38.822961666666664, "is_disabled": 0, "lon": -77.0813615, "fusion_lon": 0.0, "is_reserved": 0, "fusion_lat": 0.0, "rental_uris": {"android": "https://dc.lft.to/lastmile_qr_scan", "ios": "https://dc.lft.to/lastmile_qr_scan"}, "type": "electric_bike", "name": "12e4eacbdb2d397986fb4c760d8bc5db"}, {"bike_id": "e1d344ae04cb89c3863fa0a71e9eb4a8", "lat": 38.932195666666665, "is_disabled": 0, "lon": -77.0336605, "fusion_lon": 0.0, "is_reserved": 0, "fusion_lat": 0.0, "rental_uris": {"android": "https://dc.lft.to/lastmile_qr_scan", "ios": "https://dc.lft.to/lastmile_qr_scan"}, "type": "electric_scooter", "name": "e1d344ae04cb89c3863fa0a71e9eb4a8"}, {"bike_id": "f64672af2bbb52379a7be85aca2970d8", "lat": 38.938947, "is_disabled": 0, "lon": -76.96317633333334, "fusion_lon": 0.0, "is_reserved": 0, "fusion_lat": 0.0, "rental_uris": {"android": "https://dc.lft.to/lastmile_qr_scan", "ios": "https://dc.lft.to/lastmile_qr_scan"}, "type": "electric_bike", "name": "f64672af2bbb52379a7be85aca2970d8"}, {"bike_id": "d0ecfff6c4fcead8456961da0e70dd05", "lat": 38.892197333333336, "is_disabled": 0, "lon": -77.044676, "fusion_lon": 0.0, "is_reserved": 0, "fusion_lat": 0.0, "rental_uris": {"android": "https://dc.lft.to/lastmile_qr_scan", "ios": "https://dc.lft.to/lastmile_qr_scan"}, "type": "electric_scooter", "name": "d0ecfff6c4fcead8456961da0e70dd05"}, {"bike_id": "94a45900113f565d8d5bcd694f5738ce", "lat": 38.93138316666667, "is_disabled": 0, "lon": -77.078473, "fusion_lon": 0.0, "is_reserved": 0, "fusion_lat": 0.0, "rental_uris": {"android": "https://dc.lft.to/lastmile_qr_scan", "ios": "https://dc.lft.to/lastmile_qr_scan"}, "type": "electric_scooter", "name": "94a45900113f565d8d5bcd694f5738ce"}, {"bike_id": "f70dc9955b7b3fd919d688eeffeea3d2", "lat": 38.9203955, "is_disabled": 0, "lon": -77.04415966666667, "fusion_lon": 0.0, "is_reserved": 0, "fusion_lat": 0.0, "rental_uris": {"android": "https://dc.lft.to/lastmile_qr_scan", "ios": "https://dc.lft.to/lastmile_qr_scan"}, "type": "electric_scooter", "name": "f70dc9955b7b3fd919d688eeffeea3d2"}, {"bike_id": "885b2090979451c96a52d7cfd06d53d9", "lat": 38.89724533333333, "is_disabled": 0, "lon": -77.02775716666666, "fusion_lon": 0.0, "is_reserved": 0, "fusion_lat": 0.0, "rental_uris": {"android": "https://dc.lft.to/lastmile_qr_scan", "ios": "https://dc.lft.to/lastmile_qr_scan"}, "type": "electric_scooter", "name": "885b2090979451c96a52d7cfd06d53d9"}, {"bike_id": "a023b5b23ad97275650a8591b4ddf16d", "lat": 38.925054333333335, "is_disabled": 0, "lon": -77.03874, "fusion_lon": 0.0, "is_reserved": 0, "fusion_lat": 0.0, "rental_uris": {"android": "https://dc.lft.to/lastmile_qr_scan", "ios": "https://dc.lft.to/lastmile_qr_scan"}, "type": "electric_scooter", "name": "a023b5b23ad97275650a8591b4ddf16d"}, {"bike_id": "8426f63df70dbe9eed394bb769bbf68f", "lat": 38.92055516666667, "is_disabled": 0, "lon": -77.04253816666667, "fusion_lon": 0.0, "is_reserved": 0, "fusion_lat": 0.0, "rental_uris": {"android": "https://dc.lft.to/lastmile_qr_scan", "ios": "https://dc.lft.to/lastmile_qr_scan"}, "type": "electric_scooter", "name": "8426f63df70dbe9eed394bb769bbf68f"}, {"bike_id": "08b042c5c679b05ccc332a030e7cd9b0", "lat": 38.873956166666666, "is_disabled": 0, "lon": -76.96979116666667, "fusion_lon": 0.0, "is_reserved": 0, "fusion_lat": 0.0, "rental_uris": {"android": "https://dc.lft.to/lastmile_qr_scan", "ios": "https://dc.lft.to/lastmile_qr_scan"}, "type": "electric_scooter", "name": "08b042c5c679b05ccc332a030e7cd9b0"}, {"bike_id": "a29afa3af59b963cbe22f5455d2f2016", "lat": 38.865820666666664, "is_disabled": 0, "lon": -76.98048416666667, "fusion_lon": 0.0, "is_reserved": 0, "fusion_lat": 0.0, "rental_uris": {"android": "https://dc.lft.to/lastmile_qr_scan", "ios": "https://dc.lft.to/lastmile_qr_scan"}, "type": "electric_bike", "name": "a29afa3af59b963cbe22f5455d2f2016"}, {"bike_id": "e526a12f068891cd7af6a90e33418275", "lat": 38.884223, "is_disabled": 0, "lon": -76.9575165, "fusion_lon": 0.0, "is_reserved": 0, "fusion_lat": 0.0, "rental_uris": {"android": "https://dc.lft.to/lastmile_qr_scan", "ios": "https://dc.lft.to/lastmile_qr_scan"}, "type": "electric_scooter", "name": "e526a12f068891cd7af6a90e33418275"}, {"bike_id": "826c18cdc886256cf082a753a4e1b4cb", "lat": 38.9085725, "is_disabled": 0, "lon": -77.0037245, "fusion_lon": 0.0, "is_reserved": 0, "fusion_lat": 0.0, "rental_uris": {"android": "https://dc.lft.to/lastmile_qr_scan", "ios": "https://dc.lft.to/lastmile_qr_scan"}, "type": "electric_scooter", "name": "826c18cdc886256cf082a753a4e1b4cb"}, {"bike_id": "b52cb939fd1b4442c2bcf71b65d817fb", "lat": 38.892142666666665, "is_disabled": 0, "lon": -77.03216516666667, "fusion_lon": 0.0, "is_reserved": 0, "fusion_lat": 0.0, "rental_uris": {"android": "https://dc.lft.to/lastmile_qr_scan", "ios": "https://dc.lft.to/lastmile_qr_scan"}, "type": "electric_scooter", "name": "b52cb939fd1b4442c2bcf71b65d817fb"}, {"bike_id": "712774c638c684780c6920e516d4a37d", "lat": 38.916191, "is_disabled": 0, "lon": -77.0458715, "fusion_lon": 0.0, "is_reserved": 0, "fusion_lat": 0.0, "rental_uris": {"android": "https://dc.lft.to/lastmile_qr_scan", "ios": "https://dc.lft.to/lastmile_qr_scan"}, "type": "electric_scooter", "name": "712774c638c684780c6920e516d4a37d"}, {"bike_id": "3ac9fa557709fbf221e32a2e1b13ec62", "lat": 38.936262166666666, "is_disabled": 0, "lon": -77.03663383333334, "fusion_lon": 0.0, "is_reserved": 0, "fusion_lat": 0.0, "rental_uris": {"android": "https://dc.lft.to/lastmile_qr_scan", "ios": "https://dc.lft.to/lastmile_qr_scan"}, "type": "electric_scooter", "name": "3ac9fa557709fbf221e32a2e1b13ec62"}, {"bike_id": "4d288405609b20401ac607b85b6ede42", "lat": 38.90716483333333, "is_disabled": 0, "lon": -77.0400115, "fusion_lon": 0.0, "is_reserved": 0, "fusion_lat": 0.0, "rental_uris": {"android": "https://dc.lft.to/lastmile_qr_scan", "ios": "https://dc.lft.to/lastmile_qr_scan"}, "type": "electric_scooter", "name": "4d288405609b20401ac607b85b6ede42"}, {"bike_id": "6b73ac654d603b8fc0a645a832150329", "lat": 38.93348816666666, "is_disabled": 0, "lon": -77.02980316666667, "fusion_lon": 0.0, "is_reserved": 0, "fusion_lat": 0.0, "rental_uris": {"android": "https://dc.lft.to/lastmile_qr_scan", "ios": "https://dc.lft.to/lastmile_qr_scan"}, "type": "electric_scooter", "name": "6b73ac654d603b8fc0a645a832150329"}, {"bike_id": "b9a43b7b51291acd19a5a3cd09287bbe", "lat": 38.923382833333335, "is_disabled": 0, "lon": -77.05390216666666, "fusion_lon": 0.0, "is_reserved": 0, "fusion_lat": 0.0, "rental_uris": {"android": "https://dc.lft.to/lastmile_qr_scan", "ios": "https://dc.lft.to/lastmile_qr_scan"}, "type": "electric_scooter", "name": "b9a43b7b51291acd19a5a3cd09287bbe"}, {"bike_id": "9cb9a7786b1bb9a1f4b7ae7213bab0f5", "lat": 38.9244355, "is_disabled": 0, "lon": -77.03288733333333, "fusion_lon": 0.0, "is_reserved": 0, "fusion_lat": 0.0, "rental_uris": {"android": "https://dc.lft.to/lastmile_qr_scan", "ios": "https://dc.lft.to/lastmile_qr_scan"}, "type": "electric_scooter", "name": "9cb9a7786b1bb9a1f4b7ae7213bab0f5"}, {"bike_id": "c73a980bb5fed6e7137c62832dbba56c", "lat": 38.9194375, "is_disabled": 0, "lon": -77.0252275, "fusion_lon": 0.0, "is_reserved": 0, "fusion_lat": 0.0, "rental_uris": {"android": "https://dc.lft.to/lastmile_qr_scan", "ios": "https://dc.lft.to/lastmile_qr_scan"}, "type": "electric_scooter", "name": "c73a980bb5fed6e7137c62832dbba56c"}, {"bike_id": "6e38a0619116e23e1b514934c3fd6668", "lat": 38.924484666666665, "is_disabled": 0, "lon": -77.05203083333333, "fusion_lon": 0.0, "is_reserved": 0, "fusion_lat": 0.0, "rental_uris": {"android": "https://dc.lft.to/lastmile_qr_scan", "ios": "https://dc.lft.to/lastmile_qr_scan"}, "type": "electric_scooter", "name": "6e38a0619116e23e1b514934c3fd6668"}, {"bike_id": "9596272e1255df00aa52e2ca0860b975", "lat": 38.932824, "is_disabled": 0, "lon": -77.03696583333333, "fusion_lon": 0.0, "is_reserved": 0, "fusion_lat": 0.0, "rental_uris": {"android": "https://dc.lft.to/lastmile_qr_scan", "ios": "https://dc.lft.to/lastmile_qr_scan"}, "type": "electric_scooter", "name": "9596272e1255df00aa52e2ca0860b975"}, {"bike_id": "deedc7f190e23128ed4a9a6c4d909fd4", "lat": 38.9199485, "is_disabled": 0, "lon": -77.031958, "fusion_lon": 0.0, "is_reserved": 0, "fusion_lat": 0.0, "rental_uris": {"android": "https://dc.lft.to/lastmile_qr_scan", "ios": "https://dc.lft.to/lastmile_qr_scan"}, "type": "electric_scooter", "name": "deedc7f190e23128ed4a9a6c4d909fd4"}, {"bike_id": "4c4de33f0183a195d2bb796cb8917b6d", "lat": 38.885168, "is_disabled": 0, "lon": -77.02088983333333, "fusion_lon": 0.0, "is_reserved": 0, "fusion_lat": 0.0, "rental_uris": {"android": "https://dc.lft.to/lastmile_qr_scan", "ios": "https://dc.lft.to/lastmile_qr_scan"}, "type": "electric_scooter", "name": "4c4de33f0183a195d2bb796cb8917b6d"}, {"bike_id": "10b018603022e1a9b7cca5cc571ef877", "lat": 38.928240333333335, "is_disabled": 0, "lon": -77.02254933333333, "fusion_lon": 0.0, "is_reserved": 0, "fusion_lat": 0.0, "rental_uris": {"android": "https://dc.lft.to/lastmile_qr_scan", "ios": "https://dc.lft.to/lastmile_qr_scan"}, "type": "electric_scooter", "name": "10b018603022e1a9b7cca5cc571ef877"}, {"bike_id": "310e64331488ac6da4d5dc543a4006b5", "lat": 38.9284125, "is_disabled": 0, "lon": -77.032815, "fusion_lon": 0.0, "is_reserved": 0, "fusion_lat": 0.0, "rental_uris": {"android": "https://dc.lft.to/lastmile_qr_scan", "ios": "https://dc.lft.to/lastmile_qr_scan"}, "type": "electric_scooter", "name": "310e64331488ac6da4d5dc543a4006b5"}, {"bike_id": "165cf2ae1815343310bb445cd39579b7", "lat": 38.892210666666664, "is_disabled": 0, "lon": -77.04860216666667, "fusion_lon": 0.0, "is_reserved": 0, "fusion_lat": 0.0, "rental_uris": {"android": "https://dc.lft.to/lastmile_qr_scan", "ios": "https://dc.lft.to/lastmile_qr_scan"}, "type": "electric_scooter", "name": "165cf2ae1815343310bb445cd39579b7"}, {"bike_id": "28a690270159cb5ef8b0f0fb62f41035", "lat": 38.90583016666667, "is_disabled": 0, "lon": -77.0652155, "fusion_lon": 0.0, "is_reserved": 0, "fusion_lat": 0.0, "rental_uris": {"android": "https://dc.lft.to/lastmile_qr_scan", "ios": "https://dc.lft.to/lastmile_qr_scan"}, "type": "electric_scooter", "name": "28a690270159cb5ef8b0f0fb62f41035"}, {"bike_id": "4662a3169abd7cb2e9874716d535f5c5", "lat": 38.956640166666666, "is_disabled": 0, "lon": -77.0131965, "fusion_lon": 0.0, "is_reserved": 0, "fusion_lat": 0.0, "rental_uris": {"android": "https://dc.lft.to/lastmile_qr_scan", "ios": "https://dc.lft.to/lastmile_qr_scan"}, "type": "electric_bike", "name": "4662a3169abd7cb2e9874716d535f5c5"}, {"bike_id": "18faaf92866bab144545621dbdc6c32c", "lat": 38.90844233333333, "is_disabled": 0, "lon": -77.0366905, "fusion_lon": 0.0, "is_reserved": 0, "fusion_lat": 0.0, "rental_uris": {"android": "https://dc.lft.to/lastmile_qr_scan", "ios": "https://dc.lft.to/lastmile_qr_scan"}, "type": "electric_scooter", "name": "18faaf92866bab144545621dbdc6c32c"}, {"bike_id": "88eb43df1d16e2ae509572eb0d2e7af8", "lat": 38.8928345, "is_disabled": 0, "lon": -76.9509685, "fusion_lon": 0.0, "is_reserved": 0, "fusion_lat": 0.0, "rental_uris": {"android": "https://dc.lft.to/lastmile_qr_scan", "ios": "https://dc.lft.to/lastmile_qr_scan"}, "type": "electric_scooter", "name": "88eb43df1d16e2ae509572eb0d2e7af8"}, {"bike_id": "17a78df3cb7d4ee884263cd6b8a46a8e", "lat": 38.909661, "is_disabled": 0, "lon": -77.03850216666666, "fusion_lon": 0.0, "is_reserved": 0, "fusion_lat": 0.0, "rental_uris": {"android": "https://dc.lft.to/lastmile_qr_scan", "ios": "https://dc.lft.to/lastmile_qr_scan"}, "type": "electric_scooter", "name": "17a78df3cb7d4ee884263cd6b8a46a8e"}, {"bike_id": "4785e958e4970d33f748bc62d7c526d1", "lat": 38.922666666666665, "is_disabled": 0, "lon": -77.01919233333334, "fusion_lon": 0.0, "is_reserved": 0, "fusion_lat": 0.0, "rental_uris": {"android": "https://dc.lft.to/lastmile_qr_scan", "ios": "https://dc.lft.to/lastmile_qr_scan"}, "type": "electric_scooter", "name": "4785e958e4970d33f748bc62d7c526d1"}, {"bike_id": "89f39940712c76274b43fea733357558", "lat": 38.94446766666667, "is_disabled": 0, "lon": -77.02800333333333, "fusion_lon": 0.0, "is_reserved": 0, "fusion_lat": 0.0, "rental_uris": {"android": "https://dc.lft.to/lastmile_qr_scan", "ios": "https://dc.lft.to/lastmile_qr_scan"}, "type": "electric_scooter", "name": "89f39940712c76274b43fea733357558"}, {"bike_id": "0cbd035e8f26c0e0d92f38124bbca16d", "lat": 38.879907833333334, "is_disabled": 0, "lon": -77.012871, "fusion_lon": 0.0, "is_reserved": 0, "fusion_lat": 0.0, "rental_uris": {"android": "https://dc.lft.to/lastmile_qr_scan", "ios": "https://dc.lft.to/lastmile_qr_scan"}, "type": "electric_scooter", "name": "0cbd035e8f26c0e0d92f38124bbca16d"}, {"bike_id": "e1c27a33f714a499f0af06a036aa4f2b", "lat": 38.91427066666667, "is_disabled": 0, "lon": -77.0449575, "fusion_lon": 0.0, "is_reserved": 0, "fusion_lat": 0.0, "rental_uris": {"android": "https://dc.lft.to/lastmile_qr_scan", "ios": "https://dc.lft.to/lastmile_qr_scan"}, "type": "electric_scooter", "name": "e1c27a33f714a499f0af06a036aa4f2b"}, {"bike_id": "d5217aa6b8175f584210fccf967e883d", "lat": 38.93390433333333, "is_disabled": 0, "lon": -77.0455295, "fusion_lon": 0.0, "is_reserved": 0, "fusion_lat": 0.0, "rental_uris": {"android": "https://dc.lft.to/lastmile_qr_scan", "ios": "https://dc.lft.to/lastmile_qr_scan"}, "type": "electric_scooter", "name": "d5217aa6b8175f584210fccf967e883d"}, {"bike_id": "ca3f4127bf86d16eb8b585a7955025be", "lat": 38.91756066666667, "is_disabled": 0, "lon": -77.03910483333334, "fusion_lon": 0.0, "is_reserved": 0, "fusion_lat": 0.0, "rental_uris": {"android": "https://dc.lft.to/lastmile_qr_scan", "ios": "https://dc.lft.to/lastmile_qr_scan"}, "type": "electric_scooter", "name": "ca3f4127bf86d16eb8b585a7955025be"}, {"bike_id": "b393d75a9668696383bd4d9317a1522a", "lat": 38.8974205, "is_disabled": 0, "lon": -77.0092255, "fusion_lon": 0.0, "is_reserved": 0, "fusion_lat": 0.0, "rental_uris": {"android": "https://dc.lft.to/lastmile_qr_scan", "ios": "https://dc.lft.to/lastmile_qr_scan"}, "type": "electric_scooter", "name": "b393d75a9668696383bd4d9317a1522a"}, {"bike_id": "8a9b0d54f578799270ee25f0443cce65", "lat": 38.86362033333333, "is_disabled": 0, "lon": -76.9904305, "fusion_lon": 0.0, "is_reserved": 0, "fusion_lat": 0.0, "rental_uris": {"android": "https://dc.lft.to/lastmile_qr_scan", "ios": "https://dc.lft.to/lastmile_qr_scan"}, "type": "electric_scooter", "name": "8a9b0d54f578799270ee25f0443cce65"}, {"bike_id": "92f45669b1706f134ce6be58a69367cc", "lat": 38.921716833333335, "is_disabled": 0, "lon": -76.998487, "fusion_lon": 0.0, "is_reserved": 0, "fusion_lat": 0.0, "rental_uris": {"android": "https://dc.lft.to/lastmile_qr_scan", "ios": "https://dc.lft.to/lastmile_qr_scan"}, "type": "electric_scooter", "name": "92f45669b1706f134ce6be58a69367cc"}, {"bike_id": "fbe18e8999580ce71dfa00f0da15303e", "lat": 38.898847833333335, "is_disabled": 0, "lon": -76.93176866666667, "fusion_lon": 0.0, "is_reserved": 0, "fusion_lat": 0.0, "rental_uris": {"android": "https://dc.lft.to/lastmile_qr_scan", "ios": "https://dc.lft.to/lastmile_qr_scan"}, "type": "electric_scooter", "name": "fbe18e8999580ce71dfa00f0da15303e"}, {"bike_id": "2af57aa602269d1120240af7781d6a99", "lat": 38.90476233333333, "is_disabled": 0, "lon": -77.03569533333334, "fusion_lon": 0.0, "is_reserved": 0, "fusion_lat": 0.0, "rental_uris": {"android": "https://dc.lft.to/lastmile_qr_scan", "ios": "https://dc.lft.to/lastmile_qr_scan"}, "type": "electric_scooter", "name": "2af57aa602269d1120240af7781d6a99"}, {"bike_id": "2f0e03bb6b31ac66f09696b8ed36c350", "lat": 38.919490833333334, "is_disabled": 0, "lon": -77.01777233333334, "fusion_lon": 0.0, "is_reserved": 0, "fusion_lat": 0.0, "rental_uris": {"android": "https://dc.lft.to/lastmile_qr_scan", "ios": "https://dc.lft.to/lastmile_qr_scan"}, "type": "electric_scooter", "name": "2f0e03bb6b31ac66f09696b8ed36c350"}, {"bike_id": "79f72bd35ff20e10fd2cfcdf7a6f7656", "lat": 38.90889683333333, "is_disabled": 0, "lon": -77.0231695, "fusion_lon": 0.0, "is_reserved": 0, "fusion_lat": 0.0, "rental_uris": {"android": "https://dc.lft.to/lastmile_qr_scan", "ios": "https://dc.lft.to/lastmile_qr_scan"}, "type": "electric_scooter", "name": "79f72bd35ff20e10fd2cfcdf7a6f7656"}, {"bike_id": "2b99e20e548743276a03807784073a19", "lat": 38.91693266666667, "is_disabled": 0, "lon": -77.02843466666667, "fusion_lon": 0.0, "is_reserved": 0, "fusion_lat": 0.0, "rental_uris": {"android": "https://dc.lft.to/lastmile_qr_scan", "ios": "https://dc.lft.to/lastmile_qr_scan"}, "type": "electric_scooter", "name": "2b99e20e548743276a03807784073a19"}, {"bike_id": "b8e007f0fe488621427045cf3d33d6e9", "lat": 38.908348, "is_disabled": 0, "lon": -77.03683616666666, "fusion_lon": 0.0, "is_reserved": 0, "fusion_lat": 0.0, "rental_uris": {"android": "https://dc.lft.to/lastmile_qr_scan", "ios": "https://dc.lft.to/lastmile_qr_scan"}, "type": "electric_scooter", "name": "b8e007f0fe488621427045cf3d33d6e9"}, {"bike_id": "073547b3a62f07000736907a9a7e5d7b", "lat": 38.9085415, "is_disabled": 0, "lon": -77.04535516666667, "fusion_lon": 0.0, "is_reserved": 0, "fusion_lat": 0.0, "rental_uris": {"android": "https://dc.lft.to/lastmile_qr_scan", "ios": "https://dc.lft.to/lastmile_qr_scan"}, "type": "electric_scooter", "name": "073547b3a62f07000736907a9a7e5d7b"}, {"bike_id": "a2fc6755a0128e4659450673dc3fc975", "lat": 38.9026215, "is_disabled": 0, "lon": -77.04521116666666, "fusion_lon": 0.0, "is_reserved": 0, "fusion_lat": 0.0, "rental_uris": {"android": "https://dc.lft.to/lastmile_qr_scan", "ios": "https://dc.lft.to/lastmile_qr_scan"}, "type": "electric_scooter", "name": "a2fc6755a0128e4659450673dc3fc975"}, {"bike_id": "89844b84e94ce3b5a6e47eeb7efc111d", "lat": 38.90271, "is_disabled": 0, "lon": -77.0385185, "fusion_lon": 0.0, "is_reserved": 0, "fusion_lat": 0.0, "rental_uris": {"android": "https://dc.lft.to/lastmile_qr_scan", "ios": "https://dc.lft.to/lastmile_qr_scan"}, "type": "electric_scooter", "name": "89844b84e94ce3b5a6e47eeb7efc111d"}, {"bike_id": "b2448647eaac4f963c590a6cf2aa8efc", "lat": 38.916909, "is_disabled": 0, "lon": -77.03506533333334, "fusion_lon": 0.0, "is_reserved": 0, "fusion_lat": 0.0, "rental_uris": {"android": "https://dc.lft.to/lastmile_qr_scan", "ios": "https://dc.lft.to/lastmile_qr_scan"}, "type": "electric_scooter", "name": "b2448647eaac4f963c590a6cf2aa8efc"}, {"bike_id": "264b7c08a91faf24a15625e251f68639", "lat": 38.885286666666666, "is_disabled": 0, "lon": -76.98331083333333, "fusion_lon": 0.0, "is_reserved": 0, "fusion_lat": 0.0, "rental_uris": {"android": "https://dc.lft.to/lastmile_qr_scan", "ios": "https://dc.lft.to/lastmile_qr_scan"}, "type": "electric_scooter", "name": "264b7c08a91faf24a15625e251f68639"}, {"bike_id": "011b9571621af98ac49d40f33285852b", "lat": 38.913958, "is_disabled": 0, "lon": -77.06422966666666, "fusion_lon": 0.0, "is_reserved": 0, "fusion_lat": 0.0, "rental_uris": {"android": "https://dc.lft.to/lastmile_qr_scan", "ios": "https://dc.lft.to/lastmile_qr_scan"}, "type": "electric_scooter", "name": "011b9571621af98ac49d40f33285852b"}, {"bike_id": "b0fc8790839c5cdd3b8945b820f76679", "lat": 38.937178333333335, "is_disabled": 0, "lon": -77.0243655, "fusion_lon": 0.0, "is_reserved": 0, "fusion_lat": 0.0, "rental_uris": {"android": "https://dc.lft.to/lastmile_qr_scan", "ios": "https://dc.lft.to/lastmile_qr_scan"}, "type": "electric_scooter", "name": "b0fc8790839c5cdd3b8945b820f76679"}, {"bike_id": "2c44e314c1b9d0e1b0a5d2a84cea87a8", "lat": 38.907496, "is_disabled": 0, "lon": -77.035731, "fusion_lon": 0.0, "is_reserved": 0, "fusion_lat": 0.0, "rental_uris": {"android": "https://dc.lft.to/lastmile_qr_scan", "ios": "https://dc.lft.to/lastmile_qr_scan"}, "type": "electric_scooter", "name": "2c44e314c1b9d0e1b0a5d2a84cea87a8"}, {"bike_id": "d6972dede05650236bc9aaae58ef257c", "lat": 38.91562016666666, "is_disabled": 0, "lon": -77.0204975, "fusion_lon": 0.0, "is_reserved": 0, "fusion_lat": 0.0, "rental_uris": {"android": "https://dc.lft.to/lastmile_qr_scan", "ios": "https://dc.lft.to/lastmile_qr_scan"}, "type": "electric_scooter", "name": "d6972dede05650236bc9aaae58ef257c"}, {"bike_id": "1a810e3cf30c9577529a2ad89697bd81", "lat": 38.892214833333334, "is_disabled": 0, "lon": -77.03218966666667, "fusion_lon": 0.0, "is_reserved": 0, "fusion_lat": 0.0, "rental_uris": {"android": "https://dc.lft.to/lastmile_qr_scan", "ios": "https://dc.lft.to/lastmile_qr_scan"}, "type": "electric_scooter", "name": "1a810e3cf30c9577529a2ad89697bd81"}, {"bike_id": "71a2d1ba0b400834015c479405fac81a", "lat": 38.880798666666664, "is_disabled": 0, "lon": -76.98517816666667, "fusion_lon": 0.0, "is_reserved": 0, "fusion_lat": 0.0, "rental_uris": {"android": "https://dc.lft.to/lastmile_qr_scan", "ios": "https://dc.lft.to/lastmile_qr_scan"}, "type": "electric_scooter", "name": "71a2d1ba0b400834015c479405fac81a"}, {"bike_id": "f339e0e186ff0baece8daa1962a3686a", "lat": 38.92408666666667, "is_disabled": 0, "lon": -77.03551233333333, "fusion_lon": 0.0, "is_reserved": 0, "fusion_lat": 0.0, "rental_uris": {"android": "https://dc.lft.to/lastmile_qr_scan", "ios": "https://dc.lft.to/lastmile_qr_scan"}, "type": "electric_scooter", "name": "f339e0e186ff0baece8daa1962a3686a"}, {"bike_id": "2063c580b079b08352655436489b207a", "lat": 38.88524533333333, "is_disabled": 0, "lon": -77.00594616666666, "fusion_lon": 0.0, "is_reserved": 0, "fusion_lat": 0.0, "rental_uris": {"android": "https://dc.lft.to/lastmile_qr_scan", "ios": "https://dc.lft.to/lastmile_qr_scan"}, "type": "electric_scooter", "name": "2063c580b079b08352655436489b207a"}, {"bike_id": "9aaf5378cb8017acc62133af51bc469b", "lat": 38.905713166666665, "is_disabled": 0, "lon": -77.02413983333334, "fusion_lon": 0.0, "is_reserved": 0, "fusion_lat": 0.0, "rental_uris": {"android": "https://dc.lft.to/lastmile_qr_scan", "ios": "https://dc.lft.to/lastmile_qr_scan"}, "type": "electric_scooter", "name": "9aaf5378cb8017acc62133af51bc469b"}, {"bike_id": "ca885909995275e5f373a78ba92d7fbe", "lat": 38.892178666666666, "is_disabled": 0, "lon": -77.031698, "fusion_lon": 0.0, "is_reserved": 0, "fusion_lat": 0.0, "rental_uris": {"android": "https://dc.lft.to/lastmile_qr_scan", "ios": "https://dc.lft.to/lastmile_qr_scan"}, "type": "electric_scooter", "name": "ca885909995275e5f373a78ba92d7fbe"}, {"bike_id": "381781ffe525e08809dd67804cf43248", "lat": 38.898222, "is_disabled": 0, "lon": -77.04956983333334, "fusion_lon": 0.0, "is_reserved": 0, "fusion_lat": 0.0, "rental_uris": {"android": "https://dc.lft.to/lastmile_qr_scan", "ios": "https://dc.lft.to/lastmile_qr_scan"}, "type": "electric_scooter", "name": "381781ffe525e08809dd67804cf43248"}, {"bike_id": "d19fdd939d1e25b574c4bb4dc17bcae9", "lat": 38.892200833333334, "is_disabled": 0, "lon": -77.04684733333333, "fusion_lon": 0.0, "is_reserved": 0, "fusion_lat": 0.0, "rental_uris": {"android": "https://dc.lft.to/lastmile_qr_scan", "ios": "https://dc.lft.to/lastmile_qr_scan"}, "type": "electric_scooter", "name": "d19fdd939d1e25b574c4bb4dc17bcae9"}, {"bike_id": "b77fb84d5c217214c40728c15e465588", "lat": 38.83099583333333, "is_disabled": 0, "lon": -76.99408383333333, "fusion_lon": 0.0, "is_reserved": 0, "fusion_lat": 0.0, "rental_uris": {"android": "https://dc.lft.to/lastmile_qr_scan", "ios": "https://dc.lft.to/lastmile_qr_scan"}, "type": "electric_bike", "name": "b77fb84d5c217214c40728c15e465588"}, {"bike_id": "348c71d73d77118078c2bf65432d0f5e", "lat": 38.91995883333333, "is_disabled": 0, "lon": -77.032174, "fusion_lon": 0.0, "is_reserved": 0, "fusion_lat": 0.0, "rental_uris": {"android": "https://dc.lft.to/lastmile_qr_scan", "ios": "https://dc.lft.to/lastmile_qr_scan"}, "type": "electric_scooter", "name": "348c71d73d77118078c2bf65432d0f5e"}, {"bike_id": "d2c1e811b7f982a534bd6f980de4c63d", "lat": 38.842754, "is_disabled": 0, "lon": -76.98839566666666, "fusion_lon": 0.0, "is_reserved": 0, "fusion_lat": 0.0, "rental_uris": {"android": "https://dc.lft.to/lastmile_qr_scan", "ios": "https://dc.lft.to/lastmile_qr_scan"}, "type": "electric_bike", "name": "d2c1e811b7f982a534bd6f980de4c63d"}, {"bike_id": "154dd5e822d14b7d17e2ecfa66682d43", "lat": 38.91744666666666, "is_disabled": 0, "lon": -77.02816233333333, "fusion_lon": 0.0, "is_reserved": 0, "fusion_lat": 0.0, "rental_uris": {"android": "https://dc.lft.to/lastmile_qr_scan", "ios": "https://dc.lft.to/lastmile_qr_scan"}, "type": "electric_scooter", "name": "154dd5e822d14b7d17e2ecfa66682d43"}, {"bike_id": "50c224b456688035a3c36a8088e6a3ca", "lat": 38.892209333333334, "is_disabled": 0, "lon": -77.03220366666666, "fusion_lon": 0.0, "is_reserved": 0, "fusion_lat": 0.0, "rental_uris": {"android": "https://dc.lft.to/lastmile_qr_scan", "ios": "https://dc.lft.to/lastmile_qr_scan"}, "type": "electric_scooter", "name": "50c224b456688035a3c36a8088e6a3ca"}, {"bike_id": "61cabb78552757f80ca6b5d052b24614", "lat": 38.9372825, "is_disabled": 0, "lon": -77.0327325, "fusion_lon": 0.0, "is_reserved": 0, "fusion_lat": 0.0, "rental_uris": {"android": "https://dc.lft.to/lastmile_qr_scan", "ios": "https://dc.lft.to/lastmile_qr_scan"}, "type": "electric_scooter", "name": "61cabb78552757f80ca6b5d052b24614"}, {"bike_id": "9019226d0c9a3941acec6e4301ed2aee", "lat": 38.92731333333333, "is_disabled": 0, "lon": -77.0525165, "fusion_lon": 0.0, "is_reserved": 0, "fusion_lat": 0.0, "rental_uris": {"android": "https://dc.lft.to/lastmile_qr_scan", "ios": "https://dc.lft.to/lastmile_qr_scan"}, "type": "electric_scooter", "name": "9019226d0c9a3941acec6e4301ed2aee"}, {"bike_id": "12d678f9786e978ce2b99c6922bc5c1f", "lat": 38.915631, "is_disabled": 0, "lon": -77.03727616666667, "fusion_lon": 0.0, "is_reserved": 0, "fusion_lat": 0.0, "rental_uris": {"android": "https://dc.lft.to/lastmile_qr_scan", "ios": "https://dc.lft.to/lastmile_qr_scan"}, "type": "electric_scooter", "name": "12d678f9786e978ce2b99c6922bc5c1f"}, {"bike_id": "37d29f0c1c28a5fb4a6900c080e1055f", "lat": 38.905988, "is_disabled": 0, "lon": -77.047236, "fusion_lon": 0.0, "is_reserved": 0, "fusion_lat": 0.0, "rental_uris": {"android": "https://dc.lft.to/lastmile_qr_scan", "ios": "https://dc.lft.to/lastmile_qr_scan"}, "type": "electric_scooter", "name": "37d29f0c1c28a5fb4a6900c080e1055f"}, {"bike_id": "31ca0a28195b44e447e7b40ef8bda838", "lat": 38.799841, "is_disabled": 0, "lon": -77.1298535, "fusion_lon": 0.0, "is_reserved": 0, "fusion_lat": 0.0, "rental_uris": {"android": "https://dc.lft.to/lastmile_qr_scan", "ios": "https://dc.lft.to/lastmile_qr_scan"}, "type": "electric_bike", "name": "31ca0a28195b44e447e7b40ef8bda838"}, {"bike_id": "a839df08a43b584aa331892af8de5f93", "lat": 38.8767785, "is_disabled": 0, "lon": -77.01788316666666, "fusion_lon": 0.0, "is_reserved": 0, "fusion_lat": 0.0, "rental_uris": {"android": "https://dc.lft.to/lastmile_qr_scan", "ios": "https://dc.lft.to/lastmile_qr_scan"}, "type": "electric_scooter", "name": "a839df08a43b584aa331892af8de5f93"}, {"bike_id": "778195c4d94ad227d6c8a976c16d8d3e", "lat": 38.924324, "is_disabled": 0, "lon": -77.02024066666667, "fusion_lon": 0.0, "is_reserved": 0, "fusion_lat": 0.0, "rental_uris": {"android": "https://dc.lft.to/lastmile_qr_scan", "ios": "https://dc.lft.to/lastmile_qr_scan"}, "type": "electric_scooter", "name": "778195c4d94ad227d6c8a976c16d8d3e"}, {"bike_id": "6f626dacc5c6c3f0ff8a99fb62dc02e0", "lat": 38.9259735, "is_disabled": 0, "lon": -77.03543633333334, "fusion_lon": 0.0, "is_reserved": 0, "fusion_lat": 0.0, "rental_uris": {"android": "https://dc.lft.to/lastmile_qr_scan", "ios": "https://dc.lft.to/lastmile_qr_scan"}, "type": "electric_scooter", "name": "6f626dacc5c6c3f0ff8a99fb62dc02e0"}, {"bike_id": "07a415c2173ac44ffe5f84c072edce46", "lat": 38.884909, "is_disabled": 0, "lon": -77.007099, "fusion_lon": 0.0, "is_reserved": 0, "fusion_lat": 0.0, "rental_uris": {"android": "https://dc.lft.to/lastmile_qr_scan", "ios": "https://dc.lft.to/lastmile_qr_scan"}, "type": "electric_scooter", "name": "07a415c2173ac44ffe5f84c072edce46"}, {"bike_id": "5cc7f6b90f1500d282f5477601b13f09", "lat": 38.92058933333333, "is_disabled": 0, "lon": -77.04362, "fusion_lon": 0.0, "is_reserved": 0, "fusion_lat": 0.0, "rental_uris": {"android": "https://dc.lft.to/lastmile_qr_scan", "ios": "https://dc.lft.to/lastmile_qr_scan"}, "type": "electric_bike", "name": "5cc7f6b90f1500d282f5477601b13f09"}, {"bike_id": "f31fa4e6fcc6c79daa74c75fa48d588d", "lat": 38.92339033333333, "is_disabled": 0, "lon": -77.0517315, "fusion_lon": 0.0, "is_reserved": 0, "fusion_lat": 0.0, "rental_uris": {"android": "https://dc.lft.to/lastmile_qr_scan", "ios": "https://dc.lft.to/lastmile_qr_scan"}, "type": "electric_scooter", "name": "f31fa4e6fcc6c79daa74c75fa48d588d"}, {"bike_id": "23b0961c7c7146b230739c7aa01aa23a", "lat": 38.922531, "is_disabled": 0, "lon": -77.0195385, "fusion_lon": 0.0, "is_reserved": 0, "fusion_lat": 0.0, "rental_uris": {"android": "https://dc.lft.to/lastmile_qr_scan", "ios": "https://dc.lft.to/lastmile_qr_scan"}, "type": "electric_scooter", "name": "23b0961c7c7146b230739c7aa01aa23a"}, {"bike_id": "9c5c3944121259b3ca6350d89a13ca7a", "lat": 38.908071166666666, "is_disabled": 0, "lon": -77.038555, "fusion_lon": 0.0, "is_reserved": 0, "fusion_lat": 0.0, "rental_uris": {"android": "https://dc.lft.to/lastmile_qr_scan", "ios": "https://dc.lft.to/lastmile_qr_scan"}, "type": "electric_scooter", "name": "9c5c3944121259b3ca6350d89a13ca7a"}, {"bike_id": "01efe7723db82d7edbce5c498d775bb9", "lat": 38.89944466666667, "is_disabled": 0, "lon": -77.047713, "fusion_lon": 0.0, "is_reserved": 0, "fusion_lat": 0.0, "rental_uris": {"android": "https://dc.lft.to/lastmile_qr_scan", "ios": "https://dc.lft.to/lastmile_qr_scan"}, "type": "electric_scooter", "name": "01efe7723db82d7edbce5c498d775bb9"}, {"bike_id": "175814db18ae4f89387f5fbbddd61b46", "lat": 38.905009, "is_disabled": 0, "lon": -76.97959733333333, "fusion_lon": 0.0, "is_reserved": 0, "fusion_lat": 0.0, "rental_uris": {"android": "https://dc.lft.to/lastmile_qr_scan", "ios": "https://dc.lft.to/lastmile_qr_scan"}, "type": "electric_scooter", "name": "175814db18ae4f89387f5fbbddd61b46"}, {"bike_id": "8b78ce0d949bfed629884ea18657a808", "lat": 38.9450085, "is_disabled": 0, "lon": -77.0382995, "fusion_lon": 0.0, "is_reserved": 0, "fusion_lat": 0.0, "rental_uris": {"android": "https://dc.lft.to/lastmile_qr_scan", "ios": "https://dc.lft.to/lastmile_qr_scan"}, "type": "electric_scooter", "name": "8b78ce0d949bfed629884ea18657a808"}, {"bike_id": "b77bf462bfcd4f4f19c7438d0d4a34e8", "lat": 38.91540616666666, "is_disabled": 0, "lon": -77.03852016666667, "fusion_lon": 0.0, "is_reserved": 0, "fusion_lat": 0.0, "rental_uris": {"android": "https://dc.lft.to/lastmile_qr_scan", "ios": "https://dc.lft.to/lastmile_qr_scan"}, "type": "electric_scooter", "name": "b77bf462bfcd4f4f19c7438d0d4a34e8"}, {"bike_id": "66a609ad8669c22f514820df9e5b2bc6", "lat": 38.93349116666667, "is_disabled": 0, "lon": -77.03653783333333, "fusion_lon": 0.0, "is_reserved": 0, "fusion_lat": 0.0, "rental_uris": {"android": "https://dc.lft.to/lastmile_qr_scan", "ios": "https://dc.lft.to/lastmile_qr_scan"}, "type": "electric_scooter", "name": "66a609ad8669c22f514820df9e5b2bc6"}, {"bike_id": "f5a37b2ed379db946b77d4cb0e75f008", "lat": 38.919047166666665, "is_disabled": 0, "lon": -77.01946366666667, "fusion_lon": 0.0, "is_reserved": 0, "fusion_lat": 0.0, "rental_uris": {"android": "https://dc.lft.to/lastmile_qr_scan", "ios": "https://dc.lft.to/lastmile_qr_scan"}, "type": "electric_scooter", "name": "f5a37b2ed379db946b77d4cb0e75f008"}, {"bike_id": "4e38bb7d1f53f564bb3c812975a271f4", "lat": 38.904152333333336, "is_disabled": 0, "lon": -76.99957366666666, "fusion_lon": 0.0, "is_reserved": 0, "fusion_lat": 0.0, "rental_uris": {"android": "https://dc.lft.to/lastmile_qr_scan", "ios": "https://dc.lft.to/lastmile_qr_scan"}, "type": "electric_scooter", "name": "4e38bb7d1f53f564bb3c812975a271f4"}, {"bike_id": "da78b8336a54fa7fcb17839432e7da81", "lat": 38.976698666666664, "is_disabled": 0, "lon": -77.01913966666666, "fusion_lon": 0.0, "is_reserved": 0, "fusion_lat": 0.0, "rental_uris": {"android": "https://dc.lft.to/lastmile_qr_scan", "ios": "https://dc.lft.to/lastmile_qr_scan"}, "type": "electric_bike", "name": "da78b8336a54fa7fcb17839432e7da81"}, {"bike_id": "c877200c9422aa5c6b8467614af8a122", "lat": 38.896302666666664, "is_disabled": 0, "lon": -77.032158, "fusion_lon": 0.0, "is_reserved": 0, "fusion_lat": 0.0, "rental_uris": {"android": "https://dc.lft.to/lastmile_qr_scan", "ios": "https://dc.lft.to/lastmile_qr_scan"}, "type": "electric_scooter", "name": "c877200c9422aa5c6b8467614af8a122"}, {"bike_id": "fd1018719dd9d0904d73ff351cabce98", "lat": 38.88720333333333, "is_disabled": 0, "lon": -77.02827916666666, "fusion_lon": 0.0, "is_reserved": 0, "fusion_lat": 0.0, "rental_uris": {"android": "https://dc.lft.to/lastmile_qr_scan", "ios": "https://dc.lft.to/lastmile_qr_scan"}, "type": "electric_scooter", "name": "fd1018719dd9d0904d73ff351cabce98"}, {"bike_id": "554290aca677601f995d69fd64c17291", "lat": 38.911165, "is_disabled": 0, "lon": -77.00749133333333, "fusion_lon": 0.0, "is_reserved": 0, "fusion_lat": 0.0, "rental_uris": {"android": "https://dc.lft.to/lastmile_qr_scan", "ios": "https://dc.lft.to/lastmile_qr_scan"}, "type": "electric_scooter", "name": "554290aca677601f995d69fd64c17291"}, {"bike_id": "a5579034d402dbfd2661ec1529c965ef", "lat": 38.973478, "is_disabled": 0, "lon": -77.02786166666667, "fusion_lon": 0.0, "is_reserved": 0, "fusion_lat": 0.0, "rental_uris": {"android": "https://dc.lft.to/lastmile_qr_scan", "ios": "https://dc.lft.to/lastmile_qr_scan"}, "type": "electric_scooter", "name": "a5579034d402dbfd2661ec1529c965ef"}, {"bike_id": "671dcdbcd155c53883f22cddc991d5ac", "lat": 38.90299183333333, "is_disabled": 0, "lon": -77.02712983333333, "fusion_lon": 0.0, "is_reserved": 0, "fusion_lat": 0.0, "rental_uris": {"android": "https://dc.lft.to/lastmile_qr_scan", "ios": "https://dc.lft.to/lastmile_qr_scan"}, "type": "electric_scooter", "name": "671dcdbcd155c53883f22cddc991d5ac"}, {"bike_id": "5a7f821e7dc99e40d13621f864a44d73", "lat": 38.887675333333334, "is_disabled": 0, "lon": -77.00310466666667, "fusion_lon": 0.0, "is_reserved": 0, "fusion_lat": 0.0, "rental_uris": {"android": "https://dc.lft.to/lastmile_qr_scan", "ios": "https://dc.lft.to/lastmile_qr_scan"}, "type": "electric_scooter", "name": "5a7f821e7dc99e40d13621f864a44d73"}, {"bike_id": "ef6d64af91ee24ccfbc4599d59cd7343", "lat": 38.9063595, "is_disabled": 0, "lon": -77.01137833333334, "fusion_lon": 0.0, "is_reserved": 0, "fusion_lat": 0.0, "rental_uris": {"android": "https://dc.lft.to/lastmile_qr_scan", "ios": "https://dc.lft.to/lastmile_qr_scan"}, "type": "electric_scooter", "name": "ef6d64af91ee24ccfbc4599d59cd7343"}, {"bike_id": "e718efe19675a87efec1046b6cc2d799", "lat": 38.94407283333334, "is_disabled": 0, "lon": -77.00499083333334, "fusion_lon": 0.0, "is_reserved": 0, "fusion_lat": 0.0, "rental_uris": {"android": "https://dc.lft.to/lastmile_qr_scan", "ios": "https://dc.lft.to/lastmile_qr_scan"}, "type": "electric_scooter", "name": "e718efe19675a87efec1046b6cc2d799"}, {"bike_id": "0e7bf1f1875e8033bff6d4b821c0ee96", "lat": 38.873978666666666, "is_disabled": 0, "lon": -77.00031066666666, "fusion_lon": 0.0, "is_reserved": 0, "fusion_lat": 0.0, "rental_uris": {"android": "https://dc.lft.to/lastmile_qr_scan", "ios": "https://dc.lft.to/lastmile_qr_scan"}, "type": "electric_scooter", "name": "0e7bf1f1875e8033bff6d4b821c0ee96"}, {"bike_id": "5cb8d99d8efedd9b660ae3f6b3b06a42", "lat": 38.91058183333333, "is_disabled": 0, "lon": -77.02660383333334, "fusion_lon": 0.0, "is_reserved": 0, "fusion_lat": 0.0, "rental_uris": {"android": "https://dc.lft.to/lastmile_qr_scan", "ios": "https://dc.lft.to/lastmile_qr_scan"}, "type": "electric_scooter", "name": "5cb8d99d8efedd9b660ae3f6b3b06a42"}, {"bike_id": "81f8554080a5a297bd3b39068dcc3346", "lat": 38.915526, "is_disabled": 0, "lon": -77.03510166666666, "fusion_lon": 0.0, "is_reserved": 0, "fusion_lat": 0.0, "rental_uris": {"android": "https://dc.lft.to/lastmile_qr_scan", "ios": "https://dc.lft.to/lastmile_qr_scan"}, "type": "electric_scooter", "name": "81f8554080a5a297bd3b39068dcc3346"}, {"bike_id": "84f73b82745f68cf15269e2bc6ed4153", "lat": 38.923253833333334, "is_disabled": 0, "lon": -77.0196265, "fusion_lon": 0.0, "is_reserved": 0, "fusion_lat": 0.0, "rental_uris": {"android": "https://dc.lft.to/lastmile_qr_scan", "ios": "https://dc.lft.to/lastmile_qr_scan"}, "type": "electric_scooter", "name": "84f73b82745f68cf15269e2bc6ed4153"}, {"bike_id": "60ef5044768b8ce8b37b311dee3a6a42", "lat": 38.900004, "is_disabled": 0, "lon": -77.03357433333333, "fusion_lon": 0.0, "is_reserved": 0, "fusion_lat": 0.0, "rental_uris": {"android": "https://dc.lft.to/lastmile_qr_scan", "ios": "https://dc.lft.to/lastmile_qr_scan"}, "type": "electric_scooter", "name": "60ef5044768b8ce8b37b311dee3a6a42"}, {"bike_id": "765216ec94a2fd23284a50cb94dba319", "lat": 38.88296666666667, "is_disabled": 0, "lon": -76.94974483333333, "fusion_lon": 0.0, "is_reserved": 0, "fusion_lat": 0.0, "rental_uris": {"android": "https://dc.lft.to/lastmile_qr_scan", "ios": "https://dc.lft.to/lastmile_qr_scan"}, "type": "electric_bike", "name": "765216ec94a2fd23284a50cb94dba319"}, {"bike_id": "a0ddd8e8afca13c80d37ab00fa68d5c7", "lat": 38.859488, "is_disabled": 0, "lon": -76.95879816666667, "fusion_lon": 0.0, "is_reserved": 0, "fusion_lat": 0.0, "rental_uris": {"android": "https://dc.lft.to/lastmile_qr_scan", "ios": "https://dc.lft.to/lastmile_qr_scan"}, "type": "electric_scooter", "name": "a0ddd8e8afca13c80d37ab00fa68d5c7"}, {"bike_id": "a91cc8f5d7eed3575b92ca0e891f5a24", "lat": 38.9210495, "is_disabled": 0, "lon": -77.04829, "fusion_lon": 0.0, "is_reserved": 0, "fusion_lat": 0.0, "rental_uris": {"android": "https://dc.lft.to/lastmile_qr_scan", "ios": "https://dc.lft.to/lastmile_qr_scan"}, "type": "electric_scooter", "name": "a91cc8f5d7eed3575b92ca0e891f5a24"}, {"bike_id": "8cb1eb9238d13d0d669bbb94a8759379", "lat": 38.913235666666665, "is_disabled": 0, "lon": -77.03310383333333, "fusion_lon": 0.0, "is_reserved": 0, "fusion_lat": 0.0, "rental_uris": {"android": "https://dc.lft.to/lastmile_qr_scan", "ios": "https://dc.lft.to/lastmile_qr_scan"}, "type": "electric_scooter", "name": "8cb1eb9238d13d0d669bbb94a8759379"}, {"bike_id": "84057ccbc6e60e3172284565ffe5ce81", "lat": 38.901273833333335, "is_disabled": 0, "lon": -77.00322683333333, "fusion_lon": 0.0, "is_reserved": 0, "fusion_lat": 0.0, "rental_uris": {"android": "https://dc.lft.to/lastmile_qr_scan", "ios": "https://dc.lft.to/lastmile_qr_scan"}, "type": "electric_scooter", "name": "84057ccbc6e60e3172284565ffe5ce81"}, {"bike_id": "d365e73f8ed5a6d5b7ab035a552a26ca", "lat": 38.903733833333334, "is_disabled": 0, "lon": -77.04804233333333, "fusion_lon": 0.0, "is_reserved": 0, "fusion_lat": 0.0, "rental_uris": {"android": "https://dc.lft.to/lastmile_qr_scan", "ios": "https://dc.lft.to/lastmile_qr_scan"}, "type": "electric_scooter", "name": "d365e73f8ed5a6d5b7ab035a552a26ca"}, {"bike_id": "5487fd119f393491fd2b0d9903b4880d", "lat": 38.89058683333333, "is_disabled": 0, "lon": -77.02546916666667, "fusion_lon": 0.0, "is_reserved": 0, "fusion_lat": 0.0, "rental_uris": {"android": "https://dc.lft.to/lastmile_qr_scan", "ios": "https://dc.lft.to/lastmile_qr_scan"}, "type": "electric_scooter", "name": "5487fd119f393491fd2b0d9903b4880d"}, {"bike_id": "cb7c3cefee4fb313591642f5a50fcfb0", "lat": 38.9065765, "is_disabled": 0, "lon": -76.9793555, "fusion_lon": 0.0, "is_reserved": 0, "fusion_lat": 0.0, "rental_uris": {"android": "https://dc.lft.to/lastmile_qr_scan", "ios": "https://dc.lft.to/lastmile_qr_scan"}, "type": "electric_scooter", "name": "cb7c3cefee4fb313591642f5a50fcfb0"}, {"bike_id": "687ae5c7389bb275380462056019d338", "lat": 38.882052333333334, "is_disabled": 0, "lon": -77.0176925, "fusion_lon": 0.0, "is_reserved": 0, "fusion_lat": 0.0, "rental_uris": {"android": "https://dc.lft.to/lastmile_qr_scan", "ios": "https://dc.lft.to/lastmile_qr_scan"}, "type": "electric_scooter", "name": "687ae5c7389bb275380462056019d338"}, {"bike_id": "8f4cf1395fe1bf76081636695753dd95", "lat": 38.8399205, "is_disabled": 0, "lon": -76.976956, "fusion_lon": 0.0, "is_reserved": 0, "fusion_lat": 0.0, "rental_uris": {"android": "https://dc.lft.to/lastmile_qr_scan", "ios": "https://dc.lft.to/lastmile_qr_scan"}, "type": "electric_bike", "name": "8f4cf1395fe1bf76081636695753dd95"}, {"bike_id": "a55ed1d40521c9f57f0c3e909904366a", "lat": 38.916070166666664, "is_disabled": 0, "lon": -77.04872333333333, "fusion_lon": 0.0, "is_reserved": 0, "fusion_lat": 0.0, "rental_uris": {"android": "https://dc.lft.to/lastmile_qr_scan", "ios": "https://dc.lft.to/lastmile_qr_scan"}, "type": "electric_scooter", "name": "a55ed1d40521c9f57f0c3e909904366a"}, {"bike_id": "e4c92ba881b5730050d13370d5a00245", "lat": 38.8073325, "is_disabled": 0, "lon": -77.097207, "fusion_lon": 0.0, "is_reserved": 0, "fusion_lat": 0.0, "rental_uris": {"android": "https://dc.lft.to/lastmile_qr_scan", "ios": "https://dc.lft.to/lastmile_qr_scan"}, "type": "electric_bike", "name": "e4c92ba881b5730050d13370d5a00245"}, {"bike_id": "c722e3c6b836099c00f66548812c34dc", "lat": 38.881805, "is_disabled": 0, "lon": -77.02188133333334, "fusion_lon": 0.0, "is_reserved": 0, "fusion_lat": 0.0, "rental_uris": {"android": "https://dc.lft.to/lastmile_qr_scan", "ios": "https://dc.lft.to/lastmile_qr_scan"}, "type": "electric_scooter", "name": "c722e3c6b836099c00f66548812c34dc"}, {"bike_id": "d5006334056248ff420c08e88a010ec6", "lat": 38.8625845, "is_disabled": 0, "lon": -76.983487, "fusion_lon": 0.0, "is_reserved": 0, "fusion_lat": 0.0, "rental_uris": {"android": "https://dc.lft.to/lastmile_qr_scan", "ios": "https://dc.lft.to/lastmile_qr_scan"}, "type": "electric_bike", "name": "d5006334056248ff420c08e88a010ec6"}, {"bike_id": "1c574798bbe602f9524d47c7c2c23c42", "lat": 38.92181933333333, "is_disabled": 0, "lon": -77.02103916666667, "fusion_lon": 0.0, "is_reserved": 0, "fusion_lat": 0.0, "rental_uris": {"android": "https://dc.lft.to/lastmile_qr_scan", "ios": "https://dc.lft.to/lastmile_qr_scan"}, "type": "electric_scooter", "name": "1c574798bbe602f9524d47c7c2c23c42"}, {"bike_id": "ed629660a1c2bb10459ecc15912103a8", "lat": 38.90528033333333, "is_disabled": 0, "lon": -77.059343, "fusion_lon": 0.0, "is_reserved": 0, "fusion_lat": 0.0, "rental_uris": {"android": "https://dc.lft.to/lastmile_qr_scan", "ios": "https://dc.lft.to/lastmile_qr_scan"}, "type": "electric_scooter", "name": "ed629660a1c2bb10459ecc15912103a8"}, {"bike_id": "b4985c2a25a5f2d857c1a9b5faf4f431", "lat": 38.9330565, "is_disabled": 0, "lon": -77.03263633333333, "fusion_lon": 0.0, "is_reserved": 0, "fusion_lat": 0.0, "rental_uris": {"android": "https://dc.lft.to/lastmile_qr_scan", "ios": "https://dc.lft.to/lastmile_qr_scan"}, "type": "electric_scooter", "name": "b4985c2a25a5f2d857c1a9b5faf4f431"}, {"bike_id": "b8a851957678deb42f6a6dd97d375a8c", "lat": 38.89195933333333, "is_disabled": 0, "lon": -76.95688766666666, "fusion_lon": 0.0, "is_reserved": 0, "fusion_lat": 0.0, "rental_uris": {"android": "https://dc.lft.to/lastmile_qr_scan", "ios": "https://dc.lft.to/lastmile_qr_scan"}, "type": "electric_scooter", "name": "b8a851957678deb42f6a6dd97d375a8c"}, {"bike_id": "fbf83e1cd565572b459935a743f862db", "lat": 38.87456383333333, "is_disabled": 0, "lon": -77.005796, "fusion_lon": 0.0, "is_reserved": 0, "fusion_lat": 0.0, "rental_uris": {"android": "https://dc.lft.to/lastmile_qr_scan", "ios": "https://dc.lft.to/lastmile_qr_scan"}, "type": "electric_scooter", "name": "fbf83e1cd565572b459935a743f862db"}, {"bike_id": "16ce3641ddee6da40fc97aa4fe972a52", "lat": 38.87447683333333, "is_disabled": 0, "lon": -77.00407016666666, "fusion_lon": 0.0, "is_reserved": 0, "fusion_lat": 0.0, "rental_uris": {"android": "https://dc.lft.to/lastmile_qr_scan", "ios": "https://dc.lft.to/lastmile_qr_scan"}, "type": "electric_scooter", "name": "16ce3641ddee6da40fc97aa4fe972a52"}, {"bike_id": "85e496401bc6f83a0239771e4ca9dbfe", "lat": 38.90458816666667, "is_disabled": 0, "lon": -77.005908, "fusion_lon": 0.0, "is_reserved": 0, "fusion_lat": 0.0, "rental_uris": {"android": "https://dc.lft.to/lastmile_qr_scan", "ios": "https://dc.lft.to/lastmile_qr_scan"}, "type": "electric_scooter", "name": "85e496401bc6f83a0239771e4ca9dbfe"}, {"bike_id": "37440d867a8a270d70973c86124ecafa", "lat": 38.9232595, "is_disabled": 0, "lon": -77.03029966666666, "fusion_lon": 0.0, "is_reserved": 0, "fusion_lat": 0.0, "rental_uris": {"android": "https://dc.lft.to/lastmile_qr_scan", "ios": "https://dc.lft.to/lastmile_qr_scan"}, "type": "electric_scooter", "name": "37440d867a8a270d70973c86124ecafa"}, {"bike_id": "5948a0c59f4472c8a94ccb60b7a6da13", "lat": 38.901202166666664, "is_disabled": 0, "lon": -77.04363433333333, "fusion_lon": 0.0, "is_reserved": 0, "fusion_lat": 0.0, "rental_uris": {"android": "https://dc.lft.to/lastmile_qr_scan", "ios": "https://dc.lft.to/lastmile_qr_scan"}, "type": "electric_scooter", "name": "5948a0c59f4472c8a94ccb60b7a6da13"}, {"bike_id": "359059bf84161e8251c49aa171db7081", "lat": 38.90052816666667, "is_disabled": 0, "lon": -76.99762033333333, "fusion_lon": 0.0, "is_reserved": 0, "fusion_lat": 0.0, "rental_uris": {"android": "https://dc.lft.to/lastmile_qr_scan", "ios": "https://dc.lft.to/lastmile_qr_scan"}, "type": "electric_scooter", "name": "359059bf84161e8251c49aa171db7081"}, {"bike_id": "03b1124d146eb8e83a0cf43aea4ad1ac", "lat": 38.8972435, "is_disabled": 0, "lon": -77.01915516666666, "fusion_lon": 0.0, "is_reserved": 0, "fusion_lat": 0.0, "rental_uris": {"android": "https://dc.lft.to/lastmile_qr_scan", "ios": "https://dc.lft.to/lastmile_qr_scan"}, "type": "electric_scooter", "name": "03b1124d146eb8e83a0cf43aea4ad1ac"}, {"bike_id": "f10484803b7065b341985d7f9006ffa0", "lat": 38.92329483333333, "is_disabled": 0, "lon": -77.01899633333333, "fusion_lon": 0.0, "is_reserved": 0, "fusion_lat": 0.0, "rental_uris": {"android": "https://dc.lft.to/lastmile_qr_scan", "ios": "https://dc.lft.to/lastmile_qr_scan"}, "type": "electric_scooter", "name": "f10484803b7065b341985d7f9006ffa0"}, {"bike_id": "b5f9395d9edc7b3823e2a0d7f80a8de2", "lat": 38.892236, "is_disabled": 0, "lon": -77.02416616666666, "fusion_lon": 0.0, "is_reserved": 0, "fusion_lat": 0.0, "rental_uris": {"android": "https://dc.lft.to/lastmile_qr_scan", "ios": "https://dc.lft.to/lastmile_qr_scan"}, "type": "electric_scooter", "name": "b5f9395d9edc7b3823e2a0d7f80a8de2"}, {"bike_id": "0c8f808152b7632ee9f7e340396001c0", "lat": 38.917941166666665, "is_disabled": 0, "lon": -77.0417105, "fusion_lon": 0.0, "is_reserved": 0, "fusion_lat": 0.0, "rental_uris": {"android": "https://dc.lft.to/lastmile_qr_scan", "ios": "https://dc.lft.to/lastmile_qr_scan"}, "type": "electric_scooter", "name": "0c8f808152b7632ee9f7e340396001c0"}, {"bike_id": "e79f76589357aa6b38dd169e67b9c2e8", "lat": 38.89963933333333, "is_disabled": 0, "lon": -76.98668366666666, "fusion_lon": 0.0, "is_reserved": 0, "fusion_lat": 0.0, "rental_uris": {"android": "https://dc.lft.to/lastmile_qr_scan", "ios": "https://dc.lft.to/lastmile_qr_scan"}, "type": "electric_bike", "name": "e79f76589357aa6b38dd169e67b9c2e8"}, {"bike_id": "2fa2b3919de5798eac67c3fb1c8fbc8a", "lat": 38.875704999999996, "is_disabled": 0, "lon": -77.00590583333333, "fusion_lon": 0.0, "is_reserved": 0, "fusion_lat": 0.0, "rental_uris": {"android": "https://dc.lft.to/lastmile_qr_scan", "ios": "https://dc.lft.to/lastmile_qr_scan"}, "type": "electric_scooter", "name": "2fa2b3919de5798eac67c3fb1c8fbc8a"}, {"bike_id": "5a6399dac1075dcaf2f6c05d2e021d12", "lat": 38.92627133333333, "is_disabled": 0, "lon": -77.02265933333334, "fusion_lon": 0.0, "is_reserved": 0, "fusion_lat": 0.0, "rental_uris": {"android": "https://dc.lft.to/lastmile_qr_scan", "ios": "https://dc.lft.to/lastmile_qr_scan"}, "type": "electric_scooter", "name": "5a6399dac1075dcaf2f6c05d2e021d12"}, {"bike_id": "2c0924e6cdb57f81f5491ed7bb73159b", "lat": 38.9077155, "is_disabled": 0, "lon": -77.07164716666666, "fusion_lon": 0.0, "is_reserved": 0, "fusion_lat": 0.0, "rental_uris": {"android": "https://dc.lft.to/lastmile_qr_scan", "ios": "https://dc.lft.to/lastmile_qr_scan"}, "type": "electric_scooter", "name": "2c0924e6cdb57f81f5491ed7bb73159b"}, {"bike_id": "527234c01b4b19f4ddf7068c368bf69b", "lat": 38.89531233333334, "is_disabled": 0, "lon": -77.01618783333333, "fusion_lon": 0.0, "is_reserved": 0, "fusion_lat": 0.0, "rental_uris": {"android": "https://dc.lft.to/lastmile_qr_scan", "ios": "https://dc.lft.to/lastmile_qr_scan"}, "type": "electric_scooter", "name": "527234c01b4b19f4ddf7068c368bf69b"}, {"bike_id": "a0cec87f74e6c2913e8d7c8bdc95dc3a", "lat": 38.92456266666667, "is_disabled": 0, "lon": -77.04030966666667, "fusion_lon": 0.0, "is_reserved": 0, "fusion_lat": 0.0, "rental_uris": {"android": "https://dc.lft.to/lastmile_qr_scan", "ios": "https://dc.lft.to/lastmile_qr_scan"}, "type": "electric_scooter", "name": "a0cec87f74e6c2913e8d7c8bdc95dc3a"}, {"bike_id": "b536cf46eb8456b7ba84a267bbd32fbc", "lat": 38.904324333333335, "is_disabled": 0, "lon": -77.0515665, "fusion_lon": 0.0, "is_reserved": 0, "fusion_lat": 0.0, "rental_uris": {"android": "https://dc.lft.to/lastmile_qr_scan", "ios": "https://dc.lft.to/lastmile_qr_scan"}, "type": "electric_scooter", "name": "b536cf46eb8456b7ba84a267bbd32fbc"}, {"bike_id": "84e296eefcb5d90ec80c631cb942af42", "lat": 38.890185333333335, "is_disabled": 0, "lon": -76.94170266666667, "fusion_lon": 0.0, "is_reserved": 0, "fusion_lat": 0.0, "rental_uris": {"android": "https://dc.lft.to/lastmile_qr_scan", "ios": "https://dc.lft.to/lastmile_qr_scan"}, "type": "electric_bike", "name": "84e296eefcb5d90ec80c631cb942af42"}, {"bike_id": "64051bb9d59dbb9ccdafdb7c1c358e0b", "lat": 38.86372766666667, "is_disabled": 0, "lon": -76.99052, "fusion_lon": 0.0, "is_reserved": 0, "fusion_lat": 0.0, "rental_uris": {"android": "https://dc.lft.to/lastmile_qr_scan", "ios": "https://dc.lft.to/lastmile_qr_scan"}, "type": "electric_scooter", "name": "64051bb9d59dbb9ccdafdb7c1c358e0b"}, {"bike_id": "501c93d70ecfb66407773f1f7b3b80e1", "lat": 38.87841916666667, "is_disabled": 0, "lon": -76.987396, "fusion_lon": 0.0, "is_reserved": 0, "fusion_lat": 0.0, "rental_uris": {"android": "https://dc.lft.to/lastmile_qr_scan", "ios": "https://dc.lft.to/lastmile_qr_scan"}, "type": "electric_scooter", "name": "501c93d70ecfb66407773f1f7b3b80e1"}, {"bike_id": "fab007ca49e107f17ec177f2b6132ada", "lat": 38.89554433333333, "is_disabled": 0, "lon": -77.04678233333334, "fusion_lon": 0.0, "is_reserved": 0, "fusion_lat": 0.0, "rental_uris": {"android": "https://dc.lft.to/lastmile_qr_scan", "ios": "https://dc.lft.to/lastmile_qr_scan"}, "type": "electric_scooter", "name": "fab007ca49e107f17ec177f2b6132ada"}, {"bike_id": "83597d5151fd584d797fa409bcb44cb6", "lat": 38.90756733333333, "is_disabled": 0, "lon": -77.0425035, "fusion_lon": 0.0, "is_reserved": 0, "fusion_lat": 0.0, "rental_uris": {"android": "https://dc.lft.to/lastmile_qr_scan", "ios": "https://dc.lft.to/lastmile_qr_scan"}, "type": "electric_scooter", "name": "83597d5151fd584d797fa409bcb44cb6"}, {"bike_id": "39e80b32fd77f23467327f88ec8655cc", "lat": 38.92401066666667, "is_disabled": 0, "lon": -77.027498, "fusion_lon": 0.0, "is_reserved": 0, "fusion_lat": 0.0, "rental_uris": {"android": "https://dc.lft.to/lastmile_qr_scan", "ios": "https://dc.lft.to/lastmile_qr_scan"}, "type": "electric_scooter", "name": "39e80b32fd77f23467327f88ec8655cc"}, {"bike_id": "a7cd57a404e0359eab79b191e2f0e4d4", "lat": 38.8763045, "is_disabled": 0, "lon": -77.01579516666666, "fusion_lon": 0.0, "is_reserved": 0, "fusion_lat": 0.0, "rental_uris": {"android": "https://dc.lft.to/lastmile_qr_scan", "ios": "https://dc.lft.to/lastmile_qr_scan"}, "type": "electric_scooter", "name": "a7cd57a404e0359eab79b191e2f0e4d4"}, {"bike_id": "4b6f8e8a01e3ba48e3bf7025f4cb6cbb", "lat": 38.895241666666664, "is_disabled": 0, "lon": -77.04336083333334, "fusion_lon": 0.0, "is_reserved": 0, "fusion_lat": 0.0, "rental_uris": {"android": "https://dc.lft.to/lastmile_qr_scan", "ios": "https://dc.lft.to/lastmile_qr_scan"}, "type": "electric_scooter", "name": "4b6f8e8a01e3ba48e3bf7025f4cb6cbb"}, {"bike_id": "77e050154256ce19c4b73c644baec933", "lat": 39.03899283333333, "is_disabled": 0, "lon": -77.05038366666666, "fusion_lon": 0.0, "is_reserved": 0, "fusion_lat": 0.0, "rental_uris": {"android": "https://dc.lft.to/lastmile_qr_scan", "ios": "https://dc.lft.to/lastmile_qr_scan"}, "type": "electric_bike", "name": "77e050154256ce19c4b73c644baec933"}, {"bike_id": "2138fe2412a3ef9b601f31c05ecb92bf", "lat": 38.91907716666667, "is_disabled": 0, "lon": -77.0362255, "fusion_lon": 0.0, "is_reserved": 0, "fusion_lat": 0.0, "rental_uris": {"android": "https://dc.lft.to/lastmile_qr_scan", "ios": "https://dc.lft.to/lastmile_qr_scan"}, "type": "electric_scooter", "name": "2138fe2412a3ef9b601f31c05ecb92bf"}, {"bike_id": "b7ada8e9d8203b38eb27eec915d61fef", "lat": 38.9162485, "is_disabled": 0, "lon": -77.03214183333333, "fusion_lon": 0.0, "is_reserved": 0, "fusion_lat": 0.0, "rental_uris": {"android": "https://dc.lft.to/lastmile_qr_scan", "ios": "https://dc.lft.to/lastmile_qr_scan"}, "type": "electric_scooter", "name": "b7ada8e9d8203b38eb27eec915d61fef"}, {"bike_id": "f0feca21d3697f1680f8acf21503a1ca", "lat": 38.892253833333335, "is_disabled": 0, "lon": -77.03990783333333, "fusion_lon": 0.0, "is_reserved": 0, "fusion_lat": 0.0, "rental_uris": {"android": "https://dc.lft.to/lastmile_qr_scan", "ios": "https://dc.lft.to/lastmile_qr_scan"}, "type": "electric_scooter", "name": "f0feca21d3697f1680f8acf21503a1ca"}, {"bike_id": "a32c0144657d1c8a59c6d59e38d1d41d", "lat": 38.90024733333333, "is_disabled": 0, "lon": -77.01760833333333, "fusion_lon": 0.0, "is_reserved": 0, "fusion_lat": 0.0, "rental_uris": {"android": "https://dc.lft.to/lastmile_qr_scan", "ios": "https://dc.lft.to/lastmile_qr_scan"}, "type": "electric_scooter", "name": "a32c0144657d1c8a59c6d59e38d1d41d"}, {"bike_id": "0568d556cecec65dc00089c434bfd3f6", "lat": 38.9177345, "is_disabled": 0, "lon": -77.03224933333334, "fusion_lon": 0.0, "is_reserved": 0, "fusion_lat": 0.0, "rental_uris": {"android": "https://dc.lft.to/lastmile_qr_scan", "ios": "https://dc.lft.to/lastmile_qr_scan"}, "type": "electric_scooter", "name": "0568d556cecec65dc00089c434bfd3f6"}, {"bike_id": "28bd451e9ab7c37b85892ed293084ff3", "lat": 38.912885333333335, "is_disabled": 0, "lon": -77.0451375, "fusion_lon": 0.0, "is_reserved": 0, "fusion_lat": 0.0, "rental_uris": {"android": "https://dc.lft.to/lastmile_qr_scan", "ios": "https://dc.lft.to/lastmile_qr_scan"}, "type": "electric_scooter", "name": "28bd451e9ab7c37b85892ed293084ff3"}, {"bike_id": "f8bcfddd3a49196e7bc9076ff4b8931e", "lat": 38.88008383333333, "is_disabled": 0, "lon": -76.98544983333333, "fusion_lon": 0.0, "is_reserved": 0, "fusion_lat": 0.0, "rental_uris": {"android": "https://dc.lft.to/lastmile_qr_scan", "ios": "https://dc.lft.to/lastmile_qr_scan"}, "type": "electric_scooter", "name": "f8bcfddd3a49196e7bc9076ff4b8931e"}, {"bike_id": "e246f6f8f396ad86f3203f8c00e7b056", "lat": 38.93275, "is_disabled": 0, "lon": -77.041378, "fusion_lon": 0.0, "is_reserved": 0, "fusion_lat": 0.0, "rental_uris": {"android": "https://dc.lft.to/lastmile_qr_scan", "ios": "https://dc.lft.to/lastmile_qr_scan"}, "type": "electric_scooter", "name": "e246f6f8f396ad86f3203f8c00e7b056"}, {"bike_id": "bc56ef9495ef6120b3e7ceaef06a1627", "lat": 38.9232205, "is_disabled": 0, "lon": -77.0195535, "fusion_lon": 0.0, "is_reserved": 0, "fusion_lat": 0.0, "rental_uris": {"android": "https://dc.lft.to/lastmile_qr_scan", "ios": "https://dc.lft.to/lastmile_qr_scan"}, "type": "electric_scooter", "name": "bc56ef9495ef6120b3e7ceaef06a1627"}, {"bike_id": "c1025125a6bb79237bbbca2f942702bb", "lat": 38.85270366666666, "is_disabled": 0, "lon": -76.96995233333334, "fusion_lon": 0.0, "is_reserved": 0, "fusion_lat": 0.0, "rental_uris": {"android": "https://dc.lft.to/lastmile_qr_scan", "ios": "https://dc.lft.to/lastmile_qr_scan"}, "type": "electric_scooter", "name": "c1025125a6bb79237bbbca2f942702bb"}, {"bike_id": "2b41da932fcb5f26f014d3229a3c97b9", "lat": 38.916138833333335, "is_disabled": 0, "lon": -77.04881366666666, "fusion_lon": 0.0, "is_reserved": 0, "fusion_lat": 0.0, "rental_uris": {"android": "https://dc.lft.to/lastmile_qr_scan", "ios": "https://dc.lft.to/lastmile_qr_scan"}, "type": "electric_scooter", "name": "2b41da932fcb5f26f014d3229a3c97b9"}, {"bike_id": "e8c9babffc608fd6bcac12c5050a6024", "lat": 38.90085033333333, "is_disabled": 0, "lon": -77.02472316666666, "fusion_lon": 0.0, "is_reserved": 0, "fusion_lat": 0.0, "rental_uris": {"android": "https://dc.lft.to/lastmile_qr_scan", "ios": "https://dc.lft.to/lastmile_qr_scan"}, "type": "electric_scooter", "name": "e8c9babffc608fd6bcac12c5050a6024"}, {"bike_id": "44955d8a59b1bd78dd90b6578bf4a2b1", "lat": 38.87614116666666, "is_disabled": 0, "lon": -77.03816916666666, "fusion_lon": 0.0, "is_reserved": 0, "fusion_lat": 0.0, "rental_uris": {"android": "https://dc.lft.to/lastmile_qr_scan", "ios": "https://dc.lft.to/lastmile_qr_scan"}, "type": "electric_scooter", "name": "44955d8a59b1bd78dd90b6578bf4a2b1"}, {"bike_id": "5f915f6b1aad8fc07613cde38646d257", "lat": 38.911057166666666, "is_disabled": 0, "lon": -77.045053, "fusion_lon": 0.0, "is_reserved": 0, "fusion_lat": 0.0, "rental_uris": {"android": "https://dc.lft.to/lastmile_qr_scan", "ios": "https://dc.lft.to/lastmile_qr_scan"}, "type": "electric_scooter", "name": "5f915f6b1aad8fc07613cde38646d257"}, {"bike_id": "bd4d1ba868cc6fb19de4f342cad822e8", "lat": 38.841990833333334, "is_disabled": 0, "lon": -77.11354983333334, "fusion_lon": 0.0, "is_reserved": 0, "fusion_lat": 0.0, "rental_uris": {"android": "https://dc.lft.to/lastmile_qr_scan", "ios": "https://dc.lft.to/lastmile_qr_scan"}, "type": "electric_bike", "name": "bd4d1ba868cc6fb19de4f342cad822e8"}, {"bike_id": "9b515a7df781ca4608bcb2899db7da50", "lat": 38.8934585, "is_disabled": 0, "lon": -76.99151566666667, "fusion_lon": 0.0, "is_reserved": 0, "fusion_lat": 0.0, "rental_uris": {"android": "https://dc.lft.to/lastmile_qr_scan", "ios": "https://dc.lft.to/lastmile_qr_scan"}, "type": "electric_scooter", "name": "9b515a7df781ca4608bcb2899db7da50"}, {"bike_id": "be1a75c0df55a5b6befb794ffb54bd33", "lat": 38.92022733333334, "is_disabled": 0, "lon": -77.04081083333334, "fusion_lon": 0.0, "is_reserved": 0, "fusion_lat": 0.0, "rental_uris": {"android": "https://dc.lft.to/lastmile_qr_scan", "ios": "https://dc.lft.to/lastmile_qr_scan"}, "type": "electric_scooter", "name": "be1a75c0df55a5b6befb794ffb54bd33"}, {"bike_id": "7eb39d0f51a4c8db1e38beb7d7d849a9", "lat": 38.89760016666666, "is_disabled": 0, "lon": -76.9864815, "fusion_lon": 0.0, "is_reserved": 0, "fusion_lat": 0.0, "rental_uris": {"android": "https://dc.lft.to/lastmile_qr_scan", "ios": "https://dc.lft.to/lastmile_qr_scan"}, "type": "electric_scooter", "name": "7eb39d0f51a4c8db1e38beb7d7d849a9"}, {"bike_id": "39cdef70328cf24e4912b3fb4754b8a4", "lat": 38.919911166666665, "is_disabled": 0, "lon": -77.02173066666667, "fusion_lon": 0.0, "is_reserved": 0, "fusion_lat": 0.0, "rental_uris": {"android": "https://dc.lft.to/lastmile_qr_scan", "ios": "https://dc.lft.to/lastmile_qr_scan"}, "type": "electric_scooter", "name": "39cdef70328cf24e4912b3fb4754b8a4"}, {"bike_id": "f03ff0d995e412e39f929407da5e1552", "lat": 38.895550166666666, "is_disabled": 0, "lon": -77.021716, "fusion_lon": 0.0, "is_reserved": 0, "fusion_lat": 0.0, "rental_uris": {"android": "https://dc.lft.to/lastmile_qr_scan", "ios": "https://dc.lft.to/lastmile_qr_scan"}, "type": "electric_scooter", "name": "f03ff0d995e412e39f929407da5e1552"}, {"bike_id": "64e280a866ab951e2f31027cf4a5cb24", "lat": 38.88143733333333, "is_disabled": 0, "lon": -77.02706116666667, "fusion_lon": 0.0, "is_reserved": 0, "fusion_lat": 0.0, "rental_uris": {"android": "https://dc.lft.to/lastmile_qr_scan", "ios": "https://dc.lft.to/lastmile_qr_scan"}, "type": "electric_scooter", "name": "64e280a866ab951e2f31027cf4a5cb24"}, {"bike_id": "32a0d90ab2fc6255635df56ec19b1c8c", "lat": 38.89851183333333, "is_disabled": 0, "lon": -77.0286045, "fusion_lon": 0.0, "is_reserved": 0, "fusion_lat": 0.0, "rental_uris": {"android": "https://dc.lft.to/lastmile_qr_scan", "ios": "https://dc.lft.to/lastmile_qr_scan"}, "type": "electric_scooter", "name": "32a0d90ab2fc6255635df56ec19b1c8c"}, {"bike_id": "f6ed6ddff1add7b1fba8f0baa362b118", "lat": 38.9141275, "is_disabled": 0, "lon": -77.0354395, "fusion_lon": 0.0, "is_reserved": 0, "fusion_lat": 0.0, "rental_uris": {"android": "https://dc.lft.to/lastmile_qr_scan", "ios": "https://dc.lft.to/lastmile_qr_scan"}, "type": "electric_scooter", "name": "f6ed6ddff1add7b1fba8f0baa362b118"}, {"bike_id": "c0dce763db27b970d224f6f9ea1d7102", "lat": 38.90625683333333, "is_disabled": 0, "lon": -76.98282766666667, "fusion_lon": 0.0, "is_reserved": 0, "fusion_lat": 0.0, "rental_uris": {"android": "https://dc.lft.to/lastmile_qr_scan", "ios": "https://dc.lft.to/lastmile_qr_scan"}, "type": "electric_bike", "name": "c0dce763db27b970d224f6f9ea1d7102"}, {"bike_id": "c8e595bea8df105d3661d4e226c72ce6", "lat": 38.887517333333335, "is_disabled": 0, "lon": -76.99233866666667, "fusion_lon": 0.0, "is_reserved": 0, "fusion_lat": 0.0, "rental_uris": {"android": "https://dc.lft.to/lastmile_qr_scan", "ios": "https://dc.lft.to/lastmile_qr_scan"}, "type": "electric_scooter", "name": "c8e595bea8df105d3661d4e226c72ce6"}, {"bike_id": "f4f904babe2a049384ef57fb87d4eb44", "lat": 38.892430166666664, "is_disabled": 0, "lon": -77.02196683333334, "fusion_lon": 0.0, "is_reserved": 0, "fusion_lat": 0.0, "rental_uris": {"android": "https://dc.lft.to/lastmile_qr_scan", "ios": "https://dc.lft.to/lastmile_qr_scan"}, "type": "electric_scooter", "name": "f4f904babe2a049384ef57fb87d4eb44"}, {"bike_id": "80cf854ceec59a7bde404716ebc523ce", "lat": 38.896467333333334, "is_disabled": 0, "lon": -77.04005933333333, "fusion_lon": 0.0, "is_reserved": 0, "fusion_lat": 0.0, "rental_uris": {"android": "https://dc.lft.to/lastmile_qr_scan", "ios": "https://dc.lft.to/lastmile_qr_scan"}, "type": "electric_scooter", "name": "80cf854ceec59a7bde404716ebc523ce"}, {"bike_id": "f518729a54da7acf6a375780b71396a0", "lat": 38.9022395, "is_disabled": 0, "lon": -77.04551933333333, "fusion_lon": 0.0, "is_reserved": 0, "fusion_lat": 0.0, "rental_uris": {"android": "https://dc.lft.to/lastmile_qr_scan", "ios": "https://dc.lft.to/lastmile_qr_scan"}, "type": "electric_scooter", "name": "f518729a54da7acf6a375780b71396a0"}, {"bike_id": "4e457aca592cf549f0c1664b24ac8417", "lat": 38.90573633333333, "is_disabled": 0, "lon": -77.007091, "fusion_lon": 0.0, "is_reserved": 0, "fusion_lat": 0.0, "rental_uris": {"android": "https://dc.lft.to/lastmile_qr_scan", "ios": "https://dc.lft.to/lastmile_qr_scan"}, "type": "electric_scooter", "name": "4e457aca592cf549f0c1664b24ac8417"}, {"bike_id": "356c4e55168685e7f7755ea8a1a81d2e", "lat": 38.913176666666665, "is_disabled": 0, "lon": -77.0200005, "fusion_lon": 0.0, "is_reserved": 0, "fusion_lat": 0.0, "rental_uris": {"android": "https://dc.lft.to/lastmile_qr_scan", "ios": "https://dc.lft.to/lastmile_qr_scan"}, "type": "electric_scooter", "name": "356c4e55168685e7f7755ea8a1a81d2e"}, {"bike_id": "ecbd22d223642b60e2ac7790946d38f0", "lat": 38.88490383333333, "is_disabled": 0, "lon": -77.00712083333333, "fusion_lon": 0.0, "is_reserved": 0, "fusion_lat": 0.0, "rental_uris": {"android": "https://dc.lft.to/lastmile_qr_scan", "ios": "https://dc.lft.to/lastmile_qr_scan"}, "type": "electric_scooter", "name": "ecbd22d223642b60e2ac7790946d38f0"}, {"bike_id": "5a39cde8e4027bebbc3bbc4829e9df10", "lat": 38.926271666666665, "is_disabled": 0, "lon": -76.9961885, "fusion_lon": 0.0, "is_reserved": 0, "fusion_lat": 0.0, "rental_uris": {"android": "https://dc.lft.to/lastmile_qr_scan", "ios": "https://dc.lft.to/lastmile_qr_scan"}, "type": "electric_scooter", "name": "5a39cde8e4027bebbc3bbc4829e9df10"}, {"bike_id": "367207bf08b1398bcb1b2945adb21b5b", "lat": 38.92067816666667, "is_disabled": 0, "lon": -77.04200816666666, "fusion_lon": 0.0, "is_reserved": 0, "fusion_lat": 0.0, "rental_uris": {"android": "https://dc.lft.to/lastmile_qr_scan", "ios": "https://dc.lft.to/lastmile_qr_scan"}, "type": "electric_scooter", "name": "367207bf08b1398bcb1b2945adb21b5b"}, {"bike_id": "f97111a4e820b7522fb83324efc2b10e", "lat": 38.917960666666666, "is_disabled": 0, "lon": -77.0270955, "fusion_lon": 0.0, "is_reserved": 0, "fusion_lat": 0.0, "rental_uris": {"android": "https://dc.lft.to/lastmile_qr_scan", "ios": "https://dc.lft.to/lastmile_qr_scan"}, "type": "electric_scooter", "name": "f97111a4e820b7522fb83324efc2b10e"}, {"bike_id": "675db2e94e4d478624919feb4e1ebf07", "lat": 38.91617133333333, "is_disabled": 0, "lon": -77.036472, "fusion_lon": 0.0, "is_reserved": 0, "fusion_lat": 0.0, "rental_uris": {"android": "https://dc.lft.to/lastmile_qr_scan", "ios": "https://dc.lft.to/lastmile_qr_scan"}, "type": "electric_scooter", "name": "675db2e94e4d478624919feb4e1ebf07"}, {"bike_id": "f308e87a4e16c2afe7d251bab33f6485", "lat": 38.90391266666666, "is_disabled": 0, "lon": -77.034327, "fusion_lon": 0.0, "is_reserved": 0, "fusion_lat": 0.0, "rental_uris": {"android": "https://dc.lft.to/lastmile_qr_scan", "ios": "https://dc.lft.to/lastmile_qr_scan"}, "type": "electric_scooter", "name": "f308e87a4e16c2afe7d251bab33f6485"}, {"bike_id": "12c608adc91404752ee63d4571503e16", "lat": 38.94833216666667, "is_disabled": 0, "lon": -77.0255695, "fusion_lon": 0.0, "is_reserved": 0, "fusion_lat": 0.0, "rental_uris": {"android": "https://dc.lft.to/lastmile_qr_scan", "ios": "https://dc.lft.to/lastmile_qr_scan"}, "type": "electric_scooter", "name": "12c608adc91404752ee63d4571503e16"}, {"bike_id": "2e09e137e779e413bf6a4c2471314545", "lat": 38.89622833333333, "is_disabled": 0, "lon": -77.03193483333334, "fusion_lon": 0.0, "is_reserved": 0, "fusion_lat": 0.0, "rental_uris": {"android": "https://dc.lft.to/lastmile_qr_scan", "ios": "https://dc.lft.to/lastmile_qr_scan"}, "type": "electric_scooter", "name": "2e09e137e779e413bf6a4c2471314545"}, {"bike_id": "9bd1f6e53c31e011c3488f81833d4db1", "lat": 38.90735266666667, "is_disabled": 0, "lon": -77.04384033333334, "fusion_lon": 0.0, "is_reserved": 0, "fusion_lat": 0.0, "rental_uris": {"android": "https://dc.lft.to/lastmile_qr_scan", "ios": "https://dc.lft.to/lastmile_qr_scan"}, "type": "electric_scooter", "name": "9bd1f6e53c31e011c3488f81833d4db1"}, {"bike_id": "f36dedfdc2e961eb9ef5598be578dce3", "lat": 38.894381833333334, "is_disabled": 0, "lon": -76.98085916666666, "fusion_lon": 0.0, "is_reserved": 0, "fusion_lat": 0.0, "rental_uris": {"android": "https://dc.lft.to/lastmile_qr_scan", "ios": "https://dc.lft.to/lastmile_qr_scan"}, "type": "electric_scooter", "name": "f36dedfdc2e961eb9ef5598be578dce3"}, {"bike_id": "17682758a2970ea73e01774a6b1f951d", "lat": 38.909605666666664, "is_disabled": 0, "lon": -77.0463665, "fusion_lon": 0.0, "is_reserved": 0, "fusion_lat": 0.0, "rental_uris": {"android": "https://dc.lft.to/lastmile_qr_scan", "ios": "https://dc.lft.to/lastmile_qr_scan"}, "type": "electric_scooter", "name": "17682758a2970ea73e01774a6b1f951d"}, {"bike_id": "5f2b0529eb877e102f1cc2e4434822fc", "lat": 38.866563166666666, "is_disabled": 0, "lon": -76.98885783333333, "fusion_lon": 0.0, "is_reserved": 0, "fusion_lat": 0.0, "rental_uris": {"android": "https://dc.lft.to/lastmile_qr_scan", "ios": "https://dc.lft.to/lastmile_qr_scan"}, "type": "electric_scooter", "name": "5f2b0529eb877e102f1cc2e4434822fc"}, {"bike_id": "5c5e3af07e5085054abdef7639fa47b2", "lat": 38.90245566666667, "is_disabled": 0, "lon": -77.03340416666667, "fusion_lon": 0.0, "is_reserved": 0, "fusion_lat": 0.0, "rental_uris": {"android": "https://dc.lft.to/lastmile_qr_scan", "ios": "https://dc.lft.to/lastmile_qr_scan"}, "type": "electric_scooter", "name": "5c5e3af07e5085054abdef7639fa47b2"}, {"bike_id": "5d1ae2f9fc960ffda99e2c0019d12d4c", "lat": 38.918062166666665, "is_disabled": 0, "lon": -77.03440516666667, "fusion_lon": 0.0, "is_reserved": 0, "fusion_lat": 0.0, "rental_uris": {"android": "https://dc.lft.to/lastmile_qr_scan", "ios": "https://dc.lft.to/lastmile_qr_scan"}, "type": "electric_scooter", "name": "5d1ae2f9fc960ffda99e2c0019d12d4c"}, {"bike_id": "c8c7fa0ac22fa04f127240f02368e5eb", "lat": 38.8856065, "is_disabled": 0, "lon": -76.99793283333334, "fusion_lon": 0.0, "is_reserved": 0, "fusion_lat": 0.0, "rental_uris": {"android": "https://dc.lft.to/lastmile_qr_scan", "ios": "https://dc.lft.to/lastmile_qr_scan"}, "type": "electric_scooter", "name": "c8c7fa0ac22fa04f127240f02368e5eb"}, {"bike_id": "29cd213ab5de81c4a37aff6c06701dc9", "lat": 38.90259616666667, "is_disabled": 0, "lon": -77.0460315, "fusion_lon": 0.0, "is_reserved": 0, "fusion_lat": 0.0, "rental_uris": {"android": "https://dc.lft.to/lastmile_qr_scan", "ios": "https://dc.lft.to/lastmile_qr_scan"}, "type": "electric_scooter", "name": "29cd213ab5de81c4a37aff6c06701dc9"},