{"data": {"bikes": [{"is_reserved": 0, "fusion_lon": 0.0, "fusion_lat": 0.0, "name": "25318305561fd15ad9e666ccc3a3b5be", "type": "electric_scooter", "is_disabled": 0, "lat": 38.917089833333335, "rental_uris": {"android": "https://dc.lft.to/lastmile_qr_scan", "ios": "https://dc.lft.to/lastmile_qr_scan"}, "bike_id": "25318305561fd15ad9e666ccc3a3b5be", "lon": -77.03864383333334}, {"is_reserved": 0, "fusion_lon": 0.0, "fusion_lat": 0.0, "name": "988d65bcb5efaa1f9ee6fbaf521fa67e", "type": "electric_scooter", "is_disabled": 0, "lat": 38.916836833333335, "rental_uris": {"android": "https://dc.lft.to/lastmile_qr_scan", "ios": "https://dc.lft.to/lastmile_qr_scan"}, "bike_id": "988d65bcb5efaa1f9ee6fbaf521fa67e", "lon": -77.02975016666667}, {"is_reserved": 0, "fusion_lon": 0.0, "fusion_lat": 0.0, "name": "acab2f26693eef813854cc3ff08d855a", "type": "electric_scooter", "is_disabled": 0, "lat": 38.8975305, "rental_uris": {"android": "https://dc.lft.to/lastmile_qr_scan", "ios": "https://dc.lft.to/lastmile_qr_scan"}, "bike_id": "acab2f26693eef813854cc3ff08d855a", "lon": -77.02009466666667}, {"is_reserved": 0, "fusion_lon": 0.0, "fusion_lat": 0.0, "name": "68e8be1f1ab7b36e2b0a24f0e7434538", "type": "electric_scooter", "is_disabled": 0, "lat": 38.892197333333336, "rental_uris": {"android": "https://dc.lft.to/lastmile_qr_scan", "ios": "https://dc.lft.to/lastmile_qr_scan"}, "bike_id": "68e8be1f1ab7b36e2b0a24f0e7434538", "lon": -77.02225733333333}, {"is_reserved": 0, "fusion_lon": 0.0, "fusion_lat": 0.0, "name": "64ade4998e93a8f5fe51beca5181ecb1", "type": "electric_scooter", "is_disabled": 0, "lat": 38.898523833333336, "rental_uris": {"android": "https://dc.lft.to/lastmile_qr_scan", "ios": "https://dc.lft.to/lastmile_qr_scan"}, "bike_id": "64ade4998e93a8f5fe51beca5181ecb1", "lon": -77.02370766666667}, {"is_reserved": 0, "fusion_lon": 0.0, "fusion_lat": 0.0, "name": "facf37892a810484f1efd233234f48e9", "type": "electric_scooter", "is_disabled": 0, "lat": 38.904601666666665, "rental_uris": {"android": "https://dc.lft.to/lastmile_qr_scan", "ios": "https://dc.lft.to/lastmile_qr_scan"}, "bike_id": "facf37892a810484f1efd233234f48e9", "lon": -77.00695983333334}, {"is_reserved": 0, "fusion_lon": 0.0, "fusion_lat": 0.0, "name": "888e92f6c55b181e0dca0c7ee31773aa", "type": "electric_scooter", "is_disabled": 0, "lat": 38.905682, "rental_uris": {"android": "https://dc.lft.to/lastmile_qr_scan", "ios": "https://dc.lft.to/lastmile_qr_scan"}, "bike_id": "888e92f6c55b181e0dca0c7ee31773aa", "lon": -77.0449475}, {"is_reserved": 0, "fusion_lon": 0.0, "fusion_lat": 0.0, "name": "4f7309c4881ba4a952bbc352da3391a0", "type": "electric_scooter", "is_disabled": 0, "lat": 38.892234333333334, "rental_uris": {"android": "https://dc.lft.to/lastmile_qr_scan", "ios": "https://dc.lft.to/lastmile_qr_scan"}, "bike_id": "4f7309c4881ba4a952bbc352da3391a0", "lon": -77.02635133333334}, {"is_reserved": 0, "fusion_lon": 0.0, "fusion_lat": 0.0, "name": "59858533248934ee0e403ed55f182396", "type": "electric_scooter", "is_disabled": 0, "lat": 38.90276183333334, "rental_uris": {"android": "https://dc.lft.to/lastmile_qr_scan", "ios": "https://dc.lft.to/lastmile_qr_scan"}, "bike_id": "59858533248934ee0e403ed55f182396", "lon": -77.03467883333333}, {"is_reserved": 0, "fusion_lon": 0.0, "fusion_lat": 0.0, "name": "197922eaaacee09ffa8d40c5f1d3a65c", "type": "electric_scooter", "is_disabled": 0, "lat": 38.934463666666666, "rental_uris": {"android": "https://dc.lft.to/lastmile_qr_scan", "ios": "https://dc.lft.to/lastmile_qr_scan"}, "bike_id": "197922eaaacee09ffa8d40c5f1d3a65c", "lon": -76.99879933333334}, {"is_reserved": 0, "fusion_lon": 0.0, "fusion_lat": 0.0, "name": "2b57463919ba71c3960272d13e07ae1f", "type": "electric_bike", "is_disabled": 0, "lat": 38.96275583333333, "rental_uris": {"android": "https://dc.lft.to/lastmile_qr_scan", "ios": "https://dc.lft.to/lastmile_qr_scan"}, "bike_id": "2b57463919ba71c3960272d13e07ae1f", "lon": -77.01456766666666}, {"is_reserved": 0, "fusion_lon": 0.0, "fusion_lat": 0.0, "name": "f84114874cad269c14ed3d05dacd56eb", "type": "electric_scooter", "is_disabled": 0, "lat": 38.92290933333334, "rental_uris": {"android": "https://dc.lft.to/lastmile_qr_scan", "ios": "https://dc.lft.to/lastmile_qr_scan"}, "bike_id": "f84114874cad269c14ed3d05dacd56eb", "lon": -77.04256683333334}, {"is_reserved": 0, "fusion_lon": 0.0, "fusion_lat": 0.0, "name": "5a129fc8b5c49d019dd6372b1c87693b", "type": "electric_scooter", "is_disabled": 0, "lat": 38.90067166666667, "rental_uris": {"android": "https://dc.lft.to/lastmile_qr_scan", "ios": "https://dc.lft.to/lastmile_qr_scan"}, "bike_id": "5a129fc8b5c49d019dd6372b1c87693b", "lon": -76.94693133333334}, {"is_reserved": 0, "fusion_lon": 0.0, "fusion_lat": 0.0, "name": "2a74c60da01f99d69dbe67d2ad9dcf6d", "type": "electric_bike", "is_disabled": 0, "lat": 38.9517625, "rental_uris": {"android": "https://dc.lft.to/lastmile_qr_scan", "ios": "https://dc.lft.to/lastmile_qr_scan"}, "bike_id": "2a74c60da01f99d69dbe67d2ad9dcf6d", "lon": -76.97731183333333}, {"is_reserved": 0, "fusion_lon": 0.0, "fusion_lat": 0.0, "name": "816c51d5bb3b36b40e73cef650078d25", "type": "electric_scooter", "is_disabled": 0, "lat": 38.90276983333333, "rental_uris": {"android": "https://dc.lft.to/lastmile_qr_scan", "ios": "https://dc.lft.to/lastmile_qr_scan"}, "bike_id": "816c51d5bb3b36b40e73cef650078d25", "lon": -77.03351166666667}, {"is_reserved": 0, "fusion_lon": 0.0, "fusion_lat": 0.0, "name": "3bfc94732a126561cc266c92475b38af", "type": "electric_scooter", "is_disabled": 0, "lat": 38.90475166666667, "rental_uris": {"android": "https://dc.lft.to/lastmile_qr_scan", "ios": "https://dc.lft.to/lastmile_qr_scan"}, "bike_id": "3bfc94732a126561cc266c92475b38af", "lon": -77.04827316666666}, {"is_reserved": 0, "fusion_lon": 0.0, "fusion_lat": 0.0, "name": "c5390f62ea50050aa45d987f274c90ab", "type": "electric_bike", "is_disabled": 0, "lat": 38.99344583333333, "rental_uris": {"android": "https://dc.lft.to/lastmile_qr_scan", "ios": "https://dc.lft.to/lastmile_qr_scan"}, "bike_id": "c5390f62ea50050aa45d987f274c90ab", "lon": -77.1156985}, {"is_reserved": 0, "fusion_lon": 0.0, "fusion_lat": 0.0, "name": "2bb56310e689e554b71e315bfb00ee88", "type": "electric_scooter", "is_disabled": 0, "lat": 38.941841, "rental_uris": {"android": "https://dc.lft.to/lastmile_qr_scan", "ios": "https://dc.lft.to/lastmile_qr_scan"}, "bike_id": "2bb56310e689e554b71e315bfb00ee88", "lon": -77.024907}, {"is_reserved": 0, "fusion_lon": 0.0, "fusion_lat": 0.0, "name": "b493ba66295e679354b4aa377df7c63b", "type": "electric_scooter", "is_disabled": 0, "lat": 38.919538333333335, "rental_uris": {"android": "https://dc.lft.to/lastmile_qr_scan", "ios": "https://dc.lft.to/lastmile_qr_scan"}, "bike_id": "b493ba66295e679354b4aa377df7c63b", "lon": -77.02374316666666}, {"is_reserved": 0, "fusion_lon": 0.0, "fusion_lat": 0.0, "name": "3787dc7d7e623c84ab120037728d7ec0", "type": "electric_scooter", "is_disabled": 0, "lat": 38.93021066666667, "rental_uris": {"android": "https://dc.lft.to/lastmile_qr_scan", "ios": "https://dc.lft.to/lastmile_qr_scan"}, "bike_id": "3787dc7d7e623c84ab120037728d7ec0", "lon": -77.05532266666667}, {"is_reserved": 0, "fusion_lon": 0.0, "fusion_lat": 0.0, "name": "a59e1dd86c4def7f9a43acebf51e2712", "type": "electric_scooter", "is_disabled": 0, "lat": 38.92451783333333, "rental_uris": {"android": "https://dc.lft.to/lastmile_qr_scan", "ios": "https://dc.lft.to/lastmile_qr_scan"}, "bike_id": "a59e1dd86c4def7f9a43acebf51e2712", "lon": -77.02159366666666}, {"is_reserved": 0, "fusion_lon": 0.0, "fusion_lat": 0.0, "name": "65fdaf2c1fcb0f6ce2e9d3600c712480", "type": "electric_scooter", "is_disabled": 0, "lat": 38.93871716666666, "rental_uris": {"android": "https://dc.lft.to/lastmile_qr_scan", "ios": "https://dc.lft.to/lastmile_qr_scan"}, "bike_id": "65fdaf2c1fcb0f6ce2e9d3600c712480", "lon": -77.02521066666667}, {"is_reserved": 0, "fusion_lon": 0.0, "fusion_lat": 0.0, "name": "e5b0bbb91bc7f963451b95517e6e1ed2", "type": "electric_scooter", "is_disabled": 0, "lat": 38.8665675, "rental_uris": {"android": "https://dc.lft.to/lastmile_qr_scan", "ios": "https://dc.lft.to/lastmile_qr_scan"}, "bike_id": "e5b0bbb91bc7f963451b95517e6e1ed2", "lon": -76.9888235}, {"is_reserved": 0, "fusion_lon": 0.0, "fusion_lat": 0.0, "name": "6aedd782120f1772730978c5844c1849", "type": "electric_bike", "is_disabled": 0, "lat": 38.845616666666665, "rental_uris": {"android": "https://dc.lft.to/lastmile_qr_scan", "ios": "https://dc.lft.to/lastmile_qr_scan"}, "bike_id": "6aedd782120f1772730978c5844c1849", "lon": -77.06690483333334}, {"is_reserved": 0, "fusion_lon": 0.0, "fusion_lat": 0.0, "name": "b6495ed98bb46e3039e2293da9b9aeb9", "type": "electric_bike", "is_disabled": 0, "lat": 38.803111, "rental_uris": {"android": "https://dc.lft.to/lastmile_qr_scan", "ios": "https://dc.lft.to/lastmile_qr_scan"}, "bike_id": "b6495ed98bb46e3039e2293da9b9aeb9", "lon": -77.04027116666667}, {"is_reserved": 0, "fusion_lon": 0.0, "fusion_lat": 0.0, "name": "2c5def15f6f016d39722e90050354fc6", "type": "electric_scooter", "is_disabled": 0, "lat": 38.925059, "rental_uris": {"android": "https://dc.lft.to/lastmile_qr_scan", "ios": "https://dc.lft.to/lastmile_qr_scan"}, "bike_id": "2c5def15f6f016d39722e90050354fc6", "lon": -77.03876816666667}, {"is_reserved": 0, "fusion_lon": 0.0, "fusion_lat": 0.0, "name": "c5d0eaff9d78b803a1bbf6fc6898c906", "type": "electric_scooter", "is_disabled": 0, "lat": 38.919177, "rental_uris": {"android": "https://dc.lft.to/lastmile_qr_scan", "ios": "https://dc.lft.to/lastmile_qr_scan"}, "bike_id": "c5d0eaff9d78b803a1bbf6fc6898c906", "lon": -77.03116283333334}, {"is_reserved": 0, "fusion_lon": 0.0, "fusion_lat": 0.0, "name": "a07fe62a3b844d7325caad3570ec9a28", "type": "electric_scooter", "is_disabled": 0, "lat": 38.8978095, "rental_uris": {"android": "https://dc.lft.to/lastmile_qr_scan", "ios": "https://dc.lft.to/lastmile_qr_scan"}, "bike_id": "a07fe62a3b844d7325caad3570ec9a28", "lon": -77.0502925}, {"is_reserved": 0, "fusion_lon": 0.0, "fusion_lat": 0.0, "name": "581ad948461e4df9dbf7ebbc714eec75", "type": "electric_bike", "is_disabled": 0, "lat": 38.931651, "rental_uris": {"android": "https://dc.lft.to/lastmile_qr_scan", "ios": "https://dc.lft.to/lastmile_qr_scan"}, "bike_id": "581ad948461e4df9dbf7ebbc714eec75", "lon": -76.88394283333334}, {"is_reserved": 0, "fusion_lon": 0.0, "fusion_lat": 0.0, "name": "cb6e0835776e9ed8266436b4f0de3136", "type": "electric_scooter", "is_disabled": 0, "lat": 38.902241833333335, "rental_uris": {"android": "https://dc.lft.to/lastmile_qr_scan", "ios": "https://dc.lft.to/lastmile_qr_scan"}, "bike_id": "cb6e0835776e9ed8266436b4f0de3136", "lon": -77.04366416666667}, {"is_reserved": 0, "fusion_lon": 0.0, "fusion_lat": 0.0, "name": "2b5105a83f2c8c56ab41cf32375efa84", "type": "electric_bike", "is_disabled": 0, "lat": 38.954433, "rental_uris": {"android": "https://dc.lft.to/lastmile_qr_scan", "ios": "https://dc.lft.to/lastmile_qr_scan"}, "bike_id": "2b5105a83f2c8c56ab41cf32375efa84", "lon": -76.98912316666667}, {"is_reserved": 0, "fusion_lon": 0.0, "fusion_lat": 0.0, "name": "fc22b62be11ef1173b83b2902a25a2af", "type": "electric_bike", "is_disabled": 0, "lat": 38.953331166666665, "rental_uris": {"android": "https://dc.lft.to/lastmile_qr_scan", "ios": "https://dc.lft.to/lastmile_qr_scan"}, "bike_id": "fc22b62be11ef1173b83b2902a25a2af", "lon": -76.98250466666667}, {"is_reserved": 0, "fusion_lon": 0.0, "fusion_lat": 0.0, "name": "b6f60c9af88884503b353edaf39ed9be", "type": "electric_bike", "is_disabled": 0, "lat": 39.055026166666664, "rental_uris": {"android": "https://dc.lft.to/lastmile_qr_scan", "ios": "https://dc.lft.to/lastmile_qr_scan"}, "bike_id": "b6f60c9af88884503b353edaf39ed9be", "lon": -77.04648583333334}, {"is_reserved": 0, "fusion_lon": 0.0, "fusion_lat": 0.0, "name": "137427326bad6bf8154f3373db13b53f", "type": "electric_bike", "is_disabled": 0, "lat": 38.929661, "rental_uris": {"android": "https://dc.lft.to/lastmile_qr_scan", "ios": "https://dc.lft.to/lastmile_qr_scan"}, "bike_id": "137427326bad6bf8154f3373db13b53f", "lon": -77.18562766666666}, {"is_reserved": 0, "fusion_lon": 0.0, "fusion_lat": 0.0, "name": "4a79de16c1cece16ac01b4a533941334", "type": "electric_scooter", "is_disabled": 0, "lat": 38.88604683333333, "rental_uris": {"android": "https://dc.lft.to/lastmile_qr_scan", "ios": "https://dc.lft.to/lastmile_qr_scan"}, "bike_id": "4a79de16c1cece16ac01b4a533941334", "lon": -76.9951225}, {"is_reserved": 0, "fusion_lon": 0.0, "fusion_lat": 0.0, "name": "9ef1a113ea1681310223bea70add4a89", "type": "electric_scooter", "is_disabled": 0, "lat": 38.934013666666665, "rental_uris": {"android": "https://dc.lft.to/lastmile_qr_scan", "ios": "https://dc.lft.to/lastmile_qr_scan"}, "bike_id": "9ef1a113ea1681310223bea70add4a89", "lon": -77.03990116666667}, {"is_reserved": 0, "fusion_lon": 0.0, "fusion_lat": 0.0, "name": "9927fb0328e5c99322912098f2302217", "type": "electric_bike", "is_disabled": 0, "lat": 38.88676683333333, "rental_uris": {"android": "https://dc.lft.to/lastmile_qr_scan", "ios": "https://dc.lft.to/lastmile_qr_scan"}, "bike_id": "9927fb0328e5c99322912098f2302217", "lon": -77.0021025}, {"is_reserved": 0, "fusion_lon": 0.0, "fusion_lat": 0.0, "name": "5b38e7e328b62b965b1ca548928ef3a2", "type": "electric_scooter", "is_disabled": 0, "lat": 38.91793116666667, "rental_uris": {"android": "https://dc.lft.to/lastmile_qr_scan", "ios": "https://dc.lft.to/lastmile_qr_scan"}, "bike_id": "5b38e7e328b62b965b1ca548928ef3a2", "lon": -77.0346115}, {"is_reserved": 0, "fusion_lon": 0.0, "fusion_lat": 0.0, "name": "3db5828c9680c458d83f78908ee64efa", "type": "electric_scooter", "is_disabled": 0, "lat": 38.9012765, "rental_uris": {"android": "https://dc.lft.to/lastmile_qr_scan", "ios": "https://dc.lft.to/lastmile_qr_scan"}, "bike_id": "3db5828c9680c458d83f78908ee64efa", "lon": -77.05003516666666}, {"is_reserved": 0, "fusion_lon": 0.0, "fusion_lat": 0.0, "name": "16586f04cbc21a51a5925748c74ddf67", "type": "electric_scooter", "is_disabled": 0, "lat": 38.892321333333335, "rental_uris": {"android": "https://dc.lft.to/lastmile_qr_scan", "ios": "https://dc.lft.to/lastmile_qr_scan"}, "bike_id": "16586f04cbc21a51a5925748c74ddf67", "lon": -77.0500395}, {"is_reserved": 0, "fusion_lon": 0.0, "fusion_lat": 0.0, "name": "47b16662ea98ddcf5943ceb416ca6960", "type": "electric_scooter", "is_disabled": 0, "lat": 38.90705333333333, "rental_uris": {"android": "https://dc.lft.to/lastmile_qr_scan", "ios": "https://dc.lft.to/lastmile_qr_scan"}, "bike_id": "47b16662ea98ddcf5943ceb416ca6960", "lon": -77.041991}, {"is_reserved": 0, "fusion_lon": 0.0, "fusion_lat": 0.0, "name": "ed5b046ba9b23ffb191bea86d3996c58", "type": "electric_scooter", "is_disabled": 0, "lat": 38.89871733333333, "rental_uris": {"android": "https://dc.lft.to/lastmile_qr_scan", "ios": "https://dc.lft.to/lastmile_qr_scan"}, "bike_id": "ed5b046ba9b23ffb191bea86d3996c58", "lon": -77.013736}, {"is_reserved": 0, "fusion_lon": 0.0, "fusion_lat": 0.0, "name": "e90ed1071fad6e1a9b069072a3a575bf", "type": "electric_bike", "is_disabled": 0, "lat": 38.900474, "rental_uris": {"android": "https://dc.lft.to/lastmile_qr_scan", "ios": "https://dc.lft.to/lastmile_qr_scan"}, "bike_id": "e90ed1071fad6e1a9b069072a3a575bf", "lon": -77.04802516666666}, {"is_reserved": 0, "fusion_lon": 0.0, "fusion_lat": 0.0, "name": "4b49ca3fdcebadfc417a8f2852d98b9f", "type": "electric_scooter", "is_disabled": 0, "lat": 38.923113, "rental_uris": {"android": "https://dc.lft.to/lastmile_qr_scan", "ios": "https://dc.lft.to/lastmile_qr_scan"}, "bike_id": "4b49ca3fdcebadfc417a8f2852d98b9f", "lon": -77.031216}, {"is_reserved": 0, "fusion_lon": 0.0, "fusion_lat": 0.0, "name": "1b9d62cfd94d7b2e7bee7f22785ee1c8", "type": "electric_scooter", "is_disabled": 0, "lat": 38.8706355, "rental_uris": {"android": "https://dc.lft.to/lastmile_qr_scan", "ios": "https://dc.lft.to/lastmile_qr_scan"}, "bike_id": "1b9d62cfd94d7b2e7bee7f22785ee1c8", "lon": -76.9890975}, {"is_reserved": 0, "fusion_lon": 0.0, "fusion_lat": 0.0, "name": "113620b4553d85f5560cef0a1170b967", "type": "electric_scooter", "is_disabled": 0, "lat": 38.9318885, "rental_uris": {"android": "https://dc.lft.to/lastmile_qr_scan", "ios": "https://dc.lft.to/lastmile_qr_scan"}, "bike_id": "113620b4553d85f5560cef0a1170b967", "lon": -77.04141283333334}, {"is_reserved": 0, "fusion_lon": 0.0, "fusion_lat": 0.0, "name": "a52725d899fedca0283c1e706dba1c1c", "type": "electric_scooter", "is_disabled": 0, "lat": 38.906436666666664, "rental_uris": {"android": "https://dc.lft.to/lastmile_qr_scan", "ios": "https://dc.lft.to/lastmile_qr_scan"}, "bike_id": "a52725d899fedca0283c1e706dba1c1c", "lon": -77.03911366666667}, {"is_reserved": 0, "fusion_lon": 0.0, "fusion_lat": 0.0, "name": "270e7054ce47bc5a4ab8704dc9bc80cd", "type": "electric_scooter", "is_disabled": 0, "lat": 38.918197, "rental_uris": {"android": "https://dc.lft.to/lastmile_qr_scan", "ios": "https://dc.lft.to/lastmile_qr_scan"}, "bike_id": "270e7054ce47bc5a4ab8704dc9bc80cd", "lon": -77.03252333333333}, {"is_reserved": 0, "fusion_lon": 0.0, "fusion_lat": 0.0, "name": "a6fc659572e536045f8a25a38f792bd8", "type": "electric_scooter", "is_disabled": 0, "lat": 38.892277666666665, "rental_uris": {"android": "https://dc.lft.to/lastmile_qr_scan", "ios": "https://dc.lft.to/lastmile_qr_scan"}, "bike_id": "a6fc659572e536045f8a25a38f792bd8", "lon": -77.02339516666666}, {"is_reserved": 0, "fusion_lon": 0.0, "fusion_lat": 0.0, "name": "4ae9a3156c22e7850f0bd71c8029cc32", "type": "electric_scooter", "is_disabled": 0, "lat": 38.91576, "rental_uris": {"android": "https://dc.lft.to/lastmile_qr_scan", "ios": "https://dc.lft.to/lastmile_qr_scan"}, "bike_id": "4ae9a3156c22e7850f0bd71c8029cc32", "lon": -77.03188633333333}, {"is_reserved": 0, "fusion_lon": 0.0, "fusion_lat": 0.0, "name": "5077b989c048d0cc036436ca608cd49e", "type": "electric_scooter", "is_disabled": 0, "lat": 38.882626333333334, "rental_uris": {"android": "https://dc.lft.to/lastmile_qr_scan", "ios": "https://dc.lft.to/lastmile_qr_scan"}, "bike_id": "5077b989c048d0cc036436ca608cd49e", "lon": -77.00584366666666}, {"is_reserved": 0, "fusion_lon": 0.0, "fusion_lat": 0.0, "name": "34d908eae5ace72f0a10f4dd62f0e55c", "type": "electric_scooter", "is_disabled": 0, "lat": 38.916124833333335, "rental_uris": {"android": "https://dc.lft.to/lastmile_qr_scan", "ios": "https://dc.lft.to/lastmile_qr_scan"}, "bike_id": "34d908eae5ace72f0a10f4dd62f0e55c", "lon": -77.022908}, {"is_reserved": 0, "fusion_lon": 0.0, "fusion_lat": 0.0, "name": "fa5a0bbd25a7218aaeafdf896da5e371", "type": "electric_scooter", "is_disabled": 0, "lat": 38.924686666666666, "rental_uris": {"android": "https://dc.lft.to/lastmile_qr_scan", "ios": "https://dc.lft.to/lastmile_qr_scan"}, "bike_id": "fa5a0bbd25a7218aaeafdf896da5e371", "lon": -77.022038}, {"is_reserved": 0, "fusion_lon": 0.0, "fusion_lat": 0.0, "name": "361449a9ddcf37077558eb6d2f4a962a", "type": "electric_scooter", "is_disabled": 0, "lat": 38.919532833333335, "rental_uris": {"android": "https://dc.lft.to/lastmile_qr_scan", "ios": "https://dc.lft.to/lastmile_qr_scan"}, "bike_id": "361449a9ddcf37077558eb6d2f4a962a", "lon": -77.01391816666667}, {"is_reserved": 0, "fusion_lon": 0.0, "fusion_lat": 0.0, "name": "de8236964e5f68aabf1afae615494aa9", "type": "electric_scooter", "is_disabled": 0, "lat": 38.94522033333333, "rental_uris": {"android": "https://dc.lft.to/lastmile_qr_scan", "ios": "https://dc.lft.to/lastmile_qr_scan"}, "bike_id": "de8236964e5f68aabf1afae615494aa9", "lon": -77.0197825}, {"is_reserved": 0, "fusion_lon": 0.0, "fusion_lat": 0.0, "name": "3f0d25de3cf8c32c9113ec1bbe8ec6cb", "type": "electric_scooter", "is_disabled": 0, "lat": 38.942954, "rental_uris": {"android": "https://dc.lft.to/lastmile_qr_scan", "ios": "https://dc.lft.to/lastmile_qr_scan"}, "bike_id": "3f0d25de3cf8c32c9113ec1bbe8ec6cb", "lon": -77.02171266666667}, {"is_reserved": 0, "fusion_lon": 0.0, "fusion_lat": 0.0, "name": "6a9ef7e5a8a9e7db333c5874bb74e79e", "type": "electric_scooter", "is_disabled": 0, "lat": 38.907725166666665, "rental_uris": {"android": "https://dc.lft.to/lastmile_qr_scan", "ios": "https://dc.lft.to/lastmile_qr_scan"}, "bike_id": "6a9ef7e5a8a9e7db333c5874bb74e79e", "lon": -77.0382085}, {"is_reserved": 0, "fusion_lon": 0.0, "fusion_lat": 0.0, "name": "dd8c430cbf6f7d524fe1c4f1b8462d37", "type": "electric_scooter", "is_disabled": 0, "lat": 38.95934583333333, "rental_uris": {"android": "https://dc.lft.to/lastmile_qr_scan", "ios": "https://dc.lft.to/lastmile_qr_scan"}, "bike_id": "dd8c430cbf6f7d524fe1c4f1b8462d37", "lon": -77.03124466666667}, {"is_reserved": 0, "fusion_lon": 0.0, "fusion_lat": 0.0, "name": "48ba74a6a01c88d4cecf617af09e89f2", "type": "electric_scooter", "is_disabled": 0, "lat": 38.8736705, "rental_uris": {"android": "https://dc.lft.to/lastmile_qr_scan", "ios": "https://dc.lft.to/lastmile_qr_scan"}, "bike_id": "48ba74a6a01c88d4cecf617af09e89f2", "lon": -76.97017683333334}, {"is_reserved": 0, "fusion_lon": 0.0, "fusion_lat": 0.0, "name": "023ac39ab49d8811f00b88568ec3e78b", "type": "electric_scooter", "is_disabled": 0, "lat": 38.909362333333334, "rental_uris": {"android": "https://dc.lft.to/lastmile_qr_scan", "ios": "https://dc.lft.to/lastmile_qr_scan"}, "bike_id": "023ac39ab49d8811f00b88568ec3e78b", "lon": -77.0307105}, {"is_reserved": 0, "fusion_lon": 0.0, "fusion_lat": 0.0, "name": "d2ebaffd7415ffa773e95403680052b6", "type": "electric_scooter", "is_disabled": 0, "lat": 38.89300516666667, "rental_uris": {"android": "https://dc.lft.to/lastmile_qr_scan", "ios": "https://dc.lft.to/lastmile_qr_scan"}, "bike_id": "d2ebaffd7415ffa773e95403680052b6", "lon": -76.99267783333333}, {"is_reserved": 0, "fusion_lon": 0.0, "fusion_lat": 0.0, "name": "b4cd1c334e6ca49674dd498c95590501", "type": "electric_scooter", "is_disabled": 0, "lat": 38.929876666666665, "rental_uris": {"android": "https://dc.lft.to/lastmile_qr_scan", "ios": "https://dc.lft.to/lastmile_qr_scan"}, "bike_id": "b4cd1c334e6ca49674dd498c95590501", "lon": -77.03099433333334}, {"is_reserved": 0, "fusion_lon": 0.0, "fusion_lat": 0.0, "name": "3a4da85d4607cfaad66c937b6773f1f6", "type": "electric_scooter", "is_disabled": 0, "lat": 38.90032333333333, "rental_uris": {"android": "https://dc.lft.to/lastmile_qr_scan", "ios": "https://dc.lft.to/lastmile_qr_scan"}, "bike_id": "3a4da85d4607cfaad66c937b6773f1f6", "lon": -77.02402966666666}, {"is_reserved": 0, "fusion_lon": 0.0, "fusion_lat": 0.0, "name": "952afd873840184a7713f73e81a33b5c", "type": "electric_scooter", "is_disabled": 0, "lat": 38.89532283333333, "rental_uris": {"android": "https://dc.lft.to/lastmile_qr_scan", "ios": "https://dc.lft.to/lastmile_qr_scan"}, "bike_id": "952afd873840184a7713f73e81a33b5c", "lon": -77.00343333333333}, {"is_reserved": 0, "fusion_lon": 0.0, "fusion_lat": 0.0, "name": "2624f9ff5f743aff0242fc816993f40d", "type": "electric_scooter", "is_disabled": 0, "lat": 38.89993666666667, "rental_uris": {"android": "https://dc.lft.to/lastmile_qr_scan", "ios": "https://dc.lft.to/lastmile_qr_scan"}, "bike_id": "2624f9ff5f743aff0242fc816993f40d", "lon": -77.04830466666667}, {"is_reserved": 0, "fusion_lon": 0.0, "fusion_lat": 0.0, "name": "cee75c388272f91098a1305f5b79bd3f", "type": "electric_scooter", "is_disabled": 0, "lat": 38.90089966666667, "rental_uris": {"android": "https://dc.lft.to/lastmile_qr_scan", "ios": "https://dc.lft.to/lastmile_qr_scan"}, "bike_id": "cee75c388272f91098a1305f5b79bd3f", "lon": -77.04875216666667}, {"is_reserved": 0, "fusion_lon": 0.0, "fusion_lat": 0.0, "name": "4bf0a765892c4bbc9cdb24e56c065106", "type": "electric_scooter", "is_disabled": 0, "lat": 38.91554216666667, "rental_uris": {"android": "https://dc.lft.to/lastmile_qr_scan", "ios": "https://dc.lft.to/lastmile_qr_scan"}, "bike_id": "4bf0a765892c4bbc9cdb24e56c065106", "lon": -77.025532}, {"is_reserved": 0, "fusion_lon": 0.0, "fusion_lat": 0.0, "name": "3fcd333b2d8b002d2140096beb0a8188", "type": "electric_scooter", "is_disabled": 0, "lat": 38.89173233333333, "rental_uris": {"android": "https://dc.lft.to/lastmile_qr_scan", "ios": "https://dc.lft.to/lastmile_qr_scan"}, "bike_id": "3fcd333b2d8b002d2140096beb0a8188", "lon": -77.01547716666667}, {"is_reserved": 0, "fusion_lon": 0.0, "fusion_lat": 0.0, "name": "dd6e6cd49e7a9016ad986bc525edac1d", "type": "electric_scooter", "is_disabled": 0, "lat": 38.9378115, "rental_uris": {"android": "https://dc.lft.to/lastmile_qr_scan", "ios": "https://dc.lft.to/lastmile_qr_scan"}, "bike_id": "dd6e6cd49e7a9016ad986bc525edac1d", "lon": -77.03288133333334}, {"is_reserved": 0, "fusion_lon": 0.0, "fusion_lat": 0.0, "name": "6f968b3abd2badf8cf38e591713895f6", "type": "electric_scooter", "is_disabled": 0, "lat": 38.905977, "rental_uris": {"android": "https://dc.lft.to/lastmile_qr_scan", "ios": "https://dc.lft.to/lastmile_qr_scan"}, "bike_id": "6f968b3abd2badf8cf38e591713895f6", "lon": -77.0630145}, {"is_reserved": 0, "fusion_lon": 0.0, "fusion_lat": 0.0, "name": "cc943af88dc5bbc5e0df09e7d30c81c4", "type": "electric_scooter", "is_disabled": 0, "lat": 38.83575583333333, "rental_uris": {"android": "https://dc.lft.to/lastmile_qr_scan", "ios": "https://dc.lft.to/lastmile_qr_scan"}, "bike_id": "cc943af88dc5bbc5e0df09e7d30c81c4", "lon": -76.994904}, {"is_reserved": 0, "fusion_lon": 0.0, "fusion_lat": 0.0, "name": "ba86c217cf3d3dbd501d2c594862f1db", "type": "electric_scooter", "is_disabled": 0, "lat": 38.911074666666664, "rental_uris": {"android": "https://dc.lft.to/lastmile_qr_scan", "ios": "https://dc.lft.to/lastmile_qr_scan"}, "bike_id": "ba86c217cf3d3dbd501d2c594862f1db", "lon": -77.04469733333333}, {"is_reserved": 0, "fusion_lon": 0.0, "fusion_lat": 0.0, "name": "144b5620acef9fb4856a03362bd7dc2a", "type": "electric_scooter", "is_disabled": 0, "lat": 38.900759666666666, "rental_uris": {"android": "https://dc.lft.to/lastmile_qr_scan", "ios": "https://dc.lft.to/lastmile_qr_scan"}, "bike_id": "144b5620acef9fb4856a03362bd7dc2a", "lon": -77.04732816666667}, {"is_reserved": 0, "fusion_lon": 0.0, "fusion_lat": 0.0, "name": "b9c243b9535ac43b64a0fc88ca445757", "type": "electric_scooter", "is_disabled": 0, "lat": 38.9072555, "rental_uris": {"android": "https://dc.lft.to/lastmile_qr_scan", "ios": "https://dc.lft.to/lastmile_qr_scan"}, "bike_id": "b9c243b9535ac43b64a0fc88ca445757", "lon": -77.0428395}, {"is_reserved": 0, "fusion_lon": 0.0, "fusion_lat": 0.0, "name": "a66fc47e72a6286628634d028b24c2b7", "type": "electric_scooter", "is_disabled": 0, "lat": 38.92396016666667, "rental_uris": {"android": "https://dc.lft.to/lastmile_qr_scan", "ios": "https://dc.lft.to/lastmile_qr_scan"}, "bike_id": "a66fc47e72a6286628634d028b24c2b7", "lon": -77.02431016666667}, {"is_reserved": 0, "fusion_lon": 0.0, "fusion_lat": 0.0, "name": "d7a6d8d32d7870722c6871392eb464ec", "type": "electric_scooter", "is_disabled": 0, "lat": 38.901382, "rental_uris": {"android": "https://dc.lft.to/lastmile_qr_scan", "ios": "https://dc.lft.to/lastmile_qr_scan"}, "bike_id": "d7a6d8d32d7870722c6871392eb464ec", "lon": -77.033325}, {"is_reserved": 0, "fusion_lon": 0.0, "fusion_lat": 0.0, "name": "027b0fdc4193ee5e39e481dc9d84aee9", "type": "electric_scooter", "is_disabled": 0, "lat": 38.9060395, "rental_uris": {"android": "https://dc.lft.to/lastmile_qr_scan", "ios": "https://dc.lft.to/lastmile_qr_scan"}, "bike_id": "027b0fdc4193ee5e39e481dc9d84aee9", "lon": -77.040386}, {"is_reserved": 0, "fusion_lon": 0.0, "fusion_lat": 0.0, "name": "d9cbf20340ae5ca13ec4f4d5f6a7be27", "type": "electric_scooter", "is_disabled": 0, "lat": 38.90662916666667, "rental_uris": {"android": "https://dc.lft.to/lastmile_qr_scan", "ios": "https://dc.lft.to/lastmile_qr_scan"}, "bike_id": "d9cbf20340ae5ca13ec4f4d5f6a7be27", "lon": -77.00190933333333}, {"is_reserved": 0, "fusion_lon": 0.0, "fusion_lat": 0.0, "name": "0bbe92d43686a8918a032018763a6a91", "type": "electric_scooter", "is_disabled": 0, "lat": 38.93867, "rental_uris": {"android": "https://dc.lft.to/lastmile_qr_scan", "ios": "https://dc.lft.to/lastmile_qr_scan"}, "bike_id": "0bbe92d43686a8918a032018763a6a91", "lon": -77.0308195}, {"is_reserved": 0, "fusion_lon": 0.0, "fusion_lat": 0.0, "name": "a5b961e26de4f15a802178821960a328", "type": "electric_scooter", "is_disabled": 0, "lat": 38.925309666666664, "rental_uris": {"android": "https://dc.lft.to/lastmile_qr_scan", "ios": "https://dc.lft.to/lastmile_qr_scan"}, "bike_id": "a5b961e26de4f15a802178821960a328", "lon": -76.99602716666666}, {"is_reserved": 0, "fusion_lon": 0.0, "fusion_lat": 0.0, "name": "64c2571d3225752f8faab38d97fe7598", "type": "electric_scooter", "is_disabled": 0, "lat": 38.919839833333334, "rental_uris": {"android": "https://dc.lft.to/lastmile_qr_scan", "ios": "https://dc.lft.to/lastmile_qr_scan"}, "bike_id": "64c2571d3225752f8faab38d97fe7598", "lon": -77.0249205}, {"is_reserved": 0, "fusion_lon": 0.0, "fusion_lat": 0.0, "name": "982cf70b8635d5310c80e9809ebe26a3", "type": "electric_scooter", "is_disabled": 0, "lat": 38.90400066666667, "rental_uris": {"android": "https://dc.lft.to/lastmile_qr_scan", "ios": "https://dc.lft.to/lastmile_qr_scan"}, "bike_id": "982cf70b8635d5310c80e9809ebe26a3", "lon": -77.0677445}, {"is_reserved": 0, "fusion_lon": 0.0, "fusion_lat": 0.0, "name": "cfdb5b12d1cff0253a3ee7ccf6c913e3", "type": "electric_scooter", "is_disabled": 0, "lat": 38.91278533333333, "rental_uris": {"android": "https://dc.lft.to/lastmile_qr_scan", "ios": "https://dc.lft.to/lastmile_qr_scan"}, "bike_id": "cfdb5b12d1cff0253a3ee7ccf6c913e3", "lon": -77.022441}, {"is_reserved": 0, "fusion_lon": 0.0, "fusion_lat": 0.0, "name": "621f4f43ed4c7fc00d515fadb374d79a", "type": "electric_bike", "is_disabled": 0, "lat": 38.829164, "rental_uris": {"android": "https://dc.lft.to/lastmile_qr_scan", "ios": "https://dc.lft.to/lastmile_qr_scan"}, "bike_id": "621f4f43ed4c7fc00d515fadb374d79a", "lon": -76.9978145}, {"is_reserved": 0, "fusion_lon": 0.0, "fusion_lat": 0.0, "name": "f942a934251d4eeb70a3747edf0d2b9c", "type": "electric_scooter", "is_disabled": 0, "lat": 38.901461, "rental_uris": {"android": "https://dc.lft.to/lastmile_qr_scan", "ios": "https://dc.lft.to/lastmile_qr_scan"}, "bike_id": "f942a934251d4eeb70a3747edf0d2b9c", "lon": -77.03181433333333}, {"is_reserved": 0, "fusion_lon": 0.0, "fusion_lat": 0.0, "name": "1177c2bd2b8a5345c5940c672168c9d4", "type": "electric_scooter", "is_disabled": 0, "lat": 38.898444, "rental_uris": {"android": "https://dc.lft.to/lastmile_qr_scan", "ios": "https://dc.lft.to/lastmile_qr_scan"}, "bike_id": "1177c2bd2b8a5345c5940c672168c9d4", "lon": -77.00736016666667}, {"is_reserved": 0, "fusion_lon": 0.0, "fusion_lat": 0.0, "name": "27bee1dd8e52fb988652eb81eae2373b", "type": "electric_scooter", "is_disabled": 0, "lat": 38.9167795, "rental_uris": {"android": "https://dc.lft.to/lastmile_qr_scan", "ios": "https://dc.lft.to/lastmile_qr_scan"}, "bike_id": "27bee1dd8e52fb988652eb81eae2373b", "lon": -77.03195516666666}, {"is_reserved": 0, "fusion_lon": 0.0, "fusion_lat": 0.0, "name": "d1d8c7fadf0b2408fde81842c5284fdb", "type": "electric_scooter", "is_disabled": 0, "lat": 38.933819, "rental_uris": {"android": "https://dc.lft.to/lastmile_qr_scan", "ios": "https://dc.lft.to/lastmile_qr_scan"}, "bike_id": "d1d8c7fadf0b2408fde81842c5284fdb", "lon": -76.98113}, {"is_reserved": 0, "fusion_lon": 0.0, "fusion_lat": 0.0, "name": "358a57bbf7eeb9ad45fcc54820d17afc", "type": "electric_scooter", "is_disabled": 0, "lat": 38.89915416666667, "rental_uris": {"android": "https://dc.lft.to/lastmile_qr_scan", "ios": "https://dc.lft.to/lastmile_qr_scan"}, "bike_id": "358a57bbf7eeb9ad45fcc54820d17afc", "lon": -77.03254666666666}, {"is_reserved": 0, "fusion_lon": 0.0, "fusion_lat": 0.0, "name": "fb86bce1cdb769e05e01c6aa438b7ee0", "type": "electric_scooter", "is_disabled": 0, "lat": 38.8850355, "rental_uris": {"android": "https://dc.lft.to/lastmile_qr_scan", "ios": "https://dc.lft.to/lastmile_qr_scan"}, "bike_id": "fb86bce1cdb769e05e01c6aa438b7ee0", "lon": -76.998419}, {"is_reserved": 0, "fusion_lon": 0.0, "fusion_lat": 0.0, "name": "7f6eb85d2917f7201e3db2b6635d037b", "type": "electric_scooter", "is_disabled": 0, "lat": 38.8924205, "rental_uris": {"android": "https://dc.lft.to/lastmile_qr_scan", "ios": "https://dc.lft.to/lastmile_qr_scan"}, "bike_id": "7f6eb85d2917f7201e3db2b6635d037b", "lon": -77.04158616666666}, {"is_reserved": 0, "fusion_lon": 0.0, "fusion_lat": 0.0, "name": "dce1700842a812f760fd46e8f1406c76", "type": "electric_scooter", "is_disabled": 0, "lat": 38.906598, "rental_uris": {"android": "https://dc.lft.to/lastmile_qr_scan", "ios": "https://dc.lft.to/lastmile_qr_scan"}, "bike_id": "dce1700842a812f760fd46e8f1406c76", "lon": -77.04854416666667}, {"is_reserved": 0, "fusion_lon": 0.0, "fusion_lat": 0.0, "name": "c6bbab79037397c754d8d006a405ec80", "type": "electric_scooter", "is_disabled": 0, "lat": 38.92375283333333, "rental_uris": {"android": "https://dc.lft.to/lastmile_qr_scan", "ios": "https://dc.lft.to/lastmile_qr_scan"}, "bike_id": "c6bbab79037397c754d8d006a405ec80", "lon": -77.01924583333333}, {"is_reserved": 0, "fusion_lon": 0.0, "fusion_lat": 0.0, "name": "02a56cd14136565d0d88f365390eb70e", "type": "electric_scooter", "is_disabled": 0, "lat": 38.9252065, "rental_uris": {"android": "https://dc.lft.to/lastmile_qr_scan", "ios": "https://dc.lft.to/lastmile_qr_scan"}, "bike_id": "02a56cd14136565d0d88f365390eb70e", "lon": -77.05035683333334}, {"is_reserved": 0, "fusion_lon": 0.0, "fusion_lat": 0.0, "name": "3529af30484e73cd98f5c387224e7493", "type": "electric_scooter", "is_disabled": 0, "lat": 38.912640333333336, "rental_uris": {"android": "https://dc.lft.to/lastmile_qr_scan", "ios": "https://dc.lft.to/lastmile_qr_scan"}, "bike_id": "3529af30484e73cd98f5c387224e7493", "lon": -77.03145616666667}, {"is_reserved": 0, "fusion_lon": 0.0, "fusion_lat": 0.0, "name": "e2f8f2b382952e31e38d424e53aa4eb6", "type": "electric_scooter", "is_disabled": 0, "lat": 38.927528, "rental_uris": {"android": "https://dc.lft.to/lastmile_qr_scan", "ios": "https://dc.lft.to/lastmile_qr_scan"}, "bike_id": "e2f8f2b382952e31e38d424e53aa4eb6", "lon": -77.0242005}, {"is_reserved": 0, "fusion_lon": 0.0, "fusion_lat": 0.0, "name": "48c06c21d19bb1aa7687764ee95c9b64", "type": "electric_scooter", "is_disabled": 0, "lat": 38.880839, "rental_uris": {"android": "https://dc.lft.to/lastmile_qr_scan", "ios": "https://dc.lft.to/lastmile_qr_scan"}, "bike_id": "48c06c21d19bb1aa7687764ee95c9b64", "lon": -76.985207}, {"is_reserved": 0, "fusion_lon": 0.0, "fusion_lat": 0.0, "name": "57c552932041e7c37467a96c800e779a", "type": "electric_scooter", "is_disabled": 0, "lat": 38.895515, "rental_uris": {"android": "https://dc.lft.to/lastmile_qr_scan", "ios": "https://dc.lft.to/lastmile_qr_scan"}, "bike_id": "57c552932041e7c37467a96c800e779a", "lon": -76.94877733333334}, {"is_reserved": 0, "fusion_lon": 0.0, "fusion_lat": 0.0, "name": "d5e794fe255ccc94b321461e1dc84f06", "type": "electric_scooter", "is_disabled": 0, "lat": 38.899136166666665, "rental_uris": {"android": "https://dc.lft.to/lastmile_qr_scan", "ios": "https://dc.lft.to/lastmile_qr_scan"}, "bike_id": "d5e794fe255ccc94b321461e1dc84f06", "lon": -77.01379683333333}, {"is_reserved": 0, "fusion_lon": 0.0, "fusion_lat": 0.0, "name": "a23a854c301eab9808b8d05883e0e23a", "type": "electric_scooter", "is_disabled": 0, "lat": 38.89867266666667, "rental_uris": {"android": "https://dc.lft.to/lastmile_qr_scan", "ios": "https://dc.lft.to/lastmile_qr_scan"}, "bike_id": "a23a854c301eab9808b8d05883e0e23a", "lon": -76.94661116666667}, {"is_reserved": 0, "fusion_lon": 0.0, "fusion_lat": 0.0, "name": "9ce6ceeb25b6ba5ccc1dee6c75824ada", "type": "electric_scooter", "is_disabled": 0, "lat": 38.892328166666665, "rental_uris": {"android": "https://dc.lft.to/lastmile_qr_scan", "ios": "https://dc.lft.to/lastmile_qr_scan"}, "bike_id": "9ce6ceeb25b6ba5ccc1dee6c75824ada", "lon": -77.02381816666667}, {"is_reserved": 0, "fusion_lon": 0.0, "fusion_lat": 0.0, "name": "f5d1b0f7fcaceee64c43e108bd04a1a1", "type": "electric_scooter", "is_disabled": 0, "lat": 38.9081365, "rental_uris": {"android": "https://dc.lft.to/lastmile_qr_scan", "ios": "https://dc.lft.to/lastmile_qr_scan"}, "bike_id": "f5d1b0f7fcaceee64c43e108bd04a1a1", "lon": -77.04337616666666}, {"is_reserved": 0, "fusion_lon": 0.0, "fusion_lat": 0.0, "name": "afd303cda858cbeba4134af02cc1e718", "type": "electric_scooter", "is_disabled": 0, "lat": 38.9249125, "rental_uris": {"android": "https://dc.lft.to/lastmile_qr_scan", "ios": "https://dc.lft.to/lastmile_qr_scan"}, "bike_id": "afd303cda858cbeba4134af02cc1e718", "lon": -77.032203}, {"is_reserved": 0, "fusion_lon": 0.0, "fusion_lat": 0.0, "name": "1d1f0d2c1b818b024f00c58cfeb34ea9", "type": "electric_scooter", "is_disabled": 0, "lat": 38.91021533333333, "rental_uris": {"android": "https://dc.lft.to/lastmile_qr_scan", "ios": "https://dc.lft.to/lastmile_qr_scan"}, "bike_id": "1d1f0d2c1b818b024f00c58cfeb34ea9", "lon": -77.04281216666666}, {"is_reserved": 0, "fusion_lon": 0.0, "fusion_lat": 0.0, "name": "f142d8ed57631f0a77b99f19bd02d501", "type": "electric_scooter", "is_disabled": 0, "lat": 38.9254205, "rental_uris": {"android": "https://dc.lft.to/lastmile_qr_scan", "ios": "https://dc.lft.to/lastmile_qr_scan"}, "bike_id": "f142d8ed57631f0a77b99f19bd02d501", "lon": -76.9721595}, {"is_reserved": 0, "fusion_lon": 0.0, "fusion_lat": 0.0, "name": "f8e7de668dea0eb36857718d0386162b", "type": "electric_scooter", "is_disabled": 0, "lat": 38.93102116666667, "rental_uris": {"android": "https://dc.lft.to/lastmile_qr_scan", "ios": "https://dc.lft.to/lastmile_qr_scan"}, "bike_id": "f8e7de668dea0eb36857718d0386162b", "lon": -77.03805483333333}, {"is_reserved": 0, "fusion_lon": 0.0, "fusion_lat": 0.0, "name": "aa2f928e1a9ae7de05bc2fc116013cd8", "type": "electric_scooter", "is_disabled": 0, "lat": 38.91553583333334, "rental_uris": {"android": "https://dc.lft.to/lastmile_qr_scan", "ios": "https://dc.lft.to/lastmile_qr_scan"}, "bike_id": "aa2f928e1a9ae7de05bc2fc116013cd8", "lon": -77.05313333333334}, {"is_reserved": 0, "fusion_lon": 0.0, "fusion_lat": 0.0, "name": "beb46e395b0b388051bf1e6e86191cbe", "type": "electric_scooter", "is_disabled": 0, "lat": 38.9060735, "rental_uris": {"android": "https://dc.lft.to/lastmile_qr_scan", "ios": "https://dc.lft.to/lastmile_qr_scan"}, "bike_id": "beb46e395b0b388051bf1e6e86191cbe", "lon": -77.03473833333334}, {"is_reserved": 0, "fusion_lon": 0.0, "fusion_lat": 0.0, "name": "b714b78cd1142774861c0a7573749071", "type": "electric_scooter", "is_disabled": 0, "lat": 38.89630783333333, "rental_uris": {"android": "https://dc.lft.to/lastmile_qr_scan", "ios": "https://dc.lft.to/lastmile_qr_scan"}, "bike_id": "b714b78cd1142774861c0a7573749071", "lon": -77.029673}, {"is_reserved": 0, "fusion_lon": 0.0, "fusion_lat": 0.0, "name": "f08d15b7aa225c88880f32e7286ff176", "type": "electric_scooter", "is_disabled": 0, "lat": 38.900099833333336, "rental_uris": {"android": "https://dc.lft.to/lastmile_qr_scan", "ios": "https://dc.lft.to/lastmile_qr_scan"}, "bike_id": "f08d15b7aa225c88880f32e7286ff176", "lon": -76.930314}, {"is_reserved": 0, "fusion_lon": 0.0, "fusion_lat": 0.0, "name": "e51ef34ac4f2abe7f0063fe77b6aaeb4", "type": "electric_bike", "is_disabled": 0, "lat": 38.90484283333333, "rental_uris": {"android": "https://dc.lft.to/lastmile_qr_scan", "ios": "https://dc.lft.to/lastmile_qr_scan"}, "bike_id": "e51ef34ac4f2abe7f0063fe77b6aaeb4", "lon": -76.9732525}, {"is_reserved": 0, "fusion_lon": 0.0, "fusion_lat": 0.0, "name": "1a3eea3d0078ea2ae8cb7a51b825b6f3", "type": "electric_scooter", "is_disabled": 0, "lat": 38.906818666666666, "rental_uris": {"android": "https://dc.lft.to/lastmile_qr_scan", "ios": "https://dc.lft.to/lastmile_qr_scan"}, "bike_id": "1a3eea3d0078ea2ae8cb7a51b825b6f3", "lon": -77.03641333333333}, {"is_reserved": 0, "fusion_lon": 0.0, "fusion_lat": 0.0, "name": "40998fc9425a02efab4130a49d715059", "type": "electric_scooter", "is_disabled": 0, "lat": 38.933258333333335, "rental_uris": {"android": "https://dc.lft.to/lastmile_qr_scan", "ios": "https://dc.lft.to/lastmile_qr_scan"}, "bike_id": "40998fc9425a02efab4130a49d715059", "lon": -77.08556316666666}, {"is_reserved": 0, "fusion_lon": 0.0, "fusion_lat": 0.0, "name": "ecb7e8d49e10087454b8e522b2a5d75c", "type": "electric_scooter", "is_disabled": 0, "lat": 38.86699483333334, "rental_uris": {"android": "https://dc.lft.to/lastmile_qr_scan", "ios": "https://dc.lft.to/lastmile_qr_scan"}, "bike_id": "ecb7e8d49e10087454b8e522b2a5d75c", "lon": -76.9859285}, {"is_reserved": 0, "fusion_lon": 0.0, "fusion_lat": 0.0, "name": "2a6bfdd375c20fcf6388ee0a8178b80e", "type": "electric_scooter", "is_disabled": 0, "lat": 38.93238216666666, "rental_uris": {"android": "https://dc.lft.to/lastmile_qr_scan", "ios": "https://dc.lft.to/lastmile_qr_scan"}, "bike_id": "2a6bfdd375c20fcf6388ee0a8178b80e", "lon": -77.034166}, {"is_reserved": 0, "fusion_lon": 0.0, "fusion_lat": 0.0, "name": "0352413fe31d590821ebaaca1eb40dad", "type": "electric_scooter", "is_disabled": 0, "lat": 38.95630466666667, "rental_uris": {"android": "https://dc.lft.to/lastmile_qr_scan", "ios": "https://dc.lft.to/lastmile_qr_scan"}, "bike_id": "0352413fe31d590821ebaaca1eb40dad", "lon": -77.02458083333333}, {"is_reserved": 0, "fusion_lon": 0.0, "fusion_lat": 0.0, "name": "a834c03e7a60f384750fa25d7103635a", "type": "electric_scooter", "is_disabled": 0, "lat": 38.897957, "rental_uris": {"android": "https://dc.lft.to/lastmile_qr_scan", "ios": "https://dc.lft.to/lastmile_qr_scan"}, "bike_id": "a834c03e7a60f384750fa25d7103635a", "lon": -77.0448875}, {"is_reserved": 0, "fusion_lon": 0.0, "fusion_lat": 0.0, "name": "5f289dc0f79b78f875fbc7ba9b2168ab", "type": "electric_scooter", "is_disabled": 0, "lat": 38.9155015, "rental_uris": {"android": "https://dc.lft.to/lastmile_qr_scan", "ios": "https://dc.lft.to/lastmile_qr_scan"}, "bike_id": "5f289dc0f79b78f875fbc7ba9b2168ab", "lon": -77.01197266666667}, {"is_reserved": 0, "fusion_lon": 0.0, "fusion_lat": 0.0, "name": "47f3655a89e23abd258d5118e1c9fa17", "type": "electric_scooter", "is_disabled": 0, "lat": 38.91980216666666, "rental_uris": {"android": "https://dc.lft.to/lastmile_qr_scan", "ios": "https://dc.lft.to/lastmile_qr_scan"}, "bike_id": "47f3655a89e23abd258d5118e1c9fa17", "lon": -77.02175266666667}, {"is_reserved": 0, "fusion_lon": 0.0, "fusion_lat": 0.0, "name": "59e859e868ea98d32cb9bbaf1d34e598", "type": "electric_scooter", "is_disabled": 0, "lat": 38.91394783333333, "rental_uris": {"android": "https://dc.lft.to/lastmile_qr_scan", "ios": "https://dc.lft.to/lastmile_qr_scan"}, "bike_id": "59e859e868ea98d32cb9bbaf1d34e598", "lon": -77.02180033333333}, {"is_reserved": 0, "fusion_lon": 0.0, "fusion_lat": 0.0, "name": "11ea14a79fd1fa165da307d424ec06a2", "type": "electric_bike", "is_disabled": 0, "lat": 38.907444, "rental_uris": {"android": "https://dc.lft.to/lastmile_qr_scan", "ios": "https://dc.lft.to/lastmile_qr_scan"}, "bike_id": "11ea14a79fd1fa165da307d424ec06a2", "lon": -77.00315883333333}, {"is_reserved": 0, "fusion_lon": 0.0, "fusion_lat": 0.0, "name": "fcdbaf61e311faa070f206221fc60210", "type": "electric_scooter", "is_disabled": 0, "lat": 38.909760166666665, "rental_uris": {"android": "https://dc.lft.to/lastmile_qr_scan", "ios": "https://dc.lft.to/lastmile_qr_scan"}, "bike_id": "fcdbaf61e311faa070f206221fc60210", "lon": -77.03408983333334}, {"is_reserved": 0, "fusion_lon": 0.0, "fusion_lat": 0.0, "name": "b6082ae7dc8783ad030f4b81983f07a3", "type": "electric_scooter", "is_disabled": 0, "lat": 38.89913083333333, "rental_uris": {"android": "https://dc.lft.to/lastmile_qr_scan", "ios": "https://dc.lft.to/lastmile_qr_scan"}, "bike_id": "b6082ae7dc8783ad030f4b81983f07a3", "lon": -76.93372166666667}, {"is_reserved": 0, "fusion_lon": 0.0, "fusion_lat": 0.0, "name": "26c0f97cc24150a3cd74ac5b98b2f23e", "type": "electric_bike", "is_disabled": 0, "lat": 38.9467005, "rental_uris": {"android": "https://dc.lft.to/lastmile_qr_scan", "ios": "https://dc.lft.to/lastmile_qr_scan"}, "bike_id": "26c0f97cc24150a3cd74ac5b98b2f23e", "lon": -76.9830985}, {"is_reserved": 0, "fusion_lon": 0.0, "fusion_lat": 0.0, "name": "fc2bf033c012875984efb655d050b301", "type": "electric_scooter", "is_disabled": 0, "lat": 38.90730116666667, "rental_uris": {"android": "https://dc.lft.to/lastmile_qr_scan", "ios": "https://dc.lft.to/lastmile_qr_scan"}, "bike_id": "fc2bf033c012875984efb655d050b301", "lon": -77.0496655}, {"is_reserved": 0, "fusion_lon": 0.0, "fusion_lat": 0.0, "name": "3846d27a22fa9b3f659c8d69ebf84dd0", "type": "electric_scooter", "is_disabled": 0, "lat": 38.917340833333334, "rental_uris": {"android": "https://dc.lft.to/lastmile_qr_scan", "ios": "https://dc.lft.to/lastmile_qr_scan"}, "bike_id": "3846d27a22fa9b3f659c8d69ebf84dd0", "lon": -77.03641066666667}, {"is_reserved": 0, "fusion_lon": 0.0, "fusion_lat": 0.0, "name": "813d92e0ee8e5842cf4479aa7a6ed4e8", "type": "electric_bike", "is_disabled": 0, "lat": 38.8520945, "rental_uris": {"android": "https://dc.lft.to/lastmile_qr_scan", "ios": "https://dc.lft.to/lastmile_qr_scan"}, "bike_id": "813d92e0ee8e5842cf4479aa7a6ed4e8", "lon": -77.10130783333334}, {"is_reserved": 0, "fusion_lon": 0.0, "fusion_lat": 0.0, "name": "8dff748ac468d8bfb9935321151abf8c", "type": "electric_scooter", "is_disabled": 0, "lat": 38.8772995, "rental_uris": {"android": "https://dc.lft.to/lastmile_qr_scan", "ios": "https://dc.lft.to/lastmile_qr_scan"}, "bike_id": "8dff748ac468d8bfb9935321151abf8c", "lon": -77.00599316666667}, {"is_reserved": 0, "fusion_lon": 0.0, "fusion_lat": 0.0, "name": "4fb362e3d764c8b913d6b75973f58750", "type": "electric_bike", "is_disabled": 0, "lat": 38.819116, "rental_uris": {"android": "https://dc.lft.to/lastmile_qr_scan", "ios": "https://dc.lft.to/lastmile_qr_scan"}, "bike_id": "4fb362e3d764c8b913d6b75973f58750", "lon": -76.99911316666666}, {"is_reserved": 0, "fusion_lon": 0.0, "fusion_lat": 0.0, "name": "790394d53eec1863254a94b4e7932bcd", "type": "electric_scooter", "is_disabled": 0, "lat": 38.89235383333333, "rental_uris": {"android": "https://dc.lft.to/lastmile_qr_scan", "ios": "https://dc.lft.to/lastmile_qr_scan"}, "bike_id": "790394d53eec1863254a94b4e7932bcd", "lon": -77.03209333333334}, {"is_reserved": 0, "fusion_lon": 0.0, "fusion_lat": 0.0, "name": "17ebe2ea6e84ef2a97dc461cbc3f2adf", "type": "electric_scooter", "is_disabled": 0, "lat": 38.90035266666667, "rental_uris": {"android": "https://dc.lft.to/lastmile_qr_scan", "ios": "https://dc.lft.to/lastmile_qr_scan"}, "bike_id": "17ebe2ea6e84ef2a97dc461cbc3f2adf", "lon": -77.04359083333334}, {"is_reserved": 0, "fusion_lon": 0.0, "fusion_lat": 0.0, "name": "42ce0339bc1de6340822dea4f5e4bd51", "type": "electric_scooter", "is_disabled": 0, "lat": 38.92472383333333, "rental_uris": {"android": "https://dc.lft.to/lastmile_qr_scan", "ios": "https://dc.lft.to/lastmile_qr_scan"}, "bike_id": "42ce0339bc1de6340822dea4f5e4bd51", "lon": -77.02197133333334}, {"is_reserved": 0, "fusion_lon": 0.0, "fusion_lat": 0.0, "name": "c2e5371269ab00a98d3140d137e08017", "type": "electric_scooter", "is_disabled": 0, "lat": 38.97378, "rental_uris": {"android": "https://dc.lft.to/lastmile_qr_scan", "ios": "https://dc.lft.to/lastmile_qr_scan"}, "bike_id": "c2e5371269ab00a98d3140d137e08017", "lon": -77.01809116666666}, {"is_reserved": 0, "fusion_lon": 0.0, "fusion_lat": 0.0, "name": "6370aef6e674345069991437d2f39260", "type": "electric_scooter", "is_disabled": 0, "lat": 38.870092666666665, "rental_uris": {"android": "https://dc.lft.to/lastmile_qr_scan", "ios": "https://dc.lft.to/lastmile_qr_scan"}, "bike_id": "6370aef6e674345069991437d2f39260", "lon": -76.9807855}, {"is_reserved": 0, "fusion_lon": 0.0, "fusion_lat": 0.0, "name": "d0484d6cb4688f56ecdc9e802eaa1ab2", "type": "electric_scooter", "is_disabled": 0, "lat": 38.91268016666667, "rental_uris": {"android": "https://dc.lft.to/lastmile_qr_scan", "ios": "https://dc.lft.to/lastmile_qr_scan"}, "bike_id": "d0484d6cb4688f56ecdc9e802eaa1ab2", "lon": -77.01297383333333}, {"is_reserved": 0, "fusion_lon": 0.0, "fusion_lat": 0.0, "name": "96d46973c1603293ebbe33fb207f3484", "type": "electric_scooter", "is_disabled": 0, "lat": 38.90310183333333, "rental_uris": {"android": "https://dc.lft.to/lastmile_qr_scan", "ios": "https://dc.lft.to/lastmile_qr_scan"}, "bike_id": "96d46973c1603293ebbe33fb207f3484", "lon": -77.03853}, {"is_reserved": 0, "fusion_lon": 0.0, "fusion_lat": 0.0, "name": "be2d3c2133cda868da234d2569d3e065", "type": "electric_scooter", "is_disabled": 0, "lat": 38.914156166666665, "rental_uris": {"android": "https://dc.lft.to/lastmile_qr_scan", "ios": "https://dc.lft.to/lastmile_qr_scan"}, "bike_id": "be2d3c2133cda868da234d2569d3e065", "lon": -77.0314755}, {"is_reserved": 0, "fusion_lon": 0.0, "fusion_lat": 0.0, "name": "8374c6db67cf7cd260391562fbbb04b9", "type": "electric_scooter", "is_disabled": 0, "lat": 38.91110833333333, "rental_uris": {"android": "https://dc.lft.to/lastmile_qr_scan", "ios": "https://dc.lft.to/lastmile_qr_scan"}, "bike_id": "8374c6db67cf7cd260391562fbbb04b9", "lon": -77.03144183333333}, {"is_reserved": 0, "fusion_lon": 0.0, "fusion_lat": 0.0, "name": "262bac6274c44934ae08c620bd06aa77", "type": "electric_bike", "is_disabled": 0, "lat": 38.94152016666666, "rental_uris": {"android": "https://dc.lft.to/lastmile_qr_scan", "ios": "https://dc.lft.to/lastmile_qr_scan"}, "bike_id": "262bac6274c44934ae08c620bd06aa77", "lon": -77.001931}, {"is_reserved": 0, "fusion_lon": 0.0, "fusion_lat": 0.0, "name": "7946c85bbec56fb2222ac0b6061e0985", "type": "electric_scooter", "is_disabled": 0, "lat": 38.9512245, "rental_uris": {"android": "https://dc.lft.to/lastmile_qr_scan", "ios": "https://dc.lft.to/lastmile_qr_scan"}, "bike_id": "7946c85bbec56fb2222ac0b6061e0985", "lon": -77.01360216666667}, {"is_reserved": 0, "fusion_lon": 0.0, "fusion_lat": 0.0, "name": "141ebd0550c414e789fab6151a3c29b7", "type": "electric_scooter", "is_disabled": 0, "lat": 38.935627, "rental_uris": {"android": "https://dc.lft.to/lastmile_qr_scan", "ios": "https://dc.lft.to/lastmile_qr_scan"}, "bike_id": "141ebd0550c414e789fab6151a3c29b7", "lon": -77.073111}, {"is_reserved": 0, "fusion_lon": 0.0, "fusion_lat": 0.0, "name": "1ecd230da0eb6a016a88d35a0067577c", "type": "electric_scooter", "is_disabled": 0, "lat": 38.91469, "rental_uris": {"android": "https://dc.lft.to/lastmile_qr_scan", "ios": "https://dc.lft.to/lastmile_qr_scan"}, "bike_id": "1ecd230da0eb6a016a88d35a0067577c", "lon": -77.044816}, {"is_reserved": 0, "fusion_lon": 0.0, "fusion_lat": 0.0, "name": "622b8b14597c0210a8fc9043c14a2d37", "type": "electric_scooter", "is_disabled": 0, "lat": 38.878511, "rental_uris": {"android": "https://dc.lft.to/lastmile_qr_scan", "ios": "https://dc.lft.to/lastmile_qr_scan"}, "bike_id": "622b8b14597c0210a8fc9043c14a2d37", "lon": -77.0302335}, {"is_reserved": 0, "fusion_lon": 0.0, "fusion_lat": 0.0, "name": "4492835086104d051dcde1192b555691", "type": "electric_scooter", "is_disabled": 0, "lat": 38.914955666666664, "rental_uris": {"android": "https://dc.lft.to/lastmile_qr_scan", "ios": "https://dc.lft.to/lastmile_qr_scan"}, "bike_id": "4492835086104d051dcde1192b555691", "lon": -77.01854666666667}, {"is_reserved": 0, "fusion_lon": 0.0, "fusion_lat": 0.0, "name": "5510dfd37662d932d7c636a448103032", "type": "electric_scooter", "is_disabled": 0, "lat": 38.89499266666667, "rental_uris": {"android": "https://dc.lft.to/lastmile_qr_scan", "ios": "https://dc.lft.to/lastmile_qr_scan"}, "bike_id": "5510dfd37662d932d7c636a448103032", "lon": -77.02876016666667}, {"is_reserved": 0, "fusion_lon": 0.0, "fusion_lat": 0.0, "name": "965c82869d43f0aba5dd977c0349f19d", "type": "electric_scooter", "is_disabled": 0, "lat": 38.931659, "rental_uris": {"android": "https://dc.lft.to/lastmile_qr_scan", "ios": "https://dc.lft.to/lastmile_qr_scan"}, "bike_id": "965c82869d43f0aba5dd977c0349f19d", "lon": -77.05608833333334}, {"is_reserved": 0, "fusion_lon": 0.0, "fusion_lat": 0.0, "name": "b39d5b20609a2f577f5a7b06d29df932", "type": "electric_scooter", "is_disabled": 0, "lat": 38.8922115, "rental_uris": {"android": "https://dc.lft.to/lastmile_qr_scan", "ios": "https://dc.lft.to/lastmile_qr_scan"}, "bike_id": "b39d5b20609a2f577f5a7b06d29df932", "lon": -77.04263066666667}, {"is_reserved": 0, "fusion_lon": 0.0, "fusion_lat": 0.0, "name": "b8ed88f45adb604cae568de5cf622870", "type": "electric_scooter", "is_disabled": 0, "lat": 38.92339316666666, "rental_uris": {"android": "https://dc.lft.to/lastmile_qr_scan", "ios": "https://dc.lft.to/lastmile_qr_scan"}, "bike_id": "b8ed88f45adb604cae568de5cf622870", "lon": -77.04786083333333}, {"is_reserved": 0, "fusion_lon": 0.0, "fusion_lat": 0.0, "name": "47420ca76317af3be1c275733066c3e9", "type": "electric_scooter", "is_disabled": 0, "lat": 38.9224715, "rental_uris": {"android": "https://dc.lft.to/lastmile_qr_scan", "ios": "https://dc.lft.to/lastmile_qr_scan"}, "bike_id": "47420ca76317af3be1c275733066c3e9", "lon": -77.01951366666667}, {"is_reserved": 0, "fusion_lon": 0.0, "fusion_lat": 0.0, "name": "39bf75432b50c4ec6777929a9589fa18", "type": "electric_scooter", "is_disabled": 0, "lat": 38.88593316666667, "rental_uris": {"android": "https://dc.lft.to/lastmile_qr_scan", "ios": "https://dc.lft.to/lastmile_qr_scan"}, "bike_id": "39bf75432b50c4ec6777929a9589fa18", "lon": -76.99618716666667}, {"is_reserved": 0, "fusion_lon": 0.0, "fusion_lat": 0.0, "name": "de489b7ef388bc17ef139e52ecd98213", "type": "electric_scooter", "is_disabled": 0, "lat": 38.908389166666666, "rental_uris": {"android": "https://dc.lft.to/lastmile_qr_scan", "ios": "https://dc.lft.to/lastmile_qr_scan"}, "bike_id": "de489b7ef388bc17ef139e52ecd98213", "lon": -77.0394165}, {"is_reserved": 0, "fusion_lon": 0.0, "fusion_lat": 0.0, "name": "9ac313b5c57274a72eb4c193b35413f3", "type": "electric_scooter", "is_disabled": 0, "lat": 38.87799033333334, "rental_uris": {"android": "https://dc.lft.to/lastmile_qr_scan", "ios": "https://dc.lft.to/lastmile_qr_scan"}, "bike_id": "9ac313b5c57274a72eb4c193b35413f3", "lon": -76.93083483333334}, {"is_reserved": 0, "fusion_lon": 0.0, "fusion_lat": 0.0, "name": "7dbcf5c7916b9bd3deabde647879a2cb", "type": "electric_scooter", "is_disabled": 0, "lat": 38.9149205, "rental_uris": {"android": "https://dc.lft.to/lastmile_qr_scan", "ios": "https://dc.lft.to/lastmile_qr_scan"}, "bike_id": "7dbcf5c7916b9bd3deabde647879a2cb", "lon": -77.018554}, {"is_reserved": 0, "fusion_lon": 0.0, "fusion_lat": 0.0, "name": "91018a2bf4bf68a125e9b464f760d7ab", "type": "electric_scooter", "is_disabled": 0, "lat": 38.91723533333333, "rental_uris": {"android": "https://dc.lft.to/lastmile_qr_scan", "ios": "https://dc.lft.to/lastmile_qr_scan"}, "bike_id": "91018a2bf4bf68a125e9b464f760d7ab", "lon": -77.0296895}, {"is_reserved": 0, "fusion_lon": 0.0, "fusion_lat": 0.0, "name": "e4026da6a9617d01443b0a04e466e7a7", "type": "electric_scooter", "is_disabled": 0, "lat": 38.901395666666666, "rental_uris": {"android": "https://dc.lft.to/lastmile_qr_scan", "ios": "https://dc.lft.to/lastmile_qr_scan"}, "bike_id": "e4026da6a9617d01443b0a04e466e7a7", "lon": -77.04623183333334}, {"is_reserved": 0, "fusion_lon": 0.0, "fusion_lat": 0.0, "name": "822b98f5fb0dfc834880e492ec8f3c86", "type": "electric_scooter", "is_disabled": 0, "lat": 38.865042333333335, "rental_uris": {"android": "https://dc.lft.to/lastmile_qr_scan", "ios": "https://dc.lft.to/lastmile_qr_scan"}, "bike_id": "822b98f5fb0dfc834880e492ec8f3c86", "lon": -76.9899945}, {"is_reserved": 0, "fusion_lon": 0.0, "fusion_lat": 0.0, "name": "3044f556fd2ec6ce633ee80aa46c080e", "type": "electric_scooter", "is_disabled": 0, "lat": 38.9233205, "rental_uris": {"android": "https://dc.lft.to/lastmile_qr_scan", "ios": "https://dc.lft.to/lastmile_qr_scan"}, "bike_id": "3044f556fd2ec6ce633ee80aa46c080e", "lon": -77.04307166666666}, {"is_reserved": 0, "fusion_lon": 0.0, "fusion_lat": 0.0, "name": "32eb5c03b139864996318915a79be570", "type": "electric_scooter", "is_disabled": 0, "lat": 38.939621333333335, "rental_uris": {"android": "https://dc.lft.to/lastmile_qr_scan", "ios": "https://dc.lft.to/lastmile_qr_scan"}, "bike_id": "32eb5c03b139864996318915a79be570", "lon": -77.02750283333333}, {"is_reserved": 0, "fusion_lon": 0.0, "fusion_lat": 0.0, "name": "5a3f69a3573751ab585687cba1facdda", "type": "electric_scooter", "is_disabled": 0, "lat": 38.905605666666666, "rental_uris": {"android": "https://dc.lft.to/lastmile_qr_scan", "ios": "https://dc.lft.to/lastmile_qr_scan"}, "bike_id": "5a3f69a3573751ab585687cba1facdda", "lon": -77.04159333333334}, {"is_reserved": 0, "fusion_lon": 0.0, "fusion_lat": 0.0, "name": "00b7b795baf97556839b098851eae454", "type": "electric_scooter", "is_disabled": 0, "lat": 38.91035016666667, "rental_uris": {"android": "https://dc.lft.to/lastmile_qr_scan", "ios": "https://dc.lft.to/lastmile_qr_scan"}, "bike_id": "00b7b795baf97556839b098851eae454", "lon": -76.99339066666667}, {"is_reserved": 0, "fusion_lon": 0.0, "fusion_lat": 0.0, "name": "39ac0e7771973c5bf453e302062252d7", "type": "electric_scooter", "is_disabled": 0, "lat": 38.93540266666667, "rental_uris": {"android": "https://dc.lft.to/lastmile_qr_scan", "ios": "https://dc.lft.to/lastmile_qr_scan"}, "bike_id": "39ac0e7771973c5bf453e302062252d7", "lon": -77.05745416666667}, {"is_reserved": 0, "fusion_lon": 0.0, "fusion_lat": 0.0, "name": "be41c1291bad6c3c74c8d329f7aa42dc", "type": "electric_scooter", "is_disabled": 0, "lat": 38.91546483333333, "rental_uris": {"android": "https://dc.lft.to/lastmile_qr_scan", "ios": "https://dc.lft.to/lastmile_qr_scan"}, "bike_id": "be41c1291bad6c3c74c8d329f7aa42dc", "lon": -77.02371133333334}, {"is_reserved": 0, "fusion_lon": 0.0, "fusion_lat": 0.0, "name": "a1a3c5c1637b34f2a56ee4e03c9d30a3", "type": "electric_scooter", "is_disabled": 0, "lat": 38.900046333333336, "rental_uris": {"android": "https://dc.lft.to/lastmile_qr_scan", "ios": "https://dc.lft.to/lastmile_qr_scan"}, "bike_id": "a1a3c5c1637b34f2a56ee4e03c9d30a3", "lon": -76.99838116666666}, {"is_reserved": 0, "fusion_lon": 0.0, "fusion_lat": 0.0, "name": "71b3c51da7f8a507c7db863318052ab9", "type": "electric_scooter", "is_disabled": 0, "lat": 38.87949883333334, "rental_uris": {"android": "https://dc.lft.to/lastmile_qr_scan", "ios": "https://dc.lft.to/lastmile_qr_scan"}, "bike_id": "71b3c51da7f8a507c7db863318052ab9", "lon": -77.00699116666667}, {"is_reserved": 0, "fusion_lon": 0.0, "fusion_lat": 0.0, "name": "69bd227e9e9120c60c853dbca89a5bf4", "type": "electric_scooter", "is_disabled": 0, "lat": 38.905662, "rental_uris": {"android": "https://dc.lft.to/lastmile_qr_scan", "ios": "https://dc.lft.to/lastmile_qr_scan"}, "bike_id": "69bd227e9e9120c60c853dbca89a5bf4", "lon": -77.041875}, {"is_reserved": 0, "fusion_lon": 0.0, "fusion_lat": 0.0, "name": "3af06ae247c2719c026398bfc7bfddfe", "type": "electric_scooter", "is_disabled": 0, "lat": 38.9023895, "rental_uris": {"android": "https://dc.lft.to/lastmile_qr_scan", "ios": "https://dc.lft.to/lastmile_qr_scan"}, "bike_id": "3af06ae247c2719c026398bfc7bfddfe", "lon": -77.026891}, {"is_reserved": 0, "fusion_lon": 0.0, "fusion_lat": 0.0, "name": "60694bae7a1609c97570c242530b9dc1", "type": "electric_scooter", "is_disabled": 0, "lat": 38.9103295, "rental_uris": {"android": "https://dc.lft.to/lastmile_qr_scan", "ios": "https://dc.lft.to/lastmile_qr_scan"}, "bike_id": "60694bae7a1609c97570c242530b9dc1", "lon": -76.9934345}, {"is_reserved": 0, "fusion_lon": 0.0, "fusion_lat": 0.0, "name": "fa08e5c89420ca5d99cd725c6c7f3e60", "type": "electric_scooter", "is_disabled": 0, "lat": 38.90137216666667, "rental_uris": {"android": "https://dc.lft.to/lastmile_qr_scan", "ios": "https://dc.lft.to/lastmile_qr_scan"}, "bike_id": "fa08e5c89420ca5d99cd725c6c7f3e60", "lon": -77.040081}, {"is_reserved": 0, "fusion_lon": 0.0, "fusion_lat": 0.0, "name": "8cc77d9a2987ed08ef0d941264fc50b0", "type": "electric_scooter", "is_disabled": 0, "lat": 38.86696233333333, "rental_uris": {"android": "https://dc.lft.to/lastmile_qr_scan", "ios": "https://dc.lft.to/lastmile_qr_scan"}, "bike_id": "8cc77d9a2987ed08ef0d941264fc50b0", "lon": -76.98608316666666}, {"is_reserved": 0, "fusion_lon": 0.0, "fusion_lat": 0.0, "name": "e2a9dc88fea28757d67df3234d4e868a", "type": "electric_bike", "is_disabled": 0, "lat": 38.837900166666664, "rental_uris": {"android": "https://dc.lft.to/lastmile_qr_scan", "ios": "https://dc.lft.to/lastmile_qr_scan"}, "bike_id": "e2a9dc88fea28757d67df3234d4e868a", "lon": -76.99751366666666}, {"is_reserved": 0, "fusion_lon": 0.0, "fusion_lat": 0.0, "name": "c4d6f7641f30845cb1cb128275755246", "type": "electric_scooter", "is_disabled": 0, "lat": 38.90963883333333, "rental_uris": {"android": "https://dc.lft.to/lastmile_qr_scan", "ios": "https://dc.lft.to/lastmile_qr_scan"}, "bike_id": "c4d6f7641f30845cb1cb128275755246", "lon": -77.038653}, {"is_reserved": 0, "fusion_lon": 0.0, "fusion_lat": 0.0, "name": "621a80bc11d2cf11098ca506ae0d34f6", "type": "electric_scooter", "is_disabled": 0, "lat": 38.89993233333333, "rental_uris": {"android": "https://dc.lft.to/lastmile_qr_scan", "ios": "https://dc.lft.to/lastmile_qr_scan"}, "bike_id": "621a80bc11d2cf11098ca506ae0d34f6", "lon": -77.0269935}, {"is_reserved": 0, "fusion_lon": 0.0, "fusion_lat": 0.0, "name": "686ad8ff7ede7ee6abff6da7bf690f1f", "type": "electric_scooter", "is_disabled": 0, "lat": 38.8808, "rental_uris": {"android": "https://dc.lft.to/lastmile_qr_scan", "ios": "https://dc.lft.to/lastmile_qr_scan"}, "bike_id": "686ad8ff7ede7ee6abff6da7bf690f1f", "lon": -76.98505416666667}, {"is_reserved": 0, "fusion_lon": 0.0, "fusion_lat": 0.0, "name": "fcb14d1805b5defffeefb9d7129d543d", "type": "electric_scooter", "is_disabled": 0, "lat": 38.905727666666664, "rental_uris": {"android": "https://dc.lft.to/lastmile_qr_scan", "ios": "https://dc.lft.to/lastmile_qr_scan"}, "bike_id": "fcb14d1805b5defffeefb9d7129d543d", "lon": -77.0450255}, {"is_reserved": 0, "fusion_lon": 0.0, "fusion_lat": 0.0, "name": "939f11444d8ce87d6a5f118bc96217a6", "type": "electric_scooter", "is_disabled": 0, "lat": 38.926422333333335, "rental_uris": {"android": "https://dc.lft.to/lastmile_qr_scan", "ios": "https://dc.lft.to/lastmile_qr_scan"}, "bike_id": "939f11444d8ce87d6a5f118bc96217a6", "lon": -77.0413915}, {"is_reserved": 0, "fusion_lon": 0.0, "fusion_lat": 0.0, "name": "4f9a14a555383bd20687d5f2a1f287a4", "type": "electric_scooter", "is_disabled": 0, "lat": 38.93865066666667, "rental_uris": {"android": "https://dc.lft.to/lastmile_qr_scan", "ios": "https://dc.lft.to/lastmile_qr_scan"}, "bike_id": "4f9a14a555383bd20687d5f2a1f287a4", "lon": -77.02487933333333}, {"is_reserved": 0, "fusion_lon": 0.0, "fusion_lat": 0.0, "name": "454b85a71b16187ed0c56b1f14a9131b", "type": "electric_scooter", "is_disabled": 0, "lat": 38.89322416666667, "rental_uris": {"android": "https://dc.lft.to/lastmile_qr_scan", "ios": "https://dc.lft.to/lastmile_qr_scan"}, "bike_id": "454b85a71b16187ed0c56b1f14a9131b", "lon": -77.04867533333334}, {"is_reserved": 0, "fusion_lon": 0.0, "fusion_lat": 0.0, "name": "736dd4bf3e6ad1580457cdb835cf62d6", "type": "electric_scooter", "is_disabled": 0, "lat": 38.89222266666667, "rental_uris": {"android": "https://dc.lft.to/lastmile_qr_scan", "ios": "https://dc.lft.to/lastmile_qr_scan"}, "bike_id": "736dd4bf3e6ad1580457cdb835cf62d6", "lon": -77.04373383333333}, {"is_reserved": 0, "fusion_lon": 0.0, "fusion_lat": 0.0, "name": "4405603ea3b50f37e037972fdd5c1dfa", "type": "electric_scooter", "is_disabled": 0, "lat": 38.916532, "rental_uris": {"android": "https://dc.lft.to/lastmile_qr_scan", "ios": "https://dc.lft.to/lastmile_qr_scan"}, "bike_id": "4405603ea3b50f37e037972fdd5c1dfa", "lon": -77.02968183333333}, {"is_reserved": 0, "fusion_lon": 0.0, "fusion_lat": 0.0, "name": "63ac8d51e0399a1b62142dc4675d813f", "type": "electric_scooter", "is_disabled": 0, "lat": 38.8921805, "rental_uris": {"android": "https://dc.lft.to/lastmile_qr_scan", "ios": "https://dc.lft.to/lastmile_qr_scan"}, "bike_id": "63ac8d51e0399a1b62142dc4675d813f", "lon": -77.04373266666667}, {"is_reserved": 0, "fusion_lon": 0.0, "fusion_lat": 0.0, "name": "20536f3cd8035e1699292cfbb0b6671a", "type": "electric_scooter", "is_disabled": 0, "lat": 38.90981466666667, "rental_uris": {"android": "https://dc.lft.to/lastmile_qr_scan", "ios": "https://dc.lft.to/lastmile_qr_scan"}, "bike_id": "20536f3cd8035e1699292cfbb0b6671a", "lon": -77.04225266666667}, {"is_reserved": 0, "fusion_lon": 0.0, "fusion_lat": 0.0, "name": "42f4bbf6dbca416e7c5e9d4a64af3e67", "type": "electric_scooter", "is_disabled": 0, "lat": 38.88009183333333, "rental_uris": {"android": "https://dc.lft.to/lastmile_qr_scan", "ios": "https://dc.lft.to/lastmile_qr_scan"}, "bike_id": "42f4bbf6dbca416e7c5e9d4a64af3e67", "lon": -77.0248265}, {"is_reserved": 0, "fusion_lon": 0.0, "fusion_lat": 0.0, "name": "f6d17b0ba872cb976bedc094f756b825", "type": "electric_scooter", "is_disabled": 0, "lat": 38.918182, "rental_uris": {"android": "https://dc.lft.to/lastmile_qr_scan", "ios": "https://dc.lft.to/lastmile_qr_scan"}, "bike_id": "f6d17b0ba872cb976bedc094f756b825", "lon": -77.03682366666666}, {"is_reserved": 0, "fusion_lon": 0.0, "fusion_lat": 0.0, "name": "5a4cac69f5e91a0fd225347c4f06500b", "type": "electric_scooter", "is_disabled": 0, "lat": 38.89298133333333, "rental_uris": {"android": "https://dc.lft.to/lastmile_qr_scan", "ios": "https://dc.lft.to/lastmile_qr_scan"}, "bike_id": "5a4cac69f5e91a0fd225347c4f06500b", "lon": -76.93929316666667}, {"is_reserved": 0, "fusion_lon": 0.0, "fusion_lat": 0.0, "name": "d7cc3a00de037746cdd9ddaf2a894811", "type": "electric_scooter", "is_disabled": 0, "lat": 38.936756, "rental_uris": {"android": "https://dc.lft.to/lastmile_qr_scan", "ios": "https://dc.lft.to/lastmile_qr_scan"}, "bike_id": "d7cc3a00de037746cdd9ddaf2a894811", "lon": -77.03575733333334}, {"is_reserved": 0, "fusion_lon": 0.0, "fusion_lat": 0.0, "name": "15e52455cbb5e6c6f8bba53d8c658d11", "type": "electric_scooter", "is_disabled": 0, "lat": 38.901663666666664, "rental_uris": {"android": "https://dc.lft.to/lastmile_qr_scan", "ios": "https://dc.lft.to/lastmile_qr_scan"}, "bike_id": "15e52455cbb5e6c6f8bba53d8c658d11", "lon": -77.03218083333333}, {"is_reserved": 0, "fusion_lon": 0.0, "fusion_lat": 0.0, "name": "b17318d567e8db90fa5dd0cf2b67b8b6", "type": "electric_scooter", "is_disabled": 0, "lat": 38.8973555, "rental_uris": {"android": "https://dc.lft.to/lastmile_qr_scan", "ios": "https://dc.lft.to/lastmile_qr_scan"}, "bike_id": "b17318d567e8db90fa5dd0cf2b67b8b6", "lon": -77.04644416666666}, {"is_reserved": 0, "fusion_lon": 0.0, "fusion_lat": 0.0, "name": "f39573825f3ad3b3431e010c68c5d9cb", "type": "electric_scooter", "is_disabled": 0, "lat": 38.8723315, "rental_uris": {"android": "https://dc.lft.to/lastmile_qr_scan", "ios": "https://dc.lft.to/lastmile_qr_scan"}, "bike_id": "f39573825f3ad3b3431e010c68c5d9cb", "lon": -77.01167066666666}, {"is_reserved": 0, "fusion_lon": 0.0, "fusion_lat": 0.0, "name": "f9faeecc9c2697a22e880ff7293dfd8f", "type": "electric_scooter", "is_disabled": 0, "lat": 38.89825366666667, "rental_uris": {"android": "https://dc.lft.to/lastmile_qr_scan", "ios": "https://dc.lft.to/lastmile_qr_scan"}, "bike_id": "f9faeecc9c2697a22e880ff7293dfd8f", "lon": -77.00736916666666}, {"is_reserved": 0, "fusion_lon": 0.0, "fusion_lat": 0.0, "name": "3f522e79cbc2d08f9b399b22cc6045c1", "type": "electric_scooter", "is_disabled": 0, "lat": 38.90727916666667, "rental_uris": {"android": "https://dc.lft.to/lastmile_qr_scan", "ios": "https://dc.lft.to/lastmile_qr_scan"}, "bike_id": "3f522e79cbc2d08f9b399b22cc6045c1", "lon": -76.986903}, {"is_reserved": 0, "fusion_lon": 0.0, "fusion_lat": 0.0, "name": "b569cfe49b6028166060d6994a423e51", "type": "electric_bike", "is_disabled": 0, "lat": 39.052795, "rental_uris": {"android": "https://dc.lft.to/lastmile_qr_scan", "ios": "https://dc.lft.to/lastmile_qr_scan"}, "bike_id": "b569cfe49b6028166060d6994a423e51", "lon": -77.08064183333333}, {"is_reserved": 0, "fusion_lon": 0.0, "fusion_lat": 0.0, "name": "25df53cc2c3f9e1bfef8332de15e523d", "type": "electric_scooter", "is_disabled": 0, "lat": 38.9243585, "rental_uris": {"android": "https://dc.lft.to/lastmile_qr_scan", "ios": "https://dc.lft.to/lastmile_qr_scan"}, "bike_id": "25df53cc2c3f9e1bfef8332de15e523d", "lon": -77.0521125}, {"is_reserved": 0, "fusion_lon": 0.0, "fusion_lat": 0.0, "name": "5441f3a424a12da20cddeb555557f0d5", "type": "electric_scooter", "is_disabled": 0, "lat": 38.90865216666667, "rental_uris": {"android": "https://dc.lft.to/lastmile_qr_scan", "ios": "https://dc.lft.to/lastmile_qr_scan"}, "bike_id": "5441f3a424a12da20cddeb555557f0d5", "lon": -77.0459055}, {"is_reserved": 0, "fusion_lon": 0.0, "fusion_lat": 0.0, "name": "83f9266806caf9e66d86e54c7e07c720", "type": "electric_scooter", "is_disabled": 0, "lat": 38.878285, "rental_uris": {"android": "https://dc.lft.to/lastmile_qr_scan", "ios": "https://dc.lft.to/lastmile_qr_scan"}, "bike_id": "83f9266806caf9e66d86e54c7e07c720", "lon": -76.96302566666667}, {"is_reserved": 0, "fusion_lon": 0.0, "fusion_lat": 0.0, "name": "da68c1a44d82a94fba186043362c146d", "type": "electric_scooter", "is_disabled": 0, "lat": 38.88726583333333, "rental_uris": {"android": "https://dc.lft.to/lastmile_qr_scan", "ios": "https://dc.lft.to/lastmile_qr_scan"}, "bike_id": "da68c1a44d82a94fba186043362c146d", "lon": -77.02828283333334}, {"is_reserved": 0, "fusion_lon": 0.0, "fusion_lat": 0.0, "name": "1464d21af2243fb9665d38ab9b6f6ead", "type": "electric_scooter", "is_disabled": 0, "lat": 38.89783466666667, "rental_uris": {"android": "https://dc.lft.to/lastmile_qr_scan", "ios": "https://dc.lft.to/lastmile_qr_scan"}, "bike_id": "1464d21af2243fb9665d38ab9b6f6ead", "lon": -77.04343766666666}, {"is_reserved": 0, "fusion_lon": 0.0, "fusion_lat": 0.0, "name": "a2ae9b176fbc79085332ad059a273374", "type": "electric_scooter", "is_disabled": 0, "lat": 38.93233166666667, "rental_uris": {"android": "https://dc.lft.to/lastmile_qr_scan", "ios": "https://dc.lft.to/lastmile_qr_scan"}, "bike_id": "a2ae9b176fbc79085332ad059a273374", "lon": -77.03860933333333}, {"is_reserved": 0, "fusion_lon": 0.0, "fusion_lat": 0.0, "name": "b609b09855c03865295403ccd1fe02fb", "type": "electric_scooter", "is_disabled": 0, "lat": 38.86663883333333, "rental_uris": {"android": "https://dc.lft.to/lastmile_qr_scan", "ios": "https://dc.lft.to/lastmile_qr_scan"}, "bike_id": "b609b09855c03865295403ccd1fe02fb", "lon": -76.98880633333333}, {"is_reserved": 0, "fusion_lon": 0.0, "fusion_lat": 0.0, "name": "63b154bbacb30f2b2cc029953f0a4900", "type": "electric_scooter", "is_disabled": 0, "lat": 38.90445883333334, "rental_uris": {"android": "https://dc.lft.to/lastmile_qr_scan", "ios": "https://dc.lft.to/lastmile_qr_scan"}, "bike_id": "63b154bbacb30f2b2cc029953f0a4900", "lon": -77.032195}, {"is_reserved": 0, "fusion_lon": 0.0, "fusion_lat": 0.0, "name": "7f9a88ee051428e433e49e86df2e67b8", "type": "electric_scooter", "is_disabled": 0, "lat": 38.86995733333333, "rental_uris": {"android": "https://dc.lft.to/lastmile_qr_scan", "ios": "https://dc.lft.to/lastmile_qr_scan"}, "bike_id": "7f9a88ee051428e433e49e86df2e67b8", "lon": -76.97586466666667}, {"is_reserved": 0, "fusion_lon": 0.0, "fusion_lat": 0.0, "name": "8e954c6a6305101f030b664e1994f30d", "type": "electric_scooter", "is_disabled": 0, "lat": 38.923328, "rental_uris": {"android": "https://dc.lft.to/lastmile_qr_scan", "ios": "https://dc.lft.to/lastmile_qr_scan"}, "bike_id": "8e954c6a6305101f030b664e1994f30d", "lon": -77.04325}, {"is_reserved": 0, "fusion_lon": 0.0, "fusion_lat": 0.0, "name": "5f5b5a745bd4d67217022789d200a5ef", "type": "electric_scooter", "is_disabled": 0, "lat": 38.984537, "rental_uris": {"android": "https://dc.lft.to/lastmile_qr_scan", "ios": "https://dc.lft.to/lastmile_qr_scan"}, "bike_id": "5f5b5a745bd4d67217022789d200a5ef", "lon": -77.0263945}, {"is_reserved": 0, "fusion_lon": 0.0, "fusion_lat": 0.0, "name": "30a1400bbc85f473d03e14ad12473435", "type": "electric_scooter", "is_disabled": 0, "lat": 38.91497783333333, "rental_uris": {"android": "https://dc.lft.to/lastmile_qr_scan", "ios": "https://dc.lft.to/lastmile_qr_scan"}, "bike_id": "30a1400bbc85f473d03e14ad12473435", "lon": -77.01466683333334}, {"is_reserved": 0, "fusion_lon": 0.0, "fusion_lat": 0.0, "name": "c6c8691f43b81ed527367916c8d4d5d9", "type": "electric_scooter", "is_disabled": 0, "lat": 38.90181916666667, "rental_uris": {"android": "https://dc.lft.to/lastmile_qr_scan", "ios": "https://dc.lft.to/lastmile_qr_scan"}, "bike_id": "c6c8691f43b81ed527367916c8d4d5d9", "lon": -77.0124555}, {"is_reserved": 0, "fusion_lon": 0.0, "fusion_lat": 0.0, "name": "3999504bd19752ef512515c251cd3a62", "type": "electric_scooter", "is_disabled": 0, "lat": 38.90553233333333, "rental_uris": {"android": "https://dc.lft.to/lastmile_qr_scan", "ios": "https://dc.lft.to/lastmile_qr_scan"}, "bike_id": "3999504bd19752ef512515c251cd3a62", "lon": -77.04327433333333}, {"is_reserved": 0, "fusion_lon": 0.0, "fusion_lat": 0.0, "name": "57d3f8ca7ba93cb2e709d12385b7adec", "type": "electric_scooter", "is_disabled": 0, "lat": 38.871676, "rental_uris": {"android": "https://dc.lft.to/lastmile_qr_scan", "ios": "https://dc.lft.to/lastmile_qr_scan"}, "bike_id": "57d3f8ca7ba93cb2e709d12385b7adec", "lon": -76.97747133333333}, {"is_reserved": 0, "fusion_lon": 0.0, "fusion_lat": 0.0, "name": "d269afec0c24c1dc7120899fe8e4fdcb", "type": "electric_scooter", "is_disabled": 0, "lat": 38.906748, "rental_uris": {"android": "https://dc.lft.to/lastmile_qr_scan", "ios": "https://dc.lft.to/lastmile_qr_scan"}, "bike_id": "d269afec0c24c1dc7120899fe8e4fdcb", "lon": -77.038385}, {"is_reserved": 0, "fusion_lon": 0.0, "fusion_lat": 0.0, "name": "a4203e258e1ca90a3eee8017f59e077b", "type": "electric_bike", "is_disabled": 0, "lat": 38.913152, "rental_uris": {"android": "https://dc.lft.to/lastmile_qr_scan", "ios": "https://dc.lft.to/lastmile_qr_scan"}, "bike_id": "a4203e258e1ca90a3eee8017f59e077b", "lon": -77.22302783333333}, {"is_reserved": 0, "fusion_lon": 0.0, "fusion_lat": 0.0, "name": "849e1d059e5da019e1e8d1a03ceac5a8", "type": "electric_scooter", "is_disabled": 0, "lat": 38.942191333333334, "rental_uris": {"android": "https://dc.lft.to/lastmile_qr_scan", "ios": "https://dc.lft.to/lastmile_qr_scan"}, "bike_id": "849e1d059e5da019e1e8d1a03ceac5a8", "lon": -77.02503666666667}, {"is_reserved": 0, "fusion_lon": 0.0, "fusion_lat": 0.0, "name": "b61cb994342410bb26a590ffec92911a", "type": "electric_scooter", "is_disabled": 0, "lat": 38.911005, "rental_uris": {"android": "https://dc.lft.to/lastmile_qr_scan", "ios": "https://dc.lft.to/lastmile_qr_scan"}, "bike_id": "b61cb994342410bb26a590ffec92911a", "lon": -77.0197825}, {"is_reserved": 0, "fusion_lon": 0.0, "fusion_lat": 0.0, "name": "d826c99374c3818decee157978ca7c57", "type": "electric_scooter", "is_disabled": 0, "lat": 38.91656316666667, "rental_uris": {"android": "https://dc.lft.to/lastmile_qr_scan", "ios": "https://dc.lft.to/lastmile_qr_scan"}, "bike_id": "d826c99374c3818decee157978ca7c57", "lon": -77.03199383333333}, {"is_reserved": 0, "fusion_lon": 0.0, "fusion_lat": 0.0, "name": "d326a3a74d63318021c260a67d596cfd", "type": "electric_scooter", "is_disabled": 0, "lat": 38.922336666666666, "rental_uris": {"android": "https://dc.lft.to/lastmile_qr_scan", "ios": "https://dc.lft.to/lastmile_qr_scan"}, "bike_id": "d326a3a74d63318021c260a67d596cfd", "lon": -77.02186433333334}, {"is_reserved": 0, "fusion_lon": 0.0, "fusion_lat": 0.0, "name": "495dfc3118832c815f19b14762d4ef61", "type": "electric_scooter", "is_disabled": 0, "lat": 38.940898833333335, "rental_uris": {"android": "https://dc.lft.to/lastmile_qr_scan", "ios": "https://dc.lft.to/lastmile_qr_scan"}, "bike_id": "495dfc3118832c815f19b14762d4ef61", "lon": -77.027154}, {"is_reserved": 0, "fusion_lon": 0.0, "fusion_lat": 0.0, "name": "c8bb1021fb0367399adba19cf0b5c687", "type": "electric_scooter", "is_disabled": 0, "lat": 38.9214635, "rental_uris": {"android": "https://dc.lft.to/lastmile_qr_scan", "ios": "https://dc.lft.to/lastmile_qr_scan"}, "bike_id": "c8bb1021fb0367399adba19cf0b5c687", "lon": -77.01807316666667}, {"is_reserved": 0, "fusion_lon": 0.0, "fusion_lat": 0.0, "name": "1a34d0b8591d97414d9428dcd65ee1f5", "type": "electric_scooter", "is_disabled": 0, "lat": 38.91418616666667, "rental_uris": {"android": "https://dc.lft.to/lastmile_qr_scan", "ios": "https://dc.lft.to/lastmile_qr_scan"}, "bike_id": "1a34d0b8591d97414d9428dcd65ee1f5", "lon": -77.02948416666666}, {"is_reserved": 0, "fusion_lon": 0.0, "fusion_lat": 0.0, "name": "b3a878ccb73480a14ba46144f5b40185", "type": "electric_scooter", "is_disabled": 0, "lat": 38.892380333333335, "rental_uris": {"android": "https://dc.lft.to/lastmile_qr_scan", "ios": "https://dc.lft.to/lastmile_qr_scan"}, "bike_id": "b3a878ccb73480a14ba46144f5b40185", "lon": -77.03135983333334}, {"is_reserved": 0, "fusion_lon": 0.0, "fusion_lat": 0.0, "name": "379411d4ab4d6e72b92703f015cd4124", "type": "electric_scooter", "is_disabled": 0, "lat": 38.91553283333333, "rental_uris": {"android": "https://dc.lft.to/lastmile_qr_scan", "ios": "https://dc.lft.to/lastmile_qr_scan"}, "bike_id": "379411d4ab4d6e72b92703f015cd4124", "lon": -77.02209616666667}, {"is_reserved": 0, "fusion_lon": 0.0, "fusion_lat": 0.0, "name": "71253ec8ca27121ca96006d2658a37f9", "type": "electric_scooter", "is_disabled": 0, "lat": 38.907246, "rental_uris": {"android": "https://dc.lft.to/lastmile_qr_scan", "ios": "https://dc.lft.to/lastmile_qr_scan"}, "bike_id": "71253ec8ca27121ca96006d2658a37f9", "lon": -77.04989983333333}, {"is_reserved": 0, "fusion_lon": 0.0, "fusion_lat": 0.0, "name": "3913f5af58a9d32b999b832a46863b24", "type": "electric_scooter", "is_disabled": 0, "lat": 38.900103, "rental_uris": {"android": "https://dc.lft.to/lastmile_qr_scan", "ios": "https://dc.lft.to/lastmile_qr_scan"}, "bike_id": "3913f5af58a9d32b999b832a46863b24", "lon": -76.99587716666667}, {"is_reserved": 0, "fusion_lon": 0.0, "fusion_lat": 0.0, "name": "63883bc3fb8c075689823dbbb3fb1295", "type": "electric_scooter", "is_disabled": 0, "lat": 38.8874055, "rental_uris": {"android": "https://dc.lft.to/lastmile_qr_scan", "ios": "https://dc.lft.to/lastmile_qr_scan"}, "bike_id": "63883bc3fb8c075689823dbbb3fb1295", "lon": -77.027328}, {"is_reserved": 0, "fusion_lon": 0.0, "fusion_lat": 0.0, "name": "aa5072da5d8225eaec706c90cf6b3a7b", "type": "electric_scooter", "is_disabled": 0, "lat": 38.9204305, "rental_uris": {"android": "https://dc.lft.to/lastmile_qr_scan", "ios": "https://dc.lft.to/lastmile_qr_scan"}, "bike_id": "aa5072da5d8225eaec706c90cf6b3a7b", "lon": -77.0165795}, {"is_reserved": 0, "fusion_lon": 0.0, "fusion_lat": 0.0, "name": "6775673187d04ea891cef7bad4cd5870", "type": "electric_scooter", "is_disabled": 0, "lat": 38.9265845, "rental_uris": {"android": "https://dc.lft.to/lastmile_qr_scan", "ios": "https://dc.lft.to/lastmile_qr_scan"}, "bike_id": "6775673187d04ea891cef7bad4cd5870", "lon": -77.02280566666667}, {"is_reserved": 0, "fusion_lon": 0.0, "fusion_lat": 0.0, "name": "408e50bde1f623d2029bbc0ae750aa37", "type": "electric_scooter", "is_disabled": 0, "lat": 38.88681916666667, "rental_uris": {"android": "https://dc.lft.to/lastmile_qr_scan", "ios": "https://dc.lft.to/lastmile_qr_scan"}, "bike_id": "408e50bde1f623d2029bbc0ae750aa37", "lon": -76.95463816666667}, {"is_reserved": 0, "fusion_lon": 0.0, "fusion_lat": 0.0, "name": "bf1ce08359d6665f921c854962aa04ab", "type": "electric_scooter", "is_disabled": 0, "lat": 38.91919333333333, "rental_uris": {"android": "https://dc.lft.to/lastmile_qr_scan", "ios": "https://dc.lft.to/lastmile_qr_scan"}, "bike_id": "bf1ce08359d6665f921c854962aa04ab", "lon": -77.02503483333334}, {"is_reserved": 0, "fusion_lon": 0.0, "fusion_lat": 0.0, "name": "9bdedaf0d24d2e8d9e30ebedacbb96b3", "type": "electric_scooter", "is_disabled": 0, "lat": 38.908829, "rental_uris": {"android": "https://dc.lft.to/lastmile_qr_scan", "ios": "https://dc.lft.to/lastmile_qr_scan"}, "bike_id": "9bdedaf0d24d2e8d9e30ebedacbb96b3", "lon": -76.98541033333333}, {"is_reserved": 0, "fusion_lon": 0.0, "fusion_lat": 0.0, "name": "55d7cea554577323e46cfb870f5c19d9", "type": "electric_scooter", "is_disabled": 0, "lat": 38.86356333333333, "rental_uris": {"android": "https://dc.lft.to/lastmile_qr_scan", "ios": "https://dc.lft.to/lastmile_qr_scan"}, "bike_id": "55d7cea554577323e46cfb870f5c19d9", "lon": -76.98708666666667}, {"is_reserved": 0, "fusion_lon": 0.0, "fusion_lat": 0.0, "name": "19818195c8e7de9c2fe415ada65e7886", "type": "electric_scooter", "is_disabled": 0, "lat": 38.8980045, "rental_uris": {"android": "https://dc.lft.to/lastmile_qr_scan", "ios": "https://dc.lft.to/lastmile_qr_scan"}, "bike_id": "19818195c8e7de9c2fe415ada65e7886", "lon": -76.99164483333334}, {"is_reserved": 0, "fusion_lon": 0.0, "fusion_lat": 0.0, "name": "dde3286f84eb890eae39e8c9dd712925", "type": "electric_scooter", "is_disabled": 0, "lat": 38.90906183333333, "rental_uris": {"android": "https://dc.lft.to/lastmile_qr_scan", "ios": "https://dc.lft.to/lastmile_qr_scan"}, "bike_id": "dde3286f84eb890eae39e8c9dd712925", "lon": -77.04136866666667}, {"is_reserved": 0, "fusion_lon": 0.0, "fusion_lat": 0.0, "name": "766db8c3e728fa16b3e6f2816bb0f2ae", "type": "electric_scooter", "is_disabled": 0, "lat": 38.936109, "rental_uris": {"android": "https://dc.lft.to/lastmile_qr_scan", "ios": "https://dc.lft.to/lastmile_qr_scan"}, "bike_id": "766db8c3e728fa16b3e6f2816bb0f2ae", "lon": -77.02914966666667}, {"is_reserved": 0, "fusion_lon": 0.0, "fusion_lat": 0.0, "name": "d91e6b08735ffe15f940b63b7b3c10e3", "type": "electric_scooter", "is_disabled": 0, "lat": 38.906374166666666, "rental_uris": {"android": "https://dc.lft.to/lastmile_qr_scan", "ios": "https://dc.lft.to/lastmile_qr_scan"}, "bike_id": "d91e6b08735ffe15f940b63b7b3c10e3", "lon": -77.03835566666666}, {"is_reserved": 0, "fusion_lon": 0.0, "fusion_lat": 0.0, "name": "2b89a2864c3feeeeadcb3d9e71380435", "type": "electric_scooter", "is_disabled": 0, "lat": 38.90487516666666, "rental_uris": {"android": "https://dc.lft.to/lastmile_qr_scan", "ios": "https://dc.lft.to/lastmile_qr_scan"}, "bike_id": "2b89a2864c3feeeeadcb3d9e71380435", "lon": -77.06017483333333}, {"is_reserved": 0, "fusion_lon": 0.0, "fusion_lat": 0.0, "name": "200ab0e3a8d837b25101900735854114", "type": "electric_bike", "is_disabled": 0, "lat": 38.922639333333336, "rental_uris": {"android": "https://dc.lft.to/lastmile_qr_scan", "ios": "https://dc.lft.to/lastmile_qr_scan"}, "bike_id": "200ab0e3a8d837b25101900735854114", "lon": -77.01948083333333}, {"is_reserved": 0, "fusion_lon": 0.0, "fusion_lat": 0.0, "name": "2d4a0452571e8e21fe332a6934d5e368", "type": "electric_scooter", "is_disabled": 0, "lat": 38.9064375, "rental_uris": {"android": "https://dc.lft.to/lastmile_qr_scan", "ios": "https://dc.lft.to/lastmile_qr_scan"}, "bike_id": "2d4a0452571e8e21fe332a6934d5e368", "lon": -77.02700033333333}, {"is_reserved": 0, "fusion_lon": 0.0, "fusion_lat": 0.0, "name": "6f1f080b6bb86993605b6ba5b02ff25b", "type": "electric_scooter", "is_disabled": 0, "lat": 38.88572816666667, "rental_uris": {"android": "https://dc.lft.to/lastmile_qr_scan", "ios": "https://dc.lft.to/lastmile_qr_scan"}, "bike_id": "6f1f080b6bb86993605b6ba5b02ff25b", "lon": -77.01995166666667}, {"is_reserved": 0, "fusion_lon": 0.0, "fusion_lat": 0.0, "name": "84820e389a62b1cc310b644dc769b86b", "type": "electric_scooter", "is_disabled": 0, "lat": 38.83701383333333, "rental_uris": {"android": "https://dc.lft.to/lastmile_qr_scan", "ios": "https://dc.lft.to/lastmile_qr_scan"}, "bike_id": "84820e389a62b1cc310b644dc769b86b", "lon": -77.00568333333334}, {"is_reserved": 0, "fusion_lon": 0.0, "fusion_lat": 0.0, "name": "12c1dd74ea4f1afdb460dad990701fe3", "type": "electric_scooter", "is_disabled": 0, "lat": 38.9083505, "rental_uris": {"android": "https://dc.lft.to/lastmile_qr_scan", "ios": "https://dc.lft.to/lastmile_qr_scan"}, "bike_id": "12c1dd74ea4f1afdb460dad990701fe3", "lon": -77.03308733333333}, {"is_reserved": 0, "fusion_lon": 0.0, "fusion_lat": 0.0, "name": "f9f278f228eae694f029862cd819ba83", "type": "electric_scooter", "is_disabled": 0, "lat": 38.84433933333333, "rental_uris": {"android": "https://dc.lft.to/lastmile_qr_scan", "ios": "https://dc.lft.to/lastmile_qr_scan"}, "bike_id": "f9f278f228eae694f029862cd819ba83", "lon": -76.99713033333333}, {"is_reserved": 0, "fusion_lon": 0.0, "fusion_lat": 0.0, "name": "107d04793c9e1ee00757256860ae30a7", "type": "electric_scooter", "is_disabled": 0, "lat": 38.906406, "rental_uris": {"android": "https://dc.lft.to/lastmile_qr_scan", "ios": "https://dc.lft.to/lastmile_qr_scan"}, "bike_id": "107d04793c9e1ee00757256860ae30a7", "lon": -77.051488}, {"is_reserved": 0, "fusion_lon": 0.0, "fusion_lat": 0.0, "name": "834c44b560755ffa7e2dc9c04526de54", "type": "electric_bike", "is_disabled": 0, "lat": 39.034232833333334, "rental_uris": {"android": "https://dc.lft.to/lastmile_qr_scan", "ios": "https://dc.lft.to/lastmile_qr_scan"}, "bike_id": "834c44b560755ffa7e2dc9c04526de54", "lon": -77.0408565}, {"is_reserved": 0, "fusion_lon": 0.0, "fusion_lat": 0.0, "name": "4b56a056a66ba66c139b6f914b01ffc7", "type": "electric_bike", "is_disabled": 0, "lat": 38.922506166666665, "rental_uris": {"android": "https://dc.lft.to/lastmile_qr_scan", "ios": "https://dc.lft.to/lastmile_qr_scan"}, "bike_id": "4b56a056a66ba66c139b6f914b01ffc7", "lon": -77.0306975}, {"is_reserved": 0, "fusion_lon": 0.0, "fusion_lat": 0.0, "name": "4687d48375fdf37345d57b3c744546cc", "type": "electric_bike", "is_disabled": 0, "lat": 38.88334616666667, "rental_uris": {"android": "https://dc.lft.to/lastmile_qr_scan", "ios": "https://dc.lft.to/lastmile_qr_scan"}, "bike_id": "4687d48375fdf37345d57b3c744546cc", "lon": -77.06565833333333}, {"is_reserved": 0, "fusion_lon": 0.0, "fusion_lat": 0.0, "name": "075258e9cec4f86f45208889c338828e", "type": "electric_scooter", "is_disabled": 0, "lat": 38.902333, "rental_uris": {"android": "https://dc.lft.to/lastmile_qr_scan", "ios": "https://dc.lft.to/lastmile_qr_scan"}, "bike_id": "075258e9cec4f86f45208889c338828e", "lon": -77.002004}, {"is_reserved": 0, "fusion_lon": 0.0, "fusion_lat": 0.0, "name": "e9a8453d036105e54438e4bf6a8878e0", "type": "electric_bike", "is_disabled": 0, "lat": 38.90863016666667, "rental_uris": {"android": "https://dc.lft.to/lastmile_qr_scan", "ios": "https://dc.lft.to/lastmile_qr_scan"}, "bike_id": "e9a8453d036105e54438e4bf6a8878e0", "lon": -76.94005133333333}, {"is_reserved": 0, "fusion_lon": 0.0, "fusion_lat": 0.0, "name": "3d04aac573c86c1303b5b58d1f013c33", "type": "electric_scooter", "is_disabled": 0, "lat": 38.9086125, "rental_uris": {"android": "https://dc.lft.to/lastmile_qr_scan", "ios": "https://dc.lft.to/lastmile_qr_scan"}, "bike_id": "3d04aac573c86c1303b5b58d1f013c33", "lon": -77.04272516666667}, {"is_reserved": 0, "fusion_lon": 0.0, "fusion_lat": 0.0, "name": "5bf4256d89c54d9b393d0824fbd268cc", "type": "electric_bike", "is_disabled": 0, "lat": 39.05501233333333, "rental_uris": {"android": "https://dc.lft.to/lastmile_qr_scan", "ios": "https://dc.lft.to/lastmile_qr_scan"}, "bike_id": "5bf4256d89c54d9b393d0824fbd268cc", "lon": -77.11785683333333}, {"is_reserved": 0, "fusion_lon": 0.0, "fusion_lat": 0.0, "name": "e77884d3a959df40310d8c27b845a68d", "type": "electric_scooter", "is_disabled": 0, "lat": 38.926661833333334, "rental_uris": {"android": "https://dc.lft.to/lastmile_qr_scan", "ios": "https://dc.lft.to/lastmile_qr_scan"}, "bike_id": "e77884d3a959df40310d8c27b845a68d", "lon": -77.0086925}, {"is_reserved": 0, "fusion_lon": 0.0, "fusion_lat": 0.0, "name": "ebdb88a0ffea96011f744d07c271816d", "type": "electric_scooter", "is_disabled": 0, "lat": 38.89731466666667, "rental_uris": {"android": "https://dc.lft.to/lastmile_qr_scan", "ios": "https://dc.lft.to/lastmile_qr_scan"}, "bike_id": "ebdb88a0ffea96011f744d07c271816d", "lon": -77.02456783333334}, {"is_reserved": 0, "fusion_lon": 0.0, "fusion_lat": 0.0, "name": "935c94a9d0896b793f8df153fd66c027", "type": "electric_scooter", "is_disabled": 0, "lat": 38.89552666666667, "rental_uris": {"android": "https://dc.lft.to/lastmile_qr_scan", "ios": "https://dc.lft.to/lastmile_qr_scan"}, "bike_id": "935c94a9d0896b793f8df153fd66c027", "lon": -77.05667916666667}, {"is_reserved": 0, "fusion_lon": 0.0, "fusion_lat": 0.0, "name": "b8db3a691e9e756d04e4b914fce664ff", "type": "electric_scooter", "is_disabled": 0, "lat": 38.90576883333333, "rental_uris": {"android": "https://dc.lft.to/lastmile_qr_scan", "ios": "https://dc.lft.to/lastmile_qr_scan"}, "bike_id": "b8db3a691e9e756d04e4b914fce664ff", "lon": -77.04188716666667}, {"is_reserved": 0, "fusion_lon": 0.0, "fusion_lat": 0.0, "name": "10b43fe4b49670d70d5b5801967fa24f", "type": "electric_bike", "is_disabled": 0, "lat": 38.929571, "rental_uris": {"android": "https://dc.lft.to/lastmile_qr_scan", "ios": "https://dc.lft.to/lastmile_qr_scan"}, "bike_id": "10b43fe4b49670d70d5b5801967fa24f", "lon": -77.22575466666666}, {"is_reserved": 0, "fusion_lon": 0.0, "fusion_lat": 0.0, "name": "f5613b06686321276fb8bf96e77b85c8", "type": "electric_scooter", "is_disabled": 0, "lat": 38.908288666666664, "rental_uris": {"android": "https://dc.lft.to/lastmile_qr_scan", "ios": "https://dc.lft.to/lastmile_qr_scan"}, "bike_id": "f5613b06686321276fb8bf96e77b85c8", "lon": -77.07414916666667}, {"is_reserved": 0, "fusion_lon": 0.0, "fusion_lat": 0.0, "name": "97f922cc7d1da21755e58cdfa5c6adad", "type": "electric_scooter", "is_disabled": 0, "lat": 38.95074133333333, "rental_uris": {"android": "https://dc.lft.to/lastmile_qr_scan", "ios": "https://dc.lft.to/lastmile_qr_scan"}, "bike_id": "97f922cc7d1da21755e58cdfa5c6adad", "lon": -76.99559616666667}, {"is_reserved": 0, "fusion_lon": 0.0, "fusion_lat": 0.0, "name": "f174b7dd6d945af368af73760149526c", "type": "electric_scooter", "is_disabled": 0, "lat": 38.902346666666666, "rental_uris": {"android": "https://dc.lft.to/lastmile_qr_scan", "ios": "https://dc.lft.to/lastmile_qr_scan"}, "bike_id": "f174b7dd6d945af368af73760149526c", "lon": -77.02683016666667}, {"is_reserved": 0, "fusion_lon": 0.0, "fusion_lat": 0.0, "name": "87506aee2aef7ddd52a607a4fa9020a4", "type": "electric_scooter", "is_disabled": 0, "lat": 38.903924333333336, "rental_uris": {"android": "https://dc.lft.to/lastmile_qr_scan", "ios": "https://dc.lft.to/lastmile_qr_scan"}, "bike_id": "87506aee2aef7ddd52a607a4fa9020a4", "lon": -77.0435685}, {"is_reserved": 0, "fusion_lon": 0.0, "fusion_lat": 0.0, "name": "8b50f86679fda222a326e5dfd43abaad", "type": "electric_scooter", "is_disabled": 0, "lat": 38.9037335, "rental_uris": {"android": "https://dc.lft.to/lastmile_qr_scan", "ios": "https://dc.lft.to/lastmile_qr_scan"}, "bike_id": "8b50f86679fda222a326e5dfd43abaad", "lon": -77.03925233333334}, {"is_reserved": 0, "fusion_lon": 0.0, "fusion_lat": 0.0, "name": "64f2d8d25db02300df4b8f320f1a877c", "type": "electric_scooter", "is_disabled": 0, "lat": 38.9083575, "rental_uris": {"android": "https://dc.lft.to/lastmile_qr_scan", "ios": "https://dc.lft.to/lastmile_qr_scan"}, "bike_id": "64f2d8d25db02300df4b8f320f1a877c", "lon": -77.03312383333333}, {"is_reserved": 0, "fusion_lon": 0.0, "fusion_lat": 0.0, "name": "466818e05d457fe180188ef3013abf7b", "type": "electric_bike", "is_disabled": 0, "lat": 38.9622895, "rental_uris": {"android": "https://dc.lft.to/lastmile_qr_scan", "ios": "https://dc.lft.to/lastmile_qr_scan"}, "bike_id": "466818e05d457fe180188ef3013abf7b", "lon": -77.02631483333333}, {"is_reserved": 0, "fusion_lon": 0.0, "fusion_lat": 0.0, "name": "23af23903fff82fc4c539e9ca17fd210", "type": "electric_scooter", "is_disabled": 0, "lat": 38.9051965, "rental_uris": {"android": "https://dc.lft.to/lastmile_qr_scan", "ios": "https://dc.lft.to/lastmile_qr_scan"}, "bike_id": "23af23903fff82fc4c539e9ca17fd210", "lon": -77.0646955}, {"is_reserved": 0, "fusion_lon": 0.0, "fusion_lat": 0.0, "name": "8a9323d5fa902ce2cfc0790e83a3427c", "type": "electric_scooter", "is_disabled": 0, "lat": 38.86381033333333, "rental_uris": {"android": "https://dc.lft.to/lastmile_qr_scan", "ios": "https://dc.lft.to/lastmile_qr_scan"}, "bike_id": "8a9323d5fa902ce2cfc0790e83a3427c", "lon": -76.98927983333333}, {"is_reserved": 0, "fusion_lon": 0.0, "fusion_lat": 0.0, "name": "cf98f88afe9ed04de341ba0bbb44cdbb", "type": "electric_scooter", "is_disabled": 0, "lat": 38.90489766666666, "rental_uris": {"android": "https://dc.lft.to/lastmile_qr_scan", "ios": "https://dc.lft.to/lastmile_qr_scan"}, "bike_id": "cf98f88afe9ed04de341ba0bbb44cdbb", "lon": -77.0602335}, {"is_reserved": 0, "fusion_lon": 0.0, "fusion_lat": 0.0, "name": "d8bd04f7a0b3cf72f6a9fabb18328986", "type": "electric_scooter", "is_disabled": 0, "lat": 38.92746533333333, "rental_uris": {"android": "https://dc.lft.to/lastmile_qr_scan", "ios": "https://dc.lft.to/lastmile_qr_scan"}, "bike_id": "d8bd04f7a0b3cf72f6a9fabb18328986", "lon": -77.02531633333334}, {"is_reserved": 0, "fusion_lon": 0.0, "fusion_lat": 0.0, "name": "55c9637cff8868641d9233ff06c31f9b", "type": "electric_scooter", "is_disabled": 0, "lat": 38.899093, "rental_uris": {"android": "https://dc.lft.to/lastmile_qr_scan", "ios": "https://dc.lft.to/lastmile_qr_scan"}, "bike_id": "55c9637cff8868641d9233ff06c31f9b", "lon": -77.021491}, {"is_reserved": 0, "fusion_lon": 0.0, "fusion_lat": 0.0, "name": "831e7fa986ada21258effadba1d05233", "type": "electric_scooter", "is_disabled": 0, "lat": 38.906917666666665, "rental_uris": {"android": "https://dc.lft.to/lastmile_qr_scan", "ios": "https://dc.lft.to/lastmile_qr_scan"}, "bike_id": "831e7fa986ada21258effadba1d05233", "lon": -77.0377925}, {"is_reserved": 0, "fusion_lon": 0.0, "fusion_lat": 0.0, "name": "84f535b7a1787cf04923e73fcead290f", "type": "electric_scooter", "is_disabled": 0, "lat": 38.90266733333333, "rental_uris": {"android": "https://dc.lft.to/lastmile_qr_scan", "ios": "https://dc.lft.to/lastmile_qr_scan"}, "bike_id": "84f535b7a1787cf04923e73fcead290f", "lon": -77.030381}, {"is_reserved": 0, "fusion_lon": 0.0, "fusion_lat": 0.0, "name": "228975ce593f9a59f5bc5940011053b8", "type": "electric_scooter", "is_disabled": 0, "lat": 38.9029295, "rental_uris": {"android": "https://dc.lft.to/lastmile_qr_scan", "ios": "https://dc.lft.to/lastmile_qr_scan"}, "bike_id": "228975ce593f9a59f5bc5940011053b8", "lon": -77.0337235}, {"is_reserved": 0, "fusion_lon": 0.0, "fusion_lat": 0.0, "name": "66fe426cf04efbbe6b6da8c6d2d49c9a", "type": "electric_scooter", "is_disabled": 0, "lat": 38.879363833333336, "rental_uris": {"android": "https://dc.lft.to/lastmile_qr_scan", "ios": "https://dc.lft.to/lastmile_qr_scan"}, "bike_id": "66fe426cf04efbbe6b6da8c6d2d49c9a", "lon": -77.00408283333333}, {"is_reserved": 0, "fusion_lon": 0.0, "fusion_lat": 0.0, "name": "c59d2a25c4c1138a7997fb969bacf48c", "type": "electric_scooter", "is_disabled": 0, "lat": 38.936537666666666, "rental_uris": {"android": "https://dc.lft.to/lastmile_qr_scan", "ios": "https://dc.lft.to/lastmile_qr_scan"}, "bike_id": "c59d2a25c4c1138a7997fb969bacf48c", "lon": -77.02634933333333}, {"is_reserved": 0, "fusion_lon": 0.0, "fusion_lat": 0.0, "name": "7dbbcf74cd6b8d48919889125df72705", "type": "electric_scooter", "is_disabled": 0, "lat": 38.916352333333336, "rental_uris": {"android": "https://dc.lft.to/lastmile_qr_scan", "ios": "https://dc.lft.to/lastmile_qr_scan"}, "bike_id": "7dbbcf74cd6b8d48919889125df72705", "lon": -77.01089433333334}, {"is_reserved": 0, "fusion_lon": 0.0, "fusion_lat": 0.0, "name": "a432e156ed3b6299a6135178ce4ab3eb", "type": "electric_scooter", "is_disabled": 0, "lat": 38.902543, "rental_uris": {"android": "https://dc.lft.to/lastmile_qr_scan", "ios": "https://dc.lft.to/lastmile_qr_scan"}, "bike_id": "a432e156ed3b6299a6135178ce4ab3eb", "lon": -77.04397516666667}, {"is_reserved": 0, "fusion_lon": 0.0, "fusion_lat": 0.0, "name": "a7c224c08607bee38564a0b970c11533", "type": "electric_scooter", "is_disabled": 0, "lat": 38.907229, "rental_uris": {"android": "https://dc.lft.to/lastmile_qr_scan", "ios": "https://dc.lft.to/lastmile_qr_scan"}, "bike_id": "a7c224c08607bee38564a0b970c11533", "lon": -77.01636733333333}, {"is_reserved": 0, "fusion_lon": 0.0, "fusion_lat": 0.0, "name": "761bd8d151d99a5b073493728b4b4790", "type": "electric_scooter", "is_disabled": 0, "lat": 38.9241765, "rental_uris": {"android": "https://dc.lft.to/lastmile_qr_scan", "ios": "https://dc.lft.to/lastmile_qr_scan"}, "bike_id": "761bd8d151d99a5b073493728b4b4790", "lon": -77.0200685}, {"is_reserved": 0, "fusion_lon": 0.0, "fusion_lat": 0.0, "name": "267d4f205f332638c7c314730f6d697b", "type": "electric_scooter", "is_disabled": 0, "lat": 38.91798266666667, "rental_uris": {"android": "https://dc.lft.to/lastmile_qr_scan", "ios": "https://dc.lft.to/lastmile_qr_scan"}, "bike_id": "267d4f205f332638c7c314730f6d697b", "lon": -77.0319965}, {"is_reserved": 0, "fusion_lon": 0.0, "fusion_lat": 0.0, "name": "0b7f8b94aefcf2720d45affc8896e39b", "type": "electric_scooter", "is_disabled": 0, "lat": 38.901536666666665, "rental_uris": {"android": "https://dc.lft.to/lastmile_qr_scan", "ios": "https://dc.lft.to/lastmile_qr_scan"}, "bike_id": "0b7f8b94aefcf2720d45affc8896e39b", "lon": -76.99027883333333}, {"is_reserved": 0, "fusion_lon": 0.0, "fusion_lat": 0.0, "name": "5b0ce2146c479a3caceaab114975835a", "type": "electric_bike", "is_disabled": 0, "lat": 38.8693815, "rental_uris": {"android": "https://dc.lft.to/lastmile_qr_scan", "ios": "https://dc.lft.to/lastmile_qr_scan"}, "bike_id": "5b0ce2146c479a3caceaab114975835a", "lon": -77.09463766666667}, {"is_reserved": 0, "fusion_lon": 0.0, "fusion_lat": 0.0, "name": "c145ae45a0681c22d4d8918f6f31afb1", "type": "electric_scooter", "is_disabled": 0, "lat": 38.929058833333336, "rental_uris": {"android": "https://dc.lft.to/lastmile_qr_scan", "ios": "https://dc.lft.to/lastmile_qr_scan"}, "bike_id": "c145ae45a0681c22d4d8918f6f31afb1", "lon": -77.01629333333334}, {"is_reserved": 0, "fusion_lon": 0.0, "fusion_lat": 0.0, "name": "33fc17562174cd82542fb0306fa99b6f", "type": "electric_scooter", "is_disabled": 0, "lat": 38.871984, "rental_uris": {"android": "https://dc.lft.to/lastmile_qr_scan", "ios": "https://dc.lft.to/lastmile_qr_scan"}, "bike_id": "33fc17562174cd82542fb0306fa99b6f", "lon": -77.0057195}, {"is_reserved": 0, "fusion_lon": 0.0, "fusion_lat": 0.0, "name": "2ab74a2b7d059b644f6f0d1fef9b50ff", "type": "electric_scooter", "is_disabled": 0, "lat": 38.90605816666667, "rental_uris": {"android": "https://dc.lft.to/lastmile_qr_scan", "ios": "https://dc.lft.to/lastmile_qr_scan"}, "bike_id": "2ab74a2b7d059b644f6f0d1fef9b50ff", "lon": -77.06297966666666}, {"is_reserved": 0, "fusion_lon": 0.0, "fusion_lat": 0.0, "name": "996bc27804f10dc0d4bcafa627566574", "type": "electric_scooter", "is_disabled": 0, "lat": 38.914755, "rental_uris": {"android": "https://dc.lft.to/lastmile_qr_scan", "ios": "https://dc.lft.to/lastmile_qr_scan"}, "bike_id": "996bc27804f10dc0d4bcafa627566574", "lon": -77.0456835}, {"is_reserved": 0, "fusion_lon": 0.0, "fusion_lat": 0.0, "name": "0fca4d4acf24855059a2081fd1fc7153", "type": "electric_scooter", "is_disabled": 0, "lat": 38.89221, "rental_uris": {"android": "https://dc.lft.to/lastmile_qr_scan", "ios": "https://dc.lft.to/lastmile_qr_scan"}, "bike_id": "0fca4d4acf24855059a2081fd1fc7153", "lon": -77.023486}, {"is_reserved": 0, "fusion_lon": 0.0, "fusion_lat": 0.0, "name": "8b5d68a3f345ed5db4cb034b61b4ef20", "type": "electric_scooter", "is_disabled": 0, "lat": 38.89314383333333, "rental_uris": {"android": "https://dc.lft.to/lastmile_qr_scan", "ios": "https://dc.lft.to/lastmile_qr_scan"}, "bike_id": "8b5d68a3f345ed5db4cb034b61b4ef20", "lon": -77.05000966666667}, {"is_reserved": 0, "fusion_lon": 0.0, "fusion_lat": 0.0, "name": "d6f697f9813fca9d5685a77d426c3dbd", "type": "electric_scooter", "is_disabled": 0, "lat": 38.89018333333333, "rental_uris": {"android": "https://dc.lft.to/lastmile_qr_scan", "ios": "https://dc.lft.to/lastmile_qr_scan"}, "bike_id": "d6f697f9813fca9d5685a77d426c3dbd", "lon": -76.93696616666666}, {"is_reserved": 0, "fusion_lon": 0.0, "fusion_lat": 0.0, "name": "54a8ebbebaa16ebeeab1ec0e92678b8e", "type": "electric_scooter", "is_disabled": 0, "lat": 38.89887133333333, "rental_uris": {"android": "https://dc.lft.to/lastmile_qr_scan", "ios": "https://dc.lft.to/lastmile_qr_scan"}, "bike_id": "54a8ebbebaa16ebeeab1ec0e92678b8e", "lon": -77.02957966666666},