{"data": {"bikes": [{"fusion_lat": 0.0, "name": "26877f3d6346362d8e56dc8d8f487a5e", "is_disabled": 0, "rental_uris": {"android": "https://dc.lft.to/lastmile_qr_scan", "ios": "https://dc.lft.to/lastmile_qr_scan"}, "fusion_lon": 0.0, "lat": 38.91290766666667, "bike_id": "26877f3d6346362d8e56dc8d8f487a5e", "type": "electric_scooter", "is_reserved": 0, "lon": -77.04748083333334}, {"fusion_lat": 0.0, "name": "f57935403547b43126cc27ea0087bfea", "is_disabled": 0, "rental_uris": {"android": "https://dc.lft.to/lastmile_qr_scan", "ios": "https://dc.lft.to/lastmile_qr_scan"}, "fusion_lon": 0.0, "lat": 38.957927166666664, "bike_id": "f57935403547b43126cc27ea0087bfea", "type": "electric_bike", "is_reserved": 0, "lon": -76.99967216666667}, {"fusion_lat": 0.0, "name": "bae1e76956187ac89b31b1771c234830", "is_disabled": 0, "rental_uris": {"android": "https://dc.lft.to/lastmile_qr_scan", "ios": "https://dc.lft.to/lastmile_qr_scan"}, "fusion_lon": 0.0, "lat": 38.89614483333333, "bike_id": "bae1e76956187ac89b31b1771c234830", "type": "electric_scooter", "is_reserved": 0, "lon": -77.044815}, {"fusion_lat": 0.0, "name": "030f2d63cc8196f8fac71902d6f063eb", "is_disabled": 0, "rental_uris": {"android": "https://dc.lft.to/lastmile_qr_scan", "ios": "https://dc.lft.to/lastmile_qr_scan"}, "fusion_lon": 0.0, "lat": 38.929686, "bike_id": "030f2d63cc8196f8fac71902d6f063eb", "type": "electric_scooter", "is_reserved": 0, "lon": -77.0282365}, {"fusion_lat": 0.0, "name": "447a2b026c635db1a0898ab88adb27c1", "is_disabled": 0, "rental_uris": {"android": "https://dc.lft.to/lastmile_qr_scan", "ios": "https://dc.lft.to/lastmile_qr_scan"}, "fusion_lon": 0.0, "lat": 38.9939105, "bike_id": "447a2b026c635db1a0898ab88adb27c1", "type": "electric_bike", "is_reserved": 0, "lon": -77.031019}, {"fusion_lat": 0.0, "name": "a2ce8cc668f0cf9c349084e1e18618dc", "is_disabled": 0, "rental_uris": {"android": "https://dc.lft.to/lastmile_qr_scan", "ios": "https://dc.lft.to/lastmile_qr_scan"}, "fusion_lon": 0.0, "lat": 38.92870116666667, "bike_id": "a2ce8cc668f0cf9c349084e1e18618dc", "type": "electric_scooter", "is_reserved": 0, "lon": -77.0331685}, {"fusion_lat": 0.0, "name": "227c0192dc5c5c4437946093b891963b", "is_disabled": 0, "rental_uris": {"android": "https://dc.lft.to/lastmile_qr_scan", "ios": "https://dc.lft.to/lastmile_qr_scan"}, "fusion_lon": 0.0, "lat": 38.85778883333333, "bike_id": "227c0192dc5c5c4437946093b891963b", "type": "electric_scooter", "is_reserved": 0, "lon": -76.9729545}, {"fusion_lat": 0.0, "name": "1bffc937f983406d84d9a4ad4615e263", "is_disabled": 0, "rental_uris": {"android": "https://dc.lft.to/lastmile_qr_scan", "ios": "https://dc.lft.to/lastmile_qr_scan"}, "fusion_lon": 0.0, "lat": 38.94594716666667, "bike_id": "1bffc937f983406d84d9a4ad4615e263", "type": "electric_scooter", "is_reserved": 0, "lon": -77.02975633333334}, {"fusion_lat": 0.0, "name": "ffa35438203bed6797d2b6b9ed3f681b", "is_disabled": 0, "rental_uris": {"android": "https://dc.lft.to/lastmile_qr_scan", "ios": "https://dc.lft.to/lastmile_qr_scan"}, "fusion_lon": 0.0, "lat": 38.845055333333335, "bike_id": "ffa35438203bed6797d2b6b9ed3f681b", "type": "electric_bike", "is_reserved": 0, "lon": -76.99353316666667}, {"fusion_lat": 0.0, "name": "d52af6c36fee4585052c4cb88e33552a", "is_disabled": 0, "rental_uris": {"android": "https://dc.lft.to/lastmile_qr_scan", "ios": "https://dc.lft.to/lastmile_qr_scan"}, "fusion_lon": 0.0, "lat": 38.903848833333335, "bike_id": "d52af6c36fee4585052c4cb88e33552a", "type": "electric_scooter", "is_reserved": 0, "lon": -77.06136183333334}, {"fusion_lat": 0.0, "name": "8914b2252dfa36c5faa5ef668d1a3a49", "is_disabled": 0, "rental_uris": {"android": "https://dc.lft.to/lastmile_qr_scan", "ios": "https://dc.lft.to/lastmile_qr_scan"}, "fusion_lon": 0.0, "lat": 38.91180283333333, "bike_id": "8914b2252dfa36c5faa5ef668d1a3a49", "type": "electric_scooter", "is_reserved": 0, "lon": -77.039662}, {"fusion_lat": 0.0, "name": "7a885ff9d6d0870c9745041113637fa9", "is_disabled": 0, "rental_uris": {"android": "https://dc.lft.to/lastmile_qr_scan", "ios": "https://dc.lft.to/lastmile_qr_scan"}, "fusion_lon": 0.0, "lat": 38.886774, "bike_id": "7a885ff9d6d0870c9745041113637fa9", "type": "electric_bike", "is_reserved": 0, "lon": -77.16238383333334}, {"fusion_lat": 0.0, "name": "eced1cc43cb82a86ea75f43c122b4678", "is_disabled": 0, "rental_uris": {"android": "https://dc.lft.to/lastmile_qr_scan", "ios": "https://dc.lft.to/lastmile_qr_scan"}, "fusion_lon": 0.0, "lat": 38.925327833333334, "bike_id": "eced1cc43cb82a86ea75f43c122b4678", "type": "electric_scooter", "is_reserved": 0, "lon": -77.05561016666667}, {"fusion_lat": 0.0, "name": "ab32e9ffe048a22475aa2cc9118da4df", "is_disabled": 0, "rental_uris": {"android": "https://dc.lft.to/lastmile_qr_scan", "ios": "https://dc.lft.to/lastmile_qr_scan"}, "fusion_lon": 0.0, "lat": 38.90399816666667, "bike_id": "ab32e9ffe048a22475aa2cc9118da4df", "type": "electric_scooter", "is_reserved": 0, "lon": -76.98467166666667}, {"fusion_lat": 0.0, "name": "ce39f3bc0bbd847a124841099e96bad6", "is_disabled": 0, "rental_uris": {"android": "https://dc.lft.to/lastmile_qr_scan", "ios": "https://dc.lft.to/lastmile_qr_scan"}, "fusion_lon": 0.0, "lat": 38.8846, "bike_id": "ce39f3bc0bbd847a124841099e96bad6", "type": "electric_scooter", "is_reserved": 0, "lon": -76.92617066666666}, {"fusion_lat": 0.0, "name": "9258ceef907afc9efada4f09938ee024", "is_disabled": 0, "rental_uris": {"android": "https://dc.lft.to/lastmile_qr_scan", "ios": "https://dc.lft.to/lastmile_qr_scan"}, "fusion_lon": 0.0, "lat": 38.92079183333333, "bike_id": "9258ceef907afc9efada4f09938ee024", "type": "electric_scooter", "is_reserved": 0, "lon": -77.02502433333333}, {"fusion_lat": 0.0, "name": "503191d7a5e13f7993a29caa61fc050d", "is_disabled": 0, "rental_uris": {"android": "https://dc.lft.to/lastmile_qr_scan", "ios": "https://dc.lft.to/lastmile_qr_scan"}, "fusion_lon": 0.0, "lat": 38.89871633333333, "bike_id": "503191d7a5e13f7993a29caa61fc050d", "type": "electric_scooter", "is_reserved": 0, "lon": -77.02174916666667}, {"fusion_lat": 0.0, "name": "c5db072137ef94998cfbea56d7860412", "is_disabled": 0, "rental_uris": {"android": "https://dc.lft.to/lastmile_qr_scan", "ios": "https://dc.lft.to/lastmile_qr_scan"}, "fusion_lon": 0.0, "lat": 38.90155433333334, "bike_id": "c5db072137ef94998cfbea56d7860412", "type": "electric_scooter", "is_reserved": 0, "lon": -76.97626416666667}, {"fusion_lat": 0.0, "name": "1c450dad303dc8774e16f81044dc142a", "is_disabled": 0, "rental_uris": {"android": "https://dc.lft.to/lastmile_qr_scan", "ios": "https://dc.lft.to/lastmile_qr_scan"}, "fusion_lon": 0.0, "lat": 38.927973333333334, "bike_id": "1c450dad303dc8774e16f81044dc142a", "type": "electric_scooter", "is_reserved": 0, "lon": -76.95559733333333}, {"fusion_lat": 0.0, "name": "4f6e56d80ba68d00bfa0035e7995f11f", "is_disabled": 0, "rental_uris": {"android": "https://dc.lft.to/lastmile_qr_scan", "ios": "https://dc.lft.to/lastmile_qr_scan"}, "fusion_lon": 0.0, "lat": 38.88248516666667, "bike_id": "4f6e56d80ba68d00bfa0035e7995f11f", "type": "electric_bike", "is_reserved": 0, "lon": -76.96256733333334}, {"fusion_lat": 0.0, "name": "24b7425059307aeaae4f33bb7e2f8d3e", "is_disabled": 0, "rental_uris": {"android": "https://dc.lft.to/lastmile_qr_scan", "ios": "https://dc.lft.to/lastmile_qr_scan"}, "fusion_lon": 0.0, "lat": 38.820955833333336, "bike_id": "24b7425059307aeaae4f33bb7e2f8d3e", "type": "electric_bike", "is_reserved": 0, "lon": -77.05299616666667}, {"fusion_lat": 0.0, "name": "b2992348bfcfa454c7d938ac8ce5344e", "is_disabled": 0, "rental_uris": {"android": "https://dc.lft.to/lastmile_qr_scan", "ios": "https://dc.lft.to/lastmile_qr_scan"}, "fusion_lon": 0.0, "lat": 38.874846833333336, "bike_id": "b2992348bfcfa454c7d938ac8ce5344e", "type": "electric_scooter", "is_reserved": 0, "lon": -77.00182383333333}, {"fusion_lat": 0.0, "name": "49979c8543f8b566a0f538cde2648a15", "is_disabled": 0, "rental_uris": {"android": "https://dc.lft.to/lastmile_qr_scan", "ios": "https://dc.lft.to/lastmile_qr_scan"}, "fusion_lon": 0.0, "lat": 38.90110983333334, "bike_id": "49979c8543f8b566a0f538cde2648a15", "type": "electric_scooter", "is_reserved": 0, "lon": -77.025607}, {"fusion_lat": 0.0, "name": "f18bd7693fee48a853929595653c17b5", "is_disabled": 0, "rental_uris": {"android": "https://dc.lft.to/lastmile_qr_scan", "ios": "https://dc.lft.to/lastmile_qr_scan"}, "fusion_lon": 0.0, "lat": 38.924427333333334, "bike_id": "f18bd7693fee48a853929595653c17b5", "type": "electric_scooter", "is_reserved": 0, "lon": -77.05245216666667}, {"fusion_lat": 0.0, "name": "8664d61f1853af14a1f91bd1923c16d9", "is_disabled": 0, "rental_uris": {"android": "https://dc.lft.to/lastmile_qr_scan", "ios": "https://dc.lft.to/lastmile_qr_scan"}, "fusion_lon": 0.0, "lat": 38.904899, "bike_id": "8664d61f1853af14a1f91bd1923c16d9", "type": "electric_scooter", "is_reserved": 0, "lon": -76.94967116666666}, {"fusion_lat": 0.0, "name": "f40712659b1b5dc06d599450331aa9c6", "is_disabled": 0, "rental_uris": {"android": "https://dc.lft.to/lastmile_qr_scan", "ios": "https://dc.lft.to/lastmile_qr_scan"}, "fusion_lon": 0.0, "lat": 38.94925416666667, "bike_id": "f40712659b1b5dc06d599450331aa9c6", "type": "electric_scooter", "is_reserved": 0, "lon": -77.018677}, {"fusion_lat": 0.0, "name": "a444e5893114bd6df92c4aada82e30c8", "is_disabled": 0, "rental_uris": {"android": "https://dc.lft.to/lastmile_qr_scan", "ios": "https://dc.lft.to/lastmile_qr_scan"}, "fusion_lon": 0.0, "lat": 38.893239333333334, "bike_id": "a444e5893114bd6df92c4aada82e30c8", "type": "electric_scooter", "is_reserved": 0, "lon": -77.02148716666666}, {"fusion_lat": 0.0, "name": "9dda7d7e3daf2d8b019c008f05dad466", "is_disabled": 0, "rental_uris": {"android": "https://dc.lft.to/lastmile_qr_scan", "ios": "https://dc.lft.to/lastmile_qr_scan"}, "fusion_lon": 0.0, "lat": 38.9126265, "bike_id": "9dda7d7e3daf2d8b019c008f05dad466", "type": "electric_scooter", "is_reserved": 0, "lon": -77.03379516666666}, {"fusion_lat": 0.0, "name": "a53552d812637d918570ec9c146a0038", "is_disabled": 0, "rental_uris": {"android": "https://dc.lft.to/lastmile_qr_scan", "ios": "https://dc.lft.to/lastmile_qr_scan"}, "fusion_lon": 0.0, "lat": 38.90521483333333, "bike_id": "a53552d812637d918570ec9c146a0038", "type": "electric_scooter", "is_reserved": 0, "lon": -77.0613385}, {"fusion_lat": 0.0, "name": "ee4d6d1385d5639944de56239d85124a", "is_disabled": 0, "rental_uris": {"android": "https://dc.lft.to/lastmile_qr_scan", "ios": "https://dc.lft.to/lastmile_qr_scan"}, "fusion_lon": 0.0, "lat": 38.931144333333336, "bike_id": "ee4d6d1385d5639944de56239d85124a", "type": "electric_scooter", "is_reserved": 0, "lon": -77.037917}, {"fusion_lat": 0.0, "name": "0174739b4f7c136b601ce3f8fdf68e11", "is_disabled": 0, "rental_uris": {"android": "https://dc.lft.to/lastmile_qr_scan", "ios": "https://dc.lft.to/lastmile_qr_scan"}, "fusion_lon": 0.0, "lat": 38.917172, "bike_id": "0174739b4f7c136b601ce3f8fdf68e11", "type": "electric_scooter", "is_reserved": 0, "lon": -77.034006}, {"fusion_lat": 0.0, "name": "a953eaf3485d7792ab10c1a81a345a57", "is_disabled": 0, "rental_uris": {"android": "https://dc.lft.to/lastmile_qr_scan", "ios": "https://dc.lft.to/lastmile_qr_scan"}, "fusion_lon": 0.0, "lat": 38.95236283333333, "bike_id": "a953eaf3485d7792ab10c1a81a345a57", "type": "electric_bike", "is_reserved": 0, "lon": -76.97959966666667}, {"fusion_lat": 0.0, "name": "cbee56977c9eac48b05a44ae6ff4f64b", "is_disabled": 0, "rental_uris": {"android": "https://dc.lft.to/lastmile_qr_scan", "ios": "https://dc.lft.to/lastmile_qr_scan"}, "fusion_lon": 0.0, "lat": 38.91471283333333, "bike_id": "cbee56977c9eac48b05a44ae6ff4f64b", "type": "electric_scooter", "is_reserved": 0, "lon": -77.029621}, {"fusion_lat": 0.0, "name": "4a097616c8331a5f948cdbdd21ed9b58", "is_disabled": 0, "rental_uris": {"android": "https://dc.lft.to/lastmile_qr_scan", "ios": "https://dc.lft.to/lastmile_qr_scan"}, "fusion_lon": 0.0, "lat": 38.8756125, "bike_id": "4a097616c8331a5f948cdbdd21ed9b58", "type": "electric_scooter", "is_reserved": 0, "lon": -77.00934}, {"fusion_lat": 0.0, "name": "a45a50d652f5ce7134bb73df3b164733", "is_disabled": 0, "rental_uris": {"android": "https://dc.lft.to/lastmile_qr_scan", "ios": "https://dc.lft.to/lastmile_qr_scan"}, "fusion_lon": 0.0, "lat": 38.92040633333333, "bike_id": "a45a50d652f5ce7134bb73df3b164733", "type": "electric_scooter", "is_reserved": 0, "lon": -77.07974616666667}, {"fusion_lat": 0.0, "name": "5cddc5bab24fc6841e86b6bda02abef0", "is_disabled": 0, "rental_uris": {"android": "https://dc.lft.to/lastmile_qr_scan", "ios": "https://dc.lft.to/lastmile_qr_scan"}, "fusion_lon": 0.0, "lat": 38.906836166666665, "bike_id": "5cddc5bab24fc6841e86b6bda02abef0", "type": "electric_scooter", "is_reserved": 0, "lon": -77.010918}, {"fusion_lat": 0.0, "name": "f89263175857208c043007b1063156f4", "is_disabled": 0, "rental_uris": {"android": "https://dc.lft.to/lastmile_qr_scan", "ios": "https://dc.lft.to/lastmile_qr_scan"}, "fusion_lon": 0.0, "lat": 38.916612666666666, "bike_id": "f89263175857208c043007b1063156f4", "type": "electric_scooter", "is_reserved": 0, "lon": -77.03470016666667}, {"fusion_lat": 0.0, "name": "1b3a0b9732f9c18cfde053a81fcf9a04", "is_disabled": 0, "rental_uris": {"android": "https://dc.lft.to/lastmile_qr_scan", "ios": "https://dc.lft.to/lastmile_qr_scan"}, "fusion_lon": 0.0, "lat": 38.895169333333335, "bike_id": "1b3a0b9732f9c18cfde053a81fcf9a04", "type": "electric_scooter", "is_reserved": 0, "lon": -77.04161316666666}, {"fusion_lat": 0.0, "name": "54660a9f987b07730dae13e97f28b163", "is_disabled": 0, "rental_uris": {"android": "https://dc.lft.to/lastmile_qr_scan", "ios": "https://dc.lft.to/lastmile_qr_scan"}, "fusion_lon": 0.0, "lat": 38.90420666666667, "bike_id": "54660a9f987b07730dae13e97f28b163", "type": "electric_scooter", "is_reserved": 0, "lon": -77.001439}, {"fusion_lat": 0.0, "name": "7200743c35ac57837d18589917e7dbb9", "is_disabled": 0, "rental_uris": {"android": "https://dc.lft.to/lastmile_qr_scan", "ios": "https://dc.lft.to/lastmile_qr_scan"}, "fusion_lon": 0.0, "lat": 38.892569, "bike_id": "7200743c35ac57837d18589917e7dbb9", "type": "electric_scooter", "is_reserved": 0, "lon": -77.04661883333333}, {"fusion_lat": 0.0, "name": "da40b2d1d9bee9b13acb47c90d2c4e79", "is_disabled": 0, "rental_uris": {"android": "https://dc.lft.to/lastmile_qr_scan", "ios": "https://dc.lft.to/lastmile_qr_scan"}, "fusion_lon": 0.0, "lat": 38.97518783333334, "bike_id": "da40b2d1d9bee9b13acb47c90d2c4e79", "type": "electric_bike", "is_reserved": 0, "lon": -77.01688683333333}, {"fusion_lat": 0.0, "name": "d739e18588d407f87b2541fef595ef3d", "is_disabled": 0, "rental_uris": {"android": "https://dc.lft.to/lastmile_qr_scan", "ios": "https://dc.lft.to/lastmile_qr_scan"}, "fusion_lon": 0.0, "lat": 38.910464166666664, "bike_id": "d739e18588d407f87b2541fef595ef3d", "type": "electric_scooter", "is_reserved": 0, "lon": -77.04349}, {"fusion_lat": 0.0, "name": "8632864fb7800c63807843deeb6b0184", "is_disabled": 0, "rental_uris": {"android": "https://dc.lft.to/lastmile_qr_scan", "ios": "https://dc.lft.to/lastmile_qr_scan"}, "fusion_lon": 0.0, "lat": 38.9944425, "bike_id": "8632864fb7800c63807843deeb6b0184", "type": "electric_bike", "is_reserved": 0, "lon": -76.99587866666667}, {"fusion_lat": 0.0, "name": "25de14f403989752aab9eae864709fe0", "is_disabled": 0, "rental_uris": {"android": "https://dc.lft.to/lastmile_qr_scan", "ios": "https://dc.lft.to/lastmile_qr_scan"}, "fusion_lon": 0.0, "lat": 38.92904016666667, "bike_id": "25de14f403989752aab9eae864709fe0", "type": "electric_scooter", "is_reserved": 0, "lon": -77.032453}, {"fusion_lat": 0.0, "name": "1876f4c3129df681f8b8209db3a55a5b", "is_disabled": 0, "rental_uris": {"android": "https://dc.lft.to/lastmile_qr_scan", "ios": "https://dc.lft.to/lastmile_qr_scan"}, "fusion_lon": 0.0, "lat": 38.904214, "bike_id": "1876f4c3129df681f8b8209db3a55a5b", "type": "electric_scooter", "is_reserved": 0, "lon": -77.04329}, {"fusion_lat": 0.0, "name": "07dd6c2c904d6de4d7e35200bac9a885", "is_disabled": 0, "rental_uris": {"android": "https://dc.lft.to/lastmile_qr_scan", "ios": "https://dc.lft.to/lastmile_qr_scan"}, "fusion_lon": 0.0, "lat": 38.897381833333334, "bike_id": "07dd6c2c904d6de4d7e35200bac9a885", "type": "electric_scooter", "is_reserved": 0, "lon": -77.0223735}, {"fusion_lat": 0.0, "name": "4025323d597a1ffdc23f4a72423d6268", "is_disabled": 0, "rental_uris": {"android": "https://dc.lft.to/lastmile_qr_scan", "ios": "https://dc.lft.to/lastmile_qr_scan"}, "fusion_lon": 0.0, "lat": 38.915699000000004, "bike_id": "4025323d597a1ffdc23f4a72423d6268", "type": "electric_scooter", "is_reserved": 0, "lon": -77.01246066666667}, {"fusion_lat": 0.0, "name": "a44df238f0c9393991d781e06acd6474", "is_disabled": 0, "rental_uris": {"android": "https://dc.lft.to/lastmile_qr_scan", "ios": "https://dc.lft.to/lastmile_qr_scan"}, "fusion_lon": 0.0, "lat": 38.91533233333333, "bike_id": "a44df238f0c9393991d781e06acd6474", "type": "electric_scooter", "is_reserved": 0, "lon": -77.03180916666666}, {"fusion_lat": 0.0, "name": "9020a0b5d3217043e32b2a00fc196277", "is_disabled": 0, "rental_uris": {"android": "https://dc.lft.to/lastmile_qr_scan", "ios": "https://dc.lft.to/lastmile_qr_scan"}, "fusion_lon": 0.0, "lat": 38.9228875, "bike_id": "9020a0b5d3217043e32b2a00fc196277", "type": "electric_scooter", "is_reserved": 0, "lon": -77.02965966666666}, {"fusion_lat": 0.0, "name": "66cfb8f6047437b62de3f827fc8777f8", "is_disabled": 0, "rental_uris": {"android": "https://dc.lft.to/lastmile_qr_scan", "ios": "https://dc.lft.to/lastmile_qr_scan"}, "fusion_lon": 0.0, "lat": 38.94050133333333, "bike_id": "66cfb8f6047437b62de3f827fc8777f8", "type": "electric_bike", "is_reserved": 0, "lon": -76.90418766666667}, {"fusion_lat": 0.0, "name": "be30fef5d6699aede22fd622c13f86d5", "is_disabled": 0, "rental_uris": {"android": "https://dc.lft.to/lastmile_qr_scan", "ios": "https://dc.lft.to/lastmile_qr_scan"}, "fusion_lon": 0.0, "lat": 38.902325, "bike_id": "be30fef5d6699aede22fd622c13f86d5", "type": "electric_scooter", "is_reserved": 0, "lon": -77.04456483333334}, {"fusion_lat": 0.0, "name": "1800f9e20248242f08c97540c94cf1a9", "is_disabled": 0, "rental_uris": {"android": "https://dc.lft.to/lastmile_qr_scan", "ios": "https://dc.lft.to/lastmile_qr_scan"}, "fusion_lon": 0.0, "lat": 38.92240433333333, "bike_id": "1800f9e20248242f08c97540c94cf1a9", "type": "electric_scooter", "is_reserved": 0, "lon": -77.03353533333333}, {"fusion_lat": 0.0, "name": "d0a9a92134cfadd5d3aa946079648cc3", "is_disabled": 0, "rental_uris": {"android": "https://dc.lft.to/lastmile_qr_scan", "ios": "https://dc.lft.to/lastmile_qr_scan"}, "fusion_lon": 0.0, "lat": 38.92240183333333, "bike_id": "d0a9a92134cfadd5d3aa946079648cc3", "type": "electric_scooter", "is_reserved": 0, "lon": -77.07334383333334}, {"fusion_lat": 0.0, "name": "5cc4e97afe1b28c99fa88732cdc06765", "is_disabled": 0, "rental_uris": {"android": "https://dc.lft.to/lastmile_qr_scan", "ios": "https://dc.lft.to/lastmile_qr_scan"}, "fusion_lon": 0.0, "lat": 38.94964133333333, "bike_id": "5cc4e97afe1b28c99fa88732cdc06765", "type": "electric_scooter", "is_reserved": 0, "lon": -77.07525316666667}, {"fusion_lat": 0.0, "name": "ca62cdcfdf47ff754e1eeea97f789c41", "is_disabled": 0, "rental_uris": {"android": "https://dc.lft.to/lastmile_qr_scan", "ios": "https://dc.lft.to/lastmile_qr_scan"}, "fusion_lon": 0.0, "lat": 38.95889733333333, "bike_id": "ca62cdcfdf47ff754e1eeea97f789c41", "type": "electric_scooter", "is_reserved": 0, "lon": -77.0276955}, {"fusion_lat": 0.0, "name": "fba5b4b85da060a217ddbfd4031eb564", "is_disabled": 0, "rental_uris": {"android": "https://dc.lft.to/lastmile_qr_scan", "ios": "https://dc.lft.to/lastmile_qr_scan"}, "fusion_lon": 0.0, "lat": 38.9119345, "bike_id": "fba5b4b85da060a217ddbfd4031eb564", "type": "electric_scooter", "is_reserved": 0, "lon": -77.018935}, {"fusion_lat": 0.0, "name": "0b1625c9d743d4f0e17fb1c650ddddfa", "is_disabled": 0, "rental_uris": {"android": "https://dc.lft.to/lastmile_qr_scan", "ios": "https://dc.lft.to/lastmile_qr_scan"}, "fusion_lon": 0.0, "lat": 38.90154283333333, "bike_id": "0b1625c9d743d4f0e17fb1c650ddddfa", "type": "electric_scooter", "is_reserved": 0, "lon": -77.04720966666666}, {"fusion_lat": 0.0, "name": "d18fbb216c5579382cb710a196dc465c", "is_disabled": 0, "rental_uris": {"android": "https://dc.lft.to/lastmile_qr_scan", "ios": "https://dc.lft.to/lastmile_qr_scan"}, "fusion_lon": 0.0, "lat": 38.883887, "bike_id": "d18fbb216c5579382cb710a196dc465c", "type": "electric_scooter", "is_reserved": 0, "lon": -76.9305235}, {"fusion_lat": 0.0, "name": "aa340d7d8ae4d378d4eca25eeedcf31d", "is_disabled": 0, "rental_uris": {"android": "https://dc.lft.to/lastmile_qr_scan", "ios": "https://dc.lft.to/lastmile_qr_scan"}, "fusion_lon": 0.0, "lat": 38.9037335, "bike_id": "aa340d7d8ae4d378d4eca25eeedcf31d", "type": "electric_scooter", "is_reserved": 0, "lon": -77.06710033333333}, {"fusion_lat": 0.0, "name": "95f6784b2cc7d6a1b73cc703d07d415c", "is_disabled": 0, "rental_uris": {"android": "https://dc.lft.to/lastmile_qr_scan", "ios": "https://dc.lft.to/lastmile_qr_scan"}, "fusion_lon": 0.0, "lat": 38.91716816666667, "bike_id": "95f6784b2cc7d6a1b73cc703d07d415c", "type": "electric_bike", "is_reserved": 0, "lon": -77.02375}, {"fusion_lat": 0.0, "name": "a11761fcb7fd4ad4d6aed19e2f11cccc", "is_disabled": 0, "rental_uris": {"android": "https://dc.lft.to/lastmile_qr_scan", "ios": "https://dc.lft.to/lastmile_qr_scan"}, "fusion_lon": 0.0, "lat": 38.9155395, "bike_id": "a11761fcb7fd4ad4d6aed19e2f11cccc", "type": "electric_scooter", "is_reserved": 0, "lon": -77.0411375}, {"fusion_lat": 0.0, "name": "6744d701c868321abb5245027356c5bb", "is_disabled": 0, "rental_uris": {"android": "https://dc.lft.to/lastmile_qr_scan", "ios": "https://dc.lft.to/lastmile_qr_scan"}, "fusion_lon": 0.0, "lat": 38.922487, "bike_id": "6744d701c868321abb5245027356c5bb", "type": "electric_scooter", "is_reserved": 0, "lon": -77.08080433333333}, {"fusion_lat": 0.0, "name": "bed51b3a21f3d6bae9a707251de8dab5", "is_disabled": 0, "rental_uris": {"android": "https://dc.lft.to/lastmile_qr_scan", "ios": "https://dc.lft.to/lastmile_qr_scan"}, "fusion_lon": 0.0, "lat": 38.89690783333333, "bike_id": "bed51b3a21f3d6bae9a707251de8dab5", "type": "electric_scooter", "is_reserved": 0, "lon": -77.02474266666667}, {"fusion_lat": 0.0, "name": "a0e46a14ae29d1697a4abcf35e7b0be7", "is_disabled": 0, "rental_uris": {"android": "https://dc.lft.to/lastmile_qr_scan", "ios": "https://dc.lft.to/lastmile_qr_scan"}, "fusion_lon": 0.0, "lat": 38.872450666666666, "bike_id": "a0e46a14ae29d1697a4abcf35e7b0be7", "type": "electric_scooter", "is_reserved": 0, "lon": -76.97725133333333}, {"fusion_lat": 0.0, "name": "21d731caec81b5560432d375cfaffcf2", "is_disabled": 0, "rental_uris": {"android": "https://dc.lft.to/lastmile_qr_scan", "ios": "https://dc.lft.to/lastmile_qr_scan"}, "fusion_lon": 0.0, "lat": 38.902740333333334, "bike_id": "21d731caec81b5560432d375cfaffcf2", "type": "electric_scooter", "is_reserved": 0, "lon": -77.03527083333333}, {"fusion_lat": 0.0, "name": "b1a0b4d516b98646ff7d6e3cfae1c14d", "is_disabled": 0, "rental_uris": {"android": "https://dc.lft.to/lastmile_qr_scan", "ios": "https://dc.lft.to/lastmile_qr_scan"}, "fusion_lon": 0.0, "lat": 38.9038115, "bike_id": "b1a0b4d516b98646ff7d6e3cfae1c14d", "type": "electric_scooter", "is_reserved": 0, "lon": -77.04367333333333}, {"fusion_lat": 0.0, "name": "8e30a03582d3a077ee6f6881505f85e5", "is_disabled": 0, "rental_uris": {"android": "https://dc.lft.to/lastmile_qr_scan", "ios": "https://dc.lft.to/lastmile_qr_scan"}, "fusion_lon": 0.0, "lat": 38.917029, "bike_id": "8e30a03582d3a077ee6f6881505f85e5", "type": "electric_scooter", "is_reserved": 0, "lon": -77.035856}, {"fusion_lat": 0.0, "name": "4a8d3059cf45f67c3e8c5102cfbcd214", "is_disabled": 0, "rental_uris": {"android": "https://dc.lft.to/lastmile_qr_scan", "ios": "https://dc.lft.to/lastmile_qr_scan"}, "fusion_lon": 0.0, "lat": 38.910421166666666, "bike_id": "4a8d3059cf45f67c3e8c5102cfbcd214", "type": "electric_scooter", "is_reserved": 0, "lon": -77.064225}, {"fusion_lat": 0.0, "name": "18938664fa9f7b58e82dfc626b0bd4f1", "is_disabled": 0, "rental_uris": {"android": "https://dc.lft.to/lastmile_qr_scan", "ios": "https://dc.lft.to/lastmile_qr_scan"}, "fusion_lon": 0.0, "lat": 38.987677166666664, "bike_id": "18938664fa9f7b58e82dfc626b0bd4f1", "type": "electric_bike", "is_reserved": 0, "lon": -77.140542}, {"fusion_lat": 0.0, "name": "6e18535420eb5a6b5e8608949d0ebfa6", "is_disabled": 0, "rental_uris": {"android": "https://dc.lft.to/lastmile_qr_scan", "ios": "https://dc.lft.to/lastmile_qr_scan"}, "fusion_lon": 0.0, "lat": 38.903311333333335, "bike_id": "6e18535420eb5a6b5e8608949d0ebfa6", "type": "electric_scooter", "is_reserved": 0, "lon": -77.02882233333334}, {"fusion_lat": 0.0, "name": "91a48b20fd4958715be57c3f22d91d9c", "is_disabled": 0, "rental_uris": {"android": "https://dc.lft.to/lastmile_qr_scan", "ios": "https://dc.lft.to/lastmile_qr_scan"}, "fusion_lon": 0.0, "lat": 38.90410516666667, "bike_id": "91a48b20fd4958715be57c3f22d91d9c", "type": "electric_scooter", "is_reserved": 0, "lon": -76.97327333333334}, {"fusion_lat": 0.0, "name": "adc442c015355d00d313cbae0c94fb00", "is_disabled": 0, "rental_uris": {"android": "https://dc.lft.to/lastmile_qr_scan", "ios": "https://dc.lft.to/lastmile_qr_scan"}, "fusion_lon": 0.0, "lat": 38.90512583333334, "bike_id": "adc442c015355d00d313cbae0c94fb00", "type": "electric_scooter", "is_reserved": 0, "lon": -77.06310816666667}, {"fusion_lat": 0.0, "name": "f97bce42c300fd8ff4c9eb074e788202", "is_disabled": 0, "rental_uris": {"android": "https://dc.lft.to/lastmile_qr_scan", "ios": "https://dc.lft.to/lastmile_qr_scan"}, "fusion_lon": 0.0, "lat": 38.89885266666667, "bike_id": "f97bce42c300fd8ff4c9eb074e788202", "type": "electric_scooter", "is_reserved": 0, "lon": -76.97673833333333}, {"fusion_lat": 0.0, "name": "31313226788440666898c8a96ac1fc43", "is_disabled": 0, "rental_uris": {"android": "https://dc.lft.to/lastmile_qr_scan", "ios": "https://dc.lft.to/lastmile_qr_scan"}, "fusion_lon": 0.0, "lat": 38.88490083333333, "bike_id": "31313226788440666898c8a96ac1fc43", "type": "electric_scooter", "is_reserved": 0, "lon": -77.00709983333333}, {"fusion_lat": 0.0, "name": "7d65715db142a5e26e77dca113409e3f", "is_disabled": 0, "rental_uris": {"android": "https://dc.lft.to/lastmile_qr_scan", "ios": "https://dc.lft.to/lastmile_qr_scan"}, "fusion_lon": 0.0, "lat": 38.889007666666664, "bike_id": "7d65715db142a5e26e77dca113409e3f", "type": "electric_scooter", "is_reserved": 0, "lon": -76.97738383333333}, {"fusion_lat": 0.0, "name": "84a3c61d92b54fb6b3b0be6fd7fce805", "is_disabled": 0, "rental_uris": {"android": "https://dc.lft.to/lastmile_qr_scan", "ios": "https://dc.lft.to/lastmile_qr_scan"}, "fusion_lon": 0.0, "lat": 38.867615, "bike_id": "84a3c61d92b54fb6b3b0be6fd7fce805", "type": "electric_scooter", "is_reserved": 0, "lon": -76.98279183333334}, {"fusion_lat": 0.0, "name": "f8c9e5c810d382a2b83a41d1195b4571", "is_disabled": 0, "rental_uris": {"android": "https://dc.lft.to/lastmile_qr_scan", "ios": "https://dc.lft.to/lastmile_qr_scan"}, "fusion_lon": 0.0, "lat": 38.9241865, "bike_id": "f8c9e5c810d382a2b83a41d1195b4571", "type": "electric_scooter", "is_reserved": 0, "lon": -77.01948233333333}, {"fusion_lat": 0.0, "name": "150961a902d47c5d8dece4efccf8efbe", "is_disabled": 0, "rental_uris": {"android": "https://dc.lft.to/lastmile_qr_scan", "ios": "https://dc.lft.to/lastmile_qr_scan"}, "fusion_lon": 0.0, "lat": 38.89889483333333, "bike_id": "150961a902d47c5d8dece4efccf8efbe", "type": "electric_scooter", "is_reserved": 0, "lon": -77.0329365}, {"fusion_lat": 0.0, "name": "e88afd6c1ef5b58433decf16a78d60d4", "is_disabled": 0, "rental_uris": {"android": "https://dc.lft.to/lastmile_qr_scan", "ios": "https://dc.lft.to/lastmile_qr_scan"}, "fusion_lon": 0.0, "lat": 38.89849483333333, "bike_id": "e88afd6c1ef5b58433decf16a78d60d4", "type": "electric_scooter", "is_reserved": 0, "lon": -77.03274116666667}, {"fusion_lat": 0.0, "name": "5f672167d3635dc7c7deaeafa32f040e", "is_disabled": 0, "rental_uris": {"android": "https://dc.lft.to/lastmile_qr_scan", "ios": "https://dc.lft.to/lastmile_qr_scan"}, "fusion_lon": 0.0, "lat": 38.920857166666664, "bike_id": "5f672167d3635dc7c7deaeafa32f040e", "type": "electric_scooter", "is_reserved": 0, "lon": -77.02724883333333}, {"fusion_lat": 0.0, "name": "a337e196c5a8c996097d4114168b67d5", "is_disabled": 0, "rental_uris": {"android": "https://dc.lft.to/lastmile_qr_scan", "ios": "https://dc.lft.to/lastmile_qr_scan"}, "fusion_lon": 0.0, "lat": 38.95759366666667, "bike_id": "a337e196c5a8c996097d4114168b67d5", "type": "electric_bike", "is_reserved": 0, "lon": -76.980906}, {"fusion_lat": 0.0, "name": "7afbcffac8a1112d46b355be9f8ef98c", "is_disabled": 0, "rental_uris": {"android": "https://dc.lft.to/lastmile_qr_scan", "ios": "https://dc.lft.to/lastmile_qr_scan"}, "fusion_lon": 0.0, "lat": 38.90033316666667, "bike_id": "7afbcffac8a1112d46b355be9f8ef98c", "type": "electric_scooter", "is_reserved": 0, "lon": -77.043723}, {"fusion_lat": 0.0, "name": "db6924fae7c0dee6a08349fe3608a614", "is_disabled": 0, "rental_uris": {"android": "https://dc.lft.to/lastmile_qr_scan", "ios": "https://dc.lft.to/lastmile_qr_scan"}, "fusion_lon": 0.0, "lat": 38.901229, "bike_id": "db6924fae7c0dee6a08349fe3608a614", "type": "electric_scooter", "is_reserved": 0, "lon": -77.00321583333333}, {"fusion_lat": 0.0, "name": "aa1e9b8d36de295dccb191d7cd20cafa", "is_disabled": 0, "rental_uris": {"android": "https://dc.lft.to/lastmile_qr_scan", "ios": "https://dc.lft.to/lastmile_qr_scan"}, "fusion_lon": 0.0, "lat": 38.93203233333333, "bike_id": "aa1e9b8d36de295dccb191d7cd20cafa", "type": "electric_scooter", "is_reserved": 0, "lon": -76.98283366666666}, {"fusion_lat": 0.0, "name": "dea8c511e30615db532024e4b70d21fc", "is_disabled": 0, "rental_uris": {"android": "https://dc.lft.to/lastmile_qr_scan", "ios": "https://dc.lft.to/lastmile_qr_scan"}, "fusion_lon": 0.0, "lat": 38.920518, "bike_id": "dea8c511e30615db532024e4b70d21fc", "type": "electric_scooter", "is_reserved": 0, "lon": -77.048114}, {"fusion_lat": 0.0, "name": "2281cfd5d17986441fb15c05240d680f", "is_disabled": 0, "rental_uris": {"android": "https://dc.lft.to/lastmile_qr_scan", "ios": "https://dc.lft.to/lastmile_qr_scan"}, "fusion_lon": 0.0, "lat": 38.90152616666666, "bike_id": "2281cfd5d17986441fb15c05240d680f", "type": "electric_scooter", "is_reserved": 0, "lon": -77.044643}, {"fusion_lat": 0.0, "name": "8255a91ee13b6528874cfabdc92ae288", "is_disabled": 0, "rental_uris": {"android": "https://dc.lft.to/lastmile_qr_scan", "ios": "https://dc.lft.to/lastmile_qr_scan"}, "fusion_lon": 0.0, "lat": 38.959712833333334, "bike_id": "8255a91ee13b6528874cfabdc92ae288", "type": "electric_bike", "is_reserved": 0, "lon": -76.98162033333334}, {"fusion_lat": 0.0, "name": "f2876316758db56acc76bc61f236392e", "is_disabled": 0, "rental_uris": {"android": "https://dc.lft.to/lastmile_qr_scan", "ios": "https://dc.lft.to/lastmile_qr_scan"}, "fusion_lon": 0.0, "lat": 38.914927, "bike_id": "f2876316758db56acc76bc61f236392e", "type": "electric_bike", "is_reserved": 0, "lon": -77.0101225}, {"fusion_lat": 0.0, "name": "42b3707e9f2514aaa5eaa9ecb04c97a7", "is_disabled": 0, "rental_uris": {"android": "https://dc.lft.to/lastmile_qr_scan", "ios": "https://dc.lft.to/lastmile_qr_scan"}, "fusion_lon": 0.0, "lat": 38.900377166666665, "bike_id": "42b3707e9f2514aaa5eaa9ecb04c97a7", "type": "electric_scooter", "is_reserved": 0, "lon": -77.0431895}, {"fusion_lat": 0.0, "name": "460581e811d84e0f5cc7805466f4ffbd", "is_disabled": 0, "rental_uris": {"android": "https://dc.lft.to/lastmile_qr_scan", "ios": "https://dc.lft.to/lastmile_qr_scan"}, "fusion_lon": 0.0, "lat": 38.9188565, "bike_id": "460581e811d84e0f5cc7805466f4ffbd", "type": "electric_scooter", "is_reserved": 0, "lon": -77.029677}, {"fusion_lat": 0.0, "name": "743dd95139bb828f97ec46750936b8c9", "is_disabled": 0, "rental_uris": {"android": "https://dc.lft.to/lastmile_qr_scan", "ios": "https://dc.lft.to/lastmile_qr_scan"}, "fusion_lon": 0.0, "lat": 38.92267733333333, "bike_id": "743dd95139bb828f97ec46750936b8c9", "type": "electric_scooter", "is_reserved": 0, "lon": -77.02976983333333}, {"fusion_lat": 0.0, "name": "7f99322bf389e33edd96bdfb188c7660", "is_disabled": 0, "rental_uris": {"android": "https://dc.lft.to/lastmile_qr_scan", "ios": "https://dc.lft.to/lastmile_qr_scan"}, "fusion_lon": 0.0, "lat": 38.874933666666664, "bike_id": "7f99322bf389e33edd96bdfb188c7660", "type": "electric_bike", "is_reserved": 0, "lon": -77.211226}, {"fusion_lat": 0.0, "name": "99525a7508e5758443d51da4e28d7009", "is_disabled": 0, "rental_uris": {"android": "https://dc.lft.to/lastmile_qr_scan", "ios": "https://dc.lft.to/lastmile_qr_scan"}, "fusion_lon": 0.0, "lat": 38.912716833333334, "bike_id": "99525a7508e5758443d51da4e28d7009", "type": "electric_scooter", "is_reserved": 0, "lon": -77.031463}, {"fusion_lat": 0.0, "name": "0d9da0a731a76e3169b8b7d708329e9e", "is_disabled": 0, "rental_uris": {"android": "https://dc.lft.to/lastmile_qr_scan", "ios": "https://dc.lft.to/lastmile_qr_scan"}, "fusion_lon": 0.0, "lat": 38.904257666666666, "bike_id": "0d9da0a731a76e3169b8b7d708329e9e", "type": "electric_scooter", "is_reserved": 0, "lon": -77.03070866666667}, {"fusion_lat": 0.0, "name": "f5b076b8acd089ec304d7dc969657dba", "is_disabled": 0, "rental_uris": {"android": "https://dc.lft.to/lastmile_qr_scan", "ios": "https://dc.lft.to/lastmile_qr_scan"}, "fusion_lon": 0.0, "lat": 38.896116, "bike_id": "f5b076b8acd089ec304d7dc969657dba", "type": "electric_bike", "is_reserved": 0, "lon": -76.90743333333333}, {"fusion_lat": 0.0, "name": "a16cecd16e341a6843f7bb4fc18c4805", "is_disabled": 0, "rental_uris": {"android": "https://dc.lft.to/lastmile_qr_scan", "ios": "https://dc.lft.to/lastmile_qr_scan"}, "fusion_lon": 0.0, "lat": 38.94830316666667, "bike_id": "a16cecd16e341a6843f7bb4fc18c4805", "type": "electric_scooter", "is_reserved": 0, "lon": -77.08003016666666}, {"fusion_lat": 0.0, "name": "6ca0c0b52a2b7894a2f46ed7ea48ef66", "is_disabled": 0, "rental_uris": {"android": "https://dc.lft.to/lastmile_qr_scan", "ios": "https://dc.lft.to/lastmile_qr_scan"}, "fusion_lon": 0.0, "lat": 38.9462375, "bike_id": "6ca0c0b52a2b7894a2f46ed7ea48ef66", "type": "electric_scooter", "is_reserved": 0, "lon": -77.08020983333333}, {"fusion_lat": 0.0, "name": "4a4e2ed332c62a8926721fe485eb17f9", "is_disabled": 0, "rental_uris": {"android": "https://dc.lft.to/lastmile_qr_scan", "ios": "https://dc.lft.to/lastmile_qr_scan"}, "fusion_lon": 0.0, "lat": 38.84615483333333, "bike_id": "4a4e2ed332c62a8926721fe485eb17f9", "type": "electric_bike", "is_reserved": 0, "lon": -76.96912116666667}, {"fusion_lat": 0.0, "name": "6b46292ca7b09681d8786853396db0d1", "is_disabled": 0, "rental_uris": {"android": "https://dc.lft.to/lastmile_qr_scan", "ios": "https://dc.lft.to/lastmile_qr_scan"}, "fusion_lon": 0.0, "lat": 38.90982283333334, "bike_id": "6b46292ca7b09681d8786853396db0d1", "type": "electric_scooter", "is_reserved": 0, "lon": -77.0281615}, {"fusion_lat": 0.0, "name": "a3a05936ae4958ae447b7746773912cf", "is_disabled": 0, "rental_uris": {"android": "https://dc.lft.to/lastmile_qr_scan", "ios": "https://dc.lft.to/lastmile_qr_scan"}, "fusion_lon": 0.0, "lat": 38.914202333333336, "bike_id": "a3a05936ae4958ae447b7746773912cf", "type": "electric_scooter", "is_reserved": 0, "lon": -77.03170433333334}, {"fusion_lat": 0.0, "name": "3e4b03baa06367102f55c5ab8339a030", "is_disabled": 0, "rental_uris": {"android": "https://dc.lft.to/lastmile_qr_scan", "ios": "https://dc.lft.to/lastmile_qr_scan"}, "fusion_lon": 0.0, "lat": 38.899691, "bike_id": "3e4b03baa06367102f55c5ab8339a030", "type": "electric_scooter", "is_reserved": 0, "lon": -77.00707166666666}, {"fusion_lat": 0.0, "name": "aaa0b7ad49edd30b0951f4605855dc9d", "is_disabled": 0, "rental_uris": {"android": "https://dc.lft.to/lastmile_qr_scan", "ios": "https://dc.lft.to/lastmile_qr_scan"}, "fusion_lon": 0.0, "lat": 38.886125166666666, "bike_id": "aaa0b7ad49edd30b0951f4605855dc9d", "type": "electric_scooter", "is_reserved": 0, "lon": -77.0124925}, {"fusion_lat": 0.0, "name": "60a181af9eb3ab2173d3bdd46993b92c", "is_disabled": 0, "rental_uris": {"android": "https://dc.lft.to/lastmile_qr_scan", "ios": "https://dc.lft.to/lastmile_qr_scan"}, "fusion_lon": 0.0, "lat": 38.88556783333333, "bike_id": "60a181af9eb3ab2173d3bdd46993b92c", "type": "electric_scooter", "is_reserved": 0, "lon": -76.9772015}, {"fusion_lat": 0.0, "name": "e12d6cfb40b292c89564ba3317caeaf2", "is_disabled": 0, "rental_uris": {"android": "https://dc.lft.to/lastmile_qr_scan", "ios": "https://dc.lft.to/lastmile_qr_scan"}, "fusion_lon": 0.0, "lat": 38.923046, "bike_id": "e12d6cfb40b292c89564ba3317caeaf2", "type": "electric_scooter", "is_reserved": 0, "lon": -77.02907483333334}, {"fusion_lat": 0.0, "name": "5a9119325f7778a76480d666dd2e0fd5", "is_disabled": 0, "rental_uris": {"android": "https://dc.lft.to/lastmile_qr_scan", "ios": "https://dc.lft.to/lastmile_qr_scan"}, "fusion_lon": 0.0, "lat": 38.919204666666666, "bike_id": "5a9119325f7778a76480d666dd2e0fd5", "type": "electric_scooter", "is_reserved": 0, "lon": -77.00976583333333}, {"fusion_lat": 0.0, "name": "1ba2796fefc0ec4dbd8d2e76f4ce6aa6", "is_disabled": 0, "rental_uris": {"android": "https://dc.lft.to/lastmile_qr_scan", "ios": "https://dc.lft.to/lastmile_qr_scan"}, "fusion_lon": 0.0, "lat": 38.92957416666667, "bike_id": "1ba2796fefc0ec4dbd8d2e76f4ce6aa6", "type": "electric_scooter", "is_reserved": 0, "lon": -77.02977116666666}, {"fusion_lat": 0.0, "name": "bde9d1181fc6d0c4edb6fd3a29e7fdfe", "is_disabled": 0, "rental_uris": {"android": "https://dc.lft.to/lastmile_qr_scan", "ios": "https://dc.lft.to/lastmile_qr_scan"}, "fusion_lon": 0.0, "lat": 38.93384283333333, "bike_id": "bde9d1181fc6d0c4edb6fd3a29e7fdfe", "type": "electric_scooter", "is_reserved": 0, "lon": -77.02386416666667}, {"fusion_lat": 0.0, "name": "94d1c8f23ae2a5933ac4ba3f8560b31d", "is_disabled": 0, "rental_uris": {"android": "https://dc.lft.to/lastmile_qr_scan", "ios": "https://dc.lft.to/lastmile_qr_scan"}, "fusion_lon": 0.0, "lat": 38.91630833333333, "bike_id": "94d1c8f23ae2a5933ac4ba3f8560b31d", "type": "electric_scooter", "is_reserved": 0, "lon": -77.03924533333333}, {"fusion_lat": 0.0, "name": "2eeea44e4f8e34ab61e034702690b8a6", "is_disabled": 0, "rental_uris": {"android": "https://dc.lft.to/lastmile_qr_scan", "ios": "https://dc.lft.to/lastmile_qr_scan"}, "fusion_lon": 0.0, "lat": 38.90573366666667, "bike_id": "2eeea44e4f8e34ab61e034702690b8a6", "type": "electric_scooter", "is_reserved": 0, "lon": -77.0435615}, {"fusion_lat": 0.0, "name": "6d39d85c7bef2c4af6ceadbefb6f087c", "is_disabled": 0, "rental_uris": {"android": "https://dc.lft.to/lastmile_qr_scan", "ios": "https://dc.lft.to/lastmile_qr_scan"}, "fusion_lon": 0.0, "lat": 38.88136566666667, "bike_id": "6d39d85c7bef2c4af6ceadbefb6f087c", "type": "electric_bike", "is_reserved": 0, "lon": -76.99836533333334}, {"fusion_lat": 0.0, "name": "9078e8e96c419f2a45f89b681d98295e", "is_disabled": 0, "rental_uris": {"android": "https://dc.lft.to/lastmile_qr_scan", "ios": "https://dc.lft.to/lastmile_qr_scan"}, "fusion_lon": 0.0, "lat": 38.90066933333333, "bike_id": "9078e8e96c419f2a45f89b681d98295e", "type": "electric_scooter", "is_reserved": 0, "lon": -77.05425033333333}, {"fusion_lat": 0.0, "name": "628754529b21d64731ce33ae64804f3c", "is_disabled": 0, "rental_uris": {"android": "https://dc.lft.to/lastmile_qr_scan", "ios": "https://dc.lft.to/lastmile_qr_scan"}, "fusion_lon": 0.0, "lat": 38.9112085, "bike_id": "628754529b21d64731ce33ae64804f3c", "type": "electric_scooter", "is_reserved": 0, "lon": -76.9976335}, {"fusion_lat": 0.0, "name": "e057b067bbe9994d0ddb7c2db2441d70", "is_disabled": 0, "rental_uris": {"android": "https://dc.lft.to/lastmile_qr_scan", "ios": "https://dc.lft.to/lastmile_qr_scan"}, "fusion_lon": 0.0, "lat": 38.91677516666667, "bike_id": "e057b067bbe9994d0ddb7c2db2441d70", "type": "electric_scooter", "is_reserved": 0, "lon": -77.02262}, {"fusion_lat": 0.0, "name": "6e5ad6664721eda28f5c36b151015fa4", "is_disabled": 0, "rental_uris": {"android": "https://dc.lft.to/lastmile_qr_scan", "ios": "https://dc.lft.to/lastmile_qr_scan"}, "fusion_lon": 0.0, "lat": 38.886237333333334, "bike_id": "6e5ad6664721eda28f5c36b151015fa4", "type": "electric_scooter", "is_reserved": 0, "lon": -77.0152985}, {"fusion_lat": 0.0, "name": "a2a9b6838c89287ed5aee2a8bed46143", "is_disabled": 0, "rental_uris": {"android": "https://dc.lft.to/lastmile_qr_scan", "ios": "https://dc.lft.to/lastmile_qr_scan"}, "fusion_lon": 0.0, "lat": 38.901169833333334, "bike_id": "a2a9b6838c89287ed5aee2a8bed46143", "type": "electric_scooter", "is_reserved": 0, "lon": -77.03915383333333}, {"fusion_lat": 0.0, "name": "90f3302e6ff9227439a76c88d9b56abe", "is_disabled": 0, "rental_uris": {"android": "https://dc.lft.to/lastmile_qr_scan", "ios": "https://dc.lft.to/lastmile_qr_scan"}, "fusion_lon": 0.0, "lat": 38.911177333333335, "bike_id": "90f3302e6ff9227439a76c88d9b56abe", "type": "electric_scooter", "is_reserved": 0, "lon": -77.0335515}, {"fusion_lat": 0.0, "name": "e35a541b73f666dae67f071c3a99abc3", "is_disabled": 0, "rental_uris": {"android": "https://dc.lft.to/lastmile_qr_scan", "ios": "https://dc.lft.to/lastmile_qr_scan"}, "fusion_lon": 0.0, "lat": 38.89732033333333, "bike_id": "e35a541b73f666dae67f071c3a99abc3", "type": "electric_scooter", "is_reserved": 0, "lon": -77.0453115}, {"fusion_lat": 0.0, "name": "d39bf1640010b7a5bf4dd95b12c43e11", "is_disabled": 0, "rental_uris": {"android": "https://dc.lft.to/lastmile_qr_scan", "ios": "https://dc.lft.to/lastmile_qr_scan"}, "fusion_lon": 0.0, "lat": 38.905387833333336, "bike_id": "d39bf1640010b7a5bf4dd95b12c43e11", "type": "electric_scooter", "is_reserved": 0, "lon": -77.006081}, {"fusion_lat": 0.0, "name": "9f750623ac4ea26062b2da0e8c1d2d12", "is_disabled": 0, "rental_uris": {"android": "https://dc.lft.to/lastmile_qr_scan", "ios": "https://dc.lft.to/lastmile_qr_scan"}, "fusion_lon": 0.0, "lat": 38.908825666666665, "bike_id": "9f750623ac4ea26062b2da0e8c1d2d12", "type": "electric_scooter", "is_reserved": 0, "lon": -77.06430983333334}, {"fusion_lat": 0.0, "name": "eb9580ce30c7be8d420957accfd367a3", "is_disabled": 0, "rental_uris": {"android": "https://dc.lft.to/lastmile_qr_scan", "ios": "https://dc.lft.to/lastmile_qr_scan"}, "fusion_lon": 0.0, "lat": 38.91698266666667, "bike_id": "eb9580ce30c7be8d420957accfd367a3", "type": "electric_scooter", "is_reserved": 0, "lon": -77.04212316666667}, {"fusion_lat": 0.0, "name": "46097e7345c33e54e8f9b386b0749bbc", "is_disabled": 0, "rental_uris": {"android": "https://dc.lft.to/lastmile_qr_scan", "ios": "https://dc.lft.to/lastmile_qr_scan"}, "fusion_lon": 0.0, "lat": 38.912573, "bike_id": "46097e7345c33e54e8f9b386b0749bbc", "type": "electric_scooter", "is_reserved": 0, "lon": -77.03209783333334}, {"fusion_lat": 0.0, "name": "7868ef8d35d533d216d5b1f03e13dbfb", "is_disabled": 0, "rental_uris": {"android": "https://dc.lft.to/lastmile_qr_scan", "ios": "https://dc.lft.to/lastmile_qr_scan"}, "fusion_lon": 0.0, "lat": 38.92504783333333, "bike_id": "7868ef8d35d533d216d5b1f03e13dbfb", "type": "electric_scooter", "is_reserved": 0, "lon": -77.0510675}, {"fusion_lat": 0.0, "name": "160391831051df2ae522e77e445a4b4a", "is_disabled": 0, "rental_uris": {"android": "https://dc.lft.to/lastmile_qr_scan", "ios": "https://dc.lft.to/lastmile_qr_scan"}, "fusion_lon": 0.0, "lat": 38.87713383333333, "bike_id": "160391831051df2ae522e77e445a4b4a", "type": "electric_scooter", "is_reserved": 0, "lon": -76.99382583333333}, {"fusion_lat": 0.0, "name": "b6bcc2a56182e2bd22682ddda00598fd", "is_disabled": 0, "rental_uris": {"android": "https://dc.lft.to/lastmile_qr_scan", "ios": "https://dc.lft.to/lastmile_qr_scan"}, "fusion_lon": 0.0, "lat": 38.9260595, "bike_id": "b6bcc2a56182e2bd22682ddda00598fd", "type": "electric_scooter", "is_reserved": 0, "lon": -77.05718833333333}, {"fusion_lat": 0.0, "name": "28b093ce63c53b431f1ce32c42de3916", "is_disabled": 0, "rental_uris": {"android": "https://dc.lft.to/lastmile_qr_scan", "ios": "https://dc.lft.to/lastmile_qr_scan"}, "fusion_lon": 0.0, "lat": 38.918241, "bike_id": "28b093ce63c53b431f1ce32c42de3916", "type": "electric_scooter", "is_reserved": 0, "lon": -77.02712583333333}, {"fusion_lat": 0.0, "name": "af1e93e99e6d4edbb3fd74b48aed5242", "is_disabled": 0, "rental_uris": {"android": "https://dc.lft.to/lastmile_qr_scan", "ios": "https://dc.lft.to/lastmile_qr_scan"}, "fusion_lon": 0.0, "lat": 38.89728366666667, "bike_id": "af1e93e99e6d4edbb3fd74b48aed5242", "type": "electric_scooter", "is_reserved": 0, "lon": -76.9469645}, {"fusion_lat": 0.0, "name": "3ba63f2c8f90da66ae60741e4ea0a44b", "is_disabled": 0, "rental_uris": {"android": "https://dc.lft.to/lastmile_qr_scan", "ios": "https://dc.lft.to/lastmile_qr_scan"}, "fusion_lon": 0.0, "lat": 38.9063495, "bike_id": "3ba63f2c8f90da66ae60741e4ea0a44b", "type": "electric_scooter", "is_reserved": 0, "lon": -77.04172383333334}, {"fusion_lat": 0.0, "name": "e6e59278d1c27e75b578c6300f91164a", "is_disabled": 0, "rental_uris": {"android": "https://dc.lft.to/lastmile_qr_scan", "ios": "https://dc.lft.to/lastmile_qr_scan"}, "fusion_lon": 0.0, "lat": 38.928637333333334, "bike_id": "e6e59278d1c27e75b578c6300f91164a", "type": "electric_scooter", "is_reserved": 0, "lon": -77.035024}, {"fusion_lat": 0.0, "name": "0302f22142bf13bdc0838af97e2c2b12", "is_disabled": 0, "rental_uris": {"android": "https://dc.lft.to/lastmile_qr_scan", "ios": "https://dc.lft.to/lastmile_qr_scan"}, "fusion_lon": 0.0, "lat": 38.857201333333336, "bike_id": "0302f22142bf13bdc0838af97e2c2b12", "type": "electric_scooter", "is_reserved": 0, "lon": -76.98096733333334}, {"fusion_lat": 0.0, "name": "0a19869c1c4b7d2577bfdaeac34a58e2", "is_disabled": 0, "rental_uris": {"android": "https://dc.lft.to/lastmile_qr_scan", "ios": "https://dc.lft.to/lastmile_qr_scan"}, "fusion_lon": 0.0, "lat": 38.9100775, "bike_id": "0a19869c1c4b7d2577bfdaeac34a58e2", "type": "electric_scooter", "is_reserved": 0, "lon": -76.98493633333334}, {"fusion_lat": 0.0, "name": "d2bc75356da19f2c9e6aea4ea0108e93", "is_disabled": 0, "rental_uris": {"android": "https://dc.lft.to/lastmile_qr_scan", "ios": "https://dc.lft.to/lastmile_qr_scan"}, "fusion_lon": 0.0, "lat": 38.8839805, "bike_id": "d2bc75356da19f2c9e6aea4ea0108e93", "type": "electric_bike", "is_reserved": 0, "lon": -76.9605465}, {"fusion_lat": 0.0, "name": "d0ee00284532bdc5fa8a6706210236bb", "is_disabled": 0, "rental_uris": {"android": "https://dc.lft.to/lastmile_qr_scan", "ios": "https://dc.lft.to/lastmile_qr_scan"}, "fusion_lon": 0.0, "lat": 38.8749745, "bike_id": "d0ee00284532bdc5fa8a6706210236bb", "type": "electric_scooter", "is_reserved": 0, "lon": -77.00147933333334}, {"fusion_lat": 0.0, "name": "ee4880250b7d3c5b013f98cf12e2c707", "is_disabled": 0, "rental_uris": {"android": "https://dc.lft.to/lastmile_qr_scan", "ios": "https://dc.lft.to/lastmile_qr_scan"}, "fusion_lon": 0.0, "lat": 38.9118235, "bike_id": "ee4880250b7d3c5b013f98cf12e2c707", "type": "electric_scooter", "is_reserved": 0, "lon": -77.03842283333333}, {"fusion_lat": 0.0, "name": "66a46bc9d641e831bebe3a2a70230e64", "is_disabled": 0, "rental_uris": {"android": "https://dc.lft.to/lastmile_qr_scan", "ios": "https://dc.lft.to/lastmile_qr_scan"}, "fusion_lon": 0.0, "lat": 39.010994, "bike_id": "66a46bc9d641e831bebe3a2a70230e64", "type": "electric_bike", "is_reserved": 0, "lon": -76.91067516666666}, {"fusion_lat": 0.0, "name": "4bbd1dee1d8673ef19c1e319d9089878", "is_disabled": 0, "rental_uris": {"android": "https://dc.lft.to/lastmile_qr_scan", "ios": "https://dc.lft.to/lastmile_qr_scan"}, "fusion_lon": 0.0, "lat": 38.902801, "bike_id": "4bbd1dee1d8673ef19c1e319d9089878", "type": "electric_scooter", "is_reserved": 0, "lon": -77.01886183333333}, {"fusion_lat": 0.0, "name": "a1fd3c07cae4a458f8b410358890c010", "is_disabled": 0, "rental_uris": {"android": "https://dc.lft.to/lastmile_qr_scan", "ios": "https://dc.lft.to/lastmile_qr_scan"}, "fusion_lon": 0.0, "lat": 38.91287966666667, "bike_id": "a1fd3c07cae4a458f8b410358890c010", "type": "electric_scooter", "is_reserved": 0, "lon": -77.04513633333333}, {"fusion_lat": 0.0, "name": "50deda18a8e69d8e9d56f80aa1e420a7", "is_disabled": 0, "rental_uris": {"android": "https://dc.lft.to/lastmile_qr_scan", "ios": "https://dc.lft.to/lastmile_qr_scan"}, "fusion_lon": 0.0, "lat": 38.92329016666667, "bike_id": "50deda18a8e69d8e9d56f80aa1e420a7", "type": "electric_scooter", "is_reserved": 0, "lon": -77.01957}, {"fusion_lat": 0.0, "name": "997fd996f18452121e5953e57c954c5c", "is_disabled": 0, "rental_uris": {"android": "https://dc.lft.to/lastmile_qr_scan", "ios": "https://dc.lft.to/lastmile_qr_scan"}, "fusion_lon": 0.0, "lat": 38.933229833333336, "bike_id": "997fd996f18452121e5953e57c954c5c", "type": "electric_scooter", "is_reserved": 0, "lon": -77.034295}, {"fusion_lat": 0.0, "name": "0ca699c1cbf4245b6cf9fce8ff86e8b9", "is_disabled": 0, "rental_uris": {"android": "https://dc.lft.to/lastmile_qr_scan", "ios": "https://dc.lft.to/lastmile_qr_scan"}, "fusion_lon": 0.0, "lat": 38.898526833333335, "bike_id": "0ca699c1cbf4245b6cf9fce8ff86e8b9", "type": "electric_scooter", "is_reserved": 0, "lon": -77.01884716666666}, {"fusion_lat": 0.0, "name": "95d81edaa715c57bf0cd81f5b8c0d7be", "is_disabled": 0, "rental_uris": {"android": "https://dc.lft.to/lastmile_qr_scan", "ios": "https://dc.lft.to/lastmile_qr_scan"}, "fusion_lon": 0.0, "lat": 38.938046, "bike_id": "95d81edaa715c57bf0cd81f5b8c0d7be", "type": "electric_scooter", "is_reserved": 0, "lon": -77.06859566666667}, {"fusion_lat": 0.0, "name": "39bfbaa1723f7af70461fad962948b24", "is_disabled": 0, "rental_uris": {"android": "https://dc.lft.to/lastmile_qr_scan", "ios": "https://dc.lft.to/lastmile_qr_scan"}, "fusion_lon": 0.0, "lat": 38.89964766666667, "bike_id": "39bfbaa1723f7af70461fad962948b24", "type": "electric_scooter", "is_reserved": 0, "lon": -77.04895816666667}, {"fusion_lat": 0.0, "name": "cdd799a480564ff180a0f843261a833a", "is_disabled": 0, "rental_uris": {"android": "https://dc.lft.to/lastmile_qr_scan", "ios": "https://dc.lft.to/lastmile_qr_scan"}, "fusion_lon": 0.0, "lat": 38.9284835, "bike_id": "cdd799a480564ff180a0f843261a833a", "type": "electric_scooter", "is_reserved": 0, "lon": -76.99766266666667}, {"fusion_lat": 0.0, "name": "a63ad8b9e2e07e87ba6bc8270fafc9ca", "is_disabled": 0, "rental_uris": {"android": "https://dc.lft.to/lastmile_qr_scan", "ios": "https://dc.lft.to/lastmile_qr_scan"}, "fusion_lon": 0.0, "lat": 38.92109516666667, "bike_id": "a63ad8b9e2e07e87ba6bc8270fafc9ca", "type": "electric_scooter", "is_reserved": 0, "lon": -77.025305}, {"fusion_lat": 0.0, "name": "bbc9f77648c79c9510c15b4721d36c67", "is_disabled": 0, "rental_uris": {"android": "https://dc.lft.to/lastmile_qr_scan", "ios": "https://dc.lft.to/lastmile_qr_scan"}, "fusion_lon": 0.0, "lat": 38.9447305, "bike_id": "bbc9f77648c79c9510c15b4721d36c67", "type": "electric_scooter", "is_reserved": 0, "lon": -77.0235375}, {"fusion_lat": 0.0, "name": "2d1d386dc111657814ae8487f531ed0a", "is_disabled": 0, "rental_uris": {"android": "https://dc.lft.to/lastmile_qr_scan", "ios": "https://dc.lft.to/lastmile_qr_scan"}, "fusion_lon": 0.0, "lat": 38.948235, "bike_id": "2d1d386dc111657814ae8487f531ed0a", "type": "electric_bike", "is_reserved": 0, "lon": -77.0294235}, {"fusion_lat": 0.0, "name": "4a6f0ce036361c43895ce469932c1a10", "is_disabled": 0, "rental_uris": {"android": "https://dc.lft.to/lastmile_qr_scan", "ios": "https://dc.lft.to/lastmile_qr_scan"}, "fusion_lon": 0.0, "lat": 38.923544, "bike_id": "4a6f0ce036361c43895ce469932c1a10", "type": "electric_scooter", "is_reserved": 0, "lon": -77.01957266666666}, {"fusion_lat": 0.0, "name": "36dddc3340fd500f149c7da66e268ccb", "is_disabled": 0, "rental_uris": {"android": "https://dc.lft.to/lastmile_qr_scan", "ios": "https://dc.lft.to/lastmile_qr_scan"}, "fusion_lon": 0.0, "lat": 38.91467433333333, "bike_id": "36dddc3340fd500f149c7da66e268ccb", "type": "electric_scooter", "is_reserved": 0, "lon": -77.0239845}, {"fusion_lat": 0.0, "name": "7c4b7309202907ac2cc6e631afa575ce", "is_disabled": 0, "rental_uris": {"android": "https://dc.lft.to/lastmile_qr_scan", "ios": "https://dc.lft.to/lastmile_qr_scan"}, "fusion_lon": 0.0, "lat": 38.92286133333333, "bike_id": "7c4b7309202907ac2cc6e631afa575ce", "type": "electric_scooter", "is_reserved": 0, "lon": -77.0320195}, {"fusion_lat": 0.0, "name": "b89e3f307a974d9f69642ed7c32a198a", "is_disabled": 0, "rental_uris": {"android": "https://dc.lft.to/lastmile_qr_scan", "ios": "https://dc.lft.to/lastmile_qr_scan"}, "fusion_lon": 0.0, "lat": 38.8921045, "bike_id": "b89e3f307a974d9f69642ed7c32a198a", "type": "electric_scooter", "is_reserved": 0, "lon": -76.977048}, {"fusion_lat": 0.0, "name": "386efe78a5f9460916248c0e361de82d", "is_disabled": 0, "rental_uris": {"android": "https://dc.lft.to/lastmile_qr_scan", "ios": "https://dc.lft.to/lastmile_qr_scan"}, "fusion_lon": 0.0, "lat": 38.9140765, "bike_id": "386efe78a5f9460916248c0e361de82d", "type": "electric_scooter", "is_reserved": 0, "lon": -77.048651}, {"fusion_lat": 0.0, "name": "ea2ebb760c64714ef50dfaff537d6b8f", "is_disabled": 0, "rental_uris": {"android": "https://dc.lft.to/lastmile_qr_scan", "ios": "https://dc.lft.to/lastmile_qr_scan"}, "fusion_lon": 0.0, "lat": 38.936058833333334, "bike_id": "ea2ebb760c64714ef50dfaff537d6b8f", "type": "electric_scooter", "is_reserved": 0, "lon": -77.0586135}, {"fusion_lat": 0.0, "name": "1b83061794b7a89c80ef6f7988099b2a", "is_disabled": 0, "rental_uris": {"android": "https://dc.lft.to/lastmile_qr_scan", "ios": "https://dc.lft.to/lastmile_qr_scan"}, "fusion_lon": 0.0, "lat": 38.91458733333333, "bike_id": "1b83061794b7a89c80ef6f7988099b2a", "type": "electric_scooter", "is_reserved": 0, "lon": -77.00642483333333}, {"fusion_lat": 0.0, "name": "9891f2c6c61b8c6ab25acf2089c15c71", "is_disabled": 0, "rental_uris": {"android": "https://dc.lft.to/lastmile_qr_scan", "ios": "https://dc.lft.to/lastmile_qr_scan"}, "fusion_lon": 0.0, "lat": 38.900380166666665, "bike_id": "9891f2c6c61b8c6ab25acf2089c15c71", "type": "electric_scooter", "is_reserved": 0, "lon": -77.03994933333334}, {"fusion_lat": 0.0, "name": "365b2d84a37bdefcca4f6b1b84890779", "is_disabled": 0, "rental_uris": {"android": "https://dc.lft.to/lastmile_qr_scan", "ios": "https://dc.lft.to/lastmile_qr_scan"}, "fusion_lon": 0.0, "lat": 38.899566166666666, "bike_id": "365b2d84a37bdefcca4f6b1b84890779", "type": "electric_scooter", "is_reserved": 0, "lon": -77.04151983333334}, {"fusion_lat": 0.0, "name": "2f0531d2c358aaf7a0bd247302ec6abd", "is_disabled": 0, "rental_uris": {"android": "https://dc.lft.to/lastmile_qr_scan", "ios": "https://dc.lft.to/lastmile_qr_scan"}, "fusion_lon": 0.0, "lat": 38.8923295, "bike_id": "2f0531d2c358aaf7a0bd247302ec6abd", "type": "electric_scooter", "is_reserved": 0, "lon": -77.04875466666667}, {"fusion_lat": 0.0, "name": "130cad56a697312e96e2b3ad025d0dc6", "is_disabled": 0, "rental_uris": {"android": "https://dc.lft.to/lastmile_qr_scan", "ios": "https://dc.lft.to/lastmile_qr_scan"}, "fusion_lon": 0.0, "lat": 38.90967333333333, "bike_id": "130cad56a697312e96e2b3ad025d0dc6", "type": "electric_scooter", "is_reserved": 0, "lon": -77.03771433333333}, {"fusion_lat": 0.0, "name": "47138427ddc856e768524d9f76a7a4f3", "is_disabled": 0, "rental_uris": {"android": "https://dc.lft.to/lastmile_qr_scan", "ios": "https://dc.lft.to/lastmile_qr_scan"}, "fusion_lon": 0.0, "lat": 38.904099, "bike_id": "47138427ddc856e768524d9f76a7a4f3", "type": "electric_scooter", "is_reserved": 0, "lon": -76.97325783333334}, {"fusion_lat": 0.0, "name": "546875328a8abf7068ddb98e24876ce6", "is_disabled": 0, "rental_uris": {"android": "https://dc.lft.to/lastmile_qr_scan", "ios": "https://dc.lft.to/lastmile_qr_scan"}, "fusion_lon": 0.0, "lat": 38.90732716666667, "bike_id": "546875328a8abf7068ddb98e24876ce6", "type": "electric_scooter", "is_reserved": 0, "lon": -77.04487533333334}, {"fusion_lat": 0.0, "name": "1df6ab4b8c5b776c2c72edfe484d0f73", "is_disabled": 0, "rental_uris": {"android": "https://dc.lft.to/lastmile_qr_scan", "ios": "https://dc.lft.to/lastmile_qr_scan"}, "fusion_lon": 0.0, "lat": 38.90700283333334, "bike_id": "1df6ab4b8c5b776c2c72edfe484d0f73", "type": "electric_scooter", "is_reserved": 0, "lon": -77.00758916666666}, {"fusion_lat": 0.0, "name": "490a08681ae21e4759c540d0d59ab15d", "is_disabled": 0, "rental_uris": {"android": "https://dc.lft.to/lastmile_qr_scan", "ios": "https://dc.lft.to/lastmile_qr_scan"}, "fusion_lon": 0.0, "lat": 38.91420566666667, "bike_id": "490a08681ae21e4759c540d0d59ab15d", "type": "electric_scooter", "is_reserved": 0, "lon": -77.03816483333334}, {"fusion_lat": 0.0, "name": "e667c3b1999597f11b7cc5b3112c20e9", "is_disabled": 0, "rental_uris": {"android": "https://dc.lft.to/lastmile_qr_scan", "ios": "https://dc.lft.to/lastmile_qr_scan"}, "fusion_lon": 0.0, "lat": 38.877849166666664, "bike_id": "e667c3b1999597f11b7cc5b3112c20e9", "type": "electric_scooter", "is_reserved": 0, "lon": -76.99414516666667}, {"fusion_lat": 0.0, "name": "780fae2222b5455915a4aa6616041564", "is_disabled": 0, "rental_uris": {"android": "https://dc.lft.to/lastmile_qr_scan", "ios": "https://dc.lft.to/lastmile_qr_scan"}, "fusion_lon": 0.0, "lat": 38.91129216666667, "bike_id": "780fae2222b5455915a4aa6616041564", "type": "electric_scooter", "is_reserved": 0, "lon": -77.035643}, {"fusion_lat": 0.0, "name": "87a57e43612c2945d1a58407d6fbb6a9", "is_disabled": 0, "rental_uris": {"android": "https://dc.lft.to/lastmile_qr_scan", "ios": "https://dc.lft.to/lastmile_qr_scan"}, "fusion_lon": 0.0, "lat": 38.9233135, "bike_id": "87a57e43612c2945d1a58407d6fbb6a9", "type": "electric_scooter", "is_reserved": 0, "lon": -77.01955083333333}, {"fusion_lat": 0.0, "name": "0f9a0f85582eaa7b152dee15e01d8290", "is_disabled": 0, "rental_uris": {"android": "https://dc.lft.to/lastmile_qr_scan", "ios": "https://dc.lft.to/lastmile_qr_scan"}, "fusion_lon": 0.0, "lat": 38.8668545, "bike_id": "0f9a0f85582eaa7b152dee15e01d8290", "type": "electric_scooter", "is_reserved": 0, "lon": -76.985708}, {"fusion_lat": 0.0, "name": "7bcf58d6d9eed47770e46298ab45983e", "is_disabled": 0, "rental_uris": {"android": "https://dc.lft.to/lastmile_qr_scan", "ios": "https://dc.lft.to/lastmile_qr_scan"}, "fusion_lon": 0.0, "lat": 38.8999605, "bike_id": "7bcf58d6d9eed47770e46298ab45983e", "type": "electric_scooter", "is_reserved": 0, "lon": -77.030366}, {"fusion_lat": 0.0, "name": "081ea5210317225fc8ab3b88f18edab2", "is_disabled": 0, "rental_uris": {"android": "https://dc.lft.to/lastmile_qr_scan", "ios": "https://dc.lft.to/lastmile_qr_scan"}, "fusion_lon": 0.0, "lat": 38.89808333333333, "bike_id": "081ea5210317225fc8ab3b88f18edab2", "type": "electric_scooter", "is_reserved": 0, "lon": -77.02430466666667}, {"fusion_lat": 0.0, "name": "5facc394b0871ff1e7053825669fc021", "is_disabled": 0, "rental_uris": {"android": "https://dc.lft.to/lastmile_qr_scan", "ios": "https://dc.lft.to/lastmile_qr_scan"}, "fusion_lon": 0.0, "lat": 38.944334166666664, "bike_id": "5facc394b0871ff1e7053825669fc021", "type": "electric_scooter", "is_reserved": 0, "lon": -77.06402116666666}, {"fusion_lat": 0.0, "name": "9407328a184e3084d1a2e4aa061011b0", "is_disabled": 0, "rental_uris": {"android": "https://dc.lft.to/lastmile_qr_scan", "ios": "https://dc.lft.to/lastmile_qr_scan"}, "fusion_lon": 0.0, "lat": 38.931971833333336, "bike_id": "9407328a184e3084d1a2e4aa061011b0", "type": "electric_scooter", "is_reserved": 0, "lon": -77.04298833333333}, {"fusion_lat": 0.0, "name": "d5eb68a93e1ea126aff4cb188aa25da8", "is_disabled": 0, "rental_uris": {"android": "https://dc.lft.to/lastmile_qr_scan", "ios": "https://dc.lft.to/lastmile_qr_scan"}, "fusion_lon": 0.0, "lat": 38.897297, "bike_id": "d5eb68a93e1ea126aff4cb188aa25da8", "type": "electric_scooter", "is_reserved": 0, "lon": -77.00216666666667}, {"fusion_lat": 0.0, "name": "6b36193cf2807b5a7ff2865459663eb3", "is_disabled": 0, "rental_uris": {"android": "https://dc.lft.to/lastmile_qr_scan", "ios": "https://dc.lft.to/lastmile_qr_scan"}, "fusion_lon": 0.0, "lat": 38.885562166666666, "bike_id": "6b36193cf2807b5a7ff2865459663eb3", "type": "electric_scooter", "is_reserved": 0, "lon": -76.997798}, {"fusion_lat": 0.0, "name": "7d859c39b98f3f4f82f53f5af4b17405", "is_disabled": 0, "rental_uris": {"android": "https://dc.lft.to/lastmile_qr_scan", "ios": "https://dc.lft.to/lastmile_qr_scan"}, "fusion_lon": 0.0, "lat": 38.92376466666666, "bike_id": "7d859c39b98f3f4f82f53f5af4b17405", "type": "electric_scooter", "is_reserved": 0, "lon": -77.05150566666667}, {"fusion_lat": 0.0, "name": "2bcc5bd511b21fd3ff9b3b922881c78f", "is_disabled": 0, "rental_uris": {"android": "https://dc.lft.to/lastmile_qr_scan", "ios": "https://dc.lft.to/lastmile_qr_scan"}, "fusion_lon": 0.0, "lat": 38.922685333333334, "bike_id": "2bcc5bd511b21fd3ff9b3b922881c78f", "type": "electric_scooter", "is_reserved": 0, "lon": -77.029616}, {"fusion_lat": 0.0, "name": "02c0b70aaa64ebeee6dd1475241d7acb", "is_disabled": 0, "rental_uris": {"android": "https://dc.lft.to/lastmile_qr_scan", "ios": "https://dc.lft.to/lastmile_qr_scan"}, "fusion_lon": 0.0, "lat": 38.918197, "bike_id": "02c0b70aaa64ebeee6dd1475241d7acb", "type": "electric_scooter", "is_reserved": 0, "lon": -77.01209716666666}, {"fusion_lat": 0.0, "name": "e43a6fb1ac43442b1c893ee3a5ba8d45", "is_disabled": 0, "rental_uris": {"android": "https://dc.lft.to/lastmile_qr_scan", "ios": "https://dc.lft.to/lastmile_qr_scan"}, "fusion_lon": 0.0, "lat": 38.899992, "bike_id": "e43a6fb1ac43442b1c893ee3a5ba8d45", "type": "electric_scooter", "is_reserved": 0, "lon": -77.0064285}, {"fusion_lat": 0.0, "name": "7899df78096085c47487d3620f04c957", "is_disabled": 0, "rental_uris": {"android": "https://dc.lft.to/lastmile_qr_scan", "ios": "https://dc.lft.to/lastmile_qr_scan"}, "fusion_lon": 0.0, "lat": 38.88518066666666, "bike_id": "7899df78096085c47487d3620f04c957", "type": "electric_scooter", "is_reserved": 0, "lon": -77.01514033333333}, {"fusion_lat": 0.0, "name": "2afdd4ca853b6d868b755bb6afd94f3b", "is_disabled": 0, "rental_uris": {"android": "https://dc.lft.to/lastmile_qr_scan", "ios": "https://dc.lft.to/lastmile_qr_scan"}, "fusion_lon": 0.0, "lat": 38.92396866666667, "bike_id": "2afdd4ca853b6d868b755bb6afd94f3b", "type": "electric_scooter", "is_reserved": 0, "lon": -77.04293066666666}, {"fusion_lat": 0.0, "name": "c9c6a5fc1295f43e77b58b91fd0df14b", "is_disabled": 0, "rental_uris": {"android": "https://dc.lft.to/lastmile_qr_scan", "ios": "https://dc.lft.to/lastmile_qr_scan"}, "fusion_lon": 0.0, "lat": 38.904239, "bike_id": "c9c6a5fc1295f43e77b58b91fd0df14b", "type": "electric_scooter", "is_reserved": 0, "lon": -76.949774}, {"fusion_lat": 0.0, "name": "68c68340293f41a6953cc7e766bb687c", "is_disabled": 0, "rental_uris": {"android": "https://dc.lft.to/lastmile_qr_scan", "ios": "https://dc.lft.to/lastmile_qr_scan"}, "fusion_lon": 0.0, "lat": 38.93450933333333, "bike_id": "68c68340293f41a6953cc7e766bb687c", "type": "electric_scooter", "is_reserved": 0, "lon": -77.07261483333333}, {"fusion_lat": 0.0, "name": "4fea5edf85d6bf418b2bfaba86f0f729", "is_disabled": 0, "rental_uris": {"android": "https://dc.lft.to/lastmile_qr_scan", "ios": "https://dc.lft.to/lastmile_qr_scan"}, "fusion_lon": 0.0, "lat": 38.89710566666667, "bike_id": "4fea5edf85d6bf418b2bfaba86f0f729", "type": "electric_scooter", "is_reserved": 0, "lon": -77.0130325}, {"fusion_lat": 0.0, "name": "33abedcedc195e72f04d3865d4145d72", "is_disabled": 0, "rental_uris": {"android": "https://dc.lft.to/lastmile_qr_scan", "ios": "https://dc.lft.to/lastmile_qr_scan"}, "fusion_lon": 0.0, "lat": 38.91335616666667, "bike_id": "33abedcedc195e72f04d3865d4145d72", "type": "electric_scooter", "is_reserved": 0, "lon": -77.03167033333334}, {"fusion_lat": 0.0, "name": "839ec28d50953105966e33ee4d692707", "is_disabled": 0, "rental_uris": {"android": "https://dc.lft.to/lastmile_qr_scan", "ios": "https://dc.lft.to/lastmile_qr_scan"}, "fusion_lon": 0.0, "lat": 38.92889366666667, "bike_id": "839ec28d50953105966e33ee4d692707", "type": "electric_scooter", "is_reserved": 0, "lon": -77.03244}, {"fusion_lat": 0.0, "name": "2f4d2055ab08098ec138904c37e3206b", "is_disabled": 0, "rental_uris": {"android": "https://dc.lft.to/lastmile_qr_scan", "ios": "https://dc.lft.to/lastmile_qr_scan"}, "fusion_lon": 0.0, "lat": 38.91741016666667, "bike_id": "2f4d2055ab08098ec138904c37e3206b", "type": "electric_scooter", "is_reserved": 0, "lon": -77.03212116666667}, {"fusion_lat": 0.0, "name": "09ccc9be6eccf4a6423be47c87495172", "is_disabled": 0, "rental_uris": {"android": "https://dc.lft.to/lastmile_qr_scan", "ios": "https://dc.lft.to/lastmile_qr_scan"}, "fusion_lon": 0.0, "lat": 38.900109666666665, "bike_id": "09ccc9be6eccf4a6423be47c87495172", "type": "electric_scooter", "is_reserved": 0, "lon": -77.04490966666667}, {"fusion_lat": 0.0, "name": "8a40732a4029ff83541847481fcb80ec", "is_disabled": 0, "rental_uris": {"android": "https://dc.lft.to/lastmile_qr_scan", "ios": "https://dc.lft.to/lastmile_qr_scan"}, "fusion_lon": 0.0, "lat": 38.87179366666667, "bike_id": "8a40732a4029ff83541847481fcb80ec", "type": "electric_scooter", "is_reserved": 0, "lon": -77.00608083333333}, {"fusion_lat": 0.0, "name": "dcfe24b58a35df0af707043c896d629d", "is_disabled": 0, "rental_uris": {"android": "https://dc.lft.to/lastmile_qr_scan", "ios": "https://dc.lft.to/lastmile_qr_scan"}, "fusion_lon": 0.0, "lat": 38.92507766666667, "bike_id": "dcfe24b58a35df0af707043c896d629d", "type": "electric_bike", "is_reserved": 0, "lon": -77.05755933333333}, {"fusion_lat": 0.0, "name": "432ac21190b23c8040189f402d439302", "is_disabled": 0, "rental_uris": {"android": "https://dc.lft.to/lastmile_qr_scan", "ios": "https://dc.lft.to/lastmile_qr_scan"}, "fusion_lon": 0.0, "lat": 38.8875265, "bike_id": "432ac21190b23c8040189f402d439302", "type": "electric_scooter", "is_reserved": 0, "lon": -76.99841333333333}, {"fusion_lat": 0.0, "name": "037117129272271e8fc01f4abc8aced6", "is_disabled": 0, "rental_uris": {"android": "https://dc.lft.to/lastmile_qr_scan", "ios": "https://dc.lft.to/lastmile_qr_scan"}, "fusion_lon": 0.0, "lat": 38.91506833333333, "bike_id": "037117129272271e8fc01f4abc8aced6", "type": "electric_scooter", "is_reserved": 0, "lon": -77.000593}, {"fusion_lat": 0.0, "name": "a58f8c5a8fee1e9499966cb878a3f3c1", "is_disabled": 0, "rental_uris": {"android": "https://dc.lft.to/lastmile_qr_scan", "ios": "https://dc.lft.to/lastmile_qr_scan"}, "fusion_lon": 0.0, "lat": 38.884304, "bike_id": "a58f8c5a8fee1e9499966cb878a3f3c1", "type": "electric_scooter", "is_reserved": 0, "lon": -76.9959435}, {"fusion_lat": 0.0, "name": "f5e72dc953bf709ba728f9b7020d2b9a", "is_disabled": 0, "rental_uris": {"android": "https://dc.lft.to/lastmile_qr_scan", "ios": "https://dc.lft.to/lastmile_qr_scan"}, "fusion_lon": 0.0, "lat": 38.91912133333334, "bike_id": "f5e72dc953bf709ba728f9b7020d2b9a", "type": "electric_scooter", "is_reserved": 0, "lon": -77.04464433333334}, {"fusion_lat": 0.0, "name": "59a6436822d9cbb1ae3f18c2ebbe1e15", "is_disabled": 0, "rental_uris": {"android": "https://dc.lft.to/lastmile_qr_scan", "ios": "https://dc.lft.to/lastmile_qr_scan"}, "fusion_lon": 0.0, "lat": 38.90971483333333, "bike_id": "59a6436822d9cbb1ae3f18c2ebbe1e15", "type": "electric_scooter", "is_reserved": 0, "lon": -77.03709783333333}, {"fusion_lat": 0.0, "name": "757004413a28e9de80515e1a935be73a", "is_disabled": 0, "rental_uris": {"android": "https://dc.lft.to/lastmile_qr_scan", "ios": "https://dc.lft.to/lastmile_qr_scan"}, "fusion_lon": 0.0, "lat": 38.89728866666667, "bike_id": "757004413a28e9de80515e1a935be73a", "type": "electric_scooter", "is_reserved": 0, "lon": -77.05524333333334}, {"fusion_lat": 0.0, "name": "f2b4800cb420fe49c0fc79d1a279723a", "is_disabled": 0, "rental_uris": {"android": "https://dc.lft.to/lastmile_qr_scan", "ios": "https://dc.lft.to/lastmile_qr_scan"}, "fusion_lon": 0.0, "lat": 38.974997, "bike_id": "f2b4800cb420fe49c0fc79d1a279723a", "type": "electric_scooter", "is_reserved": 0, "lon": -77.016949}, {"fusion_lat": 0.0, "name": "f6c3e13e3ba59d547c999e051f2a94c8", "is_disabled": 0, "rental_uris": {"android": "https://dc.lft.to/lastmile_qr_scan", "ios": "https://dc.lft.to/lastmile_qr_scan"}, "fusion_lon": 0.0, "lat": 38.9044095, "bike_id": "f6c3e13e3ba59d547c999e051f2a94c8", "type": "electric_scooter", "is_reserved": 0, "lon": -77.03281}, {"fusion_lat": 0.0, "name": "7bc6f896a005166630851712e92b964d", "is_disabled": 0, "rental_uris": {"android": "https://dc.lft.to/lastmile_qr_scan", "ios": "https://dc.lft.to/lastmile_qr_scan"}, "fusion_lon": 0.0, "lat": 38.92015333333333, "bike_id": "7bc6f896a005166630851712e92b964d", "type": "electric_scooter", "is_reserved": 0, "lon": -77.071229}, {"fusion_lat": 0.0, "name": "429ac385075eadfa209ab61f7c6eb933", "is_disabled": 0, "rental_uris": {"android": "https://dc.lft.to/lastmile_qr_scan", "ios": "https://dc.lft.to/lastmile_qr_scan"}, "fusion_lon": 0.0, "lat": 38.9698955, "bike_id": "429ac385075eadfa209ab61f7c6eb933", "type": "electric_scooter", "is_reserved": 0, "lon": -77.01163366666667}, {"fusion_lat": 0.0, "name": "f4f4f5b9a15de31a9b92903a55b28a5d", "is_disabled": 0, "rental_uris": {"android": "https://dc.lft.to/lastmile_qr_scan", "ios": "https://dc.lft.to/lastmile_qr_scan"}, "fusion_lon": 0.0, "lat": 38.9097665, "bike_id": "f4f4f5b9a15de31a9b92903a55b28a5d", "type": "electric_scooter", "is_reserved": 0, "lon": -77.03254916666667}, {"fusion_lat": 0.0, "name": "11cc12770999614c80f0e30aaa71826c", "is_disabled": 0, "rental_uris": {"android": "https://dc.lft.to/lastmile_qr_scan", "ios": "https://dc.lft.to/lastmile_qr_scan"}, "fusion_lon": 0.0, "lat": 38.856529333333334, "bike_id": "11cc12770999614c80f0e30aaa71826c", "type": "electric_scooter", "is_reserved": 0, "lon": -76.99674116666667}, {"fusion_lat": 0.0, "name": "28a03218cd01cdae82e11831ffa6852b", "is_disabled": 0, "rental_uris": {"android": "https://dc.lft.to/lastmile_qr_scan", "ios": "https://dc.lft.to/lastmile_qr_scan"}, "fusion_lon": 0.0, "lat": 38.9264905, "bike_id": "28a03218cd01cdae82e11831ffa6852b", "type": "electric_scooter", "is_reserved": 0, "lon": -77.03324216666667}, {"fusion_lat": 0.0, "name": "49546e31f34478ba09eded6cee38e773", "is_disabled": 0, "rental_uris": {"android": "https://dc.lft.to/lastmile_qr_scan", "ios": "https://dc.lft.to/lastmile_qr_scan"}, "fusion_lon": 0.0, "lat": 38.891166166666665, "bike_id": "49546e31f34478ba09eded6cee38e773", "type": "electric_scooter", "is_reserved": 0, "lon": -76.938472}, {"fusion_lat": 0.0, "name": "daa7ba8cb1b0d663f8b3cb4ddbe81d46", "is_disabled": 0, "rental_uris": {"android": "https://dc.lft.to/lastmile_qr_scan", "ios": "https://dc.lft.to/lastmile_qr_scan"}, "fusion_lon": 0.0, "lat": 38.9563415, "bike_id": "daa7ba8cb1b0d663f8b3cb4ddbe81d46", "type": "electric_scooter", "is_reserved": 0, "lon": -76.99530683333333}, {"fusion_lat": 0.0, "name": "07d0937bcd744be7eb552c01a2c9b5ce", "is_disabled": 0, "rental_uris": {"android": "https://dc.lft.to/lastmile_qr_scan", "ios": "https://dc.lft.to/lastmile_qr_scan"}, "fusion_lon": 0.0, "lat": 38.89729666666667, "bike_id": "07d0937bcd744be7eb552c01a2c9b5ce", "type": "electric_scooter", "is_reserved": 0, "lon": -77.00373183333333}, {"fusion_lat": 0.0, "name": "c57b22c69143b556c8abc66897b4954a", "is_disabled": 0, "rental_uris": {"android": "https://dc.lft.to/lastmile_qr_scan", "ios": "https://dc.lft.to/lastmile_qr_scan"}, "fusion_lon": 0.0, "lat": 38.91110833333333, "bike_id": "c57b22c69143b556c8abc66897b4954a", "type": "electric_scooter", "is_reserved": 0, "lon": -77.0294625}, {"fusion_lat": 0.0, "name": "9b968bdb4b3f062257c6d83d9ea86732", "is_disabled": 0, "rental_uris": {"android": "https://dc.lft.to/lastmile_qr_scan", "ios": "https://dc.lft.to/lastmile_qr_scan"}, "fusion_lon": 0.0, "lat": 38.91661583333333, "bike_id": "9b968bdb4b3f062257c6d83d9ea86732", "type": "electric_scooter", "is_reserved": 0, "lon": -77.032103}, {"fusion_lat": 0.0, "name": "b7aa10a3fec6aa2f66f3cf4de5b10c4c", "is_disabled": 0, "rental_uris": {"android": "https://dc.lft.to/lastmile_qr_scan", "ios": "https://dc.lft.to/lastmile_qr_scan"}, "fusion_lon": 0.0, "lat": 38.91123233333333, "bike_id": "b7aa10a3fec6aa2f66f3cf4de5b10c4c", "type": "electric_scooter", "is_reserved": 0, "lon": -77.0209615}, {"fusion_lat": 0.0, "name": "99311dc244719933258f8d982f2c2d14", "is_disabled": 0, "rental_uris": {"android": "https://dc.lft.to/lastmile_qr_scan", "ios": "https://dc.lft.to/lastmile_qr_scan"}, "fusion_lon": 0.0, "lat": 38.924540666666665, "bike_id": "99311dc244719933258f8d982f2c2d14", "type": "electric_scooter", "is_reserved": 0, "lon": -77.03321966666667}, {"fusion_lat": 0.0, "name": "53c5c0569e970d03dee13157a81e02b1", "is_disabled": 0, "rental_uris": {"android": "https://dc.lft.to/lastmile_qr_scan", "ios": "https://dc.lft.to/lastmile_qr_scan"}, "fusion_lon": 0.0, "lat": 38.89742566666666, "bike_id": "53c5c0569e970d03dee13157a81e02b1", "type": "electric_scooter", "is_reserved": 0, "lon": -77.02462666666666}, {"fusion_lat": 0.0, "name": "68d5225716ac1f3cf2416aa5bd79d96d", "is_disabled": 0, "rental_uris": {"android": "https://dc.lft.to/lastmile_qr_scan", "ios": "https://dc.lft.to/lastmile_qr_scan"}, "fusion_lon": 0.0, "lat": 38.9185445, "bike_id": "68d5225716ac1f3cf2416aa5bd79d96d", "type": "electric_scooter", "is_reserved": 0, "lon": -77.04065316666667}, {"fusion_lat": 0.0, "name": "ac1d1e07ab36c6dd6aed0724595637c1", "is_disabled": 0, "rental_uris": {"android": "https://dc.lft.to/lastmile_qr_scan", "ios": "https://dc.lft.to/lastmile_qr_scan"}, "fusion_lon": 0.0, "lat": 38.9069735, "bike_id": "ac1d1e07ab36c6dd6aed0724595637c1", "type": "electric_scooter", "is_reserved": 0, "lon": -77.02723166666667}, {"fusion_lat": 0.0, "name": "6f948a05ab33326dc3f7caa53a9e49c5", "is_disabled": 0, "rental_uris": {"android": "https://dc.lft.to/lastmile_qr_scan", "ios": "https://dc.lft.to/lastmile_qr_scan"}, "fusion_lon": 0.0, "lat": 38.952264666666665, "bike_id": "6f948a05ab33326dc3f7caa53a9e49c5", "type": "electric_scooter", "is_reserved": 0, "lon": -77.0006515}, {"fusion_lat": 0.0, "name": "d7b1d8934ce93ae510ce3273610b83d1", "is_disabled": 0, "rental_uris": {"android": "https://dc.lft.to/lastmile_qr_scan", "ios": "https://dc.lft.to/lastmile_qr_scan"}, "fusion_lon": 0.0, "lat": 38.8973675, "bike_id": "d7b1d8934ce93ae510ce3273610b83d1", "type": "electric_bike", "is_reserved": 0, "lon": -76.9204565}, {"fusion_lat": 0.0, "name": "e2e90bbbe894fdb9ee7a12042638cf9b", "is_disabled": 0, "rental_uris": {"android": "https://dc.lft.to/lastmile_qr_scan", "ios": "https://dc.lft.to/lastmile_qr_scan"}, "fusion_lon": 0.0, "lat": 38.9182015, "bike_id": "e2e90bbbe894fdb9ee7a12042638cf9b", "type": "electric_scooter", "is_reserved": 0, "lon": -77.012055}, {"fusion_lat": 0.0, "name": "e3884096072325eb579f056eac890b19", "is_disabled": 0, "rental_uris": {"android": "https://dc.lft.to/lastmile_qr_scan", "ios": "https://dc.lft.to/lastmile_qr_scan"}, "fusion_lon": 0.0, "lat": 38.894735, "bike_id": "e3884096072325eb579f056eac890b19", "type": "electric_scooter", "is_reserved": 0, "lon": -77.02687416666667}, {"fusion_lat": 0.0, "name": "a195992d512a692a86f141cf18f7dfba", "is_disabled": 0, "rental_uris": {"android": "https://dc.lft.to/lastmile_qr_scan", "ios": "https://dc.lft.to/lastmile_qr_scan"}, "fusion_lon": 0.0, "lat": 38.887416, "bike_id": "a195992d512a692a86f141cf18f7dfba", "type": "electric_scooter", "is_reserved": 0, "lon": -77.01531533333333}, {"fusion_lat": 0.0, "name": "7380f5d58e528f84beb5e734ed6a8c93", "is_disabled": 0, "rental_uris": {"android": "https://dc.lft.to/lastmile_qr_scan", "ios": "https://dc.lft.to/lastmile_qr_scan"}, "fusion_lon": 0.0, "lat": 38.91954883333333, "bike_id": "7380f5d58e528f84beb5e734ed6a8c93", "type": "electric_scooter", "is_reserved": 0, "lon": -77.04169033333334}, {"fusion_lat": 0.0, "name": "be07ba54037469ea3d332ef464b9e103", "is_disabled": 0, "rental_uris": {"android": "https://dc.lft.to/lastmile_qr_scan", "ios": "https://dc.lft.to/lastmile_qr_scan"}, "fusion_lon": 0.0, "lat": 38.903425666666664, "bike_id": "be07ba54037469ea3d332ef464b9e103", "type": "electric_scooter", "is_reserved": 0, "lon": -77.00739283333333}, {"fusion_lat": 0.0, "name": "ed761533d52e0d673fddf0c7b6a01ad6", "is_disabled": 0, "rental_uris": {"android": "https://dc.lft.to/lastmile_qr_scan", "ios": "https://dc.lft.to/lastmile_qr_scan"}, "fusion_lon": 0.0, "lat": 38.86193, "bike_id": "ed761533d52e0d673fddf0c7b6a01ad6", "type": "electric_bike", "is_reserved": 0, "lon": -77.0597085}, {"fusion_lat": 0.0, "name": "9a96521edec3e45c714d21df775c1fab", "is_disabled": 0, "rental_uris": {"android": "https://dc.lft.to/lastmile_qr_scan", "ios": "https://dc.lft.to/lastmile_qr_scan"}, "fusion_lon": 0.0, "lat": 38.89985516666667, "bike_id": "9a96521edec3e45c714d21df775c1fab", "type": "electric_scooter", "is_reserved": 0, "lon": -77.05601183333333}, {"fusion_lat": 0.0, "name": "105c092e37e2ad50b918f7c406f0093c", "is_disabled": 0, "rental_uris": {"android": "https://dc.lft.to/lastmile_qr_scan", "ios": "https://dc.lft.to/lastmile_qr_scan"}, "fusion_lon": 0.0, "lat": 38.912684166666665, "bike_id": "105c092e37e2ad50b918f7c406f0093c", "type": "electric_scooter", "is_reserved": 0, "lon": -77.03910233333333}, {"fusion_lat": 0.0, "name": "6b5490e6b99408402e7529ecbc463ff3", "is_disabled": 0, "rental_uris": {"android": "https://dc.lft.to/lastmile_qr_scan", "ios": "https://dc.lft.to/lastmile_qr_scan"}, "fusion_lon": 0.0, "lat": 38.941905, "bike_id": "6b5490e6b99408402e7529ecbc463ff3", "type": "electric_scooter", "is_reserved": 0, "lon": -77.02408266666667}, {"fusion_lat": 0.0, "name": "c6199a6f2fea0d4f086f0ad1cf484207", "is_disabled": 0, "rental_uris": {"android": "https://dc.lft.to/lastmile_qr_scan", "ios": "https://dc.lft.to/lastmile_qr_scan"}, "fusion_lon": 0.0, "lat": 38.86139, "bike_id": "c6199a6f2fea0d4f086f0ad1cf484207", "type": "electric_bike", "is_reserved": 0, "lon": -76.97169366666667}, {"fusion_lat": 0.0, "name": "43208ad8004ebfc167c182e0a8caca28", "is_disabled": 0, "rental_uris": {"android": "https://dc.lft.to/lastmile_qr_scan", "ios": "https://dc.lft.to/lastmile_qr_scan"}, "fusion_lon": 0.0, "lat": 38.92748616666667, "bike_id": "43208ad8004ebfc167c182e0a8caca28", "type": "electric_scooter", "is_reserved": 0, "lon": -77.03304666666666}, {"fusion_lat": 0.0, "name": "7a36a362a9309a27f4c2c29d9074af5b", "is_disabled": 0, "rental_uris": {"android": "https://dc.lft.to/lastmile_qr_scan", "ios": "https://dc.lft.to/lastmile_qr_scan"}, "fusion_lon": 0.0, "lat": 38.926514, "bike_id": "7a36a362a9309a27f4c2c29d9074af5b", "type": "electric_scooter", "is_reserved": 0, "lon": -77.02421183333334}, {"fusion_lat": 0.0, "name": "ae94580a9d2da22f4aba7cf7a5d98ccb", "is_disabled": 0, "rental_uris": {"android": "https://dc.lft.to/lastmile_qr_scan", "ios": "https://dc.lft.to/lastmile_qr_scan"}, "fusion_lon": 0.0, "lat": 38.90211266666667, "bike_id": "ae94580a9d2da22f4aba7cf7a5d98ccb", "type": "electric_scooter", "is_reserved": 0, "lon": -76.97509933333333}, {"fusion_lat": 0.0, "name": "cbcca0c6d749d11e3822bac8308169e8", "is_disabled": 0, "rental_uris": {"android": "https://dc.lft.to/lastmile_qr_scan", "ios": "https://dc.lft.to/lastmile_qr_scan"}, "fusion_lon": 0.0, "lat": 38.94291233333333, "bike_id": "cbcca0c6d749d11e3822bac8308169e8", "type": "electric_scooter", "is_reserved": 0, "lon": -77.0217405}, {"fusion_lat": 0.0, "name": "f8e8c814c29358dff3dff4d7d299adf8", "is_disabled": 0, "rental_uris": {"android": "https://dc.lft.to/lastmile_qr_scan", "ios": "https://dc.lft.to/lastmile_qr_scan"}, "fusion_lon": 0.0, "lat": 38.860315166666666, "bike_id": "f8e8c814c29358dff3dff4d7d299adf8", "type": "electric_scooter", "is_reserved": 0, "lon": -76.983731}, {"fusion_lat": 0.0, "name": "86bb38de874bf5fe24c1f1b1b7554c41", "is_disabled": 0, "rental_uris": {"android": "https://dc.lft.to/lastmile_qr_scan", "ios": "https://dc.lft.to/lastmile_qr_scan"}, "fusion_lon": 0.0, "lat": 38.885399666666665, "bike_id": "86bb38de874bf5fe24c1f1b1b7554c41", "type": "electric_scooter", "is_reserved": 0, "lon": -77.00055316666666}, {"fusion_lat": 0.0, "name": "32b4ae05886271566e10400ca6c7b1bd", "is_disabled": 0, "rental_uris": {"android": "https://dc.lft.to/lastmile_qr_scan", "ios": "https://dc.lft.to/lastmile_qr_scan"}, "fusion_lon": 0.0, "lat": 38.881640833333336, "bike_id": "32b4ae05886271566e10400ca6c7b1bd", "type": "electric_scooter", "is_reserved": 0, "lon": -77.02765983333333}, {"fusion_lat": 0.0, "name": "ed5acd853b388e8c0a4b77527c948daa", "is_disabled": 0, "rental_uris": {"android": "https://dc.lft.to/lastmile_qr_scan", "ios": "https://dc.lft.to/lastmile_qr_scan"}, "fusion_lon": 0.0, "lat": 38.90956583333333, "bike_id": "ed5acd853b388e8c0a4b77527c948daa", "type": "electric_bike", "is_reserved": 0, "lon": -76.984323}, {"fusion_lat": 0.0, "name": "bb6bf9cd330de379020017ce309188cb", "is_disabled": 0, "rental_uris": {"android": "https://dc.lft.to/lastmile_qr_scan", "ios": "https://dc.lft.to/lastmile_qr_scan"}, "fusion_lon": 0.0, "lat": 38.91110283333333, "bike_id": "bb6bf9cd330de379020017ce309188cb", "type": "electric_scooter", "is_reserved": 0, "lon": -77.08127783333333}, {"fusion_lat": 0.0, "name": "ec091f36f9dfd3aaedf1088a4c6eddc6", "is_disabled": 0, "rental_uris": {"android": "https://dc.lft.to/lastmile_qr_scan", "ios": "https://dc.lft.to/lastmile_qr_scan"}, "fusion_lon": 0.0, "lat": 38.92296183333333, "bike_id": "ec091f36f9dfd3aaedf1088a4c6eddc6", "type": "electric_scooter", "is_reserved": 0, "lon": -77.04143383333333}, {"fusion_lat": 0.0, "name": "fb42ff03e6aed4f899781d552e76415c", "is_disabled": 0, "rental_uris": {"android": "https://dc.lft.to/lastmile_qr_scan", "ios": "https://dc.lft.to/lastmile_qr_scan"}, "fusion_lon": 0.0, "lat": 38.90470033333333, "bike_id": "fb42ff03e6aed4f899781d552e76415c", "type": "electric_scooter", "is_reserved": 0, "lon": -77.02703633333333}, {"fusion_lat": 0.0, "name": "675e6327ae372c8f99533264320fce63", "is_disabled": 0, "rental_uris": {"android": "https://dc.lft.to/lastmile_qr_scan", "ios": "https://dc.lft.to/lastmile_qr_scan"}, "fusion_lon": 0.0, "lat": 38.9025945, "bike_id": "675e6327ae372c8f99533264320fce63", "type": "electric_scooter", "is_reserved": 0, "lon": -77.05311633333334}, {"fusion_lat": 0.0, "name": "42b94a190556faa708ed4ec22f42f898", "is_disabled": 0, "rental_uris": {"android": "https://dc.lft.to/lastmile_qr_scan", "ios": "https://dc.lft.to/lastmile_qr_scan"}, "fusion_lon": 0.0, "lat": 38.89838983333333, "bike_id": "42b94a190556faa708ed4ec22f42f898", "type": "electric_scooter", "is_reserved": 0, "lon": -77.04958716666667}, {"fusion_lat": 0.0, "name": "ced16bcb2eaff559f5df3ba71ef93665", "is_disabled": 0, "rental_uris": {"android": "https://dc.lft.to/lastmile_qr_scan", "ios": "https://dc.lft.to/lastmile_qr_scan"}, "fusion_lon": 0.0, "lat": 38.86683216666667, "bike_id": "ced16bcb2eaff559f5df3ba71ef93665", "type": "electric_scooter", "is_reserved": 0, "lon": -76.985725}, {"fusion_lat": 0.0, "name": "f518b9588ca431a404df283dcb3c9754", "is_disabled": 0, "rental_uris": {"android": "https://dc.lft.to/lastmile_qr_scan", "ios": "https://dc.lft.to/lastmile_qr_scan"}, "fusion_lon": 0.0, "lat": 38.88157066666667, "bike_id": "f518b9588ca431a404df283dcb3c9754", "type": "electric_scooter", "is_reserved": 0, "lon": -77.027559}, {"fusion_lat": 0.0, "name": "cf505249d36af7d6f197671c4d3c8bfd", "is_disabled": 0, "rental_uris": {"android": "https://dc.lft.to/lastmile_qr_scan", "ios": "https://dc.lft.to/lastmile_qr_scan"}, "fusion_lon": 0.0, "lat": 38.887383666666665, "bike_id": "cf505249d36af7d6f197671c4d3c8bfd", "type": "electric_scooter", "is_reserved": 0, "lon": -77.0033595}, {"fusion_lat": 0.0, "name": "dbccc83c9b22ec95f12f7fe4b52beb2e", "is_disabled": 0, "rental_uris": {"android": "https://dc.lft.to/lastmile_qr_scan", "ios": "https://dc.lft.to/lastmile_qr_scan"}, "fusion_lon": 0.0, "lat": 38.89831066666667, "bike_id": "dbccc83c9b22ec95f12f7fe4b52beb2e", "type": "electric_scooter", "is_reserved": 0, "lon": -77.04681183333334}, {"fusion_lat": 0.0, "name": "6337887adc34eb811647826edf585633", "is_disabled": 0, "rental_uris": {"android": "https://dc.lft.to/lastmile_qr_scan", "ios": "https://dc.lft.to/lastmile_qr_scan"}, "fusion_lon": 0.0, "lat": 38.9246605, "bike_id": "6337887adc34eb811647826edf585633", "type": "electric_scooter", "is_reserved": 0, "lon": -77.0221225}, {"fusion_lat": 0.0, "name": "a8febf5a9ff49e164d278cfb762aee55", "is_disabled": 0, "rental_uris": {"android": "https://dc.lft.to/lastmile_qr_scan", "ios": "https://dc.lft.to/lastmile_qr_scan"}, "fusion_lon": 0.0, "lat": 38.86639866666667, "bike_id": "a8febf5a9ff49e164d278cfb762aee55", "type": "electric_scooter", "is_reserved": 0, "lon": -76.98714416666667}, {"fusion_lat": 0.0, "name": "cce8a91ec6ca56b155754c4602021b91", "is_disabled": 0, "rental_uris": {"android": "https://dc.lft.to/lastmile_qr_scan", "ios": "https://dc.lft.to/lastmile_qr_scan"}, "fusion_lon": 0.0, "lat": 38.920208833333334, "bike_id": "cce8a91ec6ca56b155754c4602021b91", "type": "electric_scooter", "is_reserved": 0, "lon": -77.031448}, {"fusion_lat": 0.0, "name": "8a11b143f76e5a51080bb55629ba5d9d", "is_disabled": 0, "rental_uris": {"android": "https://dc.lft.to/lastmile_qr_scan", "ios": "https://dc.lft.to/lastmile_qr_scan"}, "fusion_lon": 0.0, "lat": 38.827888333333334, "bike_id": "8a11b143f76e5a51080bb55629ba5d9d", "type": "electric_bike", "is_reserved": 0, "lon": -77.1248755}, {"fusion_lat": 0.0, "name": "30ebd9ee841dd213f28643c1c03475fd", "is_disabled": 0, "rental_uris": {"android": "https://dc.lft.to/lastmile_qr_scan", "ios": "https://dc.lft.to/lastmile_qr_scan"}, "fusion_lon": 0.0, "lat": 38.93699516666667, "bike_id": "30ebd9ee841dd213f28643c1c03475fd", "type": "electric_scooter", "is_reserved": 0, "lon": -77.05597566666667}, {"fusion_lat": 0.0, "name": "077ba81812c2282813fe07f0f074bbfd", "is_disabled": 0, "rental_uris": {"android": "https://dc.lft.to/lastmile_qr_scan", "ios": "https://dc.lft.to/lastmile_qr_scan"}, "fusion_lon": 0.0, "lat": 38.90809183333333, "bike_id": "077ba81812c2282813fe07f0f074bbfd", "type": "electric_scooter", "is_reserved": 0, "lon": -77.03864133333333}, {"fusion_lat": 0.0, "name": "e91fd22ee8762e6d55d74db531e68566", "is_disabled": 0, "rental_uris": {"android": "https://dc.lft.to/lastmile_qr_scan", "ios": "https://dc.lft.to/lastmile_qr_scan"}, "fusion_lon": 0.0, "lat": 38.87697333333333, "bike_id": "e91fd22ee8762e6d55d74db531e68566", "type": "electric_scooter", "is_reserved": 0, "lon": -77.00442766666667}, {"fusion_lat": 0.0, "name": "79be17b3923db087689a1e8750f0186e", "is_disabled": 0, "rental_uris": {"android": "https://dc.lft.to/lastmile_qr_scan", "ios": "https://dc.lft.to/lastmile_qr_scan"}, "fusion_lon": 0.0, "lat": 38.92253783333334, "bike_id": "79be17b3923db087689a1e8750f0186e", "type": "electric_scooter", "is_reserved": 0, "lon": -77.00911416666666}, {"fusion_lat": 0.0, "name": "e76c7f9680266a18503e4057cdfea967", "is_disabled": 0, "rental_uris": {"android": "https://dc.lft.to/lastmile_qr_scan", "ios": "https://dc.lft.to/lastmile_qr_scan"}, "fusion_lon": 0.0, "lat": 38.914448, "bike_id": "e76c7f9680266a18503e4057cdfea967", "type": "electric_scooter", "is_reserved": 0, "lon": -76.98821883333333}, {"fusion_lat": 0.0, "name": "d889aed489bcc13a52c5134b0bd57823", "is_disabled": 0, "rental_uris": {"android": "https://dc.lft.to/lastmile_qr_scan", "ios": "https://dc.lft.to/lastmile_qr_scan"}, "fusion_lon": 0.0, "lat": 38.83155716666667, "bike_id": "d889aed489bcc13a52c5134b0bd57823", "type": "electric_bike", "is_reserved": 0, "lon": -76.995378}, {"fusion_lat": 0.0, "name": "68234e4f4b0f8c11e0cbecf9dd120b59", "is_disabled": 0, "rental_uris": {"android": "https://dc.lft.to/lastmile_qr_scan", "ios": "https://dc.lft.to/lastmile_qr_scan"}, "fusion_lon": 0.0, "lat": 38.89220316666667, "bike_id": "68234e4f4b0f8c11e0cbecf9dd120b59", "type": "electric_scooter", "is_reserved": 0, "lon": -77.02019883333334}, {"fusion_lat": 0.0, "name": "d2fc5d11d3b7279867caac14c917db25", "is_disabled": 0, "rental_uris": {"android": "https://dc.lft.to/lastmile_qr_scan", "ios": "https://dc.lft.to/lastmile_qr_scan"}, "fusion_lon": 0.0, "lat": 38.924707166666664, "bike_id": "d2fc5d11d3b7279867caac14c917db25", "type": "electric_scooter", "is_reserved": 0, "lon": -77.02210766666667}, {"fusion_lat": 0.0, "name": "c0f3012c39c30682fcf278c3faa4fad0", "is_disabled": 0, "rental_uris": {"android": "https://dc.lft.to/lastmile_qr_scan", "ios": "https://dc.lft.to/lastmile_qr_scan"}, "fusion_lon": 0.0, "lat": 38.938627333333336, "bike_id": "c0f3012c39c30682fcf278c3faa4fad0", "type": "electric_scooter", "is_reserved": 0, "lon": -77.02557133333333}, {"fusion_lat": 0.0, "name": "c95868b8e22e2d7661b66f69d3ec9e18", "is_disabled": 0, "rental_uris": {"android": "https://dc.lft.to/lastmile_qr_scan", "ios": "https://dc.lft.to/lastmile_qr_scan"}, "fusion_lon": 0.0, "lat": 38.911055833333336, "bike_id": "c95868b8e22e2d7661b66f69d3ec9e18", "type": "electric_scooter", "is_reserved": 0, "lon": -77.00212883333333}, {"fusion_lat": 0.0, "name": "4dd6507a409cfa16485cd69000816308", "is_disabled": 0, "rental_uris": {"android": "https://dc.lft.to/lastmile_qr_scan", "ios": "https://dc.lft.to/lastmile_qr_scan"}, "fusion_lon": 0.0, "lat": 38.90011633333334, "bike_id": "4dd6507a409cfa16485cd69000816308", "type": "electric_scooter", "is_reserved": 0, "lon": -77.01181583333333}, {"fusion_lat": 0.0, "name": "a61db7a9173bb3e81834865aa366e6fa", "is_disabled": 0, "rental_uris": {"android": "https://dc.lft.to/lastmile_qr_scan", "ios": "https://dc.lft.to/lastmile_qr_scan"}, "fusion_lon": 0.0, "lat": 38.905711833333335, "bike_id": "a61db7a9173bb3e81834865aa366e6fa", "type": "electric_scooter", "is_reserved": 0, "lon": -77.0435645}, {"fusion_lat": 0.0, "name": "de39ffdfa156ebb7857cd840c84b0a19", "is_disabled": 0, "rental_uris": {"android": "https://dc.lft.to/lastmile_qr_scan", "ios": "https://dc.lft.to/lastmile_qr_scan"}, "fusion_lon": 0.0, "lat": 38.9003235, "bike_id": "de39ffdfa156ebb7857cd840c84b0a19", "type": "electric_bike", "is_reserved": 0, "lon": -76.972207}, {"fusion_lat": 0.0, "name": "5c10ccbc224500eb89db1f9aecc3efb4", "is_disabled": 0, "rental_uris": {"android": "https://dc.lft.to/lastmile_qr_scan", "ios": "https://dc.lft.to/lastmile_qr_scan"}, "fusion_lon": 0.0, "lat": 38.91533116666667, "bike_id": "5c10ccbc224500eb89db1f9aecc3efb4", "type": "electric_scooter", "is_reserved": 0, "lon": -77.046164}, {"fusion_lat": 0.0, "name": "5f475c8850616ed00ae62c4fbe816be1", "is_disabled": 0, "rental_uris": {"android": "https://dc.lft.to/lastmile_qr_scan", "ios": "https://dc.lft.to/lastmile_qr_scan"}, "fusion_lon": 0.0, "lat": 38.93169866666667, "bike_id": "5f475c8850616ed00ae62c4fbe816be1", "type": "electric_scooter", "is_reserved": 0, "lon": -77.0378015}, {"fusion_lat": 0.0, "name": "e4c4c789dfb9110f083ab16907069096", "is_disabled": 0, "rental_uris": {"android": "https://dc.lft.to/lastmile_qr_scan", "ios": "https://dc.lft.to/lastmile_qr_scan"}, "fusion_lon": 0.0, "lat": 38.9068555, "bike_id": "e4c4c789dfb9110f083ab16907069096", "type": "electric_scooter", "is_reserved": 0, "lon": -77.01087566666666}, {"fusion_lat": 0.0, "name": "1da32e7f5120e930e41d617483d2892f", "is_disabled": 0, "rental_uris": {"android": "https://dc.lft.to/lastmile_qr_scan", "ios": "https://dc.lft.to/lastmile_qr_scan"}, "fusion_lon": 0.0, "lat": 38.990943666666666, "bike_id": "1da32e7f5120e930e41d617483d2892f", "type": "electric_bike", "is_reserved": 0, "lon": -76.99374483333334}, {"fusion_lat": 0.0, "name": "9af7a4fdd4c8bd3089343fb7a056c3b7", "is_disabled": 0, "rental_uris": {"android": "https://dc.lft.to/lastmile_qr_scan", "ios": "https://dc.lft.to/lastmile_qr_scan"}, "fusion_lon": 0.0, "lat": 38.909782666666665, "bike_id": "9af7a4fdd4c8bd3089343fb7a056c3b7", "type": "electric_scooter", "is_reserved": 0, "lon": -77.04870166666667}, {"fusion_lat": 0.0, "name": "12f22f5ab934b245f8de4a04b5978967", "is_disabled": 0, "rental_uris": {"android": "https://dc.lft.to/lastmile_qr_scan", "ios": "https://dc.lft.to/lastmile_qr_scan"}, "fusion_lon": 0.0, "lat": 38.8989845, "bike_id": "12f22f5ab934b245f8de4a04b5978967", "type": "electric_bike", "is_reserved": 0, "lon": -77.0961715}, {"fusion_lat": 0.0, "name": "3c0edfeeb420c4c5513f2ecca99dfed8", "is_disabled": 0, "rental_uris": {"android": "https://dc.lft.to/lastmile_qr_scan", "ios": "https://dc.lft.to/lastmile_qr_scan"}, "fusion_lon": 0.0, "lat": 38.9070475, "bike_id": "3c0edfeeb420c4c5513f2ecca99dfed8", "type": "electric_scooter", "is_reserved": 0, "lon": -76.98693883333334}, {"fusion_lat": 0.0, "name": "d9357c4b54ff0659bd067076ad981b84", "is_disabled": 0, "rental_uris": {"android": "https://dc.lft.to/lastmile_qr_scan", "ios": "https://dc.lft.to/lastmile_qr_scan"}, "fusion_lon": 0.0, "lat": 38.91258366666667, "bike_id": "d9357c4b54ff0659bd067076ad981b84", "type": "electric_scooter", "is_reserved": 0, "lon": -77.00297916666666}, {"fusion_lat": 0.0, "name": "8bdb296f2da0094b30df74aced9f67d1", "is_disabled": 0, "rental_uris": {"android": "https://dc.lft.to/lastmile_qr_scan", "ios": "https://dc.lft.to/lastmile_qr_scan"}, "fusion_lon": 0.0, "lat": 38.871770833333336, "bike_id": "8bdb296f2da0094b30df74aced9f67d1", "type": "electric_scooter", "is_reserved": 0, "lon": -77.0061345}, {"fusion_lat": 0.0, "name": "51ddd9fc885accc3aeb0ec37b7141052", "is_disabled": 0, "rental_uris": {"android": "https://dc.lft.to/lastmile_qr_scan", "ios": "https://dc.lft.to/lastmile_qr_scan"}, "fusion_lon": 0.0, "lat": 38.892591333333336, "bike_id": "51ddd9fc885accc3aeb0ec37b7141052", "type": "electric_bike", "is_reserved": 0, "lon": -76.95118883333333}, {"fusion_lat": 0.0, "name": "a107207c806c3b2e1e41c87970551272", "is_disabled": 0, "rental_uris": {"android": "https://dc.lft.to/lastmile_qr_scan", "ios": "https://dc.lft.to/lastmile_qr_scan"}, "fusion_lon": 0.0, "lat": 38.9524345, "bike_id": "a107207c806c3b2e1e41c87970551272", "type": "electric_scooter", "is_reserved": 0, "lon": -77.02377466666667}, {"fusion_lat": 0.0, "name": "a5b91903297bd751be4316e7611f1029", "is_disabled": 0, "rental_uris": {"android": "https://dc.lft.to/lastmile_qr_scan", "ios": "https://dc.lft.to/lastmile_qr_scan"}, "fusion_lon": 0.0, "lat": 38.90034833333333, "bike_id": "a5b91903297bd751be4316e7611f1029", "type": "electric_scooter", "is_reserved": 0, "lon": -77.03510016666667}, {"fusion_lat": 0.0, "name": "94d5a78a07aa884d71d9fbc6bf94ef64", "is_disabled": 0, "rental_uris": {"android": "https://dc.lft.to/lastmile_qr_scan", "ios": "https://dc.lft.to/lastmile_qr_scan"}, "fusion_lon": 0.0, "lat": 38.875437833333336, "bike_id": "94d5a78a07aa884d71d9fbc6bf94ef64", "type": "electric_scooter", "is_reserved": 0, "lon": -77.00536233333334}, {"fusion_lat": 0.0, "name": "aa44cec8f9e7598d7781c8940154ae22", "is_disabled": 0, "rental_uris": {"android": "https://dc.lft.to/lastmile_qr_scan", "ios": "https://dc.lft.to/lastmile_qr_scan"}, "fusion_lon": 0.0, "lat": 38.90569266666667, "bike_id": "aa44cec8f9e7598d7781c8940154ae22", "type": "electric_scooter", "is_reserved": 0, "lon": -77.01970366666667}, {"fusion_lat": 0.0, "name": "fdb4d4a9a51e1a0c0527507ed21ce71d", "is_disabled": 0, "rental_uris": {"android": "https://dc.lft.to/lastmile_qr_scan", "ios": "https://dc.lft.to/lastmile_qr_scan"}, "fusion_lon": 0.0, "lat": 38.91528533333333, "bike_id": "fdb4d4a9a51e1a0c0527507ed21ce71d", "type": "electric_scooter", "is_reserved": 0, "lon": -77.0184455}, {"fusion_lat": 0.0, "name": "6e6e8e60ea60af4f4a840927b9b0487d", "is_disabled": 0, "rental_uris": {"android": "https://dc.lft.to/lastmile_qr_scan", "ios": "https://dc.lft.to/lastmile_qr_scan"}, "fusion_lon": 0.0, "lat": 38.896311, "bike_id": "6e6e8e60ea60af4f4a840927b9b0487d", "type": "electric_scooter", "is_reserved": 0, "lon": -77.02662333333333}, {"fusion_lat": 0.0, "name": "6f3ee256d5376ade04d59a533871bbf9", "is_disabled": 0, "rental_uris": {"android": "https://dc.lft.to/lastmile_qr_scan", "ios": "https://dc.lft.to/lastmile_qr_scan"}, "fusion_lon": 0.0, "lat": 38.88335416666666, "bike_id": "6f3ee256d5376ade04d59a533871bbf9", "type": "electric_scooter", "is_reserved": 0, "lon": -77.01737466666667}, {"fusion_lat": 0.0, "name": "0656e53424fc38616469b46b729735c9", "is_disabled": 0, "rental_uris": {"android": "https://dc.lft.to/lastmile_qr_scan", "ios": "https://dc.lft.to/lastmile_qr_scan"}, "fusion_lon": 0.0, "lat": 38.96731033333333, "bike_id": "0656e53424fc38616469b46b729735c9", "type": "electric_scooter", "is_reserved": 0, "lon": -77.00919416666666}, {"fusion_lat": 0.0, "name": "0f1c6e721b937be07d88017ead9e2fdd", "is_disabled": 0, "rental_uris": {"android": "https://dc.lft.to/lastmile_qr_scan", "ios": "https://dc.lft.to/lastmile_qr_scan"}, "fusion_lon": 0.0, "lat": 38.905207833333336, "bike_id": "0f1c6e721b937be07d88017ead9e2fdd", "type": "electric_scooter", "is_reserved": 0, "lon": -77.06384066666666}, {"fusion_lat": 0.0, "name": "1707bf3954d494009a89584fa860a71a", "is_disabled": 0, "rental_uris": {"android": "https://dc.lft.to/lastmile_qr_scan", "ios": "https://dc.lft.to/lastmile_qr_scan"}, "fusion_lon": 0.0, "lat": 38.91921116666666, "bike_id": "1707bf3954d494009a89584fa860a71a", "type": "electric_scooter", "is_reserved": 0, "lon": -77.02612666666667}, {"fusion_lat": 0.0, "name": "cd09c5c90b650a6fcdd856492add31c2", "is_disabled": 0, "rental_uris": {"android": "https://dc.lft.to/lastmile_qr_scan", "ios": "https://dc.lft.to/lastmile_qr_scan"}, "fusion_lon": 0.0, "lat": 38.9349085, "bike_id": "cd09c5c90b650a6fcdd856492add31c2", "type": "electric_scooter", "is_reserved": 0, "lon": -77.04530183333334}, {"fusion_lat": 0.0, "name": "08d68aafc9598c56da2cd8da40121ddf", "is_disabled": 0, "rental_uris": {"android": "https://dc.lft.to/lastmile_qr_scan", "ios": "https://dc.lft.to/lastmile_qr_scan"}, "fusion_lon": 0.0, "lat": 38.958715833333336, "bike_id": "08d68aafc9598c56da2cd8da40121ddf", "type": "electric_bike", "is_reserved": 0, "lon": -77.00137116666667}, {"fusion_lat": 0.0, "name": "1cb22fe5cc04cdc1cf46cc747b56db48", "is_disabled": 0, "rental_uris": {"android": "https://dc.lft.to/lastmile_qr_scan", "ios": "https://dc.lft.to/lastmile_qr_scan"}, "fusion_lon": 0.0, "lat": 38.923314833333336, "bike_id": "1cb22fe5cc04cdc1cf46cc747b56db48", "type": "electric_scooter", "is_reserved": 0, "lon": -77.02046133333333}, {"fusion_lat": 0.0, "name": "0abfd4d9dd4dcb8f90b40af2966dc749", "is_disabled": 0, "rental_uris": {"android": "https://dc.lft.to/lastmile_qr_scan", "ios": "https://dc.lft.to/lastmile_qr_scan"}, "fusion_lon": 0.0, "lat": 38.900238333333334, "bike_id": "0abfd4d9dd4dcb8f90b40af2966dc749", "type": "electric_scooter", "is_reserved": 0, "lon": -76.98794133333334}, {"fusion_lat": 0.0, "name": "ab58a04e9c336b84dd41afe041f3ba85", "is_disabled": 0, "rental_uris": {"android": "https://dc.lft.to/lastmile_qr_scan", "ios": "https://dc.lft.to/lastmile_qr_scan"}, "fusion_lon": 0.0, "lat": 38.93611466666667, "bike_id": "ab58a04e9c336b84dd41afe041f3ba85", "type": "electric_scooter", "is_reserved": 0, "lon": -77.05855083333333}, {"fusion_lat": 0.0, "name": "fde56a8cf5e79859da63bd7a3002d770", "is_disabled": 0, "rental_uris": {"android": "https://dc.lft.to/lastmile_qr_scan", "ios": "https://dc.lft.to/lastmile_qr_scan"}, "fusion_lon": 0.0, "lat": 38.9192095, "bike_id": "fde56a8cf5e79859da63bd7a3002d770", "type": "electric_scooter", "is_reserved": 0, "lon": -77.02197983333333}, {"fusion_lat": 0.0, "name": "46290cd9086e79e37315fc6fadf121cb", "is_disabled": 0, "rental_uris": {"android": "https://dc.lft.to/lastmile_qr_scan", "ios": "https://dc.lft.to/lastmile_qr_scan"}, "fusion_lon": 0.0, "lat": 38.893510666666664, "bike_id": "46290cd9086e79e37315fc6fadf121cb", "type": "electric_bike", "is_reserved": 0, "lon": -77.18737383333334}, {"fusion_lat": 0.0, "name": "d593d4d3e0942e095e79d25d2f94c1a2", "is_disabled": 0, "rental_uris": {"android": "https://dc.lft.to/lastmile_qr_scan", "ios": "https://dc.lft.to/lastmile_qr_scan"}, "fusion_lon": 0.0, "lat": 38.91524883333334, "bike_id": "d593d4d3e0942e095e79d25d2f94c1a2", "type": "electric_scooter", "is_reserved": 0, "lon": -77.07273133333334},