{"data": {"bikes": [{"lon": -76.97303583333333, "bike_id": "31d76263a793aec2d052a43d9c4596b2", "lat": 38.91650416666667, "fusion_lon": 0.0, "fusion_lat": 0.0, "type": "electric_bike", "name": "31d76263a793aec2d052a43d9c4596b2", "is_disabled": 0, "rental_uris": {"ios": "https://dc.lft.to/lastmile_qr_scan", "android": "https://dc.lft.to/lastmile_qr_scan"}, "is_reserved": 0}, {"lon": -77.00891766666666, "bike_id": "0be754deec94389e817ca51b2b734b7a", "lat": 38.92275216666667, "fusion_lon": 0.0, "fusion_lat": 0.0, "type": "electric_scooter", "name": "0be754deec94389e817ca51b2b734b7a", "is_disabled": 0, "rental_uris": {"ios": "https://dc.lft.to/lastmile_qr_scan", "android": "https://dc.lft.to/lastmile_qr_scan"}, "is_reserved": 0}, {"lon": -77.00102216666667, "bike_id": "60b78743b3beb276bbe18b54bffa624c", "lat": 38.912415, "fusion_lon": 0.0, "fusion_lat": 0.0, "type": "electric_scooter", "name": "60b78743b3beb276bbe18b54bffa624c", "is_disabled": 0, "rental_uris": {"ios": "https://dc.lft.to/lastmile_qr_scan", "android": "https://dc.lft.to/lastmile_qr_scan"}, "is_reserved": 0}, {"lon": -77.0315595, "bike_id": "261a785e8975054ecb1ae09c57cccbed", "lat": 38.917052, "fusion_lon": 0.0, "fusion_lat": 0.0, "type": "electric_scooter", "name": "261a785e8975054ecb1ae09c57cccbed", "is_disabled": 0, "rental_uris": {"ios": "https://dc.lft.to/lastmile_qr_scan", "android": "https://dc.lft.to/lastmile_qr_scan"}, "is_reserved": 0}, {"lon": -77.027994, "bike_id": "ec49237e904e00021aad916f78222e2a", "lat": 38.929657166666665, "fusion_lon": 0.0, "fusion_lat": 0.0, "type": "electric_scooter", "name": "ec49237e904e00021aad916f78222e2a", "is_disabled": 0, "rental_uris": {"ios": "https://dc.lft.to/lastmile_qr_scan", "android": "https://dc.lft.to/lastmile_qr_scan"}, "is_reserved": 0}, {"lon": -77.0269695, "bike_id": "e093d8603bbc8c73fed0fa03250af970", "lat": 38.908423, "fusion_lon": 0.0, "fusion_lat": 0.0, "type": "electric_scooter", "name": "e093d8603bbc8c73fed0fa03250af970", "is_disabled": 0, "rental_uris": {"ios": "https://dc.lft.to/lastmile_qr_scan", "android": "https://dc.lft.to/lastmile_qr_scan"}, "is_reserved": 0}, {"lon": -77.23329766666667, "bike_id": "71d025909be11ffcce6b1947b4d534de", "lat": 38.87274433333333, "fusion_lon": 0.0, "fusion_lat": 0.0, "type": "electric_bike", "name": "71d025909be11ffcce6b1947b4d534de", "is_disabled": 0, "rental_uris": {"ios": "https://dc.lft.to/lastmile_qr_scan", "android": "https://dc.lft.to/lastmile_qr_scan"}, "is_reserved": 0}, {"lon": -76.98522033333333, "bike_id": "3c3d6449f8646b524a341cb764b9e4cd", "lat": 38.86682883333334, "fusion_lon": 0.0, "fusion_lat": 0.0, "type": "electric_scooter", "name": "3c3d6449f8646b524a341cb764b9e4cd", "is_disabled": 0, "rental_uris": {"ios": "https://dc.lft.to/lastmile_qr_scan", "android": "https://dc.lft.to/lastmile_qr_scan"}, "is_reserved": 0}, {"lon": -77.03070833333334, "bike_id": "9cbbdd9cc89f99023c4d87b2bd4c3732", "lat": 38.8839585, "fusion_lon": 0.0, "fusion_lat": 0.0, "type": "electric_scooter", "name": "9cbbdd9cc89f99023c4d87b2bd4c3732", "is_disabled": 0, "rental_uris": {"ios": "https://dc.lft.to/lastmile_qr_scan", "android": "https://dc.lft.to/lastmile_qr_scan"}, "is_reserved": 0}, {"lon": -77.0398095, "bike_id": "064bc378c3ad301590c484aab9e8aa1c", "lat": 38.92809233333333, "fusion_lon": 0.0, "fusion_lat": 0.0, "type": "electric_scooter", "name": "064bc378c3ad301590c484aab9e8aa1c", "is_disabled": 0, "rental_uris": {"ios": "https://dc.lft.to/lastmile_qr_scan", "android": "https://dc.lft.to/lastmile_qr_scan"}, "is_reserved": 0}, {"lon": -77.031835, "bike_id": "54f7ce89b45169f99fe131f27ce60562", "lat": 38.903483333333334, "fusion_lon": 0.0, "fusion_lat": 0.0, "type": "electric_scooter", "name": "54f7ce89b45169f99fe131f27ce60562", "is_disabled": 0, "rental_uris": {"ios": "https://dc.lft.to/lastmile_qr_scan", "android": "https://dc.lft.to/lastmile_qr_scan"}, "is_reserved": 0}, {"lon": -77.03854333333334, "bike_id": "325718b6bef34d360da45ef9710e2efe", "lat": 38.916657666666666, "fusion_lon": 0.0, "fusion_lat": 0.0, "type": "electric_scooter", "name": "325718b6bef34d360da45ef9710e2efe", "is_disabled": 0, "rental_uris": {"ios": "https://dc.lft.to/lastmile_qr_scan", "android": "https://dc.lft.to/lastmile_qr_scan"}, "is_reserved": 0}, {"lon": -77.02542633333333, "bike_id": "1d1236df38643adeda65ae1b8109b05a", "lat": 38.907201666666666, "fusion_lon": 0.0, "fusion_lat": 0.0, "type": "electric_scooter", "name": "1d1236df38643adeda65ae1b8109b05a", "is_disabled": 0, "rental_uris": {"ios": "https://dc.lft.to/lastmile_qr_scan", "android": "https://dc.lft.to/lastmile_qr_scan"}, "is_reserved": 0}, {"lon": -76.95003933333334, "bike_id": "12b712c9bba7d932cc3f194dbe936e5e", "lat": 38.893849833333334, "fusion_lon": 0.0, "fusion_lat": 0.0, "type": "electric_scooter", "name": "12b712c9bba7d932cc3f194dbe936e5e", "is_disabled": 0, "rental_uris": {"ios": "https://dc.lft.to/lastmile_qr_scan", "android": "https://dc.lft.to/lastmile_qr_scan"}, "is_reserved": 0}, {"lon": -76.994501, "bike_id": "c63c61c9e98785f6471f81083dc2cc29", "lat": 38.86280683333333, "fusion_lon": 0.0, "fusion_lat": 0.0, "type": "electric_scooter", "name": "c63c61c9e98785f6471f81083dc2cc29", "is_disabled": 0, "rental_uris": {"ios": "https://dc.lft.to/lastmile_qr_scan", "android": "https://dc.lft.to/lastmile_qr_scan"}, "is_reserved": 0}, {"lon": -77.03193733333333, "bike_id": "ea8d264d911720c149d34aac20505672", "lat": 38.911822, "fusion_lon": 0.0, "fusion_lat": 0.0, "type": "electric_bike", "name": "ea8d264d911720c149d34aac20505672", "is_disabled": 0, "rental_uris": {"ios": "https://dc.lft.to/lastmile_qr_scan", "android": "https://dc.lft.to/lastmile_qr_scan"}, "is_reserved": 0}, {"lon": -76.96541833333333, "bike_id": "c76c6695856cff59935d9aa1ae793835", "lat": 38.91841083333333, "fusion_lon": 0.0, "fusion_lat": 0.0, "type": "electric_scooter", "name": "c76c6695856cff59935d9aa1ae793835", "is_disabled": 0, "rental_uris": {"ios": "https://dc.lft.to/lastmile_qr_scan", "android": "https://dc.lft.to/lastmile_qr_scan"}, "is_reserved": 0}, {"lon": -76.98883666666667, "bike_id": "be701b6f3fbe9845180a96bebea649fd", "lat": 38.866618, "fusion_lon": 0.0, "fusion_lat": 0.0, "type": "electric_scooter", "name": "be701b6f3fbe9845180a96bebea649fd", "is_disabled": 0, "rental_uris": {"ios": "https://dc.lft.to/lastmile_qr_scan", "android": "https://dc.lft.to/lastmile_qr_scan"}, "is_reserved": 0}, {"lon": -77.08186566666667, "bike_id": "944e119d0d462e6ec4dbebba4d69d90b", "lat": 38.922086666666665, "fusion_lon": 0.0, "fusion_lat": 0.0, "type": "electric_bike", "name": "944e119d0d462e6ec4dbebba4d69d90b", "is_disabled": 0, "rental_uris": {"ios": "https://dc.lft.to/lastmile_qr_scan", "android": "https://dc.lft.to/lastmile_qr_scan"}, "is_reserved": 0}, {"lon": -77.04121716666667, "bike_id": "e665cad17523b6a9f199a95518473301", "lat": 38.944112, "fusion_lon": 0.0, "fusion_lat": 0.0, "type": "electric_bike", "name": "e665cad17523b6a9f199a95518473301", "is_disabled": 0, "rental_uris": {"ios": "https://dc.lft.to/lastmile_qr_scan", "android": "https://dc.lft.to/lastmile_qr_scan"}, "is_reserved": 0}, {"lon": -77.02269466666667, "bike_id": "b49d9fb00fa384e2931b7bf8fa8a2701", "lat": 38.912668833333335, "fusion_lon": 0.0, "fusion_lat": 0.0, "type": "electric_scooter", "name": "b49d9fb00fa384e2931b7bf8fa8a2701", "is_disabled": 0, "rental_uris": {"ios": "https://dc.lft.to/lastmile_qr_scan", "android": "https://dc.lft.to/lastmile_qr_scan"}, "is_reserved": 0}, {"lon": -77.006723, "bike_id": "c629f8d4a7ea0e7c3db3d9b23aceba42", "lat": 38.945085666666664, "fusion_lon": 0.0, "fusion_lat": 0.0, "type": "electric_bike", "name": "c629f8d4a7ea0e7c3db3d9b23aceba42", "is_disabled": 0, "rental_uris": {"ios": "https://dc.lft.to/lastmile_qr_scan", "android": "https://dc.lft.to/lastmile_qr_scan"}, "is_reserved": 0}, {"lon": -76.9975575, "bike_id": "441c647fecea121ac49727a37ff888d9", "lat": 38.900450666666664, "fusion_lon": 0.0, "fusion_lat": 0.0, "type": "electric_scooter", "name": "441c647fecea121ac49727a37ff888d9", "is_disabled": 0, "rental_uris": {"ios": "https://dc.lft.to/lastmile_qr_scan", "android": "https://dc.lft.to/lastmile_qr_scan"}, "is_reserved": 0}, {"lon": -77.0381385, "bike_id": "ff2a14399c8801be6059040807580910", "lat": 38.92072133333333, "fusion_lon": 0.0, "fusion_lat": 0.0, "type": "electric_scooter", "name": "ff2a14399c8801be6059040807580910", "is_disabled": 0, "rental_uris": {"ios": "https://dc.lft.to/lastmile_qr_scan", "android": "https://dc.lft.to/lastmile_qr_scan"}, "is_reserved": 0}, {"lon": -77.03639516666667, "bike_id": "8fdab97606e27c9b5df466f903f28acb", "lat": 38.90558983333333, "fusion_lon": 0.0, "fusion_lat": 0.0, "type": "electric_scooter", "name": "8fdab97606e27c9b5df466f903f28acb", "is_disabled": 0, "rental_uris": {"ios": "https://dc.lft.to/lastmile_qr_scan", "android": "https://dc.lft.to/lastmile_qr_scan"}, "is_reserved": 0}, {"lon": -77.03215233333333, "bike_id": "6cdb7940a27fa97f940516d93879981d", "lat": 38.917093, "fusion_lon": 0.0, "fusion_lat": 0.0, "type": "electric_scooter", "name": "6cdb7940a27fa97f940516d93879981d", "is_disabled": 0, "rental_uris": {"ios": "https://dc.lft.to/lastmile_qr_scan", "android": "https://dc.lft.to/lastmile_qr_scan"}, "is_reserved": 0}, {"lon": -77.017626, "bike_id": "9f0a35e84d84ed67068edb0ad84ecac0", "lat": 38.8859785, "fusion_lon": 0.0, "fusion_lat": 0.0, "type": "electric_scooter", "name": "9f0a35e84d84ed67068edb0ad84ecac0", "is_disabled": 0, "rental_uris": {"ios": "https://dc.lft.to/lastmile_qr_scan", "android": "https://dc.lft.to/lastmile_qr_scan"}, "is_reserved": 0}, {"lon": -77.0400625, "bike_id": "890cf35e8bb2e8666cdeba735b4ec85e", "lat": 38.93305733333333, "fusion_lon": 0.0, "fusion_lat": 0.0, "type": "electric_scooter", "name": "890cf35e8bb2e8666cdeba735b4ec85e", "is_disabled": 0, "rental_uris": {"ios": "https://dc.lft.to/lastmile_qr_scan", "android": "https://dc.lft.to/lastmile_qr_scan"}, "is_reserved": 0}, {"lon": -77.043386, "bike_id": "72c9d764bfc88d1fb8204a6e56b245cb", "lat": 38.929665, "fusion_lon": 0.0, "fusion_lat": 0.0, "type": "electric_scooter", "name": "72c9d764bfc88d1fb8204a6e56b245cb", "is_disabled": 0, "rental_uris": {"ios": "https://dc.lft.to/lastmile_qr_scan", "android": "https://dc.lft.to/lastmile_qr_scan"}, "is_reserved": 0}, {"lon": -76.9836735, "bike_id": "2970234ebabd7ffa93d9a92546d0f59d", "lat": 38.899771, "fusion_lon": 0.0, "fusion_lat": 0.0, "type": "electric_scooter", "name": "2970234ebabd7ffa93d9a92546d0f59d", "is_disabled": 0, "rental_uris": {"ios": "https://dc.lft.to/lastmile_qr_scan", "android": "https://dc.lft.to/lastmile_qr_scan"}, "is_reserved": 0}, {"lon": -77.03181366666666, "bike_id": "c2e915262d311eba06d8cb23e1a9c580", "lat": 38.887361166666665, "fusion_lon": 0.0, "fusion_lat": 0.0, "type": "electric_scooter", "name": "c2e915262d311eba06d8cb23e1a9c580", "is_disabled": 0, "rental_uris": {"ios": "https://dc.lft.to/lastmile_qr_scan", "android": "https://dc.lft.to/lastmile_qr_scan"}, "is_reserved": 0}, {"lon": -77.02294283333333, "bike_id": "5fa64ba6cd03fe34d97529e58c8ae0f8", "lat": 38.909717666666666, "fusion_lon": 0.0, "fusion_lat": 0.0, "type": "electric_scooter", "name": "5fa64ba6cd03fe34d97529e58c8ae0f8", "is_disabled": 0, "rental_uris": {"ios": "https://dc.lft.to/lastmile_qr_scan", "android": "https://dc.lft.to/lastmile_qr_scan"}, "is_reserved": 0}, {"lon": -77.03206633333333, "bike_id": "4a59581172b77ee9e85d152d61b3e349", "lat": 38.911771, "fusion_lon": 0.0, "fusion_lat": 0.0, "type": "electric_scooter", "name": "4a59581172b77ee9e85d152d61b3e349", "is_disabled": 0, "rental_uris": {"ios": "https://dc.lft.to/lastmile_qr_scan", "android": "https://dc.lft.to/lastmile_qr_scan"}, "is_reserved": 0}, {"lon": -77.02701233333333, "bike_id": "fa62ace43ab5e80d2b3e8265a8be84f3", "lat": 38.9062335, "fusion_lon": 0.0, "fusion_lat": 0.0, "type": "electric_scooter", "name": "fa62ace43ab5e80d2b3e8265a8be84f3", "is_disabled": 0, "rental_uris": {"ios": "https://dc.lft.to/lastmile_qr_scan", "android": "https://dc.lft.to/lastmile_qr_scan"}, "is_reserved": 0}, {"lon": -76.93366233333333, "bike_id": "a26c9ef215014671706c08f1af8d9612", "lat": 38.89913466666667, "fusion_lon": 0.0, "fusion_lat": 0.0, "type": "electric_scooter", "name": "a26c9ef215014671706c08f1af8d9612", "is_disabled": 0, "rental_uris": {"ios": "https://dc.lft.to/lastmile_qr_scan", "android": "https://dc.lft.to/lastmile_qr_scan"}, "is_reserved": 0}, {"lon": -77.02973016666667, "bike_id": "67d2f08dd2b1b4d5d80b64eadae225e4", "lat": 38.9327745, "fusion_lon": 0.0, "fusion_lat": 0.0, "type": "electric_scooter", "name": "67d2f08dd2b1b4d5d80b64eadae225e4", "is_disabled": 0, "rental_uris": {"ios": "https://dc.lft.to/lastmile_qr_scan", "android": "https://dc.lft.to/lastmile_qr_scan"}, "is_reserved": 0}, {"lon": -77.07336533333333, "bike_id": "0003a168836a0171ec1c675e09e84c0e", "lat": 38.92503683333333, "fusion_lon": 0.0, "fusion_lat": 0.0, "type": "electric_bike", "name": "0003a168836a0171ec1c675e09e84c0e", "is_disabled": 0, "rental_uris": {"ios": "https://dc.lft.to/lastmile_qr_scan", "android": "https://dc.lft.to/lastmile_qr_scan"}, "is_reserved": 0}, {"lon": -77.02381883333334, "bike_id": "f673085c291b57e237f40af529a27407", "lat": 38.907295, "fusion_lon": 0.0, "fusion_lat": 0.0, "type": "electric_scooter", "name": "f673085c291b57e237f40af529a27407", "is_disabled": 0, "rental_uris": {"ios": "https://dc.lft.to/lastmile_qr_scan", "android": "https://dc.lft.to/lastmile_qr_scan"}, "is_reserved": 0}, {"lon": -77.039418, "bike_id": "cef8d350d626edfa8ea4e96ebecd4244", "lat": 38.93060583333333, "fusion_lon": 0.0, "fusion_lat": 0.0, "type": "electric_scooter", "name": "cef8d350d626edfa8ea4e96ebecd4244", "is_disabled": 0, "rental_uris": {"ios": "https://dc.lft.to/lastmile_qr_scan", "android": "https://dc.lft.to/lastmile_qr_scan"}, "is_reserved": 0}, {"lon": -77.03189533333334, "bike_id": "edf13a5159d57bb6ce49f2abe4d68e47", "lat": 38.911933833333336, "fusion_lon": 0.0, "fusion_lat": 0.0, "type": "electric_scooter", "name": "edf13a5159d57bb6ce49f2abe4d68e47", "is_disabled": 0, "rental_uris": {"ios": "https://dc.lft.to/lastmile_qr_scan", "android": "https://dc.lft.to/lastmile_qr_scan"}, "is_reserved": 0}, {"lon": -77.03868533333333, "bike_id": "a5f7afc58b36ab0ce136b6f361655471", "lat": 38.91267533333333, "fusion_lon": 0.0, "fusion_lat": 0.0, "type": "electric_scooter", "name": "a5f7afc58b36ab0ce136b6f361655471", "is_disabled": 0, "rental_uris": {"ios": "https://dc.lft.to/lastmile_qr_scan", "android": "https://dc.lft.to/lastmile_qr_scan"}, "is_reserved": 0}, {"lon": -77.0675095, "bike_id": "c847253b028b39fefbbc76efa65354dd", "lat": 38.903353833333334, "fusion_lon": 0.0, "fusion_lat": 0.0, "type": "electric_scooter", "name": "c847253b028b39fefbbc76efa65354dd", "is_disabled": 0, "rental_uris": {"ios": "https://dc.lft.to/lastmile_qr_scan", "android": "https://dc.lft.to/lastmile_qr_scan"}, "is_reserved": 0}, {"lon": -77.04341966666667, "bike_id": "f7bef964904c9d4ba7e4f4eb7641c91e", "lat": 38.911052166666664, "fusion_lon": 0.0, "fusion_lat": 0.0, "type": "electric_scooter", "name": "f7bef964904c9d4ba7e4f4eb7641c91e", "is_disabled": 0, "rental_uris": {"ios": "https://dc.lft.to/lastmile_qr_scan", "android": "https://dc.lft.to/lastmile_qr_scan"}, "is_reserved": 0}, {"lon": -77.02693333333333, "bike_id": "63072454e044f49ba0f075f073bbaa59", "lat": 38.9068215, "fusion_lon": 0.0, "fusion_lat": 0.0, "type": "electric_scooter", "name": "63072454e044f49ba0f075f073bbaa59", "is_disabled": 0, "rental_uris": {"ios": "https://dc.lft.to/lastmile_qr_scan", "android": "https://dc.lft.to/lastmile_qr_scan"}, "is_reserved": 0}, {"lon": -77.00330483333333, "bike_id": "7bc3179d8371b8054c88244256d21a72", "lat": 38.89726916666667, "fusion_lon": 0.0, "fusion_lat": 0.0, "type": "electric_scooter", "name": "7bc3179d8371b8054c88244256d21a72", "is_disabled": 0, "rental_uris": {"ios": "https://dc.lft.to/lastmile_qr_scan", "android": "https://dc.lft.to/lastmile_qr_scan"}, "is_reserved": 0}, {"lon": -77.02807616666666, "bike_id": "5e9b1b86126d23ddca6d4cafb0f81db5", "lat": 38.93080766666667, "fusion_lon": 0.0, "fusion_lat": 0.0, "type": "electric_scooter", "name": "5e9b1b86126d23ddca6d4cafb0f81db5", "is_disabled": 0, "rental_uris": {"ios": "https://dc.lft.to/lastmile_qr_scan", "android": "https://dc.lft.to/lastmile_qr_scan"}, "is_reserved": 0}, {"lon": -77.0277215, "bike_id": "7bfc50658239cd9ecc00072db4eb616f", "lat": 38.95425183333333, "fusion_lon": 0.0, "fusion_lat": 0.0, "type": "electric_scooter", "name": "7bfc50658239cd9ecc00072db4eb616f", "is_disabled": 0, "rental_uris": {"ios": "https://dc.lft.to/lastmile_qr_scan", "android": "https://dc.lft.to/lastmile_qr_scan"}, "is_reserved": 0}, {"lon": -77.094798, "bike_id": "4229f1d22d40d0a21be895f6b9ea036c", "lat": 38.80752966666667, "fusion_lon": 0.0, "fusion_lat": 0.0, "type": "electric_bike", "name": "4229f1d22d40d0a21be895f6b9ea036c", "is_disabled": 0, "rental_uris": {"ios": "https://dc.lft.to/lastmile_qr_scan", "android": "https://dc.lft.to/lastmile_qr_scan"}, "is_reserved": 0}, {"lon": -76.98084633333333, "bike_id": "99a7f4d56289d60f78de899fbf2fe0d5", "lat": 38.90703583333333, "fusion_lon": 0.0, "fusion_lat": 0.0, "type": "electric_scooter", "name": "99a7f4d56289d60f78de899fbf2fe0d5", "is_disabled": 0, "rental_uris": {"ios": "https://dc.lft.to/lastmile_qr_scan", "android": "https://dc.lft.to/lastmile_qr_scan"}, "is_reserved": 0}, {"lon": -77.0235335, "bike_id": "a8cbb00f41faac2726a084be582eb5f0", "lat": 38.93349883333333, "fusion_lon": 0.0, "fusion_lat": 0.0, "type": "electric_bike", "name": "a8cbb00f41faac2726a084be582eb5f0", "is_disabled": 0, "rental_uris": {"ios": "https://dc.lft.to/lastmile_qr_scan", "android": "https://dc.lft.to/lastmile_qr_scan"}, "is_reserved": 0}, {"lon": -77.052393, "bike_id": "9625f00834b671b688318eab6f7359d2", "lat": 38.923412166666665, "fusion_lon": 0.0, "fusion_lat": 0.0, "type": "electric_scooter", "name": "9625f00834b671b688318eab6f7359d2", "is_disabled": 0, "rental_uris": {"ios": "https://dc.lft.to/lastmile_qr_scan", "android": "https://dc.lft.to/lastmile_qr_scan"}, "is_reserved": 0}, {"lon": -77.00523083333333, "bike_id": "43b739b8baa6f02942f41c9b10adbba4", "lat": 38.875452333333335, "fusion_lon": 0.0, "fusion_lat": 0.0, "type": "electric_scooter", "name": "43b739b8baa6f02942f41c9b10adbba4", "is_disabled": 0, "rental_uris": {"ios": "https://dc.lft.to/lastmile_qr_scan", "android": "https://dc.lft.to/lastmile_qr_scan"}, "is_reserved": 0}, {"lon": -77.03183166666666, "bike_id": "72ab90198290704a1e6dfab1c4509768", "lat": 38.899614166666666, "fusion_lon": 0.0, "fusion_lat": 0.0, "type": "electric_scooter", "name": "72ab90198290704a1e6dfab1c4509768", "is_disabled": 0, "rental_uris": {"ios": "https://dc.lft.to/lastmile_qr_scan", "android": "https://dc.lft.to/lastmile_qr_scan"}, "is_reserved": 0}, {"lon": -76.99006083333333, "bike_id": "404313069000a49cc8480aeca4b0aefb", "lat": 38.86502933333333, "fusion_lon": 0.0, "fusion_lat": 0.0, "type": "electric_scooter", "name": "404313069000a49cc8480aeca4b0aefb", "is_disabled": 0, "rental_uris": {"ios": "https://dc.lft.to/lastmile_qr_scan", "android": "https://dc.lft.to/lastmile_qr_scan"}, "is_reserved": 0}, {"lon": -77.04344316666666, "bike_id": "2cb0d4c2230cbe805c0574f5f9a4c373", "lat": 38.910605333333336, "fusion_lon": 0.0, "fusion_lat": 0.0, "type": "electric_scooter", "name": "2cb0d4c2230cbe805c0574f5f9a4c373", "is_disabled": 0, "rental_uris": {"ios": "https://dc.lft.to/lastmile_qr_scan", "android": "https://dc.lft.to/lastmile_qr_scan"}, "is_reserved": 0}, {"lon": -77.02280366666666, "bike_id": "9c22298da3a87133c680eb85f7e8ccaf", "lat": 38.909583833333336, "fusion_lon": 0.0, "fusion_lat": 0.0, "type": "electric_scooter", "name": "9c22298da3a87133c680eb85f7e8ccaf", "is_disabled": 0, "rental_uris": {"ios": "https://dc.lft.to/lastmile_qr_scan", "android": "https://dc.lft.to/lastmile_qr_scan"}, "is_reserved": 0}, {"lon": -76.99380733333334, "bike_id": "58d216e487a15c9400ea2443fab34df9", "lat": 38.923978, "fusion_lon": 0.0, "fusion_lat": 0.0, "type": "electric_scooter", "name": "58d216e487a15c9400ea2443fab34df9", "is_disabled": 0, "rental_uris": {"ios": "https://dc.lft.to/lastmile_qr_scan", "android": "https://dc.lft.to/lastmile_qr_scan"}, "is_reserved": 0}, {"lon": -77.0339715, "bike_id": "e29805623dbeac3de6947751678a9b3c", "lat": 38.905423166666665, "fusion_lon": 0.0, "fusion_lat": 0.0, "type": "electric_scooter", "name": "e29805623dbeac3de6947751678a9b3c", "is_disabled": 0, "rental_uris": {"ios": "https://dc.lft.to/lastmile_qr_scan", "android": "https://dc.lft.to/lastmile_qr_scan"}, "is_reserved": 0}, {"lon": -77.0332095, "bike_id": "ac3175aacca6bf3cf2a5f9933778994c", "lat": 38.93896066666667, "fusion_lon": 0.0, "fusion_lat": 0.0, "type": "electric_scooter", "name": "ac3175aacca6bf3cf2a5f9933778994c", "is_disabled": 0, "rental_uris": {"ios": "https://dc.lft.to/lastmile_qr_scan", "android": "https://dc.lft.to/lastmile_qr_scan"}, "is_reserved": 0}, {"lon": -77.0325895, "bike_id": "905252f3d1e2afca99161b3c9b7d3c26", "lat": 38.92848983333333, "fusion_lon": 0.0, "fusion_lat": 0.0, "type": "electric_scooter", "name": "905252f3d1e2afca99161b3c9b7d3c26", "is_disabled": 0, "rental_uris": {"ios": "https://dc.lft.to/lastmile_qr_scan", "android": "https://dc.lft.to/lastmile_qr_scan"}, "is_reserved": 0}, {"lon": -77.02303766666667, "bike_id": "837f2326c261609b5882f26158bde99c", "lat": 38.90907583333333, "fusion_lon": 0.0, "fusion_lat": 0.0, "type": "electric_bike", "name": "837f2326c261609b5882f26158bde99c", "is_disabled": 0, "rental_uris": {"ios": "https://dc.lft.to/lastmile_qr_scan", "android": "https://dc.lft.to/lastmile_qr_scan"}, "is_reserved": 0}, {"lon": -77.02132466666667, "bike_id": "4f0d9830b8b486210226f0ce1a48495b", "lat": 38.915478666666665, "fusion_lon": 0.0, "fusion_lat": 0.0, "type": "electric_scooter", "name": "4f0d9830b8b486210226f0ce1a48495b", "is_disabled": 0, "rental_uris": {"ios": "https://dc.lft.to/lastmile_qr_scan", "android": "https://dc.lft.to/lastmile_qr_scan"}, "is_reserved": 0}, {"lon": -77.04488933333333, "bike_id": "fced7aaa08e62a43ac5d9cb39447a3ed", "lat": 38.919309, "fusion_lon": 0.0, "fusion_lat": 0.0, "type": "electric_scooter", "name": "fced7aaa08e62a43ac5d9cb39447a3ed", "is_disabled": 0, "rental_uris": {"ios": "https://dc.lft.to/lastmile_qr_scan", "android": "https://dc.lft.to/lastmile_qr_scan"}, "is_reserved": 0}, {"lon": -77.046589, "bike_id": "b7e67c36cd9fa225048751e91c059f88", "lat": 38.91363333333334, "fusion_lon": 0.0, "fusion_lat": 0.0, "type": "electric_scooter", "name": "b7e67c36cd9fa225048751e91c059f88", "is_disabled": 0, "rental_uris": {"ios": "https://dc.lft.to/lastmile_qr_scan", "android": "https://dc.lft.to/lastmile_qr_scan"}, "is_reserved": 0}, {"lon": -77.083339, "bike_id": "edd3d8d453f9aa0c1b01e1efe19c7402", "lat": 38.85439183333333, "fusion_lon": 0.0, "fusion_lat": 0.0, "type": "electric_bike", "name": "edd3d8d453f9aa0c1b01e1efe19c7402", "is_disabled": 0, "rental_uris": {"ios": "https://dc.lft.to/lastmile_qr_scan", "android": "https://dc.lft.to/lastmile_qr_scan"}, "is_reserved": 0}, {"lon": -77.02981733333333, "bike_id": "b1a6b0dc8d496255bec9bfcb6ba43c75", "lat": 38.93499966666667, "fusion_lon": 0.0, "fusion_lat": 0.0, "type": "electric_scooter", "name": "b1a6b0dc8d496255bec9bfcb6ba43c75", "is_disabled": 0, "rental_uris": {"ios": "https://dc.lft.to/lastmile_qr_scan", "android": "https://dc.lft.to/lastmile_qr_scan"}, "is_reserved": 0}, {"lon": -77.0229905, "bike_id": "655d27557b467e2d38a252b723a03033", "lat": 38.90879, "fusion_lon": 0.0, "fusion_lat": 0.0, "type": "electric_scooter", "name": "655d27557b467e2d38a252b723a03033", "is_disabled": 0, "rental_uris": {"ios": "https://dc.lft.to/lastmile_qr_scan", "android": "https://dc.lft.to/lastmile_qr_scan"}, "is_reserved": 0}, {"lon": -77.024814, "bike_id": "eadbe3d75d5946558db03af726b92a6c", "lat": 38.9040325, "fusion_lon": 0.0, "fusion_lat": 0.0, "type": "electric_scooter", "name": "eadbe3d75d5946558db03af726b92a6c", "is_disabled": 0, "rental_uris": {"ios": "https://dc.lft.to/lastmile_qr_scan", "android": "https://dc.lft.to/lastmile_qr_scan"}, "is_reserved": 0}, {"lon": -76.97829116666666, "bike_id": "5d0c95bf902266893dce84e0a49df769", "lat": 38.843678833333335, "fusion_lon": 0.0, "fusion_lat": 0.0, "type": "electric_bike", "name": "5d0c95bf902266893dce84e0a49df769", "is_disabled": 0, "rental_uris": {"ios": "https://dc.lft.to/lastmile_qr_scan", "android": "https://dc.lft.to/lastmile_qr_scan"}, "is_reserved": 0}, {"lon": -77.00893816666667, "bike_id": "816d43e60a024c80203e31c2217f0d9c", "lat": 38.89986366666667, "fusion_lon": 0.0, "fusion_lat": 0.0, "type": "electric_scooter", "name": "816d43e60a024c80203e31c2217f0d9c", "is_disabled": 0, "rental_uris": {"ios": "https://dc.lft.to/lastmile_qr_scan", "android": "https://dc.lft.to/lastmile_qr_scan"}, "is_reserved": 0}, {"lon": -77.026089, "bike_id": "e7bc92ec2db49e77f185fda693690a31", "lat": 38.925814, "fusion_lon": 0.0, "fusion_lat": 0.0, "type": "electric_scooter", "name": "e7bc92ec2db49e77f185fda693690a31", "is_disabled": 0, "rental_uris": {"ios": "https://dc.lft.to/lastmile_qr_scan", "android": "https://dc.lft.to/lastmile_qr_scan"}, "is_reserved": 0}, {"lon": -77.02226816666666, "bike_id": "a27821a73d840658d966977b3049f147", "lat": 38.88741783333333, "fusion_lon": 0.0, "fusion_lat": 0.0, "type": "electric_scooter", "name": "a27821a73d840658d966977b3049f147", "is_disabled": 0, "rental_uris": {"ios": "https://dc.lft.to/lastmile_qr_scan", "android": "https://dc.lft.to/lastmile_qr_scan"}, "is_reserved": 0}, {"lon": -77.03585333333334, "bike_id": "a8eb3261250537f9cd7230eb70567f69", "lat": 38.992231, "fusion_lon": 0.0, "fusion_lat": 0.0, "type": "electric_scooter", "name": "a8eb3261250537f9cd7230eb70567f69", "is_disabled": 0, "rental_uris": {"ios": "https://dc.lft.to/lastmile_qr_scan", "android": "https://dc.lft.to/lastmile_qr_scan"}, "is_reserved": 0}, {"lon": -77.01723366666667, "bike_id": "a7a7953c49cfec999eea0dfe7fafa0d7", "lat": 38.90559366666667, "fusion_lon": 0.0, "fusion_lat": 0.0, "type": "electric_scooter", "name": "a7a7953c49cfec999eea0dfe7fafa0d7", "is_disabled": 0, "rental_uris": {"ios": "https://dc.lft.to/lastmile_qr_scan", "android": "https://dc.lft.to/lastmile_qr_scan"}, "is_reserved": 0}, {"lon": -77.0352305, "bike_id": "132e9e9cdf41035384d5030e1b6a417c", "lat": 38.92735616666667, "fusion_lon": 0.0, "fusion_lat": 0.0, "type": "electric_scooter", "name": "132e9e9cdf41035384d5030e1b6a417c", "is_disabled": 0, "rental_uris": {"ios": "https://dc.lft.to/lastmile_qr_scan", "android": "https://dc.lft.to/lastmile_qr_scan"}, "is_reserved": 0}, {"lon": -77.02533533333333, "bike_id": "519d9c73c74fb2e1b57947326b5affa5", "lat": 38.927451166666664, "fusion_lon": 0.0, "fusion_lat": 0.0, "type": "electric_scooter", "name": "519d9c73c74fb2e1b57947326b5affa5", "is_disabled": 0, "rental_uris": {"ios": "https://dc.lft.to/lastmile_qr_scan", "android": "https://dc.lft.to/lastmile_qr_scan"}, "is_reserved": 0}, {"lon": -77.01017733333333, "bike_id": "52843de236f6b744a2ff5cf92891f8e2", "lat": 38.89487033333333, "fusion_lon": 0.0, "fusion_lat": 0.0, "type": "electric_scooter", "name": "52843de236f6b744a2ff5cf92891f8e2", "is_disabled": 0, "rental_uris": {"ios": "https://dc.lft.to/lastmile_qr_scan", "android": "https://dc.lft.to/lastmile_qr_scan"}, "is_reserved": 0}, {"lon": -77.042296, "bike_id": "74548104dcb01690ae539f3a325cf298", "lat": 38.9170955, "fusion_lon": 0.0, "fusion_lat": 0.0, "type": "electric_scooter", "name": "74548104dcb01690ae539f3a325cf298", "is_disabled": 0, "rental_uris": {"ios": "https://dc.lft.to/lastmile_qr_scan", "android": "https://dc.lft.to/lastmile_qr_scan"}, "is_reserved": 0}, {"lon": -77.01914633333334, "bike_id": "4af9417e1e887864194fdd80732d2288", "lat": 38.886247833333336, "fusion_lon": 0.0, "fusion_lat": 0.0, "type": "electric_scooter", "name": "4af9417e1e887864194fdd80732d2288", "is_disabled": 0, "rental_uris": {"ios": "https://dc.lft.to/lastmile_qr_scan", "android": "https://dc.lft.to/lastmile_qr_scan"}, "is_reserved": 0}, {"lon": -76.99531916666666, "bike_id": "e5c7a675e79b33dc8bc1a7efadfe2048", "lat": 38.88375083333333, "fusion_lon": 0.0, "fusion_lat": 0.0, "type": "electric_scooter", "name": "e5c7a675e79b33dc8bc1a7efadfe2048", "is_disabled": 0, "rental_uris": {"ios": "https://dc.lft.to/lastmile_qr_scan", "android": "https://dc.lft.to/lastmile_qr_scan"}, "is_reserved": 0}, {"lon": -77.02630733333334, "bike_id": "f9a27f9cad346ecdb395d59c75e6cfac", "lat": 38.962272166666665, "fusion_lon": 0.0, "fusion_lat": 0.0, "type": "electric_bike", "name": "f9a27f9cad346ecdb395d59c75e6cfac", "is_disabled": 0, "rental_uris": {"ios": "https://dc.lft.to/lastmile_qr_scan", "android": "https://dc.lft.to/lastmile_qr_scan"}, "is_reserved": 0}, {"lon": -77.03429716666666, "bike_id": "47677377d63a8a5ea33d8690866e9012", "lat": 38.919307833333335, "fusion_lon": 0.0, "fusion_lat": 0.0, "type": "electric_scooter", "name": "47677377d63a8a5ea33d8690866e9012", "is_disabled": 0, "rental_uris": {"ios": "https://dc.lft.to/lastmile_qr_scan", "android": "https://dc.lft.to/lastmile_qr_scan"}, "is_reserved": 0}, {"lon": -77.02790633333333, "bike_id": "cc79c65eab2e2a8c38a231dbaa2202d2", "lat": 38.956797, "fusion_lon": 0.0, "fusion_lat": 0.0, "type": "electric_scooter", "name": "cc79c65eab2e2a8c38a231dbaa2202d2", "is_disabled": 0, "rental_uris": {"ios": "https://dc.lft.to/lastmile_qr_scan", "android": "https://dc.lft.to/lastmile_qr_scan"}, "is_reserved": 0}, {"lon": -77.05237116666666, "bike_id": "d630bb58a25966b15b29ccb8b90787ec", "lat": 38.92468383333333, "fusion_lon": 0.0, "fusion_lat": 0.0, "type": "electric_scooter", "name": "d630bb58a25966b15b29ccb8b90787ec", "is_disabled": 0, "rental_uris": {"ios": "https://dc.lft.to/lastmile_qr_scan", "android": "https://dc.lft.to/lastmile_qr_scan"}, "is_reserved": 0}, {"lon": -77.00307983333333, "bike_id": "20a0cff4162b05d5a0640182dd59346a", "lat": 38.907453333333336, "fusion_lon": 0.0, "fusion_lat": 0.0, "type": "electric_bike", "name": "20a0cff4162b05d5a0640182dd59346a", "is_disabled": 0, "rental_uris": {"ios": "https://dc.lft.to/lastmile_qr_scan", "android": "https://dc.lft.to/lastmile_qr_scan"}, "is_reserved": 0}, {"lon": -77.02270083333333, "bike_id": "c1b265f1b9521a01f4c3c0ed7b23ae1e", "lat": 38.93767733333333, "fusion_lon": 0.0, "fusion_lat": 0.0, "type": "electric_scooter", "name": "c1b265f1b9521a01f4c3c0ed7b23ae1e", "is_disabled": 0, "rental_uris": {"ios": "https://dc.lft.to/lastmile_qr_scan", "android": "https://dc.lft.to/lastmile_qr_scan"}, "is_reserved": 0}, {"lon": -77.045399, "bike_id": "1ff95eb33bbf204512b6ee9acc9a3816", "lat": 38.920520833333335, "fusion_lon": 0.0, "fusion_lat": 0.0, "type": "electric_scooter", "name": "1ff95eb33bbf204512b6ee9acc9a3816", "is_disabled": 0, "rental_uris": {"ios": "https://dc.lft.to/lastmile_qr_scan", "android": "https://dc.lft.to/lastmile_qr_scan"}, "is_reserved": 0}, {"lon": -77.04397633333333, "bike_id": "92d27a7061120c02dd98e72458619e5e", "lat": 38.90897483333333, "fusion_lon": 0.0, "fusion_lat": 0.0, "type": "electric_scooter", "name": "92d27a7061120c02dd98e72458619e5e", "is_disabled": 0, "rental_uris": {"ios": "https://dc.lft.to/lastmile_qr_scan", "android": "https://dc.lft.to/lastmile_qr_scan"}, "is_reserved": 0}, {"lon": -77.04253216666666, "bike_id": "1b47bb459102c018e89883775c87f27a", "lat": 38.926418, "fusion_lon": 0.0, "fusion_lat": 0.0, "type": "electric_scooter", "name": "1b47bb459102c018e89883775c87f27a", "is_disabled": 0, "rental_uris": {"ios": "https://dc.lft.to/lastmile_qr_scan", "android": "https://dc.lft.to/lastmile_qr_scan"}, "is_reserved": 0}, {"lon": -77.04585883333333, "bike_id": "1d40a3333de807b144c4a1e58f436c2d", "lat": 38.92129716666667, "fusion_lon": 0.0, "fusion_lat": 0.0, "type": "electric_scooter", "name": "1d40a3333de807b144c4a1e58f436c2d", "is_disabled": 0, "rental_uris": {"ios": "https://dc.lft.to/lastmile_qr_scan", "android": "https://dc.lft.to/lastmile_qr_scan"}, "is_reserved": 0}, {"lon": -77.052325, "bike_id": "0e59f60090b8f26097d942951de58f07", "lat": 38.92467233333333, "fusion_lon": 0.0, "fusion_lat": 0.0, "type": "electric_scooter", "name": "0e59f60090b8f26097d942951de58f07", "is_disabled": 0, "rental_uris": {"ios": "https://dc.lft.to/lastmile_qr_scan", "android": "https://dc.lft.to/lastmile_qr_scan"}, "is_reserved": 0}, {"lon": -77.04400866666667, "bike_id": "d7d7d32409a63a2d379e161446bb448f", "lat": 38.93321983333333, "fusion_lon": 0.0, "fusion_lat": 0.0, "type": "electric_scooter", "name": "d7d7d32409a63a2d379e161446bb448f", "is_disabled": 0, "rental_uris": {"ios": "https://dc.lft.to/lastmile_qr_scan", "android": "https://dc.lft.to/lastmile_qr_scan"}, "is_reserved": 0}, {"lon": -77.04174616666667, "bike_id": "0aea3516735e556d9a81dc3140f5e12a", "lat": 38.917299, "fusion_lon": 0.0, "fusion_lat": 0.0, "type": "electric_scooter", "name": "0aea3516735e556d9a81dc3140f5e12a", "is_disabled": 0, "rental_uris": {"ios": "https://dc.lft.to/lastmile_qr_scan", "android": "https://dc.lft.to/lastmile_qr_scan"}, "is_reserved": 0}, {"lon": -77.0147105, "bike_id": "824984d6d5d952fdcb5b7dfcd78009ff", "lat": 38.917667333333334, "fusion_lon": 0.0, "fusion_lat": 0.0, "type": "electric_scooter", "name": "824984d6d5d952fdcb5b7dfcd78009ff", "is_disabled": 0, "rental_uris": {"ios": "https://dc.lft.to/lastmile_qr_scan", "android": "https://dc.lft.to/lastmile_qr_scan"}, "is_reserved": 0}, {"lon": -77.03208466666666, "bike_id": "4e8615ae340a32854dd234bd4f2ed720", "lat": 38.917863, "fusion_lon": 0.0, "fusion_lat": 0.0, "type": "electric_scooter", "name": "4e8615ae340a32854dd234bd4f2ed720", "is_disabled": 0, "rental_uris": {"ios": "https://dc.lft.to/lastmile_qr_scan", "android": "https://dc.lft.to/lastmile_qr_scan"}, "is_reserved": 0}, {"lon": -77.01091416666667, "bike_id": "340ff9c3891cde3ad11cdcc7dc6ecae7", "lat": 38.9156205, "fusion_lon": 0.0, "fusion_lat": 0.0, "type": "electric_scooter", "name": "340ff9c3891cde3ad11cdcc7dc6ecae7", "is_disabled": 0, "rental_uris": {"ios": "https://dc.lft.to/lastmile_qr_scan", "android": "https://dc.lft.to/lastmile_qr_scan"}, "is_reserved": 0}, {"lon": -77.02733666666667, "bike_id": "cde69d5abf6d6386d98b43049ad017c5", "lat": 38.932073333333335, "fusion_lon": 0.0, "fusion_lat": 0.0, "type": "electric_scooter", "name": "cde69d5abf6d6386d98b43049ad017c5", "is_disabled": 0, "rental_uris": {"ios": "https://dc.lft.to/lastmile_qr_scan", "android": "https://dc.lft.to/lastmile_qr_scan"}, "is_reserved": 0}, {"lon": -77.02798383333334, "bike_id": "fec86fc2d92da1e2ceacdbbaa1ecb281", "lat": 38.92025983333333, "fusion_lon": 0.0, "fusion_lat": 0.0, "type": "electric_scooter", "name": "fec86fc2d92da1e2ceacdbbaa1ecb281", "is_disabled": 0, "rental_uris": {"ios": "https://dc.lft.to/lastmile_qr_scan", "android": "https://dc.lft.to/lastmile_qr_scan"}, "is_reserved": 0}, {"lon": -77.0775165, "bike_id": "422205226f58095b2ba8f4b76172b2d8", "lat": 38.841897833333334, "fusion_lon": 0.0, "fusion_lat": 0.0, "type": "electric_bike", "name": "422205226f58095b2ba8f4b76172b2d8", "is_disabled": 0, "rental_uris": {"ios": "https://dc.lft.to/lastmile_qr_scan", "android": "https://dc.lft.to/lastmile_qr_scan"}, "is_reserved": 0}, {"lon": -77.03638183333334, "bike_id": "f963475a3668b3fb03e9919dda1734b2", "lat": 38.92746066666667, "fusion_lon": 0.0, "fusion_lat": 0.0, "type": "electric_scooter", "name": "f963475a3668b3fb03e9919dda1734b2", "is_disabled": 0, "rental_uris": {"ios": "https://dc.lft.to/lastmile_qr_scan", "android": "https://dc.lft.to/lastmile_qr_scan"}, "is_reserved": 0}, {"lon": -77.02083633333334, "bike_id": "4111499229ff42963d22fd73efe92288", "lat": 38.900016, "fusion_lon": 0.0, "fusion_lat": 0.0, "type": "electric_scooter", "name": "4111499229ff42963d22fd73efe92288", "is_disabled": 0, "rental_uris": {"ios": "https://dc.lft.to/lastmile_qr_scan", "android": "https://dc.lft.to/lastmile_qr_scan"}, "is_reserved": 0}, {"lon": -77.034542, "bike_id": "308953b13b9432997c0cb23fae1f894c", "lat": 38.910117, "fusion_lon": 0.0, "fusion_lat": 0.0, "type": "electric_scooter", "name": "308953b13b9432997c0cb23fae1f894c", "is_disabled": 0, "rental_uris": {"ios": "https://dc.lft.to/lastmile_qr_scan", "android": "https://dc.lft.to/lastmile_qr_scan"}, "is_reserved": 0}, {"lon": -76.9803995, "bike_id": "af6899edb00ab7621b73a8094c1306c5", "lat": 38.88969316666667, "fusion_lon": 0.0, "fusion_lat": 0.0, "type": "electric_scooter", "name": "af6899edb00ab7621b73a8094c1306c5", "is_disabled": 0, "rental_uris": {"ios": "https://dc.lft.to/lastmile_qr_scan", "android": "https://dc.lft.to/lastmile_qr_scan"}, "is_reserved": 0}, {"lon": -77.02573883333334, "bike_id": "c928043677880ae4c079bda9b14a0aaf", "lat": 38.914129333333335, "fusion_lon": 0.0, "fusion_lat": 0.0, "type": "electric_scooter", "name": "c928043677880ae4c079bda9b14a0aaf", "is_disabled": 0, "rental_uris": {"ios": "https://dc.lft.to/lastmile_qr_scan", "android": "https://dc.lft.to/lastmile_qr_scan"}, "is_reserved": 0}, {"lon": -76.9834095, "bike_id": "66df0639fe95b4879a37f127af922d8a", "lat": 38.86642616666666, "fusion_lon": 0.0, "fusion_lat": 0.0, "type": "electric_scooter", "name": "66df0639fe95b4879a37f127af922d8a", "is_disabled": 0, "rental_uris": {"ios": "https://dc.lft.to/lastmile_qr_scan", "android": "https://dc.lft.to/lastmile_qr_scan"}, "is_reserved": 0}, {"lon": -76.9319085, "bike_id": "d37e50c164ec52dc3bcbbe57a422b2ea", "lat": 38.89876433333333, "fusion_lon": 0.0, "fusion_lat": 0.0, "type": "electric_scooter", "name": "d37e50c164ec52dc3bcbbe57a422b2ea", "is_disabled": 0, "rental_uris": {"ios": "https://dc.lft.to/lastmile_qr_scan", "android": "https://dc.lft.to/lastmile_qr_scan"}, "is_reserved": 0}, {"lon": -77.00372, "bike_id": "9f6dcb7a9a7b61b39af9deeb1acb0af3", "lat": 38.8974365, "fusion_lon": 0.0, "fusion_lat": 0.0, "type": "electric_scooter", "name": "9f6dcb7a9a7b61b39af9deeb1acb0af3", "is_disabled": 0, "rental_uris": {"ios": "https://dc.lft.to/lastmile_qr_scan", "android": "https://dc.lft.to/lastmile_qr_scan"}, "is_reserved": 0}, {"lon": -76.99509783333333, "bike_id": "beaa07f071766129d9f40a310c373fd0", "lat": 38.877714, "fusion_lon": 0.0, "fusion_lat": 0.0, "type": "electric_scooter", "name": "beaa07f071766129d9f40a310c373fd0", "is_disabled": 0, "rental_uris": {"ios": "https://dc.lft.to/lastmile_qr_scan", "android": "https://dc.lft.to/lastmile_qr_scan"}, "is_reserved": 0}, {"lon": -77.08000616666666, "bike_id": "2747b90b99cc19af8fd70efe7f65ca33", "lat": 38.964857333333335, "fusion_lon": 0.0, "fusion_lat": 0.0, "type": "electric_scooter", "name": "2747b90b99cc19af8fd70efe7f65ca33", "is_disabled": 0, "rental_uris": {"ios": "https://dc.lft.to/lastmile_qr_scan", "android": "https://dc.lft.to/lastmile_qr_scan"}, "is_reserved": 0}, {"lon": -76.94878066666666, "bike_id": "203c9a1b7e17b6ec39f5f098c1defeac", "lat": 38.8942615, "fusion_lon": 0.0, "fusion_lat": 0.0, "type": "electric_scooter", "name": "203c9a1b7e17b6ec39f5f098c1defeac", "is_disabled": 0, "rental_uris": {"ios": "https://dc.lft.to/lastmile_qr_scan", "android": "https://dc.lft.to/lastmile_qr_scan"}, "is_reserved": 0}, {"lon": -76.99624166666666, "bike_id": "96c4c0d29f42a65077458f2220a8a22e", "lat": 38.8880075, "fusion_lon": 0.0, "fusion_lat": 0.0, "type": "electric_scooter", "name": "96c4c0d29f42a65077458f2220a8a22e", "is_disabled": 0, "rental_uris": {"ios": "https://dc.lft.to/lastmile_qr_scan", "android": "https://dc.lft.to/lastmile_qr_scan"}, "is_reserved": 0}, {"lon": -77.01824066666667, "bike_id": "63d34b37302212a253c1c3d35ad960fb", "lat": 38.901269166666665, "fusion_lon": 0.0, "fusion_lat": 0.0, "type": "electric_scooter", "name": "63d34b37302212a253c1c3d35ad960fb", "is_disabled": 0, "rental_uris": {"ios": "https://dc.lft.to/lastmile_qr_scan", "android": "https://dc.lft.to/lastmile_qr_scan"}, "is_reserved": 0}, {"lon": -76.941186, "bike_id": "e4c91310cf61d99bc6c9d622d16703bf", "lat": 38.90817966666667, "fusion_lon": 0.0, "fusion_lat": 0.0, "type": "electric_scooter", "name": "e4c91310cf61d99bc6c9d622d16703bf", "is_disabled": 0, "rental_uris": {"ios": "https://dc.lft.to/lastmile_qr_scan", "android": "https://dc.lft.to/lastmile_qr_scan"}, "is_reserved": 0}, {"lon": -77.0441505, "bike_id": "d2c8efe1a1bad74415de2b24da2808d1", "lat": 38.91131716666666, "fusion_lon": 0.0, "fusion_lat": 0.0, "type": "electric_scooter", "name": "d2c8efe1a1bad74415de2b24da2808d1", "is_disabled": 0, "rental_uris": {"ios": "https://dc.lft.to/lastmile_qr_scan", "android": "https://dc.lft.to/lastmile_qr_scan"}, "is_reserved": 0}, {"lon": -77.04485033333333, "bike_id": "a371080e1a22800f2b8e1492930f1a73", "lat": 38.919282, "fusion_lon": 0.0, "fusion_lat": 0.0, "type": "electric_scooter", "name": "a371080e1a22800f2b8e1492930f1a73", "is_disabled": 0, "rental_uris": {"ios": "https://dc.lft.to/lastmile_qr_scan", "android": "https://dc.lft.to/lastmile_qr_scan"}, "is_reserved": 0}, {"lon": -77.017683, "bike_id": "040b8fb3b7e50ed0e4cb2e6753323e1b", "lat": 38.88741666666667, "fusion_lon": 0.0, "fusion_lat": 0.0, "type": "electric_scooter", "name": "040b8fb3b7e50ed0e4cb2e6753323e1b", "is_disabled": 0, "rental_uris": {"ios": "https://dc.lft.to/lastmile_qr_scan", "android": "https://dc.lft.to/lastmile_qr_scan"}, "is_reserved": 0}, {"lon": -77.0224705, "bike_id": "7e4c058fe500bab74db3ff5132d97aa0", "lat": 38.955309666666665, "fusion_lon": 0.0, "fusion_lat": 0.0, "type": "electric_scooter", "name": "7e4c058fe500bab74db3ff5132d97aa0", "is_disabled": 0, "rental_uris": {"ios": "https://dc.lft.to/lastmile_qr_scan", "android": "https://dc.lft.to/lastmile_qr_scan"}, "is_reserved": 0}, {"lon": -77.02693033333334, "bike_id": "e9c99c86abc354c9c944af30bb3dbf0d", "lat": 38.908407833333335, "fusion_lon": 0.0, "fusion_lat": 0.0, "type": "electric_scooter", "name": "e9c99c86abc354c9c944af30bb3dbf0d", "is_disabled": 0, "rental_uris": {"ios": "https://dc.lft.to/lastmile_qr_scan", "android": "https://dc.lft.to/lastmile_qr_scan"}, "is_reserved": 0}, {"lon": -76.99053433333333, "bike_id": "11a766d80d14f177a7d4ad7576908237", "lat": 38.863785, "fusion_lon": 0.0, "fusion_lat": 0.0, "type": "electric_scooter", "name": "11a766d80d14f177a7d4ad7576908237", "is_disabled": 0, "rental_uris": {"ios": "https://dc.lft.to/lastmile_qr_scan", "android": "https://dc.lft.to/lastmile_qr_scan"}, "is_reserved": 0}, {"lon": -77.0276985, "bike_id": "3359c479523fb0bd6f82dfaa1eb30c59", "lat": 38.892183833333334, "fusion_lon": 0.0, "fusion_lat": 0.0, "type": "electric_scooter", "name": "3359c479523fb0bd6f82dfaa1eb30c59", "is_disabled": 0, "rental_uris": {"ios": "https://dc.lft.to/lastmile_qr_scan", "android": "https://dc.lft.to/lastmile_qr_scan"}, "is_reserved": 0}, {"lon": -77.01606033333333, "bike_id": "7809c3b46a2db7e82cc41ecda9757361", "lat": 38.91759866666666, "fusion_lon": 0.0, "fusion_lat": 0.0, "type": "electric_scooter", "name": "7809c3b46a2db7e82cc41ecda9757361", "is_disabled": 0, "rental_uris": {"ios": "https://dc.lft.to/lastmile_qr_scan", "android": "https://dc.lft.to/lastmile_qr_scan"}, "is_reserved": 0}, {"lon": -77.052903, "bike_id": "115c5e5b9fc8a96381c81e28137d653c", "lat": 38.903356333333335, "fusion_lon": 0.0, "fusion_lat": 0.0, "type": "electric_scooter", "name": "115c5e5b9fc8a96381c81e28137d653c", "is_disabled": 0, "rental_uris": {"ios": "https://dc.lft.to/lastmile_qr_scan", "android": "https://dc.lft.to/lastmile_qr_scan"}, "is_reserved": 0}, {"lon": -77.0006175, "bike_id": "075189e73c386e68ceae8cb07c10e070", "lat": 38.900857, "fusion_lon": 0.0, "fusion_lat": 0.0, "type": "electric_scooter", "name": "075189e73c386e68ceae8cb07c10e070", "is_disabled": 0, "rental_uris": {"ios": "https://dc.lft.to/lastmile_qr_scan", "android": "https://dc.lft.to/lastmile_qr_scan"}, "is_reserved": 0}, {"lon": -77.0445955, "bike_id": "6bd7ae5e9ddd0c6654fb40eb17bf3007", "lat": 38.91116566666667, "fusion_lon": 0.0, "fusion_lat": 0.0, "type": "electric_scooter", "name": "6bd7ae5e9ddd0c6654fb40eb17bf3007", "is_disabled": 0, "rental_uris": {"ios": "https://dc.lft.to/lastmile_qr_scan", "android": "https://dc.lft.to/lastmile_qr_scan"}, "is_reserved": 0}, {"lon": -77.02580683333333, "bike_id": "e103c16581e4f45b32c13422fe4cab65", "lat": 38.88737833333333, "fusion_lon": 0.0, "fusion_lat": 0.0, "type": "electric_scooter", "name": "e103c16581e4f45b32c13422fe4cab65", "is_disabled": 0, "rental_uris": {"ios": "https://dc.lft.to/lastmile_qr_scan", "android": "https://dc.lft.to/lastmile_qr_scan"}, "is_reserved": 0}, {"lon": -76.99374483333334, "bike_id": "df48b93b5b238123e4b26f5bb3124c14", "lat": 38.89367933333333, "fusion_lon": 0.0, "fusion_lat": 0.0, "type": "electric_scooter", "name": "df48b93b5b238123e4b26f5bb3124c14", "is_disabled": 0, "rental_uris": {"ios": "https://dc.lft.to/lastmile_qr_scan", "android": "https://dc.lft.to/lastmile_qr_scan"}, "is_reserved": 0}, {"lon": -77.00679316666667, "bike_id": "8314cf3514deae6b68e8364281db1b36", "lat": 38.83491466666667, "fusion_lon": 0.0, "fusion_lat": 0.0, "type": "electric_scooter", "name": "8314cf3514deae6b68e8364281db1b36", "is_disabled": 0, "rental_uris": {"ios": "https://dc.lft.to/lastmile_qr_scan", "android": "https://dc.lft.to/lastmile_qr_scan"}, "is_reserved": 0}, {"lon": -77.01985583333334, "bike_id": "b96272d0f1e8b73697cf564a9ccf7c20", "lat": 38.92549616666667, "fusion_lon": 0.0, "fusion_lat": 0.0, "type": "electric_bike", "name": "b96272d0f1e8b73697cf564a9ccf7c20", "is_disabled": 0, "rental_uris": {"ios": "https://dc.lft.to/lastmile_qr_scan", "android": "https://dc.lft.to/lastmile_qr_scan"}, "is_reserved": 0}, {"lon": -77.05507383333334, "bike_id": "61a6edb778e8cbb9b36c6bd07902ddea", "lat": 38.92984766666667, "fusion_lon": 0.0, "fusion_lat": 0.0, "type": "electric_scooter", "name": "61a6edb778e8cbb9b36c6bd07902ddea", "is_disabled": 0, "rental_uris": {"ios": "https://dc.lft.to/lastmile_qr_scan", "android": "https://dc.lft.to/lastmile_qr_scan"}, "is_reserved": 0}, {"lon": -76.98840783333333, "bike_id": "b0c10ac47b1bec272ae5bc9118984647", "lat": 38.8966945, "fusion_lon": 0.0, "fusion_lat": 0.0, "type": "electric_scooter", "name": "b0c10ac47b1bec272ae5bc9118984647", "is_disabled": 0, "rental_uris": {"ios": "https://dc.lft.to/lastmile_qr_scan", "android": "https://dc.lft.to/lastmile_qr_scan"}, "is_reserved": 0}, {"lon": -77.05617616666666, "bike_id": "e7b9ebc13ed015978951ad8ce166daee", "lat": 38.923367166666665, "fusion_lon": 0.0, "fusion_lat": 0.0, "type": "electric_scooter", "name": "e7b9ebc13ed015978951ad8ce166daee", "is_disabled": 0, "rental_uris": {"ios": "https://dc.lft.to/lastmile_qr_scan", "android": "https://dc.lft.to/lastmile_qr_scan"}, "is_reserved": 0}, {"lon": -77.13934833333333, "bike_id": "e74d0fc1754fb4fed8e0ca06bb7e0833", "lat": 38.87296283333333, "fusion_lon": 0.0, "fusion_lat": 0.0, "type": "electric_bike", "name": "e74d0fc1754fb4fed8e0ca06bb7e0833", "is_disabled": 0, "rental_uris": {"ios": "https://dc.lft.to/lastmile_qr_scan", "android": "https://dc.lft.to/lastmile_qr_scan"}, "is_reserved": 0}, {"lon": -77.0221515, "bike_id": "318d72b09fa0f3cfadf4c4a100ad782c", "lat": 38.8935675, "fusion_lon": 0.0, "fusion_lat": 0.0, "type": "electric_scooter", "name": "318d72b09fa0f3cfadf4c4a100ad782c", "is_disabled": 0, "rental_uris": {"ios": "https://dc.lft.to/lastmile_qr_scan", "android": "https://dc.lft.to/lastmile_qr_scan"}, "is_reserved": 0}, {"lon": -76.99505233333333, "bike_id": "7e194b4b7ff06aedcdaba5100dda6831", "lat": 38.86247616666667, "fusion_lon": 0.0, "fusion_lat": 0.0, "type": "electric_scooter", "name": "7e194b4b7ff06aedcdaba5100dda6831", "is_disabled": 0, "rental_uris": {"ios": "https://dc.lft.to/lastmile_qr_scan", "android": "https://dc.lft.to/lastmile_qr_scan"}, "is_reserved": 0}, {"lon": -77.07767066666666, "bike_id": "08c23495c023a650d69383858d574158", "lat": 38.957763166666666, "fusion_lon": 0.0, "fusion_lat": 0.0, "type": "electric_scooter", "name": "08c23495c023a650d69383858d574158", "is_disabled": 0, "rental_uris": {"ios": "https://dc.lft.to/lastmile_qr_scan", "android": "https://dc.lft.to/lastmile_qr_scan"}, "is_reserved": 0}, {"lon": -77.04864633333334, "bike_id": "b98d19a50a683489aec49c14681fd9de", "lat": 38.909586833333336, "fusion_lon": 0.0, "fusion_lat": 0.0, "type": "electric_scooter", "name": "b98d19a50a683489aec49c14681fd9de", "is_disabled": 0, "rental_uris": {"ios": "https://dc.lft.to/lastmile_qr_scan", "android": "https://dc.lft.to/lastmile_qr_scan"}, "is_reserved": 0}, {"lon": -76.92107983333334, "bike_id": "6c7495f1b8e3b1f35afcb2f744589d8f", "lat": 38.8910685, "fusion_lon": 0.0, "fusion_lat": 0.0, "type": "electric_scooter", "name": "6c7495f1b8e3b1f35afcb2f744589d8f", "is_disabled": 0, "rental_uris": {"ios": "https://dc.lft.to/lastmile_qr_scan", "android": "https://dc.lft.to/lastmile_qr_scan"}, "is_reserved": 0}, {"lon": -76.9720735, "bike_id": "0c57e32011b53ecb593bf0640169d402", "lat": 38.89290116666667, "fusion_lon": 0.0, "fusion_lat": 0.0, "type": "electric_bike", "name": "0c57e32011b53ecb593bf0640169d402", "is_disabled": 0, "rental_uris": {"ios": "https://dc.lft.to/lastmile_qr_scan", "android": "https://dc.lft.to/lastmile_qr_scan"}, "is_reserved": 0}, {"lon": -77.00868983333334, "bike_id": "9768e856d669b2c2e8c191f84f8b96a4", "lat": 38.825324333333334, "fusion_lon": 0.0, "fusion_lat": 0.0, "type": "electric_scooter", "name": "9768e856d669b2c2e8c191f84f8b96a4", "is_disabled": 0, "rental_uris": {"ios": "https://dc.lft.to/lastmile_qr_scan", "android": "https://dc.lft.to/lastmile_qr_scan"}, "is_reserved": 0}, {"lon": -77.00975533333333, "bike_id": "62a6eed753849cace945d60c5d04ae5f", "lat": 38.870718333333336, "fusion_lon": 0.0, "fusion_lat": 0.0, "type": "electric_scooter", "name": "62a6eed753849cace945d60c5d04ae5f", "is_disabled": 0, "rental_uris": {"ios": "https://dc.lft.to/lastmile_qr_scan", "android": "https://dc.lft.to/lastmile_qr_scan"}, "is_reserved": 0}, {"lon": -76.99174816666667, "bike_id": "ff6d894d8a97b76ffbaab1b4b4b877ee", "lat": 38.88987633333333, "fusion_lon": 0.0, "fusion_lat": 0.0, "type": "electric_scooter", "name": "ff6d894d8a97b76ffbaab1b4b4b877ee", "is_disabled": 0, "rental_uris": {"ios": "https://dc.lft.to/lastmile_qr_scan", "android": "https://dc.lft.to/lastmile_qr_scan"}, "is_reserved": 0}, {"lon": -77.003468, "bike_id": "b33aa6f945c15bf95d656800cc3000fd", "lat": 38.916263666666666, "fusion_lon": 0.0, "fusion_lat": 0.0, "type": "electric_scooter", "name": "b33aa6f945c15bf95d656800cc3000fd", "is_disabled": 0, "rental_uris": {"ios": "https://dc.lft.to/lastmile_qr_scan", "android": "https://dc.lft.to/lastmile_qr_scan"}, "is_reserved": 0}, {"lon": -77.02224266666667, "bike_id": "ebd3bbac8164a7b5658a56021cd94e9a", "lat": 38.89220733333333, "fusion_lon": 0.0, "fusion_lat": 0.0, "type": "electric_scooter", "name": "ebd3bbac8164a7b5658a56021cd94e9a", "is_disabled": 0, "rental_uris": {"ios": "https://dc.lft.to/lastmile_qr_scan", "android": "https://dc.lft.to/lastmile_qr_scan"}, "is_reserved": 0}, {"lon": -77.02426383333334, "bike_id": "e71fb06d2cd6aa92558c8d55e36aefe6", "lat": 38.923413333333336, "fusion_lon": 0.0, "fusion_lat": 0.0, "type": "electric_scooter", "name": "e71fb06d2cd6aa92558c8d55e36aefe6", "is_disabled": 0, "rental_uris": {"ios": "https://dc.lft.to/lastmile_qr_scan", "android": "https://dc.lft.to/lastmile_qr_scan"}, "is_reserved": 0}, {"lon": -77.05054516666667, "bike_id": "7dd31f9be722f4df9fce7efa009da97a", "lat": 38.9258345, "fusion_lon": 0.0, "fusion_lat": 0.0, "type": "electric_scooter", "name": "7dd31f9be722f4df9fce7efa009da97a", "is_disabled": 0, "rental_uris": {"ios": "https://dc.lft.to/lastmile_qr_scan", "android": "https://dc.lft.to/lastmile_qr_scan"}, "is_reserved": 0}, {"lon": -77.0412435, "bike_id": "4feb912632874be7be12ed1c5594f9b1", "lat": 38.90634983333333, "fusion_lon": 0.0, "fusion_lat": 0.0, "type": "electric_scooter", "name": "4feb912632874be7be12ed1c5594f9b1", "is_disabled": 0, "rental_uris": {"ios": "https://dc.lft.to/lastmile_qr_scan", "android": "https://dc.lft.to/lastmile_qr_scan"}, "is_reserved": 0}, {"lon": -77.03759033333333, "bike_id": "25d8b9d4f0d134bc83ef1a74bba48e53", "lat": 38.92881716666667, "fusion_lon": 0.0, "fusion_lat": 0.0, "type": "electric_scooter", "name": "25d8b9d4f0d134bc83ef1a74bba48e53", "is_disabled": 0, "rental_uris": {"ios": "https://dc.lft.to/lastmile_qr_scan", "android": "https://dc.lft.to/lastmile_qr_scan"}, "is_reserved": 0}, {"lon": -77.032837, "bike_id": "83e276129375b426929f84a458e6aaf6", "lat": 38.938804, "fusion_lon": 0.0, "fusion_lat": 0.0, "type": "electric_scooter", "name": "83e276129375b426929f84a458e6aaf6", "is_disabled": 0, "rental_uris": {"ios": "https://dc.lft.to/lastmile_qr_scan", "android": "https://dc.lft.to/lastmile_qr_scan"}, "is_reserved": 0}, {"lon": -76.98453433333333, "bike_id": "60ae51cb311042ec8c44943b0a4d905b", "lat": 38.9054745, "fusion_lon": 0.0, "fusion_lat": 0.0, "type": "electric_scooter", "name": "60ae51cb311042ec8c44943b0a4d905b", "is_disabled": 0, "rental_uris": {"ios": "https://dc.lft.to/lastmile_qr_scan", "android": "https://dc.lft.to/lastmile_qr_scan"}, "is_reserved": 0}, {"lon": -77.04579266666667, "bike_id": "bf72984551dafb627cdde11a4a65bac8", "lat": 38.9136415, "fusion_lon": 0.0, "fusion_lat": 0.0, "type": "electric_scooter", "name": "bf72984551dafb627cdde11a4a65bac8", "is_disabled": 0, "rental_uris": {"ios": "https://dc.lft.to/lastmile_qr_scan", "android": "https://dc.lft.to/lastmile_qr_scan"}, "is_reserved": 0}, {"lon": -77.02655383333334, "bike_id": "9dbacc4ef7009f9e13325dcd7d8f8e1c", "lat": 38.88119866666667, "fusion_lon": 0.0, "fusion_lat": 0.0, "type": "electric_scooter", "name": "9dbacc4ef7009f9e13325dcd7d8f8e1c", "is_disabled": 0, "rental_uris": {"ios": "https://dc.lft.to/lastmile_qr_scan", "android": "https://dc.lft.to/lastmile_qr_scan"}, "is_reserved": 0}, {"lon": -77.11707633333333, "bike_id": "18e2eab121e23152440ede783d852a65", "lat": 38.867446, "fusion_lon": 0.0, "fusion_lat": 0.0, "type": "electric_bike", "name": "18e2eab121e23152440ede783d852a65", "is_disabled": 0, "rental_uris": {"ios": "https://dc.lft.to/lastmile_qr_scan", "android": "https://dc.lft.to/lastmile_qr_scan"}, "is_reserved": 0}, {"lon": -77.031569, "bike_id": "f1cfc62391830d90654b84ebe4563c22", "lat": 38.8976395, "fusion_lon": 0.0, "fusion_lat": 0.0, "type": "electric_scooter", "name": "f1cfc62391830d90654b84ebe4563c22", "is_disabled": 0, "rental_uris": {"ios": "https://dc.lft.to/lastmile_qr_scan", "android": "https://dc.lft.to/lastmile_qr_scan"}, "is_reserved": 0}, {"lon": -77.03211016666667, "bike_id": "a8eca1b60857d93466bca2edf69f4f3f", "lat": 38.90721383333333, "fusion_lon": 0.0, "fusion_lat": 0.0, "type": "electric_scooter", "name": "a8eca1b60857d93466bca2edf69f4f3f", "is_disabled": 0, "rental_uris": {"ios": "https://dc.lft.to/lastmile_qr_scan", "android": "https://dc.lft.to/lastmile_qr_scan"}, "is_reserved": 0}, {"lon": -77.04050116666667, "bike_id": "7cc07890a9fa7311da03b44d736a552a", "lat": 38.928812, "fusion_lon": 0.0, "fusion_lat": 0.0, "type": "electric_scooter", "name": "7cc07890a9fa7311da03b44d736a552a", "is_disabled": 0, "rental_uris": {"ios": "https://dc.lft.to/lastmile_qr_scan", "android": "https://dc.lft.to/lastmile_qr_scan"}, "is_reserved": 0}, {"lon": -77.00063433333334, "bike_id": "59eebdc750ad78aa7701d789655cb173", "lat": 38.92398816666667, "fusion_lon": 0.0, "fusion_lat": 0.0, "type": "electric_scooter", "name": "59eebdc750ad78aa7701d789655cb173", "is_disabled": 0, "rental_uris": {"ios": "https://dc.lft.to/lastmile_qr_scan", "android": "https://dc.lft.to/lastmile_qr_scan"}, "is_reserved": 0}, {"lon": -77.036608, "bike_id": "3640497a43d5fa78401803d8187cacbc", "lat": 38.91739883333334, "fusion_lon": 0.0, "fusion_lat": 0.0, "type": "electric_scooter", "name": "3640497a43d5fa78401803d8187cacbc", "is_disabled": 0, "rental_uris": {"ios": "https://dc.lft.to/lastmile_qr_scan", "android": "https://dc.lft.to/lastmile_qr_scan"}, "is_reserved": 0}, {"lon": -77.02315666666667, "bike_id": "6de19f089c7a8c8bb7951bb218f3a259", "lat": 38.89489116666667, "fusion_lon": 0.0, "fusion_lat": 0.0, "type": "electric_scooter", "name": "6de19f089c7a8c8bb7951bb218f3a259", "is_disabled": 0, "rental_uris": {"ios": "https://dc.lft.to/lastmile_qr_scan", "android": "https://dc.lft.to/lastmile_qr_scan"}, "is_reserved": 0}, {"lon": -77.03199483333333, "bike_id": "8ef66bd6b0fc5e60d7cbacda08797f61", "lat": 38.91651983333333, "fusion_lon": 0.0, "fusion_lat": 0.0, "type": "electric_scooter", "name": "8ef66bd6b0fc5e60d7cbacda08797f61", "is_disabled": 0, "rental_uris": {"ios": "https://dc.lft.to/lastmile_qr_scan", "android": "https://dc.lft.to/lastmile_qr_scan"}, "is_reserved": 0}, {"lon": -77.00144066666667, "bike_id": "8728ee026f6e570b330913482d27e1af", "lat": 38.910747666666666, "fusion_lon": 0.0, "fusion_lat": 0.0, "type": "electric_scooter", "name": "8728ee026f6e570b330913482d27e1af", "is_disabled": 0, "rental_uris": {"ios": "https://dc.lft.to/lastmile_qr_scan", "android": "https://dc.lft.to/lastmile_qr_scan"}, "is_reserved": 0}, {"lon": -77.04772416666667, "bike_id": "a416e7d849e5e59148de2c29efaa7792", "lat": 38.917747, "fusion_lon": 0.0, "fusion_lat": 0.0, "type": "electric_scooter", "name": "a416e7d849e5e59148de2c29efaa7792", "is_disabled": 0, "rental_uris": {"ios": "https://dc.lft.to/lastmile_qr_scan", "android": "https://dc.lft.to/lastmile_qr_scan"}, "is_reserved": 0}, {"lon": -76.98527066666666, "bike_id": "d45468b3c05ee8dfe2df95361588d6af", "lat": 38.90451816666667, "fusion_lon": 0.0, "fusion_lat": 0.0, "type": "electric_scooter", "name": "d45468b3c05ee8dfe2df95361588d6af", "is_disabled": 0, "rental_uris": {"ios": "https://dc.lft.to/lastmile_qr_scan", "android": "https://dc.lft.to/lastmile_qr_scan"}, "is_reserved": 0}, {"lon": -76.95746116666666, "bike_id": "3818080990d96e7ef985f950efa7aeed", "lat": 38.884268166666665, "fusion_lon": 0.0, "fusion_lat": 0.0, "type": "electric_scooter", "name": "3818080990d96e7ef985f950efa7aeed", "is_disabled": 0, "rental_uris": {"ios": "https://dc.lft.to/lastmile_qr_scan", "android": "https://dc.lft.to/lastmile_qr_scan"}, "is_reserved": 0}, {"lon": -76.98081366666666, "bike_id": "e0ecb0f5664b72755a9a22e57f365748", "lat": 38.87935483333333, "fusion_lon": 0.0, "fusion_lat": 0.0, "type": "electric_bike", "name": "e0ecb0f5664b72755a9a22e57f365748", "is_disabled": 0, "rental_uris": {"ios": "https://dc.lft.to/lastmile_qr_scan", "android": "https://dc.lft.to/lastmile_qr_scan"}, "is_reserved": 0}, {"lon": -77.00336083333333, "bike_id": "d624a42055cbdce29d9d7c43c15bfdda", "lat": 38.891883666666665, "fusion_lon": 0.0, "fusion_lat": 0.0, "type": "electric_scooter", "name": "d624a42055cbdce29d9d7c43c15bfdda", "is_disabled": 0, "rental_uris": {"ios": "https://dc.lft.to/lastmile_qr_scan", "android": "https://dc.lft.to/lastmile_qr_scan"}, "is_reserved": 0}, {"lon": -77.023598, "bike_id": "9cb50b3a6b6a49d3ca307c7c0f8c9f10", "lat": 38.922236, "fusion_lon": 0.0, "fusion_lat": 0.0, "type": "electric_scooter", "name": "9cb50b3a6b6a49d3ca307c7c0f8c9f10", "is_disabled": 0, "rental_uris": {"ios": "https://dc.lft.to/lastmile_qr_scan", "android": "https://dc.lft.to/lastmile_qr_scan"}, "is_reserved": 0}, {"lon": -77.0320715, "bike_id": "331996ee8813332c5e67afd2661d63f8", "lat": 38.919198, "fusion_lon": 0.0, "fusion_lat": 0.0, "type": "electric_scooter", "name": "331996ee8813332c5e67afd2661d63f8", "is_disabled": 0, "rental_uris": {"ios": "https://dc.lft.to/lastmile_qr_scan", "android": "https://dc.lft.to/lastmile_qr_scan"}, "is_reserved": 0}, {"lon": -77.03627533333334, "bike_id": "afe56b7b6696f034296a44f07ff978b1", "lat": 38.9027895, "fusion_lon": 0.0, "fusion_lat": 0.0, "type": "electric_scooter", "name": "afe56b7b6696f034296a44f07ff978b1", "is_disabled": 0, "rental_uris": {"ios": "https://dc.lft.to/lastmile_qr_scan", "android": "https://dc.lft.to/lastmile_qr_scan"}, "is_reserved": 0}, {"lon": -77.02657, "bike_id": "14a8e6c767597a71ddf8b6a82eb2e08c", "lat": 38.9257795, "fusion_lon": 0.0, "fusion_lat": 0.0, "type": "electric_scooter", "name": "14a8e6c767597a71ddf8b6a82eb2e08c", "is_disabled": 0, "rental_uris": {"ios": "https://dc.lft.to/lastmile_qr_scan", "android": "https://dc.lft.to/lastmile_qr_scan"}, "is_reserved": 0}, {"lon": -77.1159425, "bike_id": "d540ca80e888dec5c5a4fbeb2b5aea57", "lat": 39.07494366666667, "fusion_lon": 0.0, "fusion_lat": 0.0, "type": "electric_bike", "name": "d540ca80e888dec5c5a4fbeb2b5aea57", "is_disabled": 0, "rental_uris": {"ios": "https://dc.lft.to/lastmile_qr_scan", "android": "https://dc.lft.to/lastmile_qr_scan"}, "is_reserved": 0}, {"lon": -76.96913116666667, "bike_id": "82d56060d7251d9de38d0656c1971093", "lat": 38.8461195, "fusion_lon": 0.0, "fusion_lat": 0.0, "type": "electric_bike", "name": "82d56060d7251d9de38d0656c1971093", "is_disabled": 0, "rental_uris": {"ios": "https://dc.lft.to/lastmile_qr_scan", "android": "https://dc.lft.to/lastmile_qr_scan"}, "is_reserved": 0}, {"lon": -77.03848233333333, "bike_id": "75990612b4a1633e04c583d3c7560b9c", "lat": 38.90359383333333, "fusion_lon": 0.0, "fusion_lat": 0.0, "type": "electric_scooter", "name": "75990612b4a1633e04c583d3c7560b9c", "is_disabled": 0, "rental_uris": {"ios": "https://dc.lft.to/lastmile_qr_scan", "android": "https://dc.lft.to/lastmile_qr_scan"}, "is_reserved": 0}, {"lon": -77.02976766666667, "bike_id": "8a9288dece21a9db751021db567b60bc", "lat": 38.9162815, "fusion_lon": 0.0, "fusion_lat": 0.0, "type": "electric_scooter", "name": "8a9288dece21a9db751021db567b60bc", "is_disabled": 0, "rental_uris": {"ios": "https://dc.lft.to/lastmile_qr_scan", "android": "https://dc.lft.to/lastmile_qr_scan"}, "is_reserved": 0}, {"lon": -77.02695466666667, "bike_id": "834567196359d290a00f2d9df1364c68", "lat": 38.899692, "fusion_lon": 0.0, "fusion_lat": 0.0, "type": "electric_scooter", "name": "834567196359d290a00f2d9df1364c68", "is_disabled": 0, "rental_uris": {"ios": "https://dc.lft.to/lastmile_qr_scan", "android": "https://dc.lft.to/lastmile_qr_scan"}, "is_reserved": 0}, {"lon": -76.99929566666667, "bike_id": "b9f8bfeb8065baf5613a7c6904b95027", "lat": 38.84315616666667, "fusion_lon": 0.0, "fusion_lat": 0.0, "type": "electric_scooter", "name": "b9f8bfeb8065baf5613a7c6904b95027", "is_disabled": 0, "rental_uris": {"ios": "https://dc.lft.to/lastmile_qr_scan", "android": "https://dc.lft.to/lastmile_qr_scan"}, "is_reserved": 0}, {"lon": -76.99056583333333, "bike_id": "47d1edb8aa25e3a593089f390676a074", "lat": 38.86378716666667, "fusion_lon": 0.0, "fusion_lat": 0.0, "type": "electric_scooter", "name": "47d1edb8aa25e3a593089f390676a074", "is_disabled": 0, "rental_uris": {"ios": "https://dc.lft.to/lastmile_qr_scan", "android": "https://dc.lft.to/lastmile_qr_scan"}, "is_reserved": 0}, {"lon": -76.9906985, "bike_id": "c0fdf5bc02c15ebfb94d1b189f5d08c5", "lat": 38.92745983333333, "fusion_lon": 0.0, "fusion_lat": 0.0, "type": "electric_scooter", "name": "c0fdf5bc02c15ebfb94d1b189f5d08c5", "is_disabled": 0, "rental_uris": {"ios": "https://dc.lft.to/lastmile_qr_scan", "android": "https://dc.lft.to/lastmile_qr_scan"}, "is_reserved": 0}, {"lon": -77.012584, "bike_id": "f5891da967b570dae004f40004da413e", "lat": 38.91490866666667, "fusion_lon": 0.0, "fusion_lat": 0.0, "type": "electric_scooter", "name": "f5891da967b570dae004f40004da413e", "is_disabled": 0, "rental_uris": {"ios": "https://dc.lft.to/lastmile_qr_scan", "android": "https://dc.lft.to/lastmile_qr_scan"}, "is_reserved": 0}, {"lon": -77.03262416666666, "bike_id": "b358585c3c2d78d9c40a83d146560698", "lat": 38.931998166666666, "fusion_lon": 0.0, "fusion_lat": 0.0, "type": "electric_scooter", "name": "b358585c3c2d78d9c40a83d146560698", "is_disabled": 0, "rental_uris": {"ios": "https://dc.lft.to/lastmile_qr_scan", "android": "https://dc.lft.to/lastmile_qr_scan"}, "is_reserved": 0}, {"lon": -77.032089, "bike_id": "1975f54f50376e3ad84febc7204eb94d", "lat": 38.913053166666664, "fusion_lon": 0.0, "fusion_lat": 0.0, "type": "electric_scooter", "name": "1975f54f50376e3ad84febc7204eb94d", "is_disabled": 0, "rental_uris": {"ios": "https://dc.lft.to/lastmile_qr_scan", "android": "https://dc.lft.to/lastmile_qr_scan"}, "is_reserved": 0}, {"lon": -77.01052733333333, "bike_id": "c7bd7412faa595e7e85de3fa77f21713", "lat": 38.96341366666667, "fusion_lon": 0.0, "fusion_lat": 0.0, "type": "electric_scooter", "name": "c7bd7412faa595e7e85de3fa77f21713", "is_disabled": 0, "rental_uris": {"ios": "https://dc.lft.to/lastmile_qr_scan", "android": "https://dc.lft.to/lastmile_qr_scan"}, "is_reserved": 0}, {"lon": -77.03989716666666, "bike_id": "07af8583a30895ec0d0f982805e133a0", "lat": 38.91637466666667, "fusion_lon": 0.0, "fusion_lat": 0.0, "type": "electric_scooter", "name": "07af8583a30895ec0d0f982805e133a0", "is_disabled": 0, "rental_uris": {"ios": "https://dc.lft.to/lastmile_qr_scan", "android": "https://dc.lft.to/lastmile_qr_scan"}, "is_reserved": 0}, {"lon": -77.02584183333333, "bike_id": "be4ec871f0e6ba87c1cc2898d4956fe4", "lat": 38.904897166666665, "fusion_lon": 0.0, "fusion_lat": 0.0, "type": "electric_scooter", "name": "be4ec871f0e6ba87c1cc2898d4956fe4", "is_disabled": 0, "rental_uris": {"ios": "https://dc.lft.to/lastmile_qr_scan", "android": "https://dc.lft.to/lastmile_qr_scan"}, "is_reserved": 0}, {"lon": -77.03265866666666, "bike_id": "5dc34669afe36116491c59dd8b6a361d", "lat": 38.93667166666667, "fusion_lon": 0.0, "fusion_lat": 0.0, "type": "electric_scooter", "name": "5dc34669afe36116491c59dd8b6a361d", "is_disabled": 0, "rental_uris": {"ios": "https://dc.lft.to/lastmile_qr_scan", "android": "https://dc.lft.to/lastmile_qr_scan"}, "is_reserved": 0}, {"lon": -77.02164566666667, "bike_id": "452626a66d1a49023ecb8f1548352604", "lat": 38.8972705, "fusion_lon": 0.0, "fusion_lat": 0.0, "type": "electric_scooter", "name": "452626a66d1a49023ecb8f1548352604", "is_disabled": 0, "rental_uris": {"ios": "https://dc.lft.to/lastmile_qr_scan", "android": "https://dc.lft.to/lastmile_qr_scan"}, "is_reserved": 0}, {"lon": -77.00197516666667, "bike_id": "2a7972f380b8de3dd900d6ee8ae045ae", "lat": 38.90033666666667, "fusion_lon": 0.0, "fusion_lat": 0.0, "type": "electric_scooter", "name": "2a7972f380b8de3dd900d6ee8ae045ae", "is_disabled": 0, "rental_uris": {"ios": "https://dc.lft.to/lastmile_qr_scan", "android": "https://dc.lft.to/lastmile_qr_scan"}, "is_reserved": 0}, {"lon": -77.0159455, "bike_id": "6fae65e516adf599d83559ee695efb7b", "lat": 38.899680000000004, "fusion_lon": 0.0, "fusion_lat": 0.0, "type": "electric_scooter", "name": "6fae65e516adf599d83559ee695efb7b", "is_disabled": 0, "rental_uris": {"ios": "https://dc.lft.to/lastmile_qr_scan", "android": "https://dc.lft.to/lastmile_qr_scan"}, "is_reserved": 0}, {"lon": -77.0317665, "bike_id": "998866261d026232ac1ea0dd733f4de2", "lat": 38.90508833333333, "fusion_lon": 0.0, "fusion_lat": 0.0, "type": "electric_scooter", "name": "998866261d026232ac1ea0dd733f4de2", "is_disabled": 0, "rental_uris": {"ios": "https://dc.lft.to/lastmile_qr_scan", "android": "https://dc.lft.to/lastmile_qr_scan"}, "is_reserved": 0}, {"lon": -77.10358933333333, "bike_id": "358e8b898aa4e949b4d88b8d892fdd2c", "lat": 38.88552883333333, "fusion_lon": 0.0, "fusion_lat": 0.0, "type": "electric_bike", "name": "358e8b898aa4e949b4d88b8d892fdd2c", "is_disabled": 0, "rental_uris": {"ios": "https://dc.lft.to/lastmile_qr_scan", "android": "https://dc.lft.to/lastmile_qr_scan"}, "is_reserved": 0}, {"lon": -77.04108883333333, "bike_id": "bca2c28405fc83fcbf35808accd328f4", "lat": 38.9087035, "fusion_lon": 0.0, "fusion_lat": 0.0, "type": "electric_scooter", "name": "bca2c28405fc83fcbf35808accd328f4", "is_disabled": 0, "rental_uris": {"ios": "https://dc.lft.to/lastmile_qr_scan", "android": "https://dc.lft.to/lastmile_qr_scan"}, "is_reserved": 0}, {"lon": -77.00983316666667, "bike_id": "7ea3daa6db2890fcd9f2d058cb77d94d", "lat": 38.90370016666667, "fusion_lon": 0.0, "fusion_lat": 0.0, "type": "electric_scooter", "name": "7ea3daa6db2890fcd9f2d058cb77d94d", "is_disabled": 0, "rental_uris": {"ios": "https://dc.lft.to/lastmile_qr_scan", "android": "https://dc.lft.to/lastmile_qr_scan"}, "is_reserved": 0}, {"lon": -77.00544433333333, "bike_id": "23f8c7525d1f65f37cc9c24c378d2396", "lat": 38.9297485, "fusion_lon": 0.0, "fusion_lat": 0.0, "type": "electric_scooter", "name": "23f8c7525d1f65f37cc9c24c378d2396", "is_disabled": 0, "rental_uris": {"ios": "https://dc.lft.to/lastmile_qr_scan", "android": "https://dc.lft.to/lastmile_qr_scan"}, "is_reserved": 0}, {"lon": -77.02799883333333, "bike_id": "cc4238f01bd6c6cd8c5fbf07beb425c7", "lat": 38.9168225, "fusion_lon": 0.0, "fusion_lat": 0.0, "type": "electric_scooter", "name": "cc4238f01bd6c6cd8c5fbf07beb425c7", "is_disabled": 0, "rental_uris": {"ios": "https://dc.lft.to/lastmile_qr_scan", "android": "https://dc.lft.to/lastmile_qr_scan"}, "is_reserved": 0}, {"lon": -76.92622116666666, "bike_id": "e1a988c8c024f3d6216459740789a041", "lat": 38.884579333333335, "fusion_lon": 0.0, "fusion_lat": 0.0, "type": "electric_scooter", "name": "e1a988c8c024f3d6216459740789a041", "is_disabled": 0, "rental_uris": {"ios": "https://dc.lft.to/lastmile_qr_scan", "android": "https://dc.lft.to/lastmile_qr_scan"}, "is_reserved": 0}, {"lon": -77.02209783333333, "bike_id": "6732fe8ad84c66b31eef3befcf727c3c", "lat": 38.893525333333336, "fusion_lon": 0.0, "fusion_lat": 0.0, "type": "electric_scooter", "name": "6732fe8ad84c66b31eef3befcf727c3c", "is_disabled": 0, "rental_uris": {"ios": "https://dc.lft.to/lastmile_qr_scan", "android": "https://dc.lft.to/lastmile_qr_scan"}, "is_reserved": 0}, {"lon": -77.02266316666666, "bike_id": "dc4921cba64f6790185082824d188965", "lat": 38.937634, "fusion_lon": 0.0, "fusion_lat": 0.0, "type": "electric_scooter", "name": "dc4921cba64f6790185082824d188965", "is_disabled": 0, "rental_uris": {"ios": "https://dc.lft.to/lastmile_qr_scan", "android": "https://dc.lft.to/lastmile_qr_scan"}, "is_reserved": 0}, {"lon": -77.022125, "bike_id": "4f0b6dd00bae693220a50057ff993530", "lat": 38.9057035, "fusion_lon": 0.0, "fusion_lat": 0.0, "type": "electric_scooter", "name": "4f0b6dd00bae693220a50057ff993530", "is_disabled": 0, "rental_uris": {"ios": "https://dc.lft.to/lastmile_qr_scan", "android": "https://dc.lft.to/lastmile_qr_scan"}, "is_reserved": 0}, {"lon": -77.00206416666667, "bike_id": "7a65ffe22d6fc60cb825fcd2fa8898ec", "lat": 38.8954155, "fusion_lon": 0.0, "fusion_lat": 0.0, "type": "electric_scooter", "name": "7a65ffe22d6fc60cb825fcd2fa8898ec", "is_disabled": 0, "rental_uris": {"ios": "https://dc.lft.to/lastmile_qr_scan", "android": "https://dc.lft.to/lastmile_qr_scan"}, "is_reserved": 0}, {"lon": -77.01476466666666, "bike_id": "805d36904bcbffd9f6d00d3176e5381a", "lat": 38.940638166666666, "fusion_lon": 0.0, "fusion_lat": 0.0, "type": "electric_bike", "name": "805d36904bcbffd9f6d00d3176e5381a", "is_disabled": 0, "rental_uris": {"ios": "https://dc.lft.to/lastmile_qr_scan", "android": "https://dc.lft.to/lastmile_qr_scan"}, "is_reserved": 0}, {"lon": -77.05416683333333, "bike_id": "9ebd89bf00564fc30df04301ada35c05", "lat": 38.950485, "fusion_lon": 0.0, "fusion_lat": 0.0, "type": "electric_scooter", "name": "9ebd89bf00564fc30df04301ada35c05", "is_disabled": 0, "rental_uris": {"ios": "https://dc.lft.to/lastmile_qr_scan", "android": "https://dc.lft.to/lastmile_qr_scan"}, "is_reserved": 0}, {"lon": -77.02970616666667, "bike_id": "0362e0cfa0f324e7c70bf3e57e1f4dac", "lat": 38.93928433333333, "fusion_lon": 0.0, "fusion_lat": 0.0, "type": "electric_scooter", "name": "0362e0cfa0f324e7c70bf3e57e1f4dac", "is_disabled": 0, "rental_uris": {"ios": "https://dc.lft.to/lastmile_qr_scan", "android": "https://dc.lft.to/lastmile_qr_scan"}, "is_reserved": 0}, {"lon": -77.03169683333333, "bike_id": "2ebd5fcdde6c61d67b6402d8898b07e7", "lat": 38.88409083333333, "fusion_lon": 0.0, "fusion_lat": 0.0, "type": "electric_scooter", "name": "2ebd5fcdde6c61d67b6402d8898b07e7", "is_disabled": 0, "rental_uris": {"ios": "https://dc.lft.to/lastmile_qr_scan", "android": "https://dc.lft.to/lastmile_qr_scan"}, "is_reserved": 0}, {"lon": -76.98343133333333, "bike_id": "39c1ba1a6216eeb81c552fd521721e46", "lat": 38.900993166666666, "fusion_lon": 0.0, "fusion_lat": 0.0, "type": "electric_scooter", "name": "39c1ba1a6216eeb81c552fd521721e46", "is_disabled": 0, "rental_uris": {"ios": "https://dc.lft.to/lastmile_qr_scan", "android": "https://dc.lft.to/lastmile_qr_scan"}, "is_reserved": 0}, {"lon": -76.98271566666666, "bike_id": "b63240e2aa63999ea0386a8614fe4c37", "lat": 38.88529183333333, "fusion_lon": 0.0, "fusion_lat": 0.0, "type": "electric_scooter", "name": "b63240e2aa63999ea0386a8614fe4c37", "is_disabled": 0, "rental_uris": {"ios": "https://dc.lft.to/lastmile_qr_scan", "android": "https://dc.lft.to/lastmile_qr_scan"}, "is_reserved": 0}, {"lon": -77.02036616666666, "bike_id": "2b76b0331216bd77f0fe9531f2dfade4", "lat": 38.90850533333333, "fusion_lon": 0.0, "fusion_lat": 0.0, "type": "electric_scooter", "name": "2b76b0331216bd77f0fe9531f2dfade4", "is_disabled": 0, "rental_uris": {"ios": "https://dc.lft.to/lastmile_qr_scan", "android": "https://dc.lft.to/lastmile_qr_scan"}, "is_reserved": 0}, {"lon": -77.0221055, "bike_id": "e1b021a5cc79e6ed84c23432cf819a05", "lat": 38.91414566666667, "fusion_lon": 0.0, "fusion_lat": 0.0, "type": "electric_scooter", "name": "e1b021a5cc79e6ed84c23432cf819a05", "is_disabled": 0, "rental_uris": {"ios": "https://dc.lft.to/lastmile_qr_scan", "android": "https://dc.lft.to/lastmile_qr_scan"}, "is_reserved": 0}, {"lon": -76.9945495, "bike_id": "d2e1a075bc9741844aadbb049edbae91", "lat": 38.96620083333333, "fusion_lon": 0.0, "fusion_lat": 0.0, "type": "electric_bike", "name": "d2e1a075bc9741844aadbb049edbae91", "is_disabled": 0, "rental_uris": {"ios": "https://dc.lft.to/lastmile_qr_scan", "android": "https://dc.lft.to/lastmile_qr_scan"}, "is_reserved": 0}, {"lon": -77.02769783333333, "bike_id": "3c1b00289ee65a86b83a610b9ddacad5", "lat": 38.89219933333333, "fusion_lon": 0.0, "fusion_lat": 0.0, "type": "electric_scooter", "name": "3c1b00289ee65a86b83a610b9ddacad5", "is_disabled": 0, "rental_uris": {"ios": "https://dc.lft.to/lastmile_qr_scan", "android": "https://dc.lft.to/lastmile_qr_scan"}, "is_reserved": 0}, {"lon": -77.04334533333333, "bike_id": "06c46c78c6520729540f37b6ba054cbe", "lat": 38.907248333333335, "fusion_lon": 0.0, "fusion_lat": 0.0, "type": "electric_scooter", "name": "06c46c78c6520729540f37b6ba054cbe", "is_disabled": 0, "rental_uris": {"ios": "https://dc.lft.to/lastmile_qr_scan", "android": "https://dc.lft.to/lastmile_qr_scan"}, "is_reserved": 0}, {"lon": -76.990302, "bike_id": "5dd1a7f3dc32c18d660ca1b8b805f7e5", "lat": 38.898517166666664, "fusion_lon": 0.0, "fusion_lat": 0.0, "type": "electric_scooter", "name": "5dd1a7f3dc32c18d660ca1b8b805f7e5", "is_disabled": 0, "rental_uris": {"ios": "https://dc.lft.to/lastmile_qr_scan", "android": "https://dc.lft.to/lastmile_qr_scan"}, "is_reserved": 0}, {"lon": -76.97924816666666, "bike_id": "f795b68873aadcbbb852b65a7ab41167", "lat": 38.90506933333333, "fusion_lon": 0.0, "fusion_lat": 0.0, "type": "electric_scooter", "name": "f795b68873aadcbbb852b65a7ab41167", "is_disabled": 0, "rental_uris": {"ios": "https://dc.lft.to/lastmile_qr_scan", "android": "https://dc.lft.to/lastmile_qr_scan"}, "is_reserved": 0}, {"lon": -76.99371283333333, "bike_id": "aaba2cef161fd688cba33b66c6c84d38", "lat": 38.8796875, "fusion_lon": 0.0, "fusion_lat": 0.0, "type": "electric_scooter", "name": "aaba2cef161fd688cba33b66c6c84d38", "is_disabled": 0, "rental_uris": {"ios": "https://dc.lft.to/lastmile_qr_scan", "android": "https://dc.lft.to/lastmile_qr_scan"}, "is_reserved": 0}, {"lon": -77.01324016666666, "bike_id": "7cea80512cf152bca982a1253fd6d90d", "lat": 38.87152016666667, "fusion_lon": 0.0, "fusion_lat": 0.0, "type": "electric_scooter", "name": "7cea80512cf152bca982a1253fd6d90d", "is_disabled": 0, "rental_uris": {"ios": "https://dc.lft.to/lastmile_qr_scan", "android": "https://dc.lft.to/lastmile_qr_scan"}, "is_reserved": 0}, {"lon": -76.99003716666667, "bike_id": "8559da870e5e6782ff6955ed473a555a", "lat": 38.865111, "fusion_lon": 0.0, "fusion_lat": 0.0, "type": "electric_scooter", "name": "8559da870e5e6782ff6955ed473a555a", "is_disabled": 0, "rental_uris": {"ios": "https://dc.lft.to/lastmile_qr_scan", "android": "https://dc.lft.to/lastmile_qr_scan"}, "is_reserved": 0}, {"lon": -77.037427, "bike_id": "b71011a5544f1e0f3cc3463c68156787", "lat": 38.9180275, "fusion_lon": 0.0, "fusion_lat": 0.0, "type": "electric_scooter", "name": "b71011a5544f1e0f3cc3463c68156787", "is_disabled": 0, "rental_uris": {"ios": "https://dc.lft.to/lastmile_qr_scan", "android": "https://dc.lft.to/lastmile_qr_scan"}, "is_reserved": 0}, {"lon": -77.02724466666666, "bike_id": "3da75b13bd0b35f352c13d250f36fac8", "lat": 38.913362666666664, "fusion_lon": 0.0, "fusion_lat": 0.0, "type": "electric_scooter", "name": "3da75b13bd0b35f352c13d250f36fac8", "is_disabled": 0, "rental_uris": {"ios": "https://dc.lft.to/lastmile_qr_scan", "android": "https://dc.lft.to/lastmile_qr_scan"}, "is_reserved": 0}, {"lon": -77.02709416666667, "bike_id": "6e48f4817dc6b55ed585380015bb32b7", "lat": 38.89726116666667, "fusion_lon": 0.0, "fusion_lat": 0.0, "type": "electric_scooter", "name": "6e48f4817dc6b55ed585380015bb32b7", "is_disabled": 0, "rental_uris": {"ios": "https://dc.lft.to/lastmile_qr_scan", "android": "https://dc.lft.to/lastmile_qr_scan"}, "is_reserved": 0}, {"lon": -77.03181783333333, "bike_id": "854b72f7010c31a1facb69f138069d0a", "lat": 38.895737833333335, "fusion_lon": 0.0, "fusion_lat": 0.0, "type": "electric_scooter", "name": "854b72f7010c31a1facb69f138069d0a", "is_disabled": 0, "rental_uris": {"ios": "https://dc.lft.to/lastmile_qr_scan", "android": "https://dc.lft.to/lastmile_qr_scan"}, "is_reserved": 0}, {"lon": -77.0464605, "bike_id": "45926d58bb43e9e2399246409cf28bef", "lat": 39.054982, "fusion_lon": 0.0, "fusion_lat": 0.0, "type": "electric_bike", "name": "45926d58bb43e9e2399246409cf28bef", "is_disabled": 0, "rental_uris": {"ios": "https://dc.lft.to/lastmile_qr_scan", "android": "https://dc.lft.to/lastmile_qr_scan"}, "is_reserved": 0}, {"lon": -77.04333733333333, "bike_id": "dc4d76f1ae58e487ede5cc7b2433140b", "lat": 38.922206833333334, "fusion_lon": 0.0, "fusion_lat": 0.0, "type": "electric_scooter", "name": "dc4d76f1ae58e487ede5cc7b2433140b", "is_disabled": 0, "rental_uris": {"ios": "https://dc.lft.to/lastmile_qr_scan", "android": "https://dc.lft.to/lastmile_qr_scan"}, "is_reserved": 0}, {"lon": -76.9565595, "bike_id": "2219761d29edecabade37409e44968ab", "lat": 38.8962225, "fusion_lon": 0.0, "fusion_lat": 0.0, "type": "electric_scooter", "name": "2219761d29edecabade37409e44968ab", "is_disabled": 0, "rental_uris": {"ios": "https://dc.lft.to/lastmile_qr_scan", "android": "https://dc.lft.to/lastmile_qr_scan"}, "is_reserved": 0}, {"lon": -77.0318365, "bike_id": "f4fb614163e5d90938b6b3f55f042d1e", "lat": 38.895741666666666, "fusion_lon": 0.0, "fusion_lat": 0.0, "type": "electric_scooter", "name": "f4fb614163e5d90938b6b3f55f042d1e", "is_disabled": 0, "rental_uris": {"ios": "https://dc.lft.to/lastmile_qr_scan", "android": "https://dc.lft.to/lastmile_qr_scan"}, "is_reserved": 0}, {"lon": -76.88406166666667, "bike_id": "1387a990cdc3f128dbb193fdc60f23f4", "lat": 38.931693333333335, "fusion_lon": 0.0, "fusion_lat": 0.0, "type": "electric_bike", "name": "1387a990cdc3f128dbb193fdc60f23f4", "is_disabled": 0, "rental_uris": {"ios": "https://dc.lft.to/lastmile_qr_scan", "android": "https://dc.lft.to/lastmile_qr_scan"}, "is_reserved": 0}, {"lon": -77.03668316666666, "bike_id": "db45f070d62b5d34244098e145b0d1d7", "lat": 38.9320735, "fusion_lon": 0.0, "fusion_lat": 0.0, "type": "electric_scooter", "name": "db45f070d62b5d34244098e145b0d1d7", "is_disabled": 0, "rental_uris": {"ios": "https://dc.lft.to/lastmile_qr_scan", "android": "https://dc.lft.to/lastmile_qr_scan"}, "is_reserved": 0}, {"lon": -77.05584416666666, "bike_id": "9ebb01ee717d0687421f45761bb14f92", "lat": 38.9335665, "fusion_lon": 0.0, "fusion_lat": 0.0, "type": "electric_scooter", "name": "9ebb01ee717d0687421f45761bb14f92", "is_disabled": 0, "rental_uris": {"ios": "https://dc.lft.to/lastmile_qr_scan", "android": "https://dc.lft.to/lastmile_qr_scan"}, "is_reserved": 0}, {"lon": -77.017667, "bike_id": "9ea4840b0c4138fa8da8e100cd76e59e", "lat": 38.88739283333334, "fusion_lon": 0.0, "fusion_lat": 0.0, "type": "electric_scooter", "name": "9ea4840b0c4138fa8da8e100cd76e59e", "is_disabled": 0, "rental_uris": {"ios": "https://dc.lft.to/lastmile_qr_scan", "android": "https://dc.lft.to/lastmile_qr_scan"}, "is_reserved": 0}, {"lon": -77.01809433333334, "bike_id": "3916a0894de5df5911db23888c8851ab", "lat": 38.964833, "fusion_lon": 0.0, "fusion_lat": 0.0, "type": "electric_scooter", "name": "3916a0894de5df5911db23888c8851ab", "is_disabled": 0, "rental_uris": {"ios": "https://dc.lft.to/lastmile_qr_scan", "android": "https://dc.lft.to/lastmile_qr_scan"}, "is_reserved": 0}, {"lon": -77.02755983333333, "bike_id": "20b529a7937724dce326a65b78ac771c", "lat": 38.965668666666666, "fusion_lon": 0.0, "fusion_lat": 0.0, "type": "electric_bike", "name": "20b529a7937724dce326a65b78ac771c", "is_disabled": 0, "rental_uris": {"ios": "https://dc.lft.to/lastmile_qr_scan", "android": "https://dc.lft.to/lastmile_qr_scan"}, "is_reserved": 0}, {"lon": -77.1273875, "bike_id": "f09905ce433a136a11366d59e9126ca3", "lat": 38.895643166666666, "fusion_lon": 0.0, "fusion_lat": 0.0, "type": "electric_bike", "name": "f09905ce433a136a11366d59e9126ca3", "is_disabled": 0, "rental_uris": {"ios": "https://dc.lft.to/lastmile_qr_scan", "android": "https://dc.lft.to/lastmile_qr_scan"}, "is_reserved": 0}, {"lon": -77.06031666666667, "bike_id": "d7674ead1316bad12c92e6af1b2f3dac", "lat": 38.93358033333333, "fusion_lon": 0.0, "fusion_lat": 0.0, "type": "electric_scooter", "name": "d7674ead1316bad12c92e6af1b2f3dac", "is_disabled": 0, "rental_uris": {"ios": "https://dc.lft.to/lastmile_qr_scan", "android": "https://dc.lft.to/lastmile_qr_scan"}, "is_reserved": 0}, {"lon": -77.03884916666667, "bike_id": "6d008a76935808dc86c0e3051a79b582", "lat": 38.948715166666666, "fusion_lon": 0.0, "fusion_lat": 0.0, "type": "electric_scooter", "name": "6d008a76935808dc86c0e3051a79b582", "is_disabled": 0, "rental_uris": {"ios": "https://dc.lft.to/lastmile_qr_scan", "android": "https://dc.lft.to/lastmile_qr_scan"}, "is_reserved": 0}, {"lon": -77.06495066666666, "bike_id": "1839e3fbf1afc22d8d46d030584aebb9", "lat": 38.929067333333336, "fusion_lon": 0.0, "fusion_lat": 0.0, "type": "electric_scooter", "name": "1839e3fbf1afc22d8d46d030584aebb9", "is_disabled": 0, "rental_uris": {"ios": "https://dc.lft.to/lastmile_qr_scan", "android": "https://dc.lft.to/lastmile_qr_scan"}, "is_reserved": 0}, {"lon": -77.02541483333333, "bike_id": "8dca13571ee35b2f72fb40271d01c28a", "lat": 38.883893, "fusion_lon": 0.0, "fusion_lat": 0.0, "type": "electric_scooter", "name": "8dca13571ee35b2f72fb40271d01c28a", "is_disabled": 0, "rental_uris": {"ios": "https://dc.lft.to/lastmile_qr_scan", "android": "https://dc.lft.to/lastmile_qr_scan"}, "is_reserved": 0}, {"lon": -76.99036716666667, "bike_id": "81594820b3ea756dfc12376793ea9e6d", "lat": 38.887552166666666, "fusion_lon": 0.0, "fusion_lat": 0.0, "type": "electric_scooter", "name": "81594820b3ea756dfc12376793ea9e6d", "is_disabled": 0, "rental_uris": {"ios": "https://dc.lft.to/lastmile_qr_scan", "android": "https://dc.lft.to/lastmile_qr_scan"}, "is_reserved": 0}, {"lon": -77.02812433333334, "bike_id": "7f6ea8961cc6f1bb498f34b8b9eee92d", "lat": 38.899176833333335, "fusion_lon": 0.0, "fusion_lat": 0.0, "type": "electric_scooter", "name": "7f6ea8961cc6f1bb498f34b8b9eee92d", "is_disabled": 0, "rental_uris": {"ios": "https://dc.lft.to/lastmile_qr_scan", "android": "https://dc.lft.to/lastmile_qr_scan"}, "is_reserved": 0}, {"lon": -77.03560983333334, "bike_id": "ad2a9ffacb1c92eda4926e64d6f88913", "lat": 38.927428, "fusion_lon": 0.0, "fusion_lat": 0.0, "type": "electric_scooter", "name": "ad2a9ffacb1c92eda4926e64d6f88913", "is_disabled": 0, "rental_uris": {"ios": "https://dc.lft.to/lastmile_qr_scan", "android": "https://dc.lft.to/lastmile_qr_scan"}, "is_reserved": 0}, {"lon": -77.00889983333333, "bike_id": "1be42aa657ba9d17b884d493e555932d", "lat": 38.9171495, "fusion_lon": 0.0, "fusion_lat": 0.0, "type": "electric_scooter", "name": "1be42aa657ba9d17b884d493e555932d", "is_disabled": 0, "rental_uris": {"ios": "https://dc.lft.to/lastmile_qr_scan", "android": "https://dc.lft.to/lastmile_qr_scan"}, "is_reserved": 0}, {"lon": -76.990332, "bike_id": "66e443833e7540d9bed7a6162321bb99", "lat": 38.8984905, "fusion_lon": 0.0, "fusion_lat": 0.0, "type": "electric_scooter", "name": "66e443833e7540d9bed7a6162321bb99", "is_disabled": 0, "rental_uris": {"ios": "https://dc.lft.to/lastmile_qr_scan", "android": "https://dc.lft.to/lastmile_qr_scan"}, "is_reserved": 0}, {"lon": -77.00198966666666, "bike_id": "aea19a98dd195c00a454f092c5b1d663", "lat": 38.900397166666664, "fusion_lon": 0.0, "fusion_lat": 0.0, "type": "electric_scooter", "name": "aea19a98dd195c00a454f092c5b1d663", "is_disabled": 0, "rental_uris": {"ios": "https://dc.lft.to/lastmile_qr_scan", "android": "https://dc.lft.to/lastmile_qr_scan"}, "is_reserved": 0}, {"lon": -77.0340375, "bike_id": "31611f4d2a34a857bbd0254469cb975b", "lat": 38.93117316666667, "fusion_lon": 0.0, "fusion_lat": 0.0, "type": "electric_scooter", "name": "31611f4d2a34a857bbd0254469cb975b", "is_disabled": 0, "rental_uris": {"ios": "https://dc.lft.to/lastmile_qr_scan", "android": "https://dc.lft.to/lastmile_qr_scan"}, "is_reserved": 0}, {"lon": -77.03170233333333, "bike_id": "3ff271e8b12461745c9e4a8b353f3078", "lat": 38.897727333333336, "fusion_lon": 0.0, "fusion_lat": 0.0, "type": "electric_scooter", "name": "3ff271e8b12461745c9e4a8b353f3078", "is_disabled": 0, "rental_uris": {"ios": "https://dc.lft.to/lastmile_qr_scan", "android": "https://dc.lft.to/lastmile_qr_scan"}, "is_reserved": 0}, {"lon": -77.01897516666666, "bike_id": "eed54106be48cd4e3d618902cb1bf467", "lat": 38.87742866666667, "fusion_lon": 0.0, "fusion_lat": 0.0, "type": "electric_scooter", "name": "eed54106be48cd4e3d618902cb1bf467", "is_disabled": 0, "rental_uris": {"ios": "https://dc.lft.to/lastmile_qr_scan", "android": "https://dc.lft.to/lastmile_qr_scan"}, "is_reserved": 0}, {"lon": -77.0402055, "bike_id": "d7dd374692a58edf2f5994946e3afdc4", "lat": 38.9040755, "fusion_lon": 0.0, "fusion_lat": 0.0, "type": "electric_scooter", "name": "d7dd374692a58edf2f5994946e3afdc4", "is_disabled": 0, "rental_uris": {"ios": "https://dc.lft.to/lastmile_qr_scan", "android": "https://dc.lft.to/lastmile_qr_scan"}, "is_reserved": 0}, {"lon": -77.03861433333333, "bike_id": "d52056bc88c2208583eb4221c786d73c", "lat": 38.915566, "fusion_lon": 0.0, "fusion_lat": 0.0, "type": "electric_scooter", "name": "d52056bc88c2208583eb4221c786d73c", "is_disabled": 0, "rental_uris": {"ios": "https://dc.lft.to/lastmile_qr_scan", "android": "https://dc.lft.to/lastmile_qr_scan"}, "is_reserved": 0}, {"lon": -77.048026, "bike_id": "80e1e96b292b971e4f82e03538637ac4", "lat": 38.91409266666667, "fusion_lon": 0.0, "fusion_lat": 0.0, "type": "electric_scooter", "name": "80e1e96b292b971e4f82e03538637ac4", "is_disabled": 0, "rental_uris": {"ios": "https://dc.lft.to/lastmile_qr_scan", "android": "https://dc.lft.to/lastmile_qr_scan"}, "is_reserved": 0}, {"lon": -77.0415915, "bike_id": "64c5fb41328eaa69b907463663496d5f", "lat": 38.91251666666667, "fusion_lon": 0.0, "fusion_lat": 0.0, "type": "electric_scooter", "name": "64c5fb41328eaa69b907463663496d5f", "is_disabled": 0, "rental_uris": {"ios": "https://dc.lft.to/lastmile_qr_scan", "android": "https://dc.lft.to/lastmile_qr_scan"}, "is_reserved": 0}, {"lon": -77.02178383333333, "bike_id": "7ac3e5eb5462707946a1af747654e1e5", "lat": 38.9095265, "fusion_lon": 0.0, "fusion_lat": 0.0, "type": "electric_scooter", "name": "7ac3e5eb5462707946a1af747654e1e5", "is_disabled": 0, "rental_uris": {"ios": "https://dc.lft.to/lastmile_qr_scan", "android": "https://dc.lft.to/lastmile_qr_scan"}, "is_reserved": 0}, {"lon": -76.982408, "bike_id": "e45b7b4c42083418786496099a4c6ddf", "lat": 38.888666666666666, "fusion_lon": 0.0, "fusion_lat": 0.0, "type": "electric_scooter", "name": "e45b7b4c42083418786496099a4c6ddf", "is_disabled": 0, "rental_uris": {"ios": "https://dc.lft.to/lastmile_qr_scan", "android": "https://dc.lft.to/lastmile_qr_scan"}, "is_reserved": 0}, {"lon": -77.03359016666667, "bike_id": "b7579cb8a53a09701e3f582bcd4887f3", "lat": 38.923480833333336, "fusion_lon": 0.0, "fusion_lat": 0.0, "type": "electric_scooter", "name": "b7579cb8a53a09701e3f582bcd4887f3", "is_disabled": 0, "rental_uris": {"ios": "https://dc.lft.to/lastmile_qr_scan", "android": "https://dc.lft.to/lastmile_qr_scan"}, "is_reserved": 0}, {"lon": -77.02671183333334, "bike_id": "f4bf47e87f96092d892ddf241d16980d", "lat": 38.971939166666665, "fusion_lon": 0.0, "fusion_lat": 0.0, "type": "electric_scooter", "name": "f4bf47e87f96092d892ddf241d16980d", "is_disabled": 0, "rental_uris": {"ios": "https://dc.lft.to/lastmile_qr_scan", "android": "https://dc.lft.to/lastmile_qr_scan"}, "is_reserved": 0}, {"lon": -77.04876166666666, "bike_id": "0be9048cb407209c6f85110da71b5315", "lat": 38.89233383333333, "fusion_lon": 0.0, "fusion_lat": 0.0, "type": "electric_scooter", "name": "0be9048cb407209c6f85110da71b5315", "is_disabled": 0, "rental_uris": {"ios": "https://dc.lft.to/lastmile_qr_scan", "android": "https://dc.lft.to/lastmile_qr_scan"}, "is_reserved": 0}, {"lon": -76.99883966666667, "bike_id": "52b60ceae46f120936df5b4bf2903db0", "lat": 38.90952083333333, "fusion_lon": 0.0, "fusion_lat": 0.0, "type": "electric_scooter", "name": "52b60ceae46f120936df5b4bf2903db0", "is_disabled": 0, "rental_uris": {"ios": "https://dc.lft.to/lastmile_qr_scan", "android": "https://dc.lft.to/lastmile_qr_scan"}, "is_reserved": 0}, {"lon": -77.04471433333333, "bike_id": "c78b6d7b1697130b25ab44974fa270aa", "lat": 38.9043615, "fusion_lon": 0.0, "fusion_lat": 0.0, "type": "electric_scooter", "name": "c78b6d7b1697130b25ab44974fa270aa", "is_disabled": 0, "rental_uris": {"ios": "https://dc.lft.to/lastmile_qr_scan", "android": "https://dc.lft.to/lastmile_qr_scan"}, "is_reserved": 0}, {"lon": -77.0213555, "bike_id": "09a159ed9722eb3a92a199ef28df4e59", "lat": 38.896991166666666, "fusion_lon": 0.0, "fusion_lat": 0.0, "type": "electric_scooter", "name": "09a159ed9722eb3a92a199ef28df4e59", "is_disabled": 0, "rental_uris": {"ios": "https://dc.lft.to/lastmile_qr_scan", "android": "https://dc.lft.to/lastmile_qr_scan"}, "is_reserved": 0}, {"lon": -77.028216, "bike_id": "d6230d3d1603760aaa7dcae94e7b3a14", "lat": 38.89535566666667, "fusion_lon": 0.0, "fusion_lat": 0.0, "type": "electric_scooter", "name": "d6230d3d1603760aaa7dcae94e7b3a14", "is_disabled": 0, "rental_uris": {"ios": "https://dc.lft.to/lastmile_qr_scan", "android": "https://dc.lft.to/lastmile_qr_scan"}, "is_reserved": 0}, {"lon": -77.02230466666667, "bike_id": "5c4bf6b3ac547ee2322260b4fd82df22", "lat": 38.962048833333334, "fusion_lon": 0.0, "fusion_lat": 0.0, "type": "electric_scooter", "name": "5c4bf6b3ac547ee2322260b4fd82df22", "is_disabled": 0, "rental_uris": {"ios": "https://dc.lft.to/lastmile_qr_scan", "android": "https://dc.lft.to/lastmile_qr_scan"}, "is_reserved": 0}, {"lon": -77.0294885, "bike_id": "bebca023c17d3bf10e19e242b1905cbe", "lat": 38.906499333333336, "fusion_lon": 0.0, "fusion_lat": 0.0, "type": "electric_scooter", "name": "bebca023c17d3bf10e19e242b1905cbe", "is_disabled": 0, "rental_uris": {"ios": "https://dc.lft.to/lastmile_qr_scan", "android": "https://dc.lft.to/lastmile_qr_scan"}, "is_reserved": 0}, {"lon": -76.99228166666667, "bike_id": "456de52fb9a8a8cbe92ac7e77b7a7b47", "lat": 38.9221445, "fusion_lon": 0.0, "fusion_lat": 0.0, "type": "electric_scooter", "name": "456de52fb9a8a8cbe92ac7e77b7a7b47", "is_disabled": 0, "rental_uris": {"ios": "https://dc.lft.to/lastmile_qr_scan", "android": "https://dc.lft.to/lastmile_qr_scan"}, "is_reserved": 0}, {"lon": -77.03859333333334, "bike_id": "db8acdeb696b22e75f68fd76b8bee411", "lat": 38.90363683333333, "fusion_lon": 0.0, "fusion_lat": 0.0, "type": "electric_scooter", "name": "db8acdeb696b22e75f68fd76b8bee411", "is_disabled": 0, "rental_uris": {"ios": "https://dc.lft.to/lastmile_qr_scan", "android": "https://dc.lft.to/lastmile_qr_scan"}, "is_reserved": 0}, {"lon": -76.9952385, "bike_id": "f36549a85709cedf0b153d409fd52417", "lat": 38.86260383333333, "fusion_lon": 0.0, "fusion_lat": 0.0, "type": "electric_scooter", "name": "f36549a85709cedf0b153d409fd52417", "is_disabled": 0, "rental_uris": {"ios": "https://dc.lft.to/lastmile_qr_scan", "android": "https://dc.lft.to/lastmile_qr_scan"}, "is_reserved": 0}, {"lon": -76.94886516666666, "bike_id": "1c9fd11a0a8215ac3496564204025069", "lat": 38.89510933333333, "fusion_lon": 0.0, "fusion_lat": 0.0, "type": "electric_scooter", "name": "1c9fd11a0a8215ac3496564204025069", "is_disabled": 0, "rental_uris": {"ios": "https://dc.lft.to/lastmile_qr_scan", "android": "https://dc.lft.to/lastmile_qr_scan"}, "is_reserved": 0}, {"lon": -77.0675565, "bike_id": "78502331e8e3bbb548c098a9c8b2bcaa", "lat": 38.90354633333333, "fusion_lon": 0.0, "fusion_lat": 0.0, "type": "electric_bike", "name": "78502331e8e3bbb548c098a9c8b2bcaa", "is_disabled": 0, "rental_uris": {"ios": "https://dc.lft.to/lastmile_qr_scan", "android": "https://dc.lft.to/lastmile_qr_scan"}, "is_reserved": 0}, {"lon": -77.021589, "bike_id": "5cc84d4ec2f70175aba1e6035e090e07", "lat": 38.95075383333333, "fusion_lon": 0.0, "fusion_lat": 0.0, "type": "electric_scooter", "name": "5cc84d4ec2f70175aba1e6035e090e07", "is_disabled": 0, "rental_uris": {"ios": "https://dc.lft.to/lastmile_qr_scan", "android": "https://dc.lft.to/lastmile_qr_scan"}, "is_reserved": 0}, {"lon": -77.02004566666666, "bike_id": "4676cf1d0d685887ee592c59c5da2b3e", "lat": 38.92409983333334, "fusion_lon": 0.0, "fusion_lat": 0.0, "type": "electric_scooter", "name": "4676cf1d0d685887ee592c59c5da2b3e", "is_disabled": 0, "rental_uris": {"ios": "https://dc.lft.to/lastmile_qr_scan", "android": "https://dc.lft.to/lastmile_qr_scan"}, "is_reserved": 0}, {"lon": -77.03418683333334, "bike_id": "bef15a378399287cfe43b0b350820935", "lat": 38.9023035, "fusion_lon": 0.0, "fusion_lat": 0.0, "type": "electric_scooter", "name": "bef15a378399287cfe43b0b350820935", "is_disabled": 0, "rental_uris": {"ios": "https://dc.lft.to/lastmile_qr_scan", "android": "https://dc.lft.to/lastmile_qr_scan"}, "is_reserved": 0}, {"lon": -77.05222666666667, "bike_id": "44daf77f4ad8514fdcba2936687b2824", "lat": 38.92464366666667, "fusion_lon": 0.0, "fusion_lat": 0.0, "type": "electric_scooter", "name": "44daf77f4ad8514fdcba2936687b2824", "is_disabled": 0, "rental_uris": {"ios": "https://dc.lft.to/lastmile_qr_scan", "android": "https://dc.lft.to/lastmile_qr_scan"}, "is_reserved": 0}, {"lon": -77.01636016666667, "bike_id": "c2783a509df782de3d28253fc48d66a6", "lat": 38.90373733333333, "fusion_lon": 0.0, "fusion_lat": 0.0, "type": "electric_scooter", "name": "c2783a509df782de3d28253fc48d66a6", "is_disabled": 0, "rental_uris": {"ios": "https://dc.lft.to/lastmile_qr_scan", "android": "https://dc.lft.to/lastmile_qr_scan"}, "is_reserved": 0}, {"lon": -77.04131916666667, "bike_id": "083066b02e22619a82c576200f4f5e71", "lat": 38.91975583333333, "fusion_lon": 0.0, "fusion_lat": 0.0, "type": "electric_scooter", "name": "083066b02e22619a82c576200f4f5e71", "is_disabled": 0, "rental_uris": {"ios": "https://dc.lft.to/lastmile_qr_scan", "android": "https://dc.lft.to/lastmile_qr_scan"}, "is_reserved": 0}, {"lon": -77.03448516666667, "bike_id": "58d3796ba23eebff50717167cf659e6d", "lat": 38.909758833333335, "fusion_lon": 0.0, "fusion_lat": 0.0, "type": "electric_scooter", "name": "58d3796ba23eebff50717167cf659e6d", "is_disabled": 0, "rental_uris": {"ios": "https://dc.lft.to/lastmile_qr_scan", "android": "https://dc.lft.to/lastmile_qr_scan"}, "is_reserved": 0}, {"lon": -76.980205, "bike_id": "a0da90b3de1e8073557ca0cec51653f1", "lat": 38.853197, "fusion_lon": 0.0, "fusion_lat": 0.0, "type": "electric_bike", "name": "a0da90b3de1e8073557ca0cec51653f1", "is_disabled": 0, "rental_uris": {"ios": "https://dc.lft.to/lastmile_qr_scan", "android": "https://dc.lft.to/lastmile_qr_scan"}, "is_reserved": 0}, {"lon": -77.0796885, "bike_id": "20534bccefbe80c8dfadb23952ef74c6", "lat": 38.85725633333333, "fusion_lon": 0.0, "fusion_lat": 0.0, "type": "electric_bike", "name": "20534bccefbe80c8dfadb23952ef74c6", "is_disabled": 0, "rental_uris": {"ios": "https://dc.lft.to/lastmile_qr_scan", "android": "https://dc.lft.to/lastmile_qr_scan"}, "is_reserved": 0}, {"lon": -77.031064, "bike_id": "fa6d5a9c6585037e359babfc854d9461", "lat": 38.91556816666667, "fusion_lon": 0.0, "fusion_lat": 0.0, "type": "electric_scooter", "name": "fa6d5a9c6585037e359babfc854d9461", "is_disabled": 0, "rental_uris": {"ios": "https://dc.lft.to/lastmile_qr_scan", "android": "https://dc.lft.to/lastmile_qr_scan"}, "is_reserved": 0}, {"lon": -76.989909, "bike_id": "a37c6e19ea1dced8e7c433574b692381", "lat": 38.93365883333333, "fusion_lon": 0.0, "fusion_lat": 0.0, "type": "electric_scooter", "name": "a37c6e19ea1dced8e7c433574b692381", "is_disabled": 0, "rental_uris": {"ios": "https://dc.lft.to/lastmile_qr_scan", "android": "https://dc.lft.to/lastmile_qr_scan"}, "is_reserved": 0}, {"lon": -76.99072433333333, "bike_id": "0d5162f97b5f7786250ed10cf31ef82f", "lat": 38.89811533333334, "fusion_lon": 0.0, "fusion_lat": 0.0, "type": "electric_bike", "name": "0d5162f97b5f7786250ed10cf31ef82f", "is_disabled": 0, "rental_uris": {"ios": "https://dc.lft.to/lastmile_qr_scan", "android": "https://dc.lft.to/lastmile_qr_scan"}, "is_reserved": 0}, {"lon": -77.05916616666667, "bike_id": "630806b42286ac5abb11b6242b0631a9", "lat": 38.90623816666667, "fusion_lon": 0.0, "fusion_lat": 0.0, "type": "electric_scooter", "name": "630806b42286ac5abb11b6242b0631a9", "is_disabled": 0, "rental_uris": {"ios": "https://dc.lft.to/lastmile_qr_scan", "android": "https://dc.lft.to/lastmile_qr_scan"}, "is_reserved": 0}, {"lon": -77.04350033333333, "bike_id": "0059d0db97221ebafc93cc32859cc925", "lat": 38.912175, "fusion_lon": 0.0, "fusion_lat": 0.0, "type": "electric_scooter", "name": "0059d0db97221ebafc93cc32859cc925", "is_disabled": 0, "rental_uris": {"ios": "https://dc.lft.to/lastmile_qr_scan", "android": "https://dc.lft.to/lastmile_qr_scan"}, "is_reserved": 0}, {"lon": -77.03665616666666, "bike_id": "3dc061459c06aca40062d20332d8301f", "lat": 38.918119, "fusion_lon": 0.0, "fusion_lat": 0.0, "type": "electric_scooter", "name": "3dc061459c06aca40062d20332d8301f", "is_disabled": 0, "rental_uris": {"ios": "https://dc.lft.to/lastmile_qr_scan", "android": "https://dc.lft.to/lastmile_qr_scan"}, "is_reserved": 0}, {"lon": -77.00578416666667, "bike_id": "8f21f62c08b6dafc51fa9d67de0df1d0", "lat": 38.8299825, "fusion_lon": 0.0, "fusion_lat": 0.0, "type": "electric_scooter", "name": "8f21f62c08b6dafc51fa9d67de0df1d0", "is_disabled": 0, "rental_uris": {"ios": "https://dc.lft.to/lastmile_qr_scan", "android": "https://dc.lft.to/lastmile_qr_scan"}, "is_reserved": 0}, {"lon": -77.03863966666667, "bike_id": "5bf47b308ae213bb8b3c57701a921c04", "lat": 38.909702333333335, "fusion_lon": 0.0, "fusion_lat": 0.0, "type": "electric_scooter", "name": "5bf47b308ae213bb8b3c57701a921c04", "is_disabled": 0, "rental_uris": {"ios": "https://dc.lft.to/lastmile_qr_scan", "android": "https://dc.lft.to/lastmile_qr_scan"}, "is_reserved": 0}, {"lon": -77.10522833333333, "bike_id": "fe4e1116afbeb591aa0033a35131a1ab", "lat": 38.8737415, "fusion_lon": 0.0, "fusion_lat": 0.0, "type": "electric_bike", "name": "fe4e1116afbeb591aa0033a35131a1ab", "is_disabled": 0, "rental_uris": {"ios": "https://dc.lft.to/lastmile_qr_scan", "android": "https://dc.lft.to/lastmile_qr_scan"}, "is_reserved": 0}, {"lon": -76.98082333333333, "bike_id": "bd342e8b431e6891282ddc8d7f258965", "lat": 38.879352833333336, "fusion_lon": 0.0, "fusion_lat": 0.0, "type": "electric_bike", "name": "bd342e8b431e6891282ddc8d7f258965", "is_disabled": 0, "rental_uris": {"ios": "https://dc.lft.to/lastmile_qr_scan", "android": "https://dc.lft.to/lastmile_qr_scan"}, "is_reserved": 0}, {"lon": -77.01883816666667, "bike_id": "010396c3e1f4898f068c322defe845b8", "lat": 38.906131, "fusion_lon": 0.0, "fusion_lat": 0.0, "type": "electric_scooter", "name": "010396c3e1f4898f068c322defe845b8", "is_disabled": 0, "rental_uris": {"ios": "https://dc.lft.to/lastmile_qr_scan", "android": "https://dc.lft.to/lastmile_qr_scan"}, "is_reserved": 0},