{"data": {"bikes": [{"rental_uris": {"ios": "https://dc.lft.to/lastmile_qr_scan", "android": "https://dc.lft.to/lastmile_qr_scan"}, "lon": -77.03816433333333, "type": "electric_bike", "fusion_lat": 0.0, "lat": 38.996648666666665, "name": "67d49974b6df845170dd1ecf1934aaf8", "fusion_lon": 0.0, "bike_id": "67d49974b6df845170dd1ecf1934aaf8", "is_disabled": 0, "is_reserved": 0}, {"rental_uris": {"ios": "https://dc.lft.to/lastmile_qr_scan", "android": "https://dc.lft.to/lastmile_qr_scan"}, "lon": -77.05001483333334, "type": "electric_scooter", "fusion_lat": 0.0, "lat": 38.89229866666667, "name": "ec2027c7f059dff12af5db49cd117d12", "fusion_lon": 0.0, "bike_id": "ec2027c7f059dff12af5db49cd117d12", "is_disabled": 0, "is_reserved": 0}, {"rental_uris": {"ios": "https://dc.lft.to/lastmile_qr_scan", "android": "https://dc.lft.to/lastmile_qr_scan"}, "lon": -77.04035916666666, "type": "electric_scooter", "fusion_lat": 0.0, "lat": 38.92432483333333, "name": "b8b213271b36acd67837c3d9020da757", "fusion_lon": 0.0, "bike_id": "b8b213271b36acd67837c3d9020da757", "is_disabled": 0, "is_reserved": 0}, {"rental_uris": {"ios": "https://dc.lft.to/lastmile_qr_scan", "android": "https://dc.lft.to/lastmile_qr_scan"}, "lon": -77.0429445, "type": "electric_scooter", "fusion_lat": 0.0, "lat": 38.9072775, "name": "b03df8c389e6b97ed3f8eb7700ed900e", "fusion_lon": 0.0, "bike_id": "b03df8c389e6b97ed3f8eb7700ed900e", "is_disabled": 0, "is_reserved": 0}, {"rental_uris": {"ios": "https://dc.lft.to/lastmile_qr_scan", "android": "https://dc.lft.to/lastmile_qr_scan"}, "lon": -77.0136145, "type": "electric_scooter", "fusion_lat": 0.0, "lat": 38.9198485, "name": "3cdb4407e1b5ea9e0900050083642e91", "fusion_lon": 0.0, "bike_id": "3cdb4407e1b5ea9e0900050083642e91", "is_disabled": 0, "is_reserved": 0}, {"rental_uris": {"ios": "https://dc.lft.to/lastmile_qr_scan", "android": "https://dc.lft.to/lastmile_qr_scan"}, "lon": -77.032618, "type": "electric_scooter", "fusion_lat": 0.0, "lat": 38.91989233333334, "name": "f67e7390376dc44c65aa080d97bfd803", "fusion_lon": 0.0, "bike_id": "f67e7390376dc44c65aa080d97bfd803", "is_disabled": 0, "is_reserved": 0}, {"rental_uris": {"ios": "https://dc.lft.to/lastmile_qr_scan", "android": "https://dc.lft.to/lastmile_qr_scan"}, "lon": -77.033294, "type": "electric_scooter", "fusion_lat": 0.0, "lat": 38.90318283333333, "name": "5207001eef80fa7b1f9b121d6ed36e35", "fusion_lon": 0.0, "bike_id": "5207001eef80fa7b1f9b121d6ed36e35", "is_disabled": 0, "is_reserved": 0}, {"rental_uris": {"ios": "https://dc.lft.to/lastmile_qr_scan", "android": "https://dc.lft.to/lastmile_qr_scan"}, "lon": -77.030668, "type": "electric_scooter", "fusion_lat": 0.0, "lat": 38.880456, "name": "bd6cb021806a30e8d44763c31c94ca0b", "fusion_lon": 0.0, "bike_id": "bd6cb021806a30e8d44763c31c94ca0b", "is_disabled": 0, "is_reserved": 0}, {"rental_uris": {"ios": "https://dc.lft.to/lastmile_qr_scan", "android": "https://dc.lft.to/lastmile_qr_scan"}, "lon": -77.03938216666667, "type": "electric_scooter", "fusion_lat": 0.0, "lat": 38.93156333333334, "name": "62ef20f4fe3e0b9df8b23331a2697f80", "fusion_lon": 0.0, "bike_id": "62ef20f4fe3e0b9df8b23331a2697f80", "is_disabled": 0, "is_reserved": 0}, {"rental_uris": {"ios": "https://dc.lft.to/lastmile_qr_scan", "android": "https://dc.lft.to/lastmile_qr_scan"}, "lon": -76.97726883333333, "type": "electric_scooter", "fusion_lat": 0.0, "lat": 38.8728955, "name": "e005e208d6823804dda7fc5513662af3", "fusion_lon": 0.0, "bike_id": "e005e208d6823804dda7fc5513662af3", "is_disabled": 0, "is_reserved": 0}, {"rental_uris": {"ios": "https://dc.lft.to/lastmile_qr_scan", "android": "https://dc.lft.to/lastmile_qr_scan"}, "lon": -77.050648, "type": "electric_scooter", "fusion_lat": 0.0, "lat": 38.90548666666667, "name": "7f914f85bf4b4cbc74d315706e5da864", "fusion_lon": 0.0, "bike_id": "7f914f85bf4b4cbc74d315706e5da864", "is_disabled": 0, "is_reserved": 0}, {"rental_uris": {"ios": "https://dc.lft.to/lastmile_qr_scan", "android": "https://dc.lft.to/lastmile_qr_scan"}, "lon": -76.94945466666667, "type": "electric_scooter", "fusion_lat": 0.0, "lat": 38.883780333333334, "name": "ac573fb6f8350bce85ffb9598aa4caba", "fusion_lon": 0.0, "bike_id": "ac573fb6f8350bce85ffb9598aa4caba", "is_disabled": 0, "is_reserved": 0}, {"rental_uris": {"ios": "https://dc.lft.to/lastmile_qr_scan", "android": "https://dc.lft.to/lastmile_qr_scan"}, "lon": -77.02159, "type": "electric_scooter", "fusion_lat": 0.0, "lat": 38.897190333333334, "name": "72c56e76b2dc501092f742e86b88f56f", "fusion_lon": 0.0, "bike_id": "72c56e76b2dc501092f742e86b88f56f", "is_disabled": 0, "is_reserved": 0}, {"rental_uris": {"ios": "https://dc.lft.to/lastmile_qr_scan", "android": "https://dc.lft.to/lastmile_qr_scan"}, "lon": -77.0248475, "type": "electric_scooter", "fusion_lat": 0.0, "lat": 38.90174183333333, "name": "f982248a87ff03055b7d7d3c762b31bb", "fusion_lon": 0.0, "bike_id": "f982248a87ff03055b7d7d3c762b31bb", "is_disabled": 0, "is_reserved": 0}, {"rental_uris": {"ios": "https://dc.lft.to/lastmile_qr_scan", "android": "https://dc.lft.to/lastmile_qr_scan"}, "lon": -77.02987416666667, "type": "electric_bike", "fusion_lat": 0.0, "lat": 38.900247666666665, "name": "12d7da1446cd679fddda2b6130de1734", "fusion_lon": 0.0, "bike_id": "12d7da1446cd679fddda2b6130de1734", "is_disabled": 0, "is_reserved": 0}, {"rental_uris": {"ios": "https://dc.lft.to/lastmile_qr_scan", "android": "https://dc.lft.to/lastmile_qr_scan"}, "lon": -76.95745416666666, "type": "electric_scooter", "fusion_lat": 0.0, "lat": 38.8922255, "name": "4d1108bd3d8b591ebe0250fae1d82333", "fusion_lon": 0.0, "bike_id": "4d1108bd3d8b591ebe0250fae1d82333", "is_disabled": 0, "is_reserved": 0}, {"rental_uris": {"ios": "https://dc.lft.to/lastmile_qr_scan", "android": "https://dc.lft.to/lastmile_qr_scan"}, "lon": -77.0383415, "type": "electric_scooter", "fusion_lat": 0.0, "lat": 38.92177066666667, "name": "e5f061b76e7584227177819f8e732899", "fusion_lon": 0.0, "bike_id": "e5f061b76e7584227177819f8e732899", "is_disabled": 0, "is_reserved": 0}, {"rental_uris": {"ios": "https://dc.lft.to/lastmile_qr_scan", "android": "https://dc.lft.to/lastmile_qr_scan"}, "lon": -77.039045, "type": "electric_scooter", "fusion_lat": 0.0, "lat": 38.89842683333333, "name": "335d304b9c5ac2029c6c9324c5df16fb", "fusion_lon": 0.0, "bike_id": "335d304b9c5ac2029c6c9324c5df16fb", "is_disabled": 0, "is_reserved": 0}, {"rental_uris": {"ios": "https://dc.lft.to/lastmile_qr_scan", "android": "https://dc.lft.to/lastmile_qr_scan"}, "lon": -77.13176516666667, "type": "electric_bike", "fusion_lat": 0.0, "lat": 38.86906466666667, "name": "f00a7895c857d5b7980e53d2d93b123a", "fusion_lon": 0.0, "bike_id": "f00a7895c857d5b7980e53d2d93b123a", "is_disabled": 0, "is_reserved": 0}, {"rental_uris": {"ios": "https://dc.lft.to/lastmile_qr_scan", "android": "https://dc.lft.to/lastmile_qr_scan"}, "lon": -77.04801466666666, "type": "electric_scooter", "fusion_lat": 0.0, "lat": 38.91640916666667, "name": "fa402a9e7d044bf55d4ecad4cdb69770", "fusion_lon": 0.0, "bike_id": "fa402a9e7d044bf55d4ecad4cdb69770", "is_disabled": 0, "is_reserved": 0}, {"rental_uris": {"ios": "https://dc.lft.to/lastmile_qr_scan", "android": "https://dc.lft.to/lastmile_qr_scan"}, "lon": -77.01876783333333, "type": "electric_scooter", "fusion_lat": 0.0, "lat": 38.90617566666667, "name": "15e3a3e2fd9a0b4753bafea28ed4b1b0", "fusion_lon": 0.0, "bike_id": "15e3a3e2fd9a0b4753bafea28ed4b1b0", "is_disabled": 0, "is_reserved": 0}, {"rental_uris": {"ios": "https://dc.lft.to/lastmile_qr_scan", "android": "https://dc.lft.to/lastmile_qr_scan"}, "lon": -77.03538116666667, "type": "electric_scooter", "fusion_lat": 0.0, "lat": 38.92341233333333, "name": "9f68410f09c236f9b59be45f59fcd79a", "fusion_lon": 0.0, "bike_id": "9f68410f09c236f9b59be45f59fcd79a", "is_disabled": 0, "is_reserved": 0}, {"rental_uris": {"ios": "https://dc.lft.to/lastmile_qr_scan", "android": "https://dc.lft.to/lastmile_qr_scan"}, "lon": -77.003369, "type": "electric_scooter", "fusion_lat": 0.0, "lat": 38.893547, "name": "032d9a747d21fea52e31929e82ba0b72", "fusion_lon": 0.0, "bike_id": "032d9a747d21fea52e31929e82ba0b72", "is_disabled": 0, "is_reserved": 0}, {"rental_uris": {"ios": "https://dc.lft.to/lastmile_qr_scan", "android": "https://dc.lft.to/lastmile_qr_scan"}, "lon": -77.0249275, "type": "electric_scooter", "fusion_lat": 0.0, "lat": 38.905673666666665, "name": "9ed4868afe4fc762d33fb5ac6b05f86d", "fusion_lon": 0.0, "bike_id": "9ed4868afe4fc762d33fb5ac6b05f86d", "is_disabled": 0, "is_reserved": 0}, {"rental_uris": {"ios": "https://dc.lft.to/lastmile_qr_scan", "android": "https://dc.lft.to/lastmile_qr_scan"}, "lon": -76.98552283333333, "type": "electric_scooter", "fusion_lat": 0.0, "lat": 38.899541166666666, "name": "4ec19598dccb844ca5ab59f16f171bb6", "fusion_lon": 0.0, "bike_id": "4ec19598dccb844ca5ab59f16f171bb6", "is_disabled": 0, "is_reserved": 0}, {"rental_uris": {"ios": "https://dc.lft.to/lastmile_qr_scan", "android": "https://dc.lft.to/lastmile_qr_scan"}, "lon": -76.98879983333333, "type": "electric_scooter", "fusion_lat": 0.0, "lat": 38.8665795, "name": "0532ff7f17f413be1c36920dd7368b92", "fusion_lon": 0.0, "bike_id": "0532ff7f17f413be1c36920dd7368b92", "is_disabled": 0, "is_reserved": 0}, {"rental_uris": {"ios": "https://dc.lft.to/lastmile_qr_scan", "android": "https://dc.lft.to/lastmile_qr_scan"}, "lon": -77.02703183333334, "type": "electric_scooter", "fusion_lat": 0.0, "lat": 38.90045666666666, "name": "afa4b87ab6d2f4d0cee48828bae1e6bd", "fusion_lon": 0.0, "bike_id": "afa4b87ab6d2f4d0cee48828bae1e6bd", "is_disabled": 0, "is_reserved": 0}, {"rental_uris": {"ios": "https://dc.lft.to/lastmile_qr_scan", "android": "https://dc.lft.to/lastmile_qr_scan"}, "lon": -77.04344266666666, "type": "electric_scooter", "fusion_lat": 0.0, "lat": 38.9082885, "name": "fae0b49b96b3f806634256b4587b9612", "fusion_lon": 0.0, "bike_id": "fae0b49b96b3f806634256b4587b9612", "is_disabled": 0, "is_reserved": 0}, {"rental_uris": {"ios": "https://dc.lft.to/lastmile_qr_scan", "android": "https://dc.lft.to/lastmile_qr_scan"}, "lon": -77.02019766666666, "type": "electric_scooter", "fusion_lat": 0.0, "lat": 38.9015585, "name": "ecac03c726b35c26bb58c37aa057bcc6", "fusion_lon": 0.0, "bike_id": "ecac03c726b35c26bb58c37aa057bcc6", "is_disabled": 0, "is_reserved": 0}, {"rental_uris": {"ios": "https://dc.lft.to/lastmile_qr_scan", "android": "https://dc.lft.to/lastmile_qr_scan"}, "lon": -77.02089216666667, "type": "electric_scooter", "fusion_lat": 0.0, "lat": 38.9312, "name": "60e640fba4a4f4906c867de1fc06b5c2", "fusion_lon": 0.0, "bike_id": "60e640fba4a4f4906c867de1fc06b5c2", "is_disabled": 0, "is_reserved": 0}, {"rental_uris": {"ios": "https://dc.lft.to/lastmile_qr_scan", "android": "https://dc.lft.to/lastmile_qr_scan"}, "lon": -76.97940466666667, "type": "electric_scooter", "fusion_lat": 0.0, "lat": 38.9024515, "name": "c9ab6c0d9d37b32233d68b3abe3f2e29", "fusion_lon": 0.0, "bike_id": "c9ab6c0d9d37b32233d68b3abe3f2e29", "is_disabled": 0, "is_reserved": 0}, {"rental_uris": {"ios": "https://dc.lft.to/lastmile_qr_scan", "android": "https://dc.lft.to/lastmile_qr_scan"}, "lon": -77.02939833333333, "type": "electric_scooter", "fusion_lat": 0.0, "lat": 38.911109833333335, "name": "53500d3ebdc222fee0dd77ceaa6f780a", "fusion_lon": 0.0, "bike_id": "53500d3ebdc222fee0dd77ceaa6f780a", "is_disabled": 0, "is_reserved": 0}, {"rental_uris": {"ios": "https://dc.lft.to/lastmile_qr_scan", "android": "https://dc.lft.to/lastmile_qr_scan"}, "lon": -77.05008483333333, "type": "electric_scooter", "fusion_lat": 0.0, "lat": 38.9007805, "name": "2318652fe1833c7be979da5e10d83177", "fusion_lon": 0.0, "bike_id": "2318652fe1833c7be979da5e10d83177", "is_disabled": 0, "is_reserved": 0}, {"rental_uris": {"ios": "https://dc.lft.to/lastmile_qr_scan", "android": "https://dc.lft.to/lastmile_qr_scan"}, "lon": -77.0058375, "type": "electric_scooter", "fusion_lat": 0.0, "lat": 38.87419033333333, "name": "1fdc0c1e1074c4d235555a4c661056e7", "fusion_lon": 0.0, "bike_id": "1fdc0c1e1074c4d235555a4c661056e7", "is_disabled": 0, "is_reserved": 0}, {"rental_uris": {"ios": "https://dc.lft.to/lastmile_qr_scan", "android": "https://dc.lft.to/lastmile_qr_scan"}, "lon": -77.04175566666666, "type": "electric_scooter", "fusion_lat": 0.0, "lat": 38.9055485, "name": "19c34d9a3ede248da388863c5558db98", "fusion_lon": 0.0, "bike_id": "19c34d9a3ede248da388863c5558db98", "is_disabled": 0, "is_reserved": 0}, {"rental_uris": {"ios": "https://dc.lft.to/lastmile_qr_scan", "android": "https://dc.lft.to/lastmile_qr_scan"}, "lon": -77.03835133333334, "type": "electric_scooter", "fusion_lat": 0.0, "lat": 38.90387716666667, "name": "0d5f5ce3bf74c46ba519a9f46aeccea1", "fusion_lon": 0.0, "bike_id": "0d5f5ce3bf74c46ba519a9f46aeccea1", "is_disabled": 0, "is_reserved": 0}, {"rental_uris": {"ios": "https://dc.lft.to/lastmile_qr_scan", "android": "https://dc.lft.to/lastmile_qr_scan"}, "lon": -77.039278, "type": "electric_scooter", "fusion_lat": 0.0, "lat": 38.92616833333334, "name": "47eb86f72f0e663295308555e7216e72", "fusion_lon": 0.0, "bike_id": "47eb86f72f0e663295308555e7216e72", "is_disabled": 0, "is_reserved": 0}, {"rental_uris": {"ios": "https://dc.lft.to/lastmile_qr_scan", "android": "https://dc.lft.to/lastmile_qr_scan"}, "lon": -77.027623, "type": "electric_scooter", "fusion_lat": 0.0, "lat": 38.8920125, "name": "1fb8097d02009a20da7adf36b886337b", "fusion_lon": 0.0, "bike_id": "1fb8097d02009a20da7adf36b886337b", "is_disabled": 0, "is_reserved": 0}, {"rental_uris": {"ios": "https://dc.lft.to/lastmile_qr_scan", "android": "https://dc.lft.to/lastmile_qr_scan"}, "lon": -77.03278566666667, "type": "electric_scooter", "fusion_lat": 0.0, "lat": 38.91923466666667, "name": "85d1da3a335cbe4ee1cae08c1282eac7", "fusion_lon": 0.0, "bike_id": "85d1da3a335cbe4ee1cae08c1282eac7", "is_disabled": 0, "is_reserved": 0}, {"rental_uris": {"ios": "https://dc.lft.to/lastmile_qr_scan", "android": "https://dc.lft.to/lastmile_qr_scan"}, "lon": -77.14121133333333, "type": "electric_bike", "fusion_lat": 0.0, "lat": 38.816042833333334, "name": "4800af19819242930e70adebf2fca6b3", "fusion_lon": 0.0, "bike_id": "4800af19819242930e70adebf2fca6b3", "is_disabled": 0, "is_reserved": 0}, {"rental_uris": {"ios": "https://dc.lft.to/lastmile_qr_scan", "android": "https://dc.lft.to/lastmile_qr_scan"}, "lon": -76.99598983333334, "type": "electric_scooter", "fusion_lat": 0.0, "lat": 38.9223025, "name": "055b5f854cda564e96e9147f31b5affb", "fusion_lon": 0.0, "bike_id": "055b5f854cda564e96e9147f31b5affb", "is_disabled": 0, "is_reserved": 0}, {"rental_uris": {"ios": "https://dc.lft.to/lastmile_qr_scan", "android": "https://dc.lft.to/lastmile_qr_scan"}, "lon": -77.00035266666667, "type": "electric_scooter", "fusion_lat": 0.0, "lat": 38.87397033333333, "name": "e830b8b2dec06ca07fc3a0a311073e32", "fusion_lon": 0.0, "bike_id": "e830b8b2dec06ca07fc3a0a311073e32", "is_disabled": 0, "is_reserved": 0}, {"rental_uris": {"ios": "https://dc.lft.to/lastmile_qr_scan", "android": "https://dc.lft.to/lastmile_qr_scan"}, "lon": -77.00784666666667, "type": "electric_bike", "fusion_lat": 0.0, "lat": 38.94923816666667, "name": "515f5c385fb01cb055b44e46bb68ab91", "fusion_lon": 0.0, "bike_id": "515f5c385fb01cb055b44e46bb68ab91", "is_disabled": 0, "is_reserved": 0}, {"rental_uris": {"ios": "https://dc.lft.to/lastmile_qr_scan", "android": "https://dc.lft.to/lastmile_qr_scan"}, "lon": -77.02980383333333, "type": "electric_scooter", "fusion_lat": 0.0, "lat": 38.94046016666667, "name": "a18f133a6d17911d1369ab900568631e", "fusion_lon": 0.0, "bike_id": "a18f133a6d17911d1369ab900568631e", "is_disabled": 0, "is_reserved": 0}, {"rental_uris": {"ios": "https://dc.lft.to/lastmile_qr_scan", "android": "https://dc.lft.to/lastmile_qr_scan"}, "lon": -77.03930383333334, "type": "electric_scooter", "fusion_lat": 0.0, "lat": 38.917541, "name": "94886f5d5f1c596956a6cf03afa418ac", "fusion_lon": 0.0, "bike_id": "94886f5d5f1c596956a6cf03afa418ac", "is_disabled": 0, "is_reserved": 0}, {"rental_uris": {"ios": "https://dc.lft.to/lastmile_qr_scan", "android": "https://dc.lft.to/lastmile_qr_scan"}, "lon": -77.01840366666667, "type": "electric_scooter", "fusion_lat": 0.0, "lat": 38.8771185, "name": "d8aa4d5049304162dbb148e80d5da357", "fusion_lon": 0.0, "bike_id": "d8aa4d5049304162dbb148e80d5da357", "is_disabled": 0, "is_reserved": 0}, {"rental_uris": {"ios": "https://dc.lft.to/lastmile_qr_scan", "android": "https://dc.lft.to/lastmile_qr_scan"}, "lon": -77.048853, "type": "electric_scooter", "fusion_lat": 0.0, "lat": 38.90597533333333, "name": "d94907e9379554669ba28c60ccfacb67", "fusion_lon": 0.0, "bike_id": "d94907e9379554669ba28c60ccfacb67", "is_disabled": 0, "is_reserved": 0}, {"rental_uris": {"ios": "https://dc.lft.to/lastmile_qr_scan", "android": "https://dc.lft.to/lastmile_qr_scan"}, "lon": -77.0424725, "type": "electric_scooter", "fusion_lat": 0.0, "lat": 38.92064966666667, "name": "57abc1216456522ecd12fb91d5208062", "fusion_lon": 0.0, "bike_id": "57abc1216456522ecd12fb91d5208062", "is_disabled": 0, "is_reserved": 0}, {"rental_uris": {"ios": "https://dc.lft.to/lastmile_qr_scan", "android": "https://dc.lft.to/lastmile_qr_scan"}, "lon": -77.007862, "type": "electric_scooter", "fusion_lat": 0.0, "lat": 38.897372, "name": "34c2e37d7e87b48f767e1adacabcd9ac", "fusion_lon": 0.0, "bike_id": "34c2e37d7e87b48f767e1adacabcd9ac", "is_disabled": 0, "is_reserved": 0}, {"rental_uris": {"ios": "https://dc.lft.to/lastmile_qr_scan", "android": "https://dc.lft.to/lastmile_qr_scan"}, "lon": -77.0338735, "type": "electric_scooter", "fusion_lat": 0.0, "lat": 38.8865625, "name": "5e8ff9cba9e04a41c6fb201c8c7df97a", "fusion_lon": 0.0, "bike_id": "5e8ff9cba9e04a41c6fb201c8c7df97a", "is_disabled": 0, "is_reserved": 0}, {"rental_uris": {"ios": "https://dc.lft.to/lastmile_qr_scan", "android": "https://dc.lft.to/lastmile_qr_scan"}, "lon": -77.12900666666667, "type": "electric_bike", "fusion_lat": 0.0, "lat": 38.8637905, "name": "96af245c5ca70713d3f087f0251df63a", "fusion_lon": 0.0, "bike_id": "96af245c5ca70713d3f087f0251df63a", "is_disabled": 0, "is_reserved": 0}, {"rental_uris": {"ios": "https://dc.lft.to/lastmile_qr_scan", "android": "https://dc.lft.to/lastmile_qr_scan"}, "lon": -77.02090133333333, "type": "electric_scooter", "fusion_lat": 0.0, "lat": 38.881900333333334, "name": "db0b27635b89f6036f27304711fae020", "fusion_lon": 0.0, "bike_id": "db0b27635b89f6036f27304711fae020", "is_disabled": 0, "is_reserved": 0}, {"rental_uris": {"ios": "https://dc.lft.to/lastmile_qr_scan", "android": "https://dc.lft.to/lastmile_qr_scan"}, "lon": -77.0530235, "type": "electric_scooter", "fusion_lat": 0.0, "lat": 38.9278725, "name": "e25b2b50d47e4c1b38271eb0f9e6396c", "fusion_lon": 0.0, "bike_id": "e25b2b50d47e4c1b38271eb0f9e6396c", "is_disabled": 0, "is_reserved": 0}, {"rental_uris": {"ios": "https://dc.lft.to/lastmile_qr_scan", "android": "https://dc.lft.to/lastmile_qr_scan"}, "lon": -77.0212335, "type": "electric_scooter", "fusion_lat": 0.0, "lat": 38.89476366666667, "name": "6e2612046aa82a95394bc82686a39290", "fusion_lon": 0.0, "bike_id": "6e2612046aa82a95394bc82686a39290", "is_disabled": 0, "is_reserved": 0}, {"rental_uris": {"ios": "https://dc.lft.to/lastmile_qr_scan", "android": "https://dc.lft.to/lastmile_qr_scan"}, "lon": -77.02604316666667, "type": "electric_scooter", "fusion_lat": 0.0, "lat": 38.97591233333333, "name": "c7fd9fc197daa946852267367f536401", "fusion_lon": 0.0, "bike_id": "c7fd9fc197daa946852267367f536401", "is_disabled": 0, "is_reserved": 0}, {"rental_uris": {"ios": "https://dc.lft.to/lastmile_qr_scan", "android": "https://dc.lft.to/lastmile_qr_scan"}, "lon": -77.02697616666667, "type": "electric_scooter", "fusion_lat": 0.0, "lat": 38.906374, "name": "36c911217c8cfc0eed6568c4081f82f2", "fusion_lon": 0.0, "bike_id": "36c911217c8cfc0eed6568c4081f82f2", "is_disabled": 0, "is_reserved": 0}, {"rental_uris": {"ios": "https://dc.lft.to/lastmile_qr_scan", "android": "https://dc.lft.to/lastmile_qr_scan"}, "lon": -77.02384783333333, "type": "electric_scooter", "fusion_lat": 0.0, "lat": 38.915975, "name": "9f36547d7d7bdd48eccf4ed4cd7d5b68", "fusion_lon": 0.0, "bike_id": "9f36547d7d7bdd48eccf4ed4cd7d5b68", "is_disabled": 0, "is_reserved": 0}, {"rental_uris": {"ios": "https://dc.lft.to/lastmile_qr_scan", "android": "https://dc.lft.to/lastmile_qr_scan"}, "lon": -77.05352683333334, "type": "electric_scooter", "fusion_lat": 0.0, "lat": 38.92797733333333, "name": "586797d81ff4493dc481600ceac9e136", "fusion_lon": 0.0, "bike_id": "586797d81ff4493dc481600ceac9e136", "is_disabled": 0, "is_reserved": 0}, {"rental_uris": {"ios": "https://dc.lft.to/lastmile_qr_scan", "android": "https://dc.lft.to/lastmile_qr_scan"}, "lon": -77.0521485, "type": "electric_scooter", "fusion_lat": 0.0, "lat": 38.9249815, "name": "8edae7ed4fd320b8640a23defa333f67", "fusion_lon": 0.0, "bike_id": "8edae7ed4fd320b8640a23defa333f67", "is_disabled": 0, "is_reserved": 0}, {"rental_uris": {"ios": "https://dc.lft.to/lastmile_qr_scan", "android": "https://dc.lft.to/lastmile_qr_scan"}, "lon": -77.027036, "type": "electric_scooter", "fusion_lat": 0.0, "lat": 38.908696166666665, "name": "34ff7d686d41dc06c09449afbafaa904", "fusion_lon": 0.0, "bike_id": "34ff7d686d41dc06c09449afbafaa904", "is_disabled": 0, "is_reserved": 0}, {"rental_uris": {"ios": "https://dc.lft.to/lastmile_qr_scan", "android": "https://dc.lft.to/lastmile_qr_scan"}, "lon": -77.0512605, "type": "electric_scooter", "fusion_lat": 0.0, "lat": 38.897634833333335, "name": "d3161b3ce6ba25a2a29fe89e802a92bb", "fusion_lon": 0.0, "bike_id": "d3161b3ce6ba25a2a29fe89e802a92bb", "is_disabled": 0, "is_reserved": 0}, {"rental_uris": {"ios": "https://dc.lft.to/lastmile_qr_scan", "android": "https://dc.lft.to/lastmile_qr_scan"}, "lon": -76.94791183333334, "type": "electric_scooter", "fusion_lat": 0.0, "lat": 38.89635583333333, "name": "9508f54f0dd5b772e2887a4c180d509a", "fusion_lon": 0.0, "bike_id": "9508f54f0dd5b772e2887a4c180d509a", "is_disabled": 0, "is_reserved": 0}, {"rental_uris": {"ios": "https://dc.lft.to/lastmile_qr_scan", "android": "https://dc.lft.to/lastmile_qr_scan"}, "lon": -77.02975783333333, "type": "electric_scooter", "fusion_lat": 0.0, "lat": 38.96228166666667, "name": "6b6c29757e28875c56cd16f2df9768de", "fusion_lon": 0.0, "bike_id": "6b6c29757e28875c56cd16f2df9768de", "is_disabled": 0, "is_reserved": 0}, {"rental_uris": {"ios": "https://dc.lft.to/lastmile_qr_scan", "android": "https://dc.lft.to/lastmile_qr_scan"}, "lon": -77.00133116666667, "type": "electric_scooter", "fusion_lat": 0.0, "lat": 38.90411783333333, "name": "3370c1c9d0060675041d1027548ee18a", "fusion_lon": 0.0, "bike_id": "3370c1c9d0060675041d1027548ee18a", "is_disabled": 0, "is_reserved": 0}, {"rental_uris": {"ios": "https://dc.lft.to/lastmile_qr_scan", "android": "https://dc.lft.to/lastmile_qr_scan"}, "lon": -77.03073516666667, "type": "electric_bike", "fusion_lat": 0.0, "lat": 38.92238916666667, "name": "d94c8f56f50e3fbe656c1695e7cd33c1", "fusion_lon": 0.0, "bike_id": "d94c8f56f50e3fbe656c1695e7cd33c1", "is_disabled": 0, "is_reserved": 0}, {"rental_uris": {"ios": "https://dc.lft.to/lastmile_qr_scan", "android": "https://dc.lft.to/lastmile_qr_scan"}, "lon": -77.10335216666667, "type": "electric_bike", "fusion_lat": 0.0, "lat": 38.852291666666666, "name": "fa36a71547198093183b6baebe406629", "fusion_lon": 0.0, "bike_id": "fa36a71547198093183b6baebe406629", "is_disabled": 0, "is_reserved": 0}, {"rental_uris": {"ios": "https://dc.lft.to/lastmile_qr_scan", "android": "https://dc.lft.to/lastmile_qr_scan"}, "lon": -77.00884033333334, "type": "electric_scooter", "fusion_lat": 0.0, "lat": 38.914028333333334, "name": "7be4f6c27853500bc7e612314df99293", "fusion_lon": 0.0, "bike_id": "7be4f6c27853500bc7e612314df99293", "is_disabled": 0, "is_reserved": 0}, {"rental_uris": {"ios": "https://dc.lft.to/lastmile_qr_scan", "android": "https://dc.lft.to/lastmile_qr_scan"}, "lon": -76.96770633333334, "type": "electric_scooter", "fusion_lat": 0.0, "lat": 38.86156783333333, "name": "cb2cdbb29a4c01940236c224ade18300", "fusion_lon": 0.0, "bike_id": "cb2cdbb29a4c01940236c224ade18300", "is_disabled": 0, "is_reserved": 0}, {"rental_uris": {"ios": "https://dc.lft.to/lastmile_qr_scan", "android": "https://dc.lft.to/lastmile_qr_scan"}, "lon": -77.0322145, "type": "electric_scooter", "fusion_lat": 0.0, "lat": 38.892325666666665, "name": "b85ef3625b40e5c5f26874b39c0113a7", "fusion_lon": 0.0, "bike_id": "b85ef3625b40e5c5f26874b39c0113a7", "is_disabled": 0, "is_reserved": 0}, {"rental_uris": {"ios": "https://dc.lft.to/lastmile_qr_scan", "android": "https://dc.lft.to/lastmile_qr_scan"}, "lon": -76.9835215, "type": "electric_scooter", "fusion_lat": 0.0, "lat": 38.8648245, "name": "b322a8087d610f26fd61bcf4eb6c20d6", "fusion_lon": 0.0, "bike_id": "b322a8087d610f26fd61bcf4eb6c20d6", "is_disabled": 0, "is_reserved": 0}, {"rental_uris": {"ios": "https://dc.lft.to/lastmile_qr_scan", "android": "https://dc.lft.to/lastmile_qr_scan"}, "lon": -76.98363466666666, "type": "electric_scooter", "fusion_lat": 0.0, "lat": 38.9154955, "name": "bd2e0cff8ae1c9cba4fdd0dc82272599", "fusion_lon": 0.0, "bike_id": "bd2e0cff8ae1c9cba4fdd0dc82272599", "is_disabled": 0, "is_reserved": 0}, {"rental_uris": {"ios": "https://dc.lft.to/lastmile_qr_scan", "android": "https://dc.lft.to/lastmile_qr_scan"}, "lon": -77.11428383333333, "type": "electric_bike", "fusion_lat": 0.0, "lat": 38.85246716666666, "name": "cbc13b843ae3a4bbdd75a36163be863c", "fusion_lon": 0.0, "bike_id": "cbc13b843ae3a4bbdd75a36163be863c", "is_disabled": 0, "is_reserved": 0}, {"rental_uris": {"ios": "https://dc.lft.to/lastmile_qr_scan", "android": "https://dc.lft.to/lastmile_qr_scan"}, "lon": -77.031791, "type": "electric_scooter", "fusion_lat": 0.0, "lat": 38.91642516666667, "name": "8cc6018b66bd4e772afeeee021063065", "fusion_lon": 0.0, "bike_id": "8cc6018b66bd4e772afeeee021063065", "is_disabled": 0, "is_reserved": 0}, {"rental_uris": {"ios": "https://dc.lft.to/lastmile_qr_scan", "android": "https://dc.lft.to/lastmile_qr_scan"}, "lon": -77.03897766666667, "type": "electric_scooter", "fusion_lat": 0.0, "lat": 38.92188566666667, "name": "05f5bdc2ba3cea26eb27bacee689df95", "fusion_lon": 0.0, "bike_id": "05f5bdc2ba3cea26eb27bacee689df95", "is_disabled": 0, "is_reserved": 0}, {"rental_uris": {"ios": "https://dc.lft.to/lastmile_qr_scan", "android": "https://dc.lft.to/lastmile_qr_scan"}, "lon": -76.98413016666666, "type": "electric_scooter", "fusion_lat": 0.0, "lat": 38.91385783333333, "name": "6d31bcf202f48d0a5550073f170a39ee", "fusion_lon": 0.0, "bike_id": "6d31bcf202f48d0a5550073f170a39ee", "is_disabled": 0, "is_reserved": 0}, {"rental_uris": {"ios": "https://dc.lft.to/lastmile_qr_scan", "android": "https://dc.lft.to/lastmile_qr_scan"}, "lon": -77.01751716666666, "type": "electric_scooter", "fusion_lat": 0.0, "lat": 38.87714583333333, "name": "d9be330781c07bbea49ac3b54babe283", "fusion_lon": 0.0, "bike_id": "d9be330781c07bbea49ac3b54babe283", "is_disabled": 0, "is_reserved": 0}, {"rental_uris": {"ios": "https://dc.lft.to/lastmile_qr_scan", "android": "https://dc.lft.to/lastmile_qr_scan"}, "lon": -77.05122733333333, "type": "electric_scooter", "fusion_lat": 0.0, "lat": 38.9236225, "name": "08a0ef22bfac4e76c40542dd2a932dcb", "fusion_lon": 0.0, "bike_id": "08a0ef22bfac4e76c40542dd2a932dcb", "is_disabled": 0, "is_reserved": 0}, {"rental_uris": {"ios": "https://dc.lft.to/lastmile_qr_scan", "android": "https://dc.lft.to/lastmile_qr_scan"}, "lon": -77.0781285, "type": "electric_scooter", "fusion_lat": 0.0, "lat": 38.926235166666665, "name": "160fc5460efa0d126cd7519be5f58a81", "fusion_lon": 0.0, "bike_id": "160fc5460efa0d126cd7519be5f58a81", "is_disabled": 0, "is_reserved": 0}, {"rental_uris": {"ios": "https://dc.lft.to/lastmile_qr_scan", "android": "https://dc.lft.to/lastmile_qr_scan"}, "lon": -77.02200566666667, "type": "electric_scooter", "fusion_lat": 0.0, "lat": 38.9083145, "name": "f3b690f4b7df27198f8597dae54239ca", "fusion_lon": 0.0, "bike_id": "f3b690f4b7df27198f8597dae54239ca", "is_disabled": 0, "is_reserved": 0}, {"rental_uris": {"ios": "https://dc.lft.to/lastmile_qr_scan", "android": "https://dc.lft.to/lastmile_qr_scan"}, "lon": -77.0307255, "type": "electric_scooter", "fusion_lat": 0.0, "lat": 38.89965333333333, "name": "aa8fb13d94c75edb71c122ba8b5f384f", "fusion_lon": 0.0, "bike_id": "aa8fb13d94c75edb71c122ba8b5f384f", "is_disabled": 0, "is_reserved": 0}, {"rental_uris": {"ios": "https://dc.lft.to/lastmile_qr_scan", "android": "https://dc.lft.to/lastmile_qr_scan"}, "lon": -77.022124, "type": "electric_scooter", "fusion_lat": 0.0, "lat": 38.887675, "name": "9d3c0ba1f5eb60193cb876615df15b14", "fusion_lon": 0.0, "bike_id": "9d3c0ba1f5eb60193cb876615df15b14", "is_disabled": 0, "is_reserved": 0}, {"rental_uris": {"ios": "https://dc.lft.to/lastmile_qr_scan", "android": "https://dc.lft.to/lastmile_qr_scan"}, "lon": -77.019536, "type": "electric_scooter", "fusion_lat": 0.0, "lat": 38.90422433333333, "name": "8bfebb235a4983d198c5c5e52a034705", "fusion_lon": 0.0, "bike_id": "8bfebb235a4983d198c5c5e52a034705", "is_disabled": 0, "is_reserved": 0}, {"rental_uris": {"ios": "https://dc.lft.to/lastmile_qr_scan", "android": "https://dc.lft.to/lastmile_qr_scan"}, "lon": -76.9576515, "type": "electric_bike", "fusion_lat": 0.0, "lat": 38.88416, "name": "a3a1a941a0277c74e973cc257400d32f", "fusion_lon": 0.0, "bike_id": "a3a1a941a0277c74e973cc257400d32f", "is_disabled": 0, "is_reserved": 0}, {"rental_uris": {"ios": "https://dc.lft.to/lastmile_qr_scan", "android": "https://dc.lft.to/lastmile_qr_scan"}, "lon": -76.97613366666667, "type": "electric_scooter", "fusion_lat": 0.0, "lat": 38.90385233333333, "name": "ca9671fb00f11beba175756d05f7acd8", "fusion_lon": 0.0, "bike_id": "ca9671fb00f11beba175756d05f7acd8", "is_disabled": 0, "is_reserved": 0}, {"rental_uris": {"ios": "https://dc.lft.to/lastmile_qr_scan", "android": "https://dc.lft.to/lastmile_qr_scan"}, "lon": -77.0247835, "type": "electric_scooter", "fusion_lat": 0.0, "lat": 38.91818383333333, "name": "b023241c18607486fcee4dcbf44192d7", "fusion_lon": 0.0, "bike_id": "b023241c18607486fcee4dcbf44192d7", "is_disabled": 0, "is_reserved": 0}, {"rental_uris": {"ios": "https://dc.lft.to/lastmile_qr_scan", "android": "https://dc.lft.to/lastmile_qr_scan"}, "lon": -77.0383195, "type": "electric_scooter", "fusion_lat": 0.0, "lat": 38.9217645, "name": "03723e487a0f6ae403cc0297f7983e4b", "fusion_lon": 0.0, "bike_id": "03723e487a0f6ae403cc0297f7983e4b", "is_disabled": 0, "is_reserved": 0}, {"rental_uris": {"ios": "https://dc.lft.to/lastmile_qr_scan", "android": "https://dc.lft.to/lastmile_qr_scan"}, "lon": -76.97745183333333, "type": "electric_scooter", "fusion_lat": 0.0, "lat": 38.90011116666667, "name": "e284036ea3a17984e804d07848e6facb", "fusion_lon": 0.0, "bike_id": "e284036ea3a17984e804d07848e6facb", "is_disabled": 0, "is_reserved": 0}, {"rental_uris": {"ios": "https://dc.lft.to/lastmile_qr_scan", "android": "https://dc.lft.to/lastmile_qr_scan"}, "lon": -76.8782095, "type": "electric_bike", "fusion_lat": 0.0, "lat": 38.992329833333336, "name": "bea25ba719464e4984e16e020c459caf", "fusion_lon": 0.0, "bike_id": "bea25ba719464e4984e16e020c459caf", "is_disabled": 0, "is_reserved": 0}, {"rental_uris": {"ios": "https://dc.lft.to/lastmile_qr_scan", "android": "https://dc.lft.to/lastmile_qr_scan"}, "lon": -77.03789716666667, "type": "electric_scooter", "fusion_lat": 0.0, "lat": 38.92635516666667, "name": "818cddf99397b3bea2de9eeb93b14217", "fusion_lon": 0.0, "bike_id": "818cddf99397b3bea2de9eeb93b14217", "is_disabled": 0, "is_reserved": 0}, {"rental_uris": {"ios": "https://dc.lft.to/lastmile_qr_scan", "android": "https://dc.lft.to/lastmile_qr_scan"}, "lon": -76.946331, "type": "electric_scooter", "fusion_lat": 0.0, "lat": 38.898336666666665, "name": "aefb34bf18295052379971d680896f2c", "fusion_lon": 0.0, "bike_id": "aefb34bf18295052379971d680896f2c", "is_disabled": 0, "is_reserved": 0}, {"rental_uris": {"ios": "https://dc.lft.to/lastmile_qr_scan", "android": "https://dc.lft.to/lastmile_qr_scan"}, "lon": -77.0400825, "type": "electric_scooter", "fusion_lat": 0.0, "lat": 38.888849666666665, "name": "c81ec873961e5e75804a5fad7246a839", "fusion_lon": 0.0, "bike_id": "c81ec873961e5e75804a5fad7246a839", "is_disabled": 0, "is_reserved": 0}, {"rental_uris": {"ios": "https://dc.lft.to/lastmile_qr_scan", "android": "https://dc.lft.to/lastmile_qr_scan"}, "lon": -77.03175666666667, "type": "electric_scooter", "fusion_lat": 0.0, "lat": 38.91324066666667, "name": "6b9c556f7c5f518da672c45c00f2ff42", "fusion_lon": 0.0, "bike_id": "6b9c556f7c5f518da672c45c00f2ff42", "is_disabled": 0, "is_reserved": 0}, {"rental_uris": {"ios": "https://dc.lft.to/lastmile_qr_scan", "android": "https://dc.lft.to/lastmile_qr_scan"}, "lon": -76.98178883333334, "type": "electric_scooter", "fusion_lat": 0.0, "lat": 38.8958115, "name": "7ead0898fb3fcf0e3f2ad892b06a8d3b", "fusion_lon": 0.0, "bike_id": "7ead0898fb3fcf0e3f2ad892b06a8d3b", "is_disabled": 0, "is_reserved": 0}, {"rental_uris": {"ios": "https://dc.lft.to/lastmile_qr_scan", "android": "https://dc.lft.to/lastmile_qr_scan"}, "lon": -76.909775, "type": "electric_bike", "fusion_lat": 0.0, "lat": 38.8544305, "name": "524e04b116ebf9dc703bfc8b9216bf0d", "fusion_lon": 0.0, "bike_id": "524e04b116ebf9dc703bfc8b9216bf0d", "is_disabled": 0, "is_reserved": 0}, {"rental_uris": {"ios": "https://dc.lft.to/lastmile_qr_scan", "android": "https://dc.lft.to/lastmile_qr_scan"}, "lon": -76.98257083333333, "type": "electric_scooter", "fusion_lat": 0.0, "lat": 38.90863233333334, "name": "ece0e014b06ae4656beb6d7f480ac5af", "fusion_lon": 0.0, "bike_id": "ece0e014b06ae4656beb6d7f480ac5af", "is_disabled": 0, "is_reserved": 0}, {"rental_uris": {"ios": "https://dc.lft.to/lastmile_qr_scan", "android": "https://dc.lft.to/lastmile_qr_scan"}, "lon": -77.019459, "type": "electric_scooter", "fusion_lat": 0.0, "lat": 38.90234266666667, "name": "b7abc00e72a6ea35a99b1376c0665b92", "fusion_lon": 0.0, "bike_id": "b7abc00e72a6ea35a99b1376c0665b92", "is_disabled": 0, "is_reserved": 0}, {"rental_uris": {"ios": "https://dc.lft.to/lastmile_qr_scan", "android": "https://dc.lft.to/lastmile_qr_scan"}, "lon": -77.01873116666667, "type": "electric_scooter", "fusion_lat": 0.0, "lat": 38.88747733333334, "name": "fe65f1d243f07be4a578bb9b394dda7a", "fusion_lon": 0.0, "bike_id": "fe65f1d243f07be4a578bb9b394dda7a", "is_disabled": 0, "is_reserved": 0}, {"rental_uris": {"ios": "https://dc.lft.to/lastmile_qr_scan", "android": "https://dc.lft.to/lastmile_qr_scan"}, "lon": -77.0097925, "type": "electric_scooter", "fusion_lat": 0.0, "lat": 38.919203333333336, "name": "7a72cbd8b565399ae000e902284ac5ca", "fusion_lon": 0.0, "bike_id": "7a72cbd8b565399ae000e902284ac5ca", "is_disabled": 0, "is_reserved": 0}, {"rental_uris": {"ios": "https://dc.lft.to/lastmile_qr_scan", "android": "https://dc.lft.to/lastmile_qr_scan"}, "lon": -77.04188266666667, "type": "electric_scooter", "fusion_lat": 0.0, "lat": 38.92011, "name": "22766c3cd1b342a23a7363146018b766", "fusion_lon": 0.0, "bike_id": "22766c3cd1b342a23a7363146018b766", "is_disabled": 0, "is_reserved": 0}, {"rental_uris": {"ios": "https://dc.lft.to/lastmile_qr_scan", "android": "https://dc.lft.to/lastmile_qr_scan"}, "lon": -77.0218185, "type": "electric_scooter", "fusion_lat": 0.0, "lat": 38.93946666666667, "name": "0d1ee6206410243d364820681dce0347", "fusion_lon": 0.0, "bike_id": "0d1ee6206410243d364820681dce0347", "is_disabled": 0, "is_reserved": 0}, {"rental_uris": {"ios": "https://dc.lft.to/lastmile_qr_scan", "android": "https://dc.lft.to/lastmile_qr_scan"}, "lon": -77.04550716666667, "type": "electric_scooter", "fusion_lat": 0.0, "lat": 38.93392133333333, "name": "88382dfee47fc23deec81f6b79bf80bc", "fusion_lon": 0.0, "bike_id": "88382dfee47fc23deec81f6b79bf80bc", "is_disabled": 0, "is_reserved": 0}, {"rental_uris": {"ios": "https://dc.lft.to/lastmile_qr_scan", "android": "https://dc.lft.to/lastmile_qr_scan"}, "lon": -77.02560983333333, "type": "electric_scooter", "fusion_lat": 0.0, "lat": 38.924759333333334, "name": "82a8e816b3eb297660d9c2d85f7a762d", "fusion_lon": 0.0, "bike_id": "82a8e816b3eb297660d9c2d85f7a762d", "is_disabled": 0, "is_reserved": 0}, {"rental_uris": {"ios": "https://dc.lft.to/lastmile_qr_scan", "android": "https://dc.lft.to/lastmile_qr_scan"}, "lon": -77.03013033333333, "type": "electric_scooter", "fusion_lat": 0.0, "lat": 38.9100665, "name": "94c8a7390086bba06bbabb59234553f6", "fusion_lon": 0.0, "bike_id": "94c8a7390086bba06bbabb59234553f6", "is_disabled": 0, "is_reserved": 0}, {"rental_uris": {"ios": "https://dc.lft.to/lastmile_qr_scan", "android": "https://dc.lft.to/lastmile_qr_scan"}, "lon": -76.948933, "type": "electric_scooter", "fusion_lat": 0.0, "lat": 38.895270833333335, "name": "4d191296525e951c59828effd8496a88", "fusion_lon": 0.0, "bike_id": "4d191296525e951c59828effd8496a88", "is_disabled": 0, "is_reserved": 0}, {"rental_uris": {"ios": "https://dc.lft.to/lastmile_qr_scan", "android": "https://dc.lft.to/lastmile_qr_scan"}, "lon": -76.99490283333333, "type": "electric_scooter", "fusion_lat": 0.0, "lat": 38.9320205, "name": "e3f6c115490ca97a097fcc89a6202278", "fusion_lon": 0.0, "bike_id": "e3f6c115490ca97a097fcc89a6202278", "is_disabled": 0, "is_reserved": 0}, {"rental_uris": {"ios": "https://dc.lft.to/lastmile_qr_scan", "android": "https://dc.lft.to/lastmile_qr_scan"}, "lon": -77.02213683333333, "type": "electric_scooter", "fusion_lat": 0.0, "lat": 38.9057445, "name": "e514aa7555ff1f9a412d6e9796668282", "fusion_lon": 0.0, "bike_id": "e514aa7555ff1f9a412d6e9796668282", "is_disabled": 0, "is_reserved": 0}, {"rental_uris": {"ios": "https://dc.lft.to/lastmile_qr_scan", "android": "https://dc.lft.to/lastmile_qr_scan"}, "lon": -77.03913166666666, "type": "electric_scooter", "fusion_lat": 0.0, "lat": 38.89837566666667, "name": "bf190f157195b2d34de87c6d4fcba234", "fusion_lon": 0.0, "bike_id": "bf190f157195b2d34de87c6d4fcba234", "is_disabled": 0, "is_reserved": 0}, {"rental_uris": {"ios": "https://dc.lft.to/lastmile_qr_scan", "android": "https://dc.lft.to/lastmile_qr_scan"}, "lon": -77.05003683333334, "type": "electric_scooter", "fusion_lat": 0.0, "lat": 38.892308166666666, "name": "8f4c6f4b9ccc541d5a63fc1be937ba72", "fusion_lon": 0.0, "bike_id": "8f4c6f4b9ccc541d5a63fc1be937ba72", "is_disabled": 0, "is_reserved": 0}, {"rental_uris": {"ios": "https://dc.lft.to/lastmile_qr_scan", "android": "https://dc.lft.to/lastmile_qr_scan"}, "lon": -77.02192316666667, "type": "electric_scooter", "fusion_lat": 0.0, "lat": 38.89503333333333, "name": "9cc3f66a3c7f7759b743d231c0ea35ce", "fusion_lon": 0.0, "bike_id": "9cc3f66a3c7f7759b743d231c0ea35ce", "is_disabled": 0, "is_reserved": 0}, {"rental_uris": {"ios": "https://dc.lft.to/lastmile_qr_scan", "android": "https://dc.lft.to/lastmile_qr_scan"}, "lon": -77.02416133333334, "type": "electric_scooter", "fusion_lat": 0.0, "lat": 38.917095333333336, "name": "19053fb805c35429a965c75ba7330c25", "fusion_lon": 0.0, "bike_id": "19053fb805c35429a965c75ba7330c25", "is_disabled": 0, "is_reserved": 0}, {"rental_uris": {"ios": "https://dc.lft.to/lastmile_qr_scan", "android": "https://dc.lft.to/lastmile_qr_scan"}, "lon": -77.02519416666667, "type": "electric_scooter", "fusion_lat": 0.0, "lat": 38.930936833333334, "name": "82ad03a1b7a5aa109c1a0b5a9f8a1efd", "fusion_lon": 0.0, "bike_id": "82ad03a1b7a5aa109c1a0b5a9f8a1efd", "is_disabled": 0, "is_reserved": 0}, {"rental_uris": {"ios": "https://dc.lft.to/lastmile_qr_scan", "android": "https://dc.lft.to/lastmile_qr_scan"}, "lon": -77.03127233333333, "type": "electric_scooter", "fusion_lat": 0.0, "lat": 38.923767166666664, "name": "c591f19fced826c9785bc5170bb43c33", "fusion_lon": 0.0, "bike_id": "c591f19fced826c9785bc5170bb43c33", "is_disabled": 0, "is_reserved": 0}, {"rental_uris": {"ios": "https://dc.lft.to/lastmile_qr_scan", "android": "https://dc.lft.to/lastmile_qr_scan"}, "lon": -76.93826683333333, "type": "electric_scooter", "fusion_lat": 0.0, "lat": 38.897603833333335, "name": "40f372f385ba873626ab9211d4b2d7f2", "fusion_lon": 0.0, "bike_id": "40f372f385ba873626ab9211d4b2d7f2", "is_disabled": 0, "is_reserved": 0}, {"rental_uris": {"ios": "https://dc.lft.to/lastmile_qr_scan", "android": "https://dc.lft.to/lastmile_qr_scan"}, "lon": -77.00112733333333, "type": "electric_scooter", "fusion_lat": 0.0, "lat": 38.89436966666667, "name": "0784b1a1dfdd7af28b2bbf35dbbeb597", "fusion_lon": 0.0, "bike_id": "0784b1a1dfdd7af28b2bbf35dbbeb597", "is_disabled": 0, "is_reserved": 0}, {"rental_uris": {"ios": "https://dc.lft.to/lastmile_qr_scan", "android": "https://dc.lft.to/lastmile_qr_scan"}, "lon": -77.03428266666667, "type": "electric_scooter", "fusion_lat": 0.0, "lat": 38.919163, "name": "60873da628ff2c8ff5d29d41c6f6848c", "fusion_lon": 0.0, "bike_id": "60873da628ff2c8ff5d29d41c6f6848c", "is_disabled": 0, "is_reserved": 0}, {"rental_uris": {"ios": "https://dc.lft.to/lastmile_qr_scan", "android": "https://dc.lft.to/lastmile_qr_scan"}, "lon": -77.04430016666667, "type": "electric_scooter", "fusion_lat": 0.0, "lat": 38.921155, "name": "b75e253d196aee390ba10cb3042fd4ed", "fusion_lon": 0.0, "bike_id": "b75e253d196aee390ba10cb3042fd4ed", "is_disabled": 0, "is_reserved": 0}, {"rental_uris": {"ios": "https://dc.lft.to/lastmile_qr_scan", "android": "https://dc.lft.to/lastmile_qr_scan"}, "lon": -77.03418483333333, "type": "electric_scooter", "fusion_lat": 0.0, "lat": 38.91926816666667, "name": "327d1fbd9d3cb8fde09598a1d831ba50", "fusion_lon": 0.0, "bike_id": "327d1fbd9d3cb8fde09598a1d831ba50", "is_disabled": 0, "is_reserved": 0}, {"rental_uris": {"ios": "https://dc.lft.to/lastmile_qr_scan", "android": "https://dc.lft.to/lastmile_qr_scan"}, "lon": -77.02719666666667, "type": "electric_scooter", "fusion_lat": 0.0, "lat": 38.8922255, "name": "89cfab77fdf1ebbf96155d3fe6b2f527", "fusion_lon": 0.0, "bike_id": "89cfab77fdf1ebbf96155d3fe6b2f527", "is_disabled": 0, "is_reserved": 0}, {"rental_uris": {"ios": "https://dc.lft.to/lastmile_qr_scan", "android": "https://dc.lft.to/lastmile_qr_scan"}, "lon": -76.94976216666667, "type": "electric_scooter", "fusion_lat": 0.0, "lat": 38.89375183333333, "name": "54834e1d465054d18f00f6aed6c90c88", "fusion_lon": 0.0, "bike_id": "54834e1d465054d18f00f6aed6c90c88", "is_disabled": 0, "is_reserved": 0}, {"rental_uris": {"ios": "https://dc.lft.to/lastmile_qr_scan", "android": "https://dc.lft.to/lastmile_qr_scan"}, "lon": -77.01862833333334, "type": "electric_scooter", "fusion_lat": 0.0, "lat": 38.900942666666666, "name": "f6f260c8d1002c4337105b8e269ef7e5", "fusion_lon": 0.0, "bike_id": "f6f260c8d1002c4337105b8e269ef7e5", "is_disabled": 0, "is_reserved": 0}, {"rental_uris": {"ios": "https://dc.lft.to/lastmile_qr_scan", "android": "https://dc.lft.to/lastmile_qr_scan"}, "lon": -76.93173533333334, "type": "electric_scooter", "fusion_lat": 0.0, "lat": 38.8988505, "name": "a3ad7fe0eeac76f2a6d35fe4be9ea68f", "fusion_lon": 0.0, "bike_id": "a3ad7fe0eeac76f2a6d35fe4be9ea68f", "is_disabled": 0, "is_reserved": 0}, {"rental_uris": {"ios": "https://dc.lft.to/lastmile_qr_scan", "android": "https://dc.lft.to/lastmile_qr_scan"}, "lon": -77.03171416666666, "type": "electric_scooter", "fusion_lat": 0.0, "lat": 38.88630333333333, "name": "fb6c84460002deafaab985bfc286120f", "fusion_lon": 0.0, "bike_id": "fb6c84460002deafaab985bfc286120f", "is_disabled": 0, "is_reserved": 0}, {"rental_uris": {"ios": "https://dc.lft.to/lastmile_qr_scan", "android": "https://dc.lft.to/lastmile_qr_scan"}, "lon": -77.002115, "type": "electric_scooter", "fusion_lat": 0.0, "lat": 38.90228916666667, "name": "59f15aea37ab1338fa085411a1736e8d", "fusion_lon": 0.0, "bike_id": "59f15aea37ab1338fa085411a1736e8d", "is_disabled": 0, "is_reserved": 0}, {"rental_uris": {"ios": "https://dc.lft.to/lastmile_qr_scan", "android": "https://dc.lft.to/lastmile_qr_scan"}, "lon": -77.04657633333333, "type": "electric_scooter", "fusion_lat": 0.0, "lat": 38.89333766666667, "name": "3e84d2d960bb8758419107acf052b4db", "fusion_lon": 0.0, "bike_id": "3e84d2d960bb8758419107acf052b4db", "is_disabled": 0, "is_reserved": 0}, {"rental_uris": {"ios": "https://dc.lft.to/lastmile_qr_scan", "android": "https://dc.lft.to/lastmile_qr_scan"}, "lon": -77.1203265, "type": "electric_bike", "fusion_lat": 0.0, "lat": 38.85519383333333, "name": "93d2d87cd7e0d09d5366cbd2e77058a4", "fusion_lon": 0.0, "bike_id": "93d2d87cd7e0d09d5366cbd2e77058a4", "is_disabled": 0, "is_reserved": 0}, {"rental_uris": {"ios": "https://dc.lft.to/lastmile_qr_scan", "android": "https://dc.lft.to/lastmile_qr_scan"}, "lon": -77.05134416666667, "type": "electric_scooter", "fusion_lat": 0.0, "lat": 38.897832, "name": "f99c4ee1dbbacd0f9f8847e6c4865280", "fusion_lon": 0.0, "bike_id": "f99c4ee1dbbacd0f9f8847e6c4865280", "is_disabled": 0, "is_reserved": 0}, {"rental_uris": {"ios": "https://dc.lft.to/lastmile_qr_scan", "android": "https://dc.lft.to/lastmile_qr_scan"}, "lon": -76.994598, "type": "electric_bike", "fusion_lat": 0.0, "lat": 38.94069133333333, "name": "53cf65df7bbb4d787f78c3d1d7c571e7", "fusion_lon": 0.0, "bike_id": "53cf65df7bbb4d787f78c3d1d7c571e7", "is_disabled": 0, "is_reserved": 0}, {"rental_uris": {"ios": "https://dc.lft.to/lastmile_qr_scan", "android": "https://dc.lft.to/lastmile_qr_scan"}, "lon": -77.04374633333333, "type": "electric_scooter", "fusion_lat": 0.0, "lat": 38.917882666666664, "name": "a1ab5423a4ffd04b03fba893e02715c8", "fusion_lon": 0.0, "bike_id": "a1ab5423a4ffd04b03fba893e02715c8", "is_disabled": 0, "is_reserved": 0}, {"rental_uris": {"ios": "https://dc.lft.to/lastmile_qr_scan", "android": "https://dc.lft.to/lastmile_qr_scan"}, "lon": -77.0530805, "type": "electric_scooter", "fusion_lat": 0.0, "lat": 38.902643, "name": "afbeef835c448967ef37bf1c1dd47d6b", "fusion_lon": 0.0, "bike_id": "afbeef835c448967ef37bf1c1dd47d6b", "is_disabled": 0, "is_reserved": 0}, {"rental_uris": {"ios": "https://dc.lft.to/lastmile_qr_scan", "android": "https://dc.lft.to/lastmile_qr_scan"}, "lon": -77.0258525, "type": "electric_scooter", "fusion_lat": 0.0, "lat": 38.8843265, "name": "65267a551991cb94bbe6934e2ea5db91", "fusion_lon": 0.0, "bike_id": "65267a551991cb94bbe6934e2ea5db91", "is_disabled": 0, "is_reserved": 0}, {"rental_uris": {"ios": "https://dc.lft.to/lastmile_qr_scan", "android": "https://dc.lft.to/lastmile_qr_scan"}, "lon": -76.985123, "type": "electric_scooter", "fusion_lat": 0.0, "lat": 38.9060755, "name": "32cb3bb37c95f043d747ca085b1ebd27", "fusion_lon": 0.0, "bike_id": "32cb3bb37c95f043d747ca085b1ebd27", "is_disabled": 0, "is_reserved": 0}, {"rental_uris": {"ios": "https://dc.lft.to/lastmile_qr_scan", "android": "https://dc.lft.to/lastmile_qr_scan"}, "lon": -76.99969783333333, "type": "electric_scooter", "fusion_lat": 0.0, "lat": 38.90927883333333, "name": "d053940a7b28b8fa7750ea31ef97502a", "fusion_lon": 0.0, "bike_id": "d053940a7b28b8fa7750ea31ef97502a", "is_disabled": 0, "is_reserved": 0}, {"rental_uris": {"ios": "https://dc.lft.to/lastmile_qr_scan", "android": "https://dc.lft.to/lastmile_qr_scan"}, "lon": -77.01886066666667, "type": "electric_scooter", "fusion_lat": 0.0, "lat": 38.9061825, "name": "508d8cb7f07605da74b55b3dd9ca2132", "fusion_lon": 0.0, "bike_id": "508d8cb7f07605da74b55b3dd9ca2132", "is_disabled": 0, "is_reserved": 0}, {"rental_uris": {"ios": "https://dc.lft.to/lastmile_qr_scan", "android": "https://dc.lft.to/lastmile_qr_scan"}, "lon": -77.00210766666666, "type": "electric_scooter", "fusion_lat": 0.0, "lat": 38.900293833333336, "name": "a8de6c327578c00b28ec2cd87a14321d", "fusion_lon": 0.0, "bike_id": "a8de6c327578c00b28ec2cd87a14321d", "is_disabled": 0, "is_reserved": 0}, {"rental_uris": {"ios": "https://dc.lft.to/lastmile_qr_scan", "android": "https://dc.lft.to/lastmile_qr_scan"}, "lon": -77.00588883333333, "type": "electric_scooter", "fusion_lat": 0.0, "lat": 38.877034333333334, "name": "7164c1428412b42d1950cf0f45806b13", "fusion_lon": 0.0, "bike_id": "7164c1428412b42d1950cf0f45806b13", "is_disabled": 0, "is_reserved": 0}, {"rental_uris": {"ios": "https://dc.lft.to/lastmile_qr_scan", "android": "https://dc.lft.to/lastmile_qr_scan"}, "lon": -77.03522733333334, "type": "electric_scooter", "fusion_lat": 0.0, "lat": 38.92226616666667, "name": "fe985bad10b91e335d4548ddf82cc301", "fusion_lon": 0.0, "bike_id": "fe985bad10b91e335d4548ddf82cc301", "is_disabled": 0, "is_reserved": 0}, {"rental_uris": {"ios": "https://dc.lft.to/lastmile_qr_scan", "android": "https://dc.lft.to/lastmile_qr_scan"}, "lon": -77.02761666666666, "type": "electric_bike", "fusion_lat": 0.0, "lat": 38.90488033333333, "name": "06f14e8cdf5a08d23f60631fd872eb02", "fusion_lon": 0.0, "bike_id": "06f14e8cdf5a08d23f60631fd872eb02", "is_disabled": 0, "is_reserved": 0}, {"rental_uris": {"ios": "https://dc.lft.to/lastmile_qr_scan", "android": "https://dc.lft.to/lastmile_qr_scan"}, "lon": -77.04126666666667, "type": "electric_scooter", "fusion_lat": 0.0, "lat": 38.92171466666667, "name": "b8744ccbd8f184a1e79abdc3c764ed01", "fusion_lon": 0.0, "bike_id": "b8744ccbd8f184a1e79abdc3c764ed01", "is_disabled": 0, "is_reserved": 0}, {"rental_uris": {"ios": "https://dc.lft.to/lastmile_qr_scan", "android": "https://dc.lft.to/lastmile_qr_scan"}, "lon": -76.99817883333333, "type": "electric_scooter", "fusion_lat": 0.0, "lat": 38.88871966666667, "name": "e0c9f1ad62f997718183987999c646aa", "fusion_lon": 0.0, "bike_id": "e0c9f1ad62f997718183987999c646aa", "is_disabled": 0, "is_reserved": 0}, {"rental_uris": {"ios": "https://dc.lft.to/lastmile_qr_scan", "android": "https://dc.lft.to/lastmile_qr_scan"}, "lon": -77.04344883333333, "type": "electric_scooter", "fusion_lat": 0.0, "lat": 38.8964775, "name": "b10de48bdb1b493c62a4482c6af7c6cc", "fusion_lon": 0.0, "bike_id": "b10de48bdb1b493c62a4482c6af7c6cc", "is_disabled": 0, "is_reserved": 0}, {"rental_uris": {"ios": "https://dc.lft.to/lastmile_qr_scan", "android": "https://dc.lft.to/lastmile_qr_scan"}, "lon": -77.0162365, "type": "electric_scooter", "fusion_lat": 0.0, "lat": 38.90710883333333, "name": "d55490f79557e632bce9a6a7c3db4e34", "fusion_lon": 0.0, "bike_id": "d55490f79557e632bce9a6a7c3db4e34", "is_disabled": 0, "is_reserved": 0}, {"rental_uris": {"ios": "https://dc.lft.to/lastmile_qr_scan", "android": "https://dc.lft.to/lastmile_qr_scan"}, "lon": -77.01886583333334, "type": "electric_scooter", "fusion_lat": 0.0, "lat": 38.911956, "name": "86665d0b09c5d000a8af11bd4aba3d10", "fusion_lon": 0.0, "bike_id": "86665d0b09c5d000a8af11bd4aba3d10", "is_disabled": 0, "is_reserved": 0}, {"rental_uris": {"ios": "https://dc.lft.to/lastmile_qr_scan", "android": "https://dc.lft.to/lastmile_qr_scan"}, "lon": -77.03551766666666, "type": "electric_bike", "fusion_lat": 0.0, "lat": 38.9647365, "name": "97ed67d7408caa362ef30e21b4b96327", "fusion_lon": 0.0, "bike_id": "97ed67d7408caa362ef30e21b4b96327", "is_disabled": 0, "is_reserved": 0}, {"rental_uris": {"ios": "https://dc.lft.to/lastmile_qr_scan", "android": "https://dc.lft.to/lastmile_qr_scan"}, "lon": -77.064009, "type": "electric_bike", "fusion_lat": 0.0, "lat": 38.84346016666667, "name": "114f8eeaa82fd9535a2a4471c9747184", "fusion_lon": 0.0, "bike_id": "114f8eeaa82fd9535a2a4471c9747184", "is_disabled": 0, "is_reserved": 0}, {"rental_uris": {"ios": "https://dc.lft.to/lastmile_qr_scan", "android": "https://dc.lft.to/lastmile_qr_scan"}, "lon": -77.030013, "type": "electric_scooter", "fusion_lat": 0.0, "lat": 38.90004183333333, "name": "99ee3951e43c0f3d8bcd91fda00c8c8e", "fusion_lon": 0.0, "bike_id": "99ee3951e43c0f3d8bcd91fda00c8c8e", "is_disabled": 0, "is_reserved": 0}, {"rental_uris": {"ios": "https://dc.lft.to/lastmile_qr_scan", "android": "https://dc.lft.to/lastmile_qr_scan"}, "lon": -77.04231466666667, "type": "electric_scooter", "fusion_lat": 0.0, "lat": 38.9110865, "name": "be30e91976e038cd78ad5429d1f1efb1", "fusion_lon": 0.0, "bike_id": "be30e91976e038cd78ad5429d1f1efb1", "is_disabled": 0, "is_reserved": 0}, {"rental_uris": {"ios": "https://dc.lft.to/lastmile_qr_scan", "android": "https://dc.lft.to/lastmile_qr_scan"}, "lon": -77.03019916666666, "type": "electric_bike", "fusion_lat": 0.0, "lat": 38.934854666666666, "name": "3c23c027c6b7d6ef4953916fd827a7ae", "fusion_lon": 0.0, "bike_id": "3c23c027c6b7d6ef4953916fd827a7ae", "is_disabled": 0, "is_reserved": 0}, {"rental_uris": {"ios": "https://dc.lft.to/lastmile_qr_scan", "android": "https://dc.lft.to/lastmile_qr_scan"}, "lon": -77.040191, "type": "electric_scooter", "fusion_lat": 0.0, "lat": 38.923449166666664, "name": "b38efc3a30a62d80fd83ff80746a19a0", "fusion_lon": 0.0, "bike_id": "b38efc3a30a62d80fd83ff80746a19a0", "is_disabled": 0, "is_reserved": 0}, {"rental_uris": {"ios": "https://dc.lft.to/lastmile_qr_scan", "android": "https://dc.lft.to/lastmile_qr_scan"}, "lon": -77.00646566666667, "type": "electric_scooter", "fusion_lat": 0.0, "lat": 38.91705533333333, "name": "577e84aedd15ee16bc20f7f1b44f063f", "fusion_lon": 0.0, "bike_id": "577e84aedd15ee16bc20f7f1b44f063f", "is_disabled": 0, "is_reserved": 0}, {"rental_uris": {"ios": "https://dc.lft.to/lastmile_qr_scan", "android": "https://dc.lft.to/lastmile_qr_scan"}, "lon": -77.0238405, "type": "electric_scooter", "fusion_lat": 0.0, "lat": 38.9159745, "name": "de882ebaff043c8ec313a37b4bf76349", "fusion_lon": 0.0, "bike_id": "de882ebaff043c8ec313a37b4bf76349", "is_disabled": 0, "is_reserved": 0}, {"rental_uris": {"ios": "https://dc.lft.to/lastmile_qr_scan", "android": "https://dc.lft.to/lastmile_qr_scan"}, "lon": -77.03453, "type": "electric_scooter", "fusion_lat": 0.0, "lat": 38.90731533333334, "name": "224c1450fc2ccaea1692a24119b3945d", "fusion_lon": 0.0, "bike_id": "224c1450fc2ccaea1692a24119b3945d", "is_disabled": 0, "is_reserved": 0}, {"rental_uris": {"ios": "https://dc.lft.to/lastmile_qr_scan", "android": "https://dc.lft.to/lastmile_qr_scan"}, "lon": -77.03851083333333, "type": "electric_scooter", "fusion_lat": 0.0, "lat": 38.9038515, "name": "a7e003a560aae20dd0e60c5c2a50f07e", "fusion_lon": 0.0, "bike_id": "a7e003a560aae20dd0e60c5c2a50f07e", "is_disabled": 0, "is_reserved": 0}, {"rental_uris": {"ios": "https://dc.lft.to/lastmile_qr_scan", "android": "https://dc.lft.to/lastmile_qr_scan"}, "lon": -77.03149016666667, "type": "electric_scooter", "fusion_lat": 0.0, "lat": 38.89352483333333, "name": "b2d1a55191fbb443e4aed851c1377617", "fusion_lon": 0.0, "bike_id": "b2d1a55191fbb443e4aed851c1377617", "is_disabled": 0, "is_reserved": 0}, {"rental_uris": {"ios": "https://dc.lft.to/lastmile_qr_scan", "android": "https://dc.lft.to/lastmile_qr_scan"}, "lon": -77.19906233333333, "type": "electric_bike", "fusion_lat": 0.0, "lat": 38.87528733333333, "name": "43cd26f17fb38b587dc63aa8b32656da", "fusion_lon": 0.0, "bike_id": "43cd26f17fb38b587dc63aa8b32656da", "is_disabled": 0, "is_reserved": 0}, {"rental_uris": {"ios": "https://dc.lft.to/lastmile_qr_scan", "android": "https://dc.lft.to/lastmile_qr_scan"}, "lon": -77.02211983333333, "type": "electric_scooter", "fusion_lat": 0.0, "lat": 38.91269833333333, "name": "25e2cd3162c3c9e1aa650dd154590e6c", "fusion_lon": 0.0, "bike_id": "25e2cd3162c3c9e1aa650dd154590e6c", "is_disabled": 0, "is_reserved": 0}, {"rental_uris": {"ios": "https://dc.lft.to/lastmile_qr_scan", "android": "https://dc.lft.to/lastmile_qr_scan"}, "lon": -77.050625, "type": "electric_scooter", "fusion_lat": 0.0, "lat": 38.9054465, "name": "03d3311dd833bdce19e1b3ca5c52c827", "fusion_lon": 0.0, "bike_id": "03d3311dd833bdce19e1b3ca5c52c827", "is_disabled": 0, "is_reserved": 0}, {"rental_uris": {"ios": "https://dc.lft.to/lastmile_qr_scan", "android": "https://dc.lft.to/lastmile_qr_scan"}, "lon": -77.02475266666667, "type": "electric_scooter", "fusion_lat": 0.0, "lat": 38.9335485, "name": "594509ee07f276cd2ac6e785a5a06260", "fusion_lon": 0.0, "bike_id": "594509ee07f276cd2ac6e785a5a06260", "is_disabled": 0, "is_reserved": 0}, {"rental_uris": {"ios": "https://dc.lft.to/lastmile_qr_scan", "android": "https://dc.lft.to/lastmile_qr_scan"}, "lon": -77.029473, "type": "electric_scooter", "fusion_lat": 0.0, "lat": 38.903526666666664, "name": "28669d83e49f371cd62471ac26d6733a", "fusion_lon": 0.0, "bike_id": "28669d83e49f371cd62471ac26d6733a", "is_disabled": 0, "is_reserved": 0}, {"rental_uris": {"ios": "https://dc.lft.to/lastmile_qr_scan", "android": "https://dc.lft.to/lastmile_qr_scan"}, "lon": -77.006529, "type": "electric_scooter", "fusion_lat": 0.0, "lat": 38.90861366666667, "name": "6999d1b4da7d270adaa7616e247a308f", "fusion_lon": 0.0, "bike_id": "6999d1b4da7d270adaa7616e247a308f", "is_disabled": 0, "is_reserved": 0}, {"rental_uris": {"ios": "https://dc.lft.to/lastmile_qr_scan", "android": "https://dc.lft.to/lastmile_qr_scan"}, "lon": -77.14987866666667, "type": "electric_bike", "fusion_lat": 0.0, "lat": 39.094605666666666, "name": "1f51c96a81faac01f5875098dfa99a42", "fusion_lon": 0.0, "bike_id": "1f51c96a81faac01f5875098dfa99a42", "is_disabled": 0, "is_reserved": 0}, {"rental_uris": {"ios": "https://dc.lft.to/lastmile_qr_scan", "android": "https://dc.lft.to/lastmile_qr_scan"}, "lon": -77.03663516666667, "type": "electric_scooter", "fusion_lat": 0.0, "lat": 38.921123, "name": "f77f73773a9ff0dcaffd4377ffada018", "fusion_lon": 0.0, "bike_id": "f77f73773a9ff0dcaffd4377ffada018", "is_disabled": 0, "is_reserved": 0}, {"rental_uris": {"ios": "https://dc.lft.to/lastmile_qr_scan", "android": "https://dc.lft.to/lastmile_qr_scan"}, "lon": -77.0486955, "type": "electric_scooter", "fusion_lat": 0.0, "lat": 38.9051525, "name": "8895ebd93f51818901f3187d434d05d4", "fusion_lon": 0.0, "bike_id": "8895ebd93f51818901f3187d434d05d4", "is_disabled": 0, "is_reserved": 0}, {"rental_uris": {"ios": "https://dc.lft.to/lastmile_qr_scan", "android": "https://dc.lft.to/lastmile_qr_scan"}, "lon": -77.01106133333333, "type": "electric_bike", "fusion_lat": 0.0, "lat": 38.963059666666666, "name": "027d0e8e61d72e45df502072613f4be9", "fusion_lon": 0.0, "bike_id": "027d0e8e61d72e45df502072613f4be9", "is_disabled": 0, "is_reserved": 0}, {"rental_uris": {"ios": "https://dc.lft.to/lastmile_qr_scan", "android": "https://dc.lft.to/lastmile_qr_scan"}, "lon": -77.10900433333333, "type": "electric_bike", "fusion_lat": 0.0, "lat": 38.8303905, "name": "cc336124d3a92591875dae266786ce11", "fusion_lon": 0.0, "bike_id": "cc336124d3a92591875dae266786ce11", "is_disabled": 0, "is_reserved": 0}, {"rental_uris": {"ios": "https://dc.lft.to/lastmile_qr_scan", "android": "https://dc.lft.to/lastmile_qr_scan"}, "lon": -77.02207683333333, "type": "electric_scooter", "fusion_lat": 0.0, "lat": 38.90523133333333, "name": "88cb0ba14d160143e3d1898e5c0a1f3c", "fusion_lon": 0.0, "bike_id": "88cb0ba14d160143e3d1898e5c0a1f3c", "is_disabled": 0, "is_reserved": 0}, {"rental_uris": {"ios": "https://dc.lft.to/lastmile_qr_scan", "android": "https://dc.lft.to/lastmile_qr_scan"}, "lon": -76.9915355, "type": "electric_scooter", "fusion_lat": 0.0, "lat": 38.893460166666664, "name": "4fbf4d154700d0041fd887c2e71d8d03", "fusion_lon": 0.0, "bike_id": "4fbf4d154700d0041fd887c2e71d8d03", "is_disabled": 0, "is_reserved": 0}, {"rental_uris": {"ios": "https://dc.lft.to/lastmile_qr_scan", "android": "https://dc.lft.to/lastmile_qr_scan"}, "lon": -77.01782166666666, "type": "electric_scooter", "fusion_lat": 0.0, "lat": 38.903989333333335, "name": "3b7743ef48e4f4f0dcc897ca972607ef", "fusion_lon": 0.0, "bike_id": "3b7743ef48e4f4f0dcc897ca972607ef", "is_disabled": 0, "is_reserved": 0}, {"rental_uris": {"ios": "https://dc.lft.to/lastmile_qr_scan", "android": "https://dc.lft.to/lastmile_qr_scan"}, "lon": -76.973229, "type": "electric_scooter", "fusion_lat": 0.0, "lat": 38.90478983333333, "name": "f3345d38dd090a4402580c0b4d9b94a5", "fusion_lon": 0.0, "bike_id": "f3345d38dd090a4402580c0b4d9b94a5", "is_disabled": 0, "is_reserved": 0}, {"rental_uris": {"ios": "https://dc.lft.to/lastmile_qr_scan", "android": "https://dc.lft.to/lastmile_qr_scan"}, "lon": -77.00133833333334, "type": "electric_scooter", "fusion_lat": 0.0, "lat": 38.90410966666666, "name": "0e7799a4d88ac2cdb5ec44faab184dff", "fusion_lon": 0.0, "bike_id": "0e7799a4d88ac2cdb5ec44faab184dff", "is_disabled": 0, "is_reserved": 0}, {"rental_uris": {"ios": "https://dc.lft.to/lastmile_qr_scan", "android": "https://dc.lft.to/lastmile_qr_scan"}, "lon": -76.99518933333333, "type": "electric_scooter", "fusion_lat": 0.0, "lat": 38.88373833333333, "name": "4ed61575131c24ef5be4ab65efdf8570", "fusion_lon": 0.0, "bike_id": "4ed61575131c24ef5be4ab65efdf8570", "is_disabled": 0, "is_reserved": 0}, {"rental_uris": {"ios": "https://dc.lft.to/lastmile_qr_scan", "android": "https://dc.lft.to/lastmile_qr_scan"}, "lon": -77.03341633333334, "type": "electric_scooter", "fusion_lat": 0.0, "lat": 38.9287935, "name": "9200aad6ca0c884f9ca86bbca6168861", "fusion_lon": 0.0, "bike_id": "9200aad6ca0c884f9ca86bbca6168861", "is_disabled": 0, "is_reserved": 0}, {"rental_uris": {"ios": "https://dc.lft.to/lastmile_qr_scan", "android": "https://dc.lft.to/lastmile_qr_scan"}, "lon": -77.03786083333334, "type": "electric_scooter", "fusion_lat": 0.0, "lat": 38.930358, "name": "581870c5887d87f52e5036f71adf0f42", "fusion_lon": 0.0, "bike_id": "581870c5887d87f52e5036f71adf0f42", "is_disabled": 0, "is_reserved": 0}, {"rental_uris": {"ios": "https://dc.lft.to/lastmile_qr_scan", "android": "https://dc.lft.to/lastmile_qr_scan"}, "lon": -77.02483266666667, "type": "electric_scooter", "fusion_lat": 0.0, "lat": 38.89740283333333, "name": "e7796a91d9b9257c4ae3a2ef00969ab3", "fusion_lon": 0.0, "bike_id": "e7796a91d9b9257c4ae3a2ef00969ab3", "is_disabled": 0, "is_reserved": 0}, {"rental_uris": {"ios": "https://dc.lft.to/lastmile_qr_scan", "android": "https://dc.lft.to/lastmile_qr_scan"}, "lon": -76.947204, "type": "electric_scooter", "fusion_lat": 0.0, "lat": 38.89676266666667, "name": "6857897566a0d9a89ea69437e882c7fa", "fusion_lon": 0.0, "bike_id": "6857897566a0d9a89ea69437e882c7fa", "is_disabled": 0, "is_reserved": 0}, {"rental_uris": {"ios": "https://dc.lft.to/lastmile_qr_scan", "android": "https://dc.lft.to/lastmile_qr_scan"}, "lon": -76.99845433333333, "type": "electric_scooter", "fusion_lat": 0.0, "lat": 38.900432333333335, "name": "4ba51b283b9cc3b69f9571830c330649", "fusion_lon": 0.0, "bike_id": "4ba51b283b9cc3b69f9571830c330649", "is_disabled": 0, "is_reserved": 0}, {"rental_uris": {"ios": "https://dc.lft.to/lastmile_qr_scan", "android": "https://dc.lft.to/lastmile_qr_scan"}, "lon": -76.988504, "type": "electric_scooter", "fusion_lat": 0.0, "lat": 38.90346233333333, "name": "1d2e57f3963cd813df527a14c71c43cc", "fusion_lon": 0.0, "bike_id": "1d2e57f3963cd813df527a14c71c43cc", "is_disabled": 0, "is_reserved": 0}, {"rental_uris": {"ios": "https://dc.lft.to/lastmile_qr_scan", "android": "https://dc.lft.to/lastmile_qr_scan"}, "lon": -77.02477333333333, "type": "electric_scooter", "fusion_lat": 0.0, "lat": 38.90407283333333, "name": "71ae5488bdddab66bea0e817fe899c93", "fusion_lon": 0.0, "bike_id": "71ae5488bdddab66bea0e817fe899c93", "is_disabled": 0, "is_reserved": 0}, {"rental_uris": {"ios": "https://dc.lft.to/lastmile_qr_scan", "android": "https://dc.lft.to/lastmile_qr_scan"}, "lon": -77.047205, "type": "electric_scooter", "fusion_lat": 0.0, "lat": 38.90977733333333, "name": "fd84ed7de192153c896e5db5f00789d5", "fusion_lon": 0.0, "bike_id": "fd84ed7de192153c896e5db5f00789d5", "is_disabled": 0, "is_reserved": 0}, {"rental_uris": {"ios": "https://dc.lft.to/lastmile_qr_scan", "android": "https://dc.lft.to/lastmile_qr_scan"}, "lon": -77.03656516666666, "type": "electric_scooter", "fusion_lat": 0.0, "lat": 38.93082283333333, "name": "262892e421ed2ae4f3355fc072f31c01", "fusion_lon": 0.0, "bike_id": "262892e421ed2ae4f3355fc072f31c01", "is_disabled": 0, "is_reserved": 0}, {"rental_uris": {"ios": "https://dc.lft.to/lastmile_qr_scan", "android": "https://dc.lft.to/lastmile_qr_scan"}, "lon": -77.0416005, "type": "electric_scooter", "fusion_lat": 0.0, "lat": 38.903447666666665, "name": "1fbe7d0bd2f853b7401cf6d42ba3a565", "fusion_lon": 0.0, "bike_id": "1fbe7d0bd2f853b7401cf6d42ba3a565", "is_disabled": 0, "is_reserved": 0}, {"rental_uris": {"ios": "https://dc.lft.to/lastmile_qr_scan", "android": "https://dc.lft.to/lastmile_qr_scan"}, "lon": -77.02202716666666, "type": "electric_scooter", "fusion_lat": 0.0, "lat": 38.91537983333333, "name": "5cac0b63f872a8a31fa3d71d76b4f8ab", "fusion_lon": 0.0, "bike_id": "5cac0b63f872a8a31fa3d71d76b4f8ab", "is_disabled": 0, "is_reserved": 0}, {"rental_uris": {"ios": "https://dc.lft.to/lastmile_qr_scan", "android": "https://dc.lft.to/lastmile_qr_scan"}, "lon": -77.03314233333333, "type": "electric_scooter", "fusion_lat": 0.0, "lat": 38.90130933333333, "name": "b783880744693b977d718420cb9a0547", "fusion_lon": 0.0, "bike_id": "b783880744693b977d718420cb9a0547", "is_disabled": 0, "is_reserved": 0}, {"rental_uris": {"ios": "https://dc.lft.to/lastmile_qr_scan", "android": "https://dc.lft.to/lastmile_qr_scan"}, "lon": -77.06346966666666, "type": "electric_scooter", "fusion_lat": 0.0, "lat": 38.944478333333336, "name": "43ed709446bee29626444627bd71c8e5", "fusion_lon": 0.0, "bike_id": "43ed709446bee29626444627bd71c8e5", "is_disabled": 0, "is_reserved": 0}, {"rental_uris": {"ios": "https://dc.lft.to/lastmile_qr_scan", "android": "https://dc.lft.to/lastmile_qr_scan"}, "lon": -77.02811483333333, "type": "electric_scooter", "fusion_lat": 0.0, "lat": 38.93082666666667, "name": "db8b44d51db8e029c6b75ff69322fa24", "fusion_lon": 0.0, "bike_id": "db8b44d51db8e029c6b75ff69322fa24", "is_disabled": 0, "is_reserved": 0}, {"rental_uris": {"ios": "https://dc.lft.to/lastmile_qr_scan", "android": "https://dc.lft.to/lastmile_qr_scan"}, "lon": -77.03428333333333, "type": "electric_scooter", "fusion_lat": 0.0, "lat": 38.9191675, "name": "1aae802cef78d69f5b841ee42f28cda3", "fusion_lon": 0.0, "bike_id": "1aae802cef78d69f5b841ee42f28cda3", "is_disabled": 0, "is_reserved": 0}, {"rental_uris": {"ios": "https://dc.lft.to/lastmile_qr_scan", "android": "https://dc.lft.to/lastmile_qr_scan"}, "lon": -77.02782833333333, "type": "electric_scooter", "fusion_lat": 0.0, "lat": 38.92374916666667, "name": "9347c12ada86f5b50c325916fdb6722e", "fusion_lon": 0.0, "bike_id": "9347c12ada86f5b50c325916fdb6722e", "is_disabled": 0, "is_reserved": 0}, {"rental_uris": {"ios": "https://dc.lft.to/lastmile_qr_scan", "android": "https://dc.lft.to/lastmile_qr_scan"}, "lon": -77.03834366666666, "type": "electric_scooter", "fusion_lat": 0.0, "lat": 38.903915166666664, "name": "41078fe82618b6752cc25d4e9355e325", "fusion_lon": 0.0, "bike_id": "41078fe82618b6752cc25d4e9355e325", "is_disabled": 0, "is_reserved": 0}, {"rental_uris": {"ios": "https://dc.lft.to/lastmile_qr_scan", "android": "https://dc.lft.to/lastmile_qr_scan"}, "lon": -77.021438, "type": "electric_scooter", "fusion_lat": 0.0, "lat": 38.92819016666667, "name": "aaafed0475f721105a2aea676223d546", "fusion_lon": 0.0, "bike_id": "aaafed0475f721105a2aea676223d546", "is_disabled": 0, "is_reserved": 0}, {"rental_uris": {"ios": "https://dc.lft.to/lastmile_qr_scan", "android": "https://dc.lft.to/lastmile_qr_scan"}, "lon": -77.06634216666667, "type": "electric_scooter", "fusion_lat": 0.0, "lat": 38.92807233333333, "name": "032c0b0e2fd5a07d5ca8c1b858538ba6", "fusion_lon": 0.0, "bike_id": "032c0b0e2fd5a07d5ca8c1b858538ba6", "is_disabled": 0, "is_reserved": 0}, {"rental_uris": {"ios": "https://dc.lft.to/lastmile_qr_scan", "android": "https://dc.lft.to/lastmile_qr_scan"}, "lon": -77.00562883333333, "type": "electric_scooter", "fusion_lat": 0.0, "lat": 38.880618, "name": "879ab9bae08890e475b45fd7cf44ba80", "fusion_lon": 0.0, "bike_id": "879ab9bae08890e475b45fd7cf44ba80", "is_disabled": 0, "is_reserved": 0}, {"rental_uris": {"ios": "https://dc.lft.to/lastmile_qr_scan", "android": "https://dc.lft.to/lastmile_qr_scan"}, "lon": -76.99516, "type": "electric_scooter", "fusion_lat": 0.0, "lat": 38.883736166666665, "name": "1ec2ba062508fa62a9b7b1a997041398", "fusion_lon": 0.0, "bike_id": "1ec2ba062508fa62a9b7b1a997041398", "is_disabled": 0, "is_reserved": 0}, {"rental_uris": {"ios": "https://dc.lft.to/lastmile_qr_scan", "android": "https://dc.lft.to/lastmile_qr_scan"}, "lon": -76.927101, "type": "electric_scooter", "fusion_lat": 0.0, "lat": 38.8876635, "name": "41588b9dccb3aa45636a44d4811aa648", "fusion_lon": 0.0, "bike_id": "41588b9dccb3aa45636a44d4811aa648", "is_disabled": 0, "is_reserved": 0}, {"rental_uris": {"ios": "https://dc.lft.to/lastmile_qr_scan", "android": "https://dc.lft.to/lastmile_qr_scan"}, "lon": -76.9889975, "type": "electric_scooter", "fusion_lat": 0.0, "lat": 38.866924, "name": "08ca55c2373e1e984e12bdd24d833497", "fusion_lon": 0.0, "bike_id": "08ca55c2373e1e984e12bdd24d833497", "is_disabled": 0, "is_reserved": 0}, {"rental_uris": {"ios": "https://dc.lft.to/lastmile_qr_scan", "android": "https://dc.lft.to/lastmile_qr_scan"}, "lon": -77.01745733333334, "type": "electric_scooter", "fusion_lat": 0.0, "lat": 38.882087, "name": "86ce0959550b906a9c20fb0c7b76e561", "fusion_lon": 0.0, "bike_id": "86ce0959550b906a9c20fb0c7b76e561", "is_disabled": 0, "is_reserved": 0}, {"rental_uris": {"ios": "https://dc.lft.to/lastmile_qr_scan", "android": "https://dc.lft.to/lastmile_qr_scan"}, "lon": -77.06650216666667, "type": "electric_scooter", "fusion_lat": 0.0, "lat": 38.92685316666667, "name": "f7ce2d3227477de1e9745ea99e8fcfe8", "fusion_lon": 0.0, "bike_id": "f7ce2d3227477de1e9745ea99e8fcfe8", "is_disabled": 0, "is_reserved": 0}, {"rental_uris": {"ios": "https://dc.lft.to/lastmile_qr_scan", "android": "https://dc.lft.to/lastmile_qr_scan"}, "lon": -77.05184216666666, "type": "electric_scooter", "fusion_lat": 0.0, "lat": 38.924386, "name": "bccf24daa890e21dc32c035ba6c8e4b9", "fusion_lon": 0.0, "bike_id": "bccf24daa890e21dc32c035ba6c8e4b9", "is_disabled": 0, "is_reserved": 0}, {"rental_uris": {"ios": "https://dc.lft.to/lastmile_qr_scan", "android": "https://dc.lft.to/lastmile_qr_scan"}, "lon": -77.04888566666666, "type": "electric_scooter", "fusion_lat": 0.0, "lat": 38.903592333333336, "name": "71477fa44e3a8ca75ac777961d137555", "fusion_lon": 0.0, "bike_id": "71477fa44e3a8ca75ac777961d137555", "is_disabled": 0, "is_reserved": 0}, {"rental_uris": {"ios": "https://dc.lft.to/lastmile_qr_scan", "android": "https://dc.lft.to/lastmile_qr_scan"}, "lon": -77.02339116666667, "type": "electric_scooter", "fusion_lat": 0.0, "lat": 38.929419, "name": "a17fa7a8403b6559b79dd31b3005e06f", "fusion_lon": 0.0, "bike_id": "a17fa7a8403b6559b79dd31b3005e06f", "is_disabled": 0, "is_reserved": 0}, {"rental_uris": {"ios": "https://dc.lft.to/lastmile_qr_scan", "android": "https://dc.lft.to/lastmile_qr_scan"}, "lon": -76.988363, "type": "electric_bike", "fusion_lat": 0.0, "lat": 38.84269166666667, "name": "5c70d1fdf5a780234806295eb88fe9df", "fusion_lon": 0.0, "bike_id": "5c70d1fdf5a780234806295eb88fe9df", "is_disabled": 0, "is_reserved": 0}, {"rental_uris": {"ios": "https://dc.lft.to/lastmile_qr_scan", "android": "https://dc.lft.to/lastmile_qr_scan"}, "lon": -76.97601933333334, "type": "electric_scooter", "fusion_lat": 0.0, "lat": 38.902082666666665, "name": "74640f2cde31560c376ad32486c41b19", "fusion_lon": 0.0, "bike_id": "74640f2cde31560c376ad32486c41b19", "is_disabled": 0, "is_reserved": 0}, {"rental_uris": {"ios": "https://dc.lft.to/lastmile_qr_scan", "android": "https://dc.lft.to/lastmile_qr_scan"}, "lon": -76.97008616666666, "type": "electric_bike", "fusion_lat": 0.0, "lat": 38.86367966666667, "name": "b73b1958f45c8c5371d641f4ef243c3f", "fusion_lon": 0.0, "bike_id": "b73b1958f45c8c5371d641f4ef243c3f", "is_disabled": 0, "is_reserved": 0}, {"rental_uris": {"ios": "https://dc.lft.to/lastmile_qr_scan", "android": "https://dc.lft.to/lastmile_qr_scan"}, "lon": -76.9687955, "type": "electric_bike", "fusion_lat": 0.0, "lat": 38.84591416666667, "name": "05e6f941ce11ab88f1ca40c07aac4424", "fusion_lon": 0.0, "bike_id": "05e6f941ce11ab88f1ca40c07aac4424", "is_disabled": 0, "is_reserved": 0}, {"rental_uris": {"ios": "https://dc.lft.to/lastmile_qr_scan", "android": "https://dc.lft.to/lastmile_qr_scan"}, "lon": -76.9990045, "type": "electric_scooter", "fusion_lat": 0.0, "lat": 38.9094105, "name": "92b710efb76f68c866f32eb93c4fece8", "fusion_lon": 0.0, "bike_id": "92b710efb76f68c866f32eb93c4fece8", "is_disabled": 0, "is_reserved": 0}, {"rental_uris": {"ios": "https://dc.lft.to/lastmile_qr_scan", "android": "https://dc.lft.to/lastmile_qr_scan"}, "lon": -77.02818333333333, "type": "electric_scooter", "fusion_lat": 0.0, "lat": 38.909321166666665, "name": "fc7a528eb581719bf71d1b1fb41df7a7", "fusion_lon": 0.0, "bike_id": "fc7a528eb581719bf71d1b1fb41df7a7", "is_disabled": 0, "is_reserved": 0}, {"rental_uris": {"ios": "https://dc.lft.to/lastmile_qr_scan", "android": "https://dc.lft.to/lastmile_qr_scan"}, "lon": -77.05173066666667, "type": "electric_scooter", "fusion_lat": 0.0, "lat": 38.92419066666667, "name": "fe47e1973bacc0f0fb38ed7c0f92c77d", "fusion_lon": 0.0, "bike_id": "fe47e1973bacc0f0fb38ed7c0f92c77d", "is_disabled": 0, "is_reserved": 0}, {"rental_uris": {"ios": "https://dc.lft.to/lastmile_qr_scan", "android": "https://dc.lft.to/lastmile_qr_scan"}, "lon": -77.03661383333333, "type": "electric_scooter", "fusion_lat": 0.0, "lat": 38.90278466666667, "name": "edf28a761b7ccff17469d787b5af9aa7", "fusion_lon": 0.0, "bike_id": "edf28a761b7ccff17469d787b5af9aa7", "is_disabled": 0, "is_reserved": 0}, {"rental_uris": {"ios": "https://dc.lft.to/lastmile_qr_scan", "android": "https://dc.lft.to/lastmile_qr_scan"}, "lon": -77.02749683333333, "type": "electric_scooter", "fusion_lat": 0.0, "lat": 38.96624883333333, "name": "7792f813635ed577205e7670bcb3060f", "fusion_lon": 0.0, "bike_id": "7792f813635ed577205e7670bcb3060f", "is_disabled": 0, "is_reserved": 0}, {"rental_uris": {"ios": "https://dc.lft.to/lastmile_qr_scan", "android": "https://dc.lft.to/lastmile_qr_scan"}, "lon": -77.0318665, "type": "electric_scooter", "fusion_lat": 0.0, "lat": 38.89346166666667, "name": "e347c9b1f6121520d844042bddb4acc4", "fusion_lon": 0.0, "bike_id": "e347c9b1f6121520d844042bddb4acc4", "is_disabled": 0, "is_reserved": 0}, {"rental_uris": {"ios": "https://dc.lft.to/lastmile_qr_scan", "android": "https://dc.lft.to/lastmile_qr_scan"}, "lon": -77.007325, "type": "electric_scooter", "fusion_lat": 0.0, "lat": 38.87647783333333, "name": "168a2ca5b0a077c1ea44ea502cbe21e9", "fusion_lon": 0.0, "bike_id": "168a2ca5b0a077c1ea44ea502cbe21e9", "is_disabled": 0, "is_reserved": 0}, {"rental_uris": {"ios": "https://dc.lft.to/lastmile_qr_scan", "android": "https://dc.lft.to/lastmile_qr_scan"}, "lon": -76.98494966666667, "type": "electric_scooter", "fusion_lat": 0.0, "lat": 38.860464, "name": "e1c672c9a513d25b8f2821aee483b817", "fusion_lon": 0.0, "bike_id": "e1c672c9a513d25b8f2821aee483b817", "is_disabled": 0, "is_reserved": 0}, {"rental_uris": {"ios": "https://dc.lft.to/lastmile_qr_scan", "android": "https://dc.lft.to/lastmile_qr_scan"}, "lon": -76.99539133333333, "type": "electric_scooter", "fusion_lat": 0.0, "lat": 38.92666333333333, "name": "5105e5fe8ff0be6392947abbb2eea2b1", "fusion_lon": 0.0, "bike_id": "5105e5fe8ff0be6392947abbb2eea2b1", "is_disabled": 0, "is_reserved": 0}, {"rental_uris": {"ios": "https://dc.lft.to/lastmile_qr_scan", "android": "https://dc.lft.to/lastmile_qr_scan"}, "lon": -76.99514916666666, "type": "electric_scooter", "fusion_lat": 0.0, "lat": 38.8447, "name": "ba6e1cdaca9b4d39bb076e9ba2e0d1dc", "fusion_lon": 0.0, "bike_id": "ba6e1cdaca9b4d39bb076e9ba2e0d1dc", "is_disabled": 0, "is_reserved": 0}, {"rental_uris": {"ios": "https://dc.lft.to/lastmile_qr_scan", "android": "https://dc.lft.to/lastmile_qr_scan"}, "lon": -77.0292125, "type": "electric_scooter", "fusion_lat": 0.0, "lat": 38.900178333333336, "name": "4fe117be13e601de571abab3b34f3a3e", "fusion_lon": 0.0, "bike_id": "4fe117be13e601de571abab3b34f3a3e", "is_disabled": 0, "is_reserved": 0}, {"rental_uris": {"ios": "https://dc.lft.to/lastmile_qr_scan", "android": "https://dc.lft.to/lastmile_qr_scan"}, "lon": -77.03009033333333, "type": "electric_scooter", "fusion_lat": 0.0, "lat": 38.91925716666667, "name": "a2165556d34ca57cf5b18438d2dcc951", "fusion_lon": 0.0, "bike_id": "a2165556d34ca57cf5b18438d2dcc951", "is_disabled": 0, "is_reserved": 0}, {"rental_uris": {"ios": "https://dc.lft.to/lastmile_qr_scan", "android": "https://dc.lft.to/lastmile_qr_scan"}, "lon": -77.02412116666666, "type": "electric_scooter", "fusion_lat": 0.0, "lat": 38.91858916666666, "name": "971048c90b8ef094dc5c2872fb2056e7", "fusion_lon": 0.0, "bike_id": "971048c90b8ef094dc5c2872fb2056e7", "is_disabled": 0, "is_reserved": 0}, {"rental_uris": {"ios": "https://dc.lft.to/lastmile_qr_scan", "android": "https://dc.lft.to/lastmile_qr_scan"}, "lon": -77.03317683333333, "type": "electric_scooter", "fusion_lat": 0.0, "lat": 38.901463, "name": "a6e1caf87c7584483abd9dd5ed2d3b1f", "fusion_lon": 0.0, "bike_id": "a6e1caf87c7584483abd9dd5ed2d3b1f", "is_disabled": 0, "is_reserved": 0}, {"rental_uris": {"ios": "https://dc.lft.to/lastmile_qr_scan", "android": "https://dc.lft.to/lastmile_qr_scan"}, "lon": -77.03203966666666, "type": "electric_scooter", "fusion_lat": 0.0, "lat": 38.91745066666667, "name": "ca2a34fee1fbe791b8d015c0a3627015", "fusion_lon": 0.0, "bike_id": "ca2a34fee1fbe791b8d015c0a3627015", "is_disabled": 0, "is_reserved": 0}, {"rental_uris": {"ios": "https://dc.lft.to/lastmile_qr_scan", "android": "https://dc.lft.to/lastmile_qr_scan"}, "lon": -77.03260916666666, "type": "electric_scooter", "fusion_lat": 0.0, "lat": 38.919911166666665, "name": "4d71bbceaca1675899971b097df9637f", "fusion_lon": 0.0, "bike_id": "4d71bbceaca1675899971b097df9637f", "is_disabled": 0, "is_reserved": 0}, {"rental_uris": {"ios": "https://dc.lft.to/lastmile_qr_scan", "android": "https://dc.lft.to/lastmile_qr_scan"}, "lon": -76.992727, "type": "electric_scooter", "fusion_lat": 0.0, "lat": 38.8976485, "name": "d77c15808d33c2c90d49bd6c522e4307", "fusion_lon": 0.0, "bike_id": "d77c15808d33c2c90d49bd6c522e4307", "is_disabled": 0, "is_reserved": 0}, {"rental_uris": {"ios": "https://dc.lft.to/lastmile_qr_scan", "android": "https://dc.lft.to/lastmile_qr_scan"}, "lon": -77.03564716666666, "type": "electric_scooter", "fusion_lat": 0.0, "lat": 38.93135516666667, "name": "e4603878fe2f8d51cbbdcadc9f5ea83b", "fusion_lon": 0.0, "bike_id": "e4603878fe2f8d51cbbdcadc9f5ea83b", "is_disabled": 0, "is_reserved": 0}, {"rental_uris": {"ios": "https://dc.lft.to/lastmile_qr_scan", "android": "https://dc.lft.to/lastmile_qr_scan"}, "lon": -77.02408766666667, "type": "electric_scooter", "fusion_lat": 0.0, "lat": 38.91708216666667, "name": "513e6f464c736eb5d368a0dffdeab9a7", "fusion_lon": 0.0, "bike_id": "513e6f464c736eb5d368a0dffdeab9a7", "is_disabled": 0, "is_reserved": 0}, {"rental_uris": {"ios": "https://dc.lft.to/lastmile_qr_scan", "android": "https://dc.lft.to/lastmile_qr_scan"}, "lon": -76.989945, "type": "electric_bike", "fusion_lat": 0.0, "lat": 38.8639025, "name": "397111e9184c2acb22d2226e756fbf35", "fusion_lon": 0.0, "bike_id": "397111e9184c2acb22d2226e756fbf35", "is_disabled": 0, "is_reserved": 0}, {"rental_uris": {"ios": "https://dc.lft.to/lastmile_qr_scan", "android": "https://dc.lft.to/lastmile_qr_scan"}, "lon": -77.0370585, "type": "electric_scooter", "fusion_lat": 0.0, "lat": 38.926390833333336, "name": "cd15c18ccb1c982b77dc820c5e2a267c", "fusion_lon": 0.0, "bike_id": "cd15c18ccb1c982b77dc820c5e2a267c", "is_disabled": 0, "is_reserved": 0}, {"rental_uris": {"ios": "https://dc.lft.to/lastmile_qr_scan", "android": "https://dc.lft.to/lastmile_qr_scan"}, "lon": -77.0446215, "type": "electric_scooter", "fusion_lat": 0.0, "lat": 38.903253166666666, "name": "82cef01f728585b22ea5785f6f950e1c", "fusion_lon": 0.0, "bike_id": "82cef01f728585b22ea5785f6f950e1c", "is_disabled": 0, "is_reserved": 0}, {"rental_uris": {"ios": "https://dc.lft.to/lastmile_qr_scan", "android": "https://dc.lft.to/lastmile_qr_scan"}, "lon": -77.02766183333334, "type": "electric_scooter", "fusion_lat": 0.0, "lat": 38.89202983333333, "name": "3183fc167e9ed6c1456cec53b2497bb8", "fusion_lon": 0.0, "bike_id": "3183fc167e9ed6c1456cec53b2497bb8", "is_disabled": 0, "is_reserved": 0}, {"rental_uris": {"ios": "https://dc.lft.to/lastmile_qr_scan", "android": "https://dc.lft.to/lastmile_qr_scan"}, "lon": -77.04252716666667, "type": "electric_scooter", "fusion_lat": 0.0, "lat": 38.92066583333333, "name": "3ae754f63a7382e98d41c02e61628ba9", "fusion_lon": 0.0, "bike_id": "3ae754f63a7382e98d41c02e61628ba9", "is_disabled": 0, "is_reserved": 0}, {"rental_uris": {"ios": "https://dc.lft.to/lastmile_qr_scan", "android": "https://dc.lft.to/lastmile_qr_scan"}, "lon": -77.0207195, "type": "electric_scooter", "fusion_lat": 0.0, "lat": 38.935309, "name": "b9a7dd570b20f7825b778dec78ad67f5", "fusion_lon": 0.0, "bike_id": "b9a7dd570b20f7825b778dec78ad67f5", "is_disabled": 0, "is_reserved": 0}, {"rental_uris": {"ios": "https://dc.lft.to/lastmile_qr_scan", "android": "https://dc.lft.to/lastmile_qr_scan"}, "lon": -77.04490216666666, "type": "electric_scooter", "fusion_lat": 0.0, "lat": 38.91314783333333, "name": "c11acd35bbf171c805c4868d11e34895", "fusion_lon": 0.0, "bike_id": "c11acd35bbf171c805c4868d11e34895", "is_disabled": 0, "is_reserved": 0}, {"rental_uris": {"ios": "https://dc.lft.to/lastmile_qr_scan", "android": "https://dc.lft.to/lastmile_qr_scan"}, "lon": -77.0058575, "type": "electric_scooter", "fusion_lat": 0.0, "lat": 38.90619983333333, "name": "ba30362067f36d29c48b3f1554b3ffc8", "fusion_lon": 0.0, "bike_id": "ba30362067f36d29c48b3f1554b3ffc8", "is_disabled": 0, "is_reserved": 0}, {"rental_uris": {"ios": "https://dc.lft.to/lastmile_qr_scan", "android": "https://dc.lft.to/lastmile_qr_scan"}, "lon": -77.01077633333334, "type": "electric_bike", "fusion_lat": 0.0, "lat": 38.956527, "name": "b1901af9c78c2c04a552d16ae9d9e3f2", "fusion_lon": 0.0, "bike_id": "b1901af9c78c2c04a552d16ae9d9e3f2", "is_disabled": 0, "is_reserved": 0}, {"rental_uris": {"ios": "https://dc.lft.to/lastmile_qr_scan", "android": "https://dc.lft.to/lastmile_qr_scan"}, "lon": -77.02829, "type": "electric_scooter", "fusion_lat": 0.0, "lat": 38.92472733333334, "name": "b0438cdbfc5b56f7fb24acef93dc6499", "fusion_lon": 0.0, "bike_id": "b0438cdbfc5b56f7fb24acef93dc6499", "is_disabled": 0, "is_reserved": 0}, {"rental_uris": {"ios": "https://dc.lft.to/lastmile_qr_scan", "android": "https://dc.lft.to/lastmile_qr_scan"}, "lon": -77.0087205, "type": "electric_scooter", "fusion_lat": 0.0, "lat": 38.91173366666666, "name": "baf02f00526ec081f0fdfec20d06ce4d", "fusion_lon": 0.0, "bike_id": "baf02f00526ec081f0fdfec20d06ce4d", "is_disabled": 0, "is_reserved": 0}, {"rental_uris": {"ios": "https://dc.lft.to/lastmile_qr_scan", "android": "https://dc.lft.to/lastmile_qr_scan"}, "lon": -77.03855883333334, "type": "electric_scooter", "fusion_lat": 0.0, "lat": 38.9133615, "name": "100ac7a43aa2f7ed6d3cee9319e30f63", "fusion_lon": 0.0, "bike_id": "100ac7a43aa2f7ed6d3cee9319e30f63", "is_disabled": 0, "is_reserved": 0}, {"rental_uris": {"ios": "https://dc.lft.to/lastmile_qr_scan", "android": "https://dc.lft.to/lastmile_qr_scan"}, "lon": -77.04440283333334, "type": "electric_scooter", "fusion_lat": 0.0, "lat": 38.90577033333334, "name": "c9d4c4cc81a372ccd02e6fc75d287b04", "fusion_lon": 0.0, "bike_id": "c9d4c4cc81a372ccd02e6fc75d287b04", "is_disabled": 0, "is_reserved": 0}, {"rental_uris": {"ios": "https://dc.lft.to/lastmile_qr_scan", "android": "https://dc.lft.to/lastmile_qr_scan"}, "lon": -77.03195733333334, "type": "electric_scooter", "fusion_lat": 0.0, "lat": 38.90784633333333, "name": "0bc5922b5715cd20db3e0fe75b18be1f", "fusion_lon": 0.0, "bike_id": "0bc5922b5715cd20db3e0fe75b18be1f", "is_disabled": 0, "is_reserved": 0}, {"rental_uris": {"ios": "https://dc.lft.to/lastmile_qr_scan", "android": "https://dc.lft.to/lastmile_qr_scan"}, "lon": -76.98984633333333, "type": "electric_scooter", "fusion_lat": 0.0, "lat": 38.89046166666667, "name": "1195e25a53d674b9c4804d6198b03cfc", "fusion_lon": 0.0, "bike_id": "1195e25a53d674b9c4804d6198b03cfc", "is_disabled": 0, "is_reserved": 0}, {"rental_uris": {"ios": "https://dc.lft.to/lastmile_qr_scan", "android": "https://dc.lft.to/lastmile_qr_scan"}, "lon": -77.03185366666666, "type": "electric_scooter", "fusion_lat": 0.0, "lat": 38.91348816666667, "name": "e145eaa220dc702c8fc267f4f8319679", "fusion_lon": 0.0, "bike_id": "e145eaa220dc702c8fc267f4f8319679", "is_disabled": 0, "is_reserved": 0}, {"rental_uris": {"ios": "https://dc.lft.to/lastmile_qr_scan", "android": "https://dc.lft.to/lastmile_qr_scan"}, "lon": -76.99871283333333, "type": "electric_scooter", "fusion_lat": 0.0, "lat": 38.9003435, "name": "5c459469754611e939d5922422997271", "fusion_lon": 0.0, "bike_id": "5c459469754611e939d5922422997271", "is_disabled": 0, "is_reserved": 0}, {"rental_uris": {"ios": "https://dc.lft.to/lastmile_qr_scan", "android": "https://dc.lft.to/lastmile_qr_scan"}, "lon": -77.051231, "type": "electric_scooter", "fusion_lat": 0.0, "lat": 38.92358866666667, "name": "ab0610f41a9814a191cd417b82ffcef6", "fusion_lon": 0.0, "bike_id": "ab0610f41a9814a191cd417b82ffcef6", "is_disabled": 0, "is_reserved": 0}, {"rental_uris": {"ios": "https://dc.lft.to/lastmile_qr_scan", "android": "https://dc.lft.to/lastmile_qr_scan"}, "lon": -77.02562116666667, "type": "electric_scooter", "fusion_lat": 0.0, "lat": 38.93984483333333, "name": "e2bf39a059003efea62b91b6fd516f8a", "fusion_lon": 0.0, "bike_id": "e2bf39a059003efea62b91b6fd516f8a", "is_disabled": 0, "is_reserved": 0}, {"rental_uris": {"ios": "https://dc.lft.to/lastmile_qr_scan", "android": "https://dc.lft.to/lastmile_qr_scan"}, "lon": -77.02284466666667, "type": "electric_scooter", "fusion_lat": 0.0, "lat": 38.9096165, "name": "74ddfd6c4af098c5959578d2c7b6b01a", "fusion_lon": 0.0, "bike_id": "74ddfd6c4af098c5959578d2c7b6b01a", "is_disabled": 0, "is_reserved": 0}, {"rental_uris": {"ios": "https://dc.lft.to/lastmile_qr_scan", "android": "https://dc.lft.to/lastmile_qr_scan"}, "lon": -76.96490466666667, "type": "electric_bike", "fusion_lat": 0.0, "lat": 38.87549583333333, "name": "0563440a79a5735944347195489c77e0", "fusion_lon": 0.0, "bike_id": "0563440a79a5735944347195489c77e0", "is_disabled": 0, "is_reserved": 0}, {"rental_uris": {"ios": "https://dc.lft.to/lastmile_qr_scan", "android": "https://dc.lft.to/lastmile_qr_scan"}, "lon": -77.00134533333333, "type": "electric_scooter", "fusion_lat": 0.0, "lat": 38.904112, "name": "5894da53ea625df22da273b9088a46a4", "fusion_lon": 0.0, "bike_id": "5894da53ea625df22da273b9088a46a4", "is_disabled": 0, "is_reserved": 0}, {"rental_uris": {"ios": "https://dc.lft.to/lastmile_qr_scan", "android": "https://dc.lft.to/lastmile_qr_scan"}, "lon": -77.005901, "type": "electric_scooter", "fusion_lat": 0.0, "lat": 38.90558133333333, "name": "39db564b2499d16a6756b47eb1adcb7f", "fusion_lon": 0.0, "bike_id": "39db564b2499d16a6756b47eb1adcb7f", "is_disabled": 0, "is_reserved": 0}, {"rental_uris": {"ios": "https://dc.lft.to/lastmile_qr_scan", "android": "https://dc.lft.to/lastmile_qr_scan"}, "lon": -77.01964133333334, "type": "electric_scooter", "fusion_lat": 0.0, "lat": 38.87844316666666, "name": "b9fb99c63178307c3dddd2cc9580c521", "fusion_lon": 0.0, "bike_id": "b9fb99c63178307c3dddd2cc9580c521", "is_disabled": 0, "is_reserved": 0}, {"rental_uris": {"ios": "https://dc.lft.to/lastmile_qr_scan", "android": "https://dc.lft.to/lastmile_qr_scan"}, "lon": -77.04719966666667, "type": "electric_scooter", "fusion_lat": 0.0, "lat": 38.90971166666667, "name": "818f8bf37e75bc6292e9e27ab8bf3554", "fusion_lon": 0.0, "bike_id": "818f8bf37e75bc6292e9e27ab8bf3554", "is_disabled": 0, "is_reserved": 0}, {"rental_uris": {"ios": "https://dc.lft.to/lastmile_qr_scan", "android": "https://dc.lft.to/lastmile_qr_scan"}, "lon": -77.07150066666667, "type": "electric_scooter", "fusion_lat": 0.0, "lat": 38.9074475, "name": "5f3c2b5aacf997f9027928be3feb7ab4", "fusion_lon": 0.0, "bike_id": "5f3c2b5aacf997f9027928be3feb7ab4", "is_disabled": 0, "is_reserved": 0}, {"rental_uris": {"ios": "https://dc.lft.to/lastmile_qr_scan", "android": "https://dc.lft.to/lastmile_qr_scan"}, "lon": -76.95200783333334, "type": "electric_bike", "fusion_lat": 0.0, "lat": 38.936735166666665, "name": "af158fc0914de9b2af397c37daee46b5", "fusion_lon": 0.0, "bike_id": "af158fc0914de9b2af397c37daee46b5", "is_disabled": 0, "is_reserved": 0}, {"rental_uris": {"ios": "https://dc.lft.to/lastmile_qr_scan", "android": "https://dc.lft.to/lastmile_qr_scan"}, "lon": -77.034461, "type": "electric_scooter", "fusion_lat": 0.0, "lat": 38.918406, "name": "463293f5e1322ce0389b248a9d342b82", "fusion_lon": 0.0, "bike_id": "463293f5e1322ce0389b248a9d342b82", "is_disabled": 0, "is_reserved": 0}, {"rental_uris": {"ios": "https://dc.lft.to/lastmile_qr_scan", "android": "https://dc.lft.to/lastmile_qr_scan"}, "lon": -77.02472566666667, "type": "electric_scooter", "fusion_lat": 0.0, "lat": 38.897280333333335, "name": "8baa14d23a872f03e788121a5bf6d5b7", "fusion_lon": 0.0, "bike_id": "8baa14d23a872f03e788121a5bf6d5b7", "is_disabled": 0, "is_reserved": 0}, {"rental_uris": {"ios": "https://dc.lft.to/lastmile_qr_scan", "android": "https://dc.lft.to/lastmile_qr_scan"}, "lon": -76.93185466666667, "type": "electric_scooter", "fusion_lat": 0.0, "lat": 38.898782833333335, "name": "3b156a3bbc5f30a00c2dd05a1046b781", "fusion_lon": 0.0, "bike_id": "3b156a3bbc5f30a00c2dd05a1046b781", "is_disabled": 0, "is_reserved": 0}, {"rental_uris": {"ios": "https://dc.lft.to/lastmile_qr_scan", "android": "https://dc.lft.to/lastmile_qr_scan"}, "lon": -77.041979, "type": "electric_scooter", "fusion_lat": 0.0, "lat": 38.92623616666667, "name": "cdca3e26bee6143c3402b86a43362de3", "fusion_lon": 0.0, "bike_id": "cdca3e26bee6143c3402b86a43362de3", "is_disabled": 0, "is_reserved": 0}, {"rental_uris": {"ios": "https://dc.lft.to/lastmile_qr_scan", "android": "https://dc.lft.to/lastmile_qr_scan"}, "lon": -77.01103633333334, "type": "electric_scooter", "fusion_lat": 0.0, "lat": 38.895003833333334, "name": "63275b0d092a8b6ae4af0c443e73cc27", "fusion_lon": 0.0, "bike_id": "63275b0d092a8b6ae4af0c443e73cc27", "is_disabled": 0, "is_reserved": 0}, {"rental_uris": {"ios": "https://dc.lft.to/lastmile_qr_scan", "android": "https://dc.lft.to/lastmile_qr_scan"}, "lon": -77.0415645, "type": "electric_scooter", "fusion_lat": 0.0, "lat": 38.91913316666667, "name": "6240163c07f763fe64a2d0cac44f16d1", "fusion_lon": 0.0, "bike_id": "6240163c07f763fe64a2d0cac44f16d1", "is_disabled": 0, "is_reserved": 0}, {"rental_uris": {"ios": "https://dc.lft.to/lastmile_qr_scan", "android": "https://dc.lft.to/lastmile_qr_scan"}, "lon": -77.0256065, "type": "electric_scooter", "fusion_lat": 0.0, "lat": 38.925369833333335, "name": "a12391011e3e6ac2b617964ac6323497", "fusion_lon": 0.0, "bike_id": "a12391011e3e6ac2b617964ac6323497", "is_disabled": 0, "is_reserved": 0}, {"rental_uris": {"ios": "https://dc.lft.to/lastmile_qr_scan", "android": "https://dc.lft.to/lastmile_qr_scan"}, "lon": -77.01858166666666, "type": "electric_scooter", "fusion_lat": 0.0, "lat": 38.919686166666665, "name": "386b590dda417a4e6590abd87edaaca9", "fusion_lon": 0.0, "bike_id": "386b590dda417a4e6590abd87edaaca9", "is_disabled": 0, "is_reserved": 0}, {"rental_uris": {"ios": "https://dc.lft.to/lastmile_qr_scan", "android": "https://dc.lft.to/lastmile_qr_scan"}, "lon": -77.0272835, "type": "electric_scooter", "fusion_lat": 0.0, "lat": 38.924782666666665, "name": "ca8e25b64d6d5a3c21b319a679320dd0", "fusion_lon": 0.0, "bike_id": "ca8e25b64d6d5a3c21b319a679320dd0", "is_disabled": 0, "is_reserved": 0}, {"rental_uris": {"ios": "https://dc.lft.to/lastmile_qr_scan", "android": "https://dc.lft.to/lastmile_qr_scan"}, "lon": -76.947312, "type": "electric_scooter", "fusion_lat": 0.0, "lat": 38.896947, "name": "18c4325f599047d455501ee7ddbe65e4", "fusion_lon": 0.0, "bike_id": "18c4325f599047d455501ee7ddbe65e4", "is_disabled": 0, "is_reserved": 0}, {"rental_uris": {"ios": "https://dc.lft.to/lastmile_qr_scan", "android": "https://dc.lft.to/lastmile_qr_scan"}, "lon": -77.02728183333333, "type": "electric_scooter", "fusion_lat": 0.0, "lat": 38.924835333333334, "name": "415f1c33d767f8235a244898d058863a", "fusion_lon": 0.0, "bike_id": "415f1c33d767f8235a244898d058863a", "is_disabled": 0, "is_reserved": 0}, {"rental_uris": {"ios": "https://dc.lft.to/lastmile_qr_scan", "android": "https://dc.lft.to/lastmile_qr_scan"}, "lon": -77.04388016666667, "type": "electric_scooter", "fusion_lat": 0.0, "lat": 38.9178765, "name": "a3fb032dcb7d889810e1903e9ec76eb3", "fusion_lon": 0.0, "bike_id": "a3fb032dcb7d889810e1903e9ec76eb3", "is_disabled": 0, "is_reserved": 0}, {"rental_uris": {"ios": "https://dc.lft.to/lastmile_qr_scan", "android": "https://dc.lft.to/lastmile_qr_scan"}, "lon": -77.04646033333333, "type": "electric_bike", "fusion_lat": 0.0, "lat": 38.852105333333334, "name": "28835e15025f912f11ac8ab7fd598799", "fusion_lon": 0.0, "bike_id": "28835e15025f912f11ac8ab7fd598799", "is_disabled": 0, "is_reserved": 0}, {"rental_uris": {"ios": "https://dc.lft.to/lastmile_qr_scan", "android": "https://dc.lft.to/lastmile_qr_scan"}, "lon": -77.03314016666667, "type": "electric_scooter", "fusion_lat": 0.0, "lat": 38.9005065, "name": "1a85c9f8b8c5dcf6177b4aced7569e82", "fusion_lon": 0.0, "bike_id": "1a85c9f8b8c5dcf6177b4aced7569e82", "is_disabled": 0, "is_reserved": 0}, {"rental_uris": {"ios": "https://dc.lft.to/lastmile_qr_scan", "android": "https://dc.lft.to/lastmile_qr_scan"}, "lon": -77.02350166666666, "type": "electric_scooter", "fusion_lat": 0.0, "lat": 38.922774, "name": "0f8c35f6a6dc1fea95f2728d6b0bcca9", "fusion_lon": 0.0, "bike_id": "0f8c35f6a6dc1fea95f2728d6b0bcca9", "is_disabled": 0, "is_reserved": 0}, {"rental_uris": {"ios": "https://dc.lft.to/lastmile_qr_scan", "android": "https://dc.lft.to/lastmile_qr_scan"}, "lon": -77.0347705, "type": "electric_scooter", "fusion_lat": 0.0, "lat": 38.90257616666667, "name": "fd76098dc750f60654a949a3c3694bda", "fusion_lon": 0.0, "bike_id": "fd76098dc750f60654a949a3c3694bda", "is_disabled": 0, "is_reserved": 0}, {"rental_uris": {"ios": "https://dc.lft.to/lastmile_qr_scan", "android": "https://dc.lft.to/lastmile_qr_scan"}, "lon": -77.0212965, "type": "electric_scooter", "fusion_lat": 0.0, "lat": 38.909726, "name": "e5420f02e483178e439a05ae1b01e8f0", "fusion_lon": 0.0, "bike_id": "e5420f02e483178e439a05ae1b01e8f0", "is_disabled": 0, "is_reserved": 0}, {"rental_uris": {"ios": "https://dc.lft.to/lastmile_qr_scan", "android": "https://dc.lft.to/lastmile_qr_scan"}, "lon": -77.06793533333334, "type": "electric_scooter", "fusion_lat": 0.0, "lat": 38.9519815, "name": "279128b54efc7c05ba15644160745ff7", "fusion_lon": 0.0, "bike_id": "279128b54efc7c05ba15644160745ff7", "is_disabled": 0, "is_reserved": 0}, {"rental_uris": {"ios": "https://dc.lft.to/lastmile_qr_scan", "android": "https://dc.lft.to/lastmile_qr_scan"}, "lon": -77.002094, "type": "electric_scooter", "fusion_lat": 0.0, "lat": 38.902173833333336, "name": "9485c2780d950e59f1779897499b82fa", "fusion_lon": 0.0, "bike_id": "9485c2780d950e59f1779897499b82fa", "is_disabled": 0, "is_reserved": 0}, {"rental_uris": {"ios": "https://dc.lft.to/lastmile_qr_scan", "android": "https://dc.lft.to/lastmile_qr_scan"}, "lon": -77.03267766666667, "type": "electric_scooter", "fusion_lat": 0.0, "lat": 38.932371333333336, "name": "0cef36da5da35bbe095b933d31c921c9", "fusion_lon": 0.0, "bike_id": "0cef36da5da35bbe095b933d31c921c9", "is_disabled": 0, "is_reserved": 0}, {"rental_uris": {"ios": "https://dc.lft.to/lastmile_qr_scan", "android": "https://dc.lft.to/lastmile_qr_scan"}, "lon": -77.02509833333333, "type": "electric_scooter", "fusion_lat": 0.0, "lat": 38.91811116666667, "name": "4dc92e64be3176dcfc4b929ef522ed23", "fusion_lon": 0.0, "bike_id": "4dc92e64be3176dcfc4b929ef522ed23", "is_disabled": 0, "is_reserved": 0}, {"rental_uris": {"ios": "https://dc.lft.to/lastmile_qr_scan", "android": "https://dc.lft.to/lastmile_qr_scan"}, "lon": -77.00738633333333, "type": "electric_scooter", "fusion_lat": 0.0, "lat": 38.955230666666665, "name": "89cf4f275084160d96ebb1b3bdd4db2e", "fusion_lon": 0.0, "bike_id": "89cf4f275084160d96ebb1b3bdd4db2e", "is_disabled": 0, "is_reserved": 0}, {"rental_uris": {"ios": "https://dc.lft.to/lastmile_qr_scan", "android": "https://dc.lft.to/lastmile_qr_scan"}, "lon": -76.9930455, "type": "electric_scooter", "fusion_lat": 0.0, "lat": 38.9255435, "name": "3b08d0b2b889cc1d9cb4f21e9f0fe5a5", "fusion_lon": 0.0, "bike_id": "3b08d0b2b889cc1d9cb4f21e9f0fe5a5", "is_disabled": 0, "is_reserved": 0}, {"rental_uris": {"ios": "https://dc.lft.to/lastmile_qr_scan", "android": "https://dc.lft.to/lastmile_qr_scan"}, "lon": -77.0263645, "type": "electric_scooter", "fusion_lat": 0.0, "lat": 38.898415166666666, "name": "1b0b93294b0640dde29e4e72b415169e", "fusion_lon": 0.0, "bike_id": "1b0b93294b0640dde29e4e72b415169e", "is_disabled": 0, "is_reserved": 0}, {"rental_uris": {"ios": "https://dc.lft.to/lastmile_qr_scan", "android": "https://dc.lft.to/lastmile_qr_scan"}, "lon": -77.00223033333333, "type": "electric_scooter", "fusion_lat": 0.0, "lat": 38.91339766666667, "name": "b1a2a31ca76d08eb6fd84aae0536c0c7", "fusion_lon": 0.0, "bike_id": "b1a2a31ca76d08eb6fd84aae0536c0c7", "is_disabled": 0, "is_reserved": 0}, {"rental_uris": {"ios": "https://dc.lft.to/lastmile_qr_scan", "android": "https://dc.lft.to/lastmile_qr_scan"}, "lon": -77.04029983333334, "type": "electric_bike", "fusion_lat": 0.0, "lat": 38.9237165, "name": "13c4d9765078d483d295da0d525aaa93", "fusion_lon": 0.0, "bike_id": "13c4d9765078d483d295da0d525aaa93", "is_disabled": 0, "is_reserved": 0}, {"rental_uris": {"ios": "https://dc.lft.to/lastmile_qr_scan", "android": "https://dc.lft.to/lastmile_qr_scan"}, "lon": -77.02291283333334, "type": "electric_scooter", "fusion_lat": 0.0, "lat": 38.91968966666666, "name": "220764256f2f27592c8564e1d1b92686", "fusion_lon": 0.0, "bike_id": "220764256f2f27592c8564e1d1b92686", "is_disabled": 0, "is_reserved": 0}, {"rental_uris": {"ios": "https://dc.lft.to/lastmile_qr_scan", "android": "https://dc.lft.to/lastmile_qr_scan"}, "lon": -77.0371005, "type": "electric_scooter", "fusion_lat": 0.0, "lat": 38.92637933333334, "name": "f7d8be9c791c722572dae699c612c10a", "fusion_lon": 0.0, "bike_id": "f7d8be9c791c722572dae699c612c10a", "is_disabled": 0, "is_reserved": 0}, {"rental_uris": {"ios": "https://dc.lft.to/lastmile_qr_scan", "android": "https://dc.lft.to/lastmile_qr_scan"}, "lon": -77.1250085, "type": "electric_bike", "fusion_lat": 0.0, "lat": 39.02422766666667, "name": "de37b7a8463f8c06490ae1f6e1845239", "fusion_lon": 0.0, "bike_id": "de37b7a8463f8c06490ae1f6e1845239", "is_disabled": 0, "is_reserved": 0}, {"rental_uris": {"ios": "https://dc.lft.to/lastmile_qr_scan", "android": "https://dc.lft.to/lastmile_qr_scan"}, "lon": -77.04740016666666, "type": "electric_scooter", "fusion_lat": 0.0, "lat": 38.90226233333333, "name": "4ca6276bbdda7a42f943a71b57bb130b", "fusion_lon": 0.0, "bike_id": "4ca6276bbdda7a42f943a71b57bb130b", "is_disabled": 0, "is_reserved": 0}, {"rental_uris": {"ios": "https://dc.lft.to/lastmile_qr_scan", "android": "https://dc.lft.to/lastmile_qr_scan"}, "lon": -77.0019235, "type": "electric_scooter", "fusion_lat": 0.0, "lat": 38.900306666666665, "name": "2ba836cc275ef88a52d1a89be6cdf29f", "fusion_lon": 0.0, "bike_id": "2ba836cc275ef88a52d1a89be6cdf29f", "is_disabled": 0, "is_reserved": 0}, {"rental_uris": {"ios": "https://dc.lft.to/lastmile_qr_scan", "android": "https://dc.lft.to/lastmile_qr_scan"}, "lon": -76.9870325, "type": "electric_bike", "fusion_lat": 0.0, "lat": 38.9401185, "name": "0efdd96b1fb7e2fce553b506e2c4949f", "fusion_lon": 0.0, "bike_id": "0efdd96b1fb7e2fce553b506e2c4949f", "is_disabled": 0, "is_reserved": 0}, {"rental_uris": {"ios": "https://dc.lft.to/lastmile_qr_scan", "android": "https://dc.lft.to/lastmile_qr_scan"}, "lon": -77.07682416666667, "type": "electric_bike", "fusion_lat": 0.0, "lat": 38.83190883333333, "name": "786b4dfda6d5181a848ed39d41bc762f", "fusion_lon": 0.0, "bike_id": "786b4dfda6d5181a848ed39d41bc762f", "is_disabled": 0, "is_reserved": 0}, {"rental_uris": {"ios": "https://dc.lft.to/lastmile_qr_scan", "android": "https://dc.lft.to/lastmile_qr_scan"}, "lon": -77.0335665, "type": "electric_scooter", "fusion_lat": 0.0, "lat": 38.924428666666664, "name": "891b6b6eb3acdaf9b3e54b2f16eb07a9", "fusion_lon": 0.0, "bike_id": "891b6b6eb3acdaf9b3e54b2f16eb07a9", "is_disabled": 0, "is_reserved": 0}, {"rental_uris": {"ios": "https://dc.lft.to/lastmile_qr_scan", "android": "https://dc.lft.to/lastmile_qr_scan"},