{"data": {"bikes": [{"is_disabled": 0, "is_reserved": 0, "fusion_lat": 0.0, "lat": 38.923375, "fusion_lon": 0.0, "rental_uris": {"ios": "https://dc.lft.to/lastmile_qr_scan", "android": "https://dc.lft.to/lastmile_qr_scan"}, "lon": -77.04137433333334, "bike_id": "5c629f12227ccc29b3f8f169dcab8180", "type": "electric_scooter", "name": "5c629f12227ccc29b3f8f169dcab8180"}, {"is_disabled": 0, "is_reserved": 0, "fusion_lat": 0.0, "lat": 38.8871195, "fusion_lon": 0.0, "rental_uris": {"ios": "https://dc.lft.to/lastmile_qr_scan", "android": "https://dc.lft.to/lastmile_qr_scan"}, "lon": -76.98382483333333, "bike_id": "4440a9acc5ed3e0bb8b4ae5f037be126", "type": "electric_scooter", "name": "4440a9acc5ed3e0bb8b4ae5f037be126"}, {"is_disabled": 0, "is_reserved": 0, "fusion_lat": 0.0, "lat": 38.90179883333333, "fusion_lon": 0.0, "rental_uris": {"ios": "https://dc.lft.to/lastmile_qr_scan", "android": "https://dc.lft.to/lastmile_qr_scan"}, "lon": -76.97669966666666, "bike_id": "5a1113993d045761a7835680472c7a5e", "type": "electric_scooter", "name": "5a1113993d045761a7835680472c7a5e"}, {"is_disabled": 0, "is_reserved": 0, "fusion_lat": 0.0, "lat": 38.89836833333333, "fusion_lon": 0.0, "rental_uris": {"ios": "https://dc.lft.to/lastmile_qr_scan", "android": "https://dc.lft.to/lastmile_qr_scan"}, "lon": -77.02202466666667, "bike_id": "2af22291c15d7405fb4e74ecbd1eaf85", "type": "electric_scooter", "name": "2af22291c15d7405fb4e74ecbd1eaf85"}, {"is_disabled": 0, "is_reserved": 0, "fusion_lat": 0.0, "lat": 38.9328675, "fusion_lon": 0.0, "rental_uris": {"ios": "https://dc.lft.to/lastmile_qr_scan", "android": "https://dc.lft.to/lastmile_qr_scan"}, "lon": -77.024504, "bike_id": "7899cec6ee4d1e3dfd3831015823e25c", "type": "electric_scooter", "name": "7899cec6ee4d1e3dfd3831015823e25c"}, {"is_disabled": 0, "is_reserved": 0, "fusion_lat": 0.0, "lat": 38.9024025, "fusion_lon": 0.0, "rental_uris": {"ios": "https://dc.lft.to/lastmile_qr_scan", "android": "https://dc.lft.to/lastmile_qr_scan"}, "lon": -77.0348735, "bike_id": "3a67c7555e007a29b6c4f11a4deeb0ed", "type": "electric_scooter", "name": "3a67c7555e007a29b6c4f11a4deeb0ed"}, {"is_disabled": 0, "is_reserved": 0, "fusion_lat": 0.0, "lat": 38.84621333333333, "fusion_lon": 0.0, "rental_uris": {"ios": "https://dc.lft.to/lastmile_qr_scan", "android": "https://dc.lft.to/lastmile_qr_scan"}, "lon": -76.97841683333333, "bike_id": "2f3c6cd4d90a0e3be6a4bb9e4b745c68", "type": "electric_bike", "name": "2f3c6cd4d90a0e3be6a4bb9e4b745c68"}, {"is_disabled": 0, "is_reserved": 0, "fusion_lat": 0.0, "lat": 38.903817, "fusion_lon": 0.0, "rental_uris": {"ios": "https://dc.lft.to/lastmile_qr_scan", "android": "https://dc.lft.to/lastmile_qr_scan"}, "lon": -76.98082133333334, "bike_id": "c8204346fa93869b1d6fe043261ddd7d", "type": "electric_scooter", "name": "c8204346fa93869b1d6fe043261ddd7d"}, {"is_disabled": 0, "is_reserved": 0, "fusion_lat": 0.0, "lat": 38.90127733333333, "fusion_lon": 0.0, "rental_uris": {"ios": "https://dc.lft.to/lastmile_qr_scan", "android": "https://dc.lft.to/lastmile_qr_scan"}, "lon": -77.03512016666667, "bike_id": "8d56beed90ffd6bd4b932ced36787510", "type": "electric_scooter", "name": "8d56beed90ffd6bd4b932ced36787510"}, {"is_disabled": 0, "is_reserved": 0, "fusion_lat": 0.0, "lat": 38.90466466666667, "fusion_lon": 0.0, "rental_uris": {"ios": "https://dc.lft.to/lastmile_qr_scan", "android": "https://dc.lft.to/lastmile_qr_scan"}, "lon": -77.06266783333334, "bike_id": "07c505b40bdec8be0c7005332b48bd7a", "type": "electric_scooter", "name": "07c505b40bdec8be0c7005332b48bd7a"}, {"is_disabled": 0, "is_reserved": 0, "fusion_lat": 0.0, "lat": 38.91361466666667, "fusion_lon": 0.0, "rental_uris": {"ios": "https://dc.lft.to/lastmile_qr_scan", "android": "https://dc.lft.to/lastmile_qr_scan"}, "lon": -77.01567566666667, "bike_id": "222695997a0056a8e026e9ce71cd4d89", "type": "electric_scooter", "name": "222695997a0056a8e026e9ce71cd4d89"}, {"is_disabled": 0, "is_reserved": 0, "fusion_lat": 0.0, "lat": 38.88707933333333, "fusion_lon": 0.0, "rental_uris": {"ios": "https://dc.lft.to/lastmile_qr_scan", "android": "https://dc.lft.to/lastmile_qr_scan"}, "lon": -76.9833985, "bike_id": "01718ddd08a7fe8bebf792636e53936a", "type": "electric_scooter", "name": "01718ddd08a7fe8bebf792636e53936a"}, {"is_disabled": 0, "is_reserved": 0, "fusion_lat": 0.0, "lat": 38.8464295, "fusion_lon": 0.0, "rental_uris": {"ios": "https://dc.lft.to/lastmile_qr_scan", "android": "https://dc.lft.to/lastmile_qr_scan"}, "lon": -77.00371066666666, "bike_id": "b9f2274572784822eed57f170dc973ff", "type": "electric_scooter", "name": "b9f2274572784822eed57f170dc973ff"}, {"is_disabled": 0, "is_reserved": 0, "fusion_lat": 0.0, "lat": 38.88024133333333, "fusion_lon": 0.0, "rental_uris": {"ios": "https://dc.lft.to/lastmile_qr_scan", "android": "https://dc.lft.to/lastmile_qr_scan"}, "lon": -76.94319033333333, "bike_id": "aeb73b50fadd1e3ab98c04547c60b06d", "type": "electric_scooter", "name": "aeb73b50fadd1e3ab98c04547c60b06d"}, {"is_disabled": 0, "is_reserved": 0, "fusion_lat": 0.0, "lat": 38.89539666666667, "fusion_lon": 0.0, "rental_uris": {"ios": "https://dc.lft.to/lastmile_qr_scan", "android": "https://dc.lft.to/lastmile_qr_scan"}, "lon": -77.039725, "bike_id": "1b2eb1646d5e142923e74566c0ffe98d", "type": "electric_scooter", "name": "1b2eb1646d5e142923e74566c0ffe98d"}, {"is_disabled": 0, "is_reserved": 0, "fusion_lat": 0.0, "lat": 38.9192685, "fusion_lon": 0.0, "rental_uris": {"ios": "https://dc.lft.to/lastmile_qr_scan", "android": "https://dc.lft.to/lastmile_qr_scan"}, "lon": -77.009747, "bike_id": "3a0e6ac28e4a97494ac8dc11be7c3b74", "type": "electric_scooter", "name": "3a0e6ac28e4a97494ac8dc11be7c3b74"}, {"is_disabled": 0, "is_reserved": 0, "fusion_lat": 0.0, "lat": 38.900839166666664, "fusion_lon": 0.0, "rental_uris": {"ios": "https://dc.lft.to/lastmile_qr_scan", "android": "https://dc.lft.to/lastmile_qr_scan"}, "lon": -77.01755766666666, "bike_id": "c740af5880ca65f7c6b04984dfd2ceec", "type": "electric_scooter", "name": "c740af5880ca65f7c6b04984dfd2ceec"}, {"is_disabled": 0, "is_reserved": 0, "fusion_lat": 0.0, "lat": 38.927527166666664, "fusion_lon": 0.0, "rental_uris": {"ios": "https://dc.lft.to/lastmile_qr_scan", "android": "https://dc.lft.to/lastmile_qr_scan"}, "lon": -77.0327055, "bike_id": "8d1e087c3cd6b54a13f4d685a69c29e5", "type": "electric_scooter", "name": "8d1e087c3cd6b54a13f4d685a69c29e5"}, {"is_disabled": 0, "is_reserved": 0, "fusion_lat": 0.0, "lat": 38.90781783333333, "fusion_lon": 0.0, "rental_uris": {"ios": "https://dc.lft.to/lastmile_qr_scan", "android": "https://dc.lft.to/lastmile_qr_scan"}, "lon": -77.06839433333333, "bike_id": "cdb5d2ef98c2731c93c9d2f271d31fbe", "type": "electric_scooter", "name": "cdb5d2ef98c2731c93c9d2f271d31fbe"}, {"is_disabled": 0, "is_reserved": 0, "fusion_lat": 0.0, "lat": 38.913486166666665, "fusion_lon": 0.0, "rental_uris": {"ios": "https://dc.lft.to/lastmile_qr_scan", "android": "https://dc.lft.to/lastmile_qr_scan"}, "lon": -77.04419366666667, "bike_id": "6f7a405df972bc91e360b62f92696f48", "type": "electric_scooter", "name": "6f7a405df972bc91e360b62f92696f48"}, {"is_disabled": 0, "is_reserved": 0, "fusion_lat": 0.0, "lat": 38.92380216666667, "fusion_lon": 0.0, "rental_uris": {"ios": "https://dc.lft.to/lastmile_qr_scan", "android": "https://dc.lft.to/lastmile_qr_scan"}, "lon": -77.02029416666667, "bike_id": "8490b75e6a01a35e6910534721654753", "type": "electric_scooter", "name": "8490b75e6a01a35e6910534721654753"}, {"is_disabled": 0, "is_reserved": 0, "fusion_lat": 0.0, "lat": 38.9431245, "fusion_lon": 0.0, "rental_uris": {"ios": "https://dc.lft.to/lastmile_qr_scan", "android": "https://dc.lft.to/lastmile_qr_scan"}, "lon": -77.01729416666667, "bike_id": "33c9bb5269d0b319144912c12634e6dc", "type": "electric_scooter", "name": "33c9bb5269d0b319144912c12634e6dc"}, {"is_disabled": 0, "is_reserved": 0, "fusion_lat": 0.0, "lat": 38.915571166666666, "fusion_lon": 0.0, "rental_uris": {"ios": "https://dc.lft.to/lastmile_qr_scan", "android": "https://dc.lft.to/lastmile_qr_scan"}, "lon": -77.031387, "bike_id": "b6ca6c3ffa056c22a6d8799acf793a5d", "type": "electric_scooter", "name": "b6ca6c3ffa056c22a6d8799acf793a5d"}, {"is_disabled": 0, "is_reserved": 0, "fusion_lat": 0.0, "lat": 38.90541833333333, "fusion_lon": 0.0, "rental_uris": {"ios": "https://dc.lft.to/lastmile_qr_scan", "android": "https://dc.lft.to/lastmile_qr_scan"}, "lon": -77.05695483333334, "bike_id": "da5bf12256cc17db6c2c1d7cf6c33cd3", "type": "electric_scooter", "name": "da5bf12256cc17db6c2c1d7cf6c33cd3"}, {"is_disabled": 0, "is_reserved": 0, "fusion_lat": 0.0, "lat": 38.922115166666664, "fusion_lon": 0.0, "rental_uris": {"ios": "https://dc.lft.to/lastmile_qr_scan", "android": "https://dc.lft.to/lastmile_qr_scan"}, "lon": -77.042484, "bike_id": "835567d44d405c249d99ea350a7d47c4", "type": "electric_scooter", "name": "835567d44d405c249d99ea350a7d47c4"}, {"is_disabled": 0, "is_reserved": 0, "fusion_lat": 0.0, "lat": 38.9066255, "fusion_lon": 0.0, "rental_uris": {"ios": "https://dc.lft.to/lastmile_qr_scan", "android": "https://dc.lft.to/lastmile_qr_scan"}, "lon": -76.98602666666666, "bike_id": "63838845d8455be9801c4f9f044a4891", "type": "electric_scooter", "name": "63838845d8455be9801c4f9f044a4891"}, {"is_disabled": 0, "is_reserved": 0, "fusion_lat": 0.0, "lat": 38.934644, "fusion_lon": 0.0, "rental_uris": {"ios": "https://dc.lft.to/lastmile_qr_scan", "android": "https://dc.lft.to/lastmile_qr_scan"}, "lon": -77.02760233333333, "bike_id": "6ea9fdc104cd12f8e2e1e5a4b2b96cc7", "type": "electric_scooter", "name": "6ea9fdc104cd12f8e2e1e5a4b2b96cc7"}, {"is_disabled": 0, "is_reserved": 0, "fusion_lat": 0.0, "lat": 38.982830666666665, "fusion_lon": 0.0, "rental_uris": {"ios": "https://dc.lft.to/lastmile_qr_scan", "android": "https://dc.lft.to/lastmile_qr_scan"}, "lon": -76.97639666666667, "bike_id": "517be16f2bac318091b2073e7e0c66a7", "type": "electric_bike", "name": "517be16f2bac318091b2073e7e0c66a7"}, {"is_disabled": 0, "is_reserved": 0, "fusion_lat": 0.0, "lat": 38.90135983333333, "fusion_lon": 0.0, "rental_uris": {"ios": "https://dc.lft.to/lastmile_qr_scan", "android": "https://dc.lft.to/lastmile_qr_scan"}, "lon": -77.04159733333333, "bike_id": "43e6ecabea3d268dae18645def50ebc1", "type": "electric_scooter", "name": "43e6ecabea3d268dae18645def50ebc1"}, {"is_disabled": 0, "is_reserved": 0, "fusion_lat": 0.0, "lat": 38.9235125, "fusion_lon": 0.0, "rental_uris": {"ios": "https://dc.lft.to/lastmile_qr_scan", "android": "https://dc.lft.to/lastmile_qr_scan"}, "lon": -77.073122, "bike_id": "493f32980a7a6c3bd765dbb0aa44dd3f", "type": "electric_scooter", "name": "493f32980a7a6c3bd765dbb0aa44dd3f"}, {"is_disabled": 0, "is_reserved": 0, "fusion_lat": 0.0, "lat": 38.90486116666667, "fusion_lon": 0.0, "rental_uris": {"ios": "https://dc.lft.to/lastmile_qr_scan", "android": "https://dc.lft.to/lastmile_qr_scan"}, "lon": -76.99803383333334, "bike_id": "570db9d5222dec29d6a65c70c89e9c94", "type": "electric_bike", "name": "570db9d5222dec29d6a65c70c89e9c94"}, {"is_disabled": 0, "is_reserved": 0, "fusion_lat": 0.0, "lat": 38.936067666666666, "fusion_lon": 0.0, "rental_uris": {"ios": "https://dc.lft.to/lastmile_qr_scan", "android": "https://dc.lft.to/lastmile_qr_scan"}, "lon": -77.055868, "bike_id": "16e231c877936cfcb9da3cf77ce7d804", "type": "electric_scooter", "name": "16e231c877936cfcb9da3cf77ce7d804"}, {"is_disabled": 0, "is_reserved": 0, "fusion_lat": 0.0, "lat": 38.936910166666664, "fusion_lon": 0.0, "rental_uris": {"ios": "https://dc.lft.to/lastmile_qr_scan", "android": "https://dc.lft.to/lastmile_qr_scan"}, "lon": -77.0563185, "bike_id": "a7afa50c3465590e503ebff9c47d4a47", "type": "electric_scooter", "name": "a7afa50c3465590e503ebff9c47d4a47"}, {"is_disabled": 0, "is_reserved": 0, "fusion_lat": 0.0, "lat": 38.926573166666664, "fusion_lon": 0.0, "rental_uris": {"ios": "https://dc.lft.to/lastmile_qr_scan", "android": "https://dc.lft.to/lastmile_qr_scan"}, "lon": -77.02423083333333, "bike_id": "512497dfa919d80143ca654f0d5ea27e", "type": "electric_scooter", "name": "512497dfa919d80143ca654f0d5ea27e"}, {"is_disabled": 0, "is_reserved": 0, "fusion_lat": 0.0, "lat": 38.926533666666664, "fusion_lon": 0.0, "rental_uris": {"ios": "https://dc.lft.to/lastmile_qr_scan", "android": "https://dc.lft.to/lastmile_qr_scan"}, "lon": -77.02439683333333, "bike_id": "7970c78554547ce2b0bb84fe8e5509b9", "type": "electric_scooter", "name": "7970c78554547ce2b0bb84fe8e5509b9"}, {"is_disabled": 0, "is_reserved": 0, "fusion_lat": 0.0, "lat": 38.896832, "fusion_lon": 0.0, "rental_uris": {"ios": "https://dc.lft.to/lastmile_qr_scan", "android": "https://dc.lft.to/lastmile_qr_scan"}, "lon": -77.05106166666667, "bike_id": "c586bf31653b565eb1620f84df4d764d", "type": "electric_scooter", "name": "c586bf31653b565eb1620f84df4d764d"}, {"is_disabled": 0, "is_reserved": 0, "fusion_lat": 0.0, "lat": 38.88358233333334, "fusion_lon": 0.0, "rental_uris": {"ios": "https://dc.lft.to/lastmile_qr_scan", "android": "https://dc.lft.to/lastmile_qr_scan"}, "lon": -76.9576795, "bike_id": "60a8589ee48374e3a644295dfc005a3b", "type": "electric_scooter", "name": "60a8589ee48374e3a644295dfc005a3b"}, {"is_disabled": 0, "is_reserved": 0, "fusion_lat": 0.0, "lat": 38.9426385, "fusion_lon": 0.0, "rental_uris": {"ios": "https://dc.lft.to/lastmile_qr_scan", "android": "https://dc.lft.to/lastmile_qr_scan"}, "lon": -76.984652, "bike_id": "24846950f9bd4e46e78d5480c4e923ca", "type": "electric_scooter", "name": "24846950f9bd4e46e78d5480c4e923ca"}, {"is_disabled": 0, "is_reserved": 0, "fusion_lat": 0.0, "lat": 38.94716866666667, "fusion_lon": 0.0, "rental_uris": {"ios": "https://dc.lft.to/lastmile_qr_scan", "android": "https://dc.lft.to/lastmile_qr_scan"}, "lon": -77.06807233333333, "bike_id": "60ba58ce8b37e5ee5113cf18d73f452c", "type": "electric_scooter", "name": "60ba58ce8b37e5ee5113cf18d73f452c"}, {"is_disabled": 0, "is_reserved": 0, "fusion_lat": 0.0, "lat": 38.906928666666666, "fusion_lon": 0.0, "rental_uris": {"ios": "https://dc.lft.to/lastmile_qr_scan", "android": "https://dc.lft.to/lastmile_qr_scan"}, "lon": -76.95257316666667, "bike_id": "af7750929a2e197b185588611a940c9d", "type": "electric_bike", "name": "af7750929a2e197b185588611a940c9d"}, {"is_disabled": 0, "is_reserved": 0, "fusion_lat": 0.0, "lat": 38.89734633333333, "fusion_lon": 0.0, "rental_uris": {"ios": "https://dc.lft.to/lastmile_qr_scan", "android": "https://dc.lft.to/lastmile_qr_scan"}, "lon": -77.033026, "bike_id": "8138d2eecde33fca1b00d066d7c6c216", "type": "electric_scooter", "name": "8138d2eecde33fca1b00d066d7c6c216"}, {"is_disabled": 0, "is_reserved": 0, "fusion_lat": 0.0, "lat": 38.9194695, "fusion_lon": 0.0, "rental_uris": {"ios": "https://dc.lft.to/lastmile_qr_scan", "android": "https://dc.lft.to/lastmile_qr_scan"}, "lon": -77.01390666666667, "bike_id": "875bffe5cf9998b714078a3577c49bd7", "type": "electric_scooter", "name": "875bffe5cf9998b714078a3577c49bd7"}, {"is_disabled": 0, "is_reserved": 0, "fusion_lat": 0.0, "lat": 38.957291, "fusion_lon": 0.0, "rental_uris": {"ios": "https://dc.lft.to/lastmile_qr_scan", "android": "https://dc.lft.to/lastmile_qr_scan"}, "lon": -77.025772, "bike_id": "5cda3a48bd35c0b58d33d85ff99bfab4", "type": "electric_scooter", "name": "5cda3a48bd35c0b58d33d85ff99bfab4"}, {"is_disabled": 0, "is_reserved": 0, "fusion_lat": 0.0, "lat": 38.870975333333334, "fusion_lon": 0.0, "rental_uris": {"ios": "https://dc.lft.to/lastmile_qr_scan", "android": "https://dc.lft.to/lastmile_qr_scan"}, "lon": -77.01205016666667, "bike_id": "857f87c23091454727a3c21b06dbd989", "type": "electric_scooter", "name": "857f87c23091454727a3c21b06dbd989"}, {"is_disabled": 0, "is_reserved": 0, "fusion_lat": 0.0, "lat": 38.92120666666667, "fusion_lon": 0.0, "rental_uris": {"ios": "https://dc.lft.to/lastmile_qr_scan", "android": "https://dc.lft.to/lastmile_qr_scan"}, "lon": -77.01812683333333, "bike_id": "fa27a7e1eaf1479f747c7885ce3f3ac3", "type": "electric_scooter", "name": "fa27a7e1eaf1479f747c7885ce3f3ac3"}, {"is_disabled": 0, "is_reserved": 0, "fusion_lat": 0.0, "lat": 38.879322, "fusion_lon": 0.0, "rental_uris": {"ios": "https://dc.lft.to/lastmile_qr_scan", "android": "https://dc.lft.to/lastmile_qr_scan"}, "lon": -77.02151666666667, "bike_id": "a8a8ba526099bd193f956cfd01d0cdf1", "type": "electric_scooter", "name": "a8a8ba526099bd193f956cfd01d0cdf1"}, {"is_disabled": 0, "is_reserved": 0, "fusion_lat": 0.0, "lat": 38.9053045, "fusion_lon": 0.0, "rental_uris": {"ios": "https://dc.lft.to/lastmile_qr_scan", "android": "https://dc.lft.to/lastmile_qr_scan"}, "lon": -77.058789, "bike_id": "d22246c47d9971a28992d9ce6b8f05a0", "type": "electric_scooter", "name": "d22246c47d9971a28992d9ce6b8f05a0"}, {"is_disabled": 0, "is_reserved": 0, "fusion_lat": 0.0, "lat": 38.9169755, "fusion_lon": 0.0, "rental_uris": {"ios": "https://dc.lft.to/lastmile_qr_scan", "android": "https://dc.lft.to/lastmile_qr_scan"}, "lon": -77.0347145, "bike_id": "59db4b234d73e46537dd978e4a37e98b", "type": "electric_scooter", "name": "59db4b234d73e46537dd978e4a37e98b"}, {"is_disabled": 0, "is_reserved": 0, "fusion_lat": 0.0, "lat": 38.886192, "fusion_lon": 0.0, "rental_uris": {"ios": "https://dc.lft.to/lastmile_qr_scan", "android": "https://dc.lft.to/lastmile_qr_scan"}, "lon": -76.92636333333333, "bike_id": "7d3ff66d01b0aa5185fe35da56422e94", "type": "electric_scooter", "name": "7d3ff66d01b0aa5185fe35da56422e94"}, {"is_disabled": 0, "is_reserved": 0, "fusion_lat": 0.0, "lat": 38.88623583333333, "fusion_lon": 0.0, "rental_uris": {"ios": "https://dc.lft.to/lastmile_qr_scan", "android": "https://dc.lft.to/lastmile_qr_scan"}, "lon": -77.022139, "bike_id": "776e9497fbc507d54a69099fb11c2764", "type": "electric_scooter", "name": "776e9497fbc507d54a69099fb11c2764"}, {"is_disabled": 0, "is_reserved": 0, "fusion_lat": 0.0, "lat": 38.9054765, "fusion_lon": 0.0, "rental_uris": {"ios": "https://dc.lft.to/lastmile_qr_scan", "android": "https://dc.lft.to/lastmile_qr_scan"}, "lon": -77.05712883333334, "bike_id": "e51464086539f43c8e5cefb147c15d2c", "type": "electric_bike", "name": "e51464086539f43c8e5cefb147c15d2c"}, {"is_disabled": 0, "is_reserved": 0, "fusion_lat": 0.0, "lat": 38.90798083333333, "fusion_lon": 0.0, "rental_uris": {"ios": "https://dc.lft.to/lastmile_qr_scan", "android": "https://dc.lft.to/lastmile_qr_scan"}, "lon": -77.0019505, "bike_id": "8dafb1e204fc5e5059aa2edad103529c", "type": "electric_scooter", "name": "8dafb1e204fc5e5059aa2edad103529c"}, {"is_disabled": 0, "is_reserved": 0, "fusion_lat": 0.0, "lat": 38.921976, "fusion_lon": 0.0, "rental_uris": {"ios": "https://dc.lft.to/lastmile_qr_scan", "android": "https://dc.lft.to/lastmile_qr_scan"}, "lon": -77.0204315, "bike_id": "918f5d2ff3835afdfac8ce4c2077159d", "type": "electric_scooter", "name": "918f5d2ff3835afdfac8ce4c2077159d"}, {"is_disabled": 0, "is_reserved": 0, "fusion_lat": 0.0, "lat": 38.956522666666665, "fusion_lon": 0.0, "rental_uris": {"ios": "https://dc.lft.to/lastmile_qr_scan", "android": "https://dc.lft.to/lastmile_qr_scan"}, "lon": -77.03295283333334, "bike_id": "0c8cb4df54dd62ab9dc397556883037b", "type": "electric_scooter", "name": "0c8cb4df54dd62ab9dc397556883037b"}, {"is_disabled": 0, "is_reserved": 0, "fusion_lat": 0.0, "lat": 38.908546333333334, "fusion_lon": 0.0, "rental_uris": {"ios": "https://dc.lft.to/lastmile_qr_scan", "android": "https://dc.lft.to/lastmile_qr_scan"}, "lon": -77.02360783333333, "bike_id": "aebea4a0bb2b4f0ed414a6842a8e90c1", "type": "electric_scooter", "name": "aebea4a0bb2b4f0ed414a6842a8e90c1"}, {"is_disabled": 0, "is_reserved": 0, "fusion_lat": 0.0, "lat": 38.927599666666666, "fusion_lon": 0.0, "rental_uris": {"ios": "https://dc.lft.to/lastmile_qr_scan", "android": "https://dc.lft.to/lastmile_qr_scan"}, "lon": -77.05265466666667, "bike_id": "a6c7857466cc5e84c1557f980d426b12", "type": "electric_scooter", "name": "a6c7857466cc5e84c1557f980d426b12"}, {"is_disabled": 0, "is_reserved": 0, "fusion_lat": 0.0, "lat": 38.90507916666667, "fusion_lon": 0.0, "rental_uris": {"ios": "https://dc.lft.to/lastmile_qr_scan", "android": "https://dc.lft.to/lastmile_qr_scan"}, "lon": -76.95203716666667, "bike_id": "23d9869e780ffce0e201363c2905e267", "type": "electric_scooter", "name": "23d9869e780ffce0e201363c2905e267"}, {"is_disabled": 0, "is_reserved": 0, "fusion_lat": 0.0, "lat": 38.914198166666665, "fusion_lon": 0.0, "rental_uris": {"ios": "https://dc.lft.to/lastmile_qr_scan", "android": "https://dc.lft.to/lastmile_qr_scan"}, "lon": -77.052091, "bike_id": "ba4a9281eb30a26dfdd550b3148a69c6", "type": "electric_scooter", "name": "ba4a9281eb30a26dfdd550b3148a69c6"}, {"is_disabled": 0, "is_reserved": 0, "fusion_lat": 0.0, "lat": 38.89839416666667, "fusion_lon": 0.0, "rental_uris": {"ios": "https://dc.lft.to/lastmile_qr_scan", "android": "https://dc.lft.to/lastmile_qr_scan"}, "lon": -76.99625933333333, "bike_id": "53029ad5de47e8ab097fc627d1b95d39", "type": "electric_scooter", "name": "53029ad5de47e8ab097fc627d1b95d39"}, {"is_disabled": 0, "is_reserved": 0, "fusion_lat": 0.0, "lat": 38.91640683333333, "fusion_lon": 0.0, "rental_uris": {"ios": "https://dc.lft.to/lastmile_qr_scan", "android": "https://dc.lft.to/lastmile_qr_scan"}, "lon": -77.02312683333334, "bike_id": "d2b77f83481e6f6ee652059e25a5c69b", "type": "electric_scooter", "name": "d2b77f83481e6f6ee652059e25a5c69b"}, {"is_disabled": 0, "is_reserved": 0, "fusion_lat": 0.0, "lat": 38.88066233333333, "fusion_lon": 0.0, "rental_uris": {"ios": "https://dc.lft.to/lastmile_qr_scan", "android": "https://dc.lft.to/lastmile_qr_scan"}, "lon": -77.02563366666666, "bike_id": "03a4b2998c6f61d09360639bbba8dad7", "type": "electric_scooter", "name": "03a4b2998c6f61d09360639bbba8dad7"}, {"is_disabled": 0, "is_reserved": 0, "fusion_lat": 0.0, "lat": 38.915351333333334, "fusion_lon": 0.0, "rental_uris": {"ios": "https://dc.lft.to/lastmile_qr_scan", "android": "https://dc.lft.to/lastmile_qr_scan"}, "lon": -77.02639083333334, "bike_id": "d0145f2b1c9031ba006d206e8301bec3", "type": "electric_scooter", "name": "d0145f2b1c9031ba006d206e8301bec3"}, {"is_disabled": 0, "is_reserved": 0, "fusion_lat": 0.0, "lat": 39.0264595, "fusion_lon": 0.0, "rental_uris": {"ios": "https://dc.lft.to/lastmile_qr_scan", "android": "https://dc.lft.to/lastmile_qr_scan"}, "lon": -77.03686066666667, "bike_id": "9719a8603c7281295776f5f50b4a314c", "type": "electric_bike", "name": "9719a8603c7281295776f5f50b4a314c"}, {"is_disabled": 0, "is_reserved": 0, "fusion_lat": 0.0, "lat": 38.95585366666667, "fusion_lon": 0.0, "rental_uris": {"ios": "https://dc.lft.to/lastmile_qr_scan", "android": "https://dc.lft.to/lastmile_qr_scan"}, "lon": -77.01790233333334, "bike_id": "d78c5f2869aac9db51eae88fcd440dc2", "type": "electric_scooter", "name": "d78c5f2869aac9db51eae88fcd440dc2"}, {"is_disabled": 0, "is_reserved": 0, "fusion_lat": 0.0, "lat": 38.903453999999996, "fusion_lon": 0.0, "rental_uris": {"ios": "https://dc.lft.to/lastmile_qr_scan", "android": "https://dc.lft.to/lastmile_qr_scan"}, "lon": -77.01623583333334, "bike_id": "643f3308855b8fc49eb73abcdb9a8149", "type": "electric_scooter", "name": "643f3308855b8fc49eb73abcdb9a8149"}, {"is_disabled": 0, "is_reserved": 0, "fusion_lat": 0.0, "lat": 38.896669, "fusion_lon": 0.0, "rental_uris": {"ios": "https://dc.lft.to/lastmile_qr_scan", "android": "https://dc.lft.to/lastmile_qr_scan"}, "lon": -76.94910933333334, "bike_id": "941a9b0e4eee0f0835b0535283e7a33c", "type": "electric_scooter", "name": "941a9b0e4eee0f0835b0535283e7a33c"}, {"is_disabled": 0, "is_reserved": 0, "fusion_lat": 0.0, "lat": 38.904402833333336, "fusion_lon": 0.0, "rental_uris": {"ios": "https://dc.lft.to/lastmile_qr_scan", "android": "https://dc.lft.to/lastmile_qr_scan"}, "lon": -77.0435795, "bike_id": "ceb5d3f08bb4d21a9132b58725e43c84", "type": "electric_scooter", "name": "ceb5d3f08bb4d21a9132b58725e43c84"}, {"is_disabled": 0, "is_reserved": 0, "fusion_lat": 0.0, "lat": 38.900483, "fusion_lon": 0.0, "rental_uris": {"ios": "https://dc.lft.to/lastmile_qr_scan", "android": "https://dc.lft.to/lastmile_qr_scan"}, "lon": -77.03142366666667, "bike_id": "e11eaadb93dffdc24eaae5bbe13dd76c", "type": "electric_scooter", "name": "e11eaadb93dffdc24eaae5bbe13dd76c"}, {"is_disabled": 0, "is_reserved": 0, "fusion_lat": 0.0, "lat": 38.876674333333334, "fusion_lon": 0.0, "rental_uris": {"ios": "https://dc.lft.to/lastmile_qr_scan", "android": "https://dc.lft.to/lastmile_qr_scan"}, "lon": -77.0041055, "bike_id": "b98a40df2fa5eb3ae319115d17e68fdf", "type": "electric_scooter", "name": "b98a40df2fa5eb3ae319115d17e68fdf"}, {"is_disabled": 0, "is_reserved": 0, "fusion_lat": 0.0, "lat": 38.93400916666667, "fusion_lon": 0.0, "rental_uris": {"ios": "https://dc.lft.to/lastmile_qr_scan", "android": "https://dc.lft.to/lastmile_qr_scan"}, "lon": -77.03519066666667, "bike_id": "e98eac19a6282e465fd4cf6b83208c24", "type": "electric_scooter", "name": "e98eac19a6282e465fd4cf6b83208c24"}, {"is_disabled": 0, "is_reserved": 0, "fusion_lat": 0.0, "lat": 38.90550666666667, "fusion_lon": 0.0, "rental_uris": {"ios": "https://dc.lft.to/lastmile_qr_scan", "android": "https://dc.lft.to/lastmile_qr_scan"}, "lon": -77.02597333333334, "bike_id": "2f15879b14f5b19f2686f3e4aeeb74b0", "type": "electric_scooter", "name": "2f15879b14f5b19f2686f3e4aeeb74b0"}, {"is_disabled": 0, "is_reserved": 0, "fusion_lat": 0.0, "lat": 38.910361, "fusion_lon": 0.0, "rental_uris": {"ios": "https://dc.lft.to/lastmile_qr_scan", "android": "https://dc.lft.to/lastmile_qr_scan"}, "lon": -77.01304716666667, "bike_id": "4083b3ee6a3077743c547aafae6987d9", "type": "electric_scooter", "name": "4083b3ee6a3077743c547aafae6987d9"}, {"is_disabled": 0, "is_reserved": 0, "fusion_lat": 0.0, "lat": 38.883598666666664, "fusion_lon": 0.0, "rental_uris": {"ios": "https://dc.lft.to/lastmile_qr_scan", "android": "https://dc.lft.to/lastmile_qr_scan"}, "lon": -76.9950415, "bike_id": "98376f392794a5002f8cb9b91027236b", "type": "electric_scooter", "name": "98376f392794a5002f8cb9b91027236b"}, {"is_disabled": 0, "is_reserved": 0, "fusion_lat": 0.0, "lat": 38.90378166666667, "fusion_lon": 0.0, "rental_uris": {"ios": "https://dc.lft.to/lastmile_qr_scan", "android": "https://dc.lft.to/lastmile_qr_scan"}, "lon": -77.05065633333334, "bike_id": "797793b5f458b6f6eb018f80d8b68307", "type": "electric_scooter", "name": "797793b5f458b6f6eb018f80d8b68307"}, {"is_disabled": 0, "is_reserved": 0, "fusion_lat": 0.0, "lat": 38.904439833333335, "fusion_lon": 0.0, "rental_uris": {"ios": "https://dc.lft.to/lastmile_qr_scan", "android": "https://dc.lft.to/lastmile_qr_scan"}, "lon": -77.03020216666667, "bike_id": "63bc8e49c4cc20a57a4e09211114edbf", "type": "electric_scooter", "name": "63bc8e49c4cc20a57a4e09211114edbf"}, {"is_disabled": 0, "is_reserved": 0, "fusion_lat": 0.0, "lat": 38.900311, "fusion_lon": 0.0, "rental_uris": {"ios": "https://dc.lft.to/lastmile_qr_scan", "android": "https://dc.lft.to/lastmile_qr_scan"}, "lon": -77.00363066666667, "bike_id": "05b67e73c58a74fcc4135b0d2f670456", "type": "electric_scooter", "name": "05b67e73c58a74fcc4135b0d2f670456"}, {"is_disabled": 0, "is_reserved": 0, "fusion_lat": 0.0, "lat": 38.881156, "fusion_lon": 0.0, "rental_uris": {"ios": "https://dc.lft.to/lastmile_qr_scan", "android": "https://dc.lft.to/lastmile_qr_scan"}, "lon": -77.0265725, "bike_id": "c8c3e00d87f5140d477f979385ba8edc", "type": "electric_scooter", "name": "c8c3e00d87f5140d477f979385ba8edc"}, {"is_disabled": 0, "is_reserved": 0, "fusion_lat": 0.0, "lat": 38.935264833333335, "fusion_lon": 0.0, "rental_uris": {"ios": "https://dc.lft.to/lastmile_qr_scan", "android": "https://dc.lft.to/lastmile_qr_scan"}, "lon": -77.028463, "bike_id": "e0de7848bf4f0abb60ca295e1f46a891", "type": "electric_scooter", "name": "e0de7848bf4f0abb60ca295e1f46a891"}, {"is_disabled": 0, "is_reserved": 0, "fusion_lat": 0.0, "lat": 38.9191605, "fusion_lon": 0.0, "rental_uris": {"ios": "https://dc.lft.to/lastmile_qr_scan", "android": "https://dc.lft.to/lastmile_qr_scan"}, "lon": -77.02316333333333, "bike_id": "7cd3d3d26a212abfd6a3ff4f46e18117", "type": "electric_scooter", "name": "7cd3d3d26a212abfd6a3ff4f46e18117"}, {"is_disabled": 0, "is_reserved": 0, "fusion_lat": 0.0, "lat": 38.9161025, "fusion_lon": 0.0, "rental_uris": {"ios": "https://dc.lft.to/lastmile_qr_scan", "android": "https://dc.lft.to/lastmile_qr_scan"}, "lon": -76.98285083333333, "bike_id": "23b1ffbff88fe868c58b307fa246820b", "type": "electric_scooter", "name": "23b1ffbff88fe868c58b307fa246820b"}, {"is_disabled": 0, "is_reserved": 0, "fusion_lat": 0.0, "lat": 38.89769316666667, "fusion_lon": 0.0, "rental_uris": {"ios": "https://dc.lft.to/lastmile_qr_scan", "android": "https://dc.lft.to/lastmile_qr_scan"}, "lon": -77.047822, "bike_id": "0b088486b9f5f37211d9c10fb14bc376", "type": "electric_scooter", "name": "0b088486b9f5f37211d9c10fb14bc376"}, {"is_disabled": 0, "is_reserved": 0, "fusion_lat": 0.0, "lat": 38.87681, "fusion_lon": 0.0, "rental_uris": {"ios": "https://dc.lft.to/lastmile_qr_scan", "android": "https://dc.lft.to/lastmile_qr_scan"}, "lon": -77.0178875, "bike_id": "ffafc67555d4b634d27ea8d38dbd2e6a", "type": "electric_scooter", "name": "ffafc67555d4b634d27ea8d38dbd2e6a"}, {"is_disabled": 0, "is_reserved": 0, "fusion_lat": 0.0, "lat": 38.90329833333333, "fusion_lon": 0.0, "rental_uris": {"ios": "https://dc.lft.to/lastmile_qr_scan", "android": "https://dc.lft.to/lastmile_qr_scan"}, "lon": -77.019639, "bike_id": "89f11f0adcb320c5070b5ce8402ebb7d", "type": "electric_scooter", "name": "89f11f0adcb320c5070b5ce8402ebb7d"}, {"is_disabled": 0, "is_reserved": 0, "fusion_lat": 0.0, "lat": 38.92168866666667, "fusion_lon": 0.0, "rental_uris": {"ios": "https://dc.lft.to/lastmile_qr_scan", "android": "https://dc.lft.to/lastmile_qr_scan"}, "lon": -77.0383515, "bike_id": "3ec77a52beb192a66157a8c5e0847b20", "type": "electric_scooter", "name": "3ec77a52beb192a66157a8c5e0847b20"}, {"is_disabled": 0, "is_reserved": 0, "fusion_lat": 0.0, "lat": 38.967944833333334, "fusion_lon": 0.0, "rental_uris": {"ios": "https://dc.lft.to/lastmile_qr_scan", "android": "https://dc.lft.to/lastmile_qr_scan"}, "lon": -77.02431366666667, "bike_id": "0e76121fac49c3bdc5a30d07000a1c27", "type": "electric_scooter", "name": "0e76121fac49c3bdc5a30d07000a1c27"}, {"is_disabled": 0, "is_reserved": 0, "fusion_lat": 0.0, "lat": 38.91556416666667, "fusion_lon": 0.0, "rental_uris": {"ios": "https://dc.lft.to/lastmile_qr_scan", "android": "https://dc.lft.to/lastmile_qr_scan"}, "lon": -77.03173533333333, "bike_id": "0ed1c212273ab3a80330391f2a5d82b5", "type": "electric_scooter", "name": "0ed1c212273ab3a80330391f2a5d82b5"}, {"is_disabled": 0, "is_reserved": 0, "fusion_lat": 0.0, "lat": 38.965516666666666, "fusion_lon": 0.0, "rental_uris": {"ios": "https://dc.lft.to/lastmile_qr_scan", "android": "https://dc.lft.to/lastmile_qr_scan"}, "lon": -77.01625616666666, "bike_id": "339b8dd3608f836763ff0f8ff0440435", "type": "electric_bike", "name": "339b8dd3608f836763ff0f8ff0440435"}, {"is_disabled": 0, "is_reserved": 0, "fusion_lat": 0.0, "lat": 38.8936655, "fusion_lon": 0.0, "rental_uris": {"ios": "https://dc.lft.to/lastmile_qr_scan", "android": "https://dc.lft.to/lastmile_qr_scan"}, "lon": -76.99144416666667, "bike_id": "7bac248f01cd2b5b3dbcd18f3dcd3023", "type": "electric_scooter", "name": "7bac248f01cd2b5b3dbcd18f3dcd3023"}, {"is_disabled": 0, "is_reserved": 0, "fusion_lat": 0.0, "lat": 38.80520833333333, "fusion_lon": 0.0, "rental_uris": {"ios": "https://dc.lft.to/lastmile_qr_scan", "android": "https://dc.lft.to/lastmile_qr_scan"}, "lon": -77.04336183333334, "bike_id": "f51270b7e42d031544bbc2fafa99aea2", "type": "electric_bike", "name": "f51270b7e42d031544bbc2fafa99aea2"}, {"is_disabled": 0, "is_reserved": 0, "fusion_lat": 0.0, "lat": 38.90846366666667, "fusion_lon": 0.0, "rental_uris": {"ios": "https://dc.lft.to/lastmile_qr_scan", "android": "https://dc.lft.to/lastmile_qr_scan"}, "lon": -76.9344685, "bike_id": "5e75cd98b57733cc5ff5c641df9d7b62", "type": "electric_scooter", "name": "5e75cd98b57733cc5ff5c641df9d7b62"}, {"is_disabled": 0, "is_reserved": 0, "fusion_lat": 0.0, "lat": 38.92446916666667, "fusion_lon": 0.0, "rental_uris": {"ios": "https://dc.lft.to/lastmile_qr_scan", "android": "https://dc.lft.to/lastmile_qr_scan"}, "lon": -77.02031433333333, "bike_id": "ffe11f42fc3c26191f25f0f6eb8d8c6d", "type": "electric_scooter", "name": "ffe11f42fc3c26191f25f0f6eb8d8c6d"}, {"is_disabled": 0, "is_reserved": 0, "fusion_lat": 0.0, "lat": 38.80728466666667, "fusion_lon": 0.0, "rental_uris": {"ios": "https://dc.lft.to/lastmile_qr_scan", "android": "https://dc.lft.to/lastmile_qr_scan"}, "lon": -76.99261233333333, "bike_id": "af19ed8009b00849eea5ae727df5d9e6", "type": "electric_bike", "name": "af19ed8009b00849eea5ae727df5d9e6"}, {"is_disabled": 0, "is_reserved": 0, "fusion_lat": 0.0, "lat": 38.9446505, "fusion_lon": 0.0, "rental_uris": {"ios": "https://dc.lft.to/lastmile_qr_scan", "android": "https://dc.lft.to/lastmile_qr_scan"}, "lon": -77.00657266666667, "bike_id": "982350ef198b32ef412f6bd9b0fa4ccf", "type": "electric_scooter", "name": "982350ef198b32ef412f6bd9b0fa4ccf"}, {"is_disabled": 0, "is_reserved": 0, "fusion_lat": 0.0, "lat": 38.91842333333334, "fusion_lon": 0.0, "rental_uris": {"ios": "https://dc.lft.to/lastmile_qr_scan", "android": "https://dc.lft.to/lastmile_qr_scan"}, "lon": -77.02294616666667, "bike_id": "10e1b0beac6ab4101d11d3be787585ec", "type": "electric_scooter", "name": "10e1b0beac6ab4101d11d3be787585ec"}, {"is_disabled": 0, "is_reserved": 0, "fusion_lat": 0.0, "lat": 38.881381, "fusion_lon": 0.0, "rental_uris": {"ios": "https://dc.lft.to/lastmile_qr_scan", "android": "https://dc.lft.to/lastmile_qr_scan"}, "lon": -76.99617283333333, "bike_id": "bb9353bc3f8645dc5c033fe8fe1f0371", "type": "electric_scooter", "name": "bb9353bc3f8645dc5c033fe8fe1f0371"}, {"is_disabled": 0, "is_reserved": 0, "fusion_lat": 0.0, "lat": 38.91321933333333, "fusion_lon": 0.0, "rental_uris": {"ios": "https://dc.lft.to/lastmile_qr_scan", "android": "https://dc.lft.to/lastmile_qr_scan"}, "lon": -77.03198566666667, "bike_id": "e17a1a310caef2a3e73c2ee272c3af35", "type": "electric_scooter", "name": "e17a1a310caef2a3e73c2ee272c3af35"}, {"is_disabled": 0, "is_reserved": 0, "fusion_lat": 0.0, "lat": 38.921824666666666, "fusion_lon": 0.0, "rental_uris": {"ios": "https://dc.lft.to/lastmile_qr_scan", "android": "https://dc.lft.to/lastmile_qr_scan"}, "lon": -76.99854216666667, "bike_id": "8faa59fa00473a45dad85258705b3b53", "type": "electric_scooter", "name": "8faa59fa00473a45dad85258705b3b53"}, {"is_disabled": 0, "is_reserved": 0, "fusion_lat": 0.0, "lat": 38.878453666666665, "fusion_lon": 0.0, "rental_uris": {"ios": "https://dc.lft.to/lastmile_qr_scan", "android": "https://dc.lft.to/lastmile_qr_scan"}, "lon": -77.00863583333333, "bike_id": "81ee1b837c9a616651fea34707c8a913", "type": "electric_scooter", "name": "81ee1b837c9a616651fea34707c8a913"}, {"is_disabled": 0, "is_reserved": 0, "fusion_lat": 0.0, "lat": 38.901844833333335, "fusion_lon": 0.0, "rental_uris": {"ios": "https://dc.lft.to/lastmile_qr_scan", "android": "https://dc.lft.to/lastmile_qr_scan"}, "lon": -76.99960066666667, "bike_id": "19a795ea06d71047f038ae8c8f70543f", "type": "electric_scooter", "name": "19a795ea06d71047f038ae8c8f70543f"}, {"is_disabled": 0, "is_reserved": 0, "fusion_lat": 0.0, "lat": 38.93753433333333, "fusion_lon": 0.0, "rental_uris": {"ios": "https://dc.lft.to/lastmile_qr_scan", "android": "https://dc.lft.to/lastmile_qr_scan"}, "lon": -77.03435783333333, "bike_id": "ebf529021f556a11592f3e396288b56f", "type": "electric_scooter", "name": "ebf529021f556a11592f3e396288b56f"}, {"is_disabled": 0, "is_reserved": 0, "fusion_lat": 0.0, "lat": 38.906975833333334, "fusion_lon": 0.0, "rental_uris": {"ios": "https://dc.lft.to/lastmile_qr_scan", "android": "https://dc.lft.to/lastmile_qr_scan"}, "lon": -76.9995535, "bike_id": "c33f2925c760f6929b16b771c4ae9604", "type": "electric_scooter", "name": "c33f2925c760f6929b16b771c4ae9604"}, {"is_disabled": 0, "is_reserved": 0, "fusion_lat": 0.0, "lat": 38.90453866666667, "fusion_lon": 0.0, "rental_uris": {"ios": "https://dc.lft.to/lastmile_qr_scan", "android": "https://dc.lft.to/lastmile_qr_scan"}, "lon": -77.06512683333334, "bike_id": "6a69816732f9216ad310292a9e9e23d0", "type": "electric_scooter", "name": "6a69816732f9216ad310292a9e9e23d0"}, {"is_disabled": 0, "is_reserved": 0, "fusion_lat": 0.0, "lat": 38.90179766666667, "fusion_lon": 0.0, "rental_uris": {"ios": "https://dc.lft.to/lastmile_qr_scan", "android": "https://dc.lft.to/lastmile_qr_scan"}, "lon": -76.9996075, "bike_id": "6c5f684843b02ed6a1ae316a7eef1ff6", "type": "electric_scooter", "name": "6c5f684843b02ed6a1ae316a7eef1ff6"}, {"is_disabled": 0, "is_reserved": 0, "fusion_lat": 0.0, "lat": 38.84815666666667, "fusion_lon": 0.0, "rental_uris": {"ios": "https://dc.lft.to/lastmile_qr_scan", "android": "https://dc.lft.to/lastmile_qr_scan"}, "lon": -77.084135, "bike_id": "cd9a2da62c0079beb403ae272bfd064f", "type": "electric_bike", "name": "cd9a2da62c0079beb403ae272bfd064f"}, {"is_disabled": 0, "is_reserved": 0, "fusion_lat": 0.0, "lat": 38.9017885, "fusion_lon": 0.0, "rental_uris": {"ios": "https://dc.lft.to/lastmile_qr_scan", "android": "https://dc.lft.to/lastmile_qr_scan"}, "lon": -77.002077, "bike_id": "16204f66b26781485675b81f57956ade", "type": "electric_scooter", "name": "16204f66b26781485675b81f57956ade"}, {"is_disabled": 0, "is_reserved": 0, "fusion_lat": 0.0, "lat": 38.877443166666666, "fusion_lon": 0.0, "rental_uris": {"ios": "https://dc.lft.to/lastmile_qr_scan", "android": "https://dc.lft.to/lastmile_qr_scan"}, "lon": -76.99521916666667, "bike_id": "a7238d17274a4cc84894724aaf16e45d", "type": "electric_scooter", "name": "a7238d17274a4cc84894724aaf16e45d"}, {"is_disabled": 0, "is_reserved": 0, "fusion_lat": 0.0, "lat": 38.914053, "fusion_lon": 0.0, "rental_uris": {"ios": "https://dc.lft.to/lastmile_qr_scan", "android": "https://dc.lft.to/lastmile_qr_scan"}, "lon": -77.03171416666666, "bike_id": "2a733306e29fd6e3f940b2d265e1350a", "type": "electric_scooter", "name": "2a733306e29fd6e3f940b2d265e1350a"}, {"is_disabled": 0, "is_reserved": 0, "fusion_lat": 0.0, "lat": 38.92660983333333, "fusion_lon": 0.0, "rental_uris": {"ios": "https://dc.lft.to/lastmile_qr_scan", "android": "https://dc.lft.to/lastmile_qr_scan"}, "lon": -76.99294966666666, "bike_id": "1936d0f548b8339f02207ade38ecc634", "type": "electric_scooter", "name": "1936d0f548b8339f02207ade38ecc634"}, {"is_disabled": 0, "is_reserved": 0, "fusion_lat": 0.0, "lat": 38.902677833333335, "fusion_lon": 0.0, "rental_uris": {"ios": "https://dc.lft.to/lastmile_qr_scan", "android": "https://dc.lft.to/lastmile_qr_scan"}, "lon": -77.04531933333334, "bike_id": "2fda0d178d761254bdd381888c6d92c1", "type": "electric_scooter", "name": "2fda0d178d761254bdd381888c6d92c1"}, {"is_disabled": 0, "is_reserved": 0, "fusion_lat": 0.0, "lat": 38.97285933333333, "fusion_lon": 0.0, "rental_uris": {"ios": "https://dc.lft.to/lastmile_qr_scan", "android": "https://dc.lft.to/lastmile_qr_scan"}, "lon": -77.03627233333333, "bike_id": "9ffe6cffc87e9d8e424a992f7eb7d278", "type": "electric_bike", "name": "9ffe6cffc87e9d8e424a992f7eb7d278"}, {"is_disabled": 0, "is_reserved": 0, "fusion_lat": 0.0, "lat": 38.952503, "fusion_lon": 0.0, "rental_uris": {"ios": "https://dc.lft.to/lastmile_qr_scan", "android": "https://dc.lft.to/lastmile_qr_scan"}, "lon": -77.09628616666667, "bike_id": "345f4debebc00dbd6eac93a2cf687121", "type": "electric_bike", "name": "345f4debebc00dbd6eac93a2cf687121"}, {"is_disabled": 0, "is_reserved": 0, "fusion_lat": 0.0, "lat": 38.922602, "fusion_lon": 0.0, "rental_uris": {"ios": "https://dc.lft.to/lastmile_qr_scan", "android": "https://dc.lft.to/lastmile_qr_scan"}, "lon": -77.029865, "bike_id": "4d6613c68393ec5becba7adf0c0d37d6", "type": "electric_scooter", "name": "4d6613c68393ec5becba7adf0c0d37d6"}, {"is_disabled": 0, "is_reserved": 0, "fusion_lat": 0.0, "lat": 38.925654333333334, "fusion_lon": 0.0, "rental_uris": {"ios": "https://dc.lft.to/lastmile_qr_scan", "android": "https://dc.lft.to/lastmile_qr_scan"}, "lon": -77.05258983333333, "bike_id": "dbda23086adaaa7528a636686cfd5d88", "type": "electric_scooter", "name": "dbda23086adaaa7528a636686cfd5d88"}, {"is_disabled": 0, "is_reserved": 0, "fusion_lat": 0.0, "lat": 38.900606, "fusion_lon": 0.0, "rental_uris": {"ios": "https://dc.lft.to/lastmile_qr_scan", "android": "https://dc.lft.to/lastmile_qr_scan"}, "lon": -77.02605083333333, "bike_id": "65f74f26b64ad3fed9c1529dac15708d", "type": "electric_scooter", "name": "65f74f26b64ad3fed9c1529dac15708d"}, {"is_disabled": 0, "is_reserved": 0, "fusion_lat": 0.0, "lat": 38.842881166666665, "fusion_lon": 0.0, "rental_uris": {"ios": "https://dc.lft.to/lastmile_qr_scan", "android": "https://dc.lft.to/lastmile_qr_scan"}, "lon": -77.06384516666667, "bike_id": "d0bb82f8c15fde603575eb10e0641bd5", "type": "electric_bike", "name": "d0bb82f8c15fde603575eb10e0641bd5"}, {"is_disabled": 0, "is_reserved": 0, "fusion_lat": 0.0, "lat": 38.92507166666667, "fusion_lon": 0.0, "rental_uris": {"ios": "https://dc.lft.to/lastmile_qr_scan", "android": "https://dc.lft.to/lastmile_qr_scan"}, "lon": -77.02444116666666, "bike_id": "49160ef6888582335d914d3c8b579207", "type": "electric_scooter", "name": "49160ef6888582335d914d3c8b579207"}, {"is_disabled": 0, "is_reserved": 0, "fusion_lat": 0.0, "lat": 38.9213545, "fusion_lon": 0.0, "rental_uris": {"ios": "https://dc.lft.to/lastmile_qr_scan", "android": "https://dc.lft.to/lastmile_qr_scan"}, "lon": -77.0040155, "bike_id": "1dcbb5ff2621ef9d00f9c8bdac048af0", "type": "electric_scooter", "name": "1dcbb5ff2621ef9d00f9c8bdac048af0"}, {"is_disabled": 0, "is_reserved": 0, "fusion_lat": 0.0, "lat": 38.92792766666667, "fusion_lon": 0.0, "rental_uris": {"ios": "https://dc.lft.to/lastmile_qr_scan", "android": "https://dc.lft.to/lastmile_qr_scan"}, "lon": -77.02129933333333, "bike_id": "a6016b6600bc6dcf1e7efa2ce5ed8f2d", "type": "electric_scooter", "name": "a6016b6600bc6dcf1e7efa2ce5ed8f2d"}, {"is_disabled": 0, "is_reserved": 0, "fusion_lat": 0.0, "lat": 38.9524165, "fusion_lon": 0.0, "rental_uris": {"ios": "https://dc.lft.to/lastmile_qr_scan", "android": "https://dc.lft.to/lastmile_qr_scan"}, "lon": -76.98251366666666, "bike_id": "5ce76c008d4f3316e920873498d15128", "type": "electric_bike", "name": "5ce76c008d4f3316e920873498d15128"}, {"is_disabled": 0, "is_reserved": 0, "fusion_lat": 0.0, "lat": 38.90138983333333, "fusion_lon": 0.0, "rental_uris": {"ios": "https://dc.lft.to/lastmile_qr_scan", "android": "https://dc.lft.to/lastmile_qr_scan"}, "lon": -77.0149805, "bike_id": "974f514b4c7abd27a0e5aa570cc53d7a", "type": "electric_scooter", "name": "974f514b4c7abd27a0e5aa570cc53d7a"}, {"is_disabled": 0, "is_reserved": 0, "fusion_lat": 0.0, "lat": 38.8972665, "fusion_lon": 0.0, "rental_uris": {"ios": "https://dc.lft.to/lastmile_qr_scan", "android": "https://dc.lft.to/lastmile_qr_scan"}, "lon": -77.00764666666667, "bike_id": "eb16baf7f3ead58b672d7de56f54a781", "type": "electric_scooter", "name": "eb16baf7f3ead58b672d7de56f54a781"}, {"is_disabled": 0, "is_reserved": 0, "fusion_lat": 0.0, "lat": 38.928131, "fusion_lon": 0.0, "rental_uris": {"ios": "https://dc.lft.to/lastmile_qr_scan", "android": "https://dc.lft.to/lastmile_qr_scan"}, "lon": -77.043459, "bike_id": "c4c19fd95a14238761e555296dab0c21", "type": "electric_scooter", "name": "c4c19fd95a14238761e555296dab0c21"}, {"is_disabled": 0, "is_reserved": 0, "fusion_lat": 0.0, "lat": 38.906493, "fusion_lon": 0.0, "rental_uris": {"ios": "https://dc.lft.to/lastmile_qr_scan", "android": "https://dc.lft.to/lastmile_qr_scan"}, "lon": -77.02480533333333, "bike_id": "30346c7b1373e71cb6e574ecf3718fbc", "type": "electric_scooter", "name": "30346c7b1373e71cb6e574ecf3718fbc"}, {"is_disabled": 0, "is_reserved": 0, "fusion_lat": 0.0, "lat": 38.9272205, "fusion_lon": 0.0, "rental_uris": {"ios": "https://dc.lft.to/lastmile_qr_scan", "android": "https://dc.lft.to/lastmile_qr_scan"}, "lon": -77.022738, "bike_id": "fcacbe17ac9d27d549bdc6e42da37a8d", "type": "electric_scooter", "name": "fcacbe17ac9d27d549bdc6e42da37a8d"}, {"is_disabled": 0, "is_reserved": 0, "fusion_lat": 0.0, "lat": 38.92034483333333, "fusion_lon": 0.0, "rental_uris": {"ios": "https://dc.lft.to/lastmile_qr_scan", "android": "https://dc.lft.to/lastmile_qr_scan"}, "lon": -77.0174985, "bike_id": "b766fb59287b6438ac86c30027fc382c", "type": "electric_scooter", "name": "b766fb59287b6438ac86c30027fc382c"}, {"is_disabled": 0, "is_reserved": 0, "fusion_lat": 0.0, "lat": 38.911535666666666, "fusion_lon": 0.0, "rental_uris": {"ios": "https://dc.lft.to/lastmile_qr_scan", "android": "https://dc.lft.to/lastmile_qr_scan"}, "lon": -77.019969, "bike_id": "b121718eda110a056f8a477e52939f25", "type": "electric_scooter", "name": "b121718eda110a056f8a477e52939f25"}, {"is_disabled": 0, "is_reserved": 0, "fusion_lat": 0.0, "lat": 38.900648333333336, "fusion_lon": 0.0, "rental_uris": {"ios": "https://dc.lft.to/lastmile_qr_scan", "android": "https://dc.lft.to/lastmile_qr_scan"}, "lon": -77.04932183333334, "bike_id": "d0ff9539f0ad69513c071572872251a7", "type": "electric_scooter", "name": "d0ff9539f0ad69513c071572872251a7"}, {"is_disabled": 0, "is_reserved": 0, "fusion_lat": 0.0, "lat": 38.928594833333335, "fusion_lon": 0.0, "rental_uris": {"ios": "https://dc.lft.to/lastmile_qr_scan", "android": "https://dc.lft.to/lastmile_qr_scan"}, "lon": -77.03667383333334, "bike_id": "24767bd8a8fab32672dd2c365bd03da0", "type": "electric_scooter", "name": "24767bd8a8fab32672dd2c365bd03da0"}, {"is_disabled": 0, "is_reserved": 0, "fusion_lat": 0.0, "lat": 38.9055685, "fusion_lon": 0.0, "rental_uris": {"ios": "https://dc.lft.to/lastmile_qr_scan", "android": "https://dc.lft.to/lastmile_qr_scan"}, "lon": -77.05015166666666, "bike_id": "e3c9bb0ebd1694f300e7d8ecc1c84ae3", "type": "electric_bike", "name": "e3c9bb0ebd1694f300e7d8ecc1c84ae3"}, {"is_disabled": 0, "is_reserved": 0, "fusion_lat": 0.0, "lat": 38.89205233333333, "fusion_lon": 0.0, "rental_uris": {"ios": "https://dc.lft.to/lastmile_qr_scan", "android": "https://dc.lft.to/lastmile_qr_scan"}, "lon": -76.92920466666666, "bike_id": "3ad4352654926690cc1edceb512de119", "type": "electric_scooter", "name": "3ad4352654926690cc1edceb512de119"}, {"is_disabled": 0, "is_reserved": 0, "fusion_lat": 0.0, "lat": 38.893996666666666, "fusion_lon": 0.0, "rental_uris": {"ios": "https://dc.lft.to/lastmile_qr_scan", "android": "https://dc.lft.to/lastmile_qr_scan"}, "lon": -77.02368366666667, "bike_id": "1e4684b056b1f14c99ca05b9e514fad2", "type": "electric_scooter", "name": "1e4684b056b1f14c99ca05b9e514fad2"}, {"is_disabled": 0, "is_reserved": 0, "fusion_lat": 0.0, "lat": 38.9260655, "fusion_lon": 0.0, "rental_uris": {"ios": "https://dc.lft.to/lastmile_qr_scan", "android": "https://dc.lft.to/lastmile_qr_scan"}, "lon": -77.02164316666666, "bike_id": "34ca69c3ab7794a731f12d92c13b6d62", "type": "electric_scooter", "name": "34ca69c3ab7794a731f12d92c13b6d62"}, {"is_disabled": 0, "is_reserved": 0, "fusion_lat": 0.0, "lat": 38.948399333333334, "fusion_lon": 0.0, "rental_uris": {"ios": "https://dc.lft.to/lastmile_qr_scan", "android": "https://dc.lft.to/lastmile_qr_scan"}, "lon": -77.05434033333333, "bike_id": "7c35770c14554d3842b1b12bc97809a7", "type": "electric_bike", "name": "7c35770c14554d3842b1b12bc97809a7"}, {"is_disabled": 0, "is_reserved": 0, "fusion_lat": 0.0, "lat": 38.86560716666666, "fusion_lon": 0.0, "rental_uris": {"ios": "https://dc.lft.to/lastmile_qr_scan", "android": "https://dc.lft.to/lastmile_qr_scan"}, "lon": -76.97470866666667, "bike_id": "a89f7e095177718a51ba59f93143fce8", "type": "electric_bike", "name": "a89f7e095177718a51ba59f93143fce8"}, {"is_disabled": 0, "is_reserved": 0, "fusion_lat": 0.0, "lat": 38.87606783333333, "fusion_lon": 0.0, "rental_uris": {"ios": "https://dc.lft.to/lastmile_qr_scan", "android": "https://dc.lft.to/lastmile_qr_scan"}, "lon": -77.00589316666667, "bike_id": "c42d97f19f7b0f04f19c147b9a0b3ce8", "type": "electric_scooter", "name": "c42d97f19f7b0f04f19c147b9a0b3ce8"}, {"is_disabled": 0, "is_reserved": 0, "fusion_lat": 0.0, "lat": 38.900102, "fusion_lon": 0.0, "rental_uris": {"ios": "https://dc.lft.to/lastmile_qr_scan", "android": "https://dc.lft.to/lastmile_qr_scan"}, "lon": -77.00350416666667, "bike_id": "1dce679e299b492d4495314e7a1515e1", "type": "electric_scooter", "name": "1dce679e299b492d4495314e7a1515e1"}, {"is_disabled": 0, "is_reserved": 0, "fusion_lat": 0.0, "lat": 38.85638866666667, "fusion_lon": 0.0, "rental_uris": {"ios": "https://dc.lft.to/lastmile_qr_scan", "android": "https://dc.lft.to/lastmile_qr_scan"}, "lon": -77.06834, "bike_id": "12ff529180b7a58016386a1c2f2da514", "type": "electric_bike", "name": "12ff529180b7a58016386a1c2f2da514"}, {"is_disabled": 0, "is_reserved": 0, "fusion_lat": 0.0, "lat": 38.936354333333334, "fusion_lon": 0.0, "rental_uris": {"ios": "https://dc.lft.to/lastmile_qr_scan", "android": "https://dc.lft.to/lastmile_qr_scan"}, "lon": -77.03262316666667, "bike_id": "a45657445f77867ccde36f72982733ad", "type": "electric_scooter", "name": "a45657445f77867ccde36f72982733ad"}, {"is_disabled": 0, "is_reserved": 0, "fusion_lat": 0.0, "lat": 38.88579216666667, "fusion_lon": 0.0, "rental_uris": {"ios": "https://dc.lft.to/lastmile_qr_scan", "android": "https://dc.lft.to/lastmile_qr_scan"}, "lon": -77.01224516666667, "bike_id": "1b6f02c95b893727bf769995b30c908a", "type": "electric_scooter", "name": "1b6f02c95b893727bf769995b30c908a"}, {"is_disabled": 0, "is_reserved": 0, "fusion_lat": 0.0, "lat": 38.9294495, "fusion_lon": 0.0, "rental_uris": {"ios": "https://dc.lft.to/lastmile_qr_scan", "android": "https://dc.lft.to/lastmile_qr_scan"}, "lon": -77.0547715, "bike_id": "10494f149bc733dd6c7bd350f02d0049", "type": "electric_scooter", "name": "10494f149bc733dd6c7bd350f02d0049"}, {"is_disabled": 0, "is_reserved": 0, "fusion_lat": 0.0, "lat": 38.82431283333333, "fusion_lon": 0.0, "rental_uris": {"ios": "https://dc.lft.to/lastmile_qr_scan", "android": "https://dc.lft.to/lastmile_qr_scan"}, "lon": -77.12041566666667, "bike_id": "6994ada2394aa3deeaba5ffb6678a000", "type": "electric_bike", "name": "6994ada2394aa3deeaba5ffb6678a000"}, {"is_disabled": 0, "is_reserved": 0, "fusion_lat": 0.0, "lat": 38.89359133333333, "fusion_lon": 0.0, "rental_uris": {"ios": "https://dc.lft.to/lastmile_qr_scan", "android": "https://dc.lft.to/lastmile_qr_scan"}, "lon": -77.0447675, "bike_id": "3f1c9bcd92ff35b2c309a4e320b06b88", "type": "electric_scooter", "name": "3f1c9bcd92ff35b2c309a4e320b06b88"}, {"is_disabled": 0, "is_reserved": 0, "fusion_lat": 0.0, "lat": 38.92776633333333, "fusion_lon": 0.0, "rental_uris": {"ios": "https://dc.lft.to/lastmile_qr_scan", "android": "https://dc.lft.to/lastmile_qr_scan"}, "lon": -77.052693, "bike_id": "e403409f105216e6b240df80fa96e8df", "type": "electric_scooter", "name": "e403409f105216e6b240df80fa96e8df"}, {"is_disabled": 0, "is_reserved": 0, "fusion_lat": 0.0, "lat": 39.00018766666667, "fusion_lon": 0.0, "rental_uris": {"ios": "https://dc.lft.to/lastmile_qr_scan", "android": "https://dc.lft.to/lastmile_qr_scan"}, "lon": -76.91064433333334, "bike_id": "e1719ca550c45db76320a1b70db5a1c4", "type": "electric_bike", "name": "e1719ca550c45db76320a1b70db5a1c4"}, {"is_disabled": 0, "is_reserved": 0, "fusion_lat": 0.0, "lat": 38.93989966666667, "fusion_lon": 0.0, "rental_uris": {"ios": "https://dc.lft.to/lastmile_qr_scan", "android": "https://dc.lft.to/lastmile_qr_scan"}, "lon": -77.01904516666667, "bike_id": "49bae2bf6069fff043a2914d0c583dea", "type": "electric_scooter", "name": "49bae2bf6069fff043a2914d0c583dea"}, {"is_disabled": 0, "is_reserved": 0, "fusion_lat": 0.0, "lat": 38.9573795, "fusion_lon": 0.0, "rental_uris": {"ios": "https://dc.lft.to/lastmile_qr_scan", "android": "https://dc.lft.to/lastmile_qr_scan"}, "lon": -77.02317133333334, "bike_id": "06d6455b93f8e77c0247fe6aa0e163eb", "type": "electric_scooter", "name": "06d6455b93f8e77c0247fe6aa0e163eb"}, {"is_disabled": 0, "is_reserved": 0, "fusion_lat": 0.0, "lat": 38.941641833333335, "fusion_lon": 0.0, "rental_uris": {"ios": "https://dc.lft.to/lastmile_qr_scan", "android": "https://dc.lft.to/lastmile_qr_scan"}, "lon": -76.99407016666666, "bike_id": "287ca84a2ec7c99845dfb2f64aee1cfc", "type": "electric_bike", "name": "287ca84a2ec7c99845dfb2f64aee1cfc"}, {"is_disabled": 0, "is_reserved": 0, "fusion_lat": 0.0, "lat": 38.92613583333333, "fusion_lon": 0.0, "rental_uris": {"ios": "https://dc.lft.to/lastmile_qr_scan", "android": "https://dc.lft.to/lastmile_qr_scan"}, "lon": -77.00650366666666, "bike_id": "81fd8888394297e158f6f2f2c18b7d01", "type": "electric_scooter", "name": "81fd8888394297e158f6f2f2c18b7d01"}, {"is_disabled": 0, "is_reserved": 0, "fusion_lat": 0.0, "lat": 38.875625666666664, "fusion_lon": 0.0, "rental_uris": {"ios": "https://dc.lft.to/lastmile_qr_scan", "android": "https://dc.lft.to/lastmile_qr_scan"}, "lon": -77.00591283333333, "bike_id": "b387f551d815f0de50b1ca04c0bd2c83", "type": "electric_scooter", "name": "b387f551d815f0de50b1ca04c0bd2c83"}, {"is_disabled": 0, "is_reserved": 0, "fusion_lat": 0.0, "lat": 38.90175116666666, "fusion_lon": 0.0, "rental_uris": {"ios": "https://dc.lft.to/lastmile_qr_scan", "android": "https://dc.lft.to/lastmile_qr_scan"}, "lon": -77.00214, "bike_id": "ac7b6aa099d2c9e56d18a55853977c03", "type": "electric_scooter", "name": "ac7b6aa099d2c9e56d18a55853977c03"}, {"is_disabled": 0, "is_reserved": 0, "fusion_lat": 0.0, "lat": 38.912560666666664, "fusion_lon": 0.0, "rental_uris": {"ios": "https://dc.lft.to/lastmile_qr_scan", "android": "https://dc.lft.to/lastmile_qr_scan"}, "lon": -77.0479025, "bike_id": "ef8ac86919fd3e3604bbad546ca1cfc9", "type": "electric_scooter", "name": "ef8ac86919fd3e3604bbad546ca1cfc9"}, {"is_disabled": 0, "is_reserved": 0, "fusion_lat": 0.0, "lat": 38.915383166666665, "fusion_lon": 0.0, "rental_uris": {"ios": "https://dc.lft.to/lastmile_qr_scan", "android": "https://dc.lft.to/lastmile_qr_scan"}, "lon": -77.07545333333333, "bike_id": "7e8027aa1776e8c7007c3f3d07f7a982", "type": "electric_scooter", "name": "7e8027aa1776e8c7007c3f3d07f7a982"}, {"is_disabled": 0, "is_reserved": 0, "fusion_lat": 0.0, "lat": 38.92610066666667, "fusion_lon": 0.0, "rental_uris": {"ios": "https://dc.lft.to/lastmile_qr_scan", "android": "https://dc.lft.to/lastmile_qr_scan"}, "lon": -77.02157116666666, "bike_id": "5a5f93ea98a54b58c62f61faa4229592", "type": "electric_scooter", "name": "5a5f93ea98a54b58c62f61faa4229592"}, {"is_disabled": 0, "is_reserved": 0, "fusion_lat": 0.0, "lat": 38.93975116666667, "fusion_lon": 0.0, "rental_uris": {"ios": "https://dc.lft.to/lastmile_qr_scan", "android": "https://dc.lft.to/lastmile_qr_scan"}, "lon": -77.03254266666667, "bike_id": "2ce4fd8e2c023bdb3e67ae072424795a", "type": "electric_scooter", "name": "2ce4fd8e2c023bdb3e67ae072424795a"}, {"is_disabled": 0, "is_reserved": 0, "fusion_lat": 0.0, "lat": 38.929771333333335, "fusion_lon": 0.0, "rental_uris": {"ios": "https://dc.lft.to/lastmile_qr_scan", "android": "https://dc.lft.to/lastmile_qr_scan"}, "lon": -77.02963533333333, "bike_id": "ae4360e364b0b68e76b47bcb4e1fb796", "type": "electric_scooter", "name": "ae4360e364b0b68e76b47bcb4e1fb796"}, {"is_disabled": 0, "is_reserved": 0, "fusion_lat": 0.0, "lat": 38.912750333333335, "fusion_lon": 0.0, "rental_uris": {"ios": "https://dc.lft.to/lastmile_qr_scan", "android": "https://dc.lft.to/lastmile_qr_scan"}, "lon": -77.00211083333333, "bike_id": "9af6704f7f05c787313ea7358aac0683", "type": "electric_scooter", "name": "9af6704f7f05c787313ea7358aac0683"}, {"is_disabled": 0, "is_reserved": 0, "fusion_lat": 0.0, "lat": 38.9257545, "fusion_lon": 0.0, "rental_uris": {"ios": "https://dc.lft.to/lastmile_qr_scan", "android": "https://dc.lft.to/lastmile_qr_scan"}, "lon": -77.02839683333333, "bike_id": "43d7c7858f4e25f709b9a9afb346b791", "type": "electric_scooter", "name": "43d7c7858f4e25f709b9a9afb346b791"}, {"is_disabled": 0, "is_reserved": 0, "fusion_lat": 0.0, "lat": 38.91731566666667, "fusion_lon": 0.0, "rental_uris": {"ios": "https://dc.lft.to/lastmile_qr_scan", "android": "https://dc.lft.to/lastmile_qr_scan"}, "lon": -77.02602583333334, "bike_id": "1c2e8d54c705b439efcc562b84990069", "type": "electric_scooter", "name": "1c2e8d54c705b439efcc562b84990069"}, {"is_disabled": 0, "is_reserved": 0, "fusion_lat": 0.0, "lat": 38.89084616666667, "fusion_lon": 0.0, "rental_uris": {"ios": "https://dc.lft.to/lastmile_qr_scan", "android": "https://dc.lft.to/lastmile_qr_scan"}, "lon": -76.95470833333333, "bike_id": "12dce13f30e9a9fc4b485a2103c6c3c4", "type": "electric_bike", "name": "12dce13f30e9a9fc4b485a2103c6c3c4"}, {"is_disabled": 0, "is_reserved": 0, "fusion_lat": 0.0, "lat": 38.9306365, "fusion_lon": 0.0, "rental_uris": {"ios": "https://dc.lft.to/lastmile_qr_scan", "android": "https://dc.lft.to/lastmile_qr_scan"}, "lon": -76.97327, "bike_id": "1d021a14c6ee910e32c78d0b4a38dc8d", "type": "electric_scooter", "name": "1d021a14c6ee910e32c78d0b4a38dc8d"}, {"is_disabled": 0, "is_reserved": 0, "fusion_lat": 0.0, "lat": 38.95637416666667, "fusion_lon": 0.0, "rental_uris": {"ios": "https://dc.lft.to/lastmile_qr_scan", "android": "https://dc.lft.to/lastmile_qr_scan"}, "lon": -77.0363095, "bike_id": "daa6dbaf0fc8f321907bb9f273d7efa7", "type": "electric_scooter", "name": "daa6dbaf0fc8f321907bb9f273d7efa7"}, {"is_disabled": 0, "is_reserved": 0, "fusion_lat": 0.0, "lat": 38.92731716666667, "fusion_lon": 0.0, "rental_uris": {"ios": "https://dc.lft.to/lastmile_qr_scan", "android": "https://dc.lft.to/lastmile_qr_scan"}, "lon": -77.022793, "bike_id": "b72742621d94b679a3d1c76d4fc5a12a", "type": "electric_scooter", "name": "b72742621d94b679a3d1c76d4fc5a12a"}, {"is_disabled": 0, "is_reserved": 0, "fusion_lat": 0.0, "lat": 38.93342666666667, "fusion_lon": 0.0, "rental_uris": {"ios": "https://dc.lft.to/lastmile_qr_scan", "android": "https://dc.lft.to/lastmile_qr_scan"}, "lon": -77.01933983333333, "bike_id": "e00d6b96d7d6d954ce0d8d2e8f71deb4", "type": "electric_scooter", "name": "e00d6b96d7d6d954ce0d8d2e8f71deb4"}, {"is_disabled": 0, "is_reserved": 0, "fusion_lat": 0.0, "lat": 38.9299775, "fusion_lon": 0.0, "rental_uris": {"ios": "https://dc.lft.to/lastmile_qr_scan", "android": "https://dc.lft.to/lastmile_qr_scan"}, "lon": -77.02171833333334, "bike_id": "45a85e3d8bba54e8cf127586c2706c3e", "type": "electric_scooter", "name": "45a85e3d8bba54e8cf127586c2706c3e"}, {"is_disabled": 0, "is_reserved": 0, "fusion_lat": 0.0, "lat": 38.842784, "fusion_lon": 0.0, "rental_uris": {"ios": "https://dc.lft.to/lastmile_qr_scan", "android": "https://dc.lft.to/lastmile_qr_scan"}, "lon": -76.98840733333333, "bike_id": "f0ae3da5062c9e3cb20d25a1cba149a4", "type": "electric_bike", "name": "f0ae3da5062c9e3cb20d25a1cba149a4"}, {"is_disabled": 0, "is_reserved": 0, "fusion_lat": 0.0, "lat": 38.9081545, "fusion_lon": 0.0, "rental_uris": {"ios": "https://dc.lft.to/lastmile_qr_scan", "android": "https://dc.lft.to/lastmile_qr_scan"}, "lon": -77.03853233333334, "bike_id": "4d234d51c464e7427cc93a0a1d095c78", "type": "electric_bike", "name": "4d234d51c464e7427cc93a0a1d095c78"}, {"is_disabled": 0, "is_reserved": 0, "fusion_lat": 0.0, "lat": 38.910490333333335, "fusion_lon": 0.0, "rental_uris": {"ios": "https://dc.lft.to/lastmile_qr_scan", "android": "https://dc.lft.to/lastmile_qr_scan"}, "lon": -77.01512466666667, "bike_id": "0597cb461654b09e6eafcd8b529471cf", "type": "electric_scooter", "name": "0597cb461654b09e6eafcd8b529471cf"}, {"is_disabled": 0, "is_reserved": 0, "fusion_lat": 0.0, "lat": 38.915651833333335, "fusion_lon": 0.0, "rental_uris": {"ios": "https://dc.lft.to/lastmile_qr_scan", "android": "https://dc.lft.to/lastmile_qr_scan"}, "lon": -77.03140733333333, "bike_id": "b7195e617649faecec1f8b3c82a7d045", "type": "electric_scooter", "name": "b7195e617649faecec1f8b3c82a7d045"}, {"is_disabled": 0, "is_reserved": 0, "fusion_lat": 0.0, "lat": 38.924201333333336, "fusion_lon": 0.0, "rental_uris": {"ios": "https://dc.lft.to/lastmile_qr_scan", "android": "https://dc.lft.to/lastmile_qr_scan"}, "lon": -77.035422, "bike_id": "9cf9c2ec1d2f1f044f719cf2b040761a", "type": "electric_scooter", "name": "9cf9c2ec1d2f1f044f719cf2b040761a"}, {"is_disabled": 0, "is_reserved": 0, "fusion_lat": 0.0, "lat": 38.9007535, "fusion_lon": 0.0, "rental_uris": {"ios": "https://dc.lft.to/lastmile_qr_scan", "android": "https://dc.lft.to/lastmile_qr_scan"}, "lon": -77.04943183333333, "bike_id": "ca533cc7a6d5cfc5816061d0e5e970eb", "type": "electric_scooter", "name": "ca533cc7a6d5cfc5816061d0e5e970eb"}, {"is_disabled": 0, "is_reserved": 0, "fusion_lat": 0.0, "lat": 38.90647633333333, "fusion_lon": 0.0, "rental_uris": {"ios": "https://dc.lft.to/lastmile_qr_scan", "android": "https://dc.lft.to/lastmile_qr_scan"}, "lon": -77.04555733333333, "bike_id": "deb73e0f70e96b160ea01334c6749ff7", "type": "electric_scooter", "name": "deb73e0f70e96b160ea01334c6749ff7"}, {"is_disabled": 0, "is_reserved": 0, "fusion_lat": 0.0, "lat": 38.89835633333333, "fusion_lon": 0.0, "rental_uris": {"ios": "https://dc.lft.to/lastmile_qr_scan", "android": "https://dc.lft.to/lastmile_qr_scan"}, "lon": -76.98651116666667, "bike_id": "197771b382ee37534bab44e2e536994c", "type": "electric_scooter", "name": "197771b382ee37534bab44e2e536994c"}, {"is_disabled": 0, "is_reserved": 0, "fusion_lat": 0.0, "lat": 38.905624833333334, "fusion_lon": 0.0, "rental_uris": {"ios": "https://dc.lft.to/lastmile_qr_scan", "android": "https://dc.lft.to/lastmile_qr_scan"}, "lon": -77.01719566666667, "bike_id": "3ceea047bda4607147aa71dff6c6436a", "type": "electric_scooter", "name": "3ceea047bda4607147aa71dff6c6436a"}, {"is_disabled": 0, "is_reserved": 0, "fusion_lat": 0.0, "lat": 38.94633683333333, "fusion_lon": 0.0, "rental_uris": {"ios": "https://dc.lft.to/lastmile_qr_scan", "android": "https://dc.lft.to/lastmile_qr_scan"}, "lon": -77.0184295, "bike_id": "de7812ff06e75f0b3f45c53a7248867d", "type": "electric_scooter", "name": "de7812ff06e75f0b3f45c53a7248867d"}, {"is_disabled": 0, "is_reserved": 0, "fusion_lat": 0.0, "lat": 38.912552, "fusion_lon": 0.0, "rental_uris": {"ios": "https://dc.lft.to/lastmile_qr_scan", "android": "https://dc.lft.to/lastmile_qr_scan"}, "lon": -77.04598383333334, "bike_id": "4c1033950346c9413b1a71d1c74a4b10", "type": "electric_scooter", "name": "4c1033950346c9413b1a71d1c74a4b10"}, {"is_disabled": 0, "is_reserved": 0, "fusion_lat": 0.0, "lat": 38.924083833333334, "fusion_lon": 0.0, "rental_uris": {"ios": "https://dc.lft.to/lastmile_qr_scan", "android": "https://dc.lft.to/lastmile_qr_scan"}, "lon": -77.05166866666667, "bike_id": "63cb3fd9be3a4b66d123e841741b6ca4", "type": "electric_scooter", "name": "63cb3fd9be3a4b66d123e841741b6ca4"}, {"is_disabled": 0, "is_reserved": 0, "fusion_lat": 0.0, "lat": 38.900363666666664, "fusion_lon": 0.0, "rental_uris": {"ios": "https://dc.lft.to/lastmile_qr_scan", "android": "https://dc.lft.to/lastmile_qr_scan"}, "lon": -76.9950555, "bike_id": "d1076080516057cdee1855a8aa9568a5", "type": "electric_scooter", "name": "d1076080516057cdee1855a8aa9568a5"}, {"is_disabled": 0, "is_reserved": 0, "fusion_lat": 0.0, "lat": 38.94586983333333, "fusion_lon": 0.0, "rental_uris": {"ios": "https://dc.lft.to/lastmile_qr_scan", "android": "https://dc.lft.to/lastmile_qr_scan"}, "lon": -77.02032316666667, "bike_id": "c1a24cee2b9c2c8fe53ba374d685ce0c", "type": "electric_scooter", "name": "c1a24cee2b9c2c8fe53ba374d685ce0c"}, {"is_disabled": 0, "is_reserved": 0, "fusion_lat": 0.0, "lat": 38.919919666666665, "fusion_lon": 0.0, "rental_uris": {"ios": "https://dc.lft.to/lastmile_qr_scan", "android": "https://dc.lft.to/lastmile_qr_scan"}, "lon": -76.972962, "bike_id": "d521dc7753c80ff054450fe5850b1487", "type": "electric_scooter", "name": "d521dc7753c80ff054450fe5850b1487"}, {"is_disabled": 0, "is_reserved": 0, "fusion_lat": 0.0, "lat": 38.92380583333333, "fusion_lon": 0.0, "rental_uris": {"ios": "https://dc.lft.to/lastmile_qr_scan", "android": "https://dc.lft.to/lastmile_qr_scan"}, "lon": -77.040168, "bike_id": "daac7d06652a84aaf0ce5935fa7c91f7", "type": "electric_scooter", "name": "daac7d06652a84aaf0ce5935fa7c91f7"}, {"is_disabled": 0, "is_reserved": 0, "fusion_lat": 0.0, "lat": 38.9049195, "fusion_lon": 0.0, "rental_uris": {"ios": "https://dc.lft.to/lastmile_qr_scan", "android": "https://dc.lft.to/lastmile_qr_scan"}, "lon": -77.026009, "bike_id": "e3f99411ac75bf8aceacb9b40ac5271e", "type": "electric_scooter", "name": "e3f99411ac75bf8aceacb9b40ac5271e"}, {"is_disabled": 0, "is_reserved": 0, "fusion_lat": 0.0, "lat": 38.91889333333334, "fusion_lon": 0.0, "rental_uris": {"ios": "https://dc.lft.to/lastmile_qr_scan", "android": "https://dc.lft.to/lastmile_qr_scan"}, "lon": -77.0348875, "bike_id": "50c82e33b785b905500bfd695dbe9a69", "type": "electric_scooter", "name": "50c82e33b785b905500bfd695dbe9a69"}, {"is_disabled": 0, "is_reserved": 0, "fusion_lat": 0.0, "lat": 38.878497, "fusion_lon": 0.0, "rental_uris": {"ios": "https://dc.lft.to/lastmile_qr_scan", "android": "https://dc.lft.to/lastmile_qr_scan"}, "lon": -77.00858583333333, "bike_id": "dd5ded1110f7e4ba80b82a1925de4605", "type": "electric_bike", "name": "dd5ded1110f7e4ba80b82a1925de4605"}, {"is_disabled": 0, "is_reserved": 0, "fusion_lat": 0.0, "lat": 38.92058816666667, "fusion_lon": 0.0, "rental_uris": {"ios": "https://dc.lft.to/lastmile_qr_scan", "android": "https://dc.lft.to/lastmile_qr_scan"}, "lon": -77.04543633333333, "bike_id": "063175beb9e0d1b49dafb06021fd1315", "type": "electric_scooter", "name": "063175beb9e0d1b49dafb06021fd1315"}, {"is_disabled": 0, "is_reserved": 0, "fusion_lat": 0.0, "lat": 38.912628166666664, "fusion_lon": 0.0, "rental_uris": {"ios": "https://dc.lft.to/lastmile_qr_scan", "android": "https://dc.lft.to/lastmile_qr_scan"}, "lon": -77.03584066666667, "bike_id": "66ce1b83d165254c748e50e35961d411", "type": "electric_scooter", "name": "66ce1b83d165254c748e50e35961d411"}, {"is_disabled": 0, "is_reserved": 0, "fusion_lat": 0.0, "lat": 38.974768, "fusion_lon": 0.0, "rental_uris": {"ios": "https://dc.lft.to/lastmile_qr_scan", "android": "https://dc.lft.to/lastmile_qr_scan"}, "lon": -76.9867105, "bike_id": "81ed5a1b56af378563004a038e634e89", "type": "electric_bike", "name": "81ed5a1b56af378563004a038e634e89"}, {"is_disabled": 0, "is_reserved": 0, "fusion_lat": 0.0, "lat": 38.902607833333334, "fusion_lon": 0.0, "rental_uris": {"ios": "https://dc.lft.to/lastmile_qr_scan", "android": "https://dc.lft.to/lastmile_qr_scan"}, "lon": -77.01737066666666, "bike_id": "e8c23be583241699e5eeb540c3cc1610", "type": "electric_scooter", "name": "e8c23be583241699e5eeb540c3cc1610"}, {"is_disabled": 0, "is_reserved": 0, "fusion_lat": 0.0, "lat": 38.8408525, "fusion_lon": 0.0, "rental_uris": {"ios": "https://dc.lft.to/lastmile_qr_scan", "android": "https://dc.lft.to/lastmile_qr_scan"}, "lon": -76.97029233333333, "bike_id": "7be0911c3cc356d3b2ec72915afdfc86", "type": "electric_bike", "name": "7be0911c3cc356d3b2ec72915afdfc86"}, {"is_disabled": 0, "is_reserved": 0, "fusion_lat": 0.0, "lat": 39.02298116666667, "fusion_lon": 0.0, "rental_uris": {"ios": "https://dc.lft.to/lastmile_qr_scan", "android": "https://dc.lft.to/lastmile_qr_scan"}, "lon": -77.02111983333333, "bike_id": "1d15250ea8feed94e346a5684cb3253b", "type": "electric_bike", "name": "1d15250ea8feed94e346a5684cb3253b"}, {"is_disabled": 0, "is_reserved": 0, "fusion_lat": 0.0, "lat": 38.834909333333336, "fusion_lon": 0.0, "rental_uris": {"ios": "https://dc.lft.to/lastmile_qr_scan", "android": "https://dc.lft.to/lastmile_qr_scan"}, "lon": -77.00433, "bike_id": "907c0c25d8fb4ea05d05c853b4d0c33f", "type": "electric_bike", "name": "907c0c25d8fb4ea05d05c853b4d0c33f"}, {"is_disabled": 0, "is_reserved": 0, "fusion_lat": 0.0, "lat": 38.924631833333336, "fusion_lon": 0.0, "rental_uris": {"ios": "https://dc.lft.to/lastmile_qr_scan", "android": "https://dc.lft.to/lastmile_qr_scan"}, "lon": -77.036358, "bike_id": "9661917b71c9bd51bfcec82a68cf0c37", "type": "electric_scooter", "name": "9661917b71c9bd51bfcec82a68cf0c37"}, {"is_disabled": 0, "is_reserved": 0, "fusion_lat": 0.0, "lat": 38.93529916666667, "fusion_lon": 0.0, "rental_uris": {"ios": "https://dc.lft.to/lastmile_qr_scan", "android": "https://dc.lft.to/lastmile_qr_scan"}, "lon": -77.0235545, "bike_id": "99456d7a5d681af98eb724460aee4a16", "type": "electric_scooter", "name": "99456d7a5d681af98eb724460aee4a16"}, {"is_disabled": 0, "is_reserved": 0, "fusion_lat": 0.0, "lat": 38.88479533333334, "fusion_lon": 0.0, "rental_uris": {"ios": "https://dc.lft.to/lastmile_qr_scan", "android": "https://dc.lft.to/lastmile_qr_scan"}, "lon": -77.031739, "bike_id": "822df05e3b01615296509e3cd32effec", "type": "electric_bike", "name": "822df05e3b01615296509e3cd32effec"}, {"is_disabled": 0, "is_reserved": 0, "fusion_lat": 0.0, "lat": 38.879428, "fusion_lon": 0.0, "rental_uris": {"ios": "https://dc.lft.to/lastmile_qr_scan", "android": "https://dc.lft.to/lastmile_qr_scan"}, "lon": -77.00410733333334, "bike_id": "232c42ace295a04704cb9ca6e1b7ae89", "type": "electric_scooter", "name": "232c42ace295a04704cb9ca6e1b7ae89"}, {"is_disabled": 0, "is_reserved": 0, "fusion_lat": 0.0, "lat": 38.96380383333333, "fusion_lon": 0.0, "rental_uris": {"ios": "https://dc.lft.to/lastmile_qr_scan", "android": "https://dc.lft.to/lastmile_qr_scan"}, "lon": -77.01978516666667, "bike_id": "02b020593b2362699c2af40aa507c1ce", "type": "electric_bike", "name": "02b020593b2362699c2af40aa507c1ce"}, {"is_disabled": 0, "is_reserved": 0, "fusion_lat": 0.0, "lat": 38.902443, "fusion_lon": 0.0, "rental_uris": {"ios": "https://dc.lft.to/lastmile_qr_scan", "android": "https://dc.lft.to/lastmile_qr_scan"}, "lon": -77.01849083333333, "bike_id": "90c3c541d1deb2df6604c2477662b116", "type": "electric_scooter", "name": "90c3c541d1deb2df6604c2477662b116"}, {"is_disabled": 0, "is_reserved": 0, "fusion_lat": 0.0, "lat": 38.933418833333334, "fusion_lon": 0.0, "rental_uris": {"ios": "https://dc.lft.to/lastmile_qr_scan", "android": "https://dc.lft.to/lastmile_qr_scan"}, "lon": -77.01944416666667, "bike_id": "005e700f4498ea17768d74762af0270e", "type": "electric_scooter", "name": "005e700f4498ea17768d74762af0270e"}, {"is_disabled": 0, "is_reserved": 0, "fusion_lat": 0.0, "lat": 38.92600766666666, "fusion_lon": 0.0, "rental_uris": {"ios": "https://dc.lft.to/lastmile_qr_scan", "android": "https://dc.lft.to/lastmile_qr_scan"}, "lon": -77.0229205, "bike_id": "98a77e03100f5174ccb82ce28b5696cc", "type": "electric_scooter", "name": "98a77e03100f5174ccb82ce28b5696cc"}, {"is_disabled": 0, "is_reserved": 0, "fusion_lat": 0.0, "lat": 38.930544, "fusion_lon": 0.0, "rental_uris": {"ios": "https://dc.lft.to/lastmile_qr_scan", "android": "https://dc.lft.to/lastmile_qr_scan"}, "lon": -77.033618, "bike_id": "f2fcde6fa6f6bf3f131e20478d03aba9", "type": "electric_scooter", "name": "f2fcde6fa6f6bf3f131e20478d03aba9"}, {"is_disabled": 0, "is_reserved": 0, "fusion_lat": 0.0, "lat": 38.920375, "fusion_lon": 0.0, "rental_uris": {"ios": "https://dc.lft.to/lastmile_qr_scan", "android": "https://dc.lft.to/lastmile_qr_scan"}, "lon": -77.01672033333334, "bike_id": "1a4858e22d1a4124ec3e2e5f47a4d571", "type": "electric_scooter", "name": "1a4858e22d1a4124ec3e2e5f47a4d571"}, {"is_disabled": 0, "is_reserved": 0, "fusion_lat": 0.0, "lat": 38.920212666666664, "fusion_lon": 0.0, "rental_uris": {"ios": "https://dc.lft.to/lastmile_qr_scan", "android": "https://dc.lft.to/lastmile_qr_scan"}, "lon": -77.0170885, "bike_id": "0676b74e5dcf77958e3f80bc0199812e", "type": "electric_scooter", "name": "0676b74e5dcf77958e3f80bc0199812e"}, {"is_disabled": 0, "is_reserved": 0, "fusion_lat": 0.0, "lat": 38.939312666666666, "fusion_lon": 0.0, "rental_uris": {"ios": "https://dc.lft.to/lastmile_qr_scan", "android": "https://dc.lft.to/lastmile_qr_scan"}, "lon": -77.072504, "bike_id": "9e6e608de2c5082260e520c6b839a73f", "type": "electric_scooter", "name": "9e6e608de2c5082260e520c6b839a73f"}, {"is_disabled": 0, "is_reserved": 0, "fusion_lat": 0.0, "lat": 38.93862, "fusion_lon": 0.0, "rental_uris": {"ios": "https://dc.lft.to/lastmile_qr_scan", "android": "https://dc.lft.to/lastmile_qr_scan"}, "lon": -77.072378, "bike_id": "acf048b4ecbd93b3006b444c84a0eed4", "type": "electric_scooter", "name": "acf048b4ecbd93b3006b444c84a0eed4"}, {"is_disabled": 0, "is_reserved": 0, "fusion_lat": 0.0, "lat": 38.919438, "fusion_lon": 0.0, "rental_uris": {"ios": "https://dc.lft.to/lastmile_qr_scan", "android": "https://dc.lft.to/lastmile_qr_scan"}, "lon": -77.025021, "bike_id": "aeccce4f3f59aaa8d9fdab5cc4f3fbe9", "type": "electric_scooter", "name": "aeccce4f3f59aaa8d9fdab5cc4f3fbe9"}, {"is_disabled": 0, "is_reserved": 0, "fusion_lat": 0.0, "lat": 38.922751, "fusion_lon": 0.0, "rental_uris": {"ios": "https://dc.lft.to/lastmile_qr_scan", "android": "https://dc.lft.to/lastmile_qr_scan"}, "lon": -77.0424445, "bike_id": "edb65f3aff780e707541d5e042b07159", "type": "electric_scooter", "name": "edb65f3aff780e707541d5e042b07159"}, {"is_disabled": 0, "is_reserved": 0, "fusion_lat": 0.0, "lat": 38.956292, "fusion_lon": 0.0, "rental_uris": {"ios": "https://dc.lft.to/lastmile_qr_scan", "android": "https://dc.lft.to/lastmile_qr_scan"}, "lon": -77.02209933333333, "bike_id": "4d52ad2ea29f1d71e016469b610684af", "type": "electric_scooter", "name": "4d52ad2ea29f1d71e016469b610684af"}, {"is_disabled": 0, "is_reserved": 0, "fusion_lat": 0.0, "lat": 38.827615, "fusion_lon": 0.0, "rental_uris": {"ios": "https://dc.lft.to/lastmile_qr_scan", "android": "https://dc.lft.to/lastmile_qr_scan"}, "lon": -77.059981, "bike_id": "29ac3053f4b85c94251c31f666d807db", "type": "electric_bike", "name": "29ac3053f4b85c94251c31f666d807db"}, {"is_disabled": 0, "is_reserved": 0, "fusion_lat": 0.0, "lat": 38.899010833333335, "fusion_lon": 0.0, "rental_uris": {"ios": "https://dc.lft.to/lastmile_qr_scan", "android": "https://dc.lft.to/lastmile_qr_scan"}, "lon": -77.04999183333334, "bike_id": "ffb0dd4e3577b81a62cd19f472d97670", "type": "electric_scooter", "name": "ffb0dd4e3577b81a62cd19f472d97670"}, {"is_disabled": 0, "is_reserved": 0, "fusion_lat": 0.0, "lat": 38.906317, "fusion_lon": 0.0, "rental_uris": {"ios": "https://dc.lft.to/lastmile_qr_scan", "android": "https://dc.lft.to/lastmile_qr_scan"}, "lon": -77.068931, "bike_id": "1c18315b69d63142368f891a7e1789c1", "type": "electric_scooter", "name": "1c18315b69d63142368f891a7e1789c1"}, {"is_disabled": 0, "is_reserved": 0, "fusion_lat": 0.0, "lat": 38.917229666666664, "fusion_lon": 0.0, "rental_uris": {"ios": "https://dc.lft.to/lastmile_qr_scan", "android": "https://dc.lft.to/lastmile_qr_scan"}, "lon": -77.02505766666667, "bike_id": "d9a9b2b12c2e7695692525b89af4b968", "type": "electric_scooter", "name": "d9a9b2b12c2e7695692525b89af4b968"}, {"is_disabled": 0, "is_reserved": 0, "fusion_lat": 0.0, "lat": 38.894257833333334, "fusion_lon": 0.0, "rental_uris": {"ios": "https://dc.lft.to/lastmile_qr_scan", "android": "https://dc.lft.to/lastmile_qr_scan"}, "lon": -77.05595933333333, "bike_id": "83bb5286930e80f483ab780bf96aca7e", "type": "electric_scooter", "name": "83bb5286930e80f483ab780bf96aca7e"}, {"is_disabled": 0, "is_reserved": 0, "fusion_lat": 0.0, "lat": 38.89665083333333, "fusion_lon": 0.0, "rental_uris": {"ios": "https://dc.lft.to/lastmile_qr_scan", "android": "https://dc.lft.to/lastmile_qr_scan"}, "lon": -77.0435565, "bike_id": "469e50312683f3fad0829f8aa3ced1b3", "type": "electric_scooter", "name": "469e50312683f3fad0829f8aa3ced1b3"}, {"is_disabled": 0, "is_reserved": 0, "fusion_lat": 0.0, "lat": 38.9231955, "fusion_lon": 0.0, "rental_uris": {"ios": "https://dc.lft.to/lastmile_qr_scan", "android": "https://dc.lft.to/lastmile_qr_scan"}, "lon": -77.045091, "bike_id": "f7ed8d58021a4312abbdbca1630b29e4", "type": "electric_scooter", "name": "f7ed8d58021a4312abbdbca1630b29e4"}, {"is_disabled": 0, "is_reserved": 0, "fusion_lat": 0.0, "lat": 38.915979166666666, "fusion_lon": 0.0, "rental_uris": {"ios": "https://dc.lft.to/lastmile_qr_scan", "android": "https://dc.lft.to/lastmile_qr_scan"}, "lon": -77.02408966666667, "bike_id": "9d986f2087c38d5e00d2b81519a0b2bb", "type": "electric_scooter", "name": "9d986f2087c38d5e00d2b81519a0b2bb"}, {"is_disabled": 0, "is_reserved": 0, "fusion_lat": 0.0, "lat": 38.92099266666666, "fusion_lon": 0.0, "rental_uris": {"ios": "https://dc.lft.to/lastmile_qr_scan", "android": "https://dc.lft.to/lastmile_qr_scan"}, "lon": -77.03041783333333, "bike_id": "29c7fbd8c8b19b1e1238296799c03141", "type": "electric_scooter", "name": "29c7fbd8c8b19b1e1238296799c03141"}, {"is_disabled": 0, "is_reserved": 0, "fusion_lat": 0.0, "lat": 38.952345, "fusion_lon": 0.0, "rental_uris": {"ios": "https://dc.lft.to/lastmile_qr_scan", "android": "https://dc.lft.to/lastmile_qr_scan"}, "lon": -76.97946416666667, "bike_id": "b82ef4aa08c22f9a4615784b7e73edec", "type": "electric_bike", "name": "b82ef4aa08c22f9a4615784b7e73edec"}, {"is_disabled": 0, "is_reserved": 0, "fusion_lat": 0.0, "lat": 38.8974505, "fusion_lon": 0.0, "rental_uris": {"ios": "https://dc.lft.to/lastmile_qr_scan", "android": "https://dc.lft.to/lastmile_qr_scan"}, "lon": -77.05480083333333, "bike_id": "a5f1412b19132dec1fdafb61f6bca787", "type": "electric_scooter", "name": "a5f1412b19132dec1fdafb61f6bca787"}, {"is_disabled": 0, "is_reserved": 0, "fusion_lat": 0.0, "lat": 38.895107333333335, "fusion_lon": 0.0, "rental_uris": {"ios": "https://dc.lft.to/lastmile_qr_scan", "android": "https://dc.lft.to/lastmile_qr_scan"}, "lon": -77.0229635, "bike_id": "618b89fa9b66f3dc6450ac8cb37ac2fb", "type": "electric_scooter", "name": "618b89fa9b66f3dc6450ac8cb37ac2fb"}, {"is_disabled": 0, "is_reserved": 0, "fusion_lat": 0.0, "lat": 38.9303015, "fusion_lon": 0.0, "rental_uris": {"ios": "https://dc.lft.to/lastmile_qr_scan", "android": "https://dc.lft.to/lastmile_qr_scan"}, "lon": -77.03238166666667, "bike_id": "39a77b31e28167c64ec70ff3e01727f4", "type": "electric_scooter", "name": "39a77b31e28167c64ec70ff3e01727f4"}, {"is_disabled": 0, "is_reserved": 0, "fusion_lat": 0.0, "lat": 38.89406916666667, "fusion_lon": 0.0, "rental_uris": {"ios": "https://dc.lft.to/lastmile_qr_scan", "android": "https://dc.lft.to/lastmile_qr_scan"}, "lon": -77.02203816666666, "bike_id": "1ad20d34244029baf898703347601e05", "type": "electric_scooter", "name": "1ad20d34244029baf898703347601e05"}, {"is_disabled": 0, "is_reserved": 0, "fusion_lat": 0.0, "lat": 38.805197166666666, "fusion_lon": 0.0, "rental_uris": {"ios": "https://dc.lft.to/lastmile_qr_scan", "android": "https://dc.lft.to/lastmile_qr_scan"}, "lon": -77.04336033333334, "bike_id": "9c8b403f35a6e32ec042489caa35b7ea", "type": "electric_bike", "name": "9c8b403f35a6e32ec042489caa35b7ea"}, {"is_disabled": 0, "is_reserved": 0, "fusion_lat": 0.0, "lat": 38.880252166666665, "fusion_lon": 0.0, "rental_uris": {"ios": "https://dc.lft.to/lastmile_qr_scan", "android": "https://dc.lft.to/lastmile_qr_scan"}, "lon": -76.94325716666667, "bike_id": "9dfdaffb551ec73b1b97edb1facd6c93", "type": "electric_scooter", "name": "9dfdaffb551ec73b1b97edb1facd6c93"}, {"is_disabled": 0, "is_reserved": 0, "fusion_lat": 0.0, "lat": 38.89736883333333, "fusion_lon": 0.0, "rental_uris": {"ios": "https://dc.lft.to/lastmile_qr_scan", "android": "https://dc.lft.to/lastmile_qr_scan"}, "lon": -77.01760533333334, "bike_id": "acb14c70eb11728e2dcbf31f2433a474", "type": "electric_scooter", "name": "acb14c70eb11728e2dcbf31f2433a474"}, {"is_disabled": 0, "is_reserved": 0, "fusion_lat": 0.0, "lat": 38.86492883333333, "fusion_lon": 0.0, "rental_uris": {"ios": "https://dc.lft.to/lastmile_qr_scan", "android": "https://dc.lft.to/lastmile_qr_scan"}, "lon": -76.9698685, "bike_id": "8152da96cba881e8ae222958c7f3f8ea", "type": "electric_bike", "name": "8152da96cba881e8ae222958c7f3f8ea"}, {"is_disabled": 0, "is_reserved": 0, "fusion_lat": 0.0, "lat": 38.924052, "fusion_lon": 0.0, "rental_uris": {"ios": "https://dc.lft.to/lastmile_qr_scan", "android": "https://dc.lft.to/lastmile_qr_scan"}, "lon": -77.051754, "bike_id": "3266ac653d07501f7285d29c5e01b319", "type": "electric_scooter", "name": "3266ac653d07501f7285d29c5e01b319"}, {"is_disabled": 0, "is_reserved": 0, "fusion_lat": 0.0, "lat": 38.911083833333336, "fusion_lon": 0.0, "rental_uris": {"ios": "https://dc.lft.to/lastmile_qr_scan", "android": "https://dc.lft.to/lastmile_qr_scan"}, "lon": -77.0324855, "bike_id": "292188e23df857a4a6878a6ce8068d43", "type": "electric_scooter", "name": "292188e23df857a4a6878a6ce8068d43"}, {"is_disabled": 0, "is_reserved": 0, "fusion_lat": 0.0, "lat": 38.88060133333333, "fusion_lon": 0.0, "rental_uris": {"ios": "https://dc.lft.to/lastmile_qr_scan", "android": "https://dc.lft.to/lastmile_qr_scan"}, "lon": -77.02563416666666, "bike_id": "5dc7caccccb06cc26dbdb990d28713e5", "type": "electric_scooter", "name": "5dc7caccccb06cc26dbdb990d28713e5"}, {"is_disabled": 0, "is_reserved": 0, "fusion_lat": 0.0, "lat": 38.917338, "fusion_lon": 0.0, "rental_uris": {"ios": "https://dc.lft.to/lastmile_qr_scan", "android": "https://dc.lft.to/lastmile_qr_scan"}, "lon": -77.06887433333333, "bike_id": "06f11552a60dabc3bb031bfa24b35ad1", "type": "electric_scooter", "name": "06f11552a60dabc3bb031bfa24b35ad1"}, {"is_disabled": 0, "is_reserved": 0, "fusion_lat": 0.0, "lat": 38.9320635, "fusion_lon": 0.0, "rental_uris": {"ios": "https://dc.lft.to/lastmile_qr_scan", "android": "https://dc.lft.to/lastmile_qr_scan"}, "lon": -77.02286716666667, "bike_id": "2e7a81a02bd26ac7e26aa6125610fee5", "type": "electric_scooter", "name": "2e7a81a02bd26ac7e26aa6125610fee5"}, {"is_disabled": 0, "is_reserved": 0, "fusion_lat": 0.0, "lat": 38.92604216666667, "fusion_lon": 0.0, "rental_uris": {"ios": "https://dc.lft.to/lastmile_qr_scan", "android": "https://dc.lft.to/lastmile_qr_scan"}, "lon": -77.0243475, "bike_id": "d281747630734e3610b15983ae599f58", "type": "electric_bike", "name": "d281747630734e3610b15983ae599f58"}, {"is_disabled": 0, "is_reserved": 0, "fusion_lat": 0.0, "lat": 38.915559, "fusion_lon": 0.0, "rental_uris": {"ios": "https://dc.lft.to/lastmile_qr_scan", "android": "https://dc.lft.to/lastmile_qr_scan"}, "lon": -77.02339016666667, "bike_id": "df7e5209eba2d85e68ccbac54ba44baa", "type": "electric_scooter", "name": "df7e5209eba2d85e68ccbac54ba44baa"}, {"is_disabled": 0, "is_reserved": 0, "fusion_lat": 0.0, "lat": 38.9023825, "fusion_lon": 0.0, "rental_uris": {"ios": "https://dc.lft.to/lastmile_qr_scan", "android": "https://dc.lft.to/lastmile_qr_scan"}, "lon": -77.01902766666667, "bike_id": "3ac9920b43e95f03dbec384a652ccc32", "type": "electric_scooter", "name": "3ac9920b43e95f03dbec384a652ccc32"}, {"is_disabled": 0, "is_reserved": 0, "fusion_lat": 0.0, "lat": 38.9192885, "fusion_lon": 0.0, "rental_uris": {"ios": "https://dc.lft.to/lastmile_qr_scan", "android": "https://dc.lft.to/lastmile_qr_scan"}, "lon": -77.02501283333334, "bike_id": "3a3f7988a4aaafe59468859031f39abd", "type": "electric_scooter", "name": "3a3f7988a4aaafe59468859031f39abd"}, {"is_disabled": 0, "is_reserved": 0, "fusion_lat": 0.0, "lat": 38.80482333333333, "fusion_lon": 0.0, "rental_uris": {"ios": "https://dc.lft.to/lastmile_qr_scan", "android": "https://dc.lft.to/lastmile_qr_scan"}, "lon": -76.99106933333333, "bike_id": "5375a017fceef0a542b855a0ea7e7f35", "type": "electric_bike", "name": "5375a017fceef0a542b855a0ea7e7f35"}, {"is_disabled": 0, "is_reserved": 0, "fusion_lat": 0.0, "lat": 38.90222466666667, "fusion_lon": 0.0, "rental_uris": {"ios": "https://dc.lft.to/lastmile_qr_scan", "android": "https://dc.lft.to/lastmile_qr_scan"}, "lon": -77.06062116666666, "bike_id": "13082b2ccd8941b96e97103015a657bf", "type": "electric_scooter", "name": "13082b2ccd8941b96e97103015a657bf"}, {"is_disabled": 0, "is_reserved": 0, "fusion_lat": 0.0, "lat": 38.9169645, "fusion_lon": 0.0, "rental_uris": {"ios": "https://dc.lft.to/lastmile_qr_scan", "android": "https://dc.lft.to/lastmile_qr_scan"}, "lon": -77.02750266666666, "bike_id": "a124d3503f826f8e1dc41bc3c0b566b5", "type": "electric_scooter", "name": "a124d3503f826f8e1dc41bc3c0b566b5"}, {"is_disabled": 0, "is_reserved": 0, "fusion_lat": 0.0, "lat": 38.92140916666666, "fusion_lon": 0.0, "rental_uris": {"ios": "https://dc.lft.to/lastmile_qr_scan", "android": "https://dc.lft.to/lastmile_qr_scan"}, "lon": -77.03184133333333, "bike_id": "2952ec902e26e6880fcc67908aa92aea", "type": "electric_scooter", "name": "2952ec902e26e6880fcc67908aa92aea"}, {"is_disabled": 0, "is_reserved": 0, "fusion_lat": 0.0, "lat": 38.926564666666664, "fusion_lon": 0.0, "rental_uris": {"ios": "https://dc.lft.to/lastmile_qr_scan", "android": "https://dc.lft.to/lastmile_qr_scan"}, "lon": -77.0243225, "bike_id": "0f1554b891b2429b64ba899d4609ffa3", "type": "electric_scooter", "name": "0f1554b891b2429b64ba899d4609ffa3"}, {"is_disabled": 0, "is_reserved": 0, "fusion_lat": 0.0, "lat": 38.923928, "fusion_lon": 0.0, "rental_uris": {"ios": "https://dc.lft.to/lastmile_qr_scan", "android": "https://dc.lft.to/lastmile_qr_scan"}, "lon": -77.04069366666667, "bike_id": "654db28e3a04f853841456b14ab0717a", "type": "electric_scooter", "name": "654db28e3a04f853841456b14ab0717a"}, {"is_disabled": 0, "is_reserved": 0, "fusion_lat": 0.0, "lat": 38.91331433333333, "fusion_lon": 0.0, "rental_uris": {"ios": "https://dc.lft.to/lastmile_qr_scan", "android": "https://dc.lft.to/lastmile_qr_scan"}, "lon": -77.03049333333334, "bike_id": "ee474ff4dde22d615a81ae24b016838c", "type": "electric_scooter", "name": "ee474ff4dde22d615a81ae24b016838c"}, {"is_disabled": 0, "is_reserved": 0, "fusion_lat": 0.0, "lat": 38.911339166666664, "fusion_lon": 0.0, "rental_uris": {"ios": "https://dc.lft.to/lastmile_qr_scan", "android": "https://dc.lft.to/lastmile_qr_scan"}, "lon": -77.03664416666666, "bike_id": "e99743cfc7bd596e1e9200bf4d165667", "type": "electric_scooter", "name": "e99743cfc7bd596e1e9200bf4d165667"}, {"is_disabled": 0, "is_reserved": 0, "fusion_lat": 0.0, "lat": 38.920527666666665, "fusion_lon": 0.0, "rental_uris": {"ios": "https://dc.lft.to/lastmile_qr_scan", "android": "https://dc.lft.to/lastmile_qr_scan"}, "lon": -77.03376466666667, "bike_id": "47fdc7b80cd74e9c69c4cbf602eb92f4", "type": "electric_scooter", "name": "47fdc7b80cd74e9c69c4cbf602eb92f4"}, {"is_disabled": 0, "is_reserved": 0, "fusion_lat": 0.0, "lat": 38.9062405, "fusion_lon": 0.0, "rental_uris": {"ios": "https://dc.lft.to/lastmile_qr_scan", "android": "https://dc.lft.to/lastmile_qr_scan"}, "lon": -77.0271575, "bike_id": "75b6c028a0d8f0fb5d585f2571c31d87", "type": "electric_scooter", "name": "75b6c028a0d8f0fb5d585f2571c31d87"}, {"is_disabled": 0, "is_reserved": 0, "fusion_lat": 0.0, "lat": 38.92270966666667, "fusion_lon": 0.0, "rental_uris": {"ios": "https://dc.lft.to/lastmile_qr_scan", "android": "https://dc.lft.to/lastmile_qr_scan"}, "lon": -77.04241533333334, "bike_id": "66d0fe5f7e08c3e244038221960bc096", "type": "electric_scooter", "name": "66d0fe5f7e08c3e244038221960bc096"}, {"is_disabled": 0, "is_reserved": 0, "fusion_lat": 0.0, "lat": 38.909436, "fusion_lon": 0.0, "rental_uris": {"ios": "https://dc.lft.to/lastmile_qr_scan", "android": "https://dc.lft.to/lastmile_qr_scan"}, "lon": -77.03858883333334, "bike_id": "a2a5811ecda67706a7c71d16438aea83", "type": "electric_scooter", "name": "a2a5811ecda67706a7c71d16438aea83"}, {"is_disabled": 0, "is_reserved": 0, "fusion_lat": 0.0, "lat": 38.924158166666665, "fusion_lon": 0.0, "rental_uris": {"ios": "https://dc.lft.to/lastmile_qr_scan", "android": "https://dc.lft.to/lastmile_qr_scan"}, "lon": -77.02029316666666, "bike_id": "3fdc9b00d28d3aaf40e0c4d40762c287", "type": "electric_scooter", "name": "3fdc9b00d28d3aaf40e0c4d40762c287"}, {"is_disabled": 0, "is_reserved": 0, "fusion_lat": 0.0, "lat": 38.88411516666667, "fusion_lon": 0.0, "rental_uris": {"ios": "https://dc.lft.to/lastmile_qr_scan", "android": "https://dc.lft.to/lastmile_qr_scan"}, "lon": -77.02981783333334, "bike_id": "211fd603e90fa3ebb81e192623d33668", "type": "electric_scooter", "name": "211fd603e90fa3ebb81e192623d33668"}, {"is_disabled": 0, "is_reserved": 0, "fusion_lat": 0.0, "lat": 38.927587333333335, "fusion_lon": 0.0, "rental_uris": {"ios": "https://dc.lft.to/lastmile_qr_scan", "android": "https://dc.lft.to/lastmile_qr_scan"}, "lon": -77.0326985, "bike_id": "b3b67e8db05eb8d03f158657cf1b991f", "type": "electric_scooter", "name": "b3b67e8db05eb8d03f158657cf1b991f"}, {"is_disabled": 0, "is_reserved": 0, "fusion_lat": 0.0, "lat": 38.9084825, "fusion_lon": 0.0, "rental_uris": {"ios": "https://dc.lft.to/lastmile_qr_scan", "android": "https://dc.lft.to/lastmile_qr_scan"}, "lon": -77.03290616666666, "bike_id": "d25c698fa1bd49d9f2cf25ed3a09d0d7", "type": "electric_scooter", "name": "d25c698fa1bd49d9f2cf25ed3a09d0d7"}, {"is_disabled": 0, "is_reserved": 0, "fusion_lat": 0.0, "lat": 38.92664633333333, "fusion_lon": 0.0, "rental_uris": {"ios": "https://dc.lft.to/lastmile_qr_scan", "android": "https://dc.lft.to/lastmile_qr_scan"}, "lon": -77.02696316666666, "bike_id": "aa3bd9759429f74a041307fb9e4ddea6", "type": "electric_scooter", "name": "aa3bd9759429f74a041307fb9e4ddea6"}, {"is_disabled": 0, "is_reserved": 0, "fusion_lat": 0.0, "lat": 38.8098205, "fusion_lon": 0.0, "rental_uris": {"ios": "https://dc.lft.to/lastmile_qr_scan", "android": "https://dc.lft.to/lastmile_qr_scan"}, "lon": -77.07663233333334, "bike_id": "8bf3514bd3ba4fe7e95fc1cf8320d3bd", "type": "electric_bike", "name": "8bf3514bd3ba4fe7e95fc1cf8320d3bd"}, {"is_disabled": 0, "is_reserved": 0, "fusion_lat": 0.0, "lat": 38.9242555, "fusion_lon": 0.0, "rental_uris": {"ios": "https://dc.lft.to/lastmile_qr_scan", "android": "https://dc.lft.to/lastmile_qr_scan"}, "lon": -77.020366, "bike_id": "8df0fa7dccfd91b3f7e2ab8fbc0423ad", "type": "electric_scooter", "name": "8df0fa7dccfd91b3f7e2ab8fbc0423ad"}, {"is_disabled": 0, "is_reserved": 0, "fusion_lat": 0.0, "lat": 38.9141335, "fusion_lon": 0.0, "rental_uris": {"ios": "https://dc.lft.to/lastmile_qr_scan", "android": "https://dc.lft.to/lastmile_qr_scan"}, "lon": -77.03167816666667, "bike_id": "a698b2084bec718eccbf71c152ef9879", "type": "electric_scooter", "name": "a698b2084bec718eccbf71c152ef9879"}, {"is_disabled": 0, "is_reserved": 0, "fusion_lat": 0.0, "lat": 38.895390666666664, "fusion_lon": 0.0, "rental_uris": {"ios": "https://dc.lft.to/lastmile_qr_scan", "android": "https://dc.lft.to/lastmile_qr_scan"}, "lon": -77.02819316666667, "bike_id": "07cf7fa86c1eaf4ecfb2052e1447dc90", "type": "electric_scooter", "name": "07cf7fa86c1eaf4ecfb2052e1447dc90"}, {"is_disabled": 0, "is_reserved": 0, "fusion_lat": 0.0, "lat": 38.9165115, "fusion_lon": 0.0, "rental_uris": {"ios": "https://dc.lft.to/lastmile_qr_scan", "android": "https://dc.lft.to/lastmile_qr_scan"}, "lon": -77.01024283333334, "bike_id": "d15578e47b6f71ef25c05ff19d580131", "type": "electric_scooter", "name": "d15578e47b6f71ef25c05ff19d580131"}, {"is_disabled": 0, "is_reserved": 0, "fusion_lat": 0.0, "lat": 38.942160333333334, "fusion_lon": 0.0, "rental_uris": {"ios": "https://dc.lft.to/lastmile_qr_scan", "android": "https://dc.lft.to/lastmile_qr_scan"}, "lon": -76.9613215, "bike_id": "fa30806e348409093cfd9feaca075b5a", "type": "electric_bike", "name": "fa30806e348409093cfd9feaca075b5a"}, {"is_disabled": 0, "is_reserved": 0, "fusion_lat": 0.0, "lat": 38.898182, "fusion_lon": 0.0, "rental_uris": {"ios": "https://dc.lft.to/lastmile_qr_scan", "android": "https://dc.lft.to/lastmile_qr_scan"}, "lon": -76.9300575, "bike_id": "25d6faadfbbc420dddac1581c234414d", "type": "electric_scooter", "name": "25d6faadfbbc420dddac1581c234414d"}, {"is_disabled": 0, "is_reserved": 0, "fusion_lat": 0.0, "lat": 38.9177495, "fusion_lon": 0.0, "rental_uris": {"ios": "https://dc.lft.to/lastmile_qr_scan", "android": "https://dc.lft.to/lastmile_qr_scan"}, "lon": -77.02412983333333, "bike_id": "d3e2095891ffc5e588da1d17d5628bc5", "type": "electric_scooter", "name": "d3e2095891ffc5e588da1d17d5628bc5"}, {"is_disabled": 0, "is_reserved": 0, "fusion_lat": 0.0, "lat": 38.926649166666664, "fusion_lon": 0.0, "rental_uris": {"ios": "https://dc.lft.to/lastmile_qr_scan", "android": "https://dc.lft.to/lastmile_qr_scan"}, "lon": -76.99556816666667, "bike_id": "f50c23733b7368b23ba39501a7d71643", "type": "electric_scooter", "name": "f50c23733b7368b23ba39501a7d71643"}, {"is_disabled": 0, "is_reserved": 0, "fusion_lat": 0.0, "lat": 38.90125916666667, "fusion_lon": 0.0, "rental_uris": {"ios": "https://dc.lft.to/lastmile_qr_scan", "android": "https://dc.lft.to/lastmile_qr_scan"}, "lon": -77.04472316666667, "bike_id": "589e515eb397d18c7497e92c7fec7afc", "type": "electric_scooter", "name": "589e515eb397d18c7497e92c7fec7afc"}, {"is_disabled": 0, "is_reserved": 0, "fusion_lat": 0.0, "lat": 38.950873, "fusion_lon": 0.0, "rental_uris": {"ios": "https://dc.lft.to/lastmile_qr_scan", "android": "https://dc.lft.to/lastmile_qr_scan"}, "lon": -77.01230133333334, "bike_id": "91ebab627308c49ebae29b4bec9db534", "type": "electric_bike", "name": "91ebab627308c49ebae29b4bec9db534"}, {"is_disabled": 0, "is_reserved": 0, "fusion_lat": 0.0, "lat": 38.895121833333334, "fusion_lon": 0.0, "rental_uris": {"ios": "https://dc.lft.to/lastmile_qr_scan", "android": "https://dc.lft.to/lastmile_qr_scan"}, "lon": -77.0243775, "bike_id": "26a7766abbc27e9c03b807d30b03d417", "type": "electric_scooter", "name": "26a7766abbc27e9c03b807d30b03d417"}, {"is_disabled": 0, "is_reserved": 0, "fusion_lat": 0.0, "lat": 38.89504933333333, "fusion_lon": 0.0, "rental_uris": {"ios": "https://dc.lft.to/lastmile_qr_scan", "android": "https://dc.lft.to/lastmile_qr_scan"}, "lon": -77.02288, "bike_id": "a2502f6f509dd01e1d8a17311d689c46", "type": "electric_scooter", "name": "a2502f6f509dd01e1d8a17311d689c46"}, {"is_disabled": 0, "is_reserved": 0, "fusion_lat": 0.0, "lat": 38.916999833333335, "fusion_lon": 0.0, "rental_uris": {"ios": "https://dc.lft.to/lastmile_qr_scan", "android": "https://dc.lft.to/lastmile_qr_scan"}, "lon": -77.0285655, "bike_id": "dfaff6bd0f481a297536b54144bab0f7", "type": "electric_scooter", "name": "dfaff6bd0f481a297536b54144bab0f7"}, {"is_disabled": 0, "is_reserved": 0, "fusion_lat": 0.0, "lat": 38.936578833333336, "fusion_lon": 0.0, "rental_uris": {"ios": "https://dc.lft.to/lastmile_qr_scan", "android": "https://dc.lft.to/lastmile_qr_scan"}, "lon": -77.06612066666666, "bike_id": "64b1f048fbcc17287f63025217f388f1", "type": "electric_scooter", "name": "64b1f048fbcc17287f63025217f388f1"}, {"is_disabled": 0, "is_reserved": 0, "fusion_lat": 0.0, "lat": 38.9284935, "fusion_lon": 0.0, "rental_uris": {"ios": "https://dc.lft.to/lastmile_qr_scan", "android": "https://dc.lft.to/lastmile_qr_scan"}, "lon": -77.03734816666666, "bike_id": "b9b7c01ab94d5f13c76e1b06757ab66f", "type": "electric_scooter", "name": "b9b7c01ab94d5f13c76e1b06757ab66f"}, {"is_disabled": 0, "is_reserved": 0, "fusion_lat": 0.0, "lat": 38.92891083333333, "fusion_lon": 0.0, "rental_uris": {"ios": "https://dc.lft.to/lastmile_qr_scan", "android": "https://dc.lft.to/lastmile_qr_scan"}, "lon": -77.0194205, "bike_id": "c1d49381924c16998f6c8b1d0a794f01", "type": "electric_scooter", "name": "c1d49381924c16998f6c8b1d0a794f01"}, {"is_disabled": 0, "is_reserved": 0, "fusion_lat": 0.0, "lat": 38.920902, "fusion_lon": 0.0, "rental_uris": {"ios": "https://dc.lft.to/lastmile_qr_scan", "android": "https://dc.lft.to/lastmile_qr_scan"}, "lon": -77.02510066666666, "bike_id": "0aef783b5c3e1cc0d1aa2816ba35e542", "type": "electric_scooter", "name": "0aef783b5c3e1cc0d1aa2816ba35e542"}, {"is_disabled": 0, "is_reserved": 0, "fusion_lat": 0.0, "lat": 38.870691, "fusion_lon": 0.0, "rental_uris": {"ios": "https://dc.lft.to/lastmile_qr_scan", "android": "https://dc.lft.to/lastmile_qr_scan"}, "lon": -76.97943033333334, "bike_id": "8faa50a2460b2db373b55e33e040c1ff", "type": "electric_scooter", "name": "8faa50a2460b2db373b55e33e040c1ff"}, {"is_disabled": 0, "is_reserved": 0, "fusion_lat": 0.0, "lat": 38.89814783333333, "fusion_lon": 0.0, "rental_uris": {"ios": "https://dc.lft.to/lastmile_qr_scan", "android": "https://dc.lft.to/lastmile_qr_scan"}, "lon": -77.00206483333334, "bike_id": "fdb8f11b3372710a954cd729d4448f55", "type": "electric_scooter", "name": "fdb8f11b3372710a954cd729d4448f55"}, {"is_disabled": 0, "is_reserved": 0, "fusion_lat": 0.0, "lat": 38.918357666666665, "fusion_lon": 0.0, "rental_uris": {"ios": "https://dc.lft.to/lastmile_qr_scan", "android": "https://dc.lft.to/lastmile_qr_scan"}, "lon": -77.02301166666666, "bike_id": "a9a7f35b4c05009b7df5f86c4abfd10f", "type": "electric_scooter", "name": "a9a7f35b4c05009b7df5f86c4abfd10f"}, {"is_disabled": 0, "is_reserved": 0, "fusion_lat": 0.0, "lat": 38.9087, "fusion_lon": 0.0, "rental_uris": {"ios": "https://dc.lft.to/lastmile_qr_scan", "android": "https://dc.lft.to/lastmile_qr_scan"}, "lon": -77.003791, "bike_id": "d5aa8e56aee5d0bfe07e1e467d7b4133", "type": "electric_scooter", "name": "d5aa8e56aee5d0bfe07e1e467d7b4133"}, {"is_disabled": 0, "is_reserved": 0, "fusion_lat": 0.0, "lat": 38.90189816666667, "fusion_lon": 0.0, "rental_uris": {"ios": "https://dc.lft.to/lastmile_qr_scan", "android": "https://dc.lft.to/lastmile_qr_scan"}, "lon": -77.00062183333333, "bike_id": "87082e98d2851f0df9ee15e1ba79659a", "type": "electric_scooter", "name": "87082e98d2851f0df9ee15e1ba79659a"}, {"is_disabled": 0, "is_reserved": 0, "fusion_lat": 0.0, "lat": 38.89833266666667, "fusion_lon": 0.0, "rental_uris": {"ios": "https://dc.lft.to/lastmile_qr_scan", "android": "https://dc.lft.to/lastmile_qr_scan"}, "lon": -76.94634783333333, "bike_id": "1e5d1850294e8f9534c616fcecbf4b16", "type": "electric_scooter", "name": "1e5d1850294e8f9534c616fcecbf4b16"}, {"is_disabled": 0, "is_reserved": 0, "fusion_lat": 0.0, "lat": 38.92056183333333, "fusion_lon": 0.0, "rental_uris": {"ios": "https://dc.lft.to/lastmile_qr_scan", "android": "https://dc.lft.to/lastmile_qr_scan"}, "lon": -77.03239483333333, "bike_id": "0531a083505515fa9e9f03bce6edd229", "type": "electric_scooter", "name": "0531a083505515fa9e9f03bce6edd229"}, {"is_disabled": 0, "is_reserved": 0, "fusion_lat": 0.0, "lat": 38.9171385, "fusion_lon": 0.0, "rental_uris": {"ios": "https://dc.lft.to/lastmile_qr_scan", "android": "https://dc.lft.to/lastmile_qr_scan"}, "lon": -77.0323445, "bike_id": "ebce6f2bca63b49fe7ff0520c6e4b461", "type": "electric_scooter", "name": "ebce6f2bca63b49fe7ff0520c6e4b461"}, {"is_disabled": 0, "is_reserved": 0, "fusion_lat": 0.0, "lat": 38.951791166666666, "fusion_lon": 0.0, "rental_uris": {"ios": "https://dc.lft.to/lastmile_qr_scan", "android": "https://dc.lft.to/lastmile_qr_scan"}, "lon": -77.02614366666667, "bike_id": "15012d350d01b74de278b24da08674b0", "type": "electric_scooter", "name": "15012d350d01b74de278b24da08674b0"}, {"is_disabled": 0, "is_reserved": 0, "fusion_lat": 0.0, "lat": 38.918088833333336, "fusion_lon": 0.0, "rental_uris": {"ios": "https://dc.lft.to/lastmile_qr_scan", "android": "https://dc.lft.to/lastmile_qr_scan"}, "lon": -77.03458316666666, "bike_id": "4b9987c7b530db4cd8e0753e3a745727", "type": "electric_scooter", "name": "4b9987c7b530db4cd8e0753e3a745727"}, {"is_disabled": 0, "is_reserved": 0, "fusion_lat": 0.0, "lat": 38.90419216666667, "fusion_lon": 0.0, "rental_uris": {"ios": "https://dc.lft.to/lastmile_qr_scan", "android": "https://dc.lft.to/lastmile_qr_scan"}, "lon": -77.02411783333334, "bike_id": "b8bf1b71c816760c0684005222273f63", "type": "electric_scooter", "name": "b8bf1b71c816760c0684005222273f63"}, {"is_disabled": 0, "is_reserved": 0, "fusion_lat": 0.0, "lat": 38.9170155, "fusion_lon": 0.0, "rental_uris": {"ios": "https://dc.lft.to/lastmile_qr_scan", "android": "https://dc.lft.to/lastmile_qr_scan"}, "lon": -77.03344, "bike_id": "598a8cf5a5fa18064745b111261ae368", "type": "electric_scooter", "name": "598a8cf5a5fa18064745b111261ae368"}, {"is_disabled": 0, "is_reserved": 0, "fusion_lat": 0.0, "lat": 38.9141645, "fusion_lon": 0.0, "rental_uris": {"ios": "https://dc.lft.to/lastmile_qr_scan", "android": "https://dc.lft.to/lastmile_qr_scan"}, "lon": -77.03169266666667, "bike_id": "1f1476af885cad8910b658810066fbaf", "type": "electric_scooter", "name": "1f1476af885cad8910b658810066fbaf"}, {"is_disabled": 0, "is_reserved": 0, "fusion_lat": 0.0, "lat": 38.9291345, "fusion_lon": 0.0, "rental_uris": {"ios": "https://dc.lft.to/lastmile_qr_scan", "android": "https://dc.lft.to/lastmile_qr_scan"}, "lon": -77.02096116666667, "bike_id": "f8cc98eb512a205d0648b991498a2689", "type": "electric_scooter", "name": "f8cc98eb512a205d0648b991498a2689"}, {"is_disabled": 0, "is_reserved": 0, "fusion_lat": 0.0, "lat": 38.89972783333333, "fusion_lon": 0.0, "rental_uris": {"ios": "https://dc.lft.to/lastmile_qr_scan", "android": "https://dc.lft.to/lastmile_qr_scan"},