{"data": {"bikes": [{"type": "electric_scooter", "rental_uris": {"ios": "https://dc.lft.to/lastmile_qr_scan", "android": "https://dc.lft.to/lastmile_qr_scan"}, "lon": -76.98729066666667, "fusion_lon": 0.0, "is_disabled": 0, "lat": 38.867153333333334, "bike_id": "bdb9409d67863b6baf7bbf38d61afebe", "name": "bdb9409d67863b6baf7bbf38d61afebe", "is_reserved": 0, "fusion_lat": 0.0}, {"type": "electric_scooter", "rental_uris": {"ios": "https://dc.lft.to/lastmile_qr_scan", "android": "https://dc.lft.to/lastmile_qr_scan"}, "lon": -77.0266105, "fusion_lon": 0.0, "is_disabled": 0, "lat": 38.91705, "bike_id": "9688533a19946f8dc37598e4b4eb4698", "name": "9688533a19946f8dc37598e4b4eb4698", "is_reserved": 0, "fusion_lat": 0.0}, {"type": "electric_scooter", "rental_uris": {"ios": "https://dc.lft.to/lastmile_qr_scan", "android": "https://dc.lft.to/lastmile_qr_scan"}, "lon": -77.00983433333333, "fusion_lon": 0.0, "is_disabled": 0, "lat": 38.872925, "bike_id": "c8576c222041cebbd9c63145dd0a2dab", "name": "c8576c222041cebbd9c63145dd0a2dab", "is_reserved": 0, "fusion_lat": 0.0}, {"type": "electric_scooter", "rental_uris": {"ios": "https://dc.lft.to/lastmile_qr_scan", "android": "https://dc.lft.to/lastmile_qr_scan"}, "lon": -77.036248, "fusion_lon": 0.0, "is_disabled": 0, "lat": 38.93683716666666, "bike_id": "a214038099032359ed973d74fc9cf9aa", "name": "a214038099032359ed973d74fc9cf9aa", "is_reserved": 0, "fusion_lat": 0.0}, {"type": "electric_scooter", "rental_uris": {"ios": "https://dc.lft.to/lastmile_qr_scan", "android": "https://dc.lft.to/lastmile_qr_scan"}, "lon": -77.02801366666667, "fusion_lon": 0.0, "is_disabled": 0, "lat": 38.91098433333333, "bike_id": "0100f942fc8e06dab8fb85bec4655589", "name": "0100f942fc8e06dab8fb85bec4655589", "is_reserved": 0, "fusion_lat": 0.0}, {"type": "electric_scooter", "rental_uris": {"ios": "https://dc.lft.to/lastmile_qr_scan", "android": "https://dc.lft.to/lastmile_qr_scan"}, "lon": -77.04189033333333, "fusion_lon": 0.0, "is_disabled": 0, "lat": 38.92056316666667, "bike_id": "a0735e2f1210bc11e08909e467ea208a", "name": "a0735e2f1210bc11e08909e467ea208a", "is_reserved": 0, "fusion_lat": 0.0}, {"type": "electric_scooter", "rental_uris": {"ios": "https://dc.lft.to/lastmile_qr_scan", "android": "https://dc.lft.to/lastmile_qr_scan"}, "lon": -77.03247333333333, "fusion_lon": 0.0, "is_disabled": 0, "lat": 38.929397, "bike_id": "6967e7879d08ee2878d6d601deddecd2", "name": "6967e7879d08ee2878d6d601deddecd2", "is_reserved": 0, "fusion_lat": 0.0}, {"type": "electric_scooter", "rental_uris": {"ios": "https://dc.lft.to/lastmile_qr_scan", "android": "https://dc.lft.to/lastmile_qr_scan"}, "lon": -77.03176333333333, "fusion_lon": 0.0, "is_disabled": 0, "lat": 38.897672666666665, "bike_id": "272e5517ffd2ce6bd4cc02e1987c776b", "name": "272e5517ffd2ce6bd4cc02e1987c776b", "is_reserved": 0, "fusion_lat": 0.0}, {"type": "electric_bike", "rental_uris": {"ios": "https://dc.lft.to/lastmile_qr_scan", "android": "https://dc.lft.to/lastmile_qr_scan"}, "lon": -77.05336466666667, "fusion_lon": 0.0, "is_disabled": 0, "lat": 38.90244, "bike_id": "95533dfeaccc1a0843405dc8f9de4441", "name": "95533dfeaccc1a0843405dc8f9de4441", "is_reserved": 0, "fusion_lat": 0.0}, {"type": "electric_scooter", "rental_uris": {"ios": "https://dc.lft.to/lastmile_qr_scan", "android": "https://dc.lft.to/lastmile_qr_scan"}, "lon": -77.02499033333334, "fusion_lon": 0.0, "is_disabled": 0, "lat": 38.91980983333333, "bike_id": "e899395eb6a34ecb20f1ffd4e399c390", "name": "e899395eb6a34ecb20f1ffd4e399c390", "is_reserved": 0, "fusion_lat": 0.0}, {"type": "electric_scooter", "rental_uris": {"ios": "https://dc.lft.to/lastmile_qr_scan", "android": "https://dc.lft.to/lastmile_qr_scan"}, "lon": -76.986915, "fusion_lon": 0.0, "is_disabled": 0, "lat": 38.86255283333333, "bike_id": "06d0c3c9420f95bea25ebe512aea94d9", "name": "06d0c3c9420f95bea25ebe512aea94d9", "is_reserved": 0, "fusion_lat": 0.0}, {"type": "electric_scooter", "rental_uris": {"ios": "https://dc.lft.to/lastmile_qr_scan", "android": "https://dc.lft.to/lastmile_qr_scan"}, "lon": -77.04239916666667, "fusion_lon": 0.0, "is_disabled": 0, "lat": 38.92223366666666, "bike_id": "7045bfe8e0efba4c60808a8a079cc262", "name": "7045bfe8e0efba4c60808a8a079cc262", "is_reserved": 0, "fusion_lat": 0.0}, {"type": "electric_scooter", "rental_uris": {"ios": "https://dc.lft.to/lastmile_qr_scan", "android": "https://dc.lft.to/lastmile_qr_scan"}, "lon": -77.04679683333333, "fusion_lon": 0.0, "is_disabled": 0, "lat": 38.91710483333333, "bike_id": "3308b2f4135c9f41ffbff114b021c729", "name": "3308b2f4135c9f41ffbff114b021c729", "is_reserved": 0, "fusion_lat": 0.0}, {"type": "electric_scooter", "rental_uris": {"ios": "https://dc.lft.to/lastmile_qr_scan", "android": "https://dc.lft.to/lastmile_qr_scan"}, "lon": -77.03500866666667, "fusion_lon": 0.0, "is_disabled": 0, "lat": 38.92486533333334, "bike_id": "b8a0ccdf058d98fb8a0c68fdb7112df9", "name": "b8a0ccdf058d98fb8a0c68fdb7112df9", "is_reserved": 0, "fusion_lat": 0.0}, {"type": "electric_bike", "rental_uris": {"ios": "https://dc.lft.to/lastmile_qr_scan", "android": "https://dc.lft.to/lastmile_qr_scan"}, "lon": -77.002811, "fusion_lon": 0.0, "is_disabled": 0, "lat": 38.911809833333336, "bike_id": "dd64b4eafcbf6821c0dfc2ca7b069d85", "name": "dd64b4eafcbf6821c0dfc2ca7b069d85", "is_reserved": 0, "fusion_lat": 0.0}, {"type": "electric_bike", "rental_uris": {"ios": "https://dc.lft.to/lastmile_qr_scan", "android": "https://dc.lft.to/lastmile_qr_scan"}, "lon": -77.034028, "fusion_lon": 0.0, "is_disabled": 0, "lat": 38.919214833333335, "bike_id": "d1f674829e64dc8601ae2c27bd93fc31", "name": "d1f674829e64dc8601ae2c27bd93fc31", "is_reserved": 0, "fusion_lat": 0.0}, {"type": "electric_scooter", "rental_uris": {"ios": "https://dc.lft.to/lastmile_qr_scan", "android": "https://dc.lft.to/lastmile_qr_scan"}, "lon": -76.93385533333333, "fusion_lon": 0.0, "is_disabled": 0, "lat": 38.895490833333334, "bike_id": "4c4d350fed96daf16f76d446a09f726f", "name": "4c4d350fed96daf16f76d446a09f726f", "is_reserved": 0, "fusion_lat": 0.0}, {"type": "electric_scooter", "rental_uris": {"ios": "https://dc.lft.to/lastmile_qr_scan", "android": "https://dc.lft.to/lastmile_qr_scan"}, "lon": -77.01773166666666, "fusion_lon": 0.0, "is_disabled": 0, "lat": 38.887155166666666, "bike_id": "16df51a54ff5b98ba5e65d6a74387828", "name": "16df51a54ff5b98ba5e65d6a74387828", "is_reserved": 0, "fusion_lat": 0.0}, {"type": "electric_scooter", "rental_uris": {"ios": "https://dc.lft.to/lastmile_qr_scan", "android": "https://dc.lft.to/lastmile_qr_scan"}, "lon": -77.04275316666667, "fusion_lon": 0.0, "is_disabled": 0, "lat": 38.91030383333333, "bike_id": "2e04982cdac0cbe9e1c1625b9fc5646b", "name": "2e04982cdac0cbe9e1c1625b9fc5646b", "is_reserved": 0, "fusion_lat": 0.0}, {"type": "electric_scooter", "rental_uris": {"ios": "https://dc.lft.to/lastmile_qr_scan", "android": "https://dc.lft.to/lastmile_qr_scan"}, "lon": -77.0220165, "fusion_lon": 0.0, "is_disabled": 0, "lat": 38.91132483333333, "bike_id": "0ee8bbeadd5a1cadc533c55509618966", "name": "0ee8bbeadd5a1cadc533c55509618966", "is_reserved": 0, "fusion_lat": 0.0}, {"type": "electric_scooter", "rental_uris": {"ios": "https://dc.lft.to/lastmile_qr_scan", "android": "https://dc.lft.to/lastmile_qr_scan"}, "lon": -77.03334683333334, "fusion_lon": 0.0, "is_disabled": 0, "lat": 38.892549, "bike_id": "6b018a08df7306e1aaf3ca524317cb3c", "name": "6b018a08df7306e1aaf3ca524317cb3c", "is_reserved": 0, "fusion_lat": 0.0}, {"type": "electric_scooter", "rental_uris": {"ios": "https://dc.lft.to/lastmile_qr_scan", "android": "https://dc.lft.to/lastmile_qr_scan"}, "lon": -76.98005383333333, "fusion_lon": 0.0, "is_disabled": 0, "lat": 38.853183333333334, "bike_id": "a557df13dbd700e7d298e1ed944518ef", "name": "a557df13dbd700e7d298e1ed944518ef", "is_reserved": 0, "fusion_lat": 0.0}, {"type": "electric_scooter", "rental_uris": {"ios": "https://dc.lft.to/lastmile_qr_scan", "android": "https://dc.lft.to/lastmile_qr_scan"}, "lon": -77.03458866666666, "fusion_lon": 0.0, "is_disabled": 0, "lat": 38.918152666666664, "bike_id": "359de797cfa992dcfcf948c619a6c8de", "name": "359de797cfa992dcfcf948c619a6c8de", "is_reserved": 0, "fusion_lat": 0.0}, {"type": "electric_scooter", "rental_uris": {"ios": "https://dc.lft.to/lastmile_qr_scan", "android": "https://dc.lft.to/lastmile_qr_scan"}, "lon": -77.02971333333333, "fusion_lon": 0.0, "is_disabled": 0, "lat": 38.92324833333333, "bike_id": "3a4cf71cd1f883e6f6faf54377bd7e99", "name": "3a4cf71cd1f883e6f6faf54377bd7e99", "is_reserved": 0, "fusion_lat": 0.0}, {"type": "electric_scooter", "rental_uris": {"ios": "https://dc.lft.to/lastmile_qr_scan", "android": "https://dc.lft.to/lastmile_qr_scan"}, "lon": -77.03205916666667, "fusion_lon": 0.0, "is_disabled": 0, "lat": 38.9142605, "bike_id": "4837eed2d49f7e8e01cd3af76bd0147b", "name": "4837eed2d49f7e8e01cd3af76bd0147b", "is_reserved": 0, "fusion_lat": 0.0}, {"type": "electric_scooter", "rental_uris": {"ios": "https://dc.lft.to/lastmile_qr_scan", "android": "https://dc.lft.to/lastmile_qr_scan"}, "lon": -77.04353933333333, "fusion_lon": 0.0, "is_disabled": 0, "lat": 38.90266066666667, "bike_id": "493d1b765c7cc41c46886c629d2eb1fe", "name": "493d1b765c7cc41c46886c629d2eb1fe", "is_reserved": 0, "fusion_lat": 0.0}, {"type": "electric_scooter", "rental_uris": {"ios": "https://dc.lft.to/lastmile_qr_scan", "android": "https://dc.lft.to/lastmile_qr_scan"}, "lon": -76.98959016666667, "fusion_lon": 0.0, "is_disabled": 0, "lat": 38.909443333333336, "bike_id": "103d86a6123c30c0de1916ce7d9a4ea2", "name": "103d86a6123c30c0de1916ce7d9a4ea2", "is_reserved": 0, "fusion_lat": 0.0}, {"type": "electric_scooter", "rental_uris": {"ios": "https://dc.lft.to/lastmile_qr_scan", "android": "https://dc.lft.to/lastmile_qr_scan"}, "lon": -76.93759033333333, "fusion_lon": 0.0, "is_disabled": 0, "lat": 38.890433, "bike_id": "1c0836fb0556d121ebafb18a0ec16811", "name": "1c0836fb0556d121ebafb18a0ec16811", "is_reserved": 0, "fusion_lat": 0.0}, {"type": "electric_scooter", "rental_uris": {"ios": "https://dc.lft.to/lastmile_qr_scan", "android": "https://dc.lft.to/lastmile_qr_scan"}, "lon": -77.03431516666667, "fusion_lon": 0.0, "is_disabled": 0, "lat": 38.907417, "bike_id": "b45bb8e6a5a61167ec0b96ed3316a953", "name": "b45bb8e6a5a61167ec0b96ed3316a953", "is_reserved": 0, "fusion_lat": 0.0}, {"type": "electric_scooter", "rental_uris": {"ios": "https://dc.lft.to/lastmile_qr_scan", "android": "https://dc.lft.to/lastmile_qr_scan"}, "lon": -77.0110595, "fusion_lon": 0.0, "is_disabled": 0, "lat": 38.903509, "bike_id": "a9fc588dd9f6fd9a93ff5e62763bac00", "name": "a9fc588dd9f6fd9a93ff5e62763bac00", "is_reserved": 0, "fusion_lat": 0.0}, {"type": "electric_scooter", "rental_uris": {"ios": "https://dc.lft.to/lastmile_qr_scan", "android": "https://dc.lft.to/lastmile_qr_scan"}, "lon": -77.02562716666667, "fusion_lon": 0.0, "is_disabled": 0, "lat": 38.923802333333335, "bike_id": "dbb91b41a5f27a8953589998a71ee683", "name": "dbb91b41a5f27a8953589998a71ee683", "is_reserved": 0, "fusion_lat": 0.0}, {"type": "electric_scooter", "rental_uris": {"ios": "https://dc.lft.to/lastmile_qr_scan", "android": "https://dc.lft.to/lastmile_qr_scan"}, "lon": -76.983622, "fusion_lon": 0.0, "is_disabled": 0, "lat": 38.887499, "bike_id": "ac080180e0b7aaef558532904a23374f", "name": "ac080180e0b7aaef558532904a23374f", "is_reserved": 0, "fusion_lat": 0.0}, {"type": "electric_bike", "rental_uris": {"ios": "https://dc.lft.to/lastmile_qr_scan", "android": "https://dc.lft.to/lastmile_qr_scan"}, "lon": -76.9759365, "fusion_lon": 0.0, "is_disabled": 0, "lat": 38.84039883333333, "bike_id": "fde783d17f8304db24c067e3a4a1ca6a", "name": "fde783d17f8304db24c067e3a4a1ca6a", "is_reserved": 0, "fusion_lat": 0.0}, {"type": "electric_scooter", "rental_uris": {"ios": "https://dc.lft.to/lastmile_qr_scan", "android": "https://dc.lft.to/lastmile_qr_scan"}, "lon": -77.05805283333333, "fusion_lon": 0.0, "is_disabled": 0, "lat": 38.902834666666664, "bike_id": "8f3dfd0abbf23f1edc8dbb9bd4c417c3", "name": "8f3dfd0abbf23f1edc8dbb9bd4c417c3", "is_reserved": 0, "fusion_lat": 0.0}, {"type": "electric_scooter", "rental_uris": {"ios": "https://dc.lft.to/lastmile_qr_scan", "android": "https://dc.lft.to/lastmile_qr_scan"}, "lon": -77.0402485, "fusion_lon": 0.0, "is_disabled": 0, "lat": 38.924426833333335, "bike_id": "85fd72163a554ac7cda0aa6159543d95", "name": "85fd72163a554ac7cda0aa6159543d95", "is_reserved": 0, "fusion_lat": 0.0}, {"type": "electric_scooter", "rental_uris": {"ios": "https://dc.lft.to/lastmile_qr_scan", "android": "https://dc.lft.to/lastmile_qr_scan"}, "lon": -76.98713816666667, "fusion_lon": 0.0, "is_disabled": 0, "lat": 38.86699766666667, "bike_id": "fb7b9b4802f94d857c776167f7132016", "name": "fb7b9b4802f94d857c776167f7132016", "is_reserved": 0, "fusion_lat": 0.0}, {"type": "electric_bike", "rental_uris": {"ios": "https://dc.lft.to/lastmile_qr_scan", "android": "https://dc.lft.to/lastmile_qr_scan"}, "lon": -76.995701, "fusion_lon": 0.0, "is_disabled": 0, "lat": 38.8846725, "bike_id": "afb4426efe5f2c590d7dec41d2d342a3", "name": "afb4426efe5f2c590d7dec41d2d342a3", "is_reserved": 0, "fusion_lat": 0.0}, {"type": "electric_scooter", "rental_uris": {"ios": "https://dc.lft.to/lastmile_qr_scan", "android": "https://dc.lft.to/lastmile_qr_scan"}, "lon": -77.03258983333333, "fusion_lon": 0.0, "is_disabled": 0, "lat": 38.904466166666666, "bike_id": "c9cbbe73dc91fb7c1877abc6397cdd41", "name": "c9cbbe73dc91fb7c1877abc6397cdd41", "is_reserved": 0, "fusion_lat": 0.0}, {"type": "electric_scooter", "rental_uris": {"ios": "https://dc.lft.to/lastmile_qr_scan", "android": "https://dc.lft.to/lastmile_qr_scan"}, "lon": -77.072712, "fusion_lon": 0.0, "is_disabled": 0, "lat": 38.9352835, "bike_id": "cc33652b53a946e122bf48824ac72ba5", "name": "cc33652b53a946e122bf48824ac72ba5", "is_reserved": 0, "fusion_lat": 0.0}, {"type": "electric_scooter", "rental_uris": {"ios": "https://dc.lft.to/lastmile_qr_scan", "android": "https://dc.lft.to/lastmile_qr_scan"}, "lon": -77.02714, "fusion_lon": 0.0, "is_disabled": 0, "lat": 38.9008255, "bike_id": "2a4435b8da1d42e6e22a69086873d9d4", "name": "2a4435b8da1d42e6e22a69086873d9d4", "is_reserved": 0, "fusion_lat": 0.0}, {"type": "electric_scooter", "rental_uris": {"ios": "https://dc.lft.to/lastmile_qr_scan", "android": "https://dc.lft.to/lastmile_qr_scan"}, "lon": -77.01141183333333, "fusion_lon": 0.0, "is_disabled": 0, "lat": 38.90648683333333, "bike_id": "6bb5d8451f00d4e1a06d1b9aa8921d3d", "name": "6bb5d8451f00d4e1a06d1b9aa8921d3d", "is_reserved": 0, "fusion_lat": 0.0}, {"type": "electric_scooter", "rental_uris": {"ios": "https://dc.lft.to/lastmile_qr_scan", "android": "https://dc.lft.to/lastmile_qr_scan"}, "lon": -77.01370716666666, "fusion_lon": 0.0, "is_disabled": 0, "lat": 38.89226333333333, "bike_id": "5a274099136c711d474428636d765e62", "name": "5a274099136c711d474428636d765e62", "is_reserved": 0, "fusion_lat": 0.0}, {"type": "electric_scooter", "rental_uris": {"ios": "https://dc.lft.to/lastmile_qr_scan", "android": "https://dc.lft.to/lastmile_qr_scan"}, "lon": -77.00598833333333, "fusion_lon": 0.0, "is_disabled": 0, "lat": 38.90572083333333, "bike_id": "2627b1e66329ff8d8941547fc52c1a1d", "name": "2627b1e66329ff8d8941547fc52c1a1d", "is_reserved": 0, "fusion_lat": 0.0}, {"type": "electric_scooter", "rental_uris": {"ios": "https://dc.lft.to/lastmile_qr_scan", "android": "https://dc.lft.to/lastmile_qr_scan"}, "lon": -77.01800333333334, "fusion_lon": 0.0, "is_disabled": 0, "lat": 38.9213435, "bike_id": "ec672d1a8b4e6a95f6bfc445777720fc", "name": "ec672d1a8b4e6a95f6bfc445777720fc", "is_reserved": 0, "fusion_lat": 0.0}, {"type": "electric_bike", "rental_uris": {"ios": "https://dc.lft.to/lastmile_qr_scan", "android": "https://dc.lft.to/lastmile_qr_scan"}, "lon": -77.04982366666667, "fusion_lon": 0.0, "is_disabled": 0, "lat": 39.06296116666667, "bike_id": "5bcadc5f4fe21b69df70c6f800d91a9b", "name": "5bcadc5f4fe21b69df70c6f800d91a9b", "is_reserved": 0, "fusion_lat": 0.0}, {"type": "electric_scooter", "rental_uris": {"ios": "https://dc.lft.to/lastmile_qr_scan", "android": "https://dc.lft.to/lastmile_qr_scan"}, "lon": -77.0373245, "fusion_lon": 0.0, "is_disabled": 0, "lat": 38.92846766666667, "bike_id": "7adab661f5e436e0812bac2855c6f4b3", "name": "7adab661f5e436e0812bac2855c6f4b3", "is_reserved": 0, "fusion_lat": 0.0}, {"type": "electric_scooter", "rental_uris": {"ios": "https://dc.lft.to/lastmile_qr_scan", "android": "https://dc.lft.to/lastmile_qr_scan"}, "lon": -77.03148666666667, "fusion_lon": 0.0, "is_disabled": 0, "lat": 38.9156145, "bike_id": "35ac613d7e28ca8afccff3280bea70d9", "name": "35ac613d7e28ca8afccff3280bea70d9", "is_reserved": 0, "fusion_lat": 0.0}, {"type": "electric_scooter", "rental_uris": {"ios": "https://dc.lft.to/lastmile_qr_scan", "android": "https://dc.lft.to/lastmile_qr_scan"}, "lon": -77.03969316666667, "fusion_lon": 0.0, "is_disabled": 0, "lat": 38.919836333333336, "bike_id": "6def61c89d3e167cb8111806dd8af0f3", "name": "6def61c89d3e167cb8111806dd8af0f3", "is_reserved": 0, "fusion_lat": 0.0}, {"type": "electric_scooter", "rental_uris": {"ios": "https://dc.lft.to/lastmile_qr_scan", "android": "https://dc.lft.to/lastmile_qr_scan"}, "lon": -77.02979516666667, "fusion_lon": 0.0, "is_disabled": 0, "lat": 38.915665833333335, "bike_id": "5b215a0bcefc86b551855f2363311cf3", "name": "5b215a0bcefc86b551855f2363311cf3", "is_reserved": 0, "fusion_lat": 0.0}, {"type": "electric_scooter", "rental_uris": {"ios": "https://dc.lft.to/lastmile_qr_scan", "android": "https://dc.lft.to/lastmile_qr_scan"}, "lon": -77.03166916666666, "fusion_lon": 0.0, "is_disabled": 0, "lat": 38.896194, "bike_id": "24137dce2448b3487cfeb629f90c56d1", "name": "24137dce2448b3487cfeb629f90c56d1", "is_reserved": 0, "fusion_lat": 0.0}, {"type": "electric_scooter", "rental_uris": {"ios": "https://dc.lft.to/lastmile_qr_scan", "android": "https://dc.lft.to/lastmile_qr_scan"}, "lon": -77.00610466666667, "fusion_lon": 0.0, "is_disabled": 0, "lat": 38.906368, "bike_id": "4bb59fb0cd9d612f59044febc425510a", "name": "4bb59fb0cd9d612f59044febc425510a", "is_reserved": 0, "fusion_lat": 0.0}, {"type": "electric_scooter", "rental_uris": {"ios": "https://dc.lft.to/lastmile_qr_scan", "android": "https://dc.lft.to/lastmile_qr_scan"}, "lon": -77.03280216666667, "fusion_lon": 0.0, "is_disabled": 0, "lat": 38.92926816666667, "bike_id": "6ddc68e8baa6d2aebdfc064950336875", "name": "6ddc68e8baa6d2aebdfc064950336875", "is_reserved": 0, "fusion_lat": 0.0}, {"type": "electric_scooter", "rental_uris": {"ios": "https://dc.lft.to/lastmile_qr_scan", "android": "https://dc.lft.to/lastmile_qr_scan"}, "lon": -77.01149783333334, "fusion_lon": 0.0, "is_disabled": 0, "lat": 38.90309883333333, "bike_id": "04c51fca487222466b730ffe860c1fec", "name": "04c51fca487222466b730ffe860c1fec", "is_reserved": 0, "fusion_lat": 0.0}, {"type": "electric_scooter", "rental_uris": {"ios": "https://dc.lft.to/lastmile_qr_scan", "android": "https://dc.lft.to/lastmile_qr_scan"}, "lon": -77.03730583333333, "fusion_lon": 0.0, "is_disabled": 0, "lat": 38.9171035, "bike_id": "a078baeef74d8d7c5daf73b027f5f0ea", "name": "a078baeef74d8d7c5daf73b027f5f0ea", "is_reserved": 0, "fusion_lat": 0.0}, {"type": "electric_scooter", "rental_uris": {"ios": "https://dc.lft.to/lastmile_qr_scan", "android": "https://dc.lft.to/lastmile_qr_scan"}, "lon": -77.03544316666667, "fusion_lon": 0.0, "is_disabled": 0, "lat": 38.926427, "bike_id": "da52d436f58fa41035f33a6777605b73", "name": "da52d436f58fa41035f33a6777605b73", "is_reserved": 0, "fusion_lat": 0.0}, {"type": "electric_scooter", "rental_uris": {"ios": "https://dc.lft.to/lastmile_qr_scan", "android": "https://dc.lft.to/lastmile_qr_scan"}, "lon": -77.02715083333334, "fusion_lon": 0.0, "is_disabled": 0, "lat": 38.90736916666667, "bike_id": "27fc45ade500671e924d43525d3078dc", "name": "27fc45ade500671e924d43525d3078dc", "is_reserved": 0, "fusion_lat": 0.0}, {"type": "electric_scooter", "rental_uris": {"ios": "https://dc.lft.to/lastmile_qr_scan", "android": "https://dc.lft.to/lastmile_qr_scan"}, "lon": -77.04328966666667, "fusion_lon": 0.0, "is_disabled": 0, "lat": 38.8922415, "bike_id": "ce56424f59dc9df3c8bf5214adbef410", "name": "ce56424f59dc9df3c8bf5214adbef410", "is_reserved": 0, "fusion_lat": 0.0}, {"type": "electric_scooter", "rental_uris": {"ios": "https://dc.lft.to/lastmile_qr_scan", "android": "https://dc.lft.to/lastmile_qr_scan"}, "lon": -77.0221965, "fusion_lon": 0.0, "is_disabled": 0, "lat": 38.91274966666667, "bike_id": "9334e63bb645afd9113b6cb508a0b2d3", "name": "9334e63bb645afd9113b6cb508a0b2d3", "is_reserved": 0, "fusion_lat": 0.0}, {"type": "electric_scooter", "rental_uris": {"ios": "https://dc.lft.to/lastmile_qr_scan", "android": "https://dc.lft.to/lastmile_qr_scan"}, "lon": -77.0278635, "fusion_lon": 0.0, "is_disabled": 0, "lat": 38.89743966666666, "bike_id": "6c13bc27d7b24c177806a2b94add5cf9", "name": "6c13bc27d7b24c177806a2b94add5cf9", "is_reserved": 0, "fusion_lat": 0.0}, {"type": "electric_scooter", "rental_uris": {"ios": "https://dc.lft.to/lastmile_qr_scan", "android": "https://dc.lft.to/lastmile_qr_scan"}, "lon": -77.01372066666667, "fusion_lon": 0.0, "is_disabled": 0, "lat": 38.89224183333333, "bike_id": "8c71893f8fb3801242fc2f5b8b305c71", "name": "8c71893f8fb3801242fc2f5b8b305c71", "is_reserved": 0, "fusion_lat": 0.0}, {"type": "electric_scooter", "rental_uris": {"ios": "https://dc.lft.to/lastmile_qr_scan", "android": "https://dc.lft.to/lastmile_qr_scan"}, "lon": -77.0280415, "fusion_lon": 0.0, "is_disabled": 0, "lat": 38.892318, "bike_id": "59e3f075aaf4952afa2f0bd67394562b", "name": "59e3f075aaf4952afa2f0bd67394562b", "is_reserved": 0, "fusion_lat": 0.0}, {"type": "electric_scooter", "rental_uris": {"ios": "https://dc.lft.to/lastmile_qr_scan", "android": "https://dc.lft.to/lastmile_qr_scan"}, "lon": -77.03342333333333, "fusion_lon": 0.0, "is_disabled": 0, "lat": 38.892236, "bike_id": "e6130aeb55d3efc95c3cfdc0609bade1", "name": "e6130aeb55d3efc95c3cfdc0609bade1", "is_reserved": 0, "fusion_lat": 0.0}, {"type": "electric_scooter", "rental_uris": {"ios": "https://dc.lft.to/lastmile_qr_scan", "android": "https://dc.lft.to/lastmile_qr_scan"}, "lon": -76.9892565, "fusion_lon": 0.0, "is_disabled": 0, "lat": 38.84077283333333, "bike_id": "afa45367ae31bb394e38199b683e431c", "name": "afa45367ae31bb394e38199b683e431c", "is_reserved": 0, "fusion_lat": 0.0}, {"type": "electric_scooter", "rental_uris": {"ios": "https://dc.lft.to/lastmile_qr_scan", "android": "https://dc.lft.to/lastmile_qr_scan"}, "lon": -77.00388266666667, "fusion_lon": 0.0, "is_disabled": 0, "lat": 38.910651333333334, "bike_id": "6d52dba5c01f8b2a4d1a59fbb0725f53", "name": "6d52dba5c01f8b2a4d1a59fbb0725f53", "is_reserved": 0, "fusion_lat": 0.0}, {"type": "electric_scooter", "rental_uris": {"ios": "https://dc.lft.to/lastmile_qr_scan", "android": "https://dc.lft.to/lastmile_qr_scan"}, "lon": -77.03675116666666, "fusion_lon": 0.0, "is_disabled": 0, "lat": 38.917088166666666, "bike_id": "22ac460ff89df7d15b4477b85678c71e", "name": "22ac460ff89df7d15b4477b85678c71e", "is_reserved": 0, "fusion_lat": 0.0}, {"type": "electric_bike", "rental_uris": {"ios": "https://dc.lft.to/lastmile_qr_scan", "android": "https://dc.lft.to/lastmile_qr_scan"}, "lon": -76.93227733333333, "fusion_lon": 0.0, "is_disabled": 0, "lat": 38.86598883333333, "bike_id": "9216bad18fb773843720ba72895c26e2", "name": "9216bad18fb773843720ba72895c26e2", "is_reserved": 0, "fusion_lat": 0.0}, {"type": "electric_bike", "rental_uris": {"ios": "https://dc.lft.to/lastmile_qr_scan", "android": "https://dc.lft.to/lastmile_qr_scan"}, "lon": -77.09480266666667, "fusion_lon": 0.0, "is_disabled": 0, "lat": 38.807552666666666, "bike_id": "f8063ee5d9a846449788a57c843f69e9", "name": "f8063ee5d9a846449788a57c843f69e9", "is_reserved": 0, "fusion_lat": 0.0}, {"type": "electric_bike", "rental_uris": {"ios": "https://dc.lft.to/lastmile_qr_scan", "android": "https://dc.lft.to/lastmile_qr_scan"}, "lon": -77.12962516666667, "fusion_lon": 0.0, "is_disabled": 0, "lat": 38.852174, "bike_id": "cc695c667175c6c43cb43f3db0835f75", "name": "cc695c667175c6c43cb43f3db0835f75", "is_reserved": 0, "fusion_lat": 0.0}, {"type": "electric_scooter", "rental_uris": {"ios": "https://dc.lft.to/lastmile_qr_scan", "android": "https://dc.lft.to/lastmile_qr_scan"}, "lon": -77.03181533333333, "fusion_lon": 0.0, "is_disabled": 0, "lat": 38.919260666666666, "bike_id": "2a0e88c583d446725c2511d9a05f3354", "name": "2a0e88c583d446725c2511d9a05f3354", "is_reserved": 0, "fusion_lat": 0.0}, {"type": "electric_scooter", "rental_uris": {"ios": "https://dc.lft.to/lastmile_qr_scan", "android": "https://dc.lft.to/lastmile_qr_scan"}, "lon": -77.03195233333334, "fusion_lon": 0.0, "is_disabled": 0, "lat": 38.909769833333335, "bike_id": "a60e4e43e224f679ae447b999aba5eff", "name": "a60e4e43e224f679ae447b999aba5eff", "is_reserved": 0, "fusion_lat": 0.0}, {"type": "electric_scooter", "rental_uris": {"ios": "https://dc.lft.to/lastmile_qr_scan", "android": "https://dc.lft.to/lastmile_qr_scan"}, "lon": -77.02387666666667, "fusion_lon": 0.0, "is_disabled": 0, "lat": 38.89856133333333, "bike_id": "6f0c06b9d42f2c4834fa19e1b34a3dfb", "name": "6f0c06b9d42f2c4834fa19e1b34a3dfb", "is_reserved": 0, "fusion_lat": 0.0}, {"type": "electric_scooter", "rental_uris": {"ios": "https://dc.lft.to/lastmile_qr_scan", "android": "https://dc.lft.to/lastmile_qr_scan"}, "lon": -77.01762833333333, "fusion_lon": 0.0, "is_disabled": 0, "lat": 38.87676316666666, "bike_id": "ccdfb6ea898eff3ce5eedaa961a57dd1", "name": "ccdfb6ea898eff3ce5eedaa961a57dd1", "is_reserved": 0, "fusion_lat": 0.0}, {"type": "electric_scooter", "rental_uris": {"ios": "https://dc.lft.to/lastmile_qr_scan", "android": "https://dc.lft.to/lastmile_qr_scan"}, "lon": -77.02624, "fusion_lon": 0.0, "is_disabled": 0, "lat": 38.89219883333333, "bike_id": "ac57ce2a66fefa5d582f94b5dd9d0a88", "name": "ac57ce2a66fefa5d582f94b5dd9d0a88", "is_reserved": 0, "fusion_lat": 0.0}, {"type": "electric_scooter", "rental_uris": {"ios": "https://dc.lft.to/lastmile_qr_scan", "android": "https://dc.lft.to/lastmile_qr_scan"}, "lon": -77.03963433333334, "fusion_lon": 0.0, "is_disabled": 0, "lat": 38.917034, "bike_id": "38afd86afd90c84933fd26ad5ecac2ab", "name": "38afd86afd90c84933fd26ad5ecac2ab", "is_reserved": 0, "fusion_lat": 0.0}, {"type": "electric_scooter", "rental_uris": {"ios": "https://dc.lft.to/lastmile_qr_scan", "android": "https://dc.lft.to/lastmile_qr_scan"}, "lon": -76.99034, "fusion_lon": 0.0, "is_disabled": 0, "lat": 38.86524133333333, "bike_id": "7a3888159dc44e2bffd812ef0582da01", "name": "7a3888159dc44e2bffd812ef0582da01", "is_reserved": 0, "fusion_lat": 0.0}, {"type": "electric_scooter", "rental_uris": {"ios": "https://dc.lft.to/lastmile_qr_scan", "android": "https://dc.lft.to/lastmile_qr_scan"}, "lon": -77.04019933333333, "fusion_lon": 0.0, "is_disabled": 0, "lat": 38.92451, "bike_id": "5ddcefedf060ba6c82f7a632b8b87252", "name": "5ddcefedf060ba6c82f7a632b8b87252", "is_reserved": 0, "fusion_lat": 0.0}, {"type": "electric_scooter", "rental_uris": {"ios": "https://dc.lft.to/lastmile_qr_scan", "android": "https://dc.lft.to/lastmile_qr_scan"}, "lon": -77.0147485, "fusion_lon": 0.0, "is_disabled": 0, "lat": 38.8763975, "bike_id": "f7ce2a295ba12d9482ca7f0b2a042777", "name": "f7ce2a295ba12d9482ca7f0b2a042777", "is_reserved": 0, "fusion_lat": 0.0}, {"type": "electric_scooter", "rental_uris": {"ios": "https://dc.lft.to/lastmile_qr_scan", "android": "https://dc.lft.to/lastmile_qr_scan"}, "lon": -77.043406, "fusion_lon": 0.0, "is_disabled": 0, "lat": 38.90461616666666, "bike_id": "7a35cd36e2b9f536411a64210c1d468a", "name": "7a35cd36e2b9f536411a64210c1d468a", "is_reserved": 0, "fusion_lat": 0.0}, {"type": "electric_bike", "rental_uris": {"ios": "https://dc.lft.to/lastmile_qr_scan", "android": "https://dc.lft.to/lastmile_qr_scan"}, "lon": -76.98106483333333, "fusion_lon": 0.0, "is_disabled": 0, "lat": 38.953550666666665, "bike_id": "97db07b93e374c319223f5dfdd791793", "name": "97db07b93e374c319223f5dfdd791793", "is_reserved": 0, "fusion_lat": 0.0}, {"type": "electric_scooter", "rental_uris": {"ios": "https://dc.lft.to/lastmile_qr_scan", "android": "https://dc.lft.to/lastmile_qr_scan"}, "lon": -77.0463645, "fusion_lon": 0.0, "is_disabled": 0, "lat": 38.91565166666667, "bike_id": "f09bf3ed2bf50bea252c5d12ccb08516", "name": "f09bf3ed2bf50bea252c5d12ccb08516", "is_reserved": 0, "fusion_lat": 0.0}, {"type": "electric_scooter", "rental_uris": {"ios": "https://dc.lft.to/lastmile_qr_scan", "android": "https://dc.lft.to/lastmile_qr_scan"}, "lon": -77.04381166666667, "fusion_lon": 0.0, "is_disabled": 0, "lat": 38.93334316666667, "bike_id": "4729196b8f50b46be3c8d32eb1647432", "name": "4729196b8f50b46be3c8d32eb1647432", "is_reserved": 0, "fusion_lat": 0.0}, {"type": "electric_scooter", "rental_uris": {"ios": "https://dc.lft.to/lastmile_qr_scan", "android": "https://dc.lft.to/lastmile_qr_scan"}, "lon": -77.04009783333333, "fusion_lon": 0.0, "is_disabled": 0, "lat": 38.909893, "bike_id": "1e64d7ed224a1c897d55a999b228c3f0", "name": "1e64d7ed224a1c897d55a999b228c3f0", "is_reserved": 0, "fusion_lat": 0.0}, {"type": "electric_scooter", "rental_uris": {"ios": "https://dc.lft.to/lastmile_qr_scan", "android": "https://dc.lft.to/lastmile_qr_scan"}, "lon": -77.06038616666666, "fusion_lon": 0.0, "is_disabled": 0, "lat": 38.944655, "bike_id": "ecaaa0bb337c48e70eb01dd1913612bd", "name": "ecaaa0bb337c48e70eb01dd1913612bd", "is_reserved": 0, "fusion_lat": 0.0}, {"type": "electric_scooter", "rental_uris": {"ios": "https://dc.lft.to/lastmile_qr_scan", "android": "https://dc.lft.to/lastmile_qr_scan"}, "lon": -77.06057883333334, "fusion_lon": 0.0, "is_disabled": 0, "lat": 38.9023215, "bike_id": "f403f829b26e92517e96c51375b76f53", "name": "f403f829b26e92517e96c51375b76f53", "is_reserved": 0, "fusion_lat": 0.0}, {"type": "electric_scooter", "rental_uris": {"ios": "https://dc.lft.to/lastmile_qr_scan", "android": "https://dc.lft.to/lastmile_qr_scan"}, "lon": -77.04685466666666, "fusion_lon": 0.0, "is_disabled": 0, "lat": 38.89738666666667, "bike_id": "dcc0cbfb66241ee14143b4192ea6d855", "name": "dcc0cbfb66241ee14143b4192ea6d855", "is_reserved": 0, "fusion_lat": 0.0}, {"type": "electric_scooter", "rental_uris": {"ios": "https://dc.lft.to/lastmile_qr_scan", "android": "https://dc.lft.to/lastmile_qr_scan"}, "lon": -77.0323645, "fusion_lon": 0.0, "is_disabled": 0, "lat": 38.90869083333333, "bike_id": "cc9f29531a0af2fb3e8b6d6570310a15", "name": "cc9f29531a0af2fb3e8b6d6570310a15", "is_reserved": 0, "fusion_lat": 0.0}, {"type": "electric_scooter", "rental_uris": {"ios": "https://dc.lft.to/lastmile_qr_scan", "android": "https://dc.lft.to/lastmile_qr_scan"}, "lon": -77.0270695, "fusion_lon": 0.0, "is_disabled": 0, "lat": 38.901440666666666, "bike_id": "b018b5a517f68c5cd15c4230fad4b89d", "name": "b018b5a517f68c5cd15c4230fad4b89d", "is_reserved": 0, "fusion_lat": 0.0}, {"type": "electric_scooter", "rental_uris": {"ios": "https://dc.lft.to/lastmile_qr_scan", "android": "https://dc.lft.to/lastmile_qr_scan"}, "lon": -77.04862483333334, "fusion_lon": 0.0, "is_disabled": 0, "lat": 38.90477833333333, "bike_id": "77254adb3aeb105edb38b06dca1318be", "name": "77254adb3aeb105edb38b06dca1318be", "is_reserved": 0, "fusion_lat": 0.0}, {"type": "electric_scooter", "rental_uris": {"ios": "https://dc.lft.to/lastmile_qr_scan", "android": "https://dc.lft.to/lastmile_qr_scan"}, "lon": -77.03217266666667, "fusion_lon": 0.0, "is_disabled": 0, "lat": 38.90975516666666, "bike_id": "97bc6dacd70a019aec742e26b03712a7", "name": "97bc6dacd70a019aec742e26b03712a7", "is_reserved": 0, "fusion_lat": 0.0}, {"type": "electric_scooter", "rental_uris": {"ios": "https://dc.lft.to/lastmile_qr_scan", "android": "https://dc.lft.to/lastmile_qr_scan"}, "lon": -76.99903316666666, "fusion_lon": 0.0, "is_disabled": 0, "lat": 38.94825433333333, "bike_id": "fa207d22cf5c1312c4d6e5193ae06c37", "name": "fa207d22cf5c1312c4d6e5193ae06c37", "is_reserved": 0, "fusion_lat": 0.0}, {"type": "electric_scooter", "rental_uris": {"ios": "https://dc.lft.to/lastmile_qr_scan", "android": "https://dc.lft.to/lastmile_qr_scan"}, "lon": -76.93608716666667, "fusion_lon": 0.0, "is_disabled": 0, "lat": 38.896898666666665, "bike_id": "d2b9c8ff901b9b9522b163cb157c8540", "name": "d2b9c8ff901b9b9522b163cb157c8540", "is_reserved": 0, "fusion_lat": 0.0}, {"type": "electric_scooter", "rental_uris": {"ios": "https://dc.lft.to/lastmile_qr_scan", "android": "https://dc.lft.to/lastmile_qr_scan"}, "lon": -77.05219983333333, "fusion_lon": 0.0, "is_disabled": 0, "lat": 38.925002, "bike_id": "ef6a3c5500c45584d974139e1c696fd4", "name": "ef6a3c5500c45584d974139e1c696fd4", "is_reserved": 0, "fusion_lat": 0.0}, {"type": "electric_scooter", "rental_uris": {"ios": "https://dc.lft.to/lastmile_qr_scan", "android": "https://dc.lft.to/lastmile_qr_scan"}, "lon": -77.0318655, "fusion_lon": 0.0, "is_disabled": 0, "lat": 38.917482166666666, "bike_id": "dc8eda4fcda6ca279ea0681647d32aa6", "name": "dc8eda4fcda6ca279ea0681647d32aa6", "is_reserved": 0, "fusion_lat": 0.0}, {"type": "electric_scooter", "rental_uris": {"ios": "https://dc.lft.to/lastmile_qr_scan", "android": "https://dc.lft.to/lastmile_qr_scan"}, "lon": -77.0212665, "fusion_lon": 0.0, "is_disabled": 0, "lat": 38.8874905, "bike_id": "898104f320f6a0e0d1d8df333e83330a", "name": "898104f320f6a0e0d1d8df333e83330a", "is_reserved": 0, "fusion_lat": 0.0}, {"type": "electric_scooter", "rental_uris": {"ios": "https://dc.lft.to/lastmile_qr_scan", "android": "https://dc.lft.to/lastmile_qr_scan"}, "lon": -77.02168366666666, "fusion_lon": 0.0, "is_disabled": 0, "lat": 38.914756833333335, "bike_id": "9f90d91f495545dd87a605cd645a472c", "name": "9f90d91f495545dd87a605cd645a472c", "is_reserved": 0, "fusion_lat": 0.0}, {"type": "electric_scooter", "rental_uris": {"ios": "https://dc.lft.to/lastmile_qr_scan", "android": "https://dc.lft.to/lastmile_qr_scan"}, "lon": -77.05030283333333, "fusion_lon": 0.0, "is_disabled": 0, "lat": 38.923634166666666, "bike_id": "12142461d9d78ac9aa03d499efc94684", "name": "12142461d9d78ac9aa03d499efc94684", "is_reserved": 0, "fusion_lat": 0.0}, {"type": "electric_scooter", "rental_uris": {"ios": "https://dc.lft.to/lastmile_qr_scan", "android": "https://dc.lft.to/lastmile_qr_scan"}, "lon": -77.02537083333333, "fusion_lon": 0.0, "is_disabled": 0, "lat": 38.923741666666665, "bike_id": "e2f1339e27aa551e90cb4c98db2a2087", "name": "e2f1339e27aa551e90cb4c98db2a2087", "is_reserved": 0, "fusion_lat": 0.0}, {"type": "electric_scooter", "rental_uris": {"ios": "https://dc.lft.to/lastmile_qr_scan", "android": "https://dc.lft.to/lastmile_qr_scan"}, "lon": -77.0233505, "fusion_lon": 0.0, "is_disabled": 0, "lat": 38.92298266666667, "bike_id": "7902dd11d9de451bf16b41b79b0c8072", "name": "7902dd11d9de451bf16b41b79b0c8072", "is_reserved": 0, "fusion_lat": 0.0}, {"type": "electric_scooter", "rental_uris": {"ios": "https://dc.lft.to/lastmile_qr_scan", "android": "https://dc.lft.to/lastmile_qr_scan"}, "lon": -77.02193133333333, "fusion_lon": 0.0, "is_disabled": 0, "lat": 38.932967166666664, "bike_id": "99a05615dda14762c7572839aabaa5e9", "name": "99a05615dda14762c7572839aabaa5e9", "is_reserved": 0, "fusion_lat": 0.0}, {"type": "electric_scooter", "rental_uris": {"ios": "https://dc.lft.to/lastmile_qr_scan", "android": "https://dc.lft.to/lastmile_qr_scan"}, "lon": -77.03760416666667, "fusion_lon": 0.0, "is_disabled": 0, "lat": 38.916994833333334, "bike_id": "65465d56f01a4d7485ae30583e268eb6", "name": "65465d56f01a4d7485ae30583e268eb6", "is_reserved": 0, "fusion_lat": 0.0}, {"type": "electric_scooter", "rental_uris": {"ios": "https://dc.lft.to/lastmile_qr_scan", "android": "https://dc.lft.to/lastmile_qr_scan"}, "lon": -77.03769133333333, "fusion_lon": 0.0, "is_disabled": 0, "lat": 38.911192166666666, "bike_id": "214fde51898833b545959d1de1490944", "name": "214fde51898833b545959d1de1490944", "is_reserved": 0, "fusion_lat": 0.0}, {"type": "electric_scooter", "rental_uris": {"ios": "https://dc.lft.to/lastmile_qr_scan", "android": "https://dc.lft.to/lastmile_qr_scan"}, "lon": -77.021847, "fusion_lon": 0.0, "is_disabled": 0, "lat": 38.91482383333334, "bike_id": "83d94ab98e8a76434bf43b217f4968fd", "name": "83d94ab98e8a76434bf43b217f4968fd", "is_reserved": 0, "fusion_lat": 0.0}, {"type": "electric_scooter", "rental_uris": {"ios": "https://dc.lft.to/lastmile_qr_scan", "android": "https://dc.lft.to/lastmile_qr_scan"}, "lon": -76.989837, "fusion_lon": 0.0, "is_disabled": 0, "lat": 38.8649875, "bike_id": "851fabc2763478332bb45a1868e99883", "name": "851fabc2763478332bb45a1868e99883", "is_reserved": 0, "fusion_lat": 0.0}, {"type": "electric_scooter", "rental_uris": {"ios": "https://dc.lft.to/lastmile_qr_scan", "android": "https://dc.lft.to/lastmile_qr_scan"}, "lon": -77.0154015, "fusion_lon": 0.0, "is_disabled": 0, "lat": 38.891668833333334, "bike_id": "063b710a1b527ec2f126ff89c5595712", "name": "063b710a1b527ec2f126ff89c5595712", "is_reserved": 0, "fusion_lat": 0.0}, {"type": "electric_scooter", "rental_uris": {"ios": "https://dc.lft.to/lastmile_qr_scan", "android": "https://dc.lft.to/lastmile_qr_scan"}, "lon": -77.01358516666667, "fusion_lon": 0.0, "is_disabled": 0, "lat": 38.89235766666667, "bike_id": "26f3b0a8253002e7a57016d2e9936609", "name": "26f3b0a8253002e7a57016d2e9936609", "is_reserved": 0, "fusion_lat": 0.0}, {"type": "electric_scooter", "rental_uris": {"ios": "https://dc.lft.to/lastmile_qr_scan", "android": "https://dc.lft.to/lastmile_qr_scan"}, "lon": -77.03689533333333, "fusion_lon": 0.0, "is_disabled": 0, "lat": 38.92835483333333, "bike_id": "ea42ec8d2d83770a433f5adffce31526", "name": "ea42ec8d2d83770a433f5adffce31526", "is_reserved": 0, "fusion_lat": 0.0}, {"type": "electric_scooter", "rental_uris": {"ios": "https://dc.lft.to/lastmile_qr_scan", "android": "https://dc.lft.to/lastmile_qr_scan"}, "lon": -77.03211816666666, "fusion_lon": 0.0, "is_disabled": 0, "lat": 38.91853566666666, "bike_id": "415c45a812f9ea2cb9cd25595497e81d", "name": "415c45a812f9ea2cb9cd25595497e81d", "is_reserved": 0, "fusion_lat": 0.0}, {"type": "electric_bike", "rental_uris": {"ios": "https://dc.lft.to/lastmile_qr_scan", "android": "https://dc.lft.to/lastmile_qr_scan"}, "lon": -76.91603533333333, "fusion_lon": 0.0, "is_disabled": 0, "lat": 38.8797255, "bike_id": "8b4938aaf18c12e6ff031c657e22f2dd", "name": "8b4938aaf18c12e6ff031c657e22f2dd", "is_reserved": 0, "fusion_lat": 0.0}, {"type": "electric_scooter", "rental_uris": {"ios": "https://dc.lft.to/lastmile_qr_scan", "android": "https://dc.lft.to/lastmile_qr_scan"}, "lon": -77.03871816666667, "fusion_lon": 0.0, "is_disabled": 0, "lat": 38.912681, "bike_id": "ba82baf7fbc4ae7f3401fdd80fdb4a02", "name": "ba82baf7fbc4ae7f3401fdd80fdb4a02", "is_reserved": 0, "fusion_lat": 0.0}, {"type": "electric_scooter", "rental_uris": {"ios": "https://dc.lft.to/lastmile_qr_scan", "android": "https://dc.lft.to/lastmile_qr_scan"}, "lon": -77.00467816666666, "fusion_lon": 0.0, "is_disabled": 0, "lat": 38.876621, "bike_id": "d18db9c06bd3e8a6cde139b839f95900", "name": "d18db9c06bd3e8a6cde139b839f95900", "is_reserved": 0, "fusion_lat": 0.0}, {"type": "electric_scooter", "rental_uris": {"ios": "https://dc.lft.to/lastmile_qr_scan", "android": "https://dc.lft.to/lastmile_qr_scan"}, "lon": -77.03641033333334, "fusion_lon": 0.0, "is_disabled": 0, "lat": 38.913132166666664, "bike_id": "3fdb31902255a55cb0439a2f9ea59511", "name": "3fdb31902255a55cb0439a2f9ea59511", "is_reserved": 0, "fusion_lat": 0.0}, {"type": "electric_scooter", "rental_uris": {"ios": "https://dc.lft.to/lastmile_qr_scan", "android": "https://dc.lft.to/lastmile_qr_scan"}, "lon": -77.0319205, "fusion_lon": 0.0, "is_disabled": 0, "lat": 38.909782, "bike_id": "bd67e72f4615954b58065db713254ca9", "name": "bd67e72f4615954b58065db713254ca9", "is_reserved": 0, "fusion_lat": 0.0}, {"type": "electric_scooter", "rental_uris": {"ios": "https://dc.lft.to/lastmile_qr_scan", "android": "https://dc.lft.to/lastmile_qr_scan"}, "lon": -77.026911, "fusion_lon": 0.0, "is_disabled": 0, "lat": 38.925703666666664, "bike_id": "6e4a87e9c4059494559e615d58495347", "name": "6e4a87e9c4059494559e615d58495347", "is_reserved": 0, "fusion_lat": 0.0}, {"type": "electric_bike", "rental_uris": {"ios": "https://dc.lft.to/lastmile_qr_scan", "android": "https://dc.lft.to/lastmile_qr_scan"}, "lon": -77.01201116666667, "fusion_lon": 0.0, "is_disabled": 0, "lat": 38.87092116666667, "bike_id": "9365c2cde3f28c2cd78eac68de02aa74", "name": "9365c2cde3f28c2cd78eac68de02aa74", "is_reserved": 0, "fusion_lat": 0.0}, {"type": "electric_scooter", "rental_uris": {"ios": "https://dc.lft.to/lastmile_qr_scan", "android": "https://dc.lft.to/lastmile_qr_scan"}, "lon": -77.02345933333334, "fusion_lon": 0.0, "is_disabled": 0, "lat": 38.9178065, "bike_id": "fadb188b371c34d96f89236268703e8e", "name": "fadb188b371c34d96f89236268703e8e", "is_reserved": 0, "fusion_lat": 0.0}, {"type": "electric_scooter", "rental_uris": {"ios": "https://dc.lft.to/lastmile_qr_scan", "android": "https://dc.lft.to/lastmile_qr_scan"}, "lon": -77.0490035, "fusion_lon": 0.0, "is_disabled": 0, "lat": 38.89226816666667, "bike_id": "78b375d662343d499d864a330401615a", "name": "78b375d662343d499d864a330401615a", "is_reserved": 0, "fusion_lat": 0.0}, {"type": "electric_scooter", "rental_uris": {"ios": "https://dc.lft.to/lastmile_qr_scan", "android": "https://dc.lft.to/lastmile_qr_scan"}, "lon": -76.98009166666667, "fusion_lon": 0.0, "is_disabled": 0, "lat": 38.901055666666664, "bike_id": "02f2b64c08447b8a3c1a4ef25c66fb00", "name": "02f2b64c08447b8a3c1a4ef25c66fb00", "is_reserved": 0, "fusion_lat": 0.0}, {"type": "electric_scooter", "rental_uris": {"ios": "https://dc.lft.to/lastmile_qr_scan", "android": "https://dc.lft.to/lastmile_qr_scan"}, "lon": -77.0400715, "fusion_lon": 0.0, "is_disabled": 0, "lat": 38.9244385, "bike_id": "29447d0d8cf6db89ac536f17bf27c717", "name": "29447d0d8cf6db89ac536f17bf27c717", "is_reserved": 0, "fusion_lat": 0.0}, {"type": "electric_scooter", "rental_uris": {"ios": "https://dc.lft.to/lastmile_qr_scan", "android": "https://dc.lft.to/lastmile_qr_scan"}, "lon": -77.05577083333333, "fusion_lon": 0.0, "is_disabled": 0, "lat": 38.900076, "bike_id": "1358617bbabe22c527130c23458bd397", "name": "1358617bbabe22c527130c23458bd397", "is_reserved": 0, "fusion_lat": 0.0}, {"type": "electric_bike", "rental_uris": {"ios": "https://dc.lft.to/lastmile_qr_scan", "android": "https://dc.lft.to/lastmile_qr_scan"}, "lon": -77.0811875, "fusion_lon": 0.0, "is_disabled": 0, "lat": 38.80685166666667, "bike_id": "abbd6fa226f314577153dd76bdc487fc", "name": "abbd6fa226f314577153dd76bdc487fc", "is_reserved": 0, "fusion_lat": 0.0}, {"type": "electric_scooter", "rental_uris": {"ios": "https://dc.lft.to/lastmile_qr_scan", "android": "https://dc.lft.to/lastmile_qr_scan"}, "lon": -77.022219, "fusion_lon": 0.0, "is_disabled": 0, "lat": 38.892207666666664, "bike_id": "2f18fb0dee4cf5662e1b30d5a6a5d040", "name": "2f18fb0dee4cf5662e1b30d5a6a5d040", "is_reserved": 0, "fusion_lat": 0.0}, {"type": "electric_bike", "rental_uris": {"ios": "https://dc.lft.to/lastmile_qr_scan", "android": "https://dc.lft.to/lastmile_qr_scan"}, "lon": -77.02715466666666, "fusion_lon": 0.0, "is_disabled": 0, "lat": 38.922991333333336, "bike_id": "5a8f30638f5ce38fbcb71ad6a9edc9d3", "name": "5a8f30638f5ce38fbcb71ad6a9edc9d3", "is_reserved": 0, "fusion_lat": 0.0}, {"type": "electric_scooter", "rental_uris": {"ios": "https://dc.lft.to/lastmile_qr_scan", "android": "https://dc.lft.to/lastmile_qr_scan"}, "lon": -77.0505545, "fusion_lon": 0.0, "is_disabled": 0, "lat": 38.923623, "bike_id": "205f648e7c8a8a302a50f89a7a98a240", "name": "205f648e7c8a8a302a50f89a7a98a240", "is_reserved": 0, "fusion_lat": 0.0}, {"type": "electric_scooter", "rental_uris": {"ios": "https://dc.lft.to/lastmile_qr_scan", "android": "https://dc.lft.to/lastmile_qr_scan"}, "lon": -77.03076266666666, "fusion_lon": 0.0, "is_disabled": 0, "lat": 38.901941, "bike_id": "b22290118d80a2d26f0e977db6f39f7f", "name": "b22290118d80a2d26f0e977db6f39f7f", "is_reserved": 0, "fusion_lat": 0.0}, {"type": "electric_scooter", "rental_uris": {"ios": "https://dc.lft.to/lastmile_qr_scan", "android": "https://dc.lft.to/lastmile_qr_scan"}, "lon": -77.03031383333334, "fusion_lon": 0.0, "is_disabled": 0, "lat": 38.926806666666664, "bike_id": "c8e6773a98a7ba33b433f8a5207bad99", "name": "c8e6773a98a7ba33b433f8a5207bad99", "is_reserved": 0, "fusion_lat": 0.0}, {"type": "electric_scooter", "rental_uris": {"ios": "https://dc.lft.to/lastmile_qr_scan", "android": "https://dc.lft.to/lastmile_qr_scan"}, "lon": -77.05156033333333, "fusion_lon": 0.0, "is_disabled": 0, "lat": 38.90269083333333, "bike_id": "b19b8f736c990e1e898be2e0cd917ca5", "name": "b19b8f736c990e1e898be2e0cd917ca5", "is_reserved": 0, "fusion_lat": 0.0}, {"type": "electric_scooter", "rental_uris": {"ios": "https://dc.lft.to/lastmile_qr_scan", "android": "https://dc.lft.to/lastmile_qr_scan"}, "lon": -77.02426283333334, "fusion_lon": 0.0, "is_disabled": 0, "lat": 38.92659533333333, "bike_id": "f0508c012c130d56723294f571d97a53", "name": "f0508c012c130d56723294f571d97a53", "is_reserved": 0, "fusion_lat": 0.0}, {"type": "electric_scooter", "rental_uris": {"ios": "https://dc.lft.to/lastmile_qr_scan", "android": "https://dc.lft.to/lastmile_qr_scan"}, "lon": -77.03080416666667, "fusion_lon": 0.0, "is_disabled": 0, "lat": 38.91756816666667, "bike_id": "15c080497ce16f6c75f17a514c3ebf26", "name": "15c080497ce16f6c75f17a514c3ebf26", "is_reserved": 0, "fusion_lat": 0.0}, {"type": "electric_scooter", "rental_uris": {"ios": "https://dc.lft.to/lastmile_qr_scan", "android": "https://dc.lft.to/lastmile_qr_scan"}, "lon": -77.033555, "fusion_lon": 0.0, "is_disabled": 0, "lat": 38.91701883333333, "bike_id": "4101c143f1cbfcb9d419c11f2df41c31", "name": "4101c143f1cbfcb9d419c11f2df41c31", "is_reserved": 0, "fusion_lat": 0.0}, {"type": "electric_scooter", "rental_uris": {"ios": "https://dc.lft.to/lastmile_qr_scan", "android": "https://dc.lft.to/lastmile_qr_scan"}, "lon": -77.01373266666667, "fusion_lon": 0.0, "is_disabled": 0, "lat": 38.89220366666667, "bike_id": "af08a862cfa4749394a57fee08fc6668", "name": "af08a862cfa4749394a57fee08fc6668", "is_reserved": 0, "fusion_lat": 0.0}, {"type": "electric_scooter", "rental_uris": {"ios": "https://dc.lft.to/lastmile_qr_scan", "android": "https://dc.lft.to/lastmile_qr_scan"}, "lon": -77.03624333333333, "fusion_lon": 0.0, "is_disabled": 0, "lat": 38.936863, "bike_id": "32b7057cfd7f893aaaa166b0724cc3a1", "name": "32b7057cfd7f893aaaa166b0724cc3a1", "is_reserved": 0, "fusion_lat": 0.0}, {"type": "electric_scooter", "rental_uris": {"ios": "https://dc.lft.to/lastmile_qr_scan", "android": "https://dc.lft.to/lastmile_qr_scan"}, "lon": -76.97019433333334, "fusion_lon": 0.0, "is_disabled": 0, "lat": 38.920332333333334, "bike_id": "3090015d1afef0c26f0eda30c2007253", "name": "3090015d1afef0c26f0eda30c2007253", "is_reserved": 0, "fusion_lat": 0.0}, {"type": "electric_scooter", "rental_uris": {"ios": "https://dc.lft.to/lastmile_qr_scan", "android": "https://dc.lft.to/lastmile_qr_scan"}, "lon": -77.0271635, "fusion_lon": 0.0, "is_disabled": 0, "lat": 38.90684183333333, "bike_id": "61b9b39533bd90d73523f0d7e768b2c5", "name": "61b9b39533bd90d73523f0d7e768b2c5", "is_reserved": 0, "fusion_lat": 0.0}, {"type": "electric_scooter", "rental_uris": {"ios": "https://dc.lft.to/lastmile_qr_scan", "android": "https://dc.lft.to/lastmile_qr_scan"}, "lon": -76.98175166666667, "fusion_lon": 0.0, "is_disabled": 0, "lat": 38.85677166666667, "bike_id": "5b3b48091d5accee1d2f8f29b87cc26b", "name": "5b3b48091d5accee1d2f8f29b87cc26b", "is_reserved": 0, "fusion_lat": 0.0}, {"type": "electric_bike", "rental_uris": {"ios": "https://dc.lft.to/lastmile_qr_scan", "android": "https://dc.lft.to/lastmile_qr_scan"}, "lon": -76.99774083333334, "fusion_lon": 0.0, "is_disabled": 0, "lat": 38.837430833333336, "bike_id": "eea9f43788dee6a788a837011e5c457d", "name": "eea9f43788dee6a788a837011e5c457d", "is_reserved": 0, "fusion_lat": 0.0}, {"type": "electric_scooter", "rental_uris": {"ios": "https://dc.lft.to/lastmile_qr_scan", "android": "https://dc.lft.to/lastmile_qr_scan"}, "lon": -77.01964516666666, "fusion_lon": 0.0, "is_disabled": 0, "lat": 38.93000633333333, "bike_id": "1639f6a79fbb6d7ae9ad930f9c2d4c62", "name": "1639f6a79fbb6d7ae9ad930f9c2d4c62", "is_reserved": 0, "fusion_lat": 0.0}, {"type": "electric_bike", "rental_uris": {"ios": "https://dc.lft.to/lastmile_qr_scan", "android": "https://dc.lft.to/lastmile_qr_scan"}, "lon": -76.9912905, "fusion_lon": 0.0, "is_disabled": 0, "lat": 38.84643333333333, "bike_id": "0b6dc4dfa26aec3faf65d94e4d60e2aa", "name": "0b6dc4dfa26aec3faf65d94e4d60e2aa", "is_reserved": 0, "fusion_lat": 0.0}, {"type": "electric_scooter", "rental_uris": {"ios": "https://dc.lft.to/lastmile_qr_scan", "android": "https://dc.lft.to/lastmile_qr_scan"}, "lon": -77.04310033333333, "fusion_lon": 0.0, "is_disabled": 0, "lat": 38.9010355, "bike_id": "2e3b052a1f77287a84d217b033e8db3a", "name": "2e3b052a1f77287a84d217b033e8db3a", "is_reserved": 0, "fusion_lat": 0.0}, {"type": "electric_scooter", "rental_uris": {"ios": "https://dc.lft.to/lastmile_qr_scan", "android": "https://dc.lft.to/lastmile_qr_scan"}, "lon": -77.072733, "fusion_lon": 0.0, "is_disabled": 0, "lat": 38.93487733333333, "bike_id": "e1080e4756feeb2235bc69e831573ec7", "name": "e1080e4756feeb2235bc69e831573ec7", "is_reserved": 0, "fusion_lat": 0.0}, {"type": "electric_bike", "rental_uris": {"ios": "https://dc.lft.to/lastmile_qr_scan", "android": "https://dc.lft.to/lastmile_qr_scan"}, "lon": -77.0564395, "fusion_lon": 0.0, "is_disabled": 0, "lat": 38.93691366666667, "bike_id": "c44b7caad135ae2b24a4a0993aa8498e", "name": "c44b7caad135ae2b24a4a0993aa8498e", "is_reserved": 0, "fusion_lat": 0.0}, {"type": "electric_scooter", "rental_uris": {"ios": "https://dc.lft.to/lastmile_qr_scan", "android": "https://dc.lft.to/lastmile_qr_scan"}, "lon": -77.024701, "fusion_lon": 0.0, "is_disabled": 0, "lat": 38.93095616666667, "bike_id": "7a1be5c2739ad4b5dbcc42a5a5732788", "name": "7a1be5c2739ad4b5dbcc42a5a5732788", "is_reserved": 0, "fusion_lat": 0.0}, {"type": "electric_scooter", "rental_uris": {"ios": "https://dc.lft.to/lastmile_qr_scan", "android": "https://dc.lft.to/lastmile_qr_scan"}, "lon": -77.03751283333334, "fusion_lon": 0.0, "is_disabled": 0, "lat": 38.92941066666667, "bike_id": "e057c3fff6d4d93e5cd3f5e68eee8e96", "name": "e057c3fff6d4d93e5cd3f5e68eee8e96", "is_reserved": 0, "fusion_lat": 0.0}, {"type": "electric_scooter", "rental_uris": {"ios": "https://dc.lft.to/lastmile_qr_scan", "android": "https://dc.lft.to/lastmile_qr_scan"}, "lon": -77.02222266666666, "fusion_lon": 0.0, "is_disabled": 0, "lat": 38.89221533333333, "bike_id": "5fe5446f9b1bbda826ace14a974a2a42", "name": "5fe5446f9b1bbda826ace14a974a2a42", "is_reserved": 0, "fusion_lat": 0.0}, {"type": "electric_scooter", "rental_uris": {"ios": "https://dc.lft.to/lastmile_qr_scan", "android": "https://dc.lft.to/lastmile_qr_scan"}, "lon": -77.04176766666667, "fusion_lon": 0.0, "is_disabled": 0, "lat": 38.91810483333333, "bike_id": "44ed4c5fa3ae02795d74879e1eabaeef", "name": "44ed4c5fa3ae02795d74879e1eabaeef", "is_reserved": 0, "fusion_lat": 0.0}, {"type": "electric_bike", "rental_uris": {"ios": "https://dc.lft.to/lastmile_qr_scan", "android": "https://dc.lft.to/lastmile_qr_scan"}, "lon": -77.12484483333333, "fusion_lon": 0.0, "is_disabled": 0, "lat": 38.85396166666666, "bike_id": "1680acded06db8fcddb68735807fb5c0", "name": "1680acded06db8fcddb68735807fb5c0", "is_reserved": 0, "fusion_lat": 0.0}, {"type": "electric_scooter", "rental_uris": {"ios": "https://dc.lft.to/lastmile_qr_scan", "android": "https://dc.lft.to/lastmile_qr_scan"}, "lon": -77.04687383333334, "fusion_lon": 0.0, "is_disabled": 0, "lat": 38.897374, "bike_id": "86a281ff285e5f29ce029174d109e93c", "name": "86a281ff285e5f29ce029174d109e93c", "is_reserved": 0, "fusion_lat": 0.0}, {"type": "electric_bike", "rental_uris": {"ios": "https://dc.lft.to/lastmile_qr_scan", "android": "https://dc.lft.to/lastmile_qr_scan"}, "lon": -76.97530266666666, "fusion_lon": 0.0, "is_disabled": 0, "lat": 38.840140166666664, "bike_id": "918378b7153f36da0dfd4a60a1d5e302", "name": "918378b7153f36da0dfd4a60a1d5e302", "is_reserved": 0, "fusion_lat": 0.0}, {"type": "electric_scooter", "rental_uris": {"ios": "https://dc.lft.to/lastmile_qr_scan", "android": "https://dc.lft.to/lastmile_qr_scan"}, "lon": -77.031811, "fusion_lon": 0.0, "is_disabled": 0, "lat": 38.8962255, "bike_id": "32397923602e8f99a55a71550f710ee0", "name": "32397923602e8f99a55a71550f710ee0", "is_reserved": 0, "fusion_lat": 0.0}, {"type": "electric_bike", "rental_uris": {"ios": "https://dc.lft.to/lastmile_qr_scan", "android": "https://dc.lft.to/lastmile_qr_scan"}, "lon": -77.0243405, "fusion_lon": 0.0, "is_disabled": 0, "lat": 38.897128, "bike_id": "a1a5c4cdebce1d486b770afda8e55e57", "name": "a1a5c4cdebce1d486b770afda8e55e57", "is_reserved": 0, "fusion_lat": 0.0}, {"type": "electric_scooter", "rental_uris": {"ios": "https://dc.lft.to/lastmile_qr_scan", "android": "https://dc.lft.to/lastmile_qr_scan"}, "lon": -77.03035016666666, "fusion_lon": 0.0, "is_disabled": 0, "lat": 38.93119433333333, "bike_id": "78c009b58badc41b394fb0c7cea4c5bf", "name": "78c009b58badc41b394fb0c7cea4c5bf", "is_reserved": 0, "fusion_lat": 0.0}, {"type": "electric_scooter", "rental_uris": {"ios": "https://dc.lft.to/lastmile_qr_scan", "android": "https://dc.lft.to/lastmile_qr_scan"}, "lon": -76.99518516666667, "fusion_lon": 0.0, "is_disabled": 0, "lat": 38.883747666666665, "bike_id": "319e1a76d7703b31d1d65aee96090a39", "name": "319e1a76d7703b31d1d65aee96090a39", "is_reserved": 0, "fusion_lat": 0.0}, {"type": "electric_scooter", "rental_uris": {"ios": "https://dc.lft.to/lastmile_qr_scan", "android": "https://dc.lft.to/lastmile_qr_scan"}, "lon": -76.98179533333334, "fusion_lon": 0.0, "is_disabled": 0, "lat": 38.895795, "bike_id": "1d779aa79344b63324f15226b40562fe", "name": "1d779aa79344b63324f15226b40562fe", "is_reserved": 0, "fusion_lat": 0.0}, {"type": "electric_scooter", "rental_uris": {"ios": "https://dc.lft.to/lastmile_qr_scan", "android": "https://dc.lft.to/lastmile_qr_scan"}, "lon": -77.031731, "fusion_lon": 0.0, "is_disabled": 0, "lat": 38.919118833333336, "bike_id": "f071441817056469aeed6026db3f7268", "name": "f071441817056469aeed6026db3f7268", "is_reserved": 0, "fusion_lat": 0.0}, {"type": "electric_scooter", "rental_uris": {"ios": "https://dc.lft.to/lastmile_qr_scan", "android": "https://dc.lft.to/lastmile_qr_scan"}, "lon": -76.9990875, "fusion_lon": 0.0, "is_disabled": 0, "lat": 38.94815766666667, "bike_id": "69279bb589058a708d04fa7227730a37", "name": "69279bb589058a708d04fa7227730a37", "is_reserved": 0, "fusion_lat": 0.0}, {"type": "electric_scooter", "rental_uris": {"ios": "https://dc.lft.to/lastmile_qr_scan", "android": "https://dc.lft.to/lastmile_qr_scan"}, "lon": -77.01612583333333, "fusion_lon": 0.0, "is_disabled": 0, "lat": 38.91599516666667, "bike_id": "0ec28469650c1f5b5d3a0dad0942bf93", "name": "0ec28469650c1f5b5d3a0dad0942bf93", "is_reserved": 0, "fusion_lat": 0.0}, {"type": "electric_bike", "rental_uris": {"ios": "https://dc.lft.to/lastmile_qr_scan", "android": "https://dc.lft.to/lastmile_qr_scan"}, "lon": -77.01284983333333, "fusion_lon": 0.0, "is_disabled": 0, "lat": 38.956693, "bike_id": "b77ab03e85577781ce2267b9ebf09d38", "name": "b77ab03e85577781ce2267b9ebf09d38", "is_reserved": 0, "fusion_lat": 0.0}, {"type": "electric_bike", "rental_uris": {"ios": "https://dc.lft.to/lastmile_qr_scan", "android": "https://dc.lft.to/lastmile_qr_scan"}, "lon": -77.110584, "fusion_lon": 0.0, "is_disabled": 0, "lat": 38.87087233333333, "bike_id": "525da53f88c69a10f1e21f1f2fc1fb09", "name": "525da53f88c69a10f1e21f1f2fc1fb09", "is_reserved": 0, "fusion_lat": 0.0}, {"type": "electric_scooter", "rental_uris": {"ios": "https://dc.lft.to/lastmile_qr_scan", "android": "https://dc.lft.to/lastmile_qr_scan"}, "lon": -77.0489435, "fusion_lon": 0.0, "is_disabled": 0, "lat": 38.892266666666664, "bike_id": "0748ef199013fced1d189c5d7f5a2971", "name": "0748ef199013fced1d189c5d7f5a2971", "is_reserved": 0, "fusion_lat": 0.0}, {"type": "electric_scooter", "rental_uris": {"ios": "https://dc.lft.to/lastmile_qr_scan", "android": "https://dc.lft.to/lastmile_qr_scan"}, "lon": -76.979464, "fusion_lon": 0.0, "is_disabled": 0, "lat": 38.916903833333336, "bike_id": "fbe5ff2a9c1f239c44c724d0d5c95c9c", "name": "fbe5ff2a9c1f239c44c724d0d5c95c9c", "is_reserved": 0, "fusion_lat": 0.0}, {"type": "electric_scooter", "rental_uris": {"ios": "https://dc.lft.to/lastmile_qr_scan", "android": "https://dc.lft.to/lastmile_qr_scan"}, "lon": -77.034551, "fusion_lon": 0.0, "is_disabled": 0, "lat": 38.90733316666667, "bike_id": "0b5d87c830795f6cb3138fb0acf2636e", "name": "0b5d87c830795f6cb3138fb0acf2636e", "is_reserved": 0, "fusion_lat": 0.0}, {"type": "electric_scooter", "rental_uris": {"ios": "https://dc.lft.to/lastmile_qr_scan", "android": "https://dc.lft.to/lastmile_qr_scan"}, "lon": -77.05066966666666, "fusion_lon": 0.0, "is_disabled": 0, "lat": 38.90415383333333, "bike_id": "8abcc944349f99e21137323eb707e0c7", "name": "8abcc944349f99e21137323eb707e0c7", "is_reserved": 0, "fusion_lat": 0.0}, {"type": "electric_scooter", "rental_uris": {"ios": "https://dc.lft.to/lastmile_qr_scan", "android": "https://dc.lft.to/lastmile_qr_scan"}, "lon": -77.03213266666667, "fusion_lon": 0.0, "is_disabled": 0, "lat": 38.909646333333335, "bike_id": "5660713ce69fddd6414e0c87f8b06589", "name": "5660713ce69fddd6414e0c87f8b06589", "is_reserved": 0, "fusion_lat": 0.0}, {"type": "electric_scooter", "rental_uris": {"ios": "https://dc.lft.to/lastmile_qr_scan", "android": "https://dc.lft.to/lastmile_qr_scan"}, "lon": -77.02589983333333, "fusion_lon": 0.0, "is_disabled": 0, "lat": 38.901335, "bike_id": "53f0a7f1e2b77e25074a4e738688385d", "name": "53f0a7f1e2b77e25074a4e738688385d", "is_reserved": 0, "fusion_lat": 0.0}, {"type": "electric_scooter", "rental_uris": {"ios": "https://dc.lft.to/lastmile_qr_scan", "android": "https://dc.lft.to/lastmile_qr_scan"}, "lon": -77.02214016666667, "fusion_lon": 0.0, "is_disabled": 0, "lat": 38.912578833333335, "bike_id": "7a4880ff391308da989f0e483c4a086d", "name": "7a4880ff391308da989f0e483c4a086d", "is_reserved": 0, "fusion_lat": 0.0}, {"type": "electric_scooter", "rental_uris": {"ios": "https://dc.lft.to/lastmile_qr_scan", "android": "https://dc.lft.to/lastmile_qr_scan"}, "lon": -77.0335405, "fusion_lon": 0.0, "is_disabled": 0, "lat": 38.931513, "bike_id": "991d97f5c8766bbc324c4ebf9e862fcc", "name": "991d97f5c8766bbc324c4ebf9e862fcc", "is_reserved": 0, "fusion_lat": 0.0}, {"type": "electric_scooter", "rental_uris": {"ios": "https://dc.lft.to/lastmile_qr_scan", "android": "https://dc.lft.to/lastmile_qr_scan"}, "lon": -76.99833466666666, "fusion_lon": 0.0, "is_disabled": 0, "lat": 38.90033966666667, "bike_id": "30887a5f16f51547abab74c6086358a2", "name": "30887a5f16f51547abab74c6086358a2", "is_reserved": 0, "fusion_lat": 0.0}, {"type": "electric_scooter", "rental_uris": {"ios": "https://dc.lft.to/lastmile_qr_scan", "android": "https://dc.lft.to/lastmile_qr_scan"}, "lon": -76.97592966666667, "fusion_lon": 0.0, "is_disabled": 0, "lat": 38.90333033333334, "bike_id": "4b671f07dede007a78966b18e6619e9b", "name": "4b671f07dede007a78966b18e6619e9b", "is_reserved": 0, "fusion_lat": 0.0}, {"type": "electric_scooter", "rental_uris": {"ios": "https://dc.lft.to/lastmile_qr_scan", "android": "https://dc.lft.to/lastmile_qr_scan"}, "lon": -77.05133033333334, "fusion_lon": 0.0, "is_disabled": 0, "lat": 38.9236615, "bike_id": "78d8cabf4d95623dccca6ee4e637809e", "name": "78d8cabf4d95623dccca6ee4e637809e", "is_reserved": 0, "fusion_lat": 0.0}, {"type": "electric_scooter", "rental_uris": {"ios": "https://dc.lft.to/lastmile_qr_scan", "android": "https://dc.lft.to/lastmile_qr_scan"}, "lon": -77.038623, "fusion_lon": 0.0, "is_disabled": 0, "lat": 38.90971233333333, "bike_id": "a081bc2c88beececffd56185825a4698", "name": "a081bc2c88beececffd56185825a4698", "is_reserved": 0, "fusion_lat": 0.0}, {"type": "electric_scooter", "rental_uris": {"ios": "https://dc.lft.to/lastmile_qr_scan", "android": "https://dc.lft.to/lastmile_qr_scan"}, "lon": -77.034471, "fusion_lon": 0.0, "is_disabled": 0, "lat": 38.91849233333333, "bike_id": "7c2b7a8f6bcc5c287b459a321eba90b6", "name": "7c2b7a8f6bcc5c287b459a321eba90b6", "is_reserved": 0, "fusion_lat": 0.0}, {"type": "electric_scooter", "rental_uris": {"ios": "https://dc.lft.to/lastmile_qr_scan", "android": "https://dc.lft.to/lastmile_qr_scan"}, "lon": -77.0557905, "fusion_lon": 0.0, "is_disabled": 0, "lat": 38.910544333333334, "bike_id": "01e5e8a57062d33790ffdec93eac6469", "name": "01e5e8a57062d33790ffdec93eac6469", "is_reserved": 0, "fusion_lat": 0.0}, {"type": "electric_scooter", "rental_uris": {"ios": "https://dc.lft.to/lastmile_qr_scan", "android": "https://dc.lft.to/lastmile_qr_scan"}, "lon": -77.025386, "fusion_lon": 0.0, "is_disabled": 0, "lat": 38.92405016666667, "bike_id": "e7c44f80c0660b17c3c3ea520094aeb4", "name": "e7c44f80c0660b17c3c3ea520094aeb4", "is_reserved": 0, "fusion_lat": 0.0}, {"type": "electric_scooter", "rental_uris": {"ios": "https://dc.lft.to/lastmile_qr_scan", "android": "https://dc.lft.to/lastmile_qr_scan"}, "lon": -77.04588116666666, "fusion_lon": 0.0, "is_disabled": 0, "lat": 38.90858866666667, "bike_id": "9e898b4297bbeee8312e6afa5dcfe1fe", "name": "9e898b4297bbeee8312e6afa5dcfe1fe", "is_reserved": 0, "fusion_lat": 0.0}, {"type": "electric_scooter", "rental_uris": {"ios": "https://dc.lft.to/lastmile_qr_scan", "android": "https://dc.lft.to/lastmile_qr_scan"}, "lon": -77.0152445, "fusion_lon": 0.0, "is_disabled": 0, "lat": 38.8839965, "bike_id": "2b550db6c99a29d88818bc7dae5ac4af", "name": "2b550db6c99a29d88818bc7dae5ac4af", "is_reserved": 0, "fusion_lat": 0.0}, {"type": "electric_scooter", "rental_uris": {"ios": "https://dc.lft.to/lastmile_qr_scan", "android": "https://dc.lft.to/lastmile_qr_scan"}, "lon": -77.03166866666666, "fusion_lon": 0.0, "is_disabled": 0, "lat": 38.897816, "bike_id": "2c8d52cc6844166253e84c924d96161a", "name": "2c8d52cc6844166253e84c924d96161a", "is_reserved": 0, "fusion_lat": 0.0}, {"type": "electric_scooter", "rental_uris": {"ios": "https://dc.lft.to/lastmile_qr_scan", "android": "https://dc.lft.to/lastmile_qr_scan"}, "lon": -77.03659316666666, "fusion_lon": 0.0, "is_disabled": 0, "lat": 38.92143816666667, "bike_id": "3a1683da48e3e65e73aa28f6b34362ea", "name": "3a1683da48e3e65e73aa28f6b34362ea", "is_reserved": 0, "fusion_lat": 0.0}, {"type": "electric_scooter", "rental_uris": {"ios": "https://dc.lft.to/lastmile_qr_scan", "android": "https://dc.lft.to/lastmile_qr_scan"}, "lon": -77.025205, "fusion_lon": 0.0, "is_disabled": 0, "lat": 38.91260283333333, "bike_id": "fa82667d087aa2b1c5d83a9a6ce2f40c", "name": "fa82667d087aa2b1c5d83a9a6ce2f40c", "is_reserved": 0, "fusion_lat": 0.0}, {"type": "electric_scooter", "rental_uris": {"ios": "https://dc.lft.to/lastmile_qr_scan", "android": "https://dc.lft.to/lastmile_qr_scan"}, "lon": -77.024193, "fusion_lon": 0.0, "is_disabled": 0, "lat": 38.927578, "bike_id": "f3fa1b5ce83ee4a6e064af2f36d57e9b", "name": "f3fa1b5ce83ee4a6e064af2f36d57e9b", "is_reserved": 0, "fusion_lat": 0.0}, {"type": "electric_scooter", "rental_uris": {"ios": "https://dc.lft.to/lastmile_qr_scan", "android": "https://dc.lft.to/lastmile_qr_scan"}, "lon": -77.0364445, "fusion_lon": 0.0, "is_disabled": 0, "lat": 38.9178335, "bike_id": "e7f5d3bf92093c0db2bf54f3730bd47b", "name": "e7f5d3bf92093c0db2bf54f3730bd47b", "is_reserved": 0, "fusion_lat": 0.0}, {"type": "electric_scooter", "rental_uris": {"ios": "https://dc.lft.to/lastmile_qr_scan", "android": "https://dc.lft.to/lastmile_qr_scan"}, "lon": -77.04345966666666, "fusion_lon": 0.0, "is_disabled": 0, "lat": 38.9014385, "bike_id": "21801cf8138a1a639a64058fc8a5fc6b", "name": "21801cf8138a1a639a64058fc8a5fc6b", "is_reserved": 0, "fusion_lat": 0.0}, {"type": "electric_scooter", "rental_uris": {"ios": "https://dc.lft.to/lastmile_qr_scan", "android": "https://dc.lft.to/lastmile_qr_scan"}, "lon": -77.04391466666667, "fusion_lon": 0.0, "is_disabled": 0, "lat": 38.9210605, "bike_id": "f7a6ea447f5b27d37ed9df26e10c75a0", "name": "f7a6ea447f5b27d37ed9df26e10c75a0", "is_reserved": 0, "fusion_lat": 0.0}, {"type": "electric_scooter", "rental_uris": {"ios": "https://dc.lft.to/lastmile_qr_scan", "android": "https://dc.lft.to/lastmile_qr_scan"}, "lon": -77.03190966666666, "fusion_lon": 0.0, "is_disabled": 0, "lat": 38.930653666666664, "bike_id": "88b984aaa5dca62fbd96f7253969692a", "name": "88b984aaa5dca62fbd96f7253969692a", "is_reserved": 0, "fusion_lat": 0.0}, {"type": "electric_bike", "rental_uris": {"ios": "https://dc.lft.to/lastmile_qr_scan", "android": "https://dc.lft.to/lastmile_qr_scan"}, "lon": -77.065697, "fusion_lon": 0.0, "is_disabled": 0, "lat": 38.8699885, "bike_id": "5dac74cd7da9be4c0f67bf86a06f2c0b", "name": "5dac74cd7da9be4c0f67bf86a06f2c0b", "is_reserved": 0, "fusion_lat": 0.0}, {"type": "electric_scooter", "rental_uris": {"ios": "https://dc.lft.to/lastmile_qr_scan", "android": "https://dc.lft.to/lastmile_qr_scan"}, "lon": -77.01530366666667, "fusion_lon": 0.0, "is_disabled": 0, "lat": 38.88736883333333, "bike_id": "99f7ca472e77e9f563ec63334421a896", "name": "99f7ca472e77e9f563ec63334421a896", "is_reserved": 0, "fusion_lat": 0.0}, {"type": "electric_scooter", "rental_uris": {"ios": "https://dc.lft.to/lastmile_qr_scan", "android": "https://dc.lft.to/lastmile_qr_scan"}, "lon": -77.02591416666667, "fusion_lon": 0.0, "is_disabled": 0, "lat": 38.90527566666667, "bike_id": "4f2cf4137cbcac7aa39364580da4f7b4", "name": "4f2cf4137cbcac7aa39364580da4f7b4", "is_reserved": 0, "fusion_lat": 0.0}, {"type": "electric_scooter", "rental_uris": {"ios": "https://dc.lft.to/lastmile_qr_scan", "android": "https://dc.lft.to/lastmile_qr_scan"}, "lon": -77.04026216666666, "fusion_lon": 0.0, "is_disabled": 0, "lat": 38.918069, "bike_id": "7f6d600dd5f637e7effc5a6a25d78aeb", "name": "7f6d600dd5f637e7effc5a6a25d78aeb", "is_reserved": 0, "fusion_lat": 0.0}, {"type": "electric_scooter", "rental_uris": {"ios": "https://dc.lft.to/lastmile_qr_scan", "android": "https://dc.lft.to/lastmile_qr_scan"}, "lon": -77.01297116666667, "fusion_lon": 0.0, "is_disabled": 0, "lat": 38.88155233333333, "bike_id": "66fd6385c36bae9521c72b8e8e56633e", "name": "66fd6385c36bae9521c72b8e8e56633e", "is_reserved": 0, "fusion_lat": 0.0}, {"type": "electric_scooter", "rental_uris": {"ios": "https://dc.lft.to/lastmile_qr_scan", "android": "https://dc.lft.to/lastmile_qr_scan"}, "lon": -77.02700216666666, "fusion_lon": 0.0, "is_disabled": 0, "lat": 38.8994295, "bike_id": "36931d08680e5675ee5cd606698e1bbd", "name": "36931d08680e5675ee5cd606698e1bbd", "is_reserved": 0, "fusion_lat": 0.0}, {"type": "electric_scooter", "rental_uris": {"ios": "https://dc.lft.to/lastmile_qr_scan", "android": "https://dc.lft.to/lastmile_qr_scan"}, "lon": -77.04362983333333, "fusion_lon": 0.0, "is_disabled": 0, "lat": 38.892190166666666, "bike_id": "6451c7789df79518d04cdfe24dbedc56", "name": "6451c7789df79518d04cdfe24dbedc56", "is_reserved": 0, "fusion_lat": 0.0}, {"type": "electric_scooter", "rental_uris": {"ios": "https://dc.lft.to/lastmile_qr_scan", "android": "https://dc.lft.to/lastmile_qr_scan"}, "lon": -77.02689083333334, "fusion_lon": 0.0, "is_disabled": 0, "lat": 38.916944, "bike_id": "bc0f60ded80766205890f2c2f21f9c07", "name": "bc0f60ded80766205890f2c2f21f9c07", "is_reserved": 0, "fusion_lat": 0.0}, {"type": "electric_scooter", "rental_uris": {"ios": "https://dc.lft.to/lastmile_qr_scan", "android": "https://dc.lft.to/lastmile_qr_scan"}, "lon": -77.02789666666666, "fusion_lon": 0.0, "is_disabled": 0, "lat": 38.96129033333333, "bike_id": "fae7cd660c8192bc1ec3d50bd68059d6", "name": "fae7cd660c8192bc1ec3d50bd68059d6", "is_reserved": 0, "fusion_lat": 0.0}, {"type": "electric_scooter", "rental_uris": {"ios": "https://dc.lft.to/lastmile_qr_scan", "android": "https://dc.lft.to/lastmile_qr_scan"}, "lon": -77.03077933333333, "fusion_lon": 0.0, "is_disabled": 0, "lat": 38.911159166666664, "bike_id": "72d4c8a29bdb498e5c1174cacedc7971", "name": "72d4c8a29bdb498e5c1174cacedc7971", "is_reserved": 0, "fusion_lat": 0.0}, {"type": "electric_scooter", "rental_uris": {"ios": "https://dc.lft.to/lastmile_qr_scan", "android": "https://dc.lft.to/lastmile_qr_scan"}, "lon": -77.02337483333334, "fusion_lon": 0.0, "is_disabled": 0, "lat": 38.917806666666664, "bike_id": "32990b003046a29745e20f02763e8df0", "name": "32990b003046a29745e20f02763e8df0", "is_reserved": 0, "fusion_lat": 0.0}, {"type": "electric_scooter", "rental_uris": {"ios": "https://dc.lft.to/lastmile_qr_scan", "android": "https://dc.lft.to/lastmile_qr_scan"}, "lon": -77.04473883333333, "fusion_lon": 0.0, "is_disabled": 0, "lat": 38.915296, "bike_id": "253a2eed8038f3282582042ac8999f10", "name": "253a2eed8038f3282582042ac8999f10", "is_reserved": 0, "fusion_lat": 0.0}, {"type": "electric_scooter", "rental_uris": {"ios": "https://dc.lft.to/lastmile_qr_scan", "android": "https://dc.lft.to/lastmile_qr_scan"}, "lon": -77.04221183333334, "fusion_lon": 0.0, "is_disabled": 0, "lat": 38.907852, "bike_id": "9fb138930e6887d3ea8c38962f28ac33", "name": "9fb138930e6887d3ea8c38962f28ac33", "is_reserved": 0, "fusion_lat": 0.0}, {"type": "electric_scooter", "rental_uris": {"ios": "https://dc.lft.to/lastmile_qr_scan", "android": "https://dc.lft.to/lastmile_qr_scan"}, "lon": -77.04006266666667, "fusion_lon": 0.0, "is_disabled": 0, "lat": 38.92207783333333, "bike_id": "8a8d21b31d24c4cb5e9bea843dddf8af", "name": "8a8d21b31d24c4cb5e9bea843dddf8af", "is_reserved": 0, "fusion_lat": 0.0}, {"type": "electric_bike", "rental_uris": {"ios": "https://dc.lft.to/lastmile_qr_scan", "android": "https://dc.lft.to/lastmile_qr_scan"}, "lon": -77.18740083333333, "fusion_lon": 0.0, "is_disabled": 0, "lat": 38.893532666666665, "bike_id": "006e25f666f1683ba86eda7e027bb8fb", "name": "006e25f666f1683ba86eda7e027bb8fb", "is_reserved": 0, "fusion_lat": 0.0}, {"type": "electric_scooter", "rental_uris": {"ios": "https://dc.lft.to/lastmile_qr_scan", "android": "https://dc.lft.to/lastmile_qr_scan"}, "lon": -77.0447505, "fusion_lon": 0.0, "is_disabled": 0, "lat": 38.91215783333333, "bike_id": "d6aeab1d8e6bc13a5945041581d2e33c", "name": "d6aeab1d8e6bc13a5945041581d2e33c", "is_reserved": 0, "fusion_lat": 0.0}, {"type": "electric_scooter", "rental_uris": {"ios": "https://dc.lft.to/lastmile_qr_scan", "android": "https://dc.lft.to/lastmile_qr_scan"}, "lon": -77.03277816666667, "fusion_lon": 0.0, "is_disabled": 0, "lat": 38.89909883333333, "bike_id": "53ec28e79dc21eb4b36a73d75f25b7d5", "name": "53ec28e79dc21eb4b36a73d75f25b7d5", "is_reserved": 0, "fusion_lat": 0.0}, {"type": "electric_scooter", "rental_uris": {"ios": "https://dc.lft.to/lastmile_qr_scan", "android": "https://dc.lft.to/lastmile_qr_scan"}, "lon": -77.03663966666667, "fusion_lon": 0.0, "is_disabled": 0, "lat": 38.917261833333335, "bike_id": "1ee9eb114254ddeaed7e8bb54bbf5012", "name": "1ee9eb114254ddeaed7e8bb54bbf5012", "is_reserved": 0, "fusion_lat": 0.0}, {"type": "electric_bike", "rental_uris": {"ios": "https://dc.lft.to/lastmile_qr_scan", "android": "https://dc.lft.to/lastmile_qr_scan"}, "lon": -77.044198, "fusion_lon": 0.0, "is_disabled": 0, "lat": 39.015697833333334, "bike_id": "fe2fab4b4ed303753cf924cd230628e7", "name": "fe2fab4b4ed303753cf924cd230628e7", "is_reserved": 0, "fusion_lat": 0.0}, {"type": "electric_scooter", "rental_uris": {"ios": "https://dc.lft.to/lastmile_qr_scan", "android": "https://dc.lft.to/lastmile_qr_scan"}, "lon": -76.946328, "fusion_lon": 0.0, "is_disabled": 0, "lat": 38.89843533333333, "bike_id": "53e9426bb28e2dbeba8dafe72430551d", "name": "53e9426bb28e2dbeba8dafe72430551d", "is_reserved": 0, "fusion_lat": 0.0}, {"type": "electric_bike", "rental_uris": {"ios": "https://dc.lft.to/lastmile_qr_scan", "android": "https://dc.lft.to/lastmile_qr_scan"}, "lon": -77.03815833333333, "fusion_lon": 0.0, "is_disabled": 0, "lat": 38.914159166666664, "bike_id": "10715a3e30741d6b7581ff9de7de8dab", "name": "10715a3e30741d6b7581ff9de7de8dab", "is_reserved": 0, "fusion_lat": 0.0}, {"type": "electric_scooter", "rental_uris": {"ios": "https://dc.lft.to/lastmile_qr_scan", "android": "https://dc.lft.to/lastmile_qr_scan"}, "lon": -77.02605466666667, "fusion_lon": 0.0, "is_disabled": 0, "lat": 38.9141295, "bike_id": "0f2c319ea3b8c4ac1a23ae3d034e6685", "name": "0f2c319ea3b8c4ac1a23ae3d034e6685", "is_reserved": 0, "fusion_lat": 0.0}, {"type": "electric_scooter", "rental_uris": {"ios": "https://dc.lft.to/lastmile_qr_scan", "android": "https://dc.lft.to/lastmile_qr_scan"}, "lon": -77.03854466666667, "fusion_lon": 0.0, "is_disabled": 0, "lat": 38.915518666666664, "bike_id": "f1eb11d215b4324ecf7ffa4d5f196c57", "name": "f1eb11d215b4324ecf7ffa4d5f196c57", "is_reserved": 0, "fusion_lat": 0.0}, {"type": "electric_scooter", "rental_uris": {"ios": "https://dc.lft.to/lastmile_qr_scan", "android": "https://dc.lft.to/lastmile_qr_scan"}, "lon": -76.97665783333333, "fusion_lon": 0.0, "is_disabled": 0, "lat": 38.898571833333335, "bike_id": "4572e72f50c7b82600b646c3bdd92bfb", "name": "4572e72f50c7b82600b646c3bdd92bfb", "is_reserved": 0, "fusion_lat": 0.0}, {"type": "electric_scooter", "rental_uris": {"ios": "https://dc.lft.to/lastmile_qr_scan", "android": "https://dc.lft.to/lastmile_qr_scan"}, "lon": -76.9418415, "fusion_lon": 0.0, "is_disabled": 0, "lat": 38.897589833333335, "bike_id": "fe5d91d73adf113957c0a1f788e65e85", "name": "fe5d91d73adf113957c0a1f788e65e85", "is_reserved": 0, "fusion_lat": 0.0}, {"type": "electric_scooter", "rental_uris": {"ios": "https://dc.lft.to/lastmile_qr_scan", "android": "https://dc.lft.to/lastmile_qr_scan"}, "lon": -77.01944316666666, "fusion_lon": 0.0, "is_disabled": 0, "lat": 38.94928083333333, "bike_id": "ef497af627c625796ed77345aad84844", "name": "ef497af627c625796ed77345aad84844", "is_reserved": 0, "fusion_lat": 0.0}, {"type": "electric_scooter", "rental_uris": {"ios": "https://dc.lft.to/lastmile_qr_scan", "android": "https://dc.lft.to/lastmile_qr_scan"}, "lon": -77.03416266666666, "fusion_lon": 0.0, "is_disabled": 0, "lat": 38.922382666666664, "bike_id": "b4a1bbb38ebcc14312e42c453e492cbd", "name": "b4a1bbb38ebcc14312e42c453e492cbd", "is_reserved": 0, "fusion_lat": 0.0}, {"type": "electric_scooter", "rental_uris": {"ios": "https://dc.lft.to/lastmile_qr_scan", "android": "https://dc.lft.to/lastmile_qr_scan"}, "lon": -77.02297766666666, "fusion_lon": 0.0, "is_disabled": 0, "lat": 38.91737083333334, "bike_id": "f7d8f03fafdf479f15d9749babe8dfbc", "name": "f7d8f03fafdf479f15d9749babe8dfbc", "is_reserved": 0, "fusion_lat": 0.0}, {"type": "electric_scooter", "rental_uris": {"ios": "https://dc.lft.to/lastmile_qr_scan", "android": "https://dc.lft.to/lastmile_qr_scan"}, "lon": -77.03439516666667, "fusion_lon": 0.0, "is_disabled": 0, "lat": 38.9072495, "bike_id": "b307ec8bab69354bb4a01b5b094c5529", "name": "b307ec8bab69354bb4a01b5b094c5529", "is_reserved": 0, "fusion_lat": 0.0}, {"type": "electric_scooter", "rental_uris": {"ios": "https://dc.lft.to/lastmile_qr_scan", "android": "https://dc.lft.to/lastmile_qr_scan"}, "lon": -77.02583, "fusion_lon": 0.0, "is_disabled": 0, "lat": 38.90969316666666, "bike_id": "c2c4fa4fe66840dfa616059361741b8e", "name": "c2c4fa4fe66840dfa616059361741b8e", "is_reserved": 0, "fusion_lat": 0.0}, {"type": "electric_scooter", "rental_uris": {"ios": "https://dc.lft.to/lastmile_qr_scan", "android": "https://dc.lft.to/lastmile_qr_scan"}, "lon": -77.04028216666667, "fusion_lon": 0.0, "is_disabled": 0, "lat": 38.918081666666666, "bike_id": "cec1ee825be6999b5e12ac999ef7ee45", "name": "cec1ee825be6999b5e12ac999ef7ee45", "is_reserved": 0, "fusion_lat": 0.0}, {"type": "electric_scooter", "rental_uris": {"ios": "https://dc.lft.to/lastmile_qr_scan", "android": "https://dc.lft.to/lastmile_qr_scan"}, "lon": -77.03710266666667, "fusion_lon": 0.0, "is_disabled": 0, "lat": 38.928626666666666, "bike_id": "9300329da2cef05096141fe477248958", "name": "9300329da2cef05096141fe477248958", "is_reserved": 0, "fusion_lat": 0.0}, {"type": "electric_scooter", "rental_uris": {"ios": "https://dc.lft.to/lastmile_qr_scan", "android": "https://dc.lft.to/lastmile_qr_scan"}, "lon": -77.031486, "fusion_lon": 0.0, "is_disabled": 0, "lat": 38.9156805, "bike_id": "b84209cc6cc0719473ed8df525e0ee2c", "name": "b84209cc6cc0719473ed8df525e0ee2c", "is_reserved": 0, "fusion_lat": 0.0}, {"type": "electric_scooter", "rental_uris": {"ios": "https://dc.lft.to/lastmile_qr_scan", "android": "https://dc.lft.to/lastmile_qr_scan"}, "lon": -77.03216133333333, "fusion_lon": 0.0, "is_disabled": 0, "lat": 38.907874166666666, "bike_id": "751f11c3384f61b72cea2134b13e471c", "name": "751f11c3384f61b72cea2134b13e471c", "is_reserved": 0, "fusion_lat": 0.0}, {"type": "electric_scooter", "rental_uris": {"ios": "https://dc.lft.to/lastmile_qr_scan", "android": "https://dc.lft.to/lastmile_qr_scan"}, "lon": -77.02358933333333, "fusion_lon": 0.0, "is_disabled": 0, "lat": 38.9177385, "bike_id": "6d8f9f8a62f36ba2607f9ae98cf93b7f", "name": "6d8f9f8a62f36ba2607f9ae98cf93b7f", "is_reserved": 0, "fusion_lat": 0.0}, {"type": "electric_bike", "rental_uris": {"ios": "https://dc.lft.to/lastmile_qr_scan", "android": "https://dc.lft.to/lastmile_qr_scan"}, "lon": -77.12028233333334, "fusion_lon": 0.0, "is_disabled": 0, "lat": 38.85519266666667, "bike_id": "ab415f6ad0c099400d55ea442d243f84", "name": "ab415f6ad0c099400d55ea442d243f84", "is_reserved": 0, "fusion_lat": 0.0}, {"type": "electric_scooter", "rental_uris": {"ios": "https://dc.lft.to/lastmile_qr_scan", "android": "https://dc.lft.to/lastmile_qr_scan"}, "lon": -77.0106345, "fusion_lon": 0.0, "is_disabled": 0, "lat": 38.89585483333333, "bike_id": "601fb60e34b7c22dc6ef220ef0e4ba3c", "name": "601fb60e34b7c22dc6ef220ef0e4ba3c", "is_reserved": 0, "fusion_lat": 0.0}, {"type": "electric_scooter", "rental_uris": {"ios": "https://dc.lft.to/lastmile_qr_scan", "android": "https://dc.lft.to/lastmile_qr_scan"}, "lon": -76.935245, "fusion_lon": 0.0, "is_disabled": 0, "lat": 38.878986, "bike_id": "42d4e9cc9e17b0a481fa1541c817396e", "name": "42d4e9cc9e17b0a481fa1541c817396e", "is_reserved": 0, "fusion_lat": 0.0}, {"type": "electric_scooter", "rental_uris": {"ios": "https://dc.lft.to/lastmile_qr_scan", "android": "https://dc.lft.to/lastmile_qr_scan"}, "lon": -77.0363195, "fusion_lon": 0.0, "is_disabled": 0, "lat": 38.932850333333334, "bike_id": "4d108d52eba020194e47114b030cc12b", "name": "4d108d52eba020194e47114b030cc12b", "is_reserved": 0, "fusion_lat": 0.0}, {"type": "electric_scooter", "rental_uris": {"ios": "https://dc.lft.to/lastmile_qr_scan", "android": "https://dc.lft.to/lastmile_qr_scan"}, "lon": -77.032112, "fusion_lon": 0.0, "is_disabled": 0, "lat": 38.89574916666667, "bike_id": "4c90d01223f7e1b7f5b81386b407bb60", "name": "4c90d01223f7e1b7f5b81386b407bb60", "is_reserved": 0, "fusion_lat": 0.0}, {"type": "electric_scooter", "rental_uris": {"ios": "https://dc.lft.to/lastmile_qr_scan", "android": "https://dc.lft.to/lastmile_qr_scan"}, "lon": -77.0419775, "fusion_lon": 0.0, "is_disabled": 0, "lat": 38.8922225, "bike_id": "30228e531ae85f4a1949357a5c1eb43b", "name": "30228e531ae85f4a1949357a5c1eb43b", "is_reserved": 0, "fusion_lat": 0.0}, {"type": "electric_scooter", "rental_uris": {"ios": "https://dc.lft.to/lastmile_qr_scan", "android": "https://dc.lft.to/lastmile_qr_scan"}, "lon": -77.053321, "fusion_lon": 0.0, "is_disabled": 0, "lat": 38.92335833333333, "bike_id": "fe7eb8aade46bb0f2a55a738ebc40e58", "name": "fe7eb8aade46bb0f2a55a738ebc40e58", "is_reserved": 0, "fusion_lat": 0.0}, {"type": "electric_scooter", "rental_uris": {"ios": "https://dc.lft.to/lastmile_qr_scan", "android": "https://dc.lft.to/lastmile_qr_scan"}, "lon": -77.0688845, "fusion_lon": 0.0, "is_disabled": 0, "lat": 38.904188, "bike_id": "079a98feb880dc917994cca95e21ede8", "name": "079a98feb880dc917994cca95e21ede8", "is_reserved": 0, "fusion_lat": 0.0}, {"type": "electric_scooter", "rental_uris": {"ios": "https://dc.lft.to/lastmile_qr_scan", "android": "https://dc.lft.to/lastmile_qr_scan"}, "lon": -77.03641733333333, "fusion_lon": 0.0, "is_disabled": 0, "lat": 38.92084466666667, "bike_id": "d5dbc5f32d872a70b0a28c0d3477efac", "name": "d5dbc5f32d872a70b0a28c0d3477efac", "is_reserved": 0, "fusion_lat": 0.0}, {"type": "electric_scooter", "rental_uris": {"ios": "https://dc.lft.to/lastmile_qr_scan", "android": "https://dc.lft.to/lastmile_qr_scan"}, "lon": -77.03680966666667, "fusion_lon": 0.0, "is_disabled": 0, "lat": 38.919161333333335, "bike_id": "1ff78bb173baef75b76ee933ac9141cc", "name": "1ff78bb173baef75b76ee933ac9141cc", "is_reserved": 0, "fusion_lat": 0.0}, {"type": "electric_scooter", "rental_uris": {"ios": "https://dc.lft.to/lastmile_qr_scan", "android": "https://dc.lft.to/lastmile_qr_scan"}, "lon": -76.9938955, "fusion_lon": 0.0, "is_disabled": 0, "lat": 38.9101215, "bike_id": "12e6dac06c227e6ae0c195a181d2fb4d", "name": "12e6dac06c227e6ae0c195a181d2fb4d", "is_reserved": 0, "fusion_lat": 0.0}, {"type": "electric_scooter", "rental_uris": {"ios": "https://dc.lft.to/lastmile_qr_scan", "android": "https://dc.lft.to/lastmile_qr_scan"}, "lon": -77.04866083333333, "fusion_lon": 0.0, "is_disabled": 0, "lat": 38.90964683333333, "bike_id": "1e3d5b47c4ba9c34e41389898952245c", "name": "1e3d5b47c4ba9c34e41389898952245c", "is_reserved": 0, "fusion_lat": 0.0}, {"type": "electric_scooter", "rental_uris": {"ios": "https://dc.lft.to/lastmile_qr_scan", "android": "https://dc.lft.to/lastmile_qr_scan"}, "lon": -77.03183466666667, "fusion_lon": 0.0, "is_disabled": 0, "lat": 38.91329733333333, "bike_id": "46b448debda32de7b8b588008c39c636", "name": "46b448debda32de7b8b588008c39c636", "is_reserved": 0, "fusion_lat": 0.0}, {"type": "electric_scooter", "rental_uris": {"ios": "https://dc.lft.to/lastmile_qr_scan", "android": "https://dc.lft.to/lastmile_qr_scan"}, "lon": -77.03251516666667, "fusion_lon": 0.0, "is_disabled": 0, "lat": 38.89894483333333, "bike_id": "eefffaf9d40d4c88cd95f341d26c86ed", "name": "eefffaf9d40d4c88cd95f341d26c86ed", "is_reserved": 0, "fusion_lat": 0.0}, {"type": "electric_scooter", "rental_uris": {"ios": "https://dc.lft.to/lastmile_qr_scan", "android": "https://dc.lft.to/lastmile_qr_scan"}, "lon": -77.01742166666666, "fusion_lon": 0.0, "is_disabled": 0, "lat": 38.920359833333336, "bike_id": "b71ec218532d20bc97401360c2db7a81", "name": "b71ec218532d20bc97401360c2db7a81", "is_reserved": 0, "fusion_lat": 0.0}, {"type": "electric_scooter", "rental_uris": {"ios": "https://dc.lft.to/lastmile_qr_scan", "android": "https://dc.lft.to/lastmile_qr_scan"}, "lon": -77.0416, "fusion_lon": 0.0, "is_disabled": 0, "lat": 38.93419933333333, "bike_id": "65f28587ee8413f40eff393ab748d64d", "name": "65f28587ee8413f40eff393ab748d64d", "is_reserved": 0, "fusion_lat": 0.0}, {"type": "electric_scooter", "rental_uris": {"ios": "https://dc.lft.to/lastmile_qr_scan", "android": "https://dc.lft.to/lastmile_qr_scan"}, "lon": -77.026916, "fusion_lon": 0.0, "is_disabled": 0, "lat": 38.9112595, "bike_id": "afa959ae32c7a2ff53de1b4844beb8d1", "name": "afa959ae32c7a2ff53de1b4844beb8d1", "is_reserved": 0, "fusion_lat": 0.0}, {"type": "electric_scooter", "rental_uris": {"ios": "https://dc.lft.to/lastmile_qr_scan", "android": "https://dc.lft.to/lastmile_qr_scan"}, "lon": -77.03642783333333, "fusion_lon": 0.0, "is_disabled": 0, "lat": 38.9161965, "bike_id": "83fe9bcd0b271ad50353a327850d6246", "name": "83fe9bcd0b271ad50353a327850d6246", "is_reserved": 0, "fusion_lat": 0.0}, {"type": "electric_scooter", "rental_uris": {"ios": "https://dc.lft.to/lastmile_qr_scan", "android": "https://dc.lft.to/lastmile_qr_scan"}, "lon": -77.02145833333333, "fusion_lon": 0.0, "is_disabled": 0, "lat": 38.886338, "bike_id": "d4ee36ac9e97a174e2be78a55cf0791e", "name": "d4ee36ac9e97a174e2be78a55cf0791e", "is_reserved": 0, "fusion_lat": 0.0}, {"type": "electric_bike", "rental_uris": {"ios": "https://dc.lft.to/lastmile_qr_scan", "android": "https://dc.lft.to/lastmile_qr_scan"}, "lon": -77.12038133333333, "fusion_lon": 0.0, "is_disabled": 0, "lat": 38.854972333333336, "bike_id": "bcc6330fb074e61fc912b1cbf1fb81e7", "name": "bcc6330fb074e61fc912b1cbf1fb81e7", "is_reserved": 0, "fusion_lat": 0.0}, {"type": "electric_bike", "rental_uris": {"ios": "https://dc.lft.to/lastmile_qr_scan", "android": "https://dc.lft.to/lastmile_qr_scan"}, "lon": -77.11610316666666, "fusion_lon": 0.0, "is_disabled": 0, "lat": 38.854858166666666, "bike_id": "4901aa5c195d5c3ead9d0acc845827b3", "name": "4901aa5c195d5c3ead9d0acc845827b3", "is_reserved": 0, "fusion_lat": 0.0}, {"type": "electric_scooter", "rental_uris": {"ios": "https://dc.lft.to/lastmile_qr_scan", "android": "https://dc.lft.to/lastmile_qr_scan"}, "lon": -77.03786416666667, "fusion_lon": 0.0, "is_disabled": 0, "lat": 38.93023816666667, "bike_id": "978ce8303b97a7d4b3b405bd020e981f", "name": "978ce8303b97a7d4b3b405bd020e981f", "is_reserved": 0, "fusion_lat": 0.0}, {"type": "electric_bike", "rental_uris": {"ios": "https://dc.lft.to/lastmile_qr_scan", "android": "https://dc.lft.to/lastmile_qr_scan"}, "lon": -77.088389, "fusion_lon": 0.0, "is_disabled": 0, "lat": 38.9669565, "bike_id": "af4b71afac92e854183bdcd56022ebc0", "name": "af4b71afac92e854183bdcd56022ebc0", "is_reserved": 0, "fusion_lat": 0.0}, {"type": "electric_scooter", "rental_uris": {"ios": "https://dc.lft.to/lastmile_qr_scan", "android": "https://dc.lft.to/lastmile_qr_scan"}, "lon": -77.04014533333333, "fusion_lon": 0.0, "is_disabled": 0, "lat": 38.94194566666667, "bike_id": "ccdad96cc6b77eebaa79abb09090b0aa", "name": "ccdad96cc6b77eebaa79abb09090b0aa", "is_reserved": 0, "fusion_lat": 0.0}, {"type": "electric_scooter", "rental_uris": {"ios": "https://dc.lft.to/lastmile_qr_scan", "android": "https://dc.lft.to/lastmile_qr_scan"}, "lon": -77.015622, "fusion_lon": 0.0, "is_disabled": 0, "lat": 38.87991266666667, "bike_id": "9746026b488ff3b2414994aed2a18f2d", "name": "9746026b488ff3b2414994aed2a18f2d", "is_reserved": 0, "fusion_lat": 0.0}, {"type": "electric_bike", "rental_uris": {"ios": "https://dc.lft.to/lastmile_qr_scan", "android": "https://dc.lft.to/lastmile_qr_scan"}, "lon": -76.988086, "fusion_lon": 0.0, "is_disabled": 0, "lat": 38.911399833333334, "bike_id": "017cbee77a7994de6f563dcce1fffa2e", "name": "017cbee77a7994de6f563dcce1fffa2e", "is_reserved": 0, "fusion_lat": 0.0}, {"type": "electric_scooter", "rental_uris": {"ios": "https://dc.lft.to/lastmile_qr_scan", "android": "https://dc.lft.to/lastmile_qr_scan"}, "lon": -77.02606733333333, "fusion_lon": 0.0, "is_disabled": 0, "lat": 38.930749166666665, "bike_id": "ec0f5b12e4d5eeca795ab44b4a3f8bac", "name": "ec0f5b12e4d5eeca795ab44b4a3f8bac", "is_reserved": 0, "fusion_lat": 0.0}, {"type": "electric_scooter", "rental_uris": {"ios": "https://dc.lft.to/lastmile_qr_scan", "android": "https://dc.lft.to/lastmile_qr_scan"}, "lon": -77.007658, "fusion_lon": 0.0, "is_disabled": 0, "lat": 38.9072265, "bike_id": "3a65edaf8d88d53380f2bc86a322282f", "name": "3a65edaf8d88d53380f2bc86a322282f", "is_reserved": 0, "fusion_lat": 0.0}, {"type": "electric_scooter", "rental_uris": {"ios": "https://dc.lft.to/lastmile_qr_scan", "android": "https://dc.lft.to/lastmile_qr_scan"}, "lon": -77.0324785, "fusion_lon": 0.0, "is_disabled": 0, "lat": 38.92543933333333, "bike_id": "358e22911fec6c42802457ed28bdad5d", "name": "358e22911fec6c42802457ed28bdad5d", "is_reserved": 0, "fusion_lat": 0.0}, {"type": "electric_scooter", "rental_uris": {"ios": "https://dc.lft.to/lastmile_qr_scan", "android": "https://dc.lft.to/lastmile_qr_scan"}, "lon": -77.025857, "fusion_lon": 0.0, "is_disabled": 0, "lat": 38.9141315, "bike_id": "402af3010aa8f0502747eb233d541f4c", "name": "402af3010aa8f0502747eb233d541f4c", "is_reserved": 0, "fusion_lat": 0.0}, {"type": "electric_scooter", "rental_uris": {"ios": "https://dc.lft.to/lastmile_qr_scan", "android": "https://dc.lft.to/lastmile_qr_scan"}, "lon": -76.987323, "fusion_lon": 0.0, "is_disabled": 0, "lat": 38.8671455, "bike_id": "f5c4ac1dfad1178284be7996961b7735", "name": "f5c4ac1dfad1178284be7996961b7735", "is_reserved": 0, "fusion_lat": 0.0}, {"type": "electric_scooter", "rental_uris": {"ios": "https://dc.lft.to/lastmile_qr_scan", "android": "https://dc.lft.to/lastmile_qr_scan"}, "lon": -77.03118216666667, "fusion_lon": 0.0, "is_disabled": 0, "lat": 38.9376615, "bike_id": "6bb09199d4313e683150ad545fd43e52", "name": "6bb09199d4313e683150ad545fd43e52", "is_reserved": 0, "fusion_lat": 0.0}, {"type": "electric_scooter", "rental_uris": {"ios": "https://dc.lft.to/lastmile_qr_scan", "android": "https://dc.lft.to/lastmile_qr_scan"}, "lon": -76.99831933333333, "fusion_lon": 0.0, "is_disabled": 0, "lat": 38.88537266666667, "bike_id": "12d2ba1ca456aaa49568f415ffaece1c", "name": "12d2ba1ca456aaa49568f415ffaece1c", "is_reserved": 0, "fusion_lat": 0.0}, {"type": "electric_scooter", "rental_uris": {"ios": "https://dc.lft.to/lastmile_qr_scan", "android": "https://dc.lft.to/lastmile_qr_scan"}, "lon": -77.05271716666667, "fusion_lon": 0.0, "is_disabled": 0, "lat": 38.9254755, "bike_id": "0c49e687cf5ffd6731cf5b56f407c959", "name": "0c49e687cf5ffd6731cf5b56f407c959", "is_reserved": 0, "fusion_lat": 0.0}, {"type": "electric_scooter", "rental_uris": {"ios": "https://dc.lft.to/lastmile_qr_scan", "android": "https://dc.lft.to/lastmile_qr_scan"}, "lon": -77.0294905, "fusion_lon": 0.0, "is_disabled": 0, "lat": 38.93249733333333, "bike_id": "5403ed934ec4c2be3b9ede1c7b0577cd", "name": "5403ed934ec4c2be3b9ede1c7b0577cd", "is_reserved": 0, "fusion_lat": 0.0}, {"type": "electric_bike", "rental_uris": {"ios": "https://dc.lft.to/lastmile_qr_scan", "android": "https://dc.lft.to/lastmile_qr_scan"}, "lon": -76.99354766666667, "fusion_lon": 0.0, "is_disabled": 0, "lat": 38.845052333333335, "bike_id": "7bc87f158197eb74fefcf0a0b9942bad", "name": "7bc87f158197eb74fefcf0a0b9942bad", "is_reserved": 0, "fusion_lat": 0.0}, {"type": "electric_scooter", "rental_uris": {"ios": "https://dc.lft.to/lastmile_qr_scan", "android": "https://dc.lft.to/lastmile_qr_scan"}, "lon": -77.02711416666666, "fusion_lon": 0.0, "is_disabled": 0, "lat": 38.906858166666666, "bike_id": "6cd1812fc4bcf2c83a8250f1cd0810f5", "name": "6cd1812fc4bcf2c83a8250f1cd0810f5", "is_reserved": 0, "fusion_lat": 0.0}, {"type": "electric_scooter", "rental_uris": {"ios": "https://dc.lft.to/lastmile_qr_scan", "android": "https://dc.lft.to/lastmile_qr_scan"}, "lon": -76.96527266666666, "fusion_lon": 0.0, "is_disabled": 0, "lat": 38.87629583333333, "bike_id": "84513de0e9f7ad45bf1f8aba92717998", "name": "84513de0e9f7ad45bf1f8aba92717998", "is_reserved": 0, "fusion_lat": 0.0}, {"type": "electric_scooter", "rental_uris": {"ios": "https://dc.lft.to/lastmile_qr_scan", "android": "https://dc.lft.to/lastmile_qr_scan"}, "lon": -77.02290516666666, "fusion_lon": 0.0, "is_disabled": 0, "lat": 38.91447816666667, "bike_id": "41eeef7ffbcc96a669c332a685ae38ae", "name": "41eeef7ffbcc96a669c332a685ae38ae", "is_reserved": 0, "fusion_lat": 0.0}, {"type": "electric_scooter", "rental_uris": {"ios": "https://dc.lft.to/lastmile_qr_scan", "android": "https://dc.lft.to/lastmile_qr_scan"}, "lon": -77.03163683333334, "fusion_lon": 0.0, "is_disabled": 0, "lat": 38.91603683333334, "bike_id": "9369e2686c9999bb2f3e836b3ec38e1b", "name": "9369e2686c9999bb2f3e836b3ec38e1b", "is_reserved": 0, "fusion_lat": 0.0}, {"type": "electric_scooter", "rental_uris": {"ios": "https://dc.lft.to/lastmile_qr_scan", "android": "https://dc.lft.to/lastmile_qr_scan"}, "lon": -77.03663316666666, "fusion_lon": 0.0, "is_disabled": 0, "lat": 38.922522666666666, "bike_id": "6948d151c9e23bc4b063a265045f5a10", "name": "6948d151c9e23bc4b063a265045f5a10", "is_reserved": 0, "fusion_lat": 0.0}, {"type": "electric_scooter", "rental_uris": {"ios": "https://dc.lft.to/lastmile_qr_scan", "android": "https://dc.lft.to/lastmile_qr_scan"}, "lon": -76.96529233333334, "fusion_lon": 0.0, "is_disabled": 0, "lat": 38.87632466666667, "bike_id": "621418e13cad176de9ae81793dec2965", "name": "621418e13cad176de9ae81793dec2965", "is_reserved": 0, "fusion_lat": 0.0}, {"type": "electric_bike", "rental_uris": {"ios": "https://dc.lft.to/lastmile_qr_scan", "android": "https://dc.lft.to/lastmile_qr_scan"}, "lon": -77.02092966666666, "fusion_lon": 0.0, "is_disabled": 0, "lat": 38.93724016666667, "bike_id": "6c1d52b5063948630857de46c7471bad", "name": "6c1d52b5063948630857de46c7471bad", "is_reserved": 0, "fusion_lat": 0.0}, {"type": "electric_scooter", "rental_uris": {"ios": "https://dc.lft.to/lastmile_qr_scan", "android": "https://dc.lft.to/lastmile_qr_scan"}, "lon": -77.0388475, "fusion_lon": 0.0, "is_disabled": 0, "lat": 38.906447, "bike_id": "3897f0915c84e5667f159f13a6b57c64", "name": "3897f0915c84e5667f159f13a6b57c64", "is_reserved": 0, "fusion_lat": 0.0}, {"type": "electric_scooter", "rental_uris": {"ios": "https://dc.lft.to/lastmile_qr_scan", "android": "https://dc.lft.to/lastmile_qr_scan"}, "lon": -77.04476016666666, "fusion_lon": 0.0, "is_disabled": 0, "lat": 38.91123616666667, "bike_id": "3c8c435641f4fe4d609fcf235acdd0aa", "name": "3c8c435641f4fe4d609fcf235acdd0aa", "is_reserved": 0, "fusion_lat": 0.0}, {"type": "electric_bike", "rental_uris": {"ios": "https://dc.lft.to/lastmile_qr_scan", "android": "https://dc.lft.to/lastmile_qr_scan"}, "lon": -77.11799516666666, "fusion_lon": 0.0, "is_disabled": 0, "lat": 38.87373516666667, "bike_id": "9ae77a8b94c2e3b408c94bd07bd4c90e", "name": "9ae77a8b94c2e3b408c94bd07bd4c90e", "is_reserved": 0, "fusion_lat": 0.0}, {"type": "electric_scooter", "rental_uris": {"ios": "https://dc.lft.to/lastmile_qr_scan", "android": "https://dc.lft.to/lastmile_qr_scan"}, "lon": -77.04527416666667, "fusion_lon": 0.0, "is_disabled": 0, "lat": 38.91626216666667, "bike_id": "1df2539df830e510943d728f2f54f752", "name": "1df2539df830e510943d728f2f54f752", "is_reserved": 0, "fusion_lat": 0.0}, {"type": "electric_bike", "rental_uris": {"ios": "https://dc.lft.to/lastmile_qr_scan", "android": "https://dc.lft.to/lastmile_qr_scan"}, "lon": -77.02616283333333, "fusion_lon": 0.0, "is_disabled": 0, "lat": 38.96926716666667, "bike_id": "0e44e36053d81cecc129187c78b0642b", "name": "0e44e36053d81cecc129187c78b0642b", "is_reserved": 0, "fusion_lat": 0.0}, {"type": "electric_scooter", "rental_uris": {"ios": "https://dc.lft.to/lastmile_qr_scan", "android": "https://dc.lft.to/lastmile_qr_scan"}, "lon": -77.0378305, "fusion_lon": 0.0, "is_disabled": 0, "lat": 38.92636666666667, "bike_id": "278156fa7c4c7c66150dc9841113b413", "name": "278156fa7c4c7c66150dc9841113b413", "is_reserved": 0, "fusion_lat": 0.0}, {"type": "electric_scooter", "rental_uris": {"ios": "https://dc.lft.to/lastmile_qr_scan", "android": "https://dc.lft.to/lastmile_qr_scan"}, "lon": -77.0117275, "fusion_lon": 0.0, "is_disabled": 0, "lat": 38.900028, "bike_id": "d8bca9185ea9a92343eff73bff938edb", "name": "d8bca9185ea9a92343eff73bff938edb", "is_reserved": 0, "fusion_lat": 0.0}, {"type": "electric_scooter", "rental_uris": {"ios": "https://dc.lft.to/lastmile_qr_scan", "android": "https://dc.lft.to/lastmile_qr_scan"}, "lon": -77.02173816666667, "fusion_lon": 0.0, "is_disabled": 0, "lat": 38.897439, "bike_id": "4914b5882b18a91ecf039ac4dd4911b4", "name": "4914b5882b18a91ecf039ac4dd4911b4", "is_reserved": 0, "fusion_lat": 0.0}, {"type": "electric_scooter", "rental_uris": {"ios": "https://dc.lft.to/lastmile_qr_scan", "android": "https://dc.lft.to/lastmile_qr_scan"}, "lon": -77.0522185, "fusion_lon": 0.0, "is_disabled": 0, "lat": 38.924982, "bike_id": "dc20117edc5f100b37bf0947b7e9f86e", "name": "dc20117edc5f100b37bf0947b7e9f86e", "is_reserved": 0, "fusion_lat": 0.0}, {"type": "electric_scooter", "rental_uris": {"ios": "https://dc.lft.to/lastmile_qr_scan", "android": "https://dc.lft.to/lastmile_qr_scan"}, "lon": -77.02302233333333, "fusion_lon": 0.0, "is_disabled": 0, "lat": 38.916259833333335, "bike_id": "bf5efa4b9c2be0eff3018c866b2b466c", "name": "bf5efa4b9c2be0eff3018c866b2b466c", "is_reserved": 0, "fusion_lat": 0.0}, {"type": "electric_scooter", "rental_uris": {"ios": "https://dc.lft.to/lastmile_qr_scan", "android": "https://dc.lft.to/lastmile_qr_scan"}, "lon": -76.97945, "fusion_lon": 0.0, "is_disabled": 0, "lat": 38.94525483333334, "bike_id": "81849b3b03eaf7e16569ecf0c17fced9", "name": "81849b3b03eaf7e16569ecf0c17fced9", "is_reserved": 0, "fusion_lat": 0.0}, {"type": "electric_scooter", "rental_uris": {"ios": "https://dc.lft.to/lastmile_qr_scan", "android": "https://dc.lft.to/lastmile_qr_scan"}, "lon": -77.04171466666666, "fusion_lon": 0.0, "is_disabled": 0, "lat": 38.90140683333333, "bike_id": "39d4596731b9538b4db398b2cb2327dc", "name": "39d4596731b9538b4db398b2cb2327dc", "is_reserved": 0, "fusion_lat": 0.0}, {"type": "electric_scooter", "rental_uris": {"ios": "https://dc.lft.to/lastmile_qr_scan", "android": "https://dc.lft.to/lastmile_qr_scan"}, "lon": -77.0395015, "fusion_lon": 0.0, "is_disabled": 0, "lat": 38.90725716666667, "bike_id": "ab4d35c92d497b3d91493cf22ec3a52f", "name": "ab4d35c92d497b3d91493cf22ec3a52f", "is_reserved": 0, "fusion_lat": 0.0}, {"type": "electric_bike", "rental_uris": {"ios": "https://dc.lft.to/lastmile_qr_scan", "android": "https://dc.lft.to/lastmile_qr_scan"}, "lon": -77.09802083333334, "fusion_lon": 0.0, "is_disabled": 0, "lat": 38.850289, "bike_id": "49681fbc2760cf682f342d8c9000dcb5", "name": "49681fbc2760cf682f342d8c9000dcb5", "is_reserved": 0, "fusion_lat": 0.0}, {"type": "electric_scooter", "rental_uris": {"ios": "https://dc.lft.to/lastmile_qr_scan", "android": "https://dc.lft.to/lastmile_qr_scan"}, "lon": -77.01864116666667, "fusion_lon": 0.0, "is_disabled": 0, "lat": 38.93151966666667, "bike_id": "0aac554b41244f2ba48f8753295b58ad", "name": "0aac554b41244f2ba48f8753295b58ad", "is_reserved": 0, "fusion_lat": 0.0}, {"type": "electric_scooter", "rental_uris": {"ios": "https://dc.lft.to/lastmile_qr_scan", "android": "https://dc.lft.to/lastmile_qr_scan"}, "lon": -77.02224333333334, "fusion_lon": 0.0, "is_disabled": 0, "lat": 38.89222516666667, "bike_id": "80a96e4f748c61452fecfc168f18d92f", "name": "80a96e4f748c61452fecfc168f18d92f", "is_reserved": 0, "fusion_lat": 0.0}, {"type": "electric_scooter", "rental_uris": {"ios": "https://dc.lft.to/lastmile_qr_scan", "android": "https://dc.lft.to/lastmile_qr_scan"}, "lon": -77.00247766666666, "fusion_lon": 0.0, "is_disabled": 0, "lat": 38.88022766666667, "bike_id": "beddeddc455c76e95420e74c1f7aaa99", "name": "beddeddc455c76e95420e74c1f7aaa99", "is_reserved": 0, "fusion_lat": 0.0}, {"type": "electric_scooter", "rental_uris": {"ios": "https://dc.lft.to/lastmile_qr_scan", "android": "https://dc.lft.to/lastmile_qr_scan"}, "lon": -76.92880383333333, "fusion_lon": 0.0, "is_disabled": 0, "lat": 38.88520416666667, "bike_id": "fc5f58914b75a1113c90e4e89f0dde83", "name": "fc5f58914b75a1113c90e4e89f0dde83", "is_reserved": 0, "fusion_lat": 0.0}, {"type": "electric_bike", "rental_uris": {"ios": "https://dc.lft.to/lastmile_qr_scan", "android": "https://dc.lft.to/lastmile_qr_scan"}, "lon": -76.99664783333333, "fusion_lon": 0.0, "is_disabled": 0, "lat": 38.897416166666666, "bike_id": "b7ff325464788cc9b52aa3bccf63bf1c", "name": "b7ff325464788cc9b52aa3bccf63bf1c", "is_reserved": 0, "fusion_lat": 0.0}, {"type": "electric_bike", "rental_uris": {"ios": "https://dc.lft.to/lastmile_qr_scan", "android": "https://dc.lft.to/lastmile_qr_scan"}, "lon": -77.02069166666666, "fusion_lon": 0.0, "is_disabled": 0, "lat": 38.96445516666667, "bike_id": "470b1da9beeb13c4e647f0ac38755f84", "name": "470b1da9beeb13c4e647f0ac38755f84", "is_reserved": 0, "fusion_lat": 0.0}, {"type": "electric_scooter", "rental_uris": {"ios": "https://dc.lft.to/lastmile_qr_scan", "android": "https://dc.lft.to/lastmile_qr_scan"}, "lon": -76.9317415, "fusion_lon": 0.0, "is_disabled": 0, "lat": 38.89886, "bike_id": "9df6d3c15fe441b4cc21f79ecc176fc7", "name": "9df6d3c15fe441b4cc21f79ecc176fc7", "is_reserved": 0, "fusion_lat": 0.0}, {"type": "electric_scooter", "rental_uris": {"ios": "https://dc.lft.to/lastmile_qr_scan", "android": "https://dc.lft.to/lastmile_qr_scan"}, "lon": -77.031732, "fusion_lon": 0.0, "is_disabled": 0, "lat": 38.9210505, "bike_id": "9b09b3d40ec742772288799320690bd8", "name": "9b09b3d40ec742772288799320690bd8", "is_reserved": 0, "fusion_lat": 0.0}, {"type": "electric_bike", "rental_uris": {"ios": "https://dc.lft.to/lastmile_qr_scan", "android": "https://dc.lft.to/lastmile_qr_scan"},