{"data": {"bikes": [{"bike_id": "c72121067f34031178891ba83b41de81", "is_reserved": 0, "name": "c72121067f34031178891ba83b41de81", "lat": 38.911077166666665, "fusion_lat": 0.0, "lon": -77.04541516666667, "is_disabled": 0, "fusion_lon": 0.0, "rental_uris": {"android": "https://dc.lft.to/lastmile_qr_scan", "ios": "https://dc.lft.to/lastmile_qr_scan"}, "type": "electric_scooter"}, {"bike_id": "84accbb562b6838a8fb2454db44fae2a", "is_reserved": 0, "name": "84accbb562b6838a8fb2454db44fae2a", "lat": 38.91565716666667, "fusion_lat": 0.0, "lon": -77.021729, "is_disabled": 0, "fusion_lon": 0.0, "rental_uris": {"android": "https://dc.lft.to/lastmile_qr_scan", "ios": "https://dc.lft.to/lastmile_qr_scan"}, "type": "electric_scooter"}, {"bike_id": "4a6574a6eb693a4139076f3ab59811dc", "is_reserved": 0, "name": "4a6574a6eb693a4139076f3ab59811dc", "lat": 38.90541733333333, "fusion_lat": 0.0, "lon": -77.04496816666666, "is_disabled": 0, "fusion_lon": 0.0, "rental_uris": {"android": "https://dc.lft.to/lastmile_qr_scan", "ios": "https://dc.lft.to/lastmile_qr_scan"}, "type": "electric_scooter"}, {"bike_id": "d517d5678b4ec0bb4af5d6cce08410cc", "is_reserved": 0, "name": "d517d5678b4ec0bb4af5d6cce08410cc", "lat": 38.9027035, "fusion_lat": 0.0, "lon": -77.03431833333333, "is_disabled": 0, "fusion_lon": 0.0, "rental_uris": {"android": "https://dc.lft.to/lastmile_qr_scan", "ios": "https://dc.lft.to/lastmile_qr_scan"}, "type": "electric_scooter"}, {"bike_id": "2400694b2e6d9b07e1ec1154aef86efe", "is_reserved": 0, "name": "2400694b2e6d9b07e1ec1154aef86efe", "lat": 38.924330833333336, "fusion_lat": 0.0, "lon": -77.040105, "is_disabled": 0, "fusion_lon": 0.0, "rental_uris": {"android": "https://dc.lft.to/lastmile_qr_scan", "ios": "https://dc.lft.to/lastmile_qr_scan"}, "type": "electric_scooter"}, {"bike_id": "c77b23f71696afda487b5b9bcb15e2c7", "is_reserved": 0, "name": "c77b23f71696afda487b5b9bcb15e2c7", "lat": 38.90078316666666, "fusion_lat": 0.0, "lon": -77.023243, "is_disabled": 0, "fusion_lon": 0.0, "rental_uris": {"android": "https://dc.lft.to/lastmile_qr_scan", "ios": "https://dc.lft.to/lastmile_qr_scan"}, "type": "electric_scooter"}, {"bike_id": "5139ef13aea5658a61a45dd485cb978f", "is_reserved": 0, "name": "5139ef13aea5658a61a45dd485cb978f", "lat": 38.892242333333336, "fusion_lat": 0.0, "lon": -77.04505716666667, "is_disabled": 0, "fusion_lon": 0.0, "rental_uris": {"android": "https://dc.lft.to/lastmile_qr_scan", "ios": "https://dc.lft.to/lastmile_qr_scan"}, "type": "electric_scooter"}, {"bike_id": "03b292c86c5e9826122031633f613834", "is_reserved": 0, "name": "03b292c86c5e9826122031633f613834", "lat": 38.87155533333333, "fusion_lat": 0.0, "lon": -77.13144383333334, "is_disabled": 0, "fusion_lon": 0.0, "rental_uris": {"android": "https://dc.lft.to/lastmile_qr_scan", "ios": "https://dc.lft.to/lastmile_qr_scan"}, "type": "electric_bike"}, {"bike_id": "a0d55987e14f1f9a9a76c0383e210fe7", "is_reserved": 0, "name": "a0d55987e14f1f9a9a76c0383e210fe7", "lat": 38.875538, "fusion_lat": 0.0, "lon": -77.00602033333334, "is_disabled": 0, "fusion_lon": 0.0, "rental_uris": {"android": "https://dc.lft.to/lastmile_qr_scan", "ios": "https://dc.lft.to/lastmile_qr_scan"}, "type": "electric_scooter"}, {"bike_id": "75f4137ea64ccbdf717040a1c78d9ad1", "is_reserved": 0, "name": "75f4137ea64ccbdf717040a1c78d9ad1", "lat": 38.89837833333333, "fusion_lat": 0.0, "lon": -77.021966, "is_disabled": 0, "fusion_lon": 0.0, "rental_uris": {"android": "https://dc.lft.to/lastmile_qr_scan", "ios": "https://dc.lft.to/lastmile_qr_scan"}, "type": "electric_scooter"}, {"bike_id": "5ad49f2263f9d01164b067a5521f9f07", "is_reserved": 0, "name": "5ad49f2263f9d01164b067a5521f9f07", "lat": 38.8984665, "fusion_lat": 0.0, "lon": -77.01374033333333, "is_disabled": 0, "fusion_lon": 0.0, "rental_uris": {"android": "https://dc.lft.to/lastmile_qr_scan", "ios": "https://dc.lft.to/lastmile_qr_scan"}, "type": "electric_scooter"}, {"bike_id": "67bcaffe5b9f5482133d0a7113b2b7ba", "is_reserved": 0, "name": "67bcaffe5b9f5482133d0a7113b2b7ba", "lat": 38.94186533333333, "fusion_lat": 0.0, "lon": -77.0261565, "is_disabled": 0, "fusion_lon": 0.0, "rental_uris": {"android": "https://dc.lft.to/lastmile_qr_scan", "ios": "https://dc.lft.to/lastmile_qr_scan"}, "type": "electric_scooter"}, {"bike_id": "fa703479f643996c4979cf20774aa22c", "is_reserved": 0, "name": "fa703479f643996c4979cf20774aa22c", "lat": 38.905302666666664, "fusion_lat": 0.0, "lon": -77.06058866666666, "is_disabled": 0, "fusion_lon": 0.0, "rental_uris": {"android": "https://dc.lft.to/lastmile_qr_scan", "ios": "https://dc.lft.to/lastmile_qr_scan"}, "type": "electric_scooter"}, {"bike_id": "5683c69d5bbec088ad19efe26dce7e67", "is_reserved": 0, "name": "5683c69d5bbec088ad19efe26dce7e67", "lat": 38.9134825, "fusion_lat": 0.0, "lon": -77.01740333333333, "is_disabled": 0, "fusion_lon": 0.0, "rental_uris": {"android": "https://dc.lft.to/lastmile_qr_scan", "ios": "https://dc.lft.to/lastmile_qr_scan"}, "type": "electric_scooter"}, {"bike_id": "3b3389dc84f44bd0830611cfd1971d89", "is_reserved": 0, "name": "3b3389dc84f44bd0830611cfd1971d89", "lat": 38.92150566666667, "fusion_lat": 0.0, "lon": -76.99361383333333, "is_disabled": 0, "fusion_lon": 0.0, "rental_uris": {"android": "https://dc.lft.to/lastmile_qr_scan", "ios": "https://dc.lft.to/lastmile_qr_scan"}, "type": "electric_scooter"}, {"bike_id": "c3a42b22dbc0fda1a6c190b728529110", "is_reserved": 0, "name": "c3a42b22dbc0fda1a6c190b728529110", "lat": 38.9068455, "fusion_lat": 0.0, "lon": -77.0269495, "is_disabled": 0, "fusion_lon": 0.0, "rental_uris": {"android": "https://dc.lft.to/lastmile_qr_scan", "ios": "https://dc.lft.to/lastmile_qr_scan"}, "type": "electric_scooter"}, {"bike_id": "bec9082e278c394ec862d9181b2180b2", "is_reserved": 0, "name": "bec9082e278c394ec862d9181b2180b2", "lat": 38.887550166666664, "fusion_lat": 0.0, "lon": -76.99605016666666, "is_disabled": 0, "fusion_lon": 0.0, "rental_uris": {"android": "https://dc.lft.to/lastmile_qr_scan", "ios": "https://dc.lft.to/lastmile_qr_scan"}, "type": "electric_scooter"}, {"bike_id": "cc0af7497734c487235e3791e060850b", "is_reserved": 0, "name": "cc0af7497734c487235e3791e060850b", "lat": 38.90173033333333, "fusion_lat": 0.0, "lon": -76.99262616666667, "is_disabled": 0, "fusion_lon": 0.0, "rental_uris": {"android": "https://dc.lft.to/lastmile_qr_scan", "ios": "https://dc.lft.to/lastmile_qr_scan"}, "type": "electric_scooter"}, {"bike_id": "20cd25ad352253bc9314cb319ee93765", "is_reserved": 0, "name": "20cd25ad352253bc9314cb319ee93765", "lat": 38.8970025, "fusion_lat": 0.0, "lon": -76.963029, "is_disabled": 0, "fusion_lon": 0.0, "rental_uris": {"android": "https://dc.lft.to/lastmile_qr_scan", "ios": "https://dc.lft.to/lastmile_qr_scan"}, "type": "electric_bike"}, {"bike_id": "a66e0e8d22b52a52130e93479751c2ff", "is_reserved": 0, "name": "a66e0e8d22b52a52130e93479751c2ff", "lat": 38.8475695, "fusion_lat": 0.0, "lon": -76.99500366666666, "is_disabled": 0, "fusion_lon": 0.0, "rental_uris": {"android": "https://dc.lft.to/lastmile_qr_scan", "ios": "https://dc.lft.to/lastmile_qr_scan"}, "type": "electric_scooter"}, {"bike_id": "c2b9d0786cd3107fbb35aefbf340f237", "is_reserved": 0, "name": "c2b9d0786cd3107fbb35aefbf340f237", "lat": 38.92105983333333, "fusion_lat": 0.0, "lon": -77.01767516666666, "is_disabled": 0, "fusion_lon": 0.0, "rental_uris": {"android": "https://dc.lft.to/lastmile_qr_scan", "ios": "https://dc.lft.to/lastmile_qr_scan"}, "type": "electric_scooter"}, {"bike_id": "e4b29b7a3b33dd3ca351f2ddb9b9ba01", "is_reserved": 0, "name": "e4b29b7a3b33dd3ca351f2ddb9b9ba01", "lat": 38.905581833333336, "fusion_lat": 0.0, "lon": -77.02104516666667, "is_disabled": 0, "fusion_lon": 0.0, "rental_uris": {"android": "https://dc.lft.to/lastmile_qr_scan", "ios": "https://dc.lft.to/lastmile_qr_scan"}, "type": "electric_scooter"}, {"bike_id": "ebe7bbc3f56a692a9c48643047492603", "is_reserved": 0, "name": "ebe7bbc3f56a692a9c48643047492603", "lat": 38.883418666666664, "fusion_lat": 0.0, "lon": -77.03162933333333, "is_disabled": 0, "fusion_lon": 0.0, "rental_uris": {"android": "https://dc.lft.to/lastmile_qr_scan", "ios": "https://dc.lft.to/lastmile_qr_scan"}, "type": "electric_scooter"}, {"bike_id": "190a5b8ed3f406ed231ed5a2cb1f0da2", "is_reserved": 0, "name": "190a5b8ed3f406ed231ed5a2cb1f0da2", "lat": 38.8606215, "fusion_lat": 0.0, "lon": -76.96712666666667, "is_disabled": 0, "fusion_lon": 0.0, "rental_uris": {"android": "https://dc.lft.to/lastmile_qr_scan", "ios": "https://dc.lft.to/lastmile_qr_scan"}, "type": "electric_scooter"}, {"bike_id": "805db3eded330bb753062d3b073f3652", "is_reserved": 0, "name": "805db3eded330bb753062d3b073f3652", "lat": 38.90248416666667, "fusion_lat": 0.0, "lon": -77.032661, "is_disabled": 0, "fusion_lon": 0.0, "rental_uris": {"android": "https://dc.lft.to/lastmile_qr_scan", "ios": "https://dc.lft.to/lastmile_qr_scan"}, "type": "electric_scooter"}, {"bike_id": "255198a4ce1d46c7a1a767521e071383", "is_reserved": 0, "name": "255198a4ce1d46c7a1a767521e071383", "lat": 38.887248666666665, "fusion_lat": 0.0, "lon": -77.02580483333334, "is_disabled": 0, "fusion_lon": 0.0, "rental_uris": {"android": "https://dc.lft.to/lastmile_qr_scan", "ios": "https://dc.lft.to/lastmile_qr_scan"}, "type": "electric_scooter"}, {"bike_id": "989b6313f7bf2802b573d59e9f97c9e3", "is_reserved": 0, "name": "989b6313f7bf2802b573d59e9f97c9e3", "lat": 38.86888716666667, "fusion_lat": 0.0, "lon": -76.99003233333333, "is_disabled": 0, "fusion_lon": 0.0, "rental_uris": {"android": "https://dc.lft.to/lastmile_qr_scan", "ios": "https://dc.lft.to/lastmile_qr_scan"}, "type": "electric_scooter"}, {"bike_id": "a41e86d4a1cd80150e93d0986c55e4d2", "is_reserved": 0, "name": "a41e86d4a1cd80150e93d0986c55e4d2", "lat": 39.03425633333333, "fusion_lat": 0.0, "lon": -77.04308383333333, "is_disabled": 0, "fusion_lon": 0.0, "rental_uris": {"android": "https://dc.lft.to/lastmile_qr_scan", "ios": "https://dc.lft.to/lastmile_qr_scan"}, "type": "electric_bike"}, {"bike_id": "d43923322bf2855702f1320fd6c2feb1", "is_reserved": 0, "name": "d43923322bf2855702f1320fd6c2feb1", "lat": 38.911318, "fusion_lat": 0.0, "lon": -77.02201016666666, "is_disabled": 0, "fusion_lon": 0.0, "rental_uris": {"android": "https://dc.lft.to/lastmile_qr_scan", "ios": "https://dc.lft.to/lastmile_qr_scan"}, "type": "electric_scooter"}, {"bike_id": "881de7456541fcf52d4d1f17be9f4fa5", "is_reserved": 0, "name": "881de7456541fcf52d4d1f17be9f4fa5", "lat": 38.91916283333333, "fusion_lat": 0.0, "lon": -77.027313, "is_disabled": 0, "fusion_lon": 0.0, "rental_uris": {"android": "https://dc.lft.to/lastmile_qr_scan", "ios": "https://dc.lft.to/lastmile_qr_scan"}, "type": "electric_scooter"}, {"bike_id": "5c0a5a471886850810dab6f08c1bcc38", "is_reserved": 0, "name": "5c0a5a471886850810dab6f08c1bcc38", "lat": 38.85360766666667, "fusion_lat": 0.0, "lon": -77.11500216666667, "is_disabled": 0, "fusion_lon": 0.0, "rental_uris": {"android": "https://dc.lft.to/lastmile_qr_scan", "ios": "https://dc.lft.to/lastmile_qr_scan"}, "type": "electric_bike"}, {"bike_id": "7ae84d65d9fa048c5664fecd77238ee9", "is_reserved": 0, "name": "7ae84d65d9fa048c5664fecd77238ee9", "lat": 38.900138166666665, "fusion_lat": 0.0, "lon": -77.01182916666667, "is_disabled": 0, "fusion_lon": 0.0, "rental_uris": {"android": "https://dc.lft.to/lastmile_qr_scan", "ios": "https://dc.lft.to/lastmile_qr_scan"}, "type": "electric_scooter"}, {"bike_id": "63a0404d25a24ec6b69c3fe784054f88", "is_reserved": 0, "name": "63a0404d25a24ec6b69c3fe784054f88", "lat": 38.873807166666666, "fusion_lat": 0.0, "lon": -77.0003855, "is_disabled": 0, "fusion_lon": 0.0, "rental_uris": {"android": "https://dc.lft.to/lastmile_qr_scan", "ios": "https://dc.lft.to/lastmile_qr_scan"}, "type": "electric_scooter"}, {"bike_id": "ad19daf0641130d28b35c645ebe3616a", "is_reserved": 0, "name": "ad19daf0641130d28b35c645ebe3616a", "lat": 38.918090166666666, "fusion_lat": 0.0, "lon": -77.031779, "is_disabled": 0, "fusion_lon": 0.0, "rental_uris": {"android": "https://dc.lft.to/lastmile_qr_scan", "ios": "https://dc.lft.to/lastmile_qr_scan"}, "type": "electric_scooter"}, {"bike_id": "415b4e5fc9446e4158f2f2a6f012c859", "is_reserved": 0, "name": "415b4e5fc9446e4158f2f2a6f012c859", "lat": 38.87484033333333, "fusion_lat": 0.0, "lon": -77.00600333333334, "is_disabled": 0, "fusion_lon": 0.0, "rental_uris": {"android": "https://dc.lft.to/lastmile_qr_scan", "ios": "https://dc.lft.to/lastmile_qr_scan"}, "type": "electric_scooter"}, {"bike_id": "bf193c2fdc791fc3772c38909905915b", "is_reserved": 0, "name": "bf193c2fdc791fc3772c38909905915b", "lat": 38.90469916666667, "fusion_lat": 0.0, "lon": -77.03832983333334, "is_disabled": 0, "fusion_lon": 0.0, "rental_uris": {"android": "https://dc.lft.to/lastmile_qr_scan", "ios": "https://dc.lft.to/lastmile_qr_scan"}, "type": "electric_scooter"}, {"bike_id": "bf5189c6108bf0fd2c27fb593dca72fd", "is_reserved": 0, "name": "bf5189c6108bf0fd2c27fb593dca72fd", "lat": 38.897747, "fusion_lat": 0.0, "lon": -76.984616, "is_disabled": 0, "fusion_lon": 0.0, "rental_uris": {"android": "https://dc.lft.to/lastmile_qr_scan", "ios": "https://dc.lft.to/lastmile_qr_scan"}, "type": "electric_scooter"}, {"bike_id": "4fe4e2a26b054d664778483267d1a126", "is_reserved": 0, "name": "4fe4e2a26b054d664778483267d1a126", "lat": 38.943069, "fusion_lat": 0.0, "lon": -77.06133066666666, "is_disabled": 0, "fusion_lon": 0.0, "rental_uris": {"android": "https://dc.lft.to/lastmile_qr_scan", "ios": "https://dc.lft.to/lastmile_qr_scan"}, "type": "electric_scooter"}, {"bike_id": "a67bdfdf47a3b8796fe15ff9f408da7b", "is_reserved": 0, "name": "a67bdfdf47a3b8796fe15ff9f408da7b", "lat": 38.91708583333333, "fusion_lat": 0.0, "lon": -77.0304135, "is_disabled": 0, "fusion_lon": 0.0, "rental_uris": {"android": "https://dc.lft.to/lastmile_qr_scan", "ios": "https://dc.lft.to/lastmile_qr_scan"}, "type": "electric_scooter"}, {"bike_id": "e9397b1eaedc6674c7991600ce04c454", "is_reserved": 0, "name": "e9397b1eaedc6674c7991600ce04c454", "lat": 38.8918455, "fusion_lat": 0.0, "lon": -77.01591, "is_disabled": 0, "fusion_lon": 0.0, "rental_uris": {"android": "https://dc.lft.to/lastmile_qr_scan", "ios": "https://dc.lft.to/lastmile_qr_scan"}, "type": "electric_scooter"}, {"bike_id": "22b4e39f92fc1d3b33f578736fc064b1", "is_reserved": 0, "name": "22b4e39f92fc1d3b33f578736fc064b1", "lat": 38.917574333333334, "fusion_lat": 0.0, "lon": -77.0227695, "is_disabled": 0, "fusion_lon": 0.0, "rental_uris": {"android": "https://dc.lft.to/lastmile_qr_scan", "ios": "https://dc.lft.to/lastmile_qr_scan"}, "type": "electric_scooter"}, {"bike_id": "2220ad2dc51a463aa7a822a245e1cc8a", "is_reserved": 0, "name": "2220ad2dc51a463aa7a822a245e1cc8a", "lat": 38.92324416666666, "fusion_lat": 0.0, "lon": -77.04344883333333, "is_disabled": 0, "fusion_lon": 0.0, "rental_uris": {"android": "https://dc.lft.to/lastmile_qr_scan", "ios": "https://dc.lft.to/lastmile_qr_scan"}, "type": "electric_scooter"}, {"bike_id": "8ff539693f8ffbabe65e9e807a269718", "is_reserved": 0, "name": "8ff539693f8ffbabe65e9e807a269718", "lat": 38.9286385, "fusion_lat": 0.0, "lon": -77.03240183333334, "is_disabled": 0, "fusion_lon": 0.0, "rental_uris": {"android": "https://dc.lft.to/lastmile_qr_scan", "ios": "https://dc.lft.to/lastmile_qr_scan"}, "type": "electric_scooter"}, {"bike_id": "ad9cb323d3cf357e0dc7967377d2dd39", "is_reserved": 0, "name": "ad9cb323d3cf357e0dc7967377d2dd39", "lat": 38.91183483333333, "fusion_lat": 0.0, "lon": -77.0217855, "is_disabled": 0, "fusion_lon": 0.0, "rental_uris": {"android": "https://dc.lft.to/lastmile_qr_scan", "ios": "https://dc.lft.to/lastmile_qr_scan"}, "type": "electric_scooter"}, {"bike_id": "1dd675e099bf16c9925388ef4f04489f", "is_reserved": 0, "name": "1dd675e099bf16c9925388ef4f04489f", "lat": 38.91765316666667, "fusion_lat": 0.0, "lon": -77.03209883333334, "is_disabled": 0, "fusion_lon": 0.0, "rental_uris": {"android": "https://dc.lft.to/lastmile_qr_scan", "ios": "https://dc.lft.to/lastmile_qr_scan"}, "type": "electric_scooter"}, {"bike_id": "48345a0b42f372eb879e75cb79c128b8", "is_reserved": 0, "name": "48345a0b42f372eb879e75cb79c128b8", "lat": 38.944366333333335, "fusion_lat": 0.0, "lon": -77.064424, "is_disabled": 0, "fusion_lon": 0.0, "rental_uris": {"android": "https://dc.lft.to/lastmile_qr_scan", "ios": "https://dc.lft.to/lastmile_qr_scan"}, "type": "electric_scooter"}, {"bike_id": "342619e4ba778c1a7ee3c138737d1968", "is_reserved": 0, "name": "342619e4ba778c1a7ee3c138737d1968", "lat": 38.92490816666667, "fusion_lat": 0.0, "lon": -77.02545183333334, "is_disabled": 0, "fusion_lon": 0.0, "rental_uris": {"android": "https://dc.lft.to/lastmile_qr_scan", "ios": "https://dc.lft.to/lastmile_qr_scan"}, "type": "electric_scooter"}, {"bike_id": "e88c78797082efda0acf6f9dec7565bf", "is_reserved": 0, "name": "e88c78797082efda0acf6f9dec7565bf", "lat": 38.887456666666665, "fusion_lat": 0.0, "lon": -77.02567483333333, "is_disabled": 0, "fusion_lon": 0.0, "rental_uris": {"android": "https://dc.lft.to/lastmile_qr_scan", "ios": "https://dc.lft.to/lastmile_qr_scan"}, "type": "electric_scooter"}, {"bike_id": "3fa0f861542b41fc816a219b2ca562ce", "is_reserved": 0, "name": "3fa0f861542b41fc816a219b2ca562ce", "lat": 38.92086283333333, "fusion_lat": 0.0, "lon": -77.02537216666667, "is_disabled": 0, "fusion_lon": 0.0, "rental_uris": {"android": "https://dc.lft.to/lastmile_qr_scan", "ios": "https://dc.lft.to/lastmile_qr_scan"}, "type": "electric_scooter"}, {"bike_id": "b7e68c2ca6808214127e0a3c3a589fdf", "is_reserved": 0, "name": "b7e68c2ca6808214127e0a3c3a589fdf", "lat": 38.883264833333335, "fusion_lat": 0.0, "lon": -77.00482733333334, "is_disabled": 0, "fusion_lon": 0.0, "rental_uris": {"android": "https://dc.lft.to/lastmile_qr_scan", "ios": "https://dc.lft.to/lastmile_qr_scan"}, "type": "electric_scooter"}, {"bike_id": "1d5dd89e3d0bfb17e12c8caaf17b7cc7", "is_reserved": 0, "name": "1d5dd89e3d0bfb17e12c8caaf17b7cc7", "lat": 38.9023095, "fusion_lat": 0.0, "lon": -77.04582983333333, "is_disabled": 0, "fusion_lon": 0.0, "rental_uris": {"android": "https://dc.lft.to/lastmile_qr_scan", "ios": "https://dc.lft.to/lastmile_qr_scan"}, "type": "electric_scooter"}, {"bike_id": "66d40e9b8ef0805bfff9e745b6a21fb6", "is_reserved": 0, "name": "66d40e9b8ef0805bfff9e745b6a21fb6", "lat": 38.90295866666666, "fusion_lat": 0.0, "lon": -77.06103783333333, "is_disabled": 0, "fusion_lon": 0.0, "rental_uris": {"android": "https://dc.lft.to/lastmile_qr_scan", "ios": "https://dc.lft.to/lastmile_qr_scan"}, "type": "electric_scooter"}, {"bike_id": "b34acab5def2590b8fe0e5ae197f700e", "is_reserved": 0, "name": "b34acab5def2590b8fe0e5ae197f700e", "lat": 38.87394916666667, "fusion_lat": 0.0, "lon": -77.00030383333333, "is_disabled": 0, "fusion_lon": 0.0, "rental_uris": {"android": "https://dc.lft.to/lastmile_qr_scan", "ios": "https://dc.lft.to/lastmile_qr_scan"}, "type": "electric_scooter"}, {"bike_id": "317c555e1dec2718eda83aebec909052", "is_reserved": 0, "name": "317c555e1dec2718eda83aebec909052", "lat": 38.9377395, "fusion_lat": 0.0, "lon": -77.02443433333333, "is_disabled": 0, "fusion_lon": 0.0, "rental_uris": {"android": "https://dc.lft.to/lastmile_qr_scan", "ios": "https://dc.lft.to/lastmile_qr_scan"}, "type": "electric_scooter"}, {"bike_id": "100b441f30f05966a1327786b6c15d69", "is_reserved": 0, "name": "100b441f30f05966a1327786b6c15d69", "lat": 38.90365533333333, "fusion_lat": 0.0, "lon": -77.04502166666667, "is_disabled": 0, "fusion_lon": 0.0, "rental_uris": {"android": "https://dc.lft.to/lastmile_qr_scan", "ios": "https://dc.lft.to/lastmile_qr_scan"}, "type": "electric_scooter"}, {"bike_id": "ce0e4f4432996c9651f2d8b3a566dfb4", "is_reserved": 0, "name": "ce0e4f4432996c9651f2d8b3a566dfb4", "lat": 38.99441266666667, "fusion_lat": 0.0, "lon": -76.99585916666666, "is_disabled": 0, "fusion_lon": 0.0, "rental_uris": {"android": "https://dc.lft.to/lastmile_qr_scan", "ios": "https://dc.lft.to/lastmile_qr_scan"}, "type": "electric_bike"}, {"bike_id": "7174f83020fc9ccbc5a5c3ed2305e870", "is_reserved": 0, "name": "7174f83020fc9ccbc5a5c3ed2305e870", "lat": 38.921259666666664, "fusion_lat": 0.0, "lon": -77.02527333333333, "is_disabled": 0, "fusion_lon": 0.0, "rental_uris": {"android": "https://dc.lft.to/lastmile_qr_scan", "ios": "https://dc.lft.to/lastmile_qr_scan"}, "type": "electric_scooter"}, {"bike_id": "f174464d3a0ab592e150ec791451ce1d", "is_reserved": 0, "name": "f174464d3a0ab592e150ec791451ce1d", "lat": 38.9166285, "fusion_lat": 0.0, "lon": -77.036985, "is_disabled": 0, "fusion_lon": 0.0, "rental_uris": {"android": "https://dc.lft.to/lastmile_qr_scan", "ios": "https://dc.lft.to/lastmile_qr_scan"}, "type": "electric_scooter"}, {"bike_id": "1a0779f9b6b6813cfadb67c83dacf198", "is_reserved": 0, "name": "1a0779f9b6b6813cfadb67c83dacf198", "lat": 38.9126205, "fusion_lat": 0.0, "lon": -77.0389295, "is_disabled": 0, "fusion_lon": 0.0, "rental_uris": {"android": "https://dc.lft.to/lastmile_qr_scan", "ios": "https://dc.lft.to/lastmile_qr_scan"}, "type": "electric_bike"}, {"bike_id": "bc92170ec2a4c5fab4c301ad3b7a24e4", "is_reserved": 0, "name": "bc92170ec2a4c5fab4c301ad3b7a24e4", "lat": 38.86452216666667, "fusion_lat": 0.0, "lon": -77.013451, "is_disabled": 0, "fusion_lon": 0.0, "rental_uris": {"android": "https://dc.lft.to/lastmile_qr_scan", "ios": "https://dc.lft.to/lastmile_qr_scan"}, "type": "electric_scooter"}, {"bike_id": "62d4ac25303735c82837a4c36cd372a2", "is_reserved": 0, "name": "62d4ac25303735c82837a4c36cd372a2", "lat": 38.921270666666665, "fusion_lat": 0.0, "lon": -77.04419333333334, "is_disabled": 0, "fusion_lon": 0.0, "rental_uris": {"android": "https://dc.lft.to/lastmile_qr_scan", "ios": "https://dc.lft.to/lastmile_qr_scan"}, "type": "electric_scooter"}, {"bike_id": "709f6ea4bb46da7a186ddd8afce411d5", "is_reserved": 0, "name": "709f6ea4bb46da7a186ddd8afce411d5", "lat": 38.906537, "fusion_lat": 0.0, "lon": -77.04137483333334, "is_disabled": 0, "fusion_lon": 0.0, "rental_uris": {"android": "https://dc.lft.to/lastmile_qr_scan", "ios": "https://dc.lft.to/lastmile_qr_scan"}, "type": "electric_scooter"}, {"bike_id": "188a01be84670baf69e6a14381f43746", "is_reserved": 0, "name": "188a01be84670baf69e6a14381f43746", "lat": 38.9096025, "fusion_lat": 0.0, "lon": -77.03460033333333, "is_disabled": 0, "fusion_lon": 0.0, "rental_uris": {"android": "https://dc.lft.to/lastmile_qr_scan", "ios": "https://dc.lft.to/lastmile_qr_scan"}, "type": "electric_scooter"}, {"bike_id": "f441f23e4cab8dc84ce249ef3c6770fe", "is_reserved": 0, "name": "f441f23e4cab8dc84ce249ef3c6770fe", "lat": 38.896113166666666, "fusion_lat": 0.0, "lon": -77.04594516666667, "is_disabled": 0, "fusion_lon": 0.0, "rental_uris": {"android": "https://dc.lft.to/lastmile_qr_scan", "ios": "https://dc.lft.to/lastmile_qr_scan"}, "type": "electric_scooter"}, {"bike_id": "3123506e42f946998d1254eeea756718", "is_reserved": 0, "name": "3123506e42f946998d1254eeea756718", "lat": 38.90248066666667, "fusion_lat": 0.0, "lon": -77.01846966666666, "is_disabled": 0, "fusion_lon": 0.0, "rental_uris": {"android": "https://dc.lft.to/lastmile_qr_scan", "ios": "https://dc.lft.to/lastmile_qr_scan"}, "type": "electric_scooter"}, {"bike_id": "ce9714569713981a1aea29a3e6ad96be", "is_reserved": 0, "name": "ce9714569713981a1aea29a3e6ad96be", "lat": 38.90314083333333, "fusion_lat": 0.0, "lon": -77.01616116666666, "is_disabled": 0, "fusion_lon": 0.0, "rental_uris": {"android": "https://dc.lft.to/lastmile_qr_scan", "ios": "https://dc.lft.to/lastmile_qr_scan"}, "type": "electric_scooter"}, {"bike_id": "df69b8f61e5b2bd0b1f66bb921b1b4d6", "is_reserved": 0, "name": "df69b8f61e5b2bd0b1f66bb921b1b4d6", "lat": 38.918091833333335, "fusion_lat": 0.0, "lon": -77.03165016666667, "is_disabled": 0, "fusion_lon": 0.0, "rental_uris": {"android": "https://dc.lft.to/lastmile_qr_scan", "ios": "https://dc.lft.to/lastmile_qr_scan"}, "type": "electric_scooter"}, {"bike_id": "82846fd396aa6600820392f86aa04412", "is_reserved": 0, "name": "82846fd396aa6600820392f86aa04412", "lat": 38.92232383333333, "fusion_lat": 0.0, "lon": -77.02329866666666, "is_disabled": 0, "fusion_lon": 0.0, "rental_uris": {"android": "https://dc.lft.to/lastmile_qr_scan", "ios": "https://dc.lft.to/lastmile_qr_scan"}, "type": "electric_scooter"}, {"bike_id": "23e200ca87150ecb931de4c6451392a8", "is_reserved": 0, "name": "23e200ca87150ecb931de4c6451392a8", "lat": 38.9012255, "fusion_lat": 0.0, "lon": -77.04998416666666, "is_disabled": 0, "fusion_lon": 0.0, "rental_uris": {"android": "https://dc.lft.to/lastmile_qr_scan", "ios": "https://dc.lft.to/lastmile_qr_scan"}, "type": "electric_scooter"}, {"bike_id": "43bccfc953755bb4f1145b96f7da1354", "is_reserved": 0, "name": "43bccfc953755bb4f1145b96f7da1354", "lat": 38.910317, "fusion_lat": 0.0, "lon": -77.0426415, "is_disabled": 0, "fusion_lon": 0.0, "rental_uris": {"android": "https://dc.lft.to/lastmile_qr_scan", "ios": "https://dc.lft.to/lastmile_qr_scan"}, "type": "electric_scooter"}, {"bike_id": "20f7cacc72cbba320cb2ca51addf276c", "is_reserved": 0, "name": "20f7cacc72cbba320cb2ca51addf276c", "lat": 38.9102635, "fusion_lat": 0.0, "lon": -76.9972525, "is_disabled": 0, "fusion_lon": 0.0, "rental_uris": {"android": "https://dc.lft.to/lastmile_qr_scan", "ios": "https://dc.lft.to/lastmile_qr_scan"}, "type": "electric_scooter"}, {"bike_id": "3446d3216dbc47cc3f7254223dcf11da", "is_reserved": 0, "name": "3446d3216dbc47cc3f7254223dcf11da", "lat": 38.894684833333336, "fusion_lat": 0.0, "lon": -77.01765983333334, "is_disabled": 0, "fusion_lon": 0.0, "rental_uris": {"android": "https://dc.lft.to/lastmile_qr_scan", "ios": "https://dc.lft.to/lastmile_qr_scan"}, "type": "electric_scooter"}, {"bike_id": "1e41928cc1c34068bf9d5c563ca8c16e", "is_reserved": 0, "name": "1e41928cc1c34068bf9d5c563ca8c16e", "lat": 38.894853499999996, "fusion_lat": 0.0, "lon": -77.0030815, "is_disabled": 0, "fusion_lon": 0.0, "rental_uris": {"android": "https://dc.lft.to/lastmile_qr_scan", "ios": "https://dc.lft.to/lastmile_qr_scan"}, "type": "electric_scooter"}, {"bike_id": "4ffdfcbdd7e480146fa5b56d285b0780", "is_reserved": 0, "name": "4ffdfcbdd7e480146fa5b56d285b0780", "lat": 38.9079195, "fusion_lat": 0.0, "lon": -76.993725, "is_disabled": 0, "fusion_lon": 0.0, "rental_uris": {"android": "https://dc.lft.to/lastmile_qr_scan", "ios": "https://dc.lft.to/lastmile_qr_scan"}, "type": "electric_scooter"}, {"bike_id": "b48520dc2fca03b0756ad6db708b221c", "is_reserved": 0, "name": "b48520dc2fca03b0756ad6db708b221c", "lat": 38.8955505, "fusion_lat": 0.0, "lon": -76.94871383333333, "is_disabled": 0, "fusion_lon": 0.0, "rental_uris": {"android": "https://dc.lft.to/lastmile_qr_scan", "ios": "https://dc.lft.to/lastmile_qr_scan"}, "type": "electric_scooter"}, {"bike_id": "9bef4766a67d7ce4bfbe1b5d06519060", "is_reserved": 0, "name": "9bef4766a67d7ce4bfbe1b5d06519060", "lat": 38.89760233333333, "fusion_lat": 0.0, "lon": -77.029923, "is_disabled": 0, "fusion_lon": 0.0, "rental_uris": {"android": "https://dc.lft.to/lastmile_qr_scan", "ios": "https://dc.lft.to/lastmile_qr_scan"}, "type": "electric_scooter"}, {"bike_id": "531af3176437b0046b49837329a61508", "is_reserved": 0, "name": "531af3176437b0046b49837329a61508", "lat": 38.9155205, "fusion_lat": 0.0, "lon": -77.03854883333334, "is_disabled": 0, "fusion_lon": 0.0, "rental_uris": {"android": "https://dc.lft.to/lastmile_qr_scan", "ios": "https://dc.lft.to/lastmile_qr_scan"}, "type": "electric_scooter"}, {"bike_id": "0d04f8798b215d48a96dae8e7afdd567", "is_reserved": 0, "name": "0d04f8798b215d48a96dae8e7afdd567", "lat": 38.91759833333333, "fusion_lat": 0.0, "lon": -77.06950033333334, "is_disabled": 0, "fusion_lon": 0.0, "rental_uris": {"android": "https://dc.lft.to/lastmile_qr_scan", "ios": "https://dc.lft.to/lastmile_qr_scan"}, "type": "electric_scooter"}, {"bike_id": "c585080d14779e1e9502a7744c9d5aad", "is_reserved": 0, "name": "c585080d14779e1e9502a7744c9d5aad", "lat": 38.93236666666667, "fusion_lat": 0.0, "lon": -76.995279, "is_disabled": 0, "fusion_lon": 0.0, "rental_uris": {"android": "https://dc.lft.to/lastmile_qr_scan", "ios": "https://dc.lft.to/lastmile_qr_scan"}, "type": "electric_scooter"}, {"bike_id": "bc61b4b111339dfc483b9984e1629c59", "is_reserved": 0, "name": "bc61b4b111339dfc483b9984e1629c59", "lat": 38.92642416666666, "fusion_lat": 0.0, "lon": -77.04137366666667, "is_disabled": 0, "fusion_lon": 0.0, "rental_uris": {"android": "https://dc.lft.to/lastmile_qr_scan", "ios": "https://dc.lft.to/lastmile_qr_scan"}, "type": "electric_scooter"}, {"bike_id": "af25036ab5cbc3b98928a1c9dae6362f", "is_reserved": 0, "name": "af25036ab5cbc3b98928a1c9dae6362f", "lat": 38.91815716666667, "fusion_lat": 0.0, "lon": -77.031804, "is_disabled": 0, "fusion_lon": 0.0, "rental_uris": {"android": "https://dc.lft.to/lastmile_qr_scan", "ios": "https://dc.lft.to/lastmile_qr_scan"}, "type": "electric_scooter"}, {"bike_id": "9af3fb2d2553757670745efc67da51c6", "is_reserved": 0, "name": "9af3fb2d2553757670745efc67da51c6", "lat": 38.873829666666666, "fusion_lat": 0.0, "lon": -77.00061283333334, "is_disabled": 0, "fusion_lon": 0.0, "rental_uris": {"android": "https://dc.lft.to/lastmile_qr_scan", "ios": "https://dc.lft.to/lastmile_qr_scan"}, "type": "electric_scooter"}, {"bike_id": "15ee86f7be6f4cdc2aa18d4ffe0265a4", "is_reserved": 0, "name": "15ee86f7be6f4cdc2aa18d4ffe0265a4", "lat": 38.922990166666665, "fusion_lat": 0.0, "lon": -77.03532066666666, "is_disabled": 0, "fusion_lon": 0.0, "rental_uris": {"android": "https://dc.lft.to/lastmile_qr_scan", "ios": "https://dc.lft.to/lastmile_qr_scan"}, "type": "electric_scooter"}, {"bike_id": "e52675240d5d2c6f5bcf77c86fd6a254", "is_reserved": 0, "name": "e52675240d5d2c6f5bcf77c86fd6a254", "lat": 38.9311775, "fusion_lat": 0.0, "lon": -77.02099666666666, "is_disabled": 0, "fusion_lon": 0.0, "rental_uris": {"android": "https://dc.lft.to/lastmile_qr_scan", "ios": "https://dc.lft.to/lastmile_qr_scan"}, "type": "electric_scooter"}, {"bike_id": "0a70e7b59b1aafc366c6d9913dcf75ef", "is_reserved": 0, "name": "0a70e7b59b1aafc366c6d9913dcf75ef", "lat": 38.87442883333333, "fusion_lat": 0.0, "lon": -77.00053716666666, "is_disabled": 0, "fusion_lon": 0.0, "rental_uris": {"android": "https://dc.lft.to/lastmile_qr_scan", "ios": "https://dc.lft.to/lastmile_qr_scan"}, "type": "electric_scooter"}, {"bike_id": "8524d85f1c98e78871ef9295f7e12618", "is_reserved": 0, "name": "8524d85f1c98e78871ef9295f7e12618", "lat": 38.94138783333333, "fusion_lat": 0.0, "lon": -77.02502733333333, "is_disabled": 0, "fusion_lon": 0.0, "rental_uris": {"android": "https://dc.lft.to/lastmile_qr_scan", "ios": "https://dc.lft.to/lastmile_qr_scan"}, "type": "electric_scooter"}, {"bike_id": "73ac50cec92eb31246555d5737e715cb", "is_reserved": 0, "name": "73ac50cec92eb31246555d5737e715cb", "lat": 38.91571833333333, "fusion_lat": 0.0, "lon": -76.98393316666667, "is_disabled": 0, "fusion_lon": 0.0, "rental_uris": {"android": "https://dc.lft.to/lastmile_qr_scan", "ios": "https://dc.lft.to/lastmile_qr_scan"}, "type": "electric_scooter"}, {"bike_id": "7b83e907c00770e101e9822512c48799", "is_reserved": 0, "name": "7b83e907c00770e101e9822512c48799", "lat": 38.8876755, "fusion_lat": 0.0, "lon": -77.02369166666666, "is_disabled": 0, "fusion_lon": 0.0, "rental_uris": {"android": "https://dc.lft.to/lastmile_qr_scan", "ios": "https://dc.lft.to/lastmile_qr_scan"}, "type": "electric_scooter"}, {"bike_id": "a41220bbb8e5a31230ce20272e5e12ba", "is_reserved": 0, "name": "a41220bbb8e5a31230ce20272e5e12ba", "lat": 38.905897, "fusion_lat": 0.0, "lon": -77.04693866666666, "is_disabled": 0, "fusion_lon": 0.0, "rental_uris": {"android": "https://dc.lft.to/lastmile_qr_scan", "ios": "https://dc.lft.to/lastmile_qr_scan"}, "type": "electric_scooter"}, {"bike_id": "0da9a496965d5a2303af71617494748e", "is_reserved": 0, "name": "0da9a496965d5a2303af71617494748e", "lat": 38.899377666666666, "fusion_lat": 0.0, "lon": -77.04026083333333, "is_disabled": 0, "fusion_lon": 0.0, "rental_uris": {"android": "https://dc.lft.to/lastmile_qr_scan", "ios": "https://dc.lft.to/lastmile_qr_scan"}, "type": "electric_scooter"}, {"bike_id": "4c927b986f2e8238568143d8f538f61e", "is_reserved": 0, "name": "4c927b986f2e8238568143d8f538f61e", "lat": 38.896297, "fusion_lat": 0.0, "lon": -77.02140116666666, "is_disabled": 0, "fusion_lon": 0.0, "rental_uris": {"android": "https://dc.lft.to/lastmile_qr_scan", "ios": "https://dc.lft.to/lastmile_qr_scan"}, "type": "electric_bike"}, {"bike_id": "8a69b88e298f29431eb11b60f949819b", "is_reserved": 0, "name": "8a69b88e298f29431eb11b60f949819b", "lat": 38.92479316666667, "fusion_lat": 0.0, "lon": -77.03051833333333, "is_disabled": 0, "fusion_lon": 0.0, "rental_uris": {"android": "https://dc.lft.to/lastmile_qr_scan", "ios": "https://dc.lft.to/lastmile_qr_scan"}, "type": "electric_scooter"}, {"bike_id": "9796bb033294c92aed6cc0c5a17091ab", "is_reserved": 0, "name": "9796bb033294c92aed6cc0c5a17091ab", "lat": 38.898539, "fusion_lat": 0.0, "lon": -76.950445, "is_disabled": 0, "fusion_lon": 0.0, "rental_uris": {"android": "https://dc.lft.to/lastmile_qr_scan", "ios": "https://dc.lft.to/lastmile_qr_scan"}, "type": "electric_scooter"}, {"bike_id": "e8b03eac56ec843f301607ca0fb095ba", "is_reserved": 0, "name": "e8b03eac56ec843f301607ca0fb095ba", "lat": 38.92119483333333, "fusion_lat": 0.0, "lon": -77.23678233333334, "is_disabled": 0, "fusion_lon": 0.0, "rental_uris": {"android": "https://dc.lft.to/lastmile_qr_scan", "ios": "https://dc.lft.to/lastmile_qr_scan"}, "type": "electric_bike"}, {"bike_id": "b3e3f464d6a1200a1cf61115d55b5e4a", "is_reserved": 0, "name": "b3e3f464d6a1200a1cf61115d55b5e4a", "lat": 38.876653166666664, "fusion_lat": 0.0, "lon": -77.003478, "is_disabled": 0, "fusion_lon": 0.0, "rental_uris": {"android": "https://dc.lft.to/lastmile_qr_scan", "ios": "https://dc.lft.to/lastmile_qr_scan"}, "type": "electric_scooter"}, {"bike_id": "344ea8b8d6cbc554ac55a790aa4d5693", "is_reserved": 0, "name": "344ea8b8d6cbc554ac55a790aa4d5693", "lat": 38.91919016666667, "fusion_lat": 0.0, "lon": -77.031785, "is_disabled": 0, "fusion_lon": 0.0, "rental_uris": {"android": "https://dc.lft.to/lastmile_qr_scan", "ios": "https://dc.lft.to/lastmile_qr_scan"}, "type": "electric_scooter"}, {"bike_id": "58a4d42baca847886259610dc15510ba", "is_reserved": 0, "name": "58a4d42baca847886259610dc15510ba", "lat": 38.9035525, "fusion_lat": 0.0, "lon": -77.02945716666666, "is_disabled": 0, "fusion_lon": 0.0, "rental_uris": {"android": "https://dc.lft.to/lastmile_qr_scan", "ios": "https://dc.lft.to/lastmile_qr_scan"}, "type": "electric_scooter"}, {"bike_id": "98e91ae21d07cdd2f63aa4280942d7b2", "is_reserved": 0, "name": "98e91ae21d07cdd2f63aa4280942d7b2", "lat": 38.92186266666667, "fusion_lat": 0.0, "lon": -77.02098383333333, "is_disabled": 0, "fusion_lon": 0.0, "rental_uris": {"android": "https://dc.lft.to/lastmile_qr_scan", "ios": "https://dc.lft.to/lastmile_qr_scan"}, "type": "electric_scooter"}, {"bike_id": "d9611d20a36758ca2181cb20a1ceeb83", "is_reserved": 0, "name": "d9611d20a36758ca2181cb20a1ceeb83", "lat": 38.9064845, "fusion_lat": 0.0, "lon": -77.03155516666666, "is_disabled": 0, "fusion_lon": 0.0, "rental_uris": {"android": "https://dc.lft.to/lastmile_qr_scan", "ios": "https://dc.lft.to/lastmile_qr_scan"}, "type": "electric_scooter"}, {"bike_id": "2b7d5c28a056180549d3fc659ec61fc1", "is_reserved": 0, "name": "2b7d5c28a056180549d3fc659ec61fc1", "lat": 38.8990005, "fusion_lat": 0.0, "lon": -77.02720716666667, "is_disabled": 0, "fusion_lon": 0.0, "rental_uris": {"android": "https://dc.lft.to/lastmile_qr_scan", "ios": "https://dc.lft.to/lastmile_qr_scan"}, "type": "electric_scooter"}, {"bike_id": "913ae06cf80061df81eb7c4d5038b24a", "is_reserved": 0, "name": "913ae06cf80061df81eb7c4d5038b24a", "lat": 38.917055, "fusion_lat": 0.0, "lon": -77.03087416666666, "is_disabled": 0, "fusion_lon": 0.0, "rental_uris": {"android": "https://dc.lft.to/lastmile_qr_scan", "ios": "https://dc.lft.to/lastmile_qr_scan"}, "type": "electric_scooter"}, {"bike_id": "2f9a9f3fb13ffe7d7f411372e53d230d", "is_reserved": 0, "name": "2f9a9f3fb13ffe7d7f411372e53d230d", "lat": 38.897036, "fusion_lat": 0.0, "lon": -77.02680433333333, "is_disabled": 0, "fusion_lon": 0.0, "rental_uris": {"android": "https://dc.lft.to/lastmile_qr_scan", "ios": "https://dc.lft.to/lastmile_qr_scan"}, "type": "electric_scooter"}, {"bike_id": "3faa0061be9f3a7c0ea287035766e26f", "is_reserved": 0, "name": "3faa0061be9f3a7c0ea287035766e26f", "lat": 38.85511916666667, "fusion_lat": 0.0, "lon": -76.98426083333334, "is_disabled": 0, "fusion_lon": 0.0, "rental_uris": {"android": "https://dc.lft.to/lastmile_qr_scan", "ios": "https://dc.lft.to/lastmile_qr_scan"}, "type": "electric_bike"}, {"bike_id": "5b4d7c5eac88ca44465a9af2b455b086", "is_reserved": 0, "name": "5b4d7c5eac88ca44465a9af2b455b086", "lat": 38.915019, "fusion_lat": 0.0, "lon": -77.04486066666666, "is_disabled": 0, "fusion_lon": 0.0, "rental_uris": {"android": "https://dc.lft.to/lastmile_qr_scan", "ios": "https://dc.lft.to/lastmile_qr_scan"}, "type": "electric_scooter"}, {"bike_id": "67cfa89b442326875dbadc0d9da9a3ce", "is_reserved": 0, "name": "67cfa89b442326875dbadc0d9da9a3ce", "lat": 38.883955666666665, "fusion_lat": 0.0, "lon": -76.930491, "is_disabled": 0, "fusion_lon": 0.0, "rental_uris": {"android": "https://dc.lft.to/lastmile_qr_scan", "ios": "https://dc.lft.to/lastmile_qr_scan"}, "type": "electric_scooter"}, {"bike_id": "5cb6f565a306559a1d36c363108ab39b", "is_reserved": 0, "name": "5cb6f565a306559a1d36c363108ab39b", "lat": 38.93734233333333, "fusion_lat": 0.0, "lon": -76.9906715, "is_disabled": 0, "fusion_lon": 0.0, "rental_uris": {"android": "https://dc.lft.to/lastmile_qr_scan", "ios": "https://dc.lft.to/lastmile_qr_scan"}, "type": "electric_bike"}, {"bike_id": "a4c7dbf26a6be24179feabe37a7c0483", "is_reserved": 0, "name": "a4c7dbf26a6be24179feabe37a7c0483", "lat": 38.87212916666667, "fusion_lat": 0.0, "lon": -77.0057525, "is_disabled": 0, "fusion_lon": 0.0, "rental_uris": {"android": "https://dc.lft.to/lastmile_qr_scan", "ios": "https://dc.lft.to/lastmile_qr_scan"}, "type": "electric_scooter"}, {"bike_id": "89c86a000690111dcefd879cfa3ba75f", "is_reserved": 0, "name": "89c86a000690111dcefd879cfa3ba75f", "lat": 38.8836455, "fusion_lat": 0.0, "lon": -77.013595, "is_disabled": 0, "fusion_lon": 0.0, "rental_uris": {"android": "https://dc.lft.to/lastmile_qr_scan", "ios": "https://dc.lft.to/lastmile_qr_scan"}, "type": "electric_scooter"}, {"bike_id": "5b66b6a126c9a22482e7f01266acff05", "is_reserved": 0, "name": "5b66b6a126c9a22482e7f01266acff05", "lat": 38.9005875, "fusion_lat": 0.0, "lon": -77.01624016666666, "is_disabled": 0, "fusion_lon": 0.0, "rental_uris": {"android": "https://dc.lft.to/lastmile_qr_scan", "ios": "https://dc.lft.to/lastmile_qr_scan"}, "type": "electric_scooter"}, {"bike_id": "3a32a516bbb73d4b8f79bf8476d0571c", "is_reserved": 0, "name": "3a32a516bbb73d4b8f79bf8476d0571c", "lat": 38.92121183333333, "fusion_lat": 0.0, "lon": -77.01208283333334, "is_disabled": 0, "fusion_lon": 0.0, "rental_uris": {"android": "https://dc.lft.to/lastmile_qr_scan", "ios": "https://dc.lft.to/lastmile_qr_scan"}, "type": "electric_scooter"}, {"bike_id": "599509971cba34c05f8fa9b331fa93e7", "is_reserved": 0, "name": "599509971cba34c05f8fa9b331fa93e7", "lat": 38.91923166666667, "fusion_lat": 0.0, "lon": -77.02660516666667, "is_disabled": 0, "fusion_lon": 0.0, "rental_uris": {"android": "https://dc.lft.to/lastmile_qr_scan", "ios": "https://dc.lft.to/lastmile_qr_scan"}, "type": "electric_scooter"}, {"bike_id": "fa7d05180a58d3956d4e4443fa0e68c3", "is_reserved": 0, "name": "fa7d05180a58d3956d4e4443fa0e68c3", "lat": 38.90976083333334, "fusion_lat": 0.0, "lon": -77.03472233333333, "is_disabled": 0, "fusion_lon": 0.0, "rental_uris": {"android": "https://dc.lft.to/lastmile_qr_scan", "ios": "https://dc.lft.to/lastmile_qr_scan"}, "type": "electric_scooter"}, {"bike_id": "bf45ff5370a3e6f6da406ccb37f54288", "is_reserved": 0, "name": "bf45ff5370a3e6f6da406ccb37f54288", "lat": 38.91734233333333, "fusion_lat": 0.0, "lon": -77.01900133333334, "is_disabled": 0, "fusion_lon": 0.0, "rental_uris": {"android": "https://dc.lft.to/lastmile_qr_scan", "ios": "https://dc.lft.to/lastmile_qr_scan"}, "type": "electric_scooter"}, {"bike_id": "53963c35a314d3747876e0f8ee9eb9bd", "is_reserved": 0, "name": "53963c35a314d3747876e0f8ee9eb9bd", "lat": 38.9168665, "fusion_lat": 0.0, "lon": -77.02965033333334, "is_disabled": 0, "fusion_lon": 0.0, "rental_uris": {"android": "https://dc.lft.to/lastmile_qr_scan", "ios": "https://dc.lft.to/lastmile_qr_scan"}, "type": "electric_scooter"}, {"bike_id": "27dfa74ac9a6f37c3588db1751a01d76", "is_reserved": 0, "name": "27dfa74ac9a6f37c3588db1751a01d76", "lat": 38.86664666666667, "fusion_lat": 0.0, "lon": -76.9890145, "is_disabled": 0, "fusion_lon": 0.0, "rental_uris": {"android": "https://dc.lft.to/lastmile_qr_scan", "ios": "https://dc.lft.to/lastmile_qr_scan"}, "type": "electric_scooter"}, {"bike_id": "8e338ce8f955a944de2d3b306f5561d0", "is_reserved": 0, "name": "8e338ce8f955a944de2d3b306f5561d0", "lat": 38.91694616666667, "fusion_lat": 0.0, "lon": -77.026471, "is_disabled": 0, "fusion_lon": 0.0, "rental_uris": {"android": "https://dc.lft.to/lastmile_qr_scan", "ios": "https://dc.lft.to/lastmile_qr_scan"}, "type": "electric_scooter"}, {"bike_id": "9ddf9a6531b3233c6bb3fd4114bf41e4", "is_reserved": 0, "name": "9ddf9a6531b3233c6bb3fd4114bf41e4", "lat": 38.909508833333334, "fusion_lat": 0.0, "lon": -77.02712066666666, "is_disabled": 0, "fusion_lon": 0.0, "rental_uris": {"android": "https://dc.lft.to/lastmile_qr_scan", "ios": "https://dc.lft.to/lastmile_qr_scan"}, "type": "electric_scooter"}, {"bike_id": "74df7343b4c8bd921140b11be846b749", "is_reserved": 0, "name": "74df7343b4c8bd921140b11be846b749", "lat": 38.8873065, "fusion_lat": 0.0, "lon": -77.03180266666666, "is_disabled": 0, "fusion_lon": 0.0, "rental_uris": {"android": "https://dc.lft.to/lastmile_qr_scan", "ios": "https://dc.lft.to/lastmile_qr_scan"}, "type": "electric_scooter"}, {"bike_id": "d1aee95322342c7a8bdb5412ea7abb9d", "is_reserved": 0, "name": "d1aee95322342c7a8bdb5412ea7abb9d", "lat": 38.87650166666667, "fusion_lat": 0.0, "lon": -77.0007275, "is_disabled": 0, "fusion_lon": 0.0, "rental_uris": {"android": "https://dc.lft.to/lastmile_qr_scan", "ios": "https://dc.lft.to/lastmile_qr_scan"}, "type": "electric_scooter"}, {"bike_id": "ec040d8d08e7a8699cd909e6ae9c3315", "is_reserved": 0, "name": "ec040d8d08e7a8699cd909e6ae9c3315", "lat": 38.914800666666665, "fusion_lat": 0.0, "lon": -77.04607766666666, "is_disabled": 0, "fusion_lon": 0.0, "rental_uris": {"android": "https://dc.lft.to/lastmile_qr_scan", "ios": "https://dc.lft.to/lastmile_qr_scan"}, "type": "electric_scooter"}, {"bike_id": "0e01f9d7fb7411b82496e8cb3853e564", "is_reserved": 0, "name": "0e01f9d7fb7411b82496e8cb3853e564", "lat": 38.8749325, "fusion_lat": 0.0, "lon": -77.00284983333333, "is_disabled": 0, "fusion_lon": 0.0, "rental_uris": {"android": "https://dc.lft.to/lastmile_qr_scan", "ios": "https://dc.lft.to/lastmile_qr_scan"}, "type": "electric_scooter"}, {"bike_id": "06b0900c0734dffac9bcb9f739cebe42", "is_reserved": 0, "name": "06b0900c0734dffac9bcb9f739cebe42", "lat": 38.928572, "fusion_lat": 0.0, "lon": -77.01419633333333, "is_disabled": 0, "fusion_lon": 0.0, "rental_uris": {"android": "https://dc.lft.to/lastmile_qr_scan", "ios": "https://dc.lft.to/lastmile_qr_scan"}, "type": "electric_scooter"}, {"bike_id": "f8f18da62f8f7921ffae63c2a2968c32", "is_reserved": 0, "name": "f8f18da62f8f7921ffae63c2a2968c32", "lat": 38.918001833333335, "fusion_lat": 0.0, "lon": -77.03182383333333, "is_disabled": 0, "fusion_lon": 0.0, "rental_uris": {"android": "https://dc.lft.to/lastmile_qr_scan", "ios": "https://dc.lft.to/lastmile_qr_scan"}, "type": "electric_scooter"}, {"bike_id": "037793c237ecaf1b7167fcc69f876d09", "is_reserved": 0, "name": "037793c237ecaf1b7167fcc69f876d09", "lat": 38.95413216666667, "fusion_lat": 0.0, "lon": -77.02793883333334, "is_disabled": 0, "fusion_lon": 0.0, "rental_uris": {"android": "https://dc.lft.to/lastmile_qr_scan", "ios": "https://dc.lft.to/lastmile_qr_scan"}, "type": "electric_scooter"}, {"bike_id": "36e6436a5b09f07fe7078974dc4f9fca", "is_reserved": 0, "name": "36e6436a5b09f07fe7078974dc4f9fca", "lat": 38.931822333333336, "fusion_lat": 0.0, "lon": -77.03155033333333, "is_disabled": 0, "fusion_lon": 0.0, "rental_uris": {"android": "https://dc.lft.to/lastmile_qr_scan", "ios": "https://dc.lft.to/lastmile_qr_scan"}, "type": "electric_scooter"}, {"bike_id": "12cdeb611a4e9b45c249d502e0945a64", "is_reserved": 0, "name": "12cdeb611a4e9b45c249d502e0945a64", "lat": 38.8601715, "fusion_lat": 0.0, "lon": -77.1280585, "is_disabled": 0, "fusion_lon": 0.0, "rental_uris": {"android": "https://dc.lft.to/lastmile_qr_scan", "ios": "https://dc.lft.to/lastmile_qr_scan"}, "type": "electric_bike"}, {"bike_id": "8b42b40ebefae5bb99e68d46d4583c09", "is_reserved": 0, "name": "8b42b40ebefae5bb99e68d46d4583c09", "lat": 38.905986666666664, "fusion_lat": 0.0, "lon": -77.07619616666666, "is_disabled": 0, "fusion_lon": 0.0, "rental_uris": {"android": "https://dc.lft.to/lastmile_qr_scan", "ios": "https://dc.lft.to/lastmile_qr_scan"}, "type": "electric_bike"}, {"bike_id": "21b00e67d5f71c736c307c21dd4b2831", "is_reserved": 0, "name": "21b00e67d5f71c736c307c21dd4b2831", "lat": 38.92469166666667, "fusion_lat": 0.0, "lon": -77.05230083333333, "is_disabled": 0, "fusion_lon": 0.0, "rental_uris": {"android": "https://dc.lft.to/lastmile_qr_scan", "ios": "https://dc.lft.to/lastmile_qr_scan"}, "type": "electric_scooter"}, {"bike_id": "69e7c6fa5505a55cf11871e630cc3786", "is_reserved": 0, "name": "69e7c6fa5505a55cf11871e630cc3786", "lat": 38.910894166666665, "fusion_lat": 0.0, "lon": -77.044941, "is_disabled": 0, "fusion_lon": 0.0, "rental_uris": {"android": "https://dc.lft.to/lastmile_qr_scan", "ios": "https://dc.lft.to/lastmile_qr_scan"}, "type": "electric_scooter"}, {"bike_id": "751f6eb13e9f8df09240d8d3e96990dd", "is_reserved": 0, "name": "751f6eb13e9f8df09240d8d3e96990dd", "lat": 38.9170105, "fusion_lat": 0.0, "lon": -77.0243295, "is_disabled": 0, "fusion_lon": 0.0, "rental_uris": {"android": "https://dc.lft.to/lastmile_qr_scan", "ios": "https://dc.lft.to/lastmile_qr_scan"}, "type": "electric_scooter"}, {"bike_id": "bec6a94b3af6dd1655eff98a31de678a", "is_reserved": 0, "name": "bec6a94b3af6dd1655eff98a31de678a", "lat": 38.92709283333333, "fusion_lat": 0.0, "lon": -77.020902, "is_disabled": 0, "fusion_lon": 0.0, "rental_uris": {"android": "https://dc.lft.to/lastmile_qr_scan", "ios": "https://dc.lft.to/lastmile_qr_scan"}, "type": "electric_scooter"}, {"bike_id": "f412455143dd81bfe55f4844abbbbd22", "is_reserved": 0, "name": "f412455143dd81bfe55f4844abbbbd22", "lat": 38.901914, "fusion_lat": 0.0, "lon": -77.02372133333333, "is_disabled": 0, "fusion_lon": 0.0, "rental_uris": {"android": "https://dc.lft.to/lastmile_qr_scan", "ios": "https://dc.lft.to/lastmile_qr_scan"}, "type": "electric_scooter"}, {"bike_id": "5a5a82c716d4905c5baa1e252db83741", "is_reserved": 0, "name": "5a5a82c716d4905c5baa1e252db83741", "lat": 38.906826833333334, "fusion_lat": 0.0, "lon": -76.94492633333333, "is_disabled": 0, "fusion_lon": 0.0, "rental_uris": {"android": "https://dc.lft.to/lastmile_qr_scan", "ios": "https://dc.lft.to/lastmile_qr_scan"}, "type": "electric_bike"}, {"bike_id": "cdc4ef78f8ca81ff179519e04e2d3aba", "is_reserved": 0, "name": "cdc4ef78f8ca81ff179519e04e2d3aba", "lat": 38.908428, "fusion_lat": 0.0, "lon": -76.99755033333334, "is_disabled": 0, "fusion_lon": 0.0, "rental_uris": {"android": "https://dc.lft.to/lastmile_qr_scan", "ios": "https://dc.lft.to/lastmile_qr_scan"}, "type": "electric_scooter"}, {"bike_id": "21676020ef9e22f95b343013bd4b01c4", "is_reserved": 0, "name": "21676020ef9e22f95b343013bd4b01c4", "lat": 38.87552566666667, "fusion_lat": 0.0, "lon": -77.00601733333333, "is_disabled": 0, "fusion_lon": 0.0, "rental_uris": {"android": "https://dc.lft.to/lastmile_qr_scan", "ios": "https://dc.lft.to/lastmile_qr_scan"}, "type": "electric_scooter"}, {"bike_id": "f471e432eee42e471915d5d823f0b25d", "is_reserved": 0, "name": "f471e432eee42e471915d5d823f0b25d", "lat": 38.908864, "fusion_lat": 0.0, "lon": -77.0005655, "is_disabled": 0, "fusion_lon": 0.0, "rental_uris": {"android": "https://dc.lft.to/lastmile_qr_scan", "ios": "https://dc.lft.to/lastmile_qr_scan"}, "type": "electric_scooter"}, {"bike_id": "162bf4f423849735310238ae058c8969", "is_reserved": 0, "name": "162bf4f423849735310238ae058c8969", "lat": 38.8755585, "fusion_lat": 0.0, "lon": -77.0060945, "is_disabled": 0, "fusion_lon": 0.0, "rental_uris": {"android": "https://dc.lft.to/lastmile_qr_scan", "ios": "https://dc.lft.to/lastmile_qr_scan"}, "type": "electric_scooter"}, {"bike_id": "2f22471ea18730bf70feecdc2ab02769", "is_reserved": 0, "name": "2f22471ea18730bf70feecdc2ab02769", "lat": 38.87148333333333, "fusion_lat": 0.0, "lon": -77.01187566666667, "is_disabled": 0, "fusion_lon": 0.0, "rental_uris": {"android": "https://dc.lft.to/lastmile_qr_scan", "ios": "https://dc.lft.to/lastmile_qr_scan"}, "type": "electric_bike"}, {"bike_id": "3a0557b48dc0c4b52cf285e3a9163e93", "is_reserved": 0, "name": "3a0557b48dc0c4b52cf285e3a9163e93", "lat": 38.8995125, "fusion_lat": 0.0, "lon": -77.016021, "is_disabled": 0, "fusion_lon": 0.0, "rental_uris": {"android": "https://dc.lft.to/lastmile_qr_scan", "ios": "https://dc.lft.to/lastmile_qr_scan"}, "type": "electric_scooter"}, {"bike_id": "5e0bf1e127457f72c12786b460cc9b2e", "is_reserved": 0, "name": "5e0bf1e127457f72c12786b460cc9b2e", "lat": 38.95058683333333, "fusion_lat": 0.0, "lon": -77.08025966666666, "is_disabled": 0, "fusion_lon": 0.0, "rental_uris": {"android": "https://dc.lft.to/lastmile_qr_scan", "ios": "https://dc.lft.to/lastmile_qr_scan"}, "type": "electric_scooter"}, {"bike_id": "4cb199fcc268e94c965c462e48c421fb", "is_reserved": 0, "name": "4cb199fcc268e94c965c462e48c421fb", "lat": 38.920626666666664, "fusion_lat": 0.0, "lon": -77.04246133333334, "is_disabled": 0, "fusion_lon": 0.0, "rental_uris": {"android": "https://dc.lft.to/lastmile_qr_scan", "ios": "https://dc.lft.to/lastmile_qr_scan"}, "type": "electric_scooter"}, {"bike_id": "9a5b11a938fd66be57fa1de0598c38ad", "is_reserved": 0, "name": "9a5b11a938fd66be57fa1de0598c38ad", "lat": 38.922317666666665, "fusion_lat": 0.0, "lon": -77.04253483333333, "is_disabled": 0, "fusion_lon": 0.0, "rental_uris": {"android": "https://dc.lft.to/lastmile_qr_scan", "ios": "https://dc.lft.to/lastmile_qr_scan"}, "type": "electric_scooter"}, {"bike_id": "8542b2f3630718a032153ce2d342d7af", "is_reserved": 0, "name": "8542b2f3630718a032153ce2d342d7af", "lat": 38.901497666666664, "fusion_lat": 0.0, "lon": -76.93070383333334, "is_disabled": 0, "fusion_lon": 0.0, "rental_uris": {"android": "https://dc.lft.to/lastmile_qr_scan", "ios": "https://dc.lft.to/lastmile_qr_scan"}, "type": "electric_scooter"}, {"bike_id": "ea32f885dd7b709fea2aaa3a266d14a8", "is_reserved": 0, "name": "ea32f885dd7b709fea2aaa3a266d14a8", "lat": 38.89887816666667, "fusion_lat": 0.0, "lon": -76.931759, "is_disabled": 0, "fusion_lon": 0.0, "rental_uris": {"android": "https://dc.lft.to/lastmile_qr_scan", "ios": "https://dc.lft.to/lastmile_qr_scan"}, "type": "electric_scooter"}, {"bike_id": "d691ea4750a9e894eb94fa6f8a79ad6c", "is_reserved": 0, "name": "d691ea4750a9e894eb94fa6f8a79ad6c", "lat": 38.90378833333333, "fusion_lat": 0.0, "lon": -77.032042, "is_disabled": 0, "fusion_lon": 0.0, "rental_uris": {"android": "https://dc.lft.to/lastmile_qr_scan", "ios": "https://dc.lft.to/lastmile_qr_scan"}, "type": "electric_scooter"}, {"bike_id": "b7ef0adfcccd864124a1d4807e5520d2", "is_reserved": 0, "name": "b7ef0adfcccd864124a1d4807e5520d2", "lat": 38.90219883333333, "fusion_lat": 0.0, "lon": -77.01607433333334, "is_disabled": 0, "fusion_lon": 0.0, "rental_uris": {"android": "https://dc.lft.to/lastmile_qr_scan", "ios": "https://dc.lft.to/lastmile_qr_scan"}, "type": "electric_scooter"}, {"bike_id": "757563b670be5d259d9d4221b714f66f", "is_reserved": 0, "name": "757563b670be5d259d9d4221b714f66f", "lat": 38.90166716666667, "fusion_lat": 0.0, "lon": -77.0248055, "is_disabled": 0, "fusion_lon": 0.0, "rental_uris": {"android": "https://dc.lft.to/lastmile_qr_scan", "ios": "https://dc.lft.to/lastmile_qr_scan"}, "type": "electric_scooter"}, {"bike_id": "85ea377571f2f24e558867533d35609c", "is_reserved": 0, "name": "85ea377571f2f24e558867533d35609c", "lat": 38.9072265, "fusion_lat": 0.0, "lon": -77.04338683333333, "is_disabled": 0, "fusion_lon": 0.0, "rental_uris": {"android": "https://dc.lft.to/lastmile_qr_scan", "ios": "https://dc.lft.to/lastmile_qr_scan"}, "type": "electric_scooter"}, {"bike_id": "32f971c78cff142c1425e784299c2707", "is_reserved": 0, "name": "32f971c78cff142c1425e784299c2707", "lat": 38.90062283333334, "fusion_lat": 0.0, "lon": -76.93383733333333, "is_disabled": 0, "fusion_lon": 0.0, "rental_uris": {"android": "https://dc.lft.to/lastmile_qr_scan", "ios": "https://dc.lft.to/lastmile_qr_scan"}, "type": "electric_scooter"}, {"bike_id": "011d6fb54b6ab3654dbc67a6c126ab4c", "is_reserved": 0, "name": "011d6fb54b6ab3654dbc67a6c126ab4c", "lat": 38.876511, "fusion_lat": 0.0, "lon": -77.00075016666666, "is_disabled": 0, "fusion_lon": 0.0, "rental_uris": {"android": "https://dc.lft.to/lastmile_qr_scan", "ios": "https://dc.lft.to/lastmile_qr_scan"}, "type": "electric_scooter"}, {"bike_id": "22c2e5af800f56f0d255d3fc6259e7b3", "is_reserved": 0, "name": "22c2e5af800f56f0d255d3fc6259e7b3", "lat": 38.91689316666667, "fusion_lat": 0.0, "lon": -77.03041016666667, "is_disabled": 0, "fusion_lon": 0.0, "rental_uris": {"android": "https://dc.lft.to/lastmile_qr_scan", "ios": "https://dc.lft.to/lastmile_qr_scan"}, "type": "electric_scooter"}, {"bike_id": "486dc01ea5c94678cd0d4206c1fde2ec", "is_reserved": 0, "name": "486dc01ea5c94678cd0d4206c1fde2ec", "lat": 38.917468666666664, "fusion_lat": 0.0, "lon": -77.0415685, "is_disabled": 0, "fusion_lon": 0.0, "rental_uris": {"android": "https://dc.lft.to/lastmile_qr_scan", "ios": "https://dc.lft.to/lastmile_qr_scan"}, "type": "electric_scooter"}, {"bike_id": "9c06be81dbb6e7bc7bacd226bb0416f5", "is_reserved": 0, "name": "9c06be81dbb6e7bc7bacd226bb0416f5", "lat": 38.89833766666667, "fusion_lat": 0.0, "lon": -76.946339, "is_disabled": 0, "fusion_lon": 0.0, "rental_uris": {"android": "https://dc.lft.to/lastmile_qr_scan", "ios": "https://dc.lft.to/lastmile_qr_scan"}, "type": "electric_scooter"}, {"bike_id": "e0d273f1909ae219c1a731b09497b773", "is_reserved": 0, "name": "e0d273f1909ae219c1a731b09497b773", "lat": 38.897061666666666, "fusion_lat": 0.0, "lon": -77.02729483333333, "is_disabled": 0, "fusion_lon": 0.0, "rental_uris": {"android": "https://dc.lft.to/lastmile_qr_scan", "ios": "https://dc.lft.to/lastmile_qr_scan"}, "type": "electric_scooter"}, {"bike_id": "3a843be8fb7fa3ef9e043cbd595e24e0", "is_reserved": 0, "name": "3a843be8fb7fa3ef9e043cbd595e24e0", "lat": 38.92376633333333, "fusion_lat": 0.0, "lon": -77.03534166666667, "is_disabled": 0, "fusion_lon": 0.0, "rental_uris": {"android": "https://dc.lft.to/lastmile_qr_scan", "ios": "https://dc.lft.to/lastmile_qr_scan"}, "type": "electric_scooter"}, {"bike_id": "cb384cd7aafdb93f3cb72d5769ca2d6c", "is_reserved": 0, "name": "cb384cd7aafdb93f3cb72d5769ca2d6c", "lat": 38.89662033333333, "fusion_lat": 0.0, "lon": -77.02597883333334, "is_disabled": 0, "fusion_lon": 0.0, "rental_uris": {"android": "https://dc.lft.to/lastmile_qr_scan", "ios": "https://dc.lft.to/lastmile_qr_scan"}, "type": "electric_scooter"}, {"bike_id": "a8cfd25fb1c288e8d45100357e13df37", "is_reserved": 0, "name": "a8cfd25fb1c288e8d45100357e13df37", "lat": 38.913046, "fusion_lat": 0.0, "lon": -77.02697233333333, "is_disabled": 0, "fusion_lon": 0.0, "rental_uris": {"android": "https://dc.lft.to/lastmile_qr_scan", "ios": "https://dc.lft.to/lastmile_qr_scan"}, "type": "electric_scooter"}, {"bike_id": "60f58e2bb090af7ae3da08ab771a50af", "is_reserved": 0, "name": "60f58e2bb090af7ae3da08ab771a50af", "lat": 38.886621, "fusion_lat": 0.0, "lon": -77.16235866666666, "is_disabled": 0, "fusion_lon": 0.0, "rental_uris": {"android": "https://dc.lft.to/lastmile_qr_scan", "ios": "https://dc.lft.to/lastmile_qr_scan"}, "type": "electric_bike"}, {"bike_id": "3775101baf65ec602d273b4d174b320c", "is_reserved": 0, "name": "3775101baf65ec602d273b4d174b320c", "lat": 38.873839833333335, "fusion_lat": 0.0, "lon": -77.00166983333334, "is_disabled": 0, "fusion_lon": 0.0, "rental_uris": {"android": "https://dc.lft.to/lastmile_qr_scan", "ios": "https://dc.lft.to/lastmile_qr_scan"}, "type": "electric_scooter"}, {"bike_id": "649cc3231a1eb350649d5c15a3c9214c", "is_reserved": 0, "name": "649cc3231a1eb350649d5c15a3c9214c", "lat": 38.901264, "fusion_lat": 0.0, "lon": -77.00324733333333, "is_disabled": 0, "fusion_lon": 0.0, "rental_uris": {"android": "https://dc.lft.to/lastmile_qr_scan", "ios": "https://dc.lft.to/lastmile_qr_scan"}, "type": "electric_scooter"}, {"bike_id": "6a1a9c6dae2173ae7fdd43a9d4bad90a", "is_reserved": 0, "name": "6a1a9c6dae2173ae7fdd43a9d4bad90a", "lat": 38.901203833333334, "fusion_lat": 0.0, "lon": -77.03471783333333, "is_disabled": 0, "fusion_lon": 0.0, "rental_uris": {"android": "https://dc.lft.to/lastmile_qr_scan", "ios": "https://dc.lft.to/lastmile_qr_scan"}, "type": "electric_scooter"}, {"bike_id": "2a181d26dfb2926a87e5649111e36a58", "is_reserved": 0, "name": "2a181d26dfb2926a87e5649111e36a58", "lat": 38.881754, "fusion_lat": 0.0, "lon": -77.027712, "is_disabled": 0, "fusion_lon": 0.0, "rental_uris": {"android": "https://dc.lft.to/lastmile_qr_scan", "ios": "https://dc.lft.to/lastmile_qr_scan"}, "type": "electric_scooter"}, {"bike_id": "f7778af35fccd6041f2550590cf50f19", "is_reserved": 0, "name": "f7778af35fccd6041f2550590cf50f19", "lat": 39.01416833333333, "fusion_lat": 0.0, "lon": -77.0449965, "is_disabled": 0, "fusion_lon": 0.0, "rental_uris": {"android": "https://dc.lft.to/lastmile_qr_scan", "ios": "https://dc.lft.to/lastmile_qr_scan"}, "type": "electric_bike"}, {"bike_id": "35a90ff78d85b092bad4774b08a1f7d5", "is_reserved": 0, "name": "35a90ff78d85b092bad4774b08a1f7d5", "lat": 38.89729233333333, "fusion_lat": 0.0, "lon": -77.01867416666667, "is_disabled": 0, "fusion_lon": 0.0, "rental_uris": {"android": "https://dc.lft.to/lastmile_qr_scan", "ios": "https://dc.lft.to/lastmile_qr_scan"}, "type": "electric_scooter"}, {"bike_id": "a7589f069720dfd1253f7ae7301647cc", "is_reserved": 0, "name": "a7589f069720dfd1253f7ae7301647cc", "lat": 38.8738195, "fusion_lat": 0.0, "lon": -77.0012305, "is_disabled": 0, "fusion_lon": 0.0, "rental_uris": {"android": "https://dc.lft.to/lastmile_qr_scan", "ios": "https://dc.lft.to/lastmile_qr_scan"}, "type": "electric_scooter"}, {"bike_id": "493e7d9a8e48feb6a552fd3093d32b60", "is_reserved": 0, "name": "493e7d9a8e48feb6a552fd3093d32b60", "lat": 38.94407133333333, "fusion_lat": 0.0, "lon": -77.05515216666667, "is_disabled": 0, "fusion_lon": 0.0, "rental_uris": {"android": "https://dc.lft.to/lastmile_qr_scan", "ios": "https://dc.lft.to/lastmile_qr_scan"}, "type": "electric_bike"}, {"bike_id": "af40b6d4a730ce749d2fad8ab9b0e187", "is_reserved": 0, "name": "af40b6d4a730ce749d2fad8ab9b0e187", "lat": 38.9555665, "fusion_lat": 0.0, "lon": -77.02441633333333, "is_disabled": 0, "fusion_lon": 0.0, "rental_uris": {"android": "https://dc.lft.to/lastmile_qr_scan", "ios": "https://dc.lft.to/lastmile_qr_scan"}, "type": "electric_bike"}, {"bike_id": "0673e1c884a71fcaff9551e6826fb2f6", "is_reserved": 0, "name": "0673e1c884a71fcaff9551e6826fb2f6", "lat": 38.91549166666667, "fusion_lat": 0.0, "lon": -77.03853683333334, "is_disabled": 0, "fusion_lon": 0.0, "rental_uris": {"android": "https://dc.lft.to/lastmile_qr_scan", "ios": "https://dc.lft.to/lastmile_qr_scan"}, "type": "electric_scooter"}, {"bike_id": "c26867f65915c9efb35805a8c48b8a4f", "is_reserved": 0, "name": "c26867f65915c9efb35805a8c48b8a4f", "lat": 38.912613666666665, "fusion_lat": 0.0, "lon": -77.03052633333333, "is_disabled": 0, "fusion_lon": 0.0, "rental_uris": {"android": "https://dc.lft.to/lastmile_qr_scan", "ios": "https://dc.lft.to/lastmile_qr_scan"}, "type": "electric_scooter"}, {"bike_id": "d85d2b8213de3a63217c6cce306d0d2b", "is_reserved": 0, "name": "d85d2b8213de3a63217c6cce306d0d2b", "lat": 38.911015666666664, "fusion_lat": 0.0, "lon": -77.00366666666666, "is_disabled": 0, "fusion_lon": 0.0, "rental_uris": {"android": "https://dc.lft.to/lastmile_qr_scan", "ios": "https://dc.lft.to/lastmile_qr_scan"}, "type": "electric_scooter"}, {"bike_id": "2340781537af04fe141500df352d1e67", "is_reserved": 0, "name": "2340781537af04fe141500df352d1e67", "lat": 38.927576, "fusion_lat": 0.0, "lon": -77.052585, "is_disabled": 0, "fusion_lon": 0.0, "rental_uris": {"android": "https://dc.lft.to/lastmile_qr_scan", "ios": "https://dc.lft.to/lastmile_qr_scan"}, "type": "electric_scooter"}, {"bike_id": "5b662e7ede91353d063bf661f52dcecc", "is_reserved": 0, "name": "5b662e7ede91353d063bf661f52dcecc", "lat": 38.900037166666664, "fusion_lat": 0.0, "lon": -77.0449735, "is_disabled": 0, "fusion_lon": 0.0, "rental_uris": {"android": "https://dc.lft.to/lastmile_qr_scan", "ios": "https://dc.lft.to/lastmile_qr_scan"}, "type": "electric_scooter"}, {"bike_id": "6db6f25ba2fce1502b8804f2a62b104d", "is_reserved": 0, "name": "6db6f25ba2fce1502b8804f2a62b104d", "lat": 38.8198725, "fusion_lat": 0.0, "lon": -76.9980675, "is_disabled": 0, "fusion_lon": 0.0, "rental_uris": {"android": "https://dc.lft.to/lastmile_qr_scan", "ios": "https://dc.lft.to/lastmile_qr_scan"}, "type": "electric_bike"}, {"bike_id": "19baa189ed3470aaacfa3fa53fbf31d5", "is_reserved": 0, "name": "19baa189ed3470aaacfa3fa53fbf31d5", "lat": 38.9279595, "fusion_lat": 0.0, "lon": -77.021107, "is_disabled": 0, "fusion_lon": 0.0, "rental_uris": {"android": "https://dc.lft.to/lastmile_qr_scan", "ios": "https://dc.lft.to/lastmile_qr_scan"}, "type": "electric_scooter"}, {"bike_id": "e057aa95baffb7d8c157f12d270ca65d", "is_reserved": 0, "name": "e057aa95baffb7d8c157f12d270ca65d", "lat": 38.92140883333333, "fusion_lat": 0.0, "lon": -77.01922983333333, "is_disabled": 0, "fusion_lon": 0.0, "rental_uris": {"android": "https://dc.lft.to/lastmile_qr_scan", "ios": "https://dc.lft.to/lastmile_qr_scan"}, "type": "electric_scooter"}, {"bike_id": "bbd36ecf2088a6109d3815fe092c8961", "is_reserved": 0, "name": "bbd36ecf2088a6109d3815fe092c8961", "lat": 38.90358766666667, "fusion_lat": 0.0, "lon": -77.0391605, "is_disabled": 0, "fusion_lon": 0.0, "rental_uris": {"android": "https://dc.lft.to/lastmile_qr_scan", "ios": "https://dc.lft.to/lastmile_qr_scan"}, "type": "electric_scooter"}, {"bike_id": "1d98556670ba7bb7a90a45977326b3ef", "is_reserved": 0, "name": "1d98556670ba7bb7a90a45977326b3ef", "lat": 38.901116333333334, "fusion_lat": 0.0, "lon": -77.02595866666667, "is_disabled": 0, "fusion_lon": 0.0, "rental_uris": {"android": "https://dc.lft.to/lastmile_qr_scan", "ios": "https://dc.lft.to/lastmile_qr_scan"}, "type": "electric_scooter"}, {"bike_id": "b4f473a60ae8c321aa2de03a3c6e76d7", "is_reserved": 0, "name": "b4f473a60ae8c321aa2de03a3c6e76d7", "lat": 38.92785966666667, "fusion_lat": 0.0, "lon": -77.0531585, "is_disabled": 0, "fusion_lon": 0.0, "rental_uris": {"android": "https://dc.lft.to/lastmile_qr_scan", "ios": "https://dc.lft.to/lastmile_qr_scan"}, "type": "electric_scooter"}, {"bike_id": "857682028c6f24959aacc892d163ce39", "is_reserved": 0, "name": "857682028c6f24959aacc892d163ce39", "lat": 38.9251965, "fusion_lat": 0.0, "lon": -77.05035466666666, "is_disabled": 0, "fusion_lon": 0.0, "rental_uris": {"android": "https://dc.lft.to/lastmile_qr_scan", "ios": "https://dc.lft.to/lastmile_qr_scan"}, "type": "electric_scooter"}, {"bike_id": "63767a97a05ba562a1e56e36a2015d35", "is_reserved": 0, "name": "63767a97a05ba562a1e56e36a2015d35", "lat": 38.929202333333336, "fusion_lat": 0.0, "lon": -77.03265766666667, "is_disabled": 0, "fusion_lon": 0.0, "rental_uris": {"android": "https://dc.lft.to/lastmile_qr_scan", "ios": "https://dc.lft.to/lastmile_qr_scan"}, "type": "electric_scooter"}, {"bike_id": "99bd821012dc2721010d90b18c15a378", "is_reserved": 0, "name": "99bd821012dc2721010d90b18c15a378", "lat": 38.9191255, "fusion_lat": 0.0, "lon": -77.02501983333333, "is_disabled": 0, "fusion_lon": 0.0, "rental_uris": {"android": "https://dc.lft.to/lastmile_qr_scan", "ios": "https://dc.lft.to/lastmile_qr_scan"}, "type": "electric_scooter"}, {"bike_id": "78c0c352d32a35e59723bd001c033453", "is_reserved": 0, "name": "78c0c352d32a35e59723bd001c033453", "lat": 38.9081415, "fusion_lat": 0.0, "lon": -77.041651, "is_disabled": 0, "fusion_lon": 0.0, "rental_uris": {"android": "https://dc.lft.to/lastmile_qr_scan", "ios": "https://dc.lft.to/lastmile_qr_scan"}, "type": "electric_scooter"}, {"bike_id": "df1e8f89bbcc2cb3c5444e9dec481b96", "is_reserved": 0, "name": "df1e8f89bbcc2cb3c5444e9dec481b96", "lat": 38.918264, "fusion_lat": 0.0, "lon": -77.03173766666667, "is_disabled": 0, "fusion_lon": 0.0, "rental_uris": {"android": "https://dc.lft.to/lastmile_qr_scan", "ios": "https://dc.lft.to/lastmile_qr_scan"}, "type": "electric_scooter"}, {"bike_id": "936e0afb2bb598bdb25f2fd86eb42523", "is_reserved": 0, "name": "936e0afb2bb598bdb25f2fd86eb42523", "lat": 38.90300766666667, "fusion_lat": 0.0, "lon": -77.00580716666667, "is_disabled": 0, "fusion_lon": 0.0, "rental_uris": {"android": "https://dc.lft.to/lastmile_qr_scan", "ios": "https://dc.lft.to/lastmile_qr_scan"}, "type": "electric_scooter"}, {"bike_id": "98c865c6921e59dad2580b1a62b3db67", "is_reserved": 0, "name": "98c865c6921e59dad2580b1a62b3db67", "lat": 38.891741333333336, "fusion_lat": 0.0, "lon": -76.92649233333333, "is_disabled": 0, "fusion_lon": 0.0, "rental_uris": {"android": "https://dc.lft.to/lastmile_qr_scan", "ios": "https://dc.lft.to/lastmile_qr_scan"}, "type": "electric_scooter"}, {"bike_id": "b9381d384b84f348a1cfb48ff2e94b79", "is_reserved": 0, "name": "b9381d384b84f348a1cfb48ff2e94b79", "lat": 38.89220133333333, "fusion_lat": 0.0, "lon": -77.04324666666666, "is_disabled": 0, "fusion_lon": 0.0, "rental_uris": {"android": "https://dc.lft.to/lastmile_qr_scan", "ios": "https://dc.lft.to/lastmile_qr_scan"}, "type": "electric_scooter"}, {"bike_id": "f9064f050203f870dc9efa5d46322b7c", "is_reserved": 0, "name": "f9064f050203f870dc9efa5d46322b7c", "lat": 38.92146066666667, "fusion_lat": 0.0, "lon": -76.99370666666667, "is_disabled": 0, "fusion_lon": 0.0, "rental_uris": {"android": "https://dc.lft.to/lastmile_qr_scan", "ios": "https://dc.lft.to/lastmile_qr_scan"}, "type": "electric_scooter"}, {"bike_id": "a2fc9f2e12e2c1423ac920ca4a2085c0", "is_reserved": 0, "name": "a2fc9f2e12e2c1423ac920ca4a2085c0", "lat": 38.8622, "fusion_lat": 0.0, "lon": -76.9948855, "is_disabled": 0, "fusion_lon": 0.0, "rental_uris": {"android": "https://dc.lft.to/lastmile_qr_scan", "ios": "https://dc.lft.to/lastmile_qr_scan"}, "type": "electric_bike"}, {"bike_id": "90f4e3550b22ab6a6a79438972d91fba", "is_reserved": 0, "name": "90f4e3550b22ab6a6a79438972d91fba", "lat": 38.90743366666667, "fusion_lat": 0.0, "lon": -76.93550216666667, "is_disabled": 0, "fusion_lon": 0.0, "rental_uris": {"android": "https://dc.lft.to/lastmile_qr_scan", "ios": "https://dc.lft.to/lastmile_qr_scan"}, "type": "electric_scooter"}, {"bike_id": "beadcea82bc5624b6c7c0deca18243f8", "is_reserved": 0, "name": "beadcea82bc5624b6c7c0deca18243f8", "lat": 38.89222433333333, "fusion_lat": 0.0, "lon": -77.03333616666667, "is_disabled": 0, "fusion_lon": 0.0, "rental_uris": {"android": "https://dc.lft.to/lastmile_qr_scan", "ios": "https://dc.lft.to/lastmile_qr_scan"}, "type": "electric_scooter"}, {"bike_id": "41c20c4fdae9c080bd5c51490ac52d65", "is_reserved": 0, "name": "41c20c4fdae9c080bd5c51490ac52d65", "lat": 38.90519716666667, "fusion_lat": 0.0, "lon": -77.052219, "is_disabled": 0, "fusion_lon": 0.0, "rental_uris": {"android": "https://dc.lft.to/lastmile_qr_scan", "ios": "https://dc.lft.to/lastmile_qr_scan"}, "type": "electric_scooter"}, {"bike_id": "69fe657f40a4e6abba6e5826f318be83", "is_reserved": 0, "name": "69fe657f40a4e6abba6e5826f318be83", "lat": 38.87372633333333, "fusion_lat": 0.0, "lon": -77.001243, "is_disabled": 0, "fusion_lon": 0.0, "rental_uris": {"android": "https://dc.lft.to/lastmile_qr_scan", "ios": "https://dc.lft.to/lastmile_qr_scan"}, "type": "electric_scooter"}, {"bike_id": "0bba4aa28cf4d06ece5e31df4b51fe2d", "is_reserved": 0, "name": "0bba4aa28cf4d06ece5e31df4b51fe2d", "lat": 38.92235733333333, "fusion_lat": 0.0, "lon": -77.04248766666667, "is_disabled": 0, "fusion_lon": 0.0, "rental_uris": {"android": "https://dc.lft.to/lastmile_qr_scan", "ios": "https://dc.lft.to/lastmile_qr_scan"}, "type": "electric_scooter"}, {"bike_id": "7597091e35823be87c22036b5d6cc381", "is_reserved": 0, "name": "7597091e35823be87c22036b5d6cc381", "lat": 38.9267715, "fusion_lat": 0.0, "lon": -77.01463683333333, "is_disabled": 0, "fusion_lon": 0.0, "rental_uris": {"android": "https://dc.lft.to/lastmile_qr_scan", "ios": "https://dc.lft.to/lastmile_qr_scan"}, "type": "electric_scooter"}, {"bike_id": "6630252145ebcb506e98ba549a39259d", "is_reserved": 0, "name": "6630252145ebcb506e98ba549a39259d", "lat": 38.892869833333336, "fusion_lat": 0.0, "lon": -76.92995516666667, "is_disabled": 0, "fusion_lon": 0.0, "rental_uris": {"android": "https://dc.lft.to/lastmile_qr_scan", "ios": "https://dc.lft.to/lastmile_qr_scan"}, "type": "electric_scooter"}, {"bike_id": "f4db7183980ba55806a534e2b6c6ca36", "is_reserved": 0, "name": "f4db7183980ba55806a534e2b6c6ca36", "lat": 38.9004185, "fusion_lat": 0.0, "lon": -76.9914495, "is_disabled": 0, "fusion_lon": 0.0, "rental_uris": {"android": "https://dc.lft.to/lastmile_qr_scan", "ios": "https://dc.lft.to/lastmile_qr_scan"}, "type": "electric_scooter"}, {"bike_id": "11f0e9b3f07cd86df5af38ec263e3e5a", "is_reserved": 0, "name": "11f0e9b3f07cd86df5af38ec263e3e5a", "lat": 38.878948333333334, "fusion_lat": 0.0, "lon": -77.008097, "is_disabled": 0, "fusion_lon": 0.0, "rental_uris": {"android": "https://dc.lft.to/lastmile_qr_scan", "ios": "https://dc.lft.to/lastmile_qr_scan"}, "type": "electric_scooter"}, {"bike_id": "51965770b27e60fc5a9e71d582cb628d", "is_reserved": 0, "name": "51965770b27e60fc5a9e71d582cb628d", "lat": 38.81260533333333, "fusion_lat": 0.0, "lon": -77.11776833333333, "is_disabled": 0, "fusion_lon": 0.0, "rental_uris": {"android": "https://dc.lft.to/lastmile_qr_scan", "ios": "https://dc.lft.to/lastmile_qr_scan"}, "type": "electric_bike"}, {"bike_id": "d42cb177d4fc99cbc4bc70aee9670b0a", "is_reserved": 0, "name": "d42cb177d4fc99cbc4bc70aee9670b0a", "lat": 38.807607833333336, "fusion_lat": 0.0, "lon": -77.09467233333334, "is_disabled": 0, "fusion_lon": 0.0, "rental_uris": {"android": "https://dc.lft.to/lastmile_qr_scan", "ios": "https://dc.lft.to/lastmile_qr_scan"}, "type": "electric_bike"}, {"bike_id": "1c16555047c8146a90de1527eff478f5", "is_reserved": 0, "name": "1c16555047c8146a90de1527eff478f5", "lat": 38.911185833333334, "fusion_lat": 0.0, "lon": -77.04457716666667, "is_disabled": 0, "fusion_lon": 0.0, "rental_uris": {"android": "https://dc.lft.to/lastmile_qr_scan", "ios": "https://dc.lft.to/lastmile_qr_scan"}, "type": "electric_scooter"}, {"bike_id": "06eddceaf1d960a479313c90c7a4a98f", "is_reserved": 0, "name": "06eddceaf1d960a479313c90c7a4a98f", "lat": 38.922677166666666, "fusion_lat": 0.0, "lon": -77.04277316666666, "is_disabled": 0, "fusion_lon": 0.0, "rental_uris": {"android": "https://dc.lft.to/lastmile_qr_scan", "ios": "https://dc.lft.to/lastmile_qr_scan"}, "type": "electric_scooter"}, {"bike_id": "0a631a763a4ede735a861517c8c1387b", "is_reserved": 0, "name": "0a631a763a4ede735a861517c8c1387b", "lat": 38.978811, "fusion_lat": 0.0, "lon": -77.06026033333333, "is_disabled": 0, "fusion_lon": 0.0, "rental_uris": {"android": "https://dc.lft.to/lastmile_qr_scan", "ios": "https://dc.lft.to/lastmile_qr_scan"}, "type": "electric_bike"}, {"bike_id": "ae200e5a93393954b97ebd0c38f2f7d1", "is_reserved": 0, "name": "ae200e5a93393954b97ebd0c38f2f7d1", "lat": 38.904302333333334, "fusion_lat": 0.0, "lon": -77.03208533333333, "is_disabled": 0, "fusion_lon": 0.0, "rental_uris": {"android": "https://dc.lft.to/lastmile_qr_scan", "ios": "https://dc.lft.to/lastmile_qr_scan"}, "type": "electric_scooter"}, {"bike_id": "7d8468002081ef6b15c9597d68538b84", "is_reserved": 0, "name": "7d8468002081ef6b15c9597d68538b84", "lat": 38.87790016666667, "fusion_lat": 0.0, "lon": -76.9994145, "is_disabled": 0, "fusion_lon": 0.0, "rental_uris": {"android": "https://dc.lft.to/lastmile_qr_scan", "ios": "https://dc.lft.to/lastmile_qr_scan"}, "type": "electric_scooter"}, {"bike_id": "57eb487756fd17f90556140bcb62a632", "is_reserved": 0, "name": "57eb487756fd17f90556140bcb62a632", "lat": 38.939813666666666, "fusion_lat": 0.0, "lon": -77.028662, "is_disabled": 0, "fusion_lon": 0.0, "rental_uris": {"android": "https://dc.lft.to/lastmile_qr_scan", "ios": "https://dc.lft.to/lastmile_qr_scan"}, "type": "electric_scooter"}, {"bike_id": "24e93fed5871791cb5f920c42bb8d323", "is_reserved": 0, "name": "24e93fed5871791cb5f920c42bb8d323", "lat": 38.90201416666667, "fusion_lat": 0.0, "lon": -77.02216933333334, "is_disabled": 0, "fusion_lon": 0.0, "rental_uris": {"android": "https://dc.lft.to/lastmile_qr_scan", "ios": "https://dc.lft.to/lastmile_qr_scan"}, "type": "electric_scooter"}, {"bike_id": "b9b02bf4921a5fce03a09b30ef820e59", "is_reserved": 0, "name": "b9b02bf4921a5fce03a09b30ef820e59", "lat": 38.923442333333334, "fusion_lat": 0.0, "lon": -77.05169533333333, "is_disabled": 0, "fusion_lon": 0.0, "rental_uris": {"android": "https://dc.lft.to/lastmile_qr_scan", "ios": "https://dc.lft.to/lastmile_qr_scan"}, "type": "electric_scooter"}, {"bike_id": "6e63f17ce08ad794b07be25d7c4c42d3", "is_reserved": 0, "name": "6e63f17ce08ad794b07be25d7c4c42d3", "lat": 38.88728416666667, "fusion_lat": 0.0, "lon": -77.03179516666667, "is_disabled": 0, "fusion_lon": 0.0, "rental_uris": {"android": "https://dc.lft.to/lastmile_qr_scan", "ios": "https://dc.lft.to/lastmile_qr_scan"}, "type": "electric_scooter"}, {"bike_id": "0798bc5a84b7c972e161c7b3e3396357", "is_reserved": 0, "name": "0798bc5a84b7c972e161c7b3e3396357", "lat": 38.91807383333333, "fusion_lat": 0.0, "lon": -77.02494266666666, "is_disabled": 0, "fusion_lon": 0.0, "rental_uris": {"android": "https://dc.lft.to/lastmile_qr_scan", "ios": "https://dc.lft.to/lastmile_qr_scan"}, "type": "electric_scooter"}, {"bike_id": "b904bc2f1c684ef5e53cbb3ff871754f", "is_reserved": 0, "name": "b904bc2f1c684ef5e53cbb3ff871754f", "lat": 38.8877275, "fusion_lat": 0.0, "lon": -76.99160116666667, "is_disabled": 0, "fusion_lon": 0.0, "rental_uris": {"android": "https://dc.lft.to/lastmile_qr_scan", "ios": "https://dc.lft.to/lastmile_qr_scan"}, "type": "electric_scooter"}, {"bike_id": "d1b46b105b20b42201b7b5bb59428980", "is_reserved": 0, "name": "d1b46b105b20b42201b7b5bb59428980", "lat": 38.877633, "fusion_lat": 0.0, "lon": -77.010511, "is_disabled": 0, "fusion_lon": 0.0, "rental_uris": {"android": "https://dc.lft.to/lastmile_qr_scan", "ios": "https://dc.lft.to/lastmile_qr_scan"}, "type": "electric_bike"}, {"bike_id": "3ce88c6d70f43f6253371501870e58cb", "is_reserved": 0, "name": "3ce88c6d70f43f6253371501870e58cb", "lat": 38.918226833333335, "fusion_lat": 0.0, "lon": -77.02421883333334, "is_disabled": 0, "fusion_lon": 0.0, "rental_uris": {"android": "https://dc.lft.to/lastmile_qr_scan", "ios": "https://dc.lft.to/lastmile_qr_scan"}, "type": "electric_scooter"}, {"bike_id": "5a3f6c72be8a3e18e23d6b2db2509031", "is_reserved": 0, "name": "5a3f6c72be8a3e18e23d6b2db2509031", "lat": 38.92349183333333, "fusion_lat": 0.0, "lon": -77.00308966666667, "is_disabled": 0, "fusion_lon": 0.0, "rental_uris": {"android": "https://dc.lft.to/lastmile_qr_scan", "ios": "https://dc.lft.to/lastmile_qr_scan"}, "type": "electric_scooter"}, {"bike_id": "c1bbcc1bf71308b19f79400caaf4d354", "is_reserved": 0, "name": "c1bbcc1bf71308b19f79400caaf4d354", "lat": 38.90174733333333, "fusion_lat": 0.0, "lon": -77.050508, "is_disabled": 0, "fusion_lon": 0.0, "rental_uris": {"android": "https://dc.lft.to/lastmile_qr_scan", "ios": "https://dc.lft.to/lastmile_qr_scan"}, "type": "electric_scooter"}, {"bike_id": "e7be14abde9c0c3f6abe061e3f5f506f", "is_reserved": 0, "name": "e7be14abde9c0c3f6abe061e3f5f506f", "lat": 38.91716366666667, "fusion_lat": 0.0, "lon": -77.02858183333333, "is_disabled": 0, "fusion_lon": 0.0, "rental_uris": {"android": "https://dc.lft.to/lastmile_qr_scan", "ios": "https://dc.lft.to/lastmile_qr_scan"}, "type": "electric_scooter"}, {"bike_id": "4d6061e5046274efa966a86e46f64833", "is_reserved": 0, "name": "4d6061e5046274efa966a86e46f64833", "lat": 38.937119833333334, "fusion_lat": 0.0, "lon": -77.02453566666667, "is_disabled": 0, "fusion_lon": 0.0, "rental_uris": {"android": "https://dc.lft.to/lastmile_qr_scan", "ios": "https://dc.lft.to/lastmile_qr_scan"}, "type": "electric_scooter"}, {"bike_id": "506dd71485ae40b04cd0b0ba8d0ba7b4", "is_reserved": 0, "name": "506dd71485ae40b04cd0b0ba8d0ba7b4", "lat": 38.92305283333334, "fusion_lat": 0.0, "lon": -77.03046833333333, "is_disabled": 0, "fusion_lon": 0.0, "rental_uris": {"android": "https://dc.lft.to/lastmile_qr_scan", "ios": "https://dc.lft.to/lastmile_qr_scan"}, "type": "electric_scooter"}, {"bike_id": "b5f8f319eddc72127848353279d18453", "is_reserved": 0, "name": "b5f8f319eddc72127848353279d18453", "lat": 38.955973, "fusion_lat": 0.0, "lon": -77.01010666666667, "is_disabled": 0, "fusion_lon": 0.0, "rental_uris": {"android": "https://dc.lft.to/lastmile_qr_scan", "ios": "https://dc.lft.to/lastmile_qr_scan"}, "type": "electric_bike"}, {"bike_id": "ed6c5185b0130372f4f63eacfcdf94a6", "is_reserved": 0, "name": "ed6c5185b0130372f4f63eacfcdf94a6", "lat": 38.88498516666667, "fusion_lat": 0.0, "lon": -77.014739, "is_disabled": 0, "fusion_lon": 0.0, "rental_uris": {"android": "https://dc.lft.to/lastmile_qr_scan", "ios": "https://dc.lft.to/lastmile_qr_scan"}, "type": "electric_scooter"}, {"bike_id": "c19669624132c2f549771798dfface92", "is_reserved": 0, "name": "c19669624132c2f549771798dfface92", "lat": 38.9143045, "fusion_lat": 0.0, "lon": -77.02817116666667, "is_disabled": 0, "fusion_lon": 0.0, "rental_uris": {"android": "https://dc.lft.to/lastmile_qr_scan", "ios": "https://dc.lft.to/lastmile_qr_scan"}, "type": "electric_scooter"}, {"bike_id": "f1cb3b07ff3ebf68617e39211a81a86b", "is_reserved": 0, "name": "f1cb3b07ff3ebf68617e39211a81a86b", "lat": 38.925239, "fusion_lat": 0.0, "lon": -77.07703433333333, "is_disabled": 0, "fusion_lon": 0.0, "rental_uris": {"android": "https://dc.lft.to/lastmile_qr_scan", "ios": "https://dc.lft.to/lastmile_qr_scan"}, "type": "electric_scooter"}, {"bike_id": "82982a9836ed419ff8433b598a0f057c", "is_reserved": 0, "name": "82982a9836ed419ff8433b598a0f057c", "lat": 38.906973666666666, "fusion_lat": 0.0, "lon": -77.03592883333333, "is_disabled": 0, "fusion_lon": 0.0, "rental_uris": {"android": "https://dc.lft.to/lastmile_qr_scan", "ios": "https://dc.lft.to/lastmile_qr_scan"}, "type": "electric_scooter"}, {"bike_id": "270de772f5781fa0a501caafcc19f83f", "is_reserved": 0, "name": "270de772f5781fa0a501caafcc19f83f", "lat": 38.934680166666666, "fusion_lat": 0.0, "lon": -77.07212566666666, "is_disabled": 0, "fusion_lon": 0.0, "rental_uris": {"android": "https://dc.lft.to/lastmile_qr_scan", "ios": "https://dc.lft.to/lastmile_qr_scan"}, "type": "electric_scooter"}, {"bike_id": "fe71572dab5669dec4b1a359d6f1b759", "is_reserved": 0, "name": "fe71572dab5669dec4b1a359d6f1b759", "lat": 38.897227666666666, "fusion_lat": 0.0, "lon": -77.02080633333334, "is_disabled": 0, "fusion_lon": 0.0, "rental_uris": {"android": "https://dc.lft.to/lastmile_qr_scan", "ios": "https://dc.lft.to/lastmile_qr_scan"}, "type": "electric_scooter"}, {"bike_id": "4fa4755c30976c9df8cd06771dcd61a4", "is_reserved": 0, "name": "4fa4755c30976c9df8cd06771dcd61a4", "lat": 38.88823266666667, "fusion_lat": 0.0, "lon": -76.977224, "is_disabled": 0, "fusion_lon": 0.0, "rental_uris": {"android": "https://dc.lft.to/lastmile_qr_scan", "ios": "https://dc.lft.to/lastmile_qr_scan"}, "type": "electric_scooter"}, {"bike_id": "e30290f18a0fd9fc1670d33ab7ec4dd7", "is_reserved": 0, "name": "e30290f18a0fd9fc1670d33ab7ec4dd7", "lat": 38.94515833333333, "fusion_lat": 0.0, "lon": -77.00678783333333, "is_disabled": 0, "fusion_lon": 0.0, "rental_uris": {"android": "https://dc.lft.to/lastmile_qr_scan", "ios": "https://dc.lft.to/lastmile_qr_scan"}, "type": "electric_bike"}, {"bike_id": "6f6de6695bbd89a4ca6f11ec6a1665a9", "is_reserved": 0, "name": "6f6de6695bbd89a4ca6f11ec6a1665a9", "lat": 38.88822233333333, "fusion_lat": 0.0, "lon": -76.9772135, "is_disabled": 0, "fusion_lon": 0.0, "rental_uris": {"android": "https://dc.lft.to/lastmile_qr_scan", "ios": "https://dc.lft.to/lastmile_qr_scan"}, "type": "electric_scooter"}, {"bike_id": "74954f47eb74f78452023c1aa7e0c020", "is_reserved": 0, "name": "74954f47eb74f78452023c1aa7e0c020", "lat": 38.911498, "fusion_lat": 0.0, "lon": -77.08754116666667, "is_disabled": 0, "fusion_lon": 0.0, "rental_uris": {"android": "https://dc.lft.to/lastmile_qr_scan", "ios": "https://dc.lft.to/lastmile_qr_scan"}, "type": "electric_scooter"}, {"bike_id": "3b6da668d7b36f7f9aae4f8e96fb6f6a", "is_reserved": 0, "name": "3b6da668d7b36f7f9aae4f8e96fb6f6a", "lat": 38.907773166666665, "fusion_lat": 0.0, "lon": -77.07167133333333, "is_disabled": 0, "fusion_lon": 0.0, "rental_uris": {"android": "https://dc.lft.to/lastmile_qr_scan", "ios": "https://dc.lft.to/lastmile_qr_scan"}, "type": "electric_scooter"}, {"bike_id": "e83ddbda0716d0580c8fb1d47199450e", "is_reserved": 0, "name": "e83ddbda0716d0580c8fb1d47199450e", "lat": 38.898888666666664, "fusion_lat": 0.0, "lon": -76.99360966666667, "is_disabled": 0, "fusion_lon": 0.0, "rental_uris": {"android": "https://dc.lft.to/lastmile_qr_scan", "ios": "https://dc.lft.to/lastmile_qr_scan"}, "type": "electric_scooter"}, {"bike_id": "1331e1592d6cb76b344ab9c345128413", "is_reserved": 0, "name": "1331e1592d6cb76b344ab9c345128413", "lat": 38.895435666666664, "fusion_lat": 0.0, "lon": -76.9833975, "is_disabled": 0, "fusion_lon": 0.0, "rental_uris": {"android": "https://dc.lft.to/lastmile_qr_scan", "ios": "https://dc.lft.to/lastmile_qr_scan"}, "type": "electric_scooter"}, {"bike_id": "289d4b3aa32d3747b549e07f02b2b6e1", "is_reserved": 0, "name": "289d4b3aa32d3747b549e07f02b2b6e1", "lat": 38.9099065, "fusion_lat": 0.0, "lon": -77.0466835, "is_disabled": 0, "fusion_lon": 0.0, "rental_uris": {"android": "https://dc.lft.to/lastmile_qr_scan", "ios": "https://dc.lft.to/lastmile_qr_scan"}, "type": "electric_scooter"}, {"bike_id": "f6d59d14ea02aa96372e6b45e1f59c08", "is_reserved": 0, "name": "f6d59d14ea02aa96372e6b45e1f59c08", "lat": 38.9920805, "fusion_lat": 0.0, "lon": -77.03222316666667, "is_disabled": 0, "fusion_lon": 0.0, "rental_uris": {"android": "https://dc.lft.to/lastmile_qr_scan", "ios": "https://dc.lft.to/lastmile_qr_scan"}, "type": "electric_bike"}, {"bike_id": "42b1bebce3c58b7fb09bb537cdda943e", "is_reserved": 0, "name": "42b1bebce3c58b7fb09bb537cdda943e", "lat": 38.89960466666667, "fusion_lat": 0.0, "lon": -76.9262665, "is_disabled": 0, "fusion_lon": 0.0, "rental_uris": {"android": "https://dc.lft.to/lastmile_qr_scan", "ios": "https://dc.lft.to/lastmile_qr_scan"}, "type": "electric_scooter"}, {"bike_id": "b3aba057b9664ae577b7153abd36a748", "is_reserved": 0, "name": "b3aba057b9664ae577b7153abd36a748", "lat": 38.93845916666667, "fusion_lat": 0.0, "lon": -77.0723475, "is_disabled": 0, "fusion_lon": 0.0, "rental_uris": {"android": "https://dc.lft.to/lastmile_qr_scan", "ios": "https://dc.lft.to/lastmile_qr_scan"}, "type": "electric_scooter"}, {"bike_id": "7235544c5313ba1175f06f92f1e8638b", "is_reserved": 0, "name": "7235544c5313ba1175f06f92f1e8638b", "lat": 38.91823683333333, "fusion_lat": 0.0, "lon": -77.0321295, "is_disabled": 0, "fusion_lon": 0.0, "rental_uris": {"android": "https://dc.lft.to/lastmile_qr_scan", "ios": "https://dc.lft.to/lastmile_qr_scan"}, "type": "electric_scooter"}, {"bike_id": "863851643b8c72d76135409115458552", "is_reserved": 0, "name": "863851643b8c72d76135409115458552", "lat": 38.90224583333333, "fusion_lat": 0.0, "lon": -77.05330366666666, "is_disabled": 0, "fusion_lon": 0.0, "rental_uris": {"android": "https://dc.lft.to/lastmile_qr_scan", "ios": "https://dc.lft.to/lastmile_qr_scan"}, "type": "electric_scooter"}, {"bike_id": "b267c7d2843586458ffb486e03cfa841", "is_reserved": 0, "name": "b267c7d2843586458ffb486e03cfa841", "lat": 38.9025365, "fusion_lat": 0.0, "lon": -77.0179955, "is_disabled": 0, "fusion_lon": 0.0, "rental_uris": {"android": "https://dc.lft.to/lastmile_qr_scan", "ios": "https://dc.lft.to/lastmile_qr_scan"}, "type": "electric_scooter"}, {"bike_id": "615f212f6a31ee53d0f76ada9b817f6b", "is_reserved": 0, "name": "615f212f6a31ee53d0f76ada9b817f6b", "lat": 38.935423666666665, "fusion_lat": 0.0, "lon": -77.05744233333333, "is_disabled": 0, "fusion_lon": 0.0, "rental_uris": {"android": "https://dc.lft.to/lastmile_qr_scan", "ios": "https://dc.lft.to/lastmile_qr_scan"}, "type": "electric_scooter"}, {"bike_id": "e136ac8914d5bde4016c4651517ae3a4", "is_reserved": 0, "name": "e136ac8914d5bde4016c4651517ae3a4", "lat": 38.91692316666666, "fusion_lat": 0.0, "lon": -77.03382533333334, "is_disabled": 0, "fusion_lon": 0.0, "rental_uris": {"android": "https://dc.lft.to/lastmile_qr_scan", "ios": "https://dc.lft.to/lastmile_qr_scan"}, "type": "electric_scooter"}, {"bike_id": "3735479a4545c907cf12f429ab107397", "is_reserved": 0, "name": "3735479a4545c907cf12f429ab107397", "lat": 38.89292716666667, "fusion_lat": 0.0, "lon": -77.01223283333333, "is_disabled": 0, "fusion_lon": 0.0, "rental_uris": {"android": "https://dc.lft.to/lastmile_qr_scan", "ios": "https://dc.lft.to/lastmile_qr_scan"}, "type": "electric_scooter"}, {"bike_id": "8044d7155a9b13c3e42b8bd2863d364c", "is_reserved": 0, "name": "8044d7155a9b13c3e42b8bd2863d364c", "lat": 38.892869833333336, "fusion_lat": 0.0, "lon": -77.01229816666667, "is_disabled": 0, "fusion_lon": 0.0, "rental_uris": {"android": "https://dc.lft.to/lastmile_qr_scan", "ios": "https://dc.lft.to/lastmile_qr_scan"}, "type": "electric_scooter"}, {"bike_id": "1fe9c5ca7d7ca70a3369d4a4bae42ef4", "is_reserved": 0, "name": "1fe9c5ca7d7ca70a3369d4a4bae42ef4", "lat": 38.899844, "fusion_lat": 0.0, "lon": -77.022526, "is_disabled": 0, "fusion_lon": 0.0, "rental_uris": {"android": "https://dc.lft.to/lastmile_qr_scan", "ios": "https://dc.lft.to/lastmile_qr_scan"}, "type": "electric_scooter"}, {"bike_id": "dba296d40822fc40e6792319cc281efa", "is_reserved": 0, "name": "dba296d40822fc40e6792319cc281efa", "lat": 38.9215105, "fusion_lat": 0.0, "lon": -77.03869233333333, "is_disabled": 0, "fusion_lon": 0.0, "rental_uris": {"android": "https://dc.lft.to/lastmile_qr_scan", "ios": "https://dc.lft.to/lastmile_qr_scan"}, "type": "electric_scooter"}, {"bike_id": "88b2f7c2e1cadde77a7be462dd22f3e7", "is_reserved": 0, "name": "88b2f7c2e1cadde77a7be462dd22f3e7", "lat": 38.92413966666667, "fusion_lat": 0.0, "lon": -77.03547533333334, "is_disabled": 0, "fusion_lon": 0.0, "rental_uris": {"android": "https://dc.lft.to/lastmile_qr_scan", "ios": "https://dc.lft.to/lastmile_qr_scan"}, "type": "electric_scooter"}, {"bike_id": "e1aa60baaeaa649eb820562764328808", "is_reserved": 0, "name": "e1aa60baaeaa649eb820562764328808", "lat": 38.934286666666665, "fusion_lat": 0.0, "lon": -77.04001566666666, "is_disabled": 0, "fusion_lon": 0.0, "rental_uris": {"android": "https://dc.lft.to/lastmile_qr_scan", "ios": "https://dc.lft.to/lastmile_qr_scan"}, "type": "electric_scooter"}, {"bike_id": "744f8884593aad6b9017b826795fb80d", "is_reserved": 0, "name": "744f8884593aad6b9017b826795fb80d", "lat": 38.9168025, "fusion_lat": 0.0, "lon": -77.0384855, "is_disabled": 0, "fusion_lon": 0.0, "rental_uris": {"android": "https://dc.lft.to/lastmile_qr_scan", "ios": "https://dc.lft.to/lastmile_qr_scan"}, "type": "electric_scooter"}, {"bike_id": "f77886d2ab6aed407bbc393287ed16e4", "is_reserved": 0, "name": "f77886d2ab6aed407bbc393287ed16e4", "lat": 38.90412883333333, "fusion_lat": 0.0, "lon": -77.025862, "is_disabled": 0, "fusion_lon": 0.0, "rental_uris": {"android": "https://dc.lft.to/lastmile_qr_scan", "ios": "https://dc.lft.to/lastmile_qr_scan"}, "type": "electric_scooter"}, {"bike_id": "5b1fdea5334e5e3e1e72d58161cc6155", "is_reserved": 0, "name": "5b1fdea5334e5e3e1e72d58161cc6155", "lat": 38.89847866666667, "fusion_lat": 0.0, "lon": -77.0303995, "is_disabled": 0, "fusion_lon": 0.0, "rental_uris": {"android": "https://dc.lft.to/lastmile_qr_scan", "ios": "https://dc.lft.to/lastmile_qr_scan"}, "type": "electric_scooter"}, {"bike_id": "70a7f4db060022b97380b176a9fa0ffb", "is_reserved": 0, "name": "70a7f4db060022b97380b176a9fa0ffb", "lat": 38.87163483333333, "fusion_lat": 0.0, "lon": -77.00569133333333, "is_disabled": 0, "fusion_lon": 0.0, "rental_uris": {"android": "https://dc.lft.to/lastmile_qr_scan", "ios": "https://dc.lft.to/lastmile_qr_scan"}, "type": "electric_scooter"}, {"bike_id": "6d82f94c6f578580abc08e422d0427d7", "is_reserved": 0, "name": "6d82f94c6f578580abc08e422d0427d7", "lat": 38.899693, "fusion_lat": 0.0, "lon": -76.99487866666666, "is_disabled": 0, "fusion_lon": 0.0, "rental_uris": {"android": "https://dc.lft.to/lastmile_qr_scan", "ios": "https://dc.lft.to/lastmile_qr_scan"}, "type": "electric_scooter"}, {"bike_id": "945b9718df222300c063897454f46b95", "is_reserved": 0, "name": "945b9718df222300c063897454f46b95", "lat": 38.9179765, "fusion_lat": 0.0, "lon": -77.03444866666666, "is_disabled": 0, "fusion_lon": 0.0, "rental_uris": {"android": "https://dc.lft.to/lastmile_qr_scan", "ios": "https://dc.lft.to/lastmile_qr_scan"}, "type": "electric_scooter"}, {"bike_id": "9274cfbd02986316683dafde0e8682ea", "is_reserved": 0, "name": "9274cfbd02986316683dafde0e8682ea", "lat": 38.89800316666667, "fusion_lat": 0.0, "lon": -76.98459766666667, "is_disabled": 0, "fusion_lon": 0.0, "rental_uris": {"android": "https://dc.lft.to/lastmile_qr_scan", "ios": "https://dc.lft.to/lastmile_qr_scan"}, "type": "electric_scooter"}, {"bike_id": "cd9ad1b051bacb6bac56e857858dfef1", "is_reserved": 0, "name": "cd9ad1b051bacb6bac56e857858dfef1", "lat": 38.909213333333334, "fusion_lat": 0.0, "lon": -77.04210933333333, "is_disabled": 0, "fusion_lon": 0.0, "rental_uris": {"android": "https://dc.lft.to/lastmile_qr_scan", "ios": "https://dc.lft.to/lastmile_qr_scan"}, "type": "electric_scooter"}, {"bike_id": "da5241be1f08bfc554ac3d461e2a2393", "is_reserved": 0, "name": "da5241be1f08bfc554ac3d461e2a2393", "lat": 38.857350333333336, "fusion_lat": 0.0, "lon": -77.0980705, "is_disabled": 0, "fusion_lon": 0.0, "rental_uris": {"android": "https://dc.lft.to/lastmile_qr_scan", "ios": "https://dc.lft.to/lastmile_qr_scan"}, "type": "electric_bike"}, {"bike_id": "11020c9a4d01418cdca6355cfceeee8e", "is_reserved": 0, "name": "11020c9a4d01418cdca6355cfceeee8e", "lat": 38.86665433333334, "fusion_lat": 0.0, "lon": -76.98903566666667, "is_disabled": 0, "fusion_lon": 0.0, "rental_uris": {"android": "https://dc.lft.to/lastmile_qr_scan", "ios": "https://dc.lft.to/lastmile_qr_scan"}, "type": "electric_scooter"}, {"bike_id": "13c914b9cc001bd337b4432138396714", "is_reserved": 0, "name": "13c914b9cc001bd337b4432138396714", "lat": 38.9179445, "fusion_lat": 0.0, "lon": -77.03443933333334, "is_disabled": 0, "fusion_lon": 0.0, "rental_uris": {"android": "https://dc.lft.to/lastmile_qr_scan", "ios": "https://dc.lft.to/lastmile_qr_scan"}, "type": "electric_scooter"}, {"bike_id": "7ee21e45b3512dc4ad8c927579513346", "is_reserved": 0, "name": "7ee21e45b3512dc4ad8c927579513346", "lat": 38.91270633333333, "fusion_lat": 0.0, "lon": -77.01675483333334, "is_disabled": 0, "fusion_lon": 0.0, "rental_uris": {"android": "https://dc.lft.to/lastmile_qr_scan", "ios": "https://dc.lft.to/lastmile_qr_scan"}, "type": "electric_scooter"}, {"bike_id": "bc867f511551cdfeee1af37fd0b8786b", "is_reserved": 0, "name": "bc867f511551cdfeee1af37fd0b8786b", "lat": 38.91084383333333, "fusion_lat": 0.0, "lon": -77.02202116666666, "is_disabled": 0, "fusion_lon": 0.0, "rental_uris": {"android": "https://dc.lft.to/lastmile_qr_scan", "ios": "https://dc.lft.to/lastmile_qr_scan"}, "type": "electric_scooter"}, {"bike_id": "d93d8b0787c11061e10641a7615808e1", "is_reserved": 0, "name": "d93d8b0787c11061e10641a7615808e1", "lat": 38.906442166666665, "fusion_lat": 0.0, "lon": -77.005776, "is_disabled": 0, "fusion_lon": 0.0, "rental_uris": {"android": "https://dc.lft.to/lastmile_qr_scan", "ios": "https://dc.lft.to/lastmile_qr_scan"}, "type": "electric_scooter"}, {"bike_id": "355a74a17072ae16a49edf33f60d1b9b", "is_reserved": 0, "name": "355a74a17072ae16a49edf33f60d1b9b", "lat": 38.89964666666667, "fusion_lat": 0.0, "lon": -77.016113, "is_disabled": 0, "fusion_lon": 0.0, "rental_uris": {"android": "https://dc.lft.to/lastmile_qr_scan", "ios": "https://dc.lft.to/lastmile_qr_scan"}, "type": "electric_scooter"}, {"bike_id": "40a217a31c6283ccb08f7fe34242fdab", "is_reserved": 0, "name": "40a217a31c6283ccb08f7fe34242fdab", "lat": 38.92583066666667, "fusion_lat": 0.0, "lon": -77.03639516666667, "is_disabled": 0, "fusion_lon": 0.0, "rental_uris": {"android": "https://dc.lft.to/lastmile_qr_scan", "ios": "https://dc.lft.to/lastmile_qr_scan"}, "type": "electric_scooter"}, {"bike_id": "416a2665461b15a759da7fa37bac5214", "is_reserved": 0, "name": "416a2665461b15a759da7fa37bac5214", "lat": 38.887303333333335, "fusion_lat": 0.0, "lon": -77.0321255, "is_disabled": 0, "fusion_lon": 0.0, "rental_uris": {"android": "https://dc.lft.to/lastmile_qr_scan", "ios": "https://dc.lft.to/lastmile_qr_scan"}, "type": "electric_scooter"}, {"bike_id": "a92589e5556c1de39c0d864718462429", "is_reserved": 0, "name": "a92589e5556c1de39c0d864718462429", "lat": 38.83828916666667, "fusion_lat": 0.0, "lon": -76.99680083333334, "is_disabled": 0, "fusion_lon": 0.0, "rental_uris": {"android": "https://dc.lft.to/lastmile_qr_scan", "ios": "https://dc.lft.to/lastmile_qr_scan"}, "type": "electric_bike"}, {"bike_id": "7b006e97995e7fea82e64d8db5a9f098", "is_reserved": 0, "name": "7b006e97995e7fea82e64d8db5a9f098", "lat": 38.88728566666666, "fusion_lat": 0.0, "lon": -77.0176745, "is_disabled": 0, "fusion_lon": 0.0, "rental_uris": {"android": "https://dc.lft.to/lastmile_qr_scan", "ios": "https://dc.lft.to/lastmile_qr_scan"}, "type": "electric_scooter"}, {"bike_id": "b693e405189073531fff8a96954d8646", "is_reserved": 0, "name": "b693e405189073531fff8a96954d8646", "lat": 38.91417583333333, "fusion_lat": 0.0, "lon": -77.01070716666666, "is_disabled": 0, "fusion_lon": 0.0, "rental_uris": {"android": "https://dc.lft.to/lastmile_qr_scan", "ios": "https://dc.lft.to/lastmile_qr_scan"}, "type": "electric_scooter"}, {"bike_id": "a241284bdd838331137a1edc0c17146b", "is_reserved": 0, "name": "a241284bdd838331137a1edc0c17146b", "lat": 38.916854, "fusion_lat": 0.0, "lon": -77.02295883333333, "is_disabled": 0, "fusion_lon": 0.0, "rental_uris": {"android": "https://dc.lft.to/lastmile_qr_scan", "ios": "https://dc.lft.to/lastmile_qr_scan"}, "type": "electric_scooter"}, {"bike_id": "013f7f178e90302ff8eea1520a31e279", "is_reserved": 0, "name": "013f7f178e90302ff8eea1520a31e279", "lat": 38.92416433333333, "fusion_lat": 0.0, "lon": -77.0212955, "is_disabled": 0, "fusion_lon": 0.0, "rental_uris": {"android": "https://dc.lft.to/lastmile_qr_scan", "ios": "https://dc.lft.to/lastmile_qr_scan"}, "type": "electric_scooter"}, {"bike_id": "18345dd9753a2200aed8c23a33b938ca", "is_reserved": 0, "name": "18345dd9753a2200aed8c23a33b938ca", "lat": 38.9095875, "fusion_lat": 0.0, "lon": -77.03947716666667, "is_disabled": 0, "fusion_lon": 0.0, "rental_uris": {"android": "https://dc.lft.to/lastmile_qr_scan", "ios": "https://dc.lft.to/lastmile_qr_scan"}, "type": "electric_scooter"}, {"bike_id": "ea116818cedb1834c4f35b653269c037", "is_reserved": 0, "name": "ea116818cedb1834c4f35b653269c037", "lat": 38.919939666666664, "fusion_lat": 0.0, "lon": -77.0327865, "is_disabled": 0, "fusion_lon": 0.0, "rental_uris": {"android": "https://dc.lft.to/lastmile_qr_scan", "ios": "https://dc.lft.to/lastmile_qr_scan"}, "type": "electric_scooter"}, {"bike_id": "5cfdff0cdc2119f872bf0943022d52a4", "is_reserved": 0, "name": "5cfdff0cdc2119f872bf0943022d52a4", "lat": 38.92036816666667, "fusion_lat": 0.0, "lon": -77.0258565, "is_disabled": 0, "fusion_lon": 0.0, "rental_uris": {"android": "https://dc.lft.to/lastmile_qr_scan", "ios": "https://dc.lft.to/lastmile_qr_scan"}, "type": "electric_scooter"}, {"bike_id": "605aaf5ec63eb7726d4c517f080fb2f4", "is_reserved": 0, "name": "605aaf5ec63eb7726d4c517f080fb2f4", "lat": 38.90084066666667, "fusion_lat": 0.0, "lon": -77.04911083333333, "is_disabled": 0, "fusion_lon": 0.0, "rental_uris": {"android": "https://dc.lft.to/lastmile_qr_scan", "ios": "https://dc.lft.to/lastmile_qr_scan"}, "type": "electric_scooter"}, {"bike_id": "1e6806ffca2fbdeb18cb90659307c57d", "is_reserved": 0, "name": "1e6806ffca2fbdeb18cb90659307c57d", "lat": 38.901983666666666, "fusion_lat": 0.0, "lon": -77.0237835, "is_disabled": 0, "fusion_lon": 0.0, "rental_uris": {"android": "https://dc.lft.to/lastmile_qr_scan", "ios": "https://dc.lft.to/lastmile_qr_scan"}, "type": "electric_scooter"}, {"bike_id": "90ad5fdb06e86ee1ae16db9968a66eb1", "is_reserved": 0, "name": "90ad5fdb06e86ee1ae16db9968a66eb1", "lat": 38.919663166666666, "fusion_lat": 0.0, "lon": -77.0239, "is_disabled": 0, "fusion_lon": 0.0, "rental_uris": {"android": "https://dc.lft.to/lastmile_qr_scan", "ios": "https://dc.lft.to/lastmile_qr_scan"}, "type": "electric_scooter"}, {"bike_id": "11876995bca522a0681af1fd837e4462", "is_reserved": 0, "name": "11876995bca522a0681af1fd837e4462", "lat": 38.922567, "fusion_lat": 0.0, "lon": -77.02105916666666, "is_disabled": 0, "fusion_lon": 0.0, "rental_uris": {"android": "https://dc.lft.to/lastmile_qr_scan", "ios": "https://dc.lft.to/lastmile_qr_scan"}, "type": "electric_scooter"}, {"bike_id": "1b9a8b07f9ce7eae764ac9ce261f25f8", "is_reserved": 0, "name": "1b9a8b07f9ce7eae764ac9ce261f25f8", "lat": 38.8922275, "fusion_lat": 0.0, "lon": -77.0450855, "is_disabled": 0, "fusion_lon": 0.0, "rental_uris": {"android": "https://dc.lft.to/lastmile_qr_scan", "ios": "https://dc.lft.to/lastmile_qr_scan"}, "type": "electric_scooter"}, {"bike_id": "bfb0c6d5011c991f990070a0c54bf219", "is_reserved": 0, "name": "bfb0c6d5011c991f990070a0c54bf219", "lat": 38.916964166666666, "fusion_lat": 0.0, "lon": -77.02437016666667, "is_disabled": 0, "fusion_lon": 0.0, "rental_uris": {"android": "https://dc.lft.to/lastmile_qr_scan", "ios": "https://dc.lft.to/lastmile_qr_scan"}, "type": "electric_scooter"}, {"bike_id": "472808a49278272d1a2fad5a90093068", "is_reserved": 0, "name": "472808a49278272d1a2fad5a90093068", "lat": 38.882021333333334, "fusion_lat": 0.0, "lon": -77.00365633333334, "is_disabled": 0, "fusion_lon": 0.0, "rental_uris": {"android": "https://dc.lft.to/lastmile_qr_scan", "ios": "https://dc.lft.to/lastmile_qr_scan"}, "type": "electric_scooter"}, {"bike_id": "3ed4f4ca3f830bbf26d61d36324f527a", "is_reserved": 0, "name": "3ed4f4ca3f830bbf26d61d36324f527a", "lat": 39.010771166666665, "fusion_lat": 0.0, "lon": -76.91067283333334, "is_disabled": 0, "fusion_lon": 0.0, "rental_uris": {"android": "https://dc.lft.to/lastmile_qr_scan", "ios": "https://dc.lft.to/lastmile_qr_scan"}, "type": "electric_bike"}, {"bike_id": "fab851db0fe9eb08a75360d5c16bc6ba", "is_reserved": 0, "name": "fab851db0fe9eb08a75360d5c16bc6ba", "lat": 38.93082016666666, "fusion_lat": 0.0, "lon": -77.03422416666666, "is_disabled": 0, "fusion_lon": 0.0, "rental_uris": {"android": "https://dc.lft.to/lastmile_qr_scan", "ios": "https://dc.lft.to/lastmile_qr_scan"}, "type": "electric_scooter"}, {"bike_id": "a37edaa1056028c4790e17218663bc56", "is_reserved": 0, "name": "a37edaa1056028c4790e17218663bc56", "lat": 38.92319616666666, "fusion_lat": 0.0, "lon": -77.04039016666667, "is_disabled": 0, "fusion_lon": 0.0, "rental_uris": {"android": "https://dc.lft.to/lastmile_qr_scan", "ios": "https://dc.lft.to/lastmile_qr_scan"}, "type": "electric_scooter"}, {"bike_id": "d21d69f528074ce0dabc0b5bcb7e65c9", "is_reserved": 0, "name": "d21d69f528074ce0dabc0b5bcb7e65c9", "lat": 38.932789, "fusion_lat": 0.0, "lon": -77.0286855, "is_disabled": 0, "fusion_lon": 0.0, "rental_uris": {"android": "https://dc.lft.to/lastmile_qr_scan", "ios": "https://dc.lft.to/lastmile_qr_scan"}, "type": "electric_scooter"},