{"data": {"bikes": [{"bike_id": "687b763082860617344098ba6f89ccc6", "is_reserved": 0, "fusion_lon": 0.0, "lat": 38.92166616666667, "is_disabled": 0, "name": "687b763082860617344098ba6f89ccc6", "fusion_lat": 0.0, "rental_uris": {"ios": "https://dc.lft.to/lastmile_qr_scan", "android": "https://dc.lft.to/lastmile_qr_scan"}, "lon": -77.04219466666666, "type": "electric_scooter"}, {"bike_id": "3d27eba33689200600e4f79a9efaafe1", "is_reserved": 0, "fusion_lon": 0.0, "lat": 38.90170366666667, "is_disabled": 0, "name": "3d27eba33689200600e4f79a9efaafe1", "fusion_lat": 0.0, "rental_uris": {"ios": "https://dc.lft.to/lastmile_qr_scan", "android": "https://dc.lft.to/lastmile_qr_scan"}, "lon": -76.98073816666667, "type": "electric_scooter"}, {"bike_id": "517d87fd0b584b074564f0b23ec51136", "is_reserved": 0, "fusion_lon": 0.0, "lat": 38.96388833333334, "is_disabled": 0, "name": "517d87fd0b584b074564f0b23ec51136", "fusion_lat": 0.0, "rental_uris": {"ios": "https://dc.lft.to/lastmile_qr_scan", "android": "https://dc.lft.to/lastmile_qr_scan"}, "lon": -77.0349725, "type": "electric_scooter"}, {"bike_id": "216022543f1ec8e4ea5ac52009d9296a", "is_reserved": 0, "fusion_lon": 0.0, "lat": 38.923301, "is_disabled": 0, "name": "216022543f1ec8e4ea5ac52009d9296a", "fusion_lat": 0.0, "rental_uris": {"ios": "https://dc.lft.to/lastmile_qr_scan", "android": "https://dc.lft.to/lastmile_qr_scan"}, "lon": -77.03770533333334, "type": "electric_scooter"}, {"bike_id": "bac9535b69691824aa74cec30db5f9a0", "is_reserved": 0, "fusion_lon": 0.0, "lat": 38.91876933333333, "is_disabled": 0, "name": "bac9535b69691824aa74cec30db5f9a0", "fusion_lat": 0.0, "rental_uris": {"ios": "https://dc.lft.to/lastmile_qr_scan", "android": "https://dc.lft.to/lastmile_qr_scan"}, "lon": -77.02959966666667, "type": "electric_scooter"}, {"bike_id": "2039e45905dd6ffb99d3e4b9d7e76bc9", "is_reserved": 0, "fusion_lon": 0.0, "lat": 38.91889966666667, "is_disabled": 0, "name": "2039e45905dd6ffb99d3e4b9d7e76bc9", "fusion_lat": 0.0, "rental_uris": {"ios": "https://dc.lft.to/lastmile_qr_scan", "android": "https://dc.lft.to/lastmile_qr_scan"}, "lon": -77.03903833333334, "type": "electric_scooter"}, {"bike_id": "4d3d92ea400bc03692c83f28ee3d080c", "is_reserved": 0, "fusion_lon": 0.0, "lat": 38.90385216666667, "is_disabled": 0, "name": "4d3d92ea400bc03692c83f28ee3d080c", "fusion_lat": 0.0, "rental_uris": {"ios": "https://dc.lft.to/lastmile_qr_scan", "android": "https://dc.lft.to/lastmile_qr_scan"}, "lon": -77.04453083333334, "type": "electric_scooter"}, {"bike_id": "9d0d370993d5d1b67108df6ff8a95588", "is_reserved": 0, "fusion_lon": 0.0, "lat": 38.89877233333333, "is_disabled": 0, "name": "9d0d370993d5d1b67108df6ff8a95588", "fusion_lat": 0.0, "rental_uris": {"ios": "https://dc.lft.to/lastmile_qr_scan", "android": "https://dc.lft.to/lastmile_qr_scan"}, "lon": -77.039507, "type": "electric_scooter"}, {"bike_id": "bcd9419c8a910ba801d9524c0fa04940", "is_reserved": 0, "fusion_lon": 0.0, "lat": 38.89615, "is_disabled": 0, "name": "bcd9419c8a910ba801d9524c0fa04940", "fusion_lat": 0.0, "rental_uris": {"ios": "https://dc.lft.to/lastmile_qr_scan", "android": "https://dc.lft.to/lastmile_qr_scan"}, "lon": -76.9558085, "type": "electric_scooter"}, {"bike_id": "c21e7b68d562dc3b0afd642336f819b1", "is_reserved": 0, "fusion_lon": 0.0, "lat": 38.94971, "is_disabled": 0, "name": "c21e7b68d562dc3b0afd642336f819b1", "fusion_lat": 0.0, "rental_uris": {"ios": "https://dc.lft.to/lastmile_qr_scan", "android": "https://dc.lft.to/lastmile_qr_scan"}, "lon": -77.07888333333334, "type": "electric_scooter"}, {"bike_id": "2abc8b30f0ae4df8d94de31669c6b750", "is_reserved": 0, "fusion_lon": 0.0, "lat": 38.91770566666667, "is_disabled": 0, "name": "2abc8b30f0ae4df8d94de31669c6b750", "fusion_lat": 0.0, "rental_uris": {"ios": "https://dc.lft.to/lastmile_qr_scan", "android": "https://dc.lft.to/lastmile_qr_scan"}, "lon": -77.04059883333333, "type": "electric_scooter"}, {"bike_id": "53211a3e5da60ed6124164487cfd4b04", "is_reserved": 0, "fusion_lon": 0.0, "lat": 38.91478733333334, "is_disabled": 0, "name": "53211a3e5da60ed6124164487cfd4b04", "fusion_lat": 0.0, "rental_uris": {"ios": "https://dc.lft.to/lastmile_qr_scan", "android": "https://dc.lft.to/lastmile_qr_scan"}, "lon": -77.02184516666667, "type": "electric_scooter"}, {"bike_id": "8b317a8d783a20025a9942c859facda0", "is_reserved": 0, "fusion_lon": 0.0, "lat": 38.91705783333333, "is_disabled": 0, "name": "8b317a8d783a20025a9942c859facda0", "fusion_lat": 0.0, "rental_uris": {"ios": "https://dc.lft.to/lastmile_qr_scan", "android": "https://dc.lft.to/lastmile_qr_scan"}, "lon": -77.03108766666666, "type": "electric_scooter"}, {"bike_id": "c7521aa805603df408ad0e23eb135ef9", "is_reserved": 0, "fusion_lon": 0.0, "lat": 38.904245, "is_disabled": 0, "name": "c7521aa805603df408ad0e23eb135ef9", "fusion_lat": 0.0, "rental_uris": {"ios": "https://dc.lft.to/lastmile_qr_scan", "android": "https://dc.lft.to/lastmile_qr_scan"}, "lon": -77.02867683333334, "type": "electric_scooter"}, {"bike_id": "0b12b9530c9780f978fefd9e873aadfc", "is_reserved": 0, "fusion_lon": 0.0, "lat": 38.916889166666664, "is_disabled": 0, "name": "0b12b9530c9780f978fefd9e873aadfc", "fusion_lat": 0.0, "rental_uris": {"ios": "https://dc.lft.to/lastmile_qr_scan", "android": "https://dc.lft.to/lastmile_qr_scan"}, "lon": -77.02904833333334, "type": "electric_scooter"}, {"bike_id": "f0179e1da72363ecb1e437fdb2e4af51", "is_reserved": 0, "fusion_lon": 0.0, "lat": 38.91598, "is_disabled": 0, "name": "f0179e1da72363ecb1e437fdb2e4af51", "fusion_lat": 0.0, "rental_uris": {"ios": "https://dc.lft.to/lastmile_qr_scan", "android": "https://dc.lft.to/lastmile_qr_scan"}, "lon": -76.98376, "type": "electric_scooter"}, {"bike_id": "587bab38aec0ef92fc638abb29c21d7d", "is_reserved": 0, "fusion_lon": 0.0, "lat": 38.901309166666664, "is_disabled": 0, "name": "587bab38aec0ef92fc638abb29c21d7d", "fusion_lat": 0.0, "rental_uris": {"ios": "https://dc.lft.to/lastmile_qr_scan", "android": "https://dc.lft.to/lastmile_qr_scan"}, "lon": -77.016064, "type": "electric_scooter"}, {"bike_id": "df6063e8c7c025bec62a5e0c7d3caab2", "is_reserved": 0, "fusion_lon": 0.0, "lat": 38.9128245, "is_disabled": 0, "name": "df6063e8c7c025bec62a5e0c7d3caab2", "fusion_lat": 0.0, "rental_uris": {"ios": "https://dc.lft.to/lastmile_qr_scan", "android": "https://dc.lft.to/lastmile_qr_scan"}, "lon": -77.03858416666667, "type": "electric_scooter"}, {"bike_id": "a851a4b087ced11973fecb5ea6bc0e3d", "is_reserved": 0, "fusion_lon": 0.0, "lat": 38.902750833333336, "is_disabled": 0, "name": "a851a4b087ced11973fecb5ea6bc0e3d", "fusion_lat": 0.0, "rental_uris": {"ios": "https://dc.lft.to/lastmile_qr_scan", "android": "https://dc.lft.to/lastmile_qr_scan"}, "lon": -77.039446, "type": "electric_scooter"}, {"bike_id": "c01ad98cc8af70d09d3089c2530c649b", "is_reserved": 0, "fusion_lon": 0.0, "lat": 38.89783333333333, "is_disabled": 0, "name": "c01ad98cc8af70d09d3089c2530c649b", "fusion_lat": 0.0, "rental_uris": {"ios": "https://dc.lft.to/lastmile_qr_scan", "android": "https://dc.lft.to/lastmile_qr_scan"}, "lon": -77.02962766666667, "type": "electric_scooter"}, {"bike_id": "6e0612f6cd59877c719231ab0532fd8e", "is_reserved": 0, "fusion_lon": 0.0, "lat": 38.8553475, "is_disabled": 0, "name": "6e0612f6cd59877c719231ab0532fd8e", "fusion_lat": 0.0, "rental_uris": {"ios": "https://dc.lft.to/lastmile_qr_scan", "android": "https://dc.lft.to/lastmile_qr_scan"}, "lon": -77.113272, "type": "electric_bike"}, {"bike_id": "94a461ed4935882ae81683107601c143", "is_reserved": 0, "fusion_lon": 0.0, "lat": 38.936908333333335, "is_disabled": 0, "name": "94a461ed4935882ae81683107601c143", "fusion_lat": 0.0, "rental_uris": {"ios": "https://dc.lft.to/lastmile_qr_scan", "android": "https://dc.lft.to/lastmile_qr_scan"}, "lon": -77.06023516666667, "type": "electric_scooter"}, {"bike_id": "a50618fcc771851dc15218fe59537a8e", "is_reserved": 0, "fusion_lon": 0.0, "lat": 38.89662666666667, "is_disabled": 0, "name": "a50618fcc771851dc15218fe59537a8e", "fusion_lat": 0.0, "rental_uris": {"ios": "https://dc.lft.to/lastmile_qr_scan", "android": "https://dc.lft.to/lastmile_qr_scan"}, "lon": -77.029517, "type": "electric_scooter"}, {"bike_id": "75c5944106478fca6dda36c43898c6bf", "is_reserved": 0, "fusion_lon": 0.0, "lat": 38.883267000000004, "is_disabled": 0, "name": "75c5944106478fca6dda36c43898c6bf", "fusion_lat": 0.0, "rental_uris": {"ios": "https://dc.lft.to/lastmile_qr_scan", "android": "https://dc.lft.to/lastmile_qr_scan"}, "lon": -77.01757366666666, "type": "electric_scooter"}, {"bike_id": "98440cc35f9413fd0fa2b74a54149f2d", "is_reserved": 0, "fusion_lon": 0.0, "lat": 38.92564633333333, "is_disabled": 0, "name": "98440cc35f9413fd0fa2b74a54149f2d", "fusion_lat": 0.0, "rental_uris": {"ios": "https://dc.lft.to/lastmile_qr_scan", "android": "https://dc.lft.to/lastmile_qr_scan"}, "lon": -77.03896833333333, "type": "electric_scooter"}, {"bike_id": "77f8576cb02013ce5f086ba46934a97a", "is_reserved": 0, "fusion_lon": 0.0, "lat": 38.9257555, "is_disabled": 0, "name": "77f8576cb02013ce5f086ba46934a97a", "fusion_lat": 0.0, "rental_uris": {"ios": "https://dc.lft.to/lastmile_qr_scan", "android": "https://dc.lft.to/lastmile_qr_scan"}, "lon": -77.03919316666666, "type": "electric_scooter"}, {"bike_id": "ca910272482a77512bff1d5344ab9385", "is_reserved": 0, "fusion_lon": 0.0, "lat": 38.88430666666667, "is_disabled": 0, "name": "ca910272482a77512bff1d5344ab9385", "fusion_lat": 0.0, "rental_uris": {"ios": "https://dc.lft.to/lastmile_qr_scan", "android": "https://dc.lft.to/lastmile_qr_scan"}, "lon": -76.95760166666666, "type": "electric_scooter"}, {"bike_id": "efd8f343e18bf2cd070279ed5f72f53b", "is_reserved": 0, "fusion_lon": 0.0, "lat": 38.9097545, "is_disabled": 0, "name": "efd8f343e18bf2cd070279ed5f72f53b", "fusion_lat": 0.0, "rental_uris": {"ios": "https://dc.lft.to/lastmile_qr_scan", "android": "https://dc.lft.to/lastmile_qr_scan"}, "lon": -77.04870966666667, "type": "electric_scooter"}, {"bike_id": "4d6e51847883742f9f8514d993df5d63", "is_reserved": 0, "fusion_lon": 0.0, "lat": 38.931509, "is_disabled": 0, "name": "4d6e51847883742f9f8514d993df5d63", "fusion_lat": 0.0, "rental_uris": {"ios": "https://dc.lft.to/lastmile_qr_scan", "android": "https://dc.lft.to/lastmile_qr_scan"}, "lon": -77.057036, "type": "electric_scooter"}, {"bike_id": "82332705203a438482a250402e8e7d6a", "is_reserved": 0, "fusion_lon": 0.0, "lat": 38.91034033333333, "is_disabled": 0, "name": "82332705203a438482a250402e8e7d6a", "fusion_lat": 0.0, "rental_uris": {"ios": "https://dc.lft.to/lastmile_qr_scan", "android": "https://dc.lft.to/lastmile_qr_scan"}, "lon": -77.04392166666666, "type": "electric_scooter"}, {"bike_id": "e91645cfde3fedea725f8aaa61df170c", "is_reserved": 0, "fusion_lon": 0.0, "lat": 38.91773366666666, "is_disabled": 0, "name": "e91645cfde3fedea725f8aaa61df170c", "fusion_lat": 0.0, "rental_uris": {"ios": "https://dc.lft.to/lastmile_qr_scan", "android": "https://dc.lft.to/lastmile_qr_scan"}, "lon": -77.01501366666666, "type": "electric_scooter"}, {"bike_id": "91d0d27a877b31a4a87ca62e430785e1", "is_reserved": 0, "fusion_lon": 0.0, "lat": 38.912143666666665, "is_disabled": 0, "name": "91d0d27a877b31a4a87ca62e430785e1", "fusion_lat": 0.0, "rental_uris": {"ios": "https://dc.lft.to/lastmile_qr_scan", "android": "https://dc.lft.to/lastmile_qr_scan"}, "lon": -77.02800216666667, "type": "electric_scooter"}, {"bike_id": "3343572b8e4af0413d064a6da5c1d07a", "is_reserved": 0, "fusion_lon": 0.0, "lat": 38.86659983333333, "is_disabled": 0, "name": "3343572b8e4af0413d064a6da5c1d07a", "fusion_lat": 0.0, "rental_uris": {"ios": "https://dc.lft.to/lastmile_qr_scan", "android": "https://dc.lft.to/lastmile_qr_scan"}, "lon": -76.98905883333333, "type": "electric_scooter"}, {"bike_id": "68213b56d0bd46294a79fdb5dda2aaea", "is_reserved": 0, "fusion_lon": 0.0, "lat": 38.9187845, "is_disabled": 0, "name": "68213b56d0bd46294a79fdb5dda2aaea", "fusion_lat": 0.0, "rental_uris": {"ios": "https://dc.lft.to/lastmile_qr_scan", "android": "https://dc.lft.to/lastmile_qr_scan"}, "lon": -77.04455566666667, "type": "electric_scooter"}, {"bike_id": "f675fc903ed6140f4404ad8ef7d1dee5", "is_reserved": 0, "fusion_lon": 0.0, "lat": 38.931121, "is_disabled": 0, "name": "f675fc903ed6140f4404ad8ef7d1dee5", "fusion_lat": 0.0, "rental_uris": {"ios": "https://dc.lft.to/lastmile_qr_scan", "android": "https://dc.lft.to/lastmile_qr_scan"}, "lon": -77.0214145, "type": "electric_scooter"}, {"bike_id": "3c9a1bd37b248128b94a8770948bf330", "is_reserved": 0, "fusion_lon": 0.0, "lat": 38.898954333333336, "is_disabled": 0, "name": "3c9a1bd37b248128b94a8770948bf330", "fusion_lat": 0.0, "rental_uris": {"ios": "https://dc.lft.to/lastmile_qr_scan", "android": "https://dc.lft.to/lastmile_qr_scan"}, "lon": -77.03936016666667, "type": "electric_scooter"}, {"bike_id": "b298e0f2c6db5216eb788cf49a19d4f6", "is_reserved": 0, "fusion_lon": 0.0, "lat": 38.96493233333333, "is_disabled": 0, "name": "b298e0f2c6db5216eb788cf49a19d4f6", "fusion_lat": 0.0, "rental_uris": {"ios": "https://dc.lft.to/lastmile_qr_scan", "android": "https://dc.lft.to/lastmile_qr_scan"}, "lon": -77.06495416666667, "type": "electric_bike"}, {"bike_id": "84f231bb4676e625fc82c6e46bc83da3", "is_reserved": 0, "fusion_lon": 0.0, "lat": 38.923156666666664, "is_disabled": 0, "name": "84f231bb4676e625fc82c6e46bc83da3", "fusion_lat": 0.0, "rental_uris": {"ios": "https://dc.lft.to/lastmile_qr_scan", "android": "https://dc.lft.to/lastmile_qr_scan"}, "lon": -77.036584, "type": "electric_scooter"}, {"bike_id": "5b99cfab815815461b3fb005552d46c0", "is_reserved": 0, "fusion_lon": 0.0, "lat": 38.890602333333334, "is_disabled": 0, "name": "5b99cfab815815461b3fb005552d46c0", "fusion_lat": 0.0, "rental_uris": {"ios": "https://dc.lft.to/lastmile_qr_scan", "android": "https://dc.lft.to/lastmile_qr_scan"}, "lon": -77.02302933333333, "type": "electric_scooter"}, {"bike_id": "f98b47fb0566ee87a12658835ec978e3", "is_reserved": 0, "fusion_lon": 0.0, "lat": 38.884901666666664, "is_disabled": 0, "name": "f98b47fb0566ee87a12658835ec978e3", "fusion_lat": 0.0, "rental_uris": {"ios": "https://dc.lft.to/lastmile_qr_scan", "android": "https://dc.lft.to/lastmile_qr_scan"}, "lon": -77.03476783333333, "type": "electric_scooter"}, {"bike_id": "f3a267b9bd9ea008cdf94849f3b3c963", "is_reserved": 0, "fusion_lon": 0.0, "lat": 38.9003765, "is_disabled": 0, "name": "f3a267b9bd9ea008cdf94849f3b3c963", "fusion_lat": 0.0, "rental_uris": {"ios": "https://dc.lft.to/lastmile_qr_scan", "android": "https://dc.lft.to/lastmile_qr_scan"}, "lon": -77.0053735, "type": "electric_scooter"}, {"bike_id": "c908cfcaa97f1c436dfc96dcd1a9c0eb", "is_reserved": 0, "fusion_lon": 0.0, "lat": 38.926375, "is_disabled": 0, "name": "c908cfcaa97f1c436dfc96dcd1a9c0eb", "fusion_lat": 0.0, "rental_uris": {"ios": "https://dc.lft.to/lastmile_qr_scan", "android": "https://dc.lft.to/lastmile_qr_scan"}, "lon": -77.03790933333333, "type": "electric_scooter"}, {"bike_id": "1dee57e98abb92b72f91f863cdbade93", "is_reserved": 0, "fusion_lon": 0.0, "lat": 38.925849166666666, "is_disabled": 0, "name": "1dee57e98abb92b72f91f863cdbade93", "fusion_lat": 0.0, "rental_uris": {"ios": "https://dc.lft.to/lastmile_qr_scan", "android": "https://dc.lft.to/lastmile_qr_scan"}, "lon": -77.00471583333334, "type": "electric_scooter"}, {"bike_id": "27dd1548d94aa35801fb9f098c1784f7", "is_reserved": 0, "fusion_lon": 0.0, "lat": 38.89340416666667, "is_disabled": 0, "name": "27dd1548d94aa35801fb9f098c1784f7", "fusion_lat": 0.0, "rental_uris": {"ios": "https://dc.lft.to/lastmile_qr_scan", "android": "https://dc.lft.to/lastmile_qr_scan"}, "lon": -76.984513, "type": "electric_scooter"}, {"bike_id": "c4c2528b5cba413affc3e97edbd3a0ce", "is_reserved": 0, "fusion_lon": 0.0, "lat": 38.93584083333333, "is_disabled": 0, "name": "c4c2528b5cba413affc3e97edbd3a0ce", "fusion_lat": 0.0, "rental_uris": {"ios": "https://dc.lft.to/lastmile_qr_scan", "android": "https://dc.lft.to/lastmile_qr_scan"}, "lon": -77.02765383333333, "type": "electric_scooter"}, {"bike_id": "fc47e117644e00a758dbf69925f147c3", "is_reserved": 0, "fusion_lon": 0.0, "lat": 38.885109, "is_disabled": 0, "name": "fc47e117644e00a758dbf69925f147c3", "fusion_lat": 0.0, "rental_uris": {"ios": "https://dc.lft.to/lastmile_qr_scan", "android": "https://dc.lft.to/lastmile_qr_scan"}, "lon": -77.0155805, "type": "electric_scooter"}, {"bike_id": "b880630c39ba046ca7eac748df2c97db", "is_reserved": 0, "fusion_lon": 0.0, "lat": 38.91334333333333, "is_disabled": 0, "name": "b880630c39ba046ca7eac748df2c97db", "fusion_lat": 0.0, "rental_uris": {"ios": "https://dc.lft.to/lastmile_qr_scan", "android": "https://dc.lft.to/lastmile_qr_scan"}, "lon": -77.04873283333333, "type": "electric_scooter"}, {"bike_id": "f8c669625b7ed8702fd01a8a96232950", "is_reserved": 0, "fusion_lon": 0.0, "lat": 38.917097166666665, "is_disabled": 0, "name": "f8c669625b7ed8702fd01a8a96232950", "fusion_lat": 0.0, "rental_uris": {"ios": "https://dc.lft.to/lastmile_qr_scan", "android": "https://dc.lft.to/lastmile_qr_scan"}, "lon": -77.03453633333334, "type": "electric_scooter"}, {"bike_id": "506d73c47e7d3ee7dba160c568332ac9", "is_reserved": 0, "fusion_lon": 0.0, "lat": 38.900115666666665, "is_disabled": 0, "name": "506d73c47e7d3ee7dba160c568332ac9", "fusion_lat": 0.0, "rental_uris": {"ios": "https://dc.lft.to/lastmile_qr_scan", "android": "https://dc.lft.to/lastmile_qr_scan"}, "lon": -76.9912, "type": "electric_scooter"}, {"bike_id": "c2bd26e76de3edc45516cfee2178b73e", "is_reserved": 0, "fusion_lon": 0.0, "lat": 38.87844316666666, "is_disabled": 0, "name": "c2bd26e76de3edc45516cfee2178b73e", "fusion_lat": 0.0, "rental_uris": {"ios": "https://dc.lft.to/lastmile_qr_scan", "android": "https://dc.lft.to/lastmile_qr_scan"}, "lon": -77.00498983333334, "type": "electric_scooter"}, {"bike_id": "303d5e198637212996f6b80d7a788451", "is_reserved": 0, "fusion_lon": 0.0, "lat": 38.9264525, "is_disabled": 0, "name": "303d5e198637212996f6b80d7a788451", "fusion_lat": 0.0, "rental_uris": {"ios": "https://dc.lft.to/lastmile_qr_scan", "android": "https://dc.lft.to/lastmile_qr_scan"}, "lon": -77.03706483333333, "type": "electric_scooter"}, {"bike_id": "cef5e4e764ebe3f5eefbecfb6d27f2b3", "is_reserved": 0, "fusion_lon": 0.0, "lat": 38.92782733333333, "is_disabled": 0, "name": "cef5e4e764ebe3f5eefbecfb6d27f2b3", "fusion_lat": 0.0, "rental_uris": {"ios": "https://dc.lft.to/lastmile_qr_scan", "android": "https://dc.lft.to/lastmile_qr_scan"}, "lon": -77.02672916666667, "type": "electric_scooter"}, {"bike_id": "8455a401b01622b98b5ea869a5dcab57", "is_reserved": 0, "fusion_lon": 0.0, "lat": 38.89030266666666, "is_disabled": 0, "name": "8455a401b01622b98b5ea869a5dcab57", "fusion_lat": 0.0, "rental_uris": {"ios": "https://dc.lft.to/lastmile_qr_scan", "android": "https://dc.lft.to/lastmile_qr_scan"}, "lon": -76.93626283333333, "type": "electric_scooter"}, {"bike_id": "989248a61e423126e6fd7cf7a8aff5e3", "is_reserved": 0, "fusion_lon": 0.0, "lat": 38.85317966666667, "is_disabled": 0, "name": "989248a61e423126e6fd7cf7a8aff5e3", "fusion_lat": 0.0, "rental_uris": {"ios": "https://dc.lft.to/lastmile_qr_scan", "android": "https://dc.lft.to/lastmile_qr_scan"}, "lon": -76.98024916666667, "type": "electric_bike"}, {"bike_id": "cb668b385e51bb6e9f5770204b9d9c96", "is_reserved": 0, "fusion_lon": 0.0, "lat": 38.899023166666666, "is_disabled": 0, "name": "cb668b385e51bb6e9f5770204b9d9c96", "fusion_lat": 0.0, "rental_uris": {"ios": "https://dc.lft.to/lastmile_qr_scan", "android": "https://dc.lft.to/lastmile_qr_scan"}, "lon": -77.0328835, "type": "electric_scooter"}, {"bike_id": "519b01fd2ac11e430f47c27301212dd3", "is_reserved": 0, "fusion_lon": 0.0, "lat": 38.970892166666665, "is_disabled": 0, "name": "519b01fd2ac11e430f47c27301212dd3", "fusion_lat": 0.0, "rental_uris": {"ios": "https://dc.lft.to/lastmile_qr_scan", "android": "https://dc.lft.to/lastmile_qr_scan"}, "lon": -77.06968266666667, "type": "electric_bike"}, {"bike_id": "061bbe7b0960e4fd004f414be884e60d", "is_reserved": 0, "fusion_lon": 0.0, "lat": 38.924097833333335, "is_disabled": 0, "name": "061bbe7b0960e4fd004f414be884e60d", "fusion_lat": 0.0, "rental_uris": {"ios": "https://dc.lft.to/lastmile_qr_scan", "android": "https://dc.lft.to/lastmile_qr_scan"}, "lon": -77.02959566666667, "type": "electric_scooter"}, {"bike_id": "3b8957bcd3392358b481417e4a959495", "is_reserved": 0, "fusion_lon": 0.0, "lat": 38.91277783333334, "is_disabled": 0, "name": "3b8957bcd3392358b481417e4a959495", "fusion_lat": 0.0, "rental_uris": {"ios": "https://dc.lft.to/lastmile_qr_scan", "android": "https://dc.lft.to/lastmile_qr_scan"}, "lon": -77.01351316666667, "type": "electric_scooter"}, {"bike_id": "d5761a23ad03e93c9149f6871bd31d61", "is_reserved": 0, "fusion_lon": 0.0, "lat": 38.91933866666667, "is_disabled": 0, "name": "d5761a23ad03e93c9149f6871bd31d61", "fusion_lat": 0.0, "rental_uris": {"ios": "https://dc.lft.to/lastmile_qr_scan", "android": "https://dc.lft.to/lastmile_qr_scan"}, "lon": -77.0450295, "type": "electric_scooter"}, {"bike_id": "0fc42355e7e7ad779916ca6ba7d4face", "is_reserved": 0, "fusion_lon": 0.0, "lat": 38.906201333333335, "is_disabled": 0, "name": "0fc42355e7e7ad779916ca6ba7d4face", "fusion_lat": 0.0, "rental_uris": {"ios": "https://dc.lft.to/lastmile_qr_scan", "android": "https://dc.lft.to/lastmile_qr_scan"}, "lon": -77.04137216666666, "type": "electric_scooter"}, {"bike_id": "46e6b5b05344fb0c3514d49201a82e75", "is_reserved": 0, "fusion_lon": 0.0, "lat": 38.90092633333333, "is_disabled": 0, "name": "46e6b5b05344fb0c3514d49201a82e75", "fusion_lat": 0.0, "rental_uris": {"ios": "https://dc.lft.to/lastmile_qr_scan", "android": "https://dc.lft.to/lastmile_qr_scan"}, "lon": -76.974683, "type": "electric_scooter"}, {"bike_id": "e39353ecc2828cc2df14a40d644601cb", "is_reserved": 0, "fusion_lon": 0.0, "lat": 38.9096, "is_disabled": 0, "name": "e39353ecc2828cc2df14a40d644601cb", "fusion_lat": 0.0, "rental_uris": {"ios": "https://dc.lft.to/lastmile_qr_scan", "android": "https://dc.lft.to/lastmile_qr_scan"}, "lon": -77.02548583333333, "type": "electric_scooter"}, {"bike_id": "76240edaf653148e1d9b145bb443f009", "is_reserved": 0, "fusion_lon": 0.0, "lat": 38.89265783333333, "is_disabled": 0, "name": "76240edaf653148e1d9b145bb443f009", "fusion_lat": 0.0, "rental_uris": {"ios": "https://dc.lft.to/lastmile_qr_scan", "android": "https://dc.lft.to/lastmile_qr_scan"}, "lon": -77.02202716666666, "type": "electric_bike"}, {"bike_id": "ae3f729e7dec1b0d72518405d30d80ad", "is_reserved": 0, "fusion_lon": 0.0, "lat": 38.9072695, "is_disabled": 0, "name": "ae3f729e7dec1b0d72518405d30d80ad", "fusion_lat": 0.0, "rental_uris": {"ios": "https://dc.lft.to/lastmile_qr_scan", "android": "https://dc.lft.to/lastmile_qr_scan"}, "lon": -77.032097, "type": "electric_scooter"}, {"bike_id": "a2a44a612b77f0cbdf9b328faeea2012", "is_reserved": 0, "fusion_lon": 0.0, "lat": 38.897246333333335, "is_disabled": 0, "name": "a2a44a612b77f0cbdf9b328faeea2012", "fusion_lat": 0.0, "rental_uris": {"ios": "https://dc.lft.to/lastmile_qr_scan", "android": "https://dc.lft.to/lastmile_qr_scan"}, "lon": -77.04338966666667, "type": "electric_scooter"}, {"bike_id": "bbe091ec1e9749ce8f3bf30283796b07", "is_reserved": 0, "fusion_lon": 0.0, "lat": 38.900326666666665, "is_disabled": 0, "name": "bbe091ec1e9749ce8f3bf30283796b07", "fusion_lat": 0.0, "rental_uris": {"ios": "https://dc.lft.to/lastmile_qr_scan", "android": "https://dc.lft.to/lastmile_qr_scan"}, "lon": -77.04027133333334, "type": "electric_scooter"}, {"bike_id": "d6b991fcacfb13f7b5825dbb3747f276", "is_reserved": 0, "fusion_lon": 0.0, "lat": 38.91273183333333, "is_disabled": 0, "name": "d6b991fcacfb13f7b5825dbb3747f276", "fusion_lat": 0.0, "rental_uris": {"ios": "https://dc.lft.to/lastmile_qr_scan", "android": "https://dc.lft.to/lastmile_qr_scan"}, "lon": -77.0269175, "type": "electric_scooter"}, {"bike_id": "9c1ce78abf6f7c0cc21e2165c669d0e7", "is_reserved": 0, "fusion_lon": 0.0, "lat": 38.891064166666666, "is_disabled": 0, "name": "9c1ce78abf6f7c0cc21e2165c669d0e7", "fusion_lat": 0.0, "rental_uris": {"ios": "https://dc.lft.to/lastmile_qr_scan", "android": "https://dc.lft.to/lastmile_qr_scan"}, "lon": -76.98703933333333, "type": "electric_scooter"}, {"bike_id": "4a7b5b17c72eb32b139bd5edf70b7a18", "is_reserved": 0, "fusion_lon": 0.0, "lat": 38.8591955, "is_disabled": 0, "name": "4a7b5b17c72eb32b139bd5edf70b7a18", "fusion_lat": 0.0, "rental_uris": {"ios": "https://dc.lft.to/lastmile_qr_scan", "android": "https://dc.lft.to/lastmile_qr_scan"}, "lon": -76.98980783333333, "type": "electric_scooter"}, {"bike_id": "a3eff72830950be87e8764c56f68a18c", "is_reserved": 0, "fusion_lon": 0.0, "lat": 38.909748666666665, "is_disabled": 0, "name": "a3eff72830950be87e8764c56f68a18c", "fusion_lat": 0.0, "rental_uris": {"ios": "https://dc.lft.to/lastmile_qr_scan", "android": "https://dc.lft.to/lastmile_qr_scan"}, "lon": -77.02386166666666, "type": "electric_scooter"}, {"bike_id": "b23a01e417c74707324b7005b5f1d49e", "is_reserved": 0, "fusion_lon": 0.0, "lat": 38.900293166666664, "is_disabled": 0, "name": "b23a01e417c74707324b7005b5f1d49e", "fusion_lat": 0.0, "rental_uris": {"ios": "https://dc.lft.to/lastmile_qr_scan", "android": "https://dc.lft.to/lastmile_qr_scan"}, "lon": -76.98753016666667, "type": "electric_scooter"}, {"bike_id": "9030e0534de44648c7f4d4d6a6c5c0f7", "is_reserved": 0, "fusion_lon": 0.0, "lat": 38.925099, "is_disabled": 0, "name": "9030e0534de44648c7f4d4d6a6c5c0f7", "fusion_lat": 0.0, "rental_uris": {"ios": "https://dc.lft.to/lastmile_qr_scan", "android": "https://dc.lft.to/lastmile_qr_scan"}, "lon": -77.02166366666667, "type": "electric_scooter"}, {"bike_id": "732d831e3d486fa7eaf6ddf06bb9f459", "is_reserved": 0, "fusion_lon": 0.0, "lat": 38.922460666666666, "is_disabled": 0, "name": "732d831e3d486fa7eaf6ddf06bb9f459", "fusion_lat": 0.0, "rental_uris": {"ios": "https://dc.lft.to/lastmile_qr_scan", "android": "https://dc.lft.to/lastmile_qr_scan"}, "lon": -77.030812, "type": "electric_scooter"}, {"bike_id": "8876f955412c60bdcf23cf0b86d5d06a", "is_reserved": 0, "fusion_lon": 0.0, "lat": 38.870859, "is_disabled": 0, "name": "8876f955412c60bdcf23cf0b86d5d06a", "fusion_lat": 0.0, "rental_uris": {"ios": "https://dc.lft.to/lastmile_qr_scan", "android": "https://dc.lft.to/lastmile_qr_scan"}, "lon": -77.012108, "type": "electric_bike"}, {"bike_id": "e2db945d8e485f67d5f264d60994b299", "is_reserved": 0, "fusion_lon": 0.0, "lat": 38.918018833333335, "is_disabled": 0, "name": "e2db945d8e485f67d5f264d60994b299", "fusion_lat": 0.0, "rental_uris": {"ios": "https://dc.lft.to/lastmile_qr_scan", "android": "https://dc.lft.to/lastmile_qr_scan"}, "lon": -77.035615, "type": "electric_scooter"}, {"bike_id": "264b592320c8d618da078432290e58ee", "is_reserved": 0, "fusion_lon": 0.0, "lat": 38.87924666666667, "is_disabled": 0, "name": "264b592320c8d618da078432290e58ee", "fusion_lat": 0.0, "rental_uris": {"ios": "https://dc.lft.to/lastmile_qr_scan", "android": "https://dc.lft.to/lastmile_qr_scan"}, "lon": -77.02231666666667, "type": "electric_scooter"}, {"bike_id": "836d0dca302216ee34ec849f449d588a", "is_reserved": 0, "fusion_lon": 0.0, "lat": 38.89685133333333, "is_disabled": 0, "name": "836d0dca302216ee34ec849f449d588a", "fusion_lat": 0.0, "rental_uris": {"ios": "https://dc.lft.to/lastmile_qr_scan", "android": "https://dc.lft.to/lastmile_qr_scan"}, "lon": -76.9963045, "type": "electric_scooter"}, {"bike_id": "f9fb5fa1e3c6c441cdf3735363fa3dc2", "is_reserved": 0, "fusion_lon": 0.0, "lat": 38.90625466666667, "is_disabled": 0, "name": "f9fb5fa1e3c6c441cdf3735363fa3dc2", "fusion_lat": 0.0, "rental_uris": {"ios": "https://dc.lft.to/lastmile_qr_scan", "android": "https://dc.lft.to/lastmile_qr_scan"}, "lon": -76.986085, "type": "electric_bike"}, {"bike_id": "c439f0f3db54a3dd77084152251d75d3", "is_reserved": 0, "fusion_lon": 0.0, "lat": 38.9127305, "is_disabled": 0, "name": "c439f0f3db54a3dd77084152251d75d3", "fusion_lat": 0.0, "rental_uris": {"ios": "https://dc.lft.to/lastmile_qr_scan", "android": "https://dc.lft.to/lastmile_qr_scan"}, "lon": -77.03769566666666, "type": "electric_scooter"}, {"bike_id": "8f097c7362abff23d37666a39c341bd3", "is_reserved": 0, "fusion_lon": 0.0, "lat": 38.93674133333333, "is_disabled": 0, "name": "8f097c7362abff23d37666a39c341bd3", "fusion_lat": 0.0, "rental_uris": {"ios": "https://dc.lft.to/lastmile_qr_scan", "android": "https://dc.lft.to/lastmile_qr_scan"}, "lon": -77.0359065, "type": "electric_scooter"}, {"bike_id": "05b0972e60435bc611045de4e39b3107", "is_reserved": 0, "fusion_lon": 0.0, "lat": 38.903280333333335, "is_disabled": 0, "name": "05b0972e60435bc611045de4e39b3107", "fusion_lat": 0.0, "rental_uris": {"ios": "https://dc.lft.to/lastmile_qr_scan", "android": "https://dc.lft.to/lastmile_qr_scan"}, "lon": -77.06600016666667, "type": "electric_scooter"}, {"bike_id": "203010df902b128763d408ba84a73c67", "is_reserved": 0, "fusion_lon": 0.0, "lat": 38.898382166666664, "is_disabled": 0, "name": "203010df902b128763d408ba84a73c67", "fusion_lat": 0.0, "rental_uris": {"ios": "https://dc.lft.to/lastmile_qr_scan", "android": "https://dc.lft.to/lastmile_qr_scan"}, "lon": -77.00767233333333, "type": "electric_scooter"}, {"bike_id": "89b59066084f557882f2d8e2b4712e4e", "is_reserved": 0, "fusion_lon": 0.0, "lat": 38.9138455, "is_disabled": 0, "name": "89b59066084f557882f2d8e2b4712e4e", "fusion_lat": 0.0, "rental_uris": {"ios": "https://dc.lft.to/lastmile_qr_scan", "android": "https://dc.lft.to/lastmile_qr_scan"}, "lon": -77.01797633333334, "type": "electric_scooter"}, {"bike_id": "347c2534f1e1b5b074f4ed11c5900944", "is_reserved": 0, "fusion_lon": 0.0, "lat": 38.91411766666667, "is_disabled": 0, "name": "347c2534f1e1b5b074f4ed11c5900944", "fusion_lat": 0.0, "rental_uris": {"ios": "https://dc.lft.to/lastmile_qr_scan", "android": "https://dc.lft.to/lastmile_qr_scan"}, "lon": -77.0413625, "type": "electric_scooter"}, {"bike_id": "e1283457b1adab59e636210edea83b0c", "is_reserved": 0, "fusion_lon": 0.0, "lat": 38.9180095, "is_disabled": 0, "name": "e1283457b1adab59e636210edea83b0c", "fusion_lat": 0.0, "rental_uris": {"ios": "https://dc.lft.to/lastmile_qr_scan", "android": "https://dc.lft.to/lastmile_qr_scan"}, "lon": -77.03445166666667, "type": "electric_scooter"}, {"bike_id": "49e7ed10e2620326728aa297bb5b3b59", "is_reserved": 0, "fusion_lon": 0.0, "lat": 38.9086755, "is_disabled": 0, "name": "49e7ed10e2620326728aa297bb5b3b59", "fusion_lat": 0.0, "rental_uris": {"ios": "https://dc.lft.to/lastmile_qr_scan", "android": "https://dc.lft.to/lastmile_qr_scan"}, "lon": -77.0063245, "type": "electric_scooter"}, {"bike_id": "643eaf9006db87f79c1a06e99c35edba", "is_reserved": 0, "fusion_lon": 0.0, "lat": 38.92415416666667, "is_disabled": 0, "name": "643eaf9006db87f79c1a06e99c35edba", "fusion_lat": 0.0, "rental_uris": {"ios": "https://dc.lft.to/lastmile_qr_scan", "android": "https://dc.lft.to/lastmile_qr_scan"}, "lon": -76.99739283333334, "type": "electric_bike"}, {"bike_id": "b24daffaeb265895f29ad971b56ee8cd", "is_reserved": 0, "fusion_lon": 0.0, "lat": 38.917732666666666, "is_disabled": 0, "name": "b24daffaeb265895f29ad971b56ee8cd", "fusion_lat": 0.0, "rental_uris": {"ios": "https://dc.lft.to/lastmile_qr_scan", "android": "https://dc.lft.to/lastmile_qr_scan"}, "lon": -77.04055033333333, "type": "electric_scooter"}, {"bike_id": "8dc0012b576e9f515a94b4dad1a1bce6", "is_reserved": 0, "fusion_lon": 0.0, "lat": 38.84292466666667, "is_disabled": 0, "name": "8dc0012b576e9f515a94b4dad1a1bce6", "fusion_lat": 0.0, "rental_uris": {"ios": "https://dc.lft.to/lastmile_qr_scan", "android": "https://dc.lft.to/lastmile_qr_scan"}, "lon": -76.9995, "type": "electric_scooter"}, {"bike_id": "8e0db7c8fb2b708642a90c5ca38a5357", "is_reserved": 0, "fusion_lon": 0.0, "lat": 38.8637705, "is_disabled": 0, "name": "8e0db7c8fb2b708642a90c5ca38a5357", "fusion_lat": 0.0, "rental_uris": {"ios": "https://dc.lft.to/lastmile_qr_scan", "android": "https://dc.lft.to/lastmile_qr_scan"}, "lon": -76.99058, "type": "electric_scooter"}, {"bike_id": "e60ae1acc605102a162faccab8e57ec7", "is_reserved": 0, "fusion_lon": 0.0, "lat": 38.89949433333334, "is_disabled": 0, "name": "e60ae1acc605102a162faccab8e57ec7", "fusion_lat": 0.0, "rental_uris": {"ios": "https://dc.lft.to/lastmile_qr_scan", "android": "https://dc.lft.to/lastmile_qr_scan"}, "lon": -77.03353, "type": "electric_scooter"}, {"bike_id": "e0c7c96ba8d5e29d571d43db4c66028e", "is_reserved": 0, "fusion_lon": 0.0, "lat": 38.89876266666667, "is_disabled": 0, "name": "e0c7c96ba8d5e29d571d43db4c66028e", "fusion_lat": 0.0, "rental_uris": {"ios": "https://dc.lft.to/lastmile_qr_scan", "android": "https://dc.lft.to/lastmile_qr_scan"}, "lon": -76.93160083333333, "type": "electric_scooter"}, {"bike_id": "4a70c64fc79db8f2fa5f2f6271e8d82e", "is_reserved": 0, "fusion_lon": 0.0, "lat": 38.934353333333334, "is_disabled": 0, "name": "4a70c64fc79db8f2fa5f2f6271e8d82e", "fusion_lat": 0.0, "rental_uris": {"ios": "https://dc.lft.to/lastmile_qr_scan", "android": "https://dc.lft.to/lastmile_qr_scan"}, "lon": -77.03440833333333, "type": "electric_scooter"}, {"bike_id": "f0296d64c09a550d73f7206e81866237", "is_reserved": 0, "fusion_lon": 0.0, "lat": 38.89363183333333, "is_disabled": 0, "name": "f0296d64c09a550d73f7206e81866237", "fusion_lat": 0.0, "rental_uris": {"ios": "https://dc.lft.to/lastmile_qr_scan", "android": "https://dc.lft.to/lastmile_qr_scan"}, "lon": -76.985155, "type": "electric_bike"}, {"bike_id": "0722d49551d5fdf26f484ab7367f1cbd", "is_reserved": 0, "fusion_lon": 0.0, "lat": 38.95076383333333, "is_disabled": 0, "name": "0722d49551d5fdf26f484ab7367f1cbd", "fusion_lat": 0.0, "rental_uris": {"ios": "https://dc.lft.to/lastmile_qr_scan", "android": "https://dc.lft.to/lastmile_qr_scan"}, "lon": -77.012034, "type": "electric_bike"}, {"bike_id": "866ff138f7fe2ee028c22371fbf96e04", "is_reserved": 0, "fusion_lon": 0.0, "lat": 38.9250255, "is_disabled": 0, "name": "866ff138f7fe2ee028c22371fbf96e04", "fusion_lat": 0.0, "rental_uris": {"ios": "https://dc.lft.to/lastmile_qr_scan", "android": "https://dc.lft.to/lastmile_qr_scan"}, "lon": -77.00887883333333, "type": "electric_scooter"}, {"bike_id": "e83c6e2ab132e9d43d5b13819f37942b", "is_reserved": 0, "fusion_lon": 0.0, "lat": 38.90780683333333, "is_disabled": 0, "name": "e83c6e2ab132e9d43d5b13819f37942b", "fusion_lat": 0.0, "rental_uris": {"ios": "https://dc.lft.to/lastmile_qr_scan", "android": "https://dc.lft.to/lastmile_qr_scan"}, "lon": -77.03832233333333, "type": "electric_scooter"}, {"bike_id": "830dccddb6e30e89b3a0b5fbd9c8f16c", "is_reserved": 0, "fusion_lon": 0.0, "lat": 38.959254666666666, "is_disabled": 0, "name": "830dccddb6e30e89b3a0b5fbd9c8f16c", "fusion_lat": 0.0, "rental_uris": {"ios": "https://dc.lft.to/lastmile_qr_scan", "android": "https://dc.lft.to/lastmile_qr_scan"}, "lon": -77.033235, "type": "electric_scooter"}, {"bike_id": "3af2c5557f3d12673de1d2c986e72ea2", "is_reserved": 0, "fusion_lon": 0.0, "lat": 38.908035, "is_disabled": 0, "name": "3af2c5557f3d12673de1d2c986e72ea2", "fusion_lat": 0.0, "rental_uris": {"ios": "https://dc.lft.to/lastmile_qr_scan", "android": "https://dc.lft.to/lastmile_qr_scan"}, "lon": -77.03448983333334, "type": "electric_scooter"}, {"bike_id": "217d9b8d3803165631be8ca0cb35b6f5", "is_reserved": 0, "fusion_lon": 0.0, "lat": 38.86562466666667, "is_disabled": 0, "name": "217d9b8d3803165631be8ca0cb35b6f5", "fusion_lat": 0.0, "rental_uris": {"ios": "https://dc.lft.to/lastmile_qr_scan", "android": "https://dc.lft.to/lastmile_qr_scan"}, "lon": -76.9895035, "type": "electric_scooter"}, {"bike_id": "031e0317f7d864528bc09e897674b7a5", "is_reserved": 0, "fusion_lon": 0.0, "lat": 38.91688933333333, "is_disabled": 0, "name": "031e0317f7d864528bc09e897674b7a5", "fusion_lat": 0.0, "rental_uris": {"ios": "https://dc.lft.to/lastmile_qr_scan", "android": "https://dc.lft.to/lastmile_qr_scan"}, "lon": -77.02946683333333, "type": "electric_scooter"}, {"bike_id": "e2dfa832c056b9f08e2c03cc256fe6f4", "is_reserved": 0, "fusion_lon": 0.0, "lat": 38.9398475, "is_disabled": 0, "name": "e2dfa832c056b9f08e2c03cc256fe6f4", "fusion_lat": 0.0, "rental_uris": {"ios": "https://dc.lft.to/lastmile_qr_scan", "android": "https://dc.lft.to/lastmile_qr_scan"}, "lon": -77.02501266666667, "type": "electric_bike"}, {"bike_id": "90f0fc36721cbb1da744cce400278df8", "is_reserved": 0, "fusion_lon": 0.0, "lat": 38.9037965, "is_disabled": 0, "name": "90f0fc36721cbb1da744cce400278df8", "fusion_lat": 0.0, "rental_uris": {"ios": "https://dc.lft.to/lastmile_qr_scan", "android": "https://dc.lft.to/lastmile_qr_scan"}, "lon": -77.04382, "type": "electric_scooter"}, {"bike_id": "8f1752b77423495044f63b3a5616d5c9", "is_reserved": 0, "fusion_lon": 0.0, "lat": 38.90523866666667, "is_disabled": 0, "name": "8f1752b77423495044f63b3a5616d5c9", "fusion_lat": 0.0, "rental_uris": {"ios": "https://dc.lft.to/lastmile_qr_scan", "android": "https://dc.lft.to/lastmile_qr_scan"}, "lon": -77.02707466666666, "type": "electric_scooter"}, {"bike_id": "443911f9c0bf525d68193d054b4ae7b7", "is_reserved": 0, "fusion_lon": 0.0, "lat": 38.90328183333333, "is_disabled": 0, "name": "443911f9c0bf525d68193d054b4ae7b7", "fusion_lat": 0.0, "rental_uris": {"ios": "https://dc.lft.to/lastmile_qr_scan", "android": "https://dc.lft.to/lastmile_qr_scan"}, "lon": -77.038484, "type": "electric_scooter"}, {"bike_id": "18f274bbbbc4662ae9f3f98c5a760e1b", "is_reserved": 0, "fusion_lon": 0.0, "lat": 38.842966833333335, "is_disabled": 0, "name": "18f274bbbbc4662ae9f3f98c5a760e1b", "fusion_lat": 0.0, "rental_uris": {"ios": "https://dc.lft.to/lastmile_qr_scan", "android": "https://dc.lft.to/lastmile_qr_scan"}, "lon": -76.99944583333334, "type": "electric_scooter"}, {"bike_id": "34b12f51dbe1b42ace30e2dfd5bbe6a0", "is_reserved": 0, "fusion_lon": 0.0, "lat": 38.8867525, "is_disabled": 0, "name": "34b12f51dbe1b42ace30e2dfd5bbe6a0", "fusion_lat": 0.0, "rental_uris": {"ios": "https://dc.lft.to/lastmile_qr_scan", "android": "https://dc.lft.to/lastmile_qr_scan"}, "lon": -77.0137135, "type": "electric_scooter"}, {"bike_id": "1340390a58d178c1d5ae3a0e4487245f", "is_reserved": 0, "fusion_lon": 0.0, "lat": 38.905642, "is_disabled": 0, "name": "1340390a58d178c1d5ae3a0e4487245f", "fusion_lat": 0.0, "rental_uris": {"ios": "https://dc.lft.to/lastmile_qr_scan", "android": "https://dc.lft.to/lastmile_qr_scan"}, "lon": -77.0167585, "type": "electric_scooter"}, {"bike_id": "da821756ee9912438217440740d1a4d2", "is_reserved": 0, "fusion_lon": 0.0, "lat": 38.906886166666666, "is_disabled": 0, "name": "da821756ee9912438217440740d1a4d2", "fusion_lat": 0.0, "rental_uris": {"ios": "https://dc.lft.to/lastmile_qr_scan", "android": "https://dc.lft.to/lastmile_qr_scan"}, "lon": -77.00929616666667, "type": "electric_scooter"}, {"bike_id": "d56e5848732dc741b25e5b68db297d0d", "is_reserved": 0, "fusion_lon": 0.0, "lat": 38.92130933333333, "is_disabled": 0, "name": "d56e5848732dc741b25e5b68db297d0d", "fusion_lat": 0.0, "rental_uris": {"ios": "https://dc.lft.to/lastmile_qr_scan", "android": "https://dc.lft.to/lastmile_qr_scan"}, "lon": -77.02198983333334, "type": "electric_scooter"}, {"bike_id": "01094000649580e03e3aebfcd842fe97", "is_reserved": 0, "fusion_lon": 0.0, "lat": 38.92740333333333, "is_disabled": 0, "name": "01094000649580e03e3aebfcd842fe97", "fusion_lat": 0.0, "rental_uris": {"ios": "https://dc.lft.to/lastmile_qr_scan", "android": "https://dc.lft.to/lastmile_qr_scan"}, "lon": -77.05379716666667, "type": "electric_scooter"}, {"bike_id": "9d2e691634b5424103e3c3ceef183719", "is_reserved": 0, "fusion_lon": 0.0, "lat": 38.89221083333333, "is_disabled": 0, "name": "9d2e691634b5424103e3c3ceef183719", "fusion_lat": 0.0, "rental_uris": {"ios": "https://dc.lft.to/lastmile_qr_scan", "android": "https://dc.lft.to/lastmile_qr_scan"}, "lon": -77.03224466666667, "type": "electric_scooter"}, {"bike_id": "fa80cfa99b39179a087ca3fad6e2f32a", "is_reserved": 0, "fusion_lon": 0.0, "lat": 38.85250666666666, "is_disabled": 0, "name": "fa80cfa99b39179a087ca3fad6e2f32a", "fusion_lat": 0.0, "rental_uris": {"ios": "https://dc.lft.to/lastmile_qr_scan", "android": "https://dc.lft.to/lastmile_qr_scan"}, "lon": -77.11424716666667, "type": "electric_bike"}, {"bike_id": "8067084a0818428c0b0df247653cbc35", "is_reserved": 0, "fusion_lon": 0.0, "lat": 38.90242, "is_disabled": 0, "name": "8067084a0818428c0b0df247653cbc35", "fusion_lat": 0.0, "rental_uris": {"ios": "https://dc.lft.to/lastmile_qr_scan", "android": "https://dc.lft.to/lastmile_qr_scan"}, "lon": -77.03965233333334, "type": "electric_scooter"}, {"bike_id": "071df136be1feeda7a3422a2b72615a0", "is_reserved": 0, "fusion_lon": 0.0, "lat": 38.9027635, "is_disabled": 0, "name": "071df136be1feeda7a3422a2b72615a0", "fusion_lat": 0.0, "rental_uris": {"ios": "https://dc.lft.to/lastmile_qr_scan", "android": "https://dc.lft.to/lastmile_qr_scan"}, "lon": -77.038539, "type": "electric_scooter"}, {"bike_id": "1a72f3c5738aa0316b495825581c0804", "is_reserved": 0, "fusion_lon": 0.0, "lat": 38.91208, "is_disabled": 0, "name": "1a72f3c5738aa0316b495825581c0804", "fusion_lat": 0.0, "rental_uris": {"ios": "https://dc.lft.to/lastmile_qr_scan", "android": "https://dc.lft.to/lastmile_qr_scan"}, "lon": -77.029714, "type": "electric_scooter"}, {"bike_id": "b8cc67f6bef30ccc358caa071e9e6df1", "is_reserved": 0, "fusion_lon": 0.0, "lat": 38.91116566666667, "is_disabled": 0, "name": "b8cc67f6bef30ccc358caa071e9e6df1", "fusion_lat": 0.0, "rental_uris": {"ios": "https://dc.lft.to/lastmile_qr_scan", "android": "https://dc.lft.to/lastmile_qr_scan"}, "lon": -77.03730833333333, "type": "electric_scooter"}, {"bike_id": "7832070c643a9a49c002d124d58b78d7", "is_reserved": 0, "fusion_lon": 0.0, "lat": 38.97514183333333, "is_disabled": 0, "name": "7832070c643a9a49c002d124d58b78d7", "fusion_lat": 0.0, "rental_uris": {"ios": "https://dc.lft.to/lastmile_qr_scan", "android": "https://dc.lft.to/lastmile_qr_scan"}, "lon": -77.01747283333333, "type": "electric_scooter"}, {"bike_id": "b131b1d238f75c7070daf08e9e75d690", "is_reserved": 0, "fusion_lon": 0.0, "lat": 38.935209666666665, "is_disabled": 0, "name": "b131b1d238f75c7070daf08e9e75d690", "fusion_lat": 0.0, "rental_uris": {"ios": "https://dc.lft.to/lastmile_qr_scan", "android": "https://dc.lft.to/lastmile_qr_scan"}, "lon": -77.032939, "type": "electric_scooter"}, {"bike_id": "e3323a8860693857b4eeb36bddbe68c3", "is_reserved": 0, "fusion_lon": 0.0, "lat": 38.91054316666666, "is_disabled": 0, "name": "e3323a8860693857b4eeb36bddbe68c3", "fusion_lat": 0.0, "rental_uris": {"ios": "https://dc.lft.to/lastmile_qr_scan", "android": "https://dc.lft.to/lastmile_qr_scan"}, "lon": -77.021858, "type": "electric_scooter"}, {"bike_id": "5961762dd22ef6894bd12e184144383f", "is_reserved": 0, "fusion_lon": 0.0, "lat": 38.92026633333333, "is_disabled": 0, "name": "5961762dd22ef6894bd12e184144383f", "fusion_lat": 0.0, "rental_uris": {"ios": "https://dc.lft.to/lastmile_qr_scan", "android": "https://dc.lft.to/lastmile_qr_scan"}, "lon": -77.038667, "type": "electric_scooter"}, {"bike_id": "05548668250fdd99f2d2e54d58e878b5", "is_reserved": 0, "fusion_lon": 0.0, "lat": 38.90673966666667, "is_disabled": 0, "name": "05548668250fdd99f2d2e54d58e878b5", "fusion_lat": 0.0, "rental_uris": {"ios": "https://dc.lft.to/lastmile_qr_scan", "android": "https://dc.lft.to/lastmile_qr_scan"}, "lon": -77.075704, "type": "electric_scooter"}, {"bike_id": "ae37a91e44e58dbc8c1b479be50eb0b8", "is_reserved": 0, "fusion_lon": 0.0, "lat": 38.922103666666665, "is_disabled": 0, "name": "ae37a91e44e58dbc8c1b479be50eb0b8", "fusion_lat": 0.0, "rental_uris": {"ios": "https://dc.lft.to/lastmile_qr_scan", "android": "https://dc.lft.to/lastmile_qr_scan"}, "lon": -77.03657716666666, "type": "electric_scooter"}, {"bike_id": "5026a78a5c6cc7102408ffa267212b49", "is_reserved": 0, "fusion_lon": 0.0, "lat": 38.91550066666667, "is_disabled": 0, "name": "5026a78a5c6cc7102408ffa267212b49", "fusion_lat": 0.0, "rental_uris": {"ios": "https://dc.lft.to/lastmile_qr_scan", "android": "https://dc.lft.to/lastmile_qr_scan"}, "lon": -77.03937733333333, "type": "electric_scooter"}, {"bike_id": "46f8e9e903a44b912a0241aa5dbb3fae", "is_reserved": 0, "fusion_lon": 0.0, "lat": 38.91459733333333, "is_disabled": 0, "name": "46f8e9e903a44b912a0241aa5dbb3fae", "fusion_lat": 0.0, "rental_uris": {"ios": "https://dc.lft.to/lastmile_qr_scan", "android": "https://dc.lft.to/lastmile_qr_scan"}, "lon": -77.0320035, "type": "electric_scooter"}, {"bike_id": "641bdf989e290e94ffe5783850493212", "is_reserved": 0, "fusion_lon": 0.0, "lat": 38.892233833333336, "is_disabled": 0, "name": "641bdf989e290e94ffe5783850493212", "fusion_lat": 0.0, "rental_uris": {"ios": "https://dc.lft.to/lastmile_qr_scan", "android": "https://dc.lft.to/lastmile_qr_scan"}, "lon": -77.04335266666666, "type": "electric_scooter"}, {"bike_id": "a325154c569d8409c7cdaedc11363c39", "is_reserved": 0, "fusion_lon": 0.0, "lat": 38.93425883333333, "is_disabled": 0, "name": "a325154c569d8409c7cdaedc11363c39", "fusion_lat": 0.0, "rental_uris": {"ios": "https://dc.lft.to/lastmile_qr_scan", "android": "https://dc.lft.to/lastmile_qr_scan"}, "lon": -77.04314933333333, "type": "electric_scooter"}, {"bike_id": "ed4d1015b9d2fb226cc38b08f0bb227a", "is_reserved": 0, "fusion_lon": 0.0, "lat": 38.91547333333333, "is_disabled": 0, "name": "ed4d1015b9d2fb226cc38b08f0bb227a", "fusion_lat": 0.0, "rental_uris": {"ios": "https://dc.lft.to/lastmile_qr_scan", "android": "https://dc.lft.to/lastmile_qr_scan"}, "lon": -77.0385595, "type": "electric_scooter"}, {"bike_id": "88367e07b4061775fb01319fbd0b1642", "is_reserved": 0, "fusion_lon": 0.0, "lat": 38.9332795, "is_disabled": 0, "name": "88367e07b4061775fb01319fbd0b1642", "fusion_lat": 0.0, "rental_uris": {"ios": "https://dc.lft.to/lastmile_qr_scan", "android": "https://dc.lft.to/lastmile_qr_scan"}, "lon": -77.032743, "type": "electric_scooter"}, {"bike_id": "2eb02e596c57f0bf13ef8305e466302b", "is_reserved": 0, "fusion_lon": 0.0, "lat": 38.90561616666667, "is_disabled": 0, "name": "2eb02e596c57f0bf13ef8305e466302b", "fusion_lat": 0.0, "rental_uris": {"ios": "https://dc.lft.to/lastmile_qr_scan", "android": "https://dc.lft.to/lastmile_qr_scan"}, "lon": -77.00595233333334, "type": "electric_scooter"}, {"bike_id": "5bc29cebcd51aef6e98281e933d06d11", "is_reserved": 0, "fusion_lon": 0.0, "lat": 38.89605183333333, "is_disabled": 0, "name": "5bc29cebcd51aef6e98281e933d06d11", "fusion_lat": 0.0, "rental_uris": {"ios": "https://dc.lft.to/lastmile_qr_scan", "android": "https://dc.lft.to/lastmile_qr_scan"}, "lon": -77.00925183333334, "type": "electric_scooter"}, {"bike_id": "f17dfef2a68214c13856cd47b298ba08", "is_reserved": 0, "fusion_lon": 0.0, "lat": 38.88210133333333, "is_disabled": 0, "name": "f17dfef2a68214c13856cd47b298ba08", "fusion_lat": 0.0, "rental_uris": {"ios": "https://dc.lft.to/lastmile_qr_scan", "android": "https://dc.lft.to/lastmile_qr_scan"}, "lon": -76.9269715, "type": "electric_scooter"}, {"bike_id": "4d6963224a40ee45988105a569814650", "is_reserved": 0, "fusion_lon": 0.0, "lat": 39.05206033333333, "is_disabled": 0, "name": "4d6963224a40ee45988105a569814650", "fusion_lat": 0.0, "rental_uris": {"ios": "https://dc.lft.to/lastmile_qr_scan", "android": "https://dc.lft.to/lastmile_qr_scan"}, "lon": -77.109135, "type": "electric_bike"}, {"bike_id": "7355731bc469f27653123640598bb071", "is_reserved": 0, "fusion_lon": 0.0, "lat": 38.901445833333334, "is_disabled": 0, "name": "7355731bc469f27653123640598bb071", "fusion_lat": 0.0, "rental_uris": {"ios": "https://dc.lft.to/lastmile_qr_scan", "android": "https://dc.lft.to/lastmile_qr_scan"}, "lon": -77.04228383333333, "type": "electric_scooter"}, {"bike_id": "f9cd189111f2173c982f403c3d74d105", "is_reserved": 0, "fusion_lon": 0.0, "lat": 38.9158665, "is_disabled": 0, "name": "f9cd189111f2173c982f403c3d74d105", "fusion_lat": 0.0, "rental_uris": {"ios": "https://dc.lft.to/lastmile_qr_scan", "android": "https://dc.lft.to/lastmile_qr_scan"}, "lon": -77.04679383333334, "type": "electric_scooter"}, {"bike_id": "6c64f8b348353d0089ecda7b2c9a83fe", "is_reserved": 0, "fusion_lon": 0.0, "lat": 38.902547166666665, "is_disabled": 0, "name": "6c64f8b348353d0089ecda7b2c9a83fe", "fusion_lat": 0.0, "rental_uris": {"ios": "https://dc.lft.to/lastmile_qr_scan", "android": "https://dc.lft.to/lastmile_qr_scan"}, "lon": -77.03414916666667, "type": "electric_scooter"}, {"bike_id": "5661064d0937b402238327b2eac778f3", "is_reserved": 0, "fusion_lon": 0.0, "lat": 38.9119545, "is_disabled": 0, "name": "5661064d0937b402238327b2eac778f3", "fusion_lat": 0.0, "rental_uris": {"ios": "https://dc.lft.to/lastmile_qr_scan", "android": "https://dc.lft.to/lastmile_qr_scan"}, "lon": -77.00724116666666, "type": "electric_scooter"}, {"bike_id": "66b0c738fd3698d0959a8ace419a0df5", "is_reserved": 0, "fusion_lon": 0.0, "lat": 38.878987333333335, "is_disabled": 0, "name": "66b0c738fd3698d0959a8ace419a0df5", "fusion_lat": 0.0, "rental_uris": {"ios": "https://dc.lft.to/lastmile_qr_scan", "android": "https://dc.lft.to/lastmile_qr_scan"}, "lon": -76.99143983333333, "type": "electric_scooter"}, {"bike_id": "8d46d1436537af1160bd2dfb9ae4aaad", "is_reserved": 0, "fusion_lon": 0.0, "lat": 38.9046905, "is_disabled": 0, "name": "8d46d1436537af1160bd2dfb9ae4aaad", "fusion_lat": 0.0, "rental_uris": {"ios": "https://dc.lft.to/lastmile_qr_scan", "android": "https://dc.lft.to/lastmile_qr_scan"}, "lon": -77.02945533333333, "type": "electric_scooter"}, {"bike_id": "c79f712cce99880b639cccca7b58f385", "is_reserved": 0, "fusion_lon": 0.0, "lat": 38.88219, "is_disabled": 0, "name": "c79f712cce99880b639cccca7b58f385", "fusion_lat": 0.0, "rental_uris": {"ios": "https://dc.lft.to/lastmile_qr_scan", "android": "https://dc.lft.to/lastmile_qr_scan"}, "lon": -76.94178183333334, "type": "electric_scooter"}, {"bike_id": "04ae0ef7fe536e6d70d8dc91bd31ee82", "is_reserved": 0, "fusion_lon": 0.0, "lat": 38.903128333333335, "is_disabled": 0, "name": "04ae0ef7fe536e6d70d8dc91bd31ee82", "fusion_lat": 0.0, "rental_uris": {"ios": "https://dc.lft.to/lastmile_qr_scan", "android": "https://dc.lft.to/lastmile_qr_scan"}, "lon": -77.03442616666666, "type": "electric_scooter"}, {"bike_id": "6556cb28d50d14d831436ae8e131f07f", "is_reserved": 0, "fusion_lon": 0.0, "lat": 38.903328333333334, "is_disabled": 0, "name": "6556cb28d50d14d831436ae8e131f07f", "fusion_lat": 0.0, "rental_uris": {"ios": "https://dc.lft.to/lastmile_qr_scan", "android": "https://dc.lft.to/lastmile_qr_scan"}, "lon": -76.98970483333333, "type": "electric_scooter"}, {"bike_id": "06df4347da07f535b6466c3652c22ac6", "is_reserved": 0, "fusion_lon": 0.0, "lat": 38.90273583333333, "is_disabled": 0, "name": "06df4347da07f535b6466c3652c22ac6", "fusion_lat": 0.0, "rental_uris": {"ios": "https://dc.lft.to/lastmile_qr_scan", "android": "https://dc.lft.to/lastmile_qr_scan"}, "lon": -77.03671183333333, "type": "electric_scooter"}, {"bike_id": "bcf42db8b0268f2570b2af017d8945d3", "is_reserved": 0, "fusion_lon": 0.0, "lat": 38.92765283333333, "is_disabled": 0, "name": "bcf42db8b0268f2570b2af017d8945d3", "fusion_lat": 0.0, "rental_uris": {"ios": "https://dc.lft.to/lastmile_qr_scan", "android": "https://dc.lft.to/lastmile_qr_scan"}, "lon": -77.0324165, "type": "electric_scooter"}, {"bike_id": "42d2abd8cb4dac08fe486559600dc1e2", "is_reserved": 0, "fusion_lon": 0.0, "lat": 38.88705133333333, "is_disabled": 0, "name": "42d2abd8cb4dac08fe486559600dc1e2", "fusion_lat": 0.0, "rental_uris": {"ios": "https://dc.lft.to/lastmile_qr_scan", "android": "https://dc.lft.to/lastmile_qr_scan"}, "lon": -77.00151433333333, "type": "electric_scooter"}, {"bike_id": "cec1984135cc5f6aa9b5b8a5ab8b561d", "is_reserved": 0, "fusion_lon": 0.0, "lat": 38.918819, "is_disabled": 0, "name": "cec1984135cc5f6aa9b5b8a5ab8b561d", "fusion_lat": 0.0, "rental_uris": {"ios": "https://dc.lft.to/lastmile_qr_scan", "android": "https://dc.lft.to/lastmile_qr_scan"}, "lon": -77.0445575, "type": "electric_scooter"}, {"bike_id": "9ce9af904f414356b3d6969157d4b41d", "is_reserved": 0, "fusion_lon": 0.0, "lat": 38.8799415, "is_disabled": 0, "name": "9ce9af904f414356b3d6969157d4b41d", "fusion_lat": 0.0, "rental_uris": {"ios": "https://dc.lft.to/lastmile_qr_scan", "android": "https://dc.lft.to/lastmile_qr_scan"}, "lon": -76.98541966666667, "type": "electric_scooter"}, {"bike_id": "8e3366ed8afc976c45034f5f184c3648", "is_reserved": 0, "fusion_lon": 0.0, "lat": 38.898248833333334, "is_disabled": 0, "name": "8e3366ed8afc976c45034f5f184c3648", "fusion_lat": 0.0, "rental_uris": {"ios": "https://dc.lft.to/lastmile_qr_scan", "android": "https://dc.lft.to/lastmile_qr_scan"}, "lon": -76.98025483333333, "type": "electric_scooter"}, {"bike_id": "bacd4c8c296d0d73c314379435693e18", "is_reserved": 0, "fusion_lon": 0.0, "lat": 38.895557333333336, "is_disabled": 0, "name": "bacd4c8c296d0d73c314379435693e18", "fusion_lat": 0.0, "rental_uris": {"ios": "https://dc.lft.to/lastmile_qr_scan", "android": "https://dc.lft.to/lastmile_qr_scan"}, "lon": -77.02574483333333, "type": "electric_scooter"}, {"bike_id": "32ba2c5c02ac93c8429643cada6a7968", "is_reserved": 0, "fusion_lon": 0.0, "lat": 38.908296666666665, "is_disabled": 0, "name": "32ba2c5c02ac93c8429643cada6a7968", "fusion_lat": 0.0, "rental_uris": {"ios": "https://dc.lft.to/lastmile_qr_scan", "android": "https://dc.lft.to/lastmile_qr_scan"}, "lon": -76.99694383333333, "type": "electric_scooter"}, {"bike_id": "3171d5498aadbbfd1ea387b1d3ecd977", "is_reserved": 0, "fusion_lon": 0.0, "lat": 38.9335565, "is_disabled": 0, "name": "3171d5498aadbbfd1ea387b1d3ecd977", "fusion_lat": 0.0, "rental_uris": {"ios": "https://dc.lft.to/lastmile_qr_scan", "android": "https://dc.lft.to/lastmile_qr_scan"}, "lon": -77.05707266666667, "type": "electric_scooter"}, {"bike_id": "f70ea099749bd7e4dbd67bc99bab01af", "is_reserved": 0, "fusion_lon": 0.0, "lat": 39.0304775, "is_disabled": 0, "name": "f70ea099749bd7e4dbd67bc99bab01af", "fusion_lat": 0.0, "rental_uris": {"ios": "https://dc.lft.to/lastmile_qr_scan", "android": "https://dc.lft.to/lastmile_qr_scan"}, "lon": -77.09482216666666, "type": "electric_bike"}, {"bike_id": "151938d0c2925f03c66f65aa98fccfc9", "is_reserved": 0, "fusion_lon": 0.0, "lat": 38.94463833333333, "is_disabled": 0, "name": "151938d0c2925f03c66f65aa98fccfc9", "fusion_lat": 0.0, "rental_uris": {"ios": "https://dc.lft.to/lastmile_qr_scan", "android": "https://dc.lft.to/lastmile_qr_scan"}, "lon": -77.06233016666667, "type": "electric_scooter"}, {"bike_id": "fd3220e17fc460c37adc646565955cf4", "is_reserved": 0, "fusion_lon": 0.0, "lat": 38.897264, "is_disabled": 0, "name": "fd3220e17fc460c37adc646565955cf4", "fusion_lat": 0.0, "rental_uris": {"ios": "https://dc.lft.to/lastmile_qr_scan", "android": "https://dc.lft.to/lastmile_qr_scan"}, "lon": -77.02721866666667, "type": "electric_scooter"}, {"bike_id": "efcccb76ec4087106c4d4be006cd5621", "is_reserved": 0, "fusion_lon": 0.0, "lat": 38.891989, "is_disabled": 0, "name": "efcccb76ec4087106c4d4be006cd5621", "fusion_lat": 0.0, "rental_uris": {"ios": "https://dc.lft.to/lastmile_qr_scan", "android": "https://dc.lft.to/lastmile_qr_scan"}, "lon": -77.0155075, "type": "electric_scooter"}, {"bike_id": "5fccba821ea96cc9a3a42bd994b361e4", "is_reserved": 0, "fusion_lon": 0.0, "lat": 38.90018633333333, "is_disabled": 0, "name": "5fccba821ea96cc9a3a42bd994b361e4", "fusion_lat": 0.0, "rental_uris": {"ios": "https://dc.lft.to/lastmile_qr_scan", "android": "https://dc.lft.to/lastmile_qr_scan"}, "lon": -76.99749766666666, "type": "electric_scooter"}, {"bike_id": "9e71ca2d1151cd0d76be9a7732b4af61", "is_reserved": 0, "fusion_lon": 0.0, "lat": 38.91923083333333, "is_disabled": 0, "name": "9e71ca2d1151cd0d76be9a7732b4af61", "fusion_lat": 0.0, "rental_uris": {"ios": "https://dc.lft.to/lastmile_qr_scan", "android": "https://dc.lft.to/lastmile_qr_scan"}, "lon": -77.0006545, "type": "electric_scooter"}, {"bike_id": "81fb4e10ccabc45001d05f89f92528cb", "is_reserved": 0, "fusion_lon": 0.0, "lat": 38.902456, "is_disabled": 0, "name": "81fb4e10ccabc45001d05f89f92528cb", "fusion_lat": 0.0, "rental_uris": {"ios": "https://dc.lft.to/lastmile_qr_scan", "android": "https://dc.lft.to/lastmile_qr_scan"}, "lon": -77.03462416666666, "type": "electric_scooter"}, {"bike_id": "8e364c493029b00a5f34a9febe367131", "is_reserved": 0, "fusion_lon": 0.0, "lat": 38.907641, "is_disabled": 0, "name": "8e364c493029b00a5f34a9febe367131", "fusion_lat": 0.0, "rental_uris": {"ios": "https://dc.lft.to/lastmile_qr_scan", "android": "https://dc.lft.to/lastmile_qr_scan"}, "lon": -77.032099, "type": "electric_scooter"}, {"bike_id": "2a4eb4c80dcc3cf439680da1a14545d5", "is_reserved": 0, "fusion_lon": 0.0, "lat": 38.90079583333333, "is_disabled": 0, "name": "2a4eb4c80dcc3cf439680da1a14545d5", "fusion_lat": 0.0, "rental_uris": {"ios": "https://dc.lft.to/lastmile_qr_scan", "android": "https://dc.lft.to/lastmile_qr_scan"}, "lon": -77.04813683333333, "type": "electric_scooter"}, {"bike_id": "613fb1788c00888e04a5972895602a54", "is_reserved": 0, "fusion_lon": 0.0, "lat": 38.916093833333335, "is_disabled": 0, "name": "613fb1788c00888e04a5972895602a54", "fusion_lat": 0.0, "rental_uris": {"ios": "https://dc.lft.to/lastmile_qr_scan", "android": "https://dc.lft.to/lastmile_qr_scan"}, "lon": -77.0239115, "type": "electric_scooter"}, {"bike_id": "a97def72abde81a12202bff9c6a4ab27", "is_reserved": 0, "fusion_lon": 0.0, "lat": 38.82781466666667, "is_disabled": 0, "name": "a97def72abde81a12202bff9c6a4ab27", "fusion_lat": 0.0, "rental_uris": {"ios": "https://dc.lft.to/lastmile_qr_scan", "android": "https://dc.lft.to/lastmile_qr_scan"}, "lon": -77.00919716666667, "type": "electric_bike"}, {"bike_id": "8e2a213da80f51a30f9acbfa9e26dd15", "is_reserved": 0, "fusion_lon": 0.0, "lat": 39.003857333333336, "is_disabled": 0, "name": "8e2a213da80f51a30f9acbfa9e26dd15", "fusion_lat": 0.0, "rental_uris": {"ios": "https://dc.lft.to/lastmile_qr_scan", "android": "https://dc.lft.to/lastmile_qr_scan"}, "lon": -77.01293466666667, "type": "electric_bike"}, {"bike_id": "b92487ee44101428a5cb17e428fc8477", "is_reserved": 0, "fusion_lon": 0.0, "lat": 38.956488666666665, "is_disabled": 0, "name": "b92487ee44101428a5cb17e428fc8477", "fusion_lat": 0.0, "rental_uris": {"ios": "https://dc.lft.to/lastmile_qr_scan", "android": "https://dc.lft.to/lastmile_qr_scan"}, "lon": -77.03287316666666, "type": "electric_scooter"}, {"bike_id": "2221b82f3f515032032e10b305491b35", "is_reserved": 0, "fusion_lon": 0.0, "lat": 38.9004575, "is_disabled": 0, "name": "2221b82f3f515032032e10b305491b35", "fusion_lat": 0.0, "rental_uris": {"ios": "https://dc.lft.to/lastmile_qr_scan", "android": "https://dc.lft.to/lastmile_qr_scan"}, "lon": -77.00767133333333, "type": "electric_scooter"}, {"bike_id": "24855452b6db8890aacb335c962f089e", "is_reserved": 0, "fusion_lon": 0.0, "lat": 38.89219166666667, "is_disabled": 0, "name": "24855452b6db8890aacb335c962f089e", "fusion_lat": 0.0, "rental_uris": {"ios": "https://dc.lft.to/lastmile_qr_scan", "android": "https://dc.lft.to/lastmile_qr_scan"}, "lon": -77.03166483333334, "type": "electric_scooter"}, {"bike_id": "c73cda365343ec7dc676d14cd03654d5", "is_reserved": 0, "fusion_lon": 0.0, "lat": 38.9843095, "is_disabled": 0, "name": "c73cda365343ec7dc676d14cd03654d5", "fusion_lat": 0.0, "rental_uris": {"ios": "https://dc.lft.to/lastmile_qr_scan", "android": "https://dc.lft.to/lastmile_qr_scan"}, "lon": -77.02670316666666, "type": "electric_scooter"}, {"bike_id": "b634401a77474dee428090f865b1b25e", "is_reserved": 0, "fusion_lon": 0.0, "lat": 38.917863, "is_disabled": 0, "name": "b634401a77474dee428090f865b1b25e", "fusion_lat": 0.0, "rental_uris": {"ios": "https://dc.lft.to/lastmile_qr_scan", "android": "https://dc.lft.to/lastmile_qr_scan"}, "lon": -77.02699316666667, "type": "electric_scooter"}, {"bike_id": "2e24004344abb67047e2c46711d6a023", "is_reserved": 0, "fusion_lon": 0.0, "lat": 38.8949405, "is_disabled": 0, "name": "2e24004344abb67047e2c46711d6a023", "fusion_lat": 0.0, "rental_uris": {"ios": "https://dc.lft.to/lastmile_qr_scan", "android": "https://dc.lft.to/lastmile_qr_scan"}, "lon": -77.02201566666666, "type": "electric_scooter"}, {"bike_id": "0b6c130adf50a85b335cd803b3fdd97d", "is_reserved": 0, "fusion_lon": 0.0, "lat": 38.884919833333335, "is_disabled": 0, "name": "0b6c130adf50a85b335cd803b3fdd97d", "fusion_lat": 0.0, "rental_uris": {"ios": "https://dc.lft.to/lastmile_qr_scan", "android": "https://dc.lft.to/lastmile_qr_scan"}, "lon": -77.007295, "type": "electric_scooter"}, {"bike_id": "93f4d1dbd97205cfa9df6b187f539e43", "is_reserved": 0, "fusion_lon": 0.0, "lat": 38.902176833333336, "is_disabled": 0, "name": "93f4d1dbd97205cfa9df6b187f539e43", "fusion_lat": 0.0, "rental_uris": {"ios": "https://dc.lft.to/lastmile_qr_scan", "android": "https://dc.lft.to/lastmile_qr_scan"}, "lon": -76.95051, "type": "electric_bike"}, {"bike_id": "6c5e1cd7c5f9a6872acccf54b21e9b10", "is_reserved": 0, "fusion_lon": 0.0, "lat": 38.91677266666667, "is_disabled": 0, "name": "6c5e1cd7c5f9a6872acccf54b21e9b10", "fusion_lat": 0.0, "rental_uris": {"ios": "https://dc.lft.to/lastmile_qr_scan", "android": "https://dc.lft.to/lastmile_qr_scan"}, "lon": -77.03687183333334, "type": "electric_scooter"}, {"bike_id": "f750ceeda713c2bdc8ecb214704bfa53", "is_reserved": 0, "fusion_lon": 0.0, "lat": 38.89829316666667, "is_disabled": 0, "name": "f750ceeda713c2bdc8ecb214704bfa53", "fusion_lat": 0.0, "rental_uris": {"ios": "https://dc.lft.to/lastmile_qr_scan", "android": "https://dc.lft.to/lastmile_qr_scan"}, "lon": -77.05024066666667, "type": "electric_scooter"}, {"bike_id": "24558e4011bd8905cc5dbc98adefbb65", "is_reserved": 0, "fusion_lon": 0.0, "lat": 38.92274333333334, "is_disabled": 0, "name": "24558e4011bd8905cc5dbc98adefbb65", "fusion_lat": 0.0, "rental_uris": {"ios": "https://dc.lft.to/lastmile_qr_scan", "android": "https://dc.lft.to/lastmile_qr_scan"}, "lon": -77.02526916666666, "type": "electric_scooter"}, {"bike_id": "5c3f727942da658e7fde519f56ab1208", "is_reserved": 0, "fusion_lon": 0.0, "lat": 38.901169833333334, "is_disabled": 0, "name": "5c3f727942da658e7fde519f56ab1208", "fusion_lat": 0.0, "rental_uris": {"ios": "https://dc.lft.to/lastmile_qr_scan", "android": "https://dc.lft.to/lastmile_qr_scan"}, "lon": -77.0429355, "type": "electric_scooter"}, {"bike_id": "1633791a988a37dc983b1fcc08b0064a", "is_reserved": 0, "fusion_lon": 0.0, "lat": 38.905596, "is_disabled": 0, "name": "1633791a988a37dc983b1fcc08b0064a", "fusion_lat": 0.0, "rental_uris": {"ios": "https://dc.lft.to/lastmile_qr_scan", "android": "https://dc.lft.to/lastmile_qr_scan"}, "lon": -77.03599833333334, "type": "electric_scooter"}, {"bike_id": "e565836c95c9e758a09c6ce81ed29684", "is_reserved": 0, "fusion_lon": 0.0, "lat": 38.90797366666666, "is_disabled": 0, "name": "e565836c95c9e758a09c6ce81ed29684", "fusion_lat": 0.0, "rental_uris": {"ios": "https://dc.lft.to/lastmile_qr_scan", "android": "https://dc.lft.to/lastmile_qr_scan"}, "lon": -77.04819633333334, "type": "electric_scooter"}, {"bike_id": "8f72b05bfdf1409152c0a344fc6fdc5d", "is_reserved": 0, "fusion_lon": 0.0, "lat": 38.89911983333333, "is_disabled": 0, "name": "8f72b05bfdf1409152c0a344fc6fdc5d", "fusion_lat": 0.0, "rental_uris": {"ios": "https://dc.lft.to/lastmile_qr_scan", "android": "https://dc.lft.to/lastmile_qr_scan"}, "lon": -77.0405635, "type": "electric_scooter"}, {"bike_id": "21ab3fe4ece95292a330f00543365e26", "is_reserved": 0, "fusion_lon": 0.0, "lat": 38.89563166666667, "is_disabled": 0, "name": "21ab3fe4ece95292a330f00543365e26", "fusion_lat": 0.0, "rental_uris": {"ios": "https://dc.lft.to/lastmile_qr_scan", "android": "https://dc.lft.to/lastmile_qr_scan"}, "lon": -77.12734483333334, "type": "electric_bike"}, {"bike_id": "cce5fc14bcebaf1dcd47c151376e8b16", "is_reserved": 0, "fusion_lon": 0.0, "lat": 38.92255683333333, "is_disabled": 0, "name": "cce5fc14bcebaf1dcd47c151376e8b16", "fusion_lat": 0.0, "rental_uris": {"ios": "https://dc.lft.to/lastmile_qr_scan", "android": "https://dc.lft.to/lastmile_qr_scan"}, "lon": -77.04138983333333, "type": "electric_scooter"}, {"bike_id": "187ecfc6696bb9a573fe6cd3ed795f9d", "is_reserved": 0, "fusion_lon": 0.0, "lat": 38.91915316666667, "is_disabled": 0, "name": "187ecfc6696bb9a573fe6cd3ed795f9d", "fusion_lat": 0.0, "rental_uris": {"ios": "https://dc.lft.to/lastmile_qr_scan", "android": "https://dc.lft.to/lastmile_qr_scan"}, "lon": -77.032167, "type": "electric_scooter"}, {"bike_id": "bc4ebed35b2383c7ed0387ed675671f7", "is_reserved": 0, "fusion_lon": 0.0, "lat": 38.895305, "is_disabled": 0, "name": "bc4ebed35b2383c7ed0387ed675671f7", "fusion_lat": 0.0, "rental_uris": {"ios": "https://dc.lft.to/lastmile_qr_scan", "android": "https://dc.lft.to/lastmile_qr_scan"}, "lon": -77.04842133333334, "type": "electric_scooter"}, {"bike_id": "26f2d52714fd114a23e89d5717843bb3", "is_reserved": 0, "fusion_lon": 0.0, "lat": 38.910383833333334, "is_disabled": 0, "name": "26f2d52714fd114a23e89d5717843bb3", "fusion_lat": 0.0, "rental_uris": {"ios": "https://dc.lft.to/lastmile_qr_scan", "android": "https://dc.lft.to/lastmile_qr_scan"}, "lon": -77.04382283333334, "type": "electric_scooter"}, {"bike_id": "e7a0b788c885161aa6eecdcca371d529", "is_reserved": 0, "fusion_lon": 0.0, "lat": 38.9111145, "is_disabled": 0, "name": "e7a0b788c885161aa6eecdcca371d529", "fusion_lat": 0.0, "rental_uris": {"ios": "https://dc.lft.to/lastmile_qr_scan", "android": "https://dc.lft.to/lastmile_qr_scan"}, "lon": -77.04834466666667, "type": "electric_scooter"}, {"bike_id": "4b1fa4ffd59e35cb50297cc12b97d191", "is_reserved": 0, "fusion_lon": 0.0, "lat": 38.89951633333333, "is_disabled": 0, "name": "4b1fa4ffd59e35cb50297cc12b97d191", "fusion_lat": 0.0, "rental_uris": {"ios": "https://dc.lft.to/lastmile_qr_scan", "android": "https://dc.lft.to/lastmile_qr_scan"}, "lon": -76.97552916666666, "type": "electric_scooter"}, {"bike_id": "a0871d4718616dc3b3ca3ca6a84c0559", "is_reserved": 0, "fusion_lon": 0.0, "lat": 38.90008983333333, "is_disabled": 0, "name": "a0871d4718616dc3b3ca3ca6a84c0559", "fusion_lat": 0.0, "rental_uris": {"ios": "https://dc.lft.to/lastmile_qr_scan", "android": "https://dc.lft.to/lastmile_qr_scan"}, "lon": -77.05226933333333, "type": "electric_scooter"}, {"bike_id": "2fd3e5de2fe26441e328a3f8f79238a9", "is_reserved": 0, "fusion_lon": 0.0, "lat": 38.9002685, "is_disabled": 0, "name": "2fd3e5de2fe26441e328a3f8f79238a9", "fusion_lat": 0.0, "rental_uris": {"ios": "https://dc.lft.to/lastmile_qr_scan", "android": "https://dc.lft.to/lastmile_qr_scan"}, "lon": -76.995337, "type": "electric_scooter"}, {"bike_id": "63ab63350044765e201c52f0e1277c75", "is_reserved": 0, "fusion_lon": 0.0, "lat": 38.894800333333336, "is_disabled": 0, "name": "63ab63350044765e201c52f0e1277c75", "fusion_lat": 0.0, "rental_uris": {"ios": "https://dc.lft.to/lastmile_qr_scan", "android": "https://dc.lft.to/lastmile_qr_scan"}, "lon": -76.948682, "type": "electric_scooter"}, {"bike_id": "9aa8c4432a9ad5c506dbfe290845b5f2", "is_reserved": 0, "fusion_lon": 0.0, "lat": 38.89222216666667, "is_disabled": 0, "name": "9aa8c4432a9ad5c506dbfe290845b5f2", "fusion_lat": 0.0, "rental_uris": {"ios": "https://dc.lft.to/lastmile_qr_scan", "android": "https://dc.lft.to/lastmile_qr_scan"}, "lon": -77.04368533333333, "type": "electric_scooter"}, {"bike_id": "a21eda0f8fe75f5f86e27f30182c8bf6", "is_reserved": 0, "fusion_lon": 0.0, "lat": 38.9062925, "is_disabled": 0, "name": "a21eda0f8fe75f5f86e27f30182c8bf6", "fusion_lat": 0.0, "rental_uris": {"ios": "https://dc.lft.to/lastmile_qr_scan", "android": "https://dc.lft.to/lastmile_qr_scan"}, "lon": -77.0296795, "type": "electric_scooter"}, {"bike_id": "d80ec8d03a428700208cd205004dec65", "is_reserved": 0, "fusion_lon": 0.0, "lat": 38.9257395, "is_disabled": 0, "name": "d80ec8d03a428700208cd205004dec65", "fusion_lat": 0.0, "rental_uris": {"ios": "https://dc.lft.to/lastmile_qr_scan", "android": "https://dc.lft.to/lastmile_qr_scan"}, "lon": -77.03100383333333, "type": "electric_scooter"}, {"bike_id": "1e5692d2989f079e246e2f2933fd84f7", "is_reserved": 0, "fusion_lon": 0.0, "lat": 38.95886683333333, "is_disabled": 0, "name": "1e5692d2989f079e246e2f2933fd84f7", "fusion_lat": 0.0, "rental_uris": {"ios": "https://dc.lft.to/lastmile_qr_scan", "android": "https://dc.lft.to/lastmile_qr_scan"}, "lon": -76.9249005, "type": "electric_bike"}, {"bike_id": "2d9e7ba487c588cdb8d032bed77b11e0", "is_reserved": 0, "fusion_lon": 0.0, "lat": 38.89828966666666, "is_disabled": 0, "name": "2d9e7ba487c588cdb8d032bed77b11e0", "fusion_lat": 0.0, "rental_uris": {"ios": "https://dc.lft.to/lastmile_qr_scan", "android": "https://dc.lft.to/lastmile_qr_scan"}, "lon": -76.98044966666667, "type": "electric_scooter"}, {"bike_id": "ac36d987037ae33da1c1739e86613acd", "is_reserved": 0, "fusion_lon": 0.0, "lat": 38.881116166666665, "is_disabled": 0, "name": "ac36d987037ae33da1c1739e86613acd", "fusion_lat": 0.0, "rental_uris": {"ios": "https://dc.lft.to/lastmile_qr_scan", "android": "https://dc.lft.to/lastmile_qr_scan"}, "lon": -77.01663166666667, "type": "electric_bike"}, {"bike_id": "290b7d99135403951a3ea5dac3a7678d", "is_reserved": 0, "fusion_lon": 0.0, "lat": 38.9067295, "is_disabled": 0, "name": "290b7d99135403951a3ea5dac3a7678d", "fusion_lat": 0.0, "rental_uris": {"ios": "https://dc.lft.to/lastmile_qr_scan", "android": "https://dc.lft.to/lastmile_qr_scan"}, "lon": -76.98784983333333, "type": "electric_scooter"}, {"bike_id": "2d1e768a152bed94666ab1f4e65fac0d", "is_reserved": 0, "fusion_lon": 0.0, "lat": 38.918444, "is_disabled": 0, "name": "2d1e768a152bed94666ab1f4e65fac0d", "fusion_lat": 0.0, "rental_uris": {"ios": "https://dc.lft.to/lastmile_qr_scan", "android": "https://dc.lft.to/lastmile_qr_scan"}, "lon": -77.02303066666667, "type": "electric_scooter"}, {"bike_id": "05f8b804d9682944423c74c3892fb539", "is_reserved": 0, "fusion_lon": 0.0, "lat": 38.88861333333333, "is_disabled": 0, "name": "05f8b804d9682944423c74c3892fb539", "fusion_lat": 0.0, "rental_uris": {"ios": "https://dc.lft.to/lastmile_qr_scan", "android": "https://dc.lft.to/lastmile_qr_scan"}, "lon": -76.99479966666667, "type": "electric_bike"}, {"bike_id": "79710e71d721ac328cdc4845c5f00825", "is_reserved": 0, "fusion_lon": 0.0, "lat": 38.87552983333333, "is_disabled": 0, "name": "79710e71d721ac328cdc4845c5f00825", "fusion_lat": 0.0, "rental_uris": {"ios": "https://dc.lft.to/lastmile_qr_scan", "android": "https://dc.lft.to/lastmile_qr_scan"}, "lon": -76.9649135, "type": "electric_scooter"}, {"bike_id": "e07a41bda65a1fdd33b4fb2bc2b11d05", "is_reserved": 0, "fusion_lon": 0.0, "lat": 38.9090765, "is_disabled": 0, "name": "e07a41bda65a1fdd33b4fb2bc2b11d05", "fusion_lat": 0.0, "rental_uris": {"ios": "https://dc.lft.to/lastmile_qr_scan", "android": "https://dc.lft.to/lastmile_qr_scan"}, "lon": -77.03845716666666, "type": "electric_scooter"}, {"bike_id": "1cf5d129f44683093238e51da361f8f8", "is_reserved": 0, "fusion_lon": 0.0, "lat": 38.87191766666667, "is_disabled": 0, "name": "1cf5d129f44683093238e51da361f8f8", "fusion_lat": 0.0, "rental_uris": {"ios": "https://dc.lft.to/lastmile_qr_scan", "android": "https://dc.lft.to/lastmile_qr_scan"}, "lon": -77.01371533333334, "type": "electric_scooter"}, {"bike_id": "8a229bba5249c317e4cecbc36e441472", "is_reserved": 0, "fusion_lon": 0.0, "lat": 38.936765666666666, "is_disabled": 0, "name": "8a229bba5249c317e4cecbc36e441472", "fusion_lat": 0.0, "rental_uris": {"ios": "https://dc.lft.to/lastmile_qr_scan", "android": "https://dc.lft.to/lastmile_qr_scan"}, "lon": -76.95198466666666, "type": "electric_bike"}, {"bike_id": "7fed549626f4d5d5a319a920ed44989f", "is_reserved": 0, "fusion_lon": 0.0, "lat": 38.928841, "is_disabled": 0, "name": "7fed549626f4d5d5a319a920ed44989f", "fusion_lat": 0.0, "rental_uris": {"ios": "https://dc.lft.to/lastmile_qr_scan", "android": "https://dc.lft.to/lastmile_qr_scan"}, "lon": -77.04044916666666, "type": "electric_scooter"}, {"bike_id": "479d5cc4ec117e18d48cb77c4d02c03f", "is_reserved": 0, "fusion_lon": 0.0, "lat": 38.900218, "is_disabled": 0, "name": "479d5cc4ec117e18d48cb77c4d02c03f", "fusion_lat": 0.0, "rental_uris": {"ios": "https://dc.lft.to/lastmile_qr_scan", "android": "https://dc.lft.to/lastmile_qr_scan"}, "lon": -76.9975945, "type": "electric_scooter"}, {"bike_id": "4072e01792284cbbaffc6be809d8a977", "is_reserved": 0, "fusion_lon": 0.0, "lat": 38.9195165, "is_disabled": 0, "name": "4072e01792284cbbaffc6be809d8a977", "fusion_lat": 0.0, "rental_uris": {"ios": "https://dc.lft.to/lastmile_qr_scan", "android": "https://dc.lft.to/lastmile_qr_scan"}, "lon": -76.9789335, "type": "electric_bike"}, {"bike_id": "fe0ee00b0b8d0630918b69a7073c7311", "is_reserved": 0, "fusion_lon": 0.0, "lat": 38.88521383333333, "is_disabled": 0, "name": "fe0ee00b0b8d0630918b69a7073c7311", "fusion_lat": 0.0, "rental_uris": {"ios": "https://dc.lft.to/lastmile_qr_scan", "android": "https://dc.lft.to/lastmile_qr_scan"}, "lon": -77.0172015, "type": "electric_scooter"}, {"bike_id": "3c8bf439efaca4f2108922d5c07a4f7d", "is_reserved": 0, "fusion_lon": 0.0, "lat": 38.88403866666667, "is_disabled": 0, "name": "3c8bf439efaca4f2108922d5c07a4f7d", "fusion_lat": 0.0, "rental_uris": {"ios": "https://dc.lft.to/lastmile_qr_scan", "android": "https://dc.lft.to/lastmile_qr_scan"}, "lon": -76.96056266666666, "type": "electric_bike"}, {"bike_id": "d5cf7783755ef437a153f2d24c8ee154", "is_reserved": 0, "fusion_lon": 0.0, "lat": 38.9068135, "is_disabled": 0, "name": "d5cf7783755ef437a153f2d24c8ee154", "fusion_lat": 0.0, "rental_uris": {"ios": "https://dc.lft.to/lastmile_qr_scan", "android": "https://dc.lft.to/lastmile_qr_scan"}, "lon": -77.0383425, "type": "electric_scooter"}, {"bike_id": "95ff1cc988e7129418e6884db4c0ab41", "is_reserved": 0, "fusion_lon": 0.0, "lat": 38.911510166666666, "is_disabled": 0, "name": "95ff1cc988e7129418e6884db4c0ab41", "fusion_lat": 0.0, "rental_uris": {"ios": "https://dc.lft.to/lastmile_qr_scan", "android": "https://dc.lft.to/lastmile_qr_scan"}, "lon": -77.0416785, "type": "electric_scooter"}, {"bike_id": "f7b84072035cc0e6fe52b096a74b1c49", "is_reserved": 0, "fusion_lon": 0.0, "lat": 38.922188166666665, "is_disabled": 0, "name": "f7b84072035cc0e6fe52b096a74b1c49", "fusion_lat": 0.0, "rental_uris": {"ios": "https://dc.lft.to/lastmile_qr_scan", "android": "https://dc.lft.to/lastmile_qr_scan"}, "lon": -77.0412415, "type": "electric_scooter"}, {"bike_id": "5db64c4145bdd2fdfe512f6dead77cb1", "is_reserved": 0, "fusion_lon": 0.0, "lat": 38.880063666666665, "is_disabled": 0, "name": "5db64c4145bdd2fdfe512f6dead77cb1", "fusion_lat": 0.0, "rental_uris": {"ios": "https://dc.lft.to/lastmile_qr_scan", "android": "https://dc.lft.to/lastmile_qr_scan"}, "lon": -76.91592816666666, "type": "electric_bike"}, {"bike_id": "1ac7eecc39539ac2406ff5b2f9fa89c3", "is_reserved": 0, "fusion_lon": 0.0, "lat": 38.905628, "is_disabled": 0, "name": "1ac7eecc39539ac2406ff5b2f9fa89c3", "fusion_lat": 0.0, "rental_uris": {"ios": "https://dc.lft.to/lastmile_qr_scan", "android": "https://dc.lft.to/lastmile_qr_scan"}, "lon": -77.03471316666666, "type": "electric_scooter"}, {"bike_id": "0c36fdf50ea5df841edf49d4292156a6", "is_reserved": 0, "fusion_lon": 0.0, "lat": 38.935053333333336, "is_disabled": 0, "name": "0c36fdf50ea5df841edf49d4292156a6", "fusion_lat": 0.0, "rental_uris": {"ios": "https://dc.lft.to/lastmile_qr_scan", "android": "https://dc.lft.to/lastmile_qr_scan"}, "lon": -77.03343616666666, "type": "electric_scooter"}, {"bike_id": "d4fa0971d63de4420d67a32ad82444d7", "is_reserved": 0, "fusion_lon": 0.0, "lat": 38.903703, "is_disabled": 0, "name": "d4fa0971d63de4420d67a32ad82444d7", "fusion_lat": 0.0, "rental_uris": {"ios": "https://dc.lft.to/lastmile_qr_scan", "android": "https://dc.lft.to/lastmile_qr_scan"}, "lon": -77.03892416666666, "type": "electric_scooter"}, {"bike_id": "cf066eb428f37703abb966b2ae138a7c", "is_reserved": 0, "fusion_lon": 0.0, "lat": 38.923346, "is_disabled": 0, "name": "cf066eb428f37703abb966b2ae138a7c", "fusion_lat": 0.0, "rental_uris": {"ios": "https://dc.lft.to/lastmile_qr_scan", "android": "https://dc.lft.to/lastmile_qr_scan"}, "lon": -77.03517216666667, "type": "electric_scooter"}, {"bike_id": "67b2867e6cc8f9548f93b5ac9f9ccfd9", "is_reserved": 0, "fusion_lon": 0.0, "lat": 38.9089445, "is_disabled": 0, "name": "67b2867e6cc8f9548f93b5ac9f9ccfd9", "fusion_lat": 0.0, "rental_uris": {"ios": "https://dc.lft.to/lastmile_qr_scan", "android": "https://dc.lft.to/lastmile_qr_scan"}, "lon": -77.0861785, "type": "electric_scooter"}, {"bike_id": "b392b7696c2a692ed08e88f1c3ed0781", "is_reserved": 0, "fusion_lon": 0.0, "lat": 38.88382933333333, "is_disabled": 0, "name": "b392b7696c2a692ed08e88f1c3ed0781", "fusion_lat": 0.0, "rental_uris": {"ios": "https://dc.lft.to/lastmile_qr_scan", "android": "https://dc.lft.to/lastmile_qr_scan"}, "lon": -76.94921166666667, "type": "electric_scooter"}, {"bike_id": "bd7a41ee97eb0499d32bea37dd8dc437", "is_reserved": 0, "fusion_lon": 0.0, "lat": 38.917203666666666, "is_disabled": 0, "name": "bd7a41ee97eb0499d32bea37dd8dc437", "fusion_lat": 0.0, "rental_uris": {"ios": "https://dc.lft.to/lastmile_qr_scan", "android": "https://dc.lft.to/lastmile_qr_scan"}, "lon": -77.0383775, "type": "electric_scooter"}, {"bike_id": "34892ddb551987aca4aeafda5e675d60", "is_reserved": 0, "fusion_lon": 0.0, "lat": 38.82443333333333, "is_disabled": 0, "name": "34892ddb551987aca4aeafda5e675d60", "fusion_lat": 0.0, "rental_uris": {"ios": "https://dc.lft.to/lastmile_qr_scan", "android": "https://dc.lft.to/lastmile_qr_scan"}, "lon": -77.070446, "type": "electric_bike"}, {"bike_id": "21ce604c13d58d0e9485da813b87bfca", "is_reserved": 0, "fusion_lon": 0.0, "lat": 38.892448333333334, "is_disabled": 0, "name": "21ce604c13d58d0e9485da813b87bfca", "fusion_lat": 0.0, "rental_uris": {"ios": "https://dc.lft.to/lastmile_qr_scan", "android": "https://dc.lft.to/lastmile_qr_scan"}, "lon": -77.03201316666667, "type": "electric_scooter"}, {"bike_id": "98718a82be385bed52fe9e9eec6d6398", "is_reserved": 0, "fusion_lon": 0.0, "lat": 38.90285, "is_disabled": 0, "name": "98718a82be385bed52fe9e9eec6d6398", "fusion_lat": 0.0, "rental_uris": {"ios": "https://dc.lft.to/lastmile_qr_scan", "android": "https://dc.lft.to/lastmile_qr_scan"}, "lon": -77.03670233333334, "type": "electric_scooter"}, {"bike_id": "621fb8860bc11d87226942324b7ae7cc", "is_reserved": 0, "fusion_lon": 0.0, "lat": 38.9208985, "is_disabled": 0, "name": "621fb8860bc11d87226942324b7ae7cc", "fusion_lat": 0.0, "rental_uris": {"ios": "https://dc.lft.to/lastmile_qr_scan", "android": "https://dc.lft.to/lastmile_qr_scan"}, "lon": -77.0242355, "type": "electric_scooter"}, {"bike_id": "3ce26038c8d01f06d32eb4ab37ad534f", "is_reserved": 0, "fusion_lon": 0.0, "lat": 38.93339066666667, "is_disabled": 0, "name": "3ce26038c8d01f06d32eb4ab37ad534f", "fusion_lat": 0.0, "rental_uris": {"ios": "https://dc.lft.to/lastmile_qr_scan", "android": "https://dc.lft.to/lastmile_qr_scan"}, "lon": -77.0419615, "type": "electric_bike"}, {"bike_id": "feaf484dd1085c9e7f1b5e3f52881567", "is_reserved": 0, "fusion_lon": 0.0, "lat": 38.91863266666667, "is_disabled": 0, "name": "feaf484dd1085c9e7f1b5e3f52881567", "fusion_lat": 0.0, "rental_uris": {"ios": "https://dc.lft.to/lastmile_qr_scan", "android": "https://dc.lft.to/lastmile_qr_scan"}, "lon": -76.96091166666666, "type": "electric_bike"}, {"bike_id": "1008b32a89ec8eedeb9715de959a0e9f", "is_reserved": 0, "fusion_lon": 0.0, "lat": 38.925538333333336, "is_disabled": 0, "name": "1008b32a89ec8eedeb9715de959a0e9f", "fusion_lat": 0.0, "rental_uris": {"ios": "https://dc.lft.to/lastmile_qr_scan", "android": "https://dc.lft.to/lastmile_qr_scan"}, "lon": -77.03755083333333, "type": "electric_scooter"}, {"bike_id": "90f3c0be3ac433902d51f96b0f81d32e", "is_reserved": 0, "fusion_lon": 0.0, "lat": 38.95548616666667, "is_disabled": 0, "name": "90f3c0be3ac433902d51f96b0f81d32e", "fusion_lat": 0.0, "rental_uris": {"ios": "https://dc.lft.to/lastmile_qr_scan", "android": "https://dc.lft.to/lastmile_qr_scan"}, "lon": -76.94011966666666, "type": "electric_bike"}, {"bike_id": "9f77b924559dad867b13b8def0564fcb", "is_reserved": 0, "fusion_lon": 0.0, "lat": 38.87937683333333, "is_disabled": 0, "name": "9f77b924559dad867b13b8def0564fcb", "fusion_lat": 0.0, "rental_uris": {"ios": "https://dc.lft.to/lastmile_qr_scan", "android": "https://dc.lft.to/lastmile_qr_scan"}, "lon": -77.00400466666666, "type": "electric_scooter"}, {"bike_id": "5b2fc05d63e7f997eb3171aadfeff243", "is_reserved": 0, "fusion_lon": 0.0, "lat": 38.9005925, "is_disabled": 0, "name": "5b2fc05d63e7f997eb3171aadfeff243", "fusion_lat": 0.0, "rental_uris": {"ios": "https://dc.lft.to/lastmile_qr_scan", "android": "https://dc.lft.to/lastmile_qr_scan"}, "lon": -77.05027633333333, "type": "electric_scooter"}, {"bike_id": "4bca121314680b3edab030783492bb00", "is_reserved": 0, "fusion_lon": 0.0, "lat": 38.89476033333333, "is_disabled": 0, "name": "4bca121314680b3edab030783492bb00", "fusion_lat": 0.0, "rental_uris": {"ios": "https://dc.lft.to/lastmile_qr_scan", "android": "https://dc.lft.to/lastmile_qr_scan"}, "lon": -76.98400216666667, "type": "electric_scooter"}, {"bike_id": "987889e9171770a019e14caf3a06fb4f", "is_reserved": 0, "fusion_lon": 0.0, "lat": 38.8961675, "is_disabled": 0, "name": "987889e9171770a019e14caf3a06fb4f", "fusion_lat": 0.0, "rental_uris": {"ios": "https://dc.lft.to/lastmile_qr_scan", "android": "https://dc.lft.to/lastmile_qr_scan"}, "lon": -76.98124516666667, "type": "electric_scooter"}, {"bike_id": "9f25aa981b31db11188604496eb3e045", "is_reserved": 0, "fusion_lon": 0.0, "lat": 38.879347, "is_disabled": 0, "name": "9f25aa981b31db11188604496eb3e045", "fusion_lat": 0.0, "rental_uris": {"ios": "https://dc.lft.to/lastmile_qr_scan", "android": "https://dc.lft.to/lastmile_qr_scan"}, "lon": -77.0069065, "type": "electric_scooter"}, {"bike_id": "b2f43740c9971579209f365d9896c92b", "is_reserved": 0, "fusion_lon": 0.0, "lat": 38.8972805, "is_disabled": 0, "name": "b2f43740c9971579209f365d9896c92b", "fusion_lat": 0.0, "rental_uris": {"ios": "https://dc.lft.to/lastmile_qr_scan", "android": "https://dc.lft.to/lastmile_qr_scan"}, "lon": -76.92580133333334, "type": "electric_scooter"}, {"bike_id": "d1774b3b3b517fea47d8f4728283ed6c", "is_reserved": 0, "fusion_lon": 0.0, "lat": 38.917093333333334, "is_disabled": 0, "name": "d1774b3b3b517fea47d8f4728283ed6c", "fusion_lat": 0.0, "rental_uris": {"ios": "https://dc.lft.to/lastmile_qr_scan", "android": "https://dc.lft.to/lastmile_qr_scan"}, "lon": -77.03491116666666, "type": "electric_scooter"}, {"bike_id": "2cb059567ba8e362a47ec19ee7578fe3", "is_reserved": 0, "fusion_lon": 0.0, "lat": 38.900229, "is_disabled": 0, "name": "2cb059567ba8e362a47ec19ee7578fe3", "fusion_lat": 0.0, "rental_uris": {"ios": "https://dc.lft.to/lastmile_qr_scan", "android": "https://dc.lft.to/lastmile_qr_scan"}, "lon": -76.9830145, "type": "electric_scooter"}, {"bike_id": "8ecf0d2539ae2e3251b143680a2351d3", "is_reserved": 0, "fusion_lon": 0.0, "lat": 38.8516105, "is_disabled": 0, "name": "8ecf0d2539ae2e3251b143680a2351d3", "fusion_lat": 0.0, "rental_uris": {"ios": "https://dc.lft.to/lastmile_qr_scan", "android": "https://dc.lft.to/lastmile_qr_scan"}, "lon": -77.1287665, "type": "electric_bike"}, {"bike_id": "233200960c58df95adabbf417f882678", "is_reserved": 0, "fusion_lon": 0.0, "lat": 38.95730733333333, "is_disabled": 0, "name": "233200960c58df95adabbf417f882678", "fusion_lat": 0.0, "rental_uris": {"ios": "https://dc.lft.to/lastmile_qr_scan", "android": "https://dc.lft.to/lastmile_qr_scan"}, "lon": -77.02403133333334, "type": "electric_scooter"}, {"bike_id": "09ccee71e984217e78f991dd23e32b92", "is_reserved": 0, "fusion_lon": 0.0, "lat": 38.8657265, "is_disabled": 0, "name": "09ccee71e984217e78f991dd23e32b92", "fusion_lat": 0.0, "rental_uris": {"ios": "https://dc.lft.to/lastmile_qr_scan", "android": "https://dc.lft.to/lastmile_qr_scan"}, "lon": -76.98949216666666, "type": "electric_scooter"}, {"bike_id": "e62070c23f0d9f184581db7b5cfed12f", "is_reserved": 0, "fusion_lon": 0.0, "lat": 38.9025145, "is_disabled": 0, "name": "e62070c23f0d9f184581db7b5cfed12f", "fusion_lat": 0.0, "rental_uris": {"ios": "https://dc.lft.to/lastmile_qr_scan", "android": "https://dc.lft.to/lastmile_qr_scan"}, "lon": -77.01739633333334, "type": "electric_scooter"}, {"bike_id": "3d1f97f4dd20df902a25ec6258ff8b38", "is_reserved": 0, "fusion_lon": 0.0, "lat": 38.9032155, "is_disabled": 0, "name": "3d1f97f4dd20df902a25ec6258ff8b38", "fusion_lat": 0.0, "rental_uris": {"ios": "https://dc.lft.to/lastmile_qr_scan", "android": "https://dc.lft.to/lastmile_qr_scan"}, "lon": -77.03825883333333, "type": "electric_scooter"}, {"bike_id": "4eaed010ac78ac4f4c7febf8fc65104b", "is_reserved": 0, "fusion_lon": 0.0, "lat": 38.9013755, "is_disabled": 0, "name": "4eaed010ac78ac4f4c7febf8fc65104b", "fusion_lat": 0.0, "rental_uris": {"ios": "https://dc.lft.to/lastmile_qr_scan", "android": "https://dc.lft.to/lastmile_qr_scan"}, "lon": -77.04496183333333, "type": "electric_scooter"}, {"bike_id": "a1f39f99aa29fddf6045390dc30a2dc7", "is_reserved": 0, "fusion_lon": 0.0, "lat": 38.886522666666664, "is_disabled": 0, "name": "a1f39f99aa29fddf6045390dc30a2dc7", "fusion_lat": 0.0, "rental_uris": {"ios": "https://dc.lft.to/lastmile_qr_scan", "android": "https://dc.lft.to/lastmile_qr_scan"}, "lon": -77.021375, "type": "electric_scooter"}, {"bike_id": "8a122289ce76c877ea17a4d3d86d2598", "is_reserved": 0, "fusion_lon": 0.0, "lat": 38.906633, "is_disabled": 0, "name": "8a122289ce76c877ea17a4d3d86d2598", "fusion_lat": 0.0, "rental_uris": {"ios": "https://dc.lft.to/lastmile_qr_scan", "android": "https://dc.lft.to/lastmile_qr_scan"}, "lon": -77.000364, "type": "electric_scooter"}, {"bike_id": "a0d2c1e7c54e99cca7251ac9fa332875", "is_reserved": 0, "fusion_lon": 0.0, "lat": 38.90380366666667, "is_disabled": 0, "name": "a0d2c1e7c54e99cca7251ac9fa332875", "fusion_lat": 0.0, "rental_uris": {"ios": "https://dc.lft.to/lastmile_qr_scan", "android": "https://dc.lft.to/lastmile_qr_scan"}, "lon": -76.99831983333333, "type": "electric_scooter"}, {"bike_id": "fc4040c1e764b54f93e85ce0a8475f40", "is_reserved": 0, "fusion_lon": 0.0, "lat": 38.92457733333333, "is_disabled": 0, "name": "fc4040c1e764b54f93e85ce0a8475f40", "fusion_lat": 0.0, "rental_uris": {"ios": "https://dc.lft.to/lastmile_qr_scan", "android": "https://dc.lft.to/lastmile_qr_scan"}, "lon": -76.99915266666666, "type": "electric_scooter"}, {"bike_id": "092df59eb05df9545364a7d8b5f4b30f", "is_reserved": 0, "fusion_lon": 0.0, "lat": 38.813265666666666, "is_disabled": 0, "name": "092df59eb05df9545364a7d8b5f4b30f", "fusion_lat": 0.0, "rental_uris": {"ios": "https://dc.lft.to/lastmile_qr_scan", "android": "https://dc.lft.to/lastmile_qr_scan"}, "lon": -77.05131266666666, "type": "electric_bike"}, {"bike_id": "d328c1453b15f393b95362937d8061bc", "is_reserved": 0, "fusion_lon": 0.0, "lat": 38.90389783333333, "is_disabled": 0, "name": "d328c1453b15f393b95362937d8061bc", "fusion_lat": 0.0, "rental_uris": {"ios": "https://dc.lft.to/lastmile_qr_scan", "android": "https://dc.lft.to/lastmile_qr_scan"}, "lon": -77.03833733333333, "type": "electric_scooter"}, {"bike_id": "d13639110954ef087de9ea1ccb4c75b0", "is_reserved": 0, "fusion_lon": 0.0, "lat": 38.9072395, "is_disabled": 0, "name": "d13639110954ef087de9ea1ccb4c75b0", "fusion_lat": 0.0, "rental_uris": {"ios": "https://dc.lft.to/lastmile_qr_scan", "android": "https://dc.lft.to/lastmile_qr_scan"}, "lon": -77.043443, "type": "electric_scooter"}, {"bike_id": "4610b5c125f9aae7320fa90f45e8647e", "is_reserved": 0, "fusion_lon": 0.0, "lat": 38.917839, "is_disabled": 0, "name": "4610b5c125f9aae7320fa90f45e8647e", "fusion_lat": 0.0, "rental_uris": {"ios": "https://dc.lft.to/lastmile_qr_scan", "android": "https://dc.lft.to/lastmile_qr_scan"}, "lon": -77.02704433333334, "type": "electric_scooter"}, {"bike_id": "93abd4ff1afb0cb602c20977604f5811", "is_reserved": 0, "fusion_lon": 0.0, "lat": 38.912747833333334, "is_disabled": 0, "name": "93abd4ff1afb0cb602c20977604f5811", "fusion_lat": 0.0, "rental_uris": {"ios": "https://dc.lft.to/lastmile_qr_scan", "android": "https://dc.lft.to/lastmile_qr_scan"}, "lon": -77.0269155, "type": "electric_scooter"}, {"bike_id": "ecb0f5351d37078aec59513748754602", "is_reserved": 0, "fusion_lon": 0.0, "lat": 38.915609, "is_disabled": 0, "name": "ecb0f5351d37078aec59513748754602", "fusion_lat": 0.0, "rental_uris": {"ios": "https://dc.lft.to/lastmile_qr_scan", "android": "https://dc.lft.to/lastmile_qr_scan"}, "lon": -77.040164, "type": "electric_scooter"}, {"bike_id": "0fd71fc8b6bb36b5bea01ac88b8868a6", "is_reserved": 0, "fusion_lon": 0.0, "lat": 38.928521333333336, "is_disabled": 0, "name": "0fd71fc8b6bb36b5bea01ac88b8868a6", "fusion_lat": 0.0, "rental_uris": {"ios": "https://dc.lft.to/lastmile_qr_scan", "android": "https://dc.lft.to/lastmile_qr_scan"}, "lon": -77.10678233333333, "type": "electric_bike"}, {"bike_id": "43aecded6a7ff68e619c277aee4ba65b", "is_reserved": 0, "fusion_lon": 0.0, "lat": 38.923585833333334, "is_disabled": 0, "name": "43aecded6a7ff68e619c277aee4ba65b", "fusion_lat": 0.0, "rental_uris": {"ios": "https://dc.lft.to/lastmile_qr_scan", "android": "https://dc.lft.to/lastmile_qr_scan"}, "lon": -77.05227533333333, "type": "electric_scooter"}, {"bike_id": "7b2f3ebc2bdda5c20b4d696baf350117", "is_reserved": 0, "fusion_lon": 0.0, "lat": 38.89891216666667, "is_disabled": 0, "name": "7b2f3ebc2bdda5c20b4d696baf350117", "fusion_lat": 0.0, "rental_uris": {"ios": "https://dc.lft.to/lastmile_qr_scan", "android": "https://dc.lft.to/lastmile_qr_scan"}, "lon": -77.03957216666667, "type": "electric_scooter"}, {"bike_id": "7b96fb8338d30b8b2f95ce589af08483", "is_reserved": 0, "fusion_lon": 0.0, "lat": 38.92562733333333, "is_disabled": 0, "name": "7b96fb8338d30b8b2f95ce589af08483", "fusion_lat": 0.0, "rental_uris": {"ios": "https://dc.lft.to/lastmile_qr_scan", "android": "https://dc.lft.to/lastmile_qr_scan"}, "lon": -77.040396, "type": "electric_scooter"}, {"bike_id": "cbe59250c0996bacbd6cd070d0abcc06", "is_reserved": 0, "fusion_lon": 0.0, "lat": 38.9483105, "is_disabled": 0, "name": "cbe59250c0996bacbd6cd070d0abcc06", "fusion_lat": 0.0, "rental_uris": {"ios": "https://dc.lft.to/lastmile_qr_scan", "android": "https://dc.lft.to/lastmile_qr_scan"}, "lon": -77.0241765, "type": "electric_scooter"}, {"bike_id": "6c10a97a7663d92f47ba3f94c347f1a3", "is_reserved": 0, "fusion_lon": 0.0, "lat": 38.924046, "is_disabled": 0, "name": "6c10a97a7663d92f47ba3f94c347f1a3", "fusion_lat": 0.0, "rental_uris": {"ios": "https://dc.lft.to/lastmile_qr_scan", "android": "https://dc.lft.to/lastmile_qr_scan"}, "lon": -77.05257333333333, "type": "electric_scooter"}, {"bike_id": "bd81dba0684669ba8c42b3ac8ae853e7", "is_reserved": 0, "fusion_lon": 0.0, "lat": 38.89877383333334, "is_disabled": 0, "name": "bd81dba0684669ba8c42b3ac8ae853e7", "fusion_lat": 0.0, "rental_uris": {"ios": "https://dc.lft.to/lastmile_qr_scan", "android": "https://dc.lft.to/lastmile_qr_scan"}, "lon": -76.93161433333333, "type": "electric_scooter"}, {"bike_id": "427dcd0561b032f65ff04606960bc712", "is_reserved": 0, "fusion_lon": 0.0, "lat": 38.909598, "is_disabled": 0, "name": "427dcd0561b032f65ff04606960bc712", "fusion_lat": 0.0, "rental_uris": {"ios": "https://dc.lft.to/lastmile_qr_scan", "android": "https://dc.lft.to/lastmile_qr_scan"}, "lon": -77.036812, "type": "electric_scooter"}, {"bike_id": "1d1ed62ccb8c4fa8c40062bd8419c27b", "is_reserved": 0, "fusion_lon": 0.0, "lat": 38.9073035, "is_disabled": 0, "name": "1d1ed62ccb8c4fa8c40062bd8419c27b", "fusion_lat": 0.0, "rental_uris": {"ios": "https://dc.lft.to/lastmile_qr_scan", "android": "https://dc.lft.to/lastmile_qr_scan"}, "lon": -77.03217966666666, "type": "electric_scooter"}, {"bike_id": "c5b502bf0666eda1217de22adc483141", "is_reserved": 0, "fusion_lon": 0.0, "lat": 38.88375333333333, "is_disabled": 0, "name": "c5b502bf0666eda1217de22adc483141", "fusion_lat": 0.0, "rental_uris": {"ios": "https://dc.lft.to/lastmile_qr_scan", "android": "https://dc.lft.to/lastmile_qr_scan"}, "lon": -77.02438716666667, "type": "electric_scooter"}, {"bike_id": "6841a773cd5c55d16d14e358e2a1a5c0", "is_reserved": 0, "fusion_lon": 0.0, "lat": 38.8803925, "is_disabled": 0, "name": "6841a773cd5c55d16d14e358e2a1a5c0", "fusion_lat": 0.0, "rental_uris": {"ios": "https://dc.lft.to/lastmile_qr_scan", "android": "https://dc.lft.to/lastmile_qr_scan"}, "lon": -76.92722666666667, "type": "electric_scooter"}, {"bike_id": "8e48095431a14d063f5da733c73ac292", "is_reserved": 0, "fusion_lon": 0.0, "lat": 38.911448666666665, "is_disabled": 0, "name": "8e48095431a14d063f5da733c73ac292", "fusion_lat": 0.0, "rental_uris": {"ios": "https://dc.lft.to/lastmile_qr_scan", "android": "https://dc.lft.to/lastmile_qr_scan"}, "lon": -77.04163816666667, "type": "electric_scooter"}, {"bike_id": "6be402d7c3c7d9c9dd3d8607ec865722", "is_reserved": 0, "fusion_lon": 0.0, "lat": 38.92442916666667, "is_disabled": 0, "name": "6be402d7c3c7d9c9dd3d8607ec865722", "fusion_lat": 0.0, "rental_uris": {"ios": "https://dc.lft.to/lastmile_qr_scan", "android": "https://dc.lft.to/lastmile_qr_scan"}, "lon": -77.033578, "type": "electric_scooter"}, {"bike_id": "f76734c2b3772b41242bcd29133cb893", "is_reserved": 0, "fusion_lon": 0.0, "lat": 38.9556065, "is_disabled": 0, "name": "f76734c2b3772b41242bcd29133cb893", "fusion_lat": 0.0, "rental_uris": {"ios": "https://dc.lft.to/lastmile_qr_scan", "android": "https://dc.lft.to/lastmile_qr_scan"}, "lon": -76.93549616666667, "type": "electric_bike"}, {"bike_id": "19e6b79434ab07fbd67c25528a83f455", "is_reserved": 0, "fusion_lon": 0.0, "lat": 38.8921925, "is_disabled": 0, "name": "19e6b79434ab07fbd67c25528a83f455", "fusion_lat": 0.0, "rental_uris": {"ios": "https://dc.lft.to/lastmile_qr_scan", "android": "https://dc.lft.to/lastmile_qr_scan"}, "lon": -77.03222383333333, "type": "electric_scooter"}, {"bike_id": "716c66f8ade452e2cb29f0c9d20c167c", "is_reserved": 0, "fusion_lon": 0.0, "lat": 38.90561133333333, "is_disabled": 0, "name": "716c66f8ade452e2cb29f0c9d20c167c", "fusion_lat": 0.0, "rental_uris": {"ios": "https://dc.lft.to/lastmile_qr_scan", "android": "https://dc.lft.to/lastmile_qr_scan"}, "lon": -77.004162, "type": "electric_scooter"}, {"bike_id": "0e95c19d8763506cb92f3c443263de3c", "is_reserved": 0, "fusion_lon": 0.0, "lat": 38.92315166666667, "is_disabled": 0, "name": "0e95c19d8763506cb92f3c443263de3c", "fusion_lat": 0.0, "rental_uris": {"ios": "https://dc.lft.to/lastmile_qr_scan", "android": "https://dc.lft.to/lastmile_qr_scan"}, "lon": -77.02965133333333, "type": "electric_scooter"}, {"bike_id": "a30ed928e253db0314c8491ccc11c628", "is_reserved": 0, "fusion_lon": 0.0, "lat": 38.9342705, "is_disabled": 0, "name": "a30ed928e253db0314c8491ccc11c628", "fusion_lat": 0.0, "rental_uris": {"ios": "https://dc.lft.to/lastmile_qr_scan", "android": "https://dc.lft.to/lastmile_qr_scan"}, "lon": -77.0340675, "type": "electric_scooter"}, {"bike_id": "e51380fa9b069a84f89e75c3508552fa", "is_reserved": 0, "fusion_lon": 0.0, "lat": 38.924517, "is_disabled": 0, "name": "e51380fa9b069a84f89e75c3508552fa", "fusion_lat": 0.0, "rental_uris": {"ios": "https://dc.lft.to/lastmile_qr_scan", "android": "https://dc.lft.to/lastmile_qr_scan"}, "lon": -77.03400416666666, "type": "electric_scooter"}, {"bike_id": "16bb3627389b0e023d176285fdbca14d", "is_reserved": 0, "fusion_lon": 0.0, "lat": 38.89185666666667, "is_disabled": 0, "name": "16bb3627389b0e023d176285fdbca14d", "fusion_lat": 0.0, "rental_uris": {"ios": "https://dc.lft.to/lastmile_qr_scan", "android": "https://dc.lft.to/lastmile_qr_scan"}, "lon": -77.12260733333333, "type": "electric_bike"}, {"bike_id": "533dfbbd98c3ae5ee2afc9531ecdb893", "is_reserved": 0, "fusion_lon": 0.0, "lat": 38.93592233333333, "is_disabled": 0, "name": "533dfbbd98c3ae5ee2afc9531ecdb893", "fusion_lat": 0.0, "rental_uris": {"ios": "https://dc.lft.to/lastmile_qr_scan", "android": "https://dc.lft.to/lastmile_qr_scan"}, "lon": -77.02328, "type": "electric_scooter"}, {"bike_id": "8d43e905ddb674c7ca8442c5eb2f5ff3", "is_reserved": 0, "fusion_lon": 0.0, "lat": 38.906772333333336, "is_disabled": 0, "name": "8d43e905ddb674c7ca8442c5eb2f5ff3", "fusion_lat": 0.0, "rental_uris": {"ios": "https://dc.lft.to/lastmile_qr_scan", "android": "https://dc.lft.to/lastmile_qr_scan"}, "lon": -76.97809033333333, "type": "electric_scooter"}, {"bike_id": "4769ea501920a056ebd7edda18afd4e4", "is_reserved": 0, "fusion_lon": 0.0, "lat": 38.91759416666667, "is_disabled": 0, "name": "4769ea501920a056ebd7edda18afd4e4", "fusion_lat": 0.0, "rental_uris": {"ios": "https://dc.lft.to/lastmile_qr_scan", "android": "https://dc.lft.to/lastmile_qr_scan"}, "lon": -77.01490066666666, "type": "electric_scooter"}, {"bike_id": "ee6a25fbf23204189df93c028add20fc", "is_reserved": 0, "fusion_lon": 0.0, "lat": 38.92558983333333, "is_disabled": 0, "name": "ee6a25fbf23204189df93c028add20fc", "fusion_lat": 0.0, "rental_uris": {"ios": "https://dc.lft.to/lastmile_qr_scan", "android": "https://dc.lft.to/lastmile_qr_scan"}, "lon": -77.00135783333333, "type": "electric_bike"}, {"bike_id": "03711ffd255f75fefe35d1d09af6cb6e", "is_reserved": 0, "fusion_lon": 0.0, "lat": 38.90857966666667, "is_disabled": 0, "name": "03711ffd255f75fefe35d1d09af6cb6e", "fusion_lat": 0.0, "rental_uris": {"ios": "https://dc.lft.to/lastmile_qr_scan", "android": "https://dc.lft.to/lastmile_qr_scan"}, "lon": -77.02589016666667, "type": "electric_scooter"}, {"bike_id": "e748040cd033f3c9469becdaa335f43e", "is_reserved": 0, "fusion_lon": 0.0, "lat": 38.924709666666665, "is_disabled": 0, "name": "e748040cd033f3c9469becdaa335f43e", "fusion_lat": 0.0, "rental_uris": {"ios": "https://dc.lft.to/lastmile_qr_scan", "android": "https://dc.lft.to/lastmile_qr_scan"}, "lon": -77.20837983333334, "type": "electric_bike"}, {"bike_id": "077b949d2aa00366a36427f679b43a9d", "is_reserved": 0, "fusion_lon": 0.0, "lat": 38.9083465, "is_disabled": 0, "name": "077b949d2aa00366a36427f679b43a9d", "fusion_lat": 0.0, "rental_uris": {"ios": "https://dc.lft.to/lastmile_qr_scan", "android": "https://dc.lft.to/lastmile_qr_scan"}, "lon": -76.99705466666667, "type": "electric_scooter"}, {"bike_id": "85ac55f511511b146fc9c2804670a902", "is_reserved": 0, "fusion_lon": 0.0, "lat": 38.92010366666667, "is_disabled": 0, "name": "85ac55f511511b146fc9c2804670a902", "fusion_lat": 0.0, "rental_uris": {"ios": "https://dc.lft.to/lastmile_qr_scan", "android": "https://dc.lft.to/lastmile_qr_scan"}, "lon": -77.04175, "type": "electric_scooter"}, {"bike_id": "14d5c32d627a8d2a1acf0ce96650830a", "is_reserved": 0, "fusion_lon": 0.0, "lat": 38.9096595, "is_disabled": 0, "name": "14d5c32d627a8d2a1acf0ce96650830a", "fusion_lat": 0.0, "rental_uris": {"ios": "https://dc.lft.to/lastmile_qr_scan", "android": "https://dc.lft.to/lastmile_qr_scan"}, "lon": -77.04821333333334, "type": "electric_scooter"}, {"bike_id": "58a4b66db63e32ea66f216c62a07f7ca", "is_reserved": 0, "fusion_lon": 0.0, "lat": 38.88413766666667, "is_disabled": 0, "name": "58a4b66db63e32ea66f216c62a07f7ca", "fusion_lat": 0.0, "rental_uris": {"ios": "https://dc.lft.to/lastmile_qr_scan", "android": "https://dc.lft.to/lastmile_qr_scan"}, "lon": -77.01718083333333, "type": "electric_scooter"}, {"bike_id": "c0755ccac58518ed5302155a272c3eb6", "is_reserved": 0, "fusion_lon": 0.0, "lat": 38.924782666666665, "is_disabled": 0, "name": "c0755ccac58518ed5302155a272c3eb6", "fusion_lat": 0.0, "rental_uris": {"ios": "https://dc.lft.to/lastmile_qr_scan", "android": "https://dc.lft.to/lastmile_qr_scan"}, "lon": -77.028275, "type": "electric_scooter"}, {"bike_id": "0471e971924fcb8cdccf4046b69bd52a", "is_reserved": 0, "fusion_lon": 0.0, "lat": 38.90475716666667, "is_disabled": 0, "name": "0471e971924fcb8cdccf4046b69bd52a", "fusion_lat": 0.0, "rental_uris": {"ios": "https://dc.lft.to/lastmile_qr_scan", "android": "https://dc.lft.to/lastmile_qr_scan"}, "lon": -77.0466485, "type": "electric_scooter"}, {"bike_id": "21537d7f1ece2dffc7d72f538c869b7f", "is_reserved": 0, "fusion_lon": 0.0, "lat": 38.897659, "is_disabled": 0, "name": "21537d7f1ece2dffc7d72f538c869b7f", "fusion_lat": 0.0, "rental_uris": {"ios": "https://dc.lft.to/lastmile_qr_scan", "android": "https://dc.lft.to/lastmile_qr_scan"}, "lon": -77.03176283333333, "type": "electric_scooter"},