{"data": {"bikes": [{"type": "electric_scooter", "name": "011ab9391491697337629caf0949926a", "rental_uris": {"ios": "https://dc.lft.to/lastmile_qr_scan", "android": "https://dc.lft.to/lastmile_qr_scan"}, "fusion_lon": 0.0, "lat": 38.915751666666665, "is_disabled": 0, "bike_id": "011ab9391491697337629caf0949926a", "fusion_lat": 0.0, "is_reserved": 0, "lon": -77.03850016666667}, {"type": "electric_scooter", "name": "05d5913deba453abb842e3ca9a8ba7f3", "rental_uris": {"ios": "https://dc.lft.to/lastmile_qr_scan", "android": "https://dc.lft.to/lastmile_qr_scan"}, "fusion_lon": 0.0, "lat": 38.90576683333333, "is_disabled": 0, "bike_id": "05d5913deba453abb842e3ca9a8ba7f3", "fusion_lat": 0.0, "is_reserved": 0, "lon": -77.0220625}, {"type": "electric_scooter", "name": "2482d2a3ead8fc7b58a6aa533199a1db", "rental_uris": {"ios": "https://dc.lft.to/lastmile_qr_scan", "android": "https://dc.lft.to/lastmile_qr_scan"}, "fusion_lon": 0.0, "lat": 38.94268783333333, "is_disabled": 0, "bike_id": "2482d2a3ead8fc7b58a6aa533199a1db", "fusion_lat": 0.0, "is_reserved": 0, "lon": -77.03258433333333}, {"type": "electric_scooter", "name": "e249a6f63aeca9c9a1d4e915dca48411", "rental_uris": {"ios": "https://dc.lft.to/lastmile_qr_scan", "android": "https://dc.lft.to/lastmile_qr_scan"}, "fusion_lon": 0.0, "lat": 38.92071683333333, "is_disabled": 0, "bike_id": "e249a6f63aeca9c9a1d4e915dca48411", "fusion_lat": 0.0, "is_reserved": 0, "lon": -77.03790766666667}, {"type": "electric_scooter", "name": "113aadbb9c592e5b1bfaf026a9b59466", "rental_uris": {"ios": "https://dc.lft.to/lastmile_qr_scan", "android": "https://dc.lft.to/lastmile_qr_scan"}, "fusion_lon": 0.0, "lat": 38.9041045, "is_disabled": 0, "bike_id": "113aadbb9c592e5b1bfaf026a9b59466", "fusion_lat": 0.0, "is_reserved": 0, "lon": -76.97328416666667}, {"type": "electric_scooter", "name": "93dd82b55acdf8822bc0552e14956756", "rental_uris": {"ios": "https://dc.lft.to/lastmile_qr_scan", "android": "https://dc.lft.to/lastmile_qr_scan"}, "fusion_lon": 0.0, "lat": 38.87245216666667, "is_disabled": 0, "bike_id": "93dd82b55acdf8822bc0552e14956756", "fusion_lat": 0.0, "is_reserved": 0, "lon": -76.97724483333333}, {"type": "electric_scooter", "name": "25346f588bfc2dec8105f448b2c51f0c", "rental_uris": {"ios": "https://dc.lft.to/lastmile_qr_scan", "android": "https://dc.lft.to/lastmile_qr_scan"}, "fusion_lon": 0.0, "lat": 38.905106, "is_disabled": 0, "bike_id": "25346f588bfc2dec8105f448b2c51f0c", "fusion_lat": 0.0, "is_reserved": 0, "lon": -77.06316733333334}, {"type": "electric_bike", "name": "ebcfea1901b8d2fb57e0c19a69b25781", "rental_uris": {"ios": "https://dc.lft.to/lastmile_qr_scan", "android": "https://dc.lft.to/lastmile_qr_scan"}, "fusion_lon": 0.0, "lat": 38.92080933333333, "is_disabled": 0, "bike_id": "ebcfea1901b8d2fb57e0c19a69b25781", "fusion_lat": 0.0, "is_reserved": 0, "lon": -77.02417116666666}, {"type": "electric_scooter", "name": "ece199d8db04108d5b71531c84b5e8cc", "rental_uris": {"ios": "https://dc.lft.to/lastmile_qr_scan", "android": "https://dc.lft.to/lastmile_qr_scan"}, "fusion_lon": 0.0, "lat": 38.884901, "is_disabled": 0, "bike_id": "ece199d8db04108d5b71531c84b5e8cc", "fusion_lat": 0.0, "is_reserved": 0, "lon": -77.00707833333334}, {"type": "electric_bike", "name": "fc556e81e01b2113ec9fadb7c028e587", "rental_uris": {"ios": "https://dc.lft.to/lastmile_qr_scan", "android": "https://dc.lft.to/lastmile_qr_scan"}, "fusion_lon": 0.0, "lat": 38.987690666666666, "is_disabled": 0, "bike_id": "fc556e81e01b2113ec9fadb7c028e587", "fusion_lat": 0.0, "is_reserved": 0, "lon": -77.14056416666666}, {"type": "electric_scooter", "name": "6c3b3ff2a7c45b1a63a6568ecfd3ea14", "rental_uris": {"ios": "https://dc.lft.to/lastmile_qr_scan", "android": "https://dc.lft.to/lastmile_qr_scan"}, "fusion_lon": 0.0, "lat": 38.902574, "is_disabled": 0, "bike_id": "6c3b3ff2a7c45b1a63a6568ecfd3ea14", "fusion_lat": 0.0, "is_reserved": 0, "lon": -77.03528966666667}, {"type": "electric_scooter", "name": "7a9dd86b8e8647983cb69e6ba8bfcde7", "rental_uris": {"ios": "https://dc.lft.to/lastmile_qr_scan", "android": "https://dc.lft.to/lastmile_qr_scan"}, "fusion_lon": 0.0, "lat": 38.897270166666665, "is_disabled": 0, "bike_id": "7a9dd86b8e8647983cb69e6ba8bfcde7", "fusion_lat": 0.0, "is_reserved": 0, "lon": -77.04856783333334}, {"type": "electric_bike", "name": "34473d2474a418f91c8acf7b4202f376", "rental_uris": {"ios": "https://dc.lft.to/lastmile_qr_scan", "android": "https://dc.lft.to/lastmile_qr_scan"}, "fusion_lon": 0.0, "lat": 38.926620166666666, "is_disabled": 0, "bike_id": "34473d2474a418f91c8acf7b4202f376", "fusion_lat": 0.0, "is_reserved": 0, "lon": -77.09847183333333}, {"type": "electric_scooter", "name": "d097579db9d989cfc73ce9899b194f42", "rental_uris": {"ios": "https://dc.lft.to/lastmile_qr_scan", "android": "https://dc.lft.to/lastmile_qr_scan"}, "fusion_lon": 0.0, "lat": 38.900932833333336, "is_disabled": 0, "bike_id": "d097579db9d989cfc73ce9899b194f42", "fusion_lat": 0.0, "is_reserved": 0, "lon": -77.050298}, {"type": "electric_scooter", "name": "e8bd70575ea9f14908034a884d6acb55", "rental_uris": {"ios": "https://dc.lft.to/lastmile_qr_scan", "android": "https://dc.lft.to/lastmile_qr_scan"}, "fusion_lon": 0.0, "lat": 38.9169365, "is_disabled": 0, "bike_id": "e8bd70575ea9f14908034a884d6acb55", "fusion_lat": 0.0, "is_reserved": 0, "lon": -77.00743583333333}, {"type": "electric_scooter", "name": "04987f39646927e1a9708406088114bb", "rental_uris": {"ios": "https://dc.lft.to/lastmile_qr_scan", "android": "https://dc.lft.to/lastmile_qr_scan"}, "fusion_lon": 0.0, "lat": 38.89430933333333, "is_disabled": 0, "bike_id": "04987f39646927e1a9708406088114bb", "fusion_lat": 0.0, "is_reserved": 0, "lon": -77.0263285}, {"type": "electric_scooter", "name": "12b0ba5933ea3181d151d59ce33ac41d", "rental_uris": {"ios": "https://dc.lft.to/lastmile_qr_scan", "android": "https://dc.lft.to/lastmile_qr_scan"}, "fusion_lon": 0.0, "lat": 38.897202666666665, "is_disabled": 0, "bike_id": "12b0ba5933ea3181d151d59ce33ac41d", "fusion_lat": 0.0, "is_reserved": 0, "lon": -77.02010333333334}, {"type": "electric_bike", "name": "937ec8ea603473882c3f095e88efa474", "rental_uris": {"ios": "https://dc.lft.to/lastmile_qr_scan", "android": "https://dc.lft.to/lastmile_qr_scan"}, "fusion_lon": 0.0, "lat": 38.957404, "is_disabled": 0, "bike_id": "937ec8ea603473882c3f095e88efa474", "fusion_lat": 0.0, "is_reserved": 0, "lon": -76.972536}, {"type": "electric_bike", "name": "7663c36f2ff896d4986a9b2783e005f0", "rental_uris": {"ios": "https://dc.lft.to/lastmile_qr_scan", "android": "https://dc.lft.to/lastmile_qr_scan"}, "fusion_lon": 0.0, "lat": 38.957452, "is_disabled": 0, "bike_id": "7663c36f2ff896d4986a9b2783e005f0", "fusion_lat": 0.0, "is_reserved": 0, "lon": -76.97255483333333}, {"type": "electric_scooter", "name": "ebc56db8c4e7c063579e80d73da58444", "rental_uris": {"ios": "https://dc.lft.to/lastmile_qr_scan", "android": "https://dc.lft.to/lastmile_qr_scan"}, "fusion_lon": 0.0, "lat": 38.90665516666667, "is_disabled": 0, "bike_id": "ebc56db8c4e7c063579e80d73da58444", "fusion_lat": 0.0, "is_reserved": 0, "lon": -77.02594633333334}, {"type": "electric_scooter", "name": "14255702588ab1d571838a7ce905e0d2", "rental_uris": {"ios": "https://dc.lft.to/lastmile_qr_scan", "android": "https://dc.lft.to/lastmile_qr_scan"}, "fusion_lon": 0.0, "lat": 38.9068195, "is_disabled": 0, "bike_id": "14255702588ab1d571838a7ce905e0d2", "fusion_lat": 0.0, "is_reserved": 0, "lon": -77.0613995}, {"type": "electric_scooter", "name": "882559d318e4f670e3cc60a8a448b3f1", "rental_uris": {"ios": "https://dc.lft.to/lastmile_qr_scan", "android": "https://dc.lft.to/lastmile_qr_scan"}, "fusion_lon": 0.0, "lat": 38.93222133333333, "is_disabled": 0, "bike_id": "882559d318e4f670e3cc60a8a448b3f1", "fusion_lat": 0.0, "is_reserved": 0, "lon": -77.02681766666667}, {"type": "electric_scooter", "name": "f27fc3268d8e43f8e6b7d26ca1b14f5d", "rental_uris": {"ios": "https://dc.lft.to/lastmile_qr_scan", "android": "https://dc.lft.to/lastmile_qr_scan"}, "fusion_lon": 0.0, "lat": 38.900397, "is_disabled": 0, "bike_id": "f27fc3268d8e43f8e6b7d26ca1b14f5d", "fusion_lat": 0.0, "is_reserved": 0, "lon": -77.00117466666667}, {"type": "electric_scooter", "name": "34e30e15a5389f4669822d3635196492", "rental_uris": {"ios": "https://dc.lft.to/lastmile_qr_scan", "android": "https://dc.lft.to/lastmile_qr_scan"}, "fusion_lon": 0.0, "lat": 38.91270633333333, "is_disabled": 0, "bike_id": "34e30e15a5389f4669822d3635196492", "fusion_lat": 0.0, "is_reserved": 0, "lon": -77.0221315}, {"type": "electric_scooter", "name": "4b4aaddb92348df10c56adbe80e0ab73", "rental_uris": {"ios": "https://dc.lft.to/lastmile_qr_scan", "android": "https://dc.lft.to/lastmile_qr_scan"}, "fusion_lon": 0.0, "lat": 38.903803333333336, "is_disabled": 0, "bike_id": "4b4aaddb92348df10c56adbe80e0ab73", "fusion_lat": 0.0, "is_reserved": 0, "lon": -77.04836233333333}, {"type": "electric_scooter", "name": "3f67544257d61fc5d57b688430f9b6cb", "rental_uris": {"ios": "https://dc.lft.to/lastmile_qr_scan", "android": "https://dc.lft.to/lastmile_qr_scan"}, "fusion_lon": 0.0, "lat": 38.90663966666666, "is_disabled": 0, "bike_id": "3f67544257d61fc5d57b688430f9b6cb", "fusion_lat": 0.0, "is_reserved": 0, "lon": -77.01087833333334}, {"type": "electric_scooter", "name": "6fbfbeaca1e025c5e675b795a15ef17e", "rental_uris": {"ios": "https://dc.lft.to/lastmile_qr_scan", "android": "https://dc.lft.to/lastmile_qr_scan"}, "fusion_lon": 0.0, "lat": 38.919441666666664, "is_disabled": 0, "bike_id": "6fbfbeaca1e025c5e675b795a15ef17e", "fusion_lat": 0.0, "is_reserved": 0, "lon": -77.02331233333334}, {"type": "electric_scooter", "name": "eeba9e95b8bb566c82f7d5ea50c34372", "rental_uris": {"ios": "https://dc.lft.to/lastmile_qr_scan", "android": "https://dc.lft.to/lastmile_qr_scan"}, "fusion_lon": 0.0, "lat": 38.9096745, "is_disabled": 0, "bike_id": "eeba9e95b8bb566c82f7d5ea50c34372", "fusion_lat": 0.0, "is_reserved": 0, "lon": -77.01944816666666}, {"type": "electric_scooter", "name": "dd9481d3056ab8ebc0e27637ed87e9e3", "rental_uris": {"ios": "https://dc.lft.to/lastmile_qr_scan", "android": "https://dc.lft.to/lastmile_qr_scan"}, "fusion_lon": 0.0, "lat": 38.959372, "is_disabled": 0, "bike_id": "dd9481d3056ab8ebc0e27637ed87e9e3", "fusion_lat": 0.0, "is_reserved": 0, "lon": -77.03116133333333}, {"type": "electric_scooter", "name": "13ea0a35180955ee165f4503bcb38e72", "rental_uris": {"ios": "https://dc.lft.to/lastmile_qr_scan", "android": "https://dc.lft.to/lastmile_qr_scan"}, "fusion_lon": 0.0, "lat": 38.90420116666667, "is_disabled": 0, "bike_id": "13ea0a35180955ee165f4503bcb38e72", "fusion_lat": 0.0, "is_reserved": 0, "lon": -77.0258625}, {"type": "electric_scooter", "name": "2da71a6bb9fb01711180fcd474bdc30d", "rental_uris": {"ios": "https://dc.lft.to/lastmile_qr_scan", "android": "https://dc.lft.to/lastmile_qr_scan"}, "fusion_lon": 0.0, "lat": 38.9298865, "is_disabled": 0, "bike_id": "2da71a6bb9fb01711180fcd474bdc30d", "fusion_lat": 0.0, "is_reserved": 0, "lon": -77.01049733333333}, {"type": "electric_bike", "name": "0c0b2c0fd2c8faedcf26611eaeb6a8ee", "rental_uris": {"ios": "https://dc.lft.to/lastmile_qr_scan", "android": "https://dc.lft.to/lastmile_qr_scan"}, "fusion_lon": 0.0, "lat": 38.845063, "is_disabled": 0, "bike_id": "0c0b2c0fd2c8faedcf26611eaeb6a8ee", "fusion_lat": 0.0, "is_reserved": 0, "lon": -76.9935005}, {"type": "electric_scooter", "name": "bcc1e7eb8539f135f576dd9fae344264", "rental_uris": {"ios": "https://dc.lft.to/lastmile_qr_scan", "android": "https://dc.lft.to/lastmile_qr_scan"}, "fusion_lon": 0.0, "lat": 38.9181695, "is_disabled": 0, "bike_id": "bcc1e7eb8539f135f576dd9fae344264", "fusion_lat": 0.0, "is_reserved": 0, "lon": -77.04177466666667}, {"type": "electric_scooter", "name": "e6cdd6fe124176dd73c32f3d7288c090", "rental_uris": {"ios": "https://dc.lft.to/lastmile_qr_scan", "android": "https://dc.lft.to/lastmile_qr_scan"}, "fusion_lon": 0.0, "lat": 38.916939666666664, "is_disabled": 0, "bike_id": "e6cdd6fe124176dd73c32f3d7288c090", "fusion_lat": 0.0, "is_reserved": 0, "lon": -77.02951983333334}, {"type": "electric_scooter", "name": "49cb5351d09676ff4b230c60af19f655", "rental_uris": {"ios": "https://dc.lft.to/lastmile_qr_scan", "android": "https://dc.lft.to/lastmile_qr_scan"}, "fusion_lon": 0.0, "lat": 38.930805166666666, "is_disabled": 0, "bike_id": "49cb5351d09676ff4b230c60af19f655", "fusion_lat": 0.0, "is_reserved": 0, "lon": -77.026139}, {"type": "electric_scooter", "name": "2413f0e5d9afa014d09bef7056ff935b", "rental_uris": {"ios": "https://dc.lft.to/lastmile_qr_scan", "android": "https://dc.lft.to/lastmile_qr_scan"}, "fusion_lon": 0.0, "lat": 38.927140666666666, "is_disabled": 0, "bike_id": "2413f0e5d9afa014d09bef7056ff935b", "fusion_lat": 0.0, "is_reserved": 0, "lon": -77.01594733333333}, {"type": "electric_bike", "name": "5c2d850549009a5e99cdd95e239cbaaf", "rental_uris": {"ios": "https://dc.lft.to/lastmile_qr_scan", "android": "https://dc.lft.to/lastmile_qr_scan"}, "fusion_lon": 0.0, "lat": 38.84990466666667, "is_disabled": 0, "bike_id": "5c2d850549009a5e99cdd95e239cbaaf", "fusion_lat": 0.0, "is_reserved": 0, "lon": -77.09754766666667}, {"type": "electric_scooter", "name": "f447ae13e21684eb2b40d183e4d3bf9b", "rental_uris": {"ios": "https://dc.lft.to/lastmile_qr_scan", "android": "https://dc.lft.to/lastmile_qr_scan"}, "fusion_lon": 0.0, "lat": 38.9056215, "is_disabled": 0, "bike_id": "f447ae13e21684eb2b40d183e4d3bf9b", "fusion_lat": 0.0, "is_reserved": 0, "lon": -77.02410566666667}, {"type": "electric_scooter", "name": "416f6fe31ee7bbaa1c70090f8c8c6e29", "rental_uris": {"ios": "https://dc.lft.to/lastmile_qr_scan", "android": "https://dc.lft.to/lastmile_qr_scan"}, "fusion_lon": 0.0, "lat": 38.8829875, "is_disabled": 0, "bike_id": "416f6fe31ee7bbaa1c70090f8c8c6e29", "fusion_lat": 0.0, "is_reserved": 0, "lon": -77.024798}, {"type": "electric_scooter", "name": "6462a97a8071ce07a2a34cb436969013", "rental_uris": {"ios": "https://dc.lft.to/lastmile_qr_scan", "android": "https://dc.lft.to/lastmile_qr_scan"}, "fusion_lon": 0.0, "lat": 38.91706533333333, "is_disabled": 0, "bike_id": "6462a97a8071ce07a2a34cb436969013", "fusion_lat": 0.0, "is_reserved": 0, "lon": -77.041486}, {"type": "electric_scooter", "name": "1a4e81bbbc847c70986d5026685db01b", "rental_uris": {"ios": "https://dc.lft.to/lastmile_qr_scan", "android": "https://dc.lft.to/lastmile_qr_scan"}, "fusion_lon": 0.0, "lat": 38.91359033333333, "is_disabled": 0, "bike_id": "1a4e81bbbc847c70986d5026685db01b", "fusion_lat": 0.0, "is_reserved": 0, "lon": -77.0343845}, {"type": "electric_scooter", "name": "06318ffc3b150dcc01244c4ca27d62e8", "rental_uris": {"ios": "https://dc.lft.to/lastmile_qr_scan", "android": "https://dc.lft.to/lastmile_qr_scan"}, "fusion_lon": 0.0, "lat": 38.903946166666664, "is_disabled": 0, "bike_id": "06318ffc3b150dcc01244c4ca27d62e8", "fusion_lat": 0.0, "is_reserved": 0, "lon": -77.06298633333333}, {"type": "electric_bike", "name": "ab6732fe2c8899cf62d0a7562cc64a2c", "rental_uris": {"ios": "https://dc.lft.to/lastmile_qr_scan", "android": "https://dc.lft.to/lastmile_qr_scan"}, "fusion_lon": 0.0, "lat": 38.8132375, "is_disabled": 0, "bike_id": "ab6732fe2c8899cf62d0a7562cc64a2c", "fusion_lat": 0.0, "is_reserved": 0, "lon": -77.05086216666666}, {"type": "electric_bike", "name": "2249630a6bdfefffc7dbc8144144358b", "rental_uris": {"ios": "https://dc.lft.to/lastmile_qr_scan", "android": "https://dc.lft.to/lastmile_qr_scan"}, "fusion_lon": 0.0, "lat": 38.931917166666665, "is_disabled": 0, "bike_id": "2249630a6bdfefffc7dbc8144144358b", "fusion_lat": 0.0, "is_reserved": 0, "lon": -77.22924816666666}, {"type": "electric_scooter", "name": "ba7e9082d347f2d048ece179481b1213", "rental_uris": {"ios": "https://dc.lft.to/lastmile_qr_scan", "android": "https://dc.lft.to/lastmile_qr_scan"}, "fusion_lon": 0.0, "lat": 38.920768833333334, "is_disabled": 0, "bike_id": "ba7e9082d347f2d048ece179481b1213", "fusion_lat": 0.0, "is_reserved": 0, "lon": -76.99726033333333}, {"type": "electric_scooter", "name": "c11a3403eed5a80426d315b12319798d", "rental_uris": {"ios": "https://dc.lft.to/lastmile_qr_scan", "android": "https://dc.lft.to/lastmile_qr_scan"}, "fusion_lon": 0.0, "lat": 38.883625, "is_disabled": 0, "bike_id": "c11a3403eed5a80426d315b12319798d", "fusion_lat": 0.0, "is_reserved": 0, "lon": -77.01997366666667}, {"type": "electric_scooter", "name": "954447aea7437691cdf55b5b49829f06", "rental_uris": {"ios": "https://dc.lft.to/lastmile_qr_scan", "android": "https://dc.lft.to/lastmile_qr_scan"}, "fusion_lon": 0.0, "lat": 38.887456666666665, "is_disabled": 0, "bike_id": "954447aea7437691cdf55b5b49829f06", "fusion_lat": 0.0, "is_reserved": 0, "lon": -77.02848116666667}, {"type": "electric_bike", "name": "25970ac8636c0ba4a76c4d1dbd3d3f01", "rental_uris": {"ios": "https://dc.lft.to/lastmile_qr_scan", "android": "https://dc.lft.to/lastmile_qr_scan"}, "fusion_lon": 0.0, "lat": 38.82781416666667, "is_disabled": 0, "bike_id": "25970ac8636c0ba4a76c4d1dbd3d3f01", "fusion_lat": 0.0, "is_reserved": 0, "lon": -77.12484666666667}, {"type": "electric_bike", "name": "039d2974d36218007f8bfbfa37f91e55", "rental_uris": {"ios": "https://dc.lft.to/lastmile_qr_scan", "android": "https://dc.lft.to/lastmile_qr_scan"}, "fusion_lon": 0.0, "lat": 38.90954966666666, "is_disabled": 0, "bike_id": "039d2974d36218007f8bfbfa37f91e55", "fusion_lat": 0.0, "is_reserved": 0, "lon": -76.984413}, {"type": "electric_scooter", "name": "52351df6779b15a5923c4fd59ddab2ba", "rental_uris": {"ios": "https://dc.lft.to/lastmile_qr_scan", "android": "https://dc.lft.to/lastmile_qr_scan"}, "fusion_lon": 0.0, "lat": 38.88400583333333, "is_disabled": 0, "bike_id": "52351df6779b15a5923c4fd59ddab2ba", "fusion_lat": 0.0, "is_reserved": 0, "lon": -77.015283}, {"type": "electric_scooter", "name": "081ad8851527b8c66976e0a2ec977d2c", "rental_uris": {"ios": "https://dc.lft.to/lastmile_qr_scan", "android": "https://dc.lft.to/lastmile_qr_scan"}, "fusion_lon": 0.0, "lat": 38.88535266666667, "is_disabled": 0, "bike_id": "081ad8851527b8c66976e0a2ec977d2c", "fusion_lat": 0.0, "is_reserved": 0, "lon": -77.00051566666667}, {"type": "electric_scooter", "name": "acba5689e42d619d93567c7e0426289d", "rental_uris": {"ios": "https://dc.lft.to/lastmile_qr_scan", "android": "https://dc.lft.to/lastmile_qr_scan"}, "fusion_lon": 0.0, "lat": 38.898453833333335, "is_disabled": 0, "bike_id": "acba5689e42d619d93567c7e0426289d", "fusion_lat": 0.0, "is_reserved": 0, "lon": -77.0335295}, {"type": "electric_scooter", "name": "65d4b5978df36b9749ebf72d33ade881", "rental_uris": {"ios": "https://dc.lft.to/lastmile_qr_scan", "android": "https://dc.lft.to/lastmile_qr_scan"}, "fusion_lon": 0.0, "lat": 38.91107133333333, "is_disabled": 0, "bike_id": "65d4b5978df36b9749ebf72d33ade881", "fusion_lat": 0.0, "is_reserved": 0, "lon": -77.08126716666666}, {"type": "electric_scooter", "name": "c1a43d473d012de9234338785d408ed4", "rental_uris": {"ios": "https://dc.lft.to/lastmile_qr_scan", "android": "https://dc.lft.to/lastmile_qr_scan"}, "fusion_lon": 0.0, "lat": 38.907313333333335, "is_disabled": 0, "bike_id": "c1a43d473d012de9234338785d408ed4", "fusion_lat": 0.0, "is_reserved": 0, "lon": -77.02372583333333}, {"type": "electric_scooter", "name": "e3a7b108fd7bfd6601a9cfbe972a25a6", "rental_uris": {"ios": "https://dc.lft.to/lastmile_qr_scan", "android": "https://dc.lft.to/lastmile_qr_scan"}, "fusion_lon": 0.0, "lat": 38.9373155, "is_disabled": 0, "bike_id": "e3a7b108fd7bfd6601a9cfbe972a25a6", "fusion_lat": 0.0, "is_reserved": 0, "lon": -77.024439}, {"type": "electric_scooter", "name": "ae8846c161d70fc2918638c16ed72a11", "rental_uris": {"ios": "https://dc.lft.to/lastmile_qr_scan", "android": "https://dc.lft.to/lastmile_qr_scan"}, "fusion_lon": 0.0, "lat": 38.879501166666664, "is_disabled": 0, "bike_id": "ae8846c161d70fc2918638c16ed72a11", "fusion_lat": 0.0, "is_reserved": 0, "lon": -77.005181}, {"type": "electric_scooter", "name": "3b2686e67ef24e608be9790fe732516a", "rental_uris": {"ios": "https://dc.lft.to/lastmile_qr_scan", "android": "https://dc.lft.to/lastmile_qr_scan"}, "fusion_lon": 0.0, "lat": 38.936061, "is_disabled": 0, "bike_id": "3b2686e67ef24e608be9790fe732516a", "fusion_lat": 0.0, "is_reserved": 0, "lon": -77.058624}, {"type": "electric_scooter", "name": "d807c6cc8d2feb0f0469ae80fb6a223d", "rental_uris": {"ios": "https://dc.lft.to/lastmile_qr_scan", "android": "https://dc.lft.to/lastmile_qr_scan"}, "fusion_lon": 0.0, "lat": 38.858070833333336, "is_disabled": 0, "bike_id": "d807c6cc8d2feb0f0469ae80fb6a223d", "fusion_lat": 0.0, "is_reserved": 0, "lon": -76.98653866666666}, {"type": "electric_scooter", "name": "de8a6fe7481a27641221ecbd24078db8", "rental_uris": {"ios": "https://dc.lft.to/lastmile_qr_scan", "android": "https://dc.lft.to/lastmile_qr_scan"}, "fusion_lon": 0.0, "lat": 38.9026645, "is_disabled": 0, "bike_id": "de8a6fe7481a27641221ecbd24078db8", "fusion_lat": 0.0, "is_reserved": 0, "lon": -77.05314683333333}, {"type": "electric_scooter", "name": "5953e7e961846846d9eff230f58afcb9", "rental_uris": {"ios": "https://dc.lft.to/lastmile_qr_scan", "android": "https://dc.lft.to/lastmile_qr_scan"}, "fusion_lon": 0.0, "lat": 38.866812, "is_disabled": 0, "bike_id": "5953e7e961846846d9eff230f58afcb9", "fusion_lat": 0.0, "is_reserved": 0, "lon": -76.9857475}, {"type": "electric_bike", "name": "5abec28ff51a2e5dc3196b95ccf1579a", "rental_uris": {"ios": "https://dc.lft.to/lastmile_qr_scan", "android": "https://dc.lft.to/lastmile_qr_scan"}, "fusion_lon": 0.0, "lat": 38.865144666666666, "is_disabled": 0, "bike_id": "5abec28ff51a2e5dc3196b95ccf1579a", "fusion_lat": 0.0, "is_reserved": 0, "lon": -76.973315}, {"type": "electric_scooter", "name": "cc63ca382a56c2606980cdb2acdfb218", "rental_uris": {"ios": "https://dc.lft.to/lastmile_qr_scan", "android": "https://dc.lft.to/lastmile_qr_scan"}, "fusion_lon": 0.0, "lat": 38.8662865, "is_disabled": 0, "bike_id": "cc63ca382a56c2606980cdb2acdfb218", "fusion_lat": 0.0, "is_reserved": 0, "lon": -76.987136}, {"type": "electric_scooter", "name": "dbc23ba7dbe4f4826a7b2b6d64642b29", "rental_uris": {"ios": "https://dc.lft.to/lastmile_qr_scan", "android": "https://dc.lft.to/lastmile_qr_scan"}, "fusion_lon": 0.0, "lat": 38.924688833333335, "is_disabled": 0, "bike_id": "dbc23ba7dbe4f4826a7b2b6d64642b29", "fusion_lat": 0.0, "is_reserved": 0, "lon": -77.02214216666667}, {"type": "electric_scooter", "name": "a99970a31bd10e601f065d263a82c0b4", "rental_uris": {"ios": "https://dc.lft.to/lastmile_qr_scan", "android": "https://dc.lft.to/lastmile_qr_scan"}, "fusion_lon": 0.0, "lat": 38.927233333333334, "is_disabled": 0, "bike_id": "a99970a31bd10e601f065d263a82c0b4", "fusion_lat": 0.0, "is_reserved": 0, "lon": -77.04003066666667}, {"type": "electric_scooter", "name": "072f084d9b12ee42d0dbf97571d4c87b", "rental_uris": {"ios": "https://dc.lft.to/lastmile_qr_scan", "android": "https://dc.lft.to/lastmile_qr_scan"}, "fusion_lon": 0.0, "lat": 38.90167733333333, "is_disabled": 0, "bike_id": "072f084d9b12ee42d0dbf97571d4c87b", "fusion_lat": 0.0, "is_reserved": 0, "lon": -77.04174783333333}, {"type": "electric_scooter", "name": "6b87a92033e70ed303d289c2b446c50f", "rental_uris": {"ios": "https://dc.lft.to/lastmile_qr_scan", "android": "https://dc.lft.to/lastmile_qr_scan"}, "fusion_lon": 0.0, "lat": 38.93684016666667, "is_disabled": 0, "bike_id": "6b87a92033e70ed303d289c2b446c50f", "fusion_lat": 0.0, "is_reserved": 0, "lon": -77.03625733333334}, {"type": "electric_scooter", "name": "aecd52824309ad29156506cb32231f56", "rental_uris": {"ios": "https://dc.lft.to/lastmile_qr_scan", "android": "https://dc.lft.to/lastmile_qr_scan"}, "fusion_lon": 0.0, "lat": 38.922532, "is_disabled": 0, "bike_id": "aecd52824309ad29156506cb32231f56", "fusion_lat": 0.0, "is_reserved": 0, "lon": -77.00914033333333}, {"type": "electric_scooter", "name": "afe220bb4c3dc762961c724b96409404", "rental_uris": {"ios": "https://dc.lft.to/lastmile_qr_scan", "android": "https://dc.lft.to/lastmile_qr_scan"}, "fusion_lon": 0.0, "lat": 38.921861, "is_disabled": 0, "bike_id": "afe220bb4c3dc762961c724b96409404", "fusion_lat": 0.0, "is_reserved": 0, "lon": -76.99701333333333}, {"type": "electric_scooter", "name": "78212a3165f79ce882809686ab91277a", "rental_uris": {"ios": "https://dc.lft.to/lastmile_qr_scan", "android": "https://dc.lft.to/lastmile_qr_scan"}, "fusion_lon": 0.0, "lat": 38.877178666666666, "is_disabled": 0, "bike_id": "78212a3165f79ce882809686ab91277a", "fusion_lat": 0.0, "is_reserved": 0, "lon": -77.0041035}, {"type": "electric_bike", "name": "cdf2086392fa85dc2b8e0ace60c8d30b", "rental_uris": {"ios": "https://dc.lft.to/lastmile_qr_scan", "android": "https://dc.lft.to/lastmile_qr_scan"}, "fusion_lon": 0.0, "lat": 38.83157516666667, "is_disabled": 0, "bike_id": "cdf2086392fa85dc2b8e0ace60c8d30b", "fusion_lat": 0.0, "is_reserved": 0, "lon": -76.99545633333334}, {"type": "electric_scooter", "name": "755c009613bc4f8384498ebce8e19bf7", "rental_uris": {"ios": "https://dc.lft.to/lastmile_qr_scan", "android": "https://dc.lft.to/lastmile_qr_scan"}, "fusion_lon": 0.0, "lat": 38.91530066666667, "is_disabled": 0, "bike_id": "755c009613bc4f8384498ebce8e19bf7", "fusion_lat": 0.0, "is_reserved": 0, "lon": -77.01223966666667}, {"type": "electric_bike", "name": "1c726cad65ee199c6bee40b7c5b1d2c2", "rental_uris": {"ios": "https://dc.lft.to/lastmile_qr_scan", "android": "https://dc.lft.to/lastmile_qr_scan"}, "fusion_lon": 0.0, "lat": 38.900321166666664, "is_disabled": 0, "bike_id": "1c726cad65ee199c6bee40b7c5b1d2c2", "fusion_lat": 0.0, "is_reserved": 0, "lon": -76.97221033333334}, {"type": "electric_scooter", "name": "14d955db355932c53c059b17a77c7c43", "rental_uris": {"ios": "https://dc.lft.to/lastmile_qr_scan", "android": "https://dc.lft.to/lastmile_qr_scan"}, "fusion_lon": 0.0, "lat": 38.91394483333333, "is_disabled": 0, "bike_id": "14d955db355932c53c059b17a77c7c43", "fusion_lat": 0.0, "is_reserved": 0, "lon": -77.04168916666667}, {"type": "electric_scooter", "name": "be9c349beacd6f07537f4678a7726d0e", "rental_uris": {"ios": "https://dc.lft.to/lastmile_qr_scan", "android": "https://dc.lft.to/lastmile_qr_scan"}, "fusion_lon": 0.0, "lat": 38.93410683333333, "is_disabled": 0, "bike_id": "be9c349beacd6f07537f4678a7726d0e", "fusion_lat": 0.0, "is_reserved": 0, "lon": -77.02039483333333}, {"type": "electric_scooter", "name": "facea1c915d4e53f8173b2ed77877154", "rental_uris": {"ios": "https://dc.lft.to/lastmile_qr_scan", "android": "https://dc.lft.to/lastmile_qr_scan"}, "fusion_lon": 0.0, "lat": 38.9563675, "is_disabled": 0, "bike_id": "facea1c915d4e53f8173b2ed77877154", "fusion_lat": 0.0, "is_reserved": 0, "lon": -77.03305766666666}, {"type": "electric_scooter", "name": "a8bd74e315edf1cb1553f57b78a5aaae", "rental_uris": {"ios": "https://dc.lft.to/lastmile_qr_scan", "android": "https://dc.lft.to/lastmile_qr_scan"}, "fusion_lon": 0.0, "lat": 38.909741, "is_disabled": 0, "bike_id": "a8bd74e315edf1cb1553f57b78a5aaae", "fusion_lat": 0.0, "is_reserved": 0, "lon": -77.04056166666666}, {"type": "electric_scooter", "name": "a365ecb082fe202d99a18514397b9c4b", "rental_uris": {"ios": "https://dc.lft.to/lastmile_qr_scan", "android": "https://dc.lft.to/lastmile_qr_scan"}, "fusion_lon": 0.0, "lat": 38.908628, "is_disabled": 0, "bike_id": "a365ecb082fe202d99a18514397b9c4b", "fusion_lat": 0.0, "is_reserved": 0, "lon": -76.99961966666666}, {"type": "electric_scooter", "name": "8eed7f80650bbceec96595f542cdd00e", "rental_uris": {"ios": "https://dc.lft.to/lastmile_qr_scan", "android": "https://dc.lft.to/lastmile_qr_scan"}, "fusion_lon": 0.0, "lat": 38.907962166666664, "is_disabled": 0, "bike_id": "8eed7f80650bbceec96595f542cdd00e", "fusion_lat": 0.0, "is_reserved": 0, "lon": -77.03206483333334}, {"type": "electric_scooter", "name": "86501b590e2db85d3e145cbfdd266ac8", "rental_uris": {"ios": "https://dc.lft.to/lastmile_qr_scan", "android": "https://dc.lft.to/lastmile_qr_scan"}, "fusion_lon": 0.0, "lat": 38.904885, "is_disabled": 0, "bike_id": "86501b590e2db85d3e145cbfdd266ac8", "fusion_lat": 0.0, "is_reserved": 0, "lon": -77.0537325}, {"type": "electric_scooter", "name": "a892a0e78f3d343b53e62ed2c23364f8", "rental_uris": {"ios": "https://dc.lft.to/lastmile_qr_scan", "android": "https://dc.lft.to/lastmile_qr_scan"}, "fusion_lon": 0.0, "lat": 38.917122666666664, "is_disabled": 0, "bike_id": "a892a0e78f3d343b53e62ed2c23364f8", "fusion_lat": 0.0, "is_reserved": 0, "lon": -77.04154333333334}, {"type": "electric_scooter", "name": "e67aabc6041c96d371c9703c58510788", "rental_uris": {"ios": "https://dc.lft.to/lastmile_qr_scan", "android": "https://dc.lft.to/lastmile_qr_scan"}, "fusion_lon": 0.0, "lat": 38.920371, "is_disabled": 0, "bike_id": "e67aabc6041c96d371c9703c58510788", "fusion_lat": 0.0, "is_reserved": 0, "lon": -77.01674683333333}, {"type": "electric_scooter", "name": "5a497ec27ca694b06066ca833ae78ec1", "rental_uris": {"ios": "https://dc.lft.to/lastmile_qr_scan", "android": "https://dc.lft.to/lastmile_qr_scan"}, "fusion_lon": 0.0, "lat": 38.91092833333333, "is_disabled": 0, "bike_id": "5a497ec27ca694b06066ca833ae78ec1", "fusion_lat": 0.0, "is_reserved": 0, "lon": -77.038356}, {"type": "electric_scooter", "name": "316fb2334710ce3f1e11799366efe2bc", "rental_uris": {"ios": "https://dc.lft.to/lastmile_qr_scan", "android": "https://dc.lft.to/lastmile_qr_scan"}, "fusion_lon": 0.0, "lat": 38.922742, "is_disabled": 0, "bike_id": "316fb2334710ce3f1e11799366efe2bc", "fusion_lat": 0.0, "is_reserved": 0, "lon": -77.02958766666667}, {"type": "electric_scooter", "name": "55f6c67d924e7e6021b0a6125686177a", "rental_uris": {"ios": "https://dc.lft.to/lastmile_qr_scan", "android": "https://dc.lft.to/lastmile_qr_scan"}, "fusion_lon": 0.0, "lat": 38.89873333333333, "is_disabled": 0, "bike_id": "55f6c67d924e7e6021b0a6125686177a", "fusion_lat": 0.0, "is_reserved": 0, "lon": -76.9318705}, {"type": "electric_scooter", "name": "7688a57d3c0c1064657478b564d00743", "rental_uris": {"ios": "https://dc.lft.to/lastmile_qr_scan", "android": "https://dc.lft.to/lastmile_qr_scan"}, "fusion_lon": 0.0, "lat": 38.91717716666667, "is_disabled": 0, "bike_id": "7688a57d3c0c1064657478b564d00743", "fusion_lat": 0.0, "is_reserved": 0, "lon": -77.03664266666667}, {"type": "electric_scooter", "name": "8aa3a4bddd7ca7ab77a00016e2be60b4", "rental_uris": {"ios": "https://dc.lft.to/lastmile_qr_scan", "android": "https://dc.lft.to/lastmile_qr_scan"}, "fusion_lon": 0.0, "lat": 38.924802666666665, "is_disabled": 0, "bike_id": "8aa3a4bddd7ca7ab77a00016e2be60b4", "fusion_lat": 0.0, "is_reserved": 0, "lon": -77.026585}, {"type": "electric_scooter", "name": "48a2eb7a68aa7d2c54d14586a7873bc9", "rental_uris": {"ios": "https://dc.lft.to/lastmile_qr_scan", "android": "https://dc.lft.to/lastmile_qr_scan"}, "fusion_lon": 0.0, "lat": 38.9256245, "is_disabled": 0, "bike_id": "48a2eb7a68aa7d2c54d14586a7873bc9", "fusion_lat": 0.0, "is_reserved": 0, "lon": -77.0271385}, {"type": "electric_scooter", "name": "4b8cdee9cf1f30c8c197b4dce11f4579", "rental_uris": {"ios": "https://dc.lft.to/lastmile_qr_scan", "android": "https://dc.lft.to/lastmile_qr_scan"}, "fusion_lon": 0.0, "lat": 38.9056405, "is_disabled": 0, "bike_id": "4b8cdee9cf1f30c8c197b4dce11f4579", "fusion_lat": 0.0, "is_reserved": 0, "lon": -77.02408183333333}, {"type": "electric_scooter", "name": "12970bfd374363128e72ac4fc55b72a0", "rental_uris": {"ios": "https://dc.lft.to/lastmile_qr_scan", "android": "https://dc.lft.to/lastmile_qr_scan"}, "fusion_lon": 0.0, "lat": 38.90197466666667, "is_disabled": 0, "bike_id": "12970bfd374363128e72ac4fc55b72a0", "fusion_lat": 0.0, "is_reserved": 0, "lon": -77.023774}, {"type": "electric_scooter", "name": "3cf184ba052e156248d433c85d733132", "rental_uris": {"ios": "https://dc.lft.to/lastmile_qr_scan", "android": "https://dc.lft.to/lastmile_qr_scan"}, "fusion_lon": 0.0, "lat": 38.88501183333333, "is_disabled": 0, "bike_id": "3cf184ba052e156248d433c85d733132", "fusion_lat": 0.0, "is_reserved": 0, "lon": -77.00699283333333}, {"type": "electric_scooter", "name": "912587ca549270e8899be161005f1a1c", "rental_uris": {"ios": "https://dc.lft.to/lastmile_qr_scan", "android": "https://dc.lft.to/lastmile_qr_scan"}, "fusion_lon": 0.0, "lat": 38.865590833333336, "is_disabled": 0, "bike_id": "912587ca549270e8899be161005f1a1c", "fusion_lat": 0.0, "is_reserved": 0, "lon": -76.98352683333333}, {"type": "electric_bike", "name": "9155c6314ac0e7ecd36a002ea724ca6e", "rental_uris": {"ios": "https://dc.lft.to/lastmile_qr_scan", "android": "https://dc.lft.to/lastmile_qr_scan"}, "fusion_lon": 0.0, "lat": 38.89270466666667, "is_disabled": 0, "bike_id": "9155c6314ac0e7ecd36a002ea724ca6e", "fusion_lat": 0.0, "is_reserved": 0, "lon": -76.95110783333334}, {"type": "electric_scooter", "name": "f239ef5c652eb865e360861410975985", "rental_uris": {"ios": "https://dc.lft.to/lastmile_qr_scan", "android": "https://dc.lft.to/lastmile_qr_scan"}, "fusion_lon": 0.0, "lat": 38.916950166666666, "is_disabled": 0, "bike_id": "f239ef5c652eb865e360861410975985", "fusion_lat": 0.0, "is_reserved": 0, "lon": -77.04108083333334}, {"type": "electric_scooter", "name": "504e068fa7bb6b2fa69edca814f57c17", "rental_uris": {"ios": "https://dc.lft.to/lastmile_qr_scan", "android": "https://dc.lft.to/lastmile_qr_scan"}, "fusion_lon": 0.0, "lat": 38.90560133333334, "is_disabled": 0, "bike_id": "504e068fa7bb6b2fa69edca814f57c17", "fusion_lat": 0.0, "is_reserved": 0, "lon": -77.02411633333334}, {"type": "electric_scooter", "name": "4d34b1f2aaa013fe0611bf5b05ee94cb", "rental_uris": {"ios": "https://dc.lft.to/lastmile_qr_scan", "android": "https://dc.lft.to/lastmile_qr_scan"}, "fusion_lon": 0.0, "lat": 38.91705266666666, "is_disabled": 0, "bike_id": "4d34b1f2aaa013fe0611bf5b05ee94cb", "fusion_lat": 0.0, "is_reserved": 0, "lon": -77.041721}, {"type": "electric_scooter", "name": "13236ce81dbe0c431d3e4fc423ef329d", "rental_uris": {"ios": "https://dc.lft.to/lastmile_qr_scan", "android": "https://dc.lft.to/lastmile_qr_scan"}, "fusion_lon": 0.0, "lat": 38.929425, "is_disabled": 0, "bike_id": "13236ce81dbe0c431d3e4fc423ef329d", "fusion_lat": 0.0, "is_reserved": 0, "lon": -77.01886416666666}, {"type": "electric_scooter", "name": "14376cf236b35576d5282cd59e5ac0ee", "rental_uris": {"ios": "https://dc.lft.to/lastmile_qr_scan", "android": "https://dc.lft.to/lastmile_qr_scan"}, "fusion_lon": 0.0, "lat": 38.90518633333333, "is_disabled": 0, "bike_id": "14376cf236b35576d5282cd59e5ac0ee", "fusion_lat": 0.0, "is_reserved": 0, "lon": -77.04347366666667}, {"type": "electric_scooter", "name": "4b868c99cc206b5cddb8803c3a1a7685", "rental_uris": {"ios": "https://dc.lft.to/lastmile_qr_scan", "android": "https://dc.lft.to/lastmile_qr_scan"}, "fusion_lon": 0.0, "lat": 38.90356, "is_disabled": 0, "bike_id": "4b868c99cc206b5cddb8803c3a1a7685", "fusion_lat": 0.0, "is_reserved": 0, "lon": -77.03208066666667}, {"type": "electric_scooter", "name": "00bb09f42b28880ccc4b4c1b7724f74f", "rental_uris": {"ios": "https://dc.lft.to/lastmile_qr_scan", "android": "https://dc.lft.to/lastmile_qr_scan"}, "fusion_lon": 0.0, "lat": 38.9003055, "is_disabled": 0, "bike_id": "00bb09f42b28880ccc4b4c1b7724f74f", "fusion_lat": 0.0, "is_reserved": 0, "lon": -77.04040416666666}, {"type": "electric_scooter", "name": "8335a2a82999471bed0877a618743c66", "rental_uris": {"ios": "https://dc.lft.to/lastmile_qr_scan", "android": "https://dc.lft.to/lastmile_qr_scan"}, "fusion_lon": 0.0, "lat": 38.900188, "is_disabled": 0, "bike_id": "8335a2a82999471bed0877a618743c66", "fusion_lat": 0.0, "is_reserved": 0, "lon": -76.98719833333334}, {"type": "electric_scooter", "name": "58788baf6edb5ed96efcb4b4d9bee49b", "rental_uris": {"ios": "https://dc.lft.to/lastmile_qr_scan", "android": "https://dc.lft.to/lastmile_qr_scan"}, "fusion_lon": 0.0, "lat": 38.92128616666667, "is_disabled": 0, "bike_id": "58788baf6edb5ed96efcb4b4d9bee49b", "fusion_lat": 0.0, "is_reserved": 0, "lon": -77.01097583333333}, {"type": "electric_scooter", "name": "71a14fecc01cadfba0ba71b3dca6b27f", "rental_uris": {"ios": "https://dc.lft.to/lastmile_qr_scan", "android": "https://dc.lft.to/lastmile_qr_scan"}, "fusion_lon": 0.0, "lat": 38.91041633333333, "is_disabled": 0, "bike_id": "71a14fecc01cadfba0ba71b3dca6b27f", "fusion_lat": 0.0, "is_reserved": 0, "lon": -77.01023933333333}, {"type": "electric_scooter", "name": "126ec0fab849c507d6a6fffbe6e1d291", "rental_uris": {"ios": "https://dc.lft.to/lastmile_qr_scan", "android": "https://dc.lft.to/lastmile_qr_scan"}, "fusion_lon": 0.0, "lat": 38.91233533333333, "is_disabled": 0, "bike_id": "126ec0fab849c507d6a6fffbe6e1d291", "fusion_lat": 0.0, "is_reserved": 0, "lon": -77.04878266666667}, {"type": "electric_scooter", "name": "4074c627f6e836b250174524fffd5364", "rental_uris": {"ios": "https://dc.lft.to/lastmile_qr_scan", "android": "https://dc.lft.to/lastmile_qr_scan"}, "fusion_lon": 0.0, "lat": 38.924685833333335, "is_disabled": 0, "bike_id": "4074c627f6e836b250174524fffd5364", "fusion_lat": 0.0, "is_reserved": 0, "lon": -77.0221475}, {"type": "electric_scooter", "name": "6add3bd5dba56e2258f38ad1092f6fe4", "rental_uris": {"ios": "https://dc.lft.to/lastmile_qr_scan", "android": "https://dc.lft.to/lastmile_qr_scan"}, "fusion_lon": 0.0, "lat": 38.91686283333333, "is_disabled": 0, "bike_id": "6add3bd5dba56e2258f38ad1092f6fe4", "fusion_lat": 0.0, "is_reserved": 0, "lon": -77.02945866666667}, {"type": "electric_scooter", "name": "b5967471e7a9143a63fd9dfdba4a9542", "rental_uris": {"ios": "https://dc.lft.to/lastmile_qr_scan", "android": "https://dc.lft.to/lastmile_qr_scan"}, "fusion_lon": 0.0, "lat": 38.930800166666664, "is_disabled": 0, "bike_id": "b5967471e7a9143a63fd9dfdba4a9542", "fusion_lat": 0.0, "is_reserved": 0, "lon": -77.0280645}, {"type": "electric_scooter", "name": "bc47cb7c5a41ffa5efda675355a57d97", "rental_uris": {"ios": "https://dc.lft.to/lastmile_qr_scan", "android": "https://dc.lft.to/lastmile_qr_scan"}, "fusion_lon": 0.0, "lat": 38.910692, "is_disabled": 0, "bike_id": "bc47cb7c5a41ffa5efda675355a57d97", "fusion_lat": 0.0, "is_reserved": 0, "lon": -77.00391366666666}, {"type": "electric_bike", "name": "c93f6cb1829044680c427117e2882458", "rental_uris": {"ios": "https://dc.lft.to/lastmile_qr_scan", "android": "https://dc.lft.to/lastmile_qr_scan"}, "fusion_lon": 0.0, "lat": 38.8576805, "is_disabled": 0, "bike_id": "c93f6cb1829044680c427117e2882458", "fusion_lat": 0.0, "is_reserved": 0, "lon": -76.98765616666667}, {"type": "electric_scooter", "name": "6eba5f51975f38ee6b73e973acd490bd", "rental_uris": {"ios": "https://dc.lft.to/lastmile_qr_scan", "android": "https://dc.lft.to/lastmile_qr_scan"}, "fusion_lon": 0.0, "lat": 38.90004316666667, "is_disabled": 0, "bike_id": "6eba5f51975f38ee6b73e973acd490bd", "fusion_lat": 0.0, "is_reserved": 0, "lon": -77.03171416666666}, {"type": "electric_scooter", "name": "26ccc16507d4a4e220bfd4a58a4fdd65", "rental_uris": {"ios": "https://dc.lft.to/lastmile_qr_scan", "android": "https://dc.lft.to/lastmile_qr_scan"}, "fusion_lon": 0.0, "lat": 38.890427833333334, "is_disabled": 0, "bike_id": "26ccc16507d4a4e220bfd4a58a4fdd65", "fusion_lat": 0.0, "is_reserved": 0, "lon": -76.95247433333333}, {"type": "electric_scooter", "name": "1986824fca92aedcbc84bbb4a1f5118c", "rental_uris": {"ios": "https://dc.lft.to/lastmile_qr_scan", "android": "https://dc.lft.to/lastmile_qr_scan"}, "fusion_lon": 0.0, "lat": 38.911077666666664, "is_disabled": 0, "bike_id": "1986824fca92aedcbc84bbb4a1f5118c", "fusion_lat": 0.0, "is_reserved": 0, "lon": -77.02421466666667}, {"type": "electric_scooter", "name": "bf68663de01b7a44ed2ca2f6439722f0", "rental_uris": {"ios": "https://dc.lft.to/lastmile_qr_scan", "android": "https://dc.lft.to/lastmile_qr_scan"}, "fusion_lon": 0.0, "lat": 38.9241835, "is_disabled": 0, "bike_id": "bf68663de01b7a44ed2ca2f6439722f0", "fusion_lat": 0.0, "is_reserved": 0, "lon": -77.02031383333333}, {"type": "electric_scooter", "name": "f55351f67990e99fa271d52ad89e0b73", "rental_uris": {"ios": "https://dc.lft.to/lastmile_qr_scan", "android": "https://dc.lft.to/lastmile_qr_scan"}, "fusion_lon": 0.0, "lat": 38.89233433333333, "is_disabled": 0, "bike_id": "f55351f67990e99fa271d52ad89e0b73", "fusion_lat": 0.0, "is_reserved": 0, "lon": -77.04162783333334}, {"type": "electric_scooter", "name": "6a45937f053988470621361e717f3a30", "rental_uris": {"ios": "https://dc.lft.to/lastmile_qr_scan", "android": "https://dc.lft.to/lastmile_qr_scan"}, "fusion_lon": 0.0, "lat": 38.86419716666666, "is_disabled": 0, "bike_id": "6a45937f053988470621361e717f3a30", "fusion_lat": 0.0, "is_reserved": 0, "lon": -76.9899535}, {"type": "electric_scooter", "name": "e65ab8d7cc8849038207dd374063d251", "rental_uris": {"ios": "https://dc.lft.to/lastmile_qr_scan", "android": "https://dc.lft.to/lastmile_qr_scan"}, "fusion_lon": 0.0, "lat": 38.889125, "is_disabled": 0, "bike_id": "e65ab8d7cc8849038207dd374063d251", "fusion_lat": 0.0, "is_reserved": 0, "lon": -76.93684883333333}, {"type": "electric_scooter", "name": "e957795890cdf86e309d153ae9adfe2d", "rental_uris": {"ios": "https://dc.lft.to/lastmile_qr_scan", "android": "https://dc.lft.to/lastmile_qr_scan"}, "fusion_lon": 0.0, "lat": 38.891474, "is_disabled": 0, "bike_id": "e957795890cdf86e309d153ae9adfe2d", "fusion_lat": 0.0, "is_reserved": 0, "lon": -76.99252533333333}, {"type": "electric_scooter", "name": "6c935b11e6b075c2b240f6a4da54df06", "rental_uris": {"ios": "https://dc.lft.to/lastmile_qr_scan", "android": "https://dc.lft.to/lastmile_qr_scan"}, "fusion_lon": 0.0, "lat": 38.88302566666667, "is_disabled": 0, "bike_id": "6c935b11e6b075c2b240f6a4da54df06", "fusion_lat": 0.0, "is_reserved": 0, "lon": -76.94858966666666}, {"type": "electric_scooter", "name": "6123da0de4f478f20acb786e80d21798", "rental_uris": {"ios": "https://dc.lft.to/lastmile_qr_scan", "android": "https://dc.lft.to/lastmile_qr_scan"}, "fusion_lon": 0.0, "lat": 38.9178235, "is_disabled": 0, "bike_id": "6123da0de4f478f20acb786e80d21798", "fusion_lat": 0.0, "is_reserved": 0, "lon": -77.02279866666667}, {"type": "electric_scooter", "name": "7049220d0f466a134e52e93cccc0b8fe", "rental_uris": {"ios": "https://dc.lft.to/lastmile_qr_scan", "android": "https://dc.lft.to/lastmile_qr_scan"}, "fusion_lon": 0.0, "lat": 38.914644, "is_disabled": 0, "bike_id": "7049220d0f466a134e52e93cccc0b8fe", "fusion_lat": 0.0, "is_reserved": 0, "lon": -77.038864}, {"type": "electric_scooter", "name": "b6321e0d9cf378f1ce544dad15e3f18e", "rental_uris": {"ios": "https://dc.lft.to/lastmile_qr_scan", "android": "https://dc.lft.to/lastmile_qr_scan"}, "fusion_lon": 0.0, "lat": 38.919284833333336, "is_disabled": 0, "bike_id": "b6321e0d9cf378f1ce544dad15e3f18e", "fusion_lat": 0.0, "is_reserved": 0, "lon": -77.01353433333334}, {"type": "electric_scooter", "name": "acc2b382f605398a69405d7b5977aad9", "rental_uris": {"ios": "https://dc.lft.to/lastmile_qr_scan", "android": "https://dc.lft.to/lastmile_qr_scan"}, "fusion_lon": 0.0, "lat": 38.907223333333334, "is_disabled": 0, "bike_id": "acc2b382f605398a69405d7b5977aad9", "fusion_lat": 0.0, "is_reserved": 0, "lon": -77.023678}, {"type": "electric_scooter", "name": "e144c70c1ef62c2750a0f88588736544", "rental_uris": {"ios": "https://dc.lft.to/lastmile_qr_scan", "android": "https://dc.lft.to/lastmile_qr_scan"}, "fusion_lon": 0.0, "lat": 38.9023615, "is_disabled": 0, "bike_id": "e144c70c1ef62c2750a0f88588736544", "fusion_lat": 0.0, "is_reserved": 0, "lon": -77.0533805}, {"type": "electric_scooter", "name": "c6faee2db7915488c6abd3754fda3d03", "rental_uris": {"ios": "https://dc.lft.to/lastmile_qr_scan", "android": "https://dc.lft.to/lastmile_qr_scan"}, "fusion_lon": 0.0, "lat": 38.923326, "is_disabled": 0, "bike_id": "c6faee2db7915488c6abd3754fda3d03", "fusion_lat": 0.0, "is_reserved": 0, "lon": -77.05346416666667}, {"type": "electric_scooter", "name": "1c8e58adaba062627ad62fe651144544", "rental_uris": {"ios": "https://dc.lft.to/lastmile_qr_scan", "android": "https://dc.lft.to/lastmile_qr_scan"}, "fusion_lon": 0.0, "lat": 38.865046, "is_disabled": 0, "bike_id": "1c8e58adaba062627ad62fe651144544", "fusion_lat": 0.0, "is_reserved": 0, "lon": -76.990042}, {"type": "electric_scooter", "name": "738198b42ab29da09fadda59bf9e59df", "rental_uris": {"ios": "https://dc.lft.to/lastmile_qr_scan", "android": "https://dc.lft.to/lastmile_qr_scan"}, "fusion_lon": 0.0, "lat": 38.8836585, "is_disabled": 0, "bike_id": "738198b42ab29da09fadda59bf9e59df", "fusion_lat": 0.0, "is_reserved": 0, "lon": -76.99485083333333}, {"type": "electric_scooter", "name": "22d20d0c77ea18fa4fd806adf2bec0f9", "rental_uris": {"ios": "https://dc.lft.to/lastmile_qr_scan", "android": "https://dc.lft.to/lastmile_qr_scan"}, "fusion_lon": 0.0, "lat": 38.89489316666667, "is_disabled": 0, "bike_id": "22d20d0c77ea18fa4fd806adf2bec0f9", "fusion_lat": 0.0, "is_reserved": 0, "lon": -77.0097565}, {"type": "electric_bike", "name": "a1154493d15c4599eb5f87117b1dd38d", "rental_uris": {"ios": "https://dc.lft.to/lastmile_qr_scan", "android": "https://dc.lft.to/lastmile_qr_scan"}, "fusion_lon": 0.0, "lat": 38.81937966666667, "is_disabled": 0, "bike_id": "a1154493d15c4599eb5f87117b1dd38d", "fusion_lat": 0.0, "is_reserved": 0, "lon": -77.00204183333334}, {"type": "electric_scooter", "name": "753fee967d673fcf335f2a16940a64b6", "rental_uris": {"ios": "https://dc.lft.to/lastmile_qr_scan", "android": "https://dc.lft.to/lastmile_qr_scan"}, "fusion_lon": 0.0, "lat": 38.914504, "is_disabled": 0, "bike_id": "753fee967d673fcf335f2a16940a64b6", "fusion_lat": 0.0, "is_reserved": 0, "lon": -77.02182083333334}, {"type": "electric_scooter", "name": "e52ef3ca7151ee993d4d477f7de1c1bf", "rental_uris": {"ios": "https://dc.lft.to/lastmile_qr_scan", "android": "https://dc.lft.to/lastmile_qr_scan"}, "fusion_lon": 0.0, "lat": 38.924083, "is_disabled": 0, "bike_id": "e52ef3ca7151ee993d4d477f7de1c1bf", "fusion_lat": 0.0, "is_reserved": 0, "lon": -77.0402255}, {"type": "electric_scooter", "name": "e84f17018008135a26213ced868cf5f7", "rental_uris": {"ios": "https://dc.lft.to/lastmile_qr_scan", "android": "https://dc.lft.to/lastmile_qr_scan"}, "fusion_lon": 0.0, "lat": 38.9169835, "is_disabled": 0, "bike_id": "e84f17018008135a26213ced868cf5f7", "fusion_lat": 0.0, "is_reserved": 0, "lon": -77.03779733333333}, {"type": "electric_scooter", "name": "b9dc44bbb5a60fb09d749ca441cae9c3", "rental_uris": {"ios": "https://dc.lft.to/lastmile_qr_scan", "android": "https://dc.lft.to/lastmile_qr_scan"}, "fusion_lon": 0.0, "lat": 38.89427383333334, "is_disabled": 0, "bike_id": "b9dc44bbb5a60fb09d749ca441cae9c3", "fusion_lat": 0.0, "is_reserved": 0, "lon": -77.00104166666667}, {"type": "electric_scooter", "name": "c44520bc9fd1818c3283b974d129e2fa", "rental_uris": {"ios": "https://dc.lft.to/lastmile_qr_scan", "android": "https://dc.lft.to/lastmile_qr_scan"}, "fusion_lon": 0.0, "lat": 38.917356, "is_disabled": 0, "bike_id": "c44520bc9fd1818c3283b974d129e2fa", "fusion_lat": 0.0, "is_reserved": 0, "lon": -77.04593466666667}, {"type": "electric_scooter", "name": "b64aa4b2d37f36ce7e7b186ce4a8c058", "rental_uris": {"ios": "https://dc.lft.to/lastmile_qr_scan", "android": "https://dc.lft.to/lastmile_qr_scan"}, "fusion_lon": 0.0, "lat": 38.884939333333335, "is_disabled": 0, "bike_id": "b64aa4b2d37f36ce7e7b186ce4a8c058", "fusion_lat": 0.0, "is_reserved": 0, "lon": -76.99638733333333}, {"type": "electric_bike", "name": "2243665733db08cf716ffb8b0887c677", "rental_uris": {"ios": "https://dc.lft.to/lastmile_qr_scan", "android": "https://dc.lft.to/lastmile_qr_scan"}, "fusion_lon": 0.0, "lat": 38.8811075, "is_disabled": 0, "bike_id": "2243665733db08cf716ffb8b0887c677", "fusion_lat": 0.0, "is_reserved": 0, "lon": -77.0167765}, {"type": "electric_scooter", "name": "3b7e7108e26573877d39147bd949f390", "rental_uris": {"ios": "https://dc.lft.to/lastmile_qr_scan", "android": "https://dc.lft.to/lastmile_qr_scan"}, "fusion_lon": 0.0, "lat": 38.921397666666664, "is_disabled": 0, "bike_id": "3b7e7108e26573877d39147bd949f390", "fusion_lat": 0.0, "is_reserved": 0, "lon": -77.043525}, {"type": "electric_scooter", "name": "6c09fd1103efc9e247185e822933247b", "rental_uris": {"ios": "https://dc.lft.to/lastmile_qr_scan", "android": "https://dc.lft.to/lastmile_qr_scan"}, "fusion_lon": 0.0, "lat": 38.9111945, "is_disabled": 0, "bike_id": "6c09fd1103efc9e247185e822933247b", "fusion_lat": 0.0, "is_reserved": 0, "lon": -77.04165433333333}, {"type": "electric_bike", "name": "b243dc55603017afecd101f2adc63ff7", "rental_uris": {"ios": "https://dc.lft.to/lastmile_qr_scan", "android": "https://dc.lft.to/lastmile_qr_scan"}, "fusion_lon": 0.0, "lat": 38.89180983333333, "is_disabled": 0, "bike_id": "b243dc55603017afecd101f2adc63ff7", "fusion_lat": 0.0, "is_reserved": 0, "lon": -76.9389185}, {"type": "electric_scooter", "name": "78cf81cb8eaf2bb3dbd83e37d7aef3d5", "rental_uris": {"ios": "https://dc.lft.to/lastmile_qr_scan", "android": "https://dc.lft.to/lastmile_qr_scan"}, "fusion_lon": 0.0, "lat": 38.92087083333333, "is_disabled": 0, "bike_id": "78cf81cb8eaf2bb3dbd83e37d7aef3d5", "fusion_lat": 0.0, "is_reserved": 0, "lon": -77.02253916666666}, {"type": "electric_scooter", "name": "468aec23e5f6c208ccef59357e332d0e", "rental_uris": {"ios": "https://dc.lft.to/lastmile_qr_scan", "android": "https://dc.lft.to/lastmile_qr_scan"}, "fusion_lon": 0.0, "lat": 38.926273333333334, "is_disabled": 0, "bike_id": "468aec23e5f6c208ccef59357e332d0e", "fusion_lat": 0.0, "is_reserved": 0, "lon": -77.03477733333334}, {"type": "electric_scooter", "name": "c8deaf88dc4f948adf2cdbcea5b75861", "rental_uris": {"ios": "https://dc.lft.to/lastmile_qr_scan", "android": "https://dc.lft.to/lastmile_qr_scan"}, "fusion_lon": 0.0, "lat": 38.91105116666667, "is_disabled": 0, "bike_id": "c8deaf88dc4f948adf2cdbcea5b75861", "fusion_lat": 0.0, "is_reserved": 0, "lon": -77.04220566666666}, {"type": "electric_scooter", "name": "f66133ddf464333062078ea2a4bb549f", "rental_uris": {"ios": "https://dc.lft.to/lastmile_qr_scan", "android": "https://dc.lft.to/lastmile_qr_scan"}, "fusion_lon": 0.0, "lat": 38.90873333333333, "is_disabled": 0, "bike_id": "f66133ddf464333062078ea2a4bb549f", "fusion_lat": 0.0, "is_reserved": 0, "lon": -77.020059}, {"type": "electric_scooter", "name": "dcc14220f22c5993dd6e81d4609dbd5f", "rental_uris": {"ios": "https://dc.lft.to/lastmile_qr_scan", "android": "https://dc.lft.to/lastmile_qr_scan"}, "fusion_lon": 0.0, "lat": 38.87603133333333, "is_disabled": 0, "bike_id": "dcc14220f22c5993dd6e81d4609dbd5f", "fusion_lat": 0.0, "is_reserved": 0, "lon": -77.0093095}, {"type": "electric_scooter", "name": "711428230ca38c00a5d9613833f30012", "rental_uris": {"ios": "https://dc.lft.to/lastmile_qr_scan", "android": "https://dc.lft.to/lastmile_qr_scan"}, "fusion_lon": 0.0, "lat": 38.924257833333336, "is_disabled": 0, "bike_id": "711428230ca38c00a5d9613833f30012", "fusion_lat": 0.0, "is_reserved": 0, "lon": -77.05183833333334}, {"type": "electric_bike", "name": "896f0bb2c54e761ca196ae6587ee9e31", "rental_uris": {"ios": "https://dc.lft.to/lastmile_qr_scan", "android": "https://dc.lft.to/lastmile_qr_scan"}, "fusion_lon": 0.0, "lat": 38.89353583333333, "is_disabled": 0, "bike_id": "896f0bb2c54e761ca196ae6587ee9e31", "fusion_lat": 0.0, "is_reserved": 0, "lon": -77.18744566666666}, {"type": "electric_scooter", "name": "219e27060808ed4ec8c3be4b2bc3e786", "rental_uris": {"ios": "https://dc.lft.to/lastmile_qr_scan", "android": "https://dc.lft.to/lastmile_qr_scan"}, "fusion_lon": 0.0, "lat": 38.881687, "is_disabled": 0, "bike_id": "219e27060808ed4ec8c3be4b2bc3e786", "fusion_lat": 0.0, "is_reserved": 0, "lon": -77.02706833333333}, {"type": "electric_scooter", "name": "aea36957b42c684d38c2aaa0599ac605", "rental_uris": {"ios": "https://dc.lft.to/lastmile_qr_scan", "android": "https://dc.lft.to/lastmile_qr_scan"}, "fusion_lon": 0.0, "lat": 38.90974516666667, "is_disabled": 0, "bike_id": "aea36957b42c684d38c2aaa0599ac605", "fusion_lat": 0.0, "is_reserved": 0, "lon": -77.03445366666666}, {"type": "electric_scooter", "name": "067bb72934b13a53ed674a7b18a3c021", "rental_uris": {"ios": "https://dc.lft.to/lastmile_qr_scan", "android": "https://dc.lft.to/lastmile_qr_scan"}, "fusion_lon": 0.0, "lat": 38.8984585, "is_disabled": 0, "bike_id": "067bb72934b13a53ed674a7b18a3c021", "fusion_lat": 0.0, "is_reserved": 0, "lon": -77.02031433333333}, {"type": "electric_scooter", "name": "8a44c6fd40d47346019bf07186f6e519", "rental_uris": {"ios": "https://dc.lft.to/lastmile_qr_scan", "android": "https://dc.lft.to/lastmile_qr_scan"}, "fusion_lon": 0.0, "lat": 38.856025333333335, "is_disabled": 0, "bike_id": "8a44c6fd40d47346019bf07186f6e519", "fusion_lat": 0.0, "is_reserved": 0, "lon": -76.97266633333334}, {"type": "electric_scooter", "name": "1f0e0f43b8629130ea290d94d442ef9e", "rental_uris": {"ios": "https://dc.lft.to/lastmile_qr_scan", "android": "https://dc.lft.to/lastmile_qr_scan"}, "fusion_lon": 0.0, "lat": 38.909743666666664, "is_disabled": 0, "bike_id": "1f0e0f43b8629130ea290d94d442ef9e", "fusion_lat": 0.0, "is_reserved": 0, "lon": -77.03446033333333}, {"type": "electric_scooter", "name": "36f61df66f7fbeaeb27a038be09afcff", "rental_uris": {"ios": "https://dc.lft.to/lastmile_qr_scan", "android": "https://dc.lft.to/lastmile_qr_scan"}, "fusion_lon": 0.0, "lat": 38.92274183333333, "is_disabled": 0, "bike_id": "36f61df66f7fbeaeb27a038be09afcff", "fusion_lat": 0.0, "is_reserved": 0, "lon": -77.03269583333334}, {"type": "electric_scooter", "name": "842f94382f076c45e30465f92fe44ba8", "rental_uris": {"ios": "https://dc.lft.to/lastmile_qr_scan", "android": "https://dc.lft.to/lastmile_qr_scan"}, "fusion_lon": 0.0, "lat": 38.901404666666664, "is_disabled": 0, "bike_id": "842f94382f076c45e30465f92fe44ba8", "fusion_lat": 0.0, "is_reserved": 0, "lon": -77.04626483333334}, {"type": "electric_scooter", "name": "ff7734d678a082509758cae1f9410247", "rental_uris": {"ios": "https://dc.lft.to/lastmile_qr_scan", "android": "https://dc.lft.to/lastmile_qr_scan"}, "fusion_lon": 0.0, "lat": 38.89238233333333, "is_disabled": 0, "bike_id": "ff7734d678a082509758cae1f9410247", "fusion_lat": 0.0, "is_reserved": 0, "lon": -77.04874083333333}, {"type": "electric_scooter", "name": "f25530a97d39f0b80462e227f6e5707a", "rental_uris": {"ios": "https://dc.lft.to/lastmile_qr_scan", "android": "https://dc.lft.to/lastmile_qr_scan"}, "fusion_lon": 0.0, "lat": 38.90221066666667, "is_disabled": 0, "bike_id": "f25530a97d39f0b80462e227f6e5707a", "fusion_lat": 0.0, "is_reserved": 0, "lon": -77.0476455}, {"type": "electric_scooter", "name": "67bc19c394ae808bffddf7e25c7f46a6", "rental_uris": {"ios": "https://dc.lft.to/lastmile_qr_scan", "android": "https://dc.lft.to/lastmile_qr_scan"}, "fusion_lon": 0.0, "lat": 38.895567666666665, "is_disabled": 0, "bike_id": "67bc19c394ae808bffddf7e25c7f46a6", "fusion_lat": 0.0, "is_reserved": 0, "lon": -77.03954}, {"type": "electric_scooter", "name": "6627eb9bd71986f42a78bcd997fe15d8", "rental_uris": {"ios": "https://dc.lft.to/lastmile_qr_scan", "android": "https://dc.lft.to/lastmile_qr_scan"}, "fusion_lon": 0.0, "lat": 38.89537083333333, "is_disabled": 0, "bike_id": "6627eb9bd71986f42a78bcd997fe15d8", "fusion_lat": 0.0, "is_reserved": 0, "lon": -77.02825716666666}, {"type": "electric_scooter", "name": "ecfac5ecaddbd38a40f083ad1d280558", "rental_uris": {"ios": "https://dc.lft.to/lastmile_qr_scan", "android": "https://dc.lft.to/lastmile_qr_scan"}, "fusion_lon": 0.0, "lat": 38.92534083333334, "is_disabled": 0, "bike_id": "ecfac5ecaddbd38a40f083ad1d280558", "fusion_lat": 0.0, "is_reserved": 0, "lon": -77.0352645}, {"type": "electric_scooter", "name": "dbb1306f81f505c9c73a514985a33862", "rental_uris": {"ios": "https://dc.lft.to/lastmile_qr_scan", "android": "https://dc.lft.to/lastmile_qr_scan"}, "fusion_lon": 0.0, "lat": 38.909578333333336, "is_disabled": 0, "bike_id": "dbb1306f81f505c9c73a514985a33862", "fusion_lat": 0.0, "is_reserved": 0, "lon": -77.0227435}, {"type": "electric_scooter", "name": "39720a2dd732773be87c0e2181cf730a", "rental_uris": {"ios": "https://dc.lft.to/lastmile_qr_scan", "android": "https://dc.lft.to/lastmile_qr_scan"}, "fusion_lon": 0.0, "lat": 38.894270166666665, "is_disabled": 0, "bike_id": "39720a2dd732773be87c0e2181cf730a", "fusion_lat": 0.0, "is_reserved": 0, "lon": -77.00092883333333}, {"type": "electric_bike", "name": "7457c2efa1db5f9aa01f445189029a2e", "rental_uris": {"ios": "https://dc.lft.to/lastmile_qr_scan", "android": "https://dc.lft.to/lastmile_qr_scan"}, "fusion_lon": 0.0, "lat": 38.833658166666666, "is_disabled": 0, "bike_id": "7457c2efa1db5f9aa01f445189029a2e", "fusion_lat": 0.0, "is_reserved": 0, "lon": -77.00305433333334}, {"type": "electric_scooter", "name": "1745a5585e56d1215602c98387deb968", "rental_uris": {"ios": "https://dc.lft.to/lastmile_qr_scan", "android": "https://dc.lft.to/lastmile_qr_scan"}, "fusion_lon": 0.0, "lat": 38.923254, "is_disabled": 0, "bike_id": "1745a5585e56d1215602c98387deb968", "fusion_lat": 0.0, "is_reserved": 0, "lon": -77.02972383333334}, {"type": "electric_scooter", "name": "28d15cd6ef9f44e69899a2c3d677672b", "rental_uris": {"ios": "https://dc.lft.to/lastmile_qr_scan", "android": "https://dc.lft.to/lastmile_qr_scan"}, "fusion_lon": 0.0, "lat": 38.92649633333333, "is_disabled": 0, "bike_id": "28d15cd6ef9f44e69899a2c3d677672b", "fusion_lat": 0.0, "is_reserved": 0, "lon": -77.037104}, {"type": "electric_scooter", "name": "4604701d9057a0e6b7988f6a9bb35751", "rental_uris": {"ios": "https://dc.lft.to/lastmile_qr_scan", "android": "https://dc.lft.to/lastmile_qr_scan"}, "fusion_lon": 0.0, "lat": 38.90718666666667, "is_disabled": 0, "bike_id": "4604701d9057a0e6b7988f6a9bb35751", "fusion_lat": 0.0, "is_reserved": 0, "lon": -77.06895533333334}, {"type": "electric_scooter", "name": "dc440ff362308cbd2404f9c54f98dac8", "rental_uris": {"ios": "https://dc.lft.to/lastmile_qr_scan", "android": "https://dc.lft.to/lastmile_qr_scan"}, "fusion_lon": 0.0, "lat": 38.9273515, "is_disabled": 0, "bike_id": "dc440ff362308cbd2404f9c54f98dac8", "fusion_lat": 0.0, "is_reserved": 0, "lon": -77.021276}, {"type": "electric_scooter", "name": "aeb14d70cec754814118822e9c2de2a3", "rental_uris": {"ios": "https://dc.lft.to/lastmile_qr_scan", "android": "https://dc.lft.to/lastmile_qr_scan"}, "fusion_lon": 0.0, "lat": 38.975146333333335, "is_disabled": 0, "bike_id": "aeb14d70cec754814118822e9c2de2a3", "fusion_lat": 0.0, "is_reserved": 0, "lon": -77.01667833333333}, {"type": "electric_scooter", "name": "00f036d9daecac282af6fbb22f866392", "rental_uris": {"ios": "https://dc.lft.to/lastmile_qr_scan", "android": "https://dc.lft.to/lastmile_qr_scan"}, "fusion_lon": 0.0, "lat": 38.9389825, "is_disabled": 0, "bike_id": "00f036d9daecac282af6fbb22f866392", "fusion_lat": 0.0, "is_reserved": 0, "lon": -77.03319083333334}, {"type": "electric_scooter", "name": "1b46ee30081def8ccb5da5c3e9079243", "rental_uris": {"ios": "https://dc.lft.to/lastmile_qr_scan", "android": "https://dc.lft.to/lastmile_qr_scan"}, "fusion_lon": 0.0, "lat": 38.9095185, "is_disabled": 0, "bike_id": "1b46ee30081def8ccb5da5c3e9079243", "fusion_lat": 0.0, "is_reserved": 0, "lon": -76.9988925}, {"type": "electric_scooter", "name": "0b76abca21c3ec42ec5e66af20ad6896", "rental_uris": {"ios": "https://dc.lft.to/lastmile_qr_scan", "android": "https://dc.lft.to/lastmile_qr_scan"}, "fusion_lon": 0.0, "lat": 38.91556083333333, "is_disabled": 0, "bike_id": "0b76abca21c3ec42ec5e66af20ad6896", "fusion_lat": 0.0, "is_reserved": 0, "lon": -77.03222783333334}, {"type": "electric_scooter", "name": "7549280230d3b0675c17fdcce2e1f230", "rental_uris": {"ios": "https://dc.lft.to/lastmile_qr_scan", "android": "https://dc.lft.to/lastmile_qr_scan"}, "fusion_lon": 0.0, "lat": 38.89607783333334, "is_disabled": 0, "bike_id": "7549280230d3b0675c17fdcce2e1f230", "fusion_lat": 0.0, "is_reserved": 0, "lon": -77.0480585}, {"type": "electric_scooter", "name": "6fc0f3b07f12b990e637226c2dfc112c", "rental_uris": {"ios": "https://dc.lft.to/lastmile_qr_scan", "android": "https://dc.lft.to/lastmile_qr_scan"}, "fusion_lon": 0.0, "lat": 38.918506, "is_disabled": 0, "bike_id": "6fc0f3b07f12b990e637226c2dfc112c", "fusion_lat": 0.0, "is_reserved": 0, "lon": -77.04503183333334}, {"type": "electric_scooter", "name": "8da0c06e323675fbe1b433249bed9101", "rental_uris": {"ios": "https://dc.lft.to/lastmile_qr_scan", "android": "https://dc.lft.to/lastmile_qr_scan"}, "fusion_lon": 0.0, "lat": 38.942725, "is_disabled": 0, "bike_id": "8da0c06e323675fbe1b433249bed9101", "fusion_lat": 0.0, "is_reserved": 0, "lon": -77.01264966666666}, {"type": "electric_bike", "name": "05b38c67f1be74378112f7a9db818aad", "rental_uris": {"ios": "https://dc.lft.to/lastmile_qr_scan", "android": "https://dc.lft.to/lastmile_qr_scan"}, "fusion_lon": 0.0, "lat": 38.90305083333333, "is_disabled": 0, "bike_id": "05b38c67f1be74378112f7a9db818aad", "fusion_lat": 0.0, "is_reserved": 0, "lon": -76.9765}, {"type": "electric_scooter", "name": "5ffc9ed9b6b06bf241f9c41d2f63e915", "rental_uris": {"ios": "https://dc.lft.to/lastmile_qr_scan", "android": "https://dc.lft.to/lastmile_qr_scan"}, "fusion_lon": 0.0, "lat": 38.900280333333335, "is_disabled": 0, "bike_id": "5ffc9ed9b6b06bf241f9c41d2f63e915", "fusion_lat": 0.0, "is_reserved": 0, "lon": -76.98748466666666}, {"type": "electric_scooter", "name": "bba282c1710016229d170d999c572764", "rental_uris": {"ios": "https://dc.lft.to/lastmile_qr_scan", "android": "https://dc.lft.to/lastmile_qr_scan"}, "fusion_lon": 0.0, "lat": 38.88432516666667, "is_disabled": 0, "bike_id": "bba282c1710016229d170d999c572764", "fusion_lat": 0.0, "is_reserved": 0, "lon": -77.01511116666667}, {"type": "electric_scooter", "name": "960f39729f855a15ff1fbd625952de94", "rental_uris": {"ios": "https://dc.lft.to/lastmile_qr_scan", "android": "https://dc.lft.to/lastmile_qr_scan"}, "fusion_lon": 0.0, "lat": 38.941228, "is_disabled": 0, "bike_id": "960f39729f855a15ff1fbd625952de94", "fusion_lat": 0.0, "is_reserved": 0, "lon": -77.01536766666666}, {"type": "electric_scooter", "name": "ef99e2505163c5ebc37f5096d5079461", "rental_uris": {"ios": "https://dc.lft.to/lastmile_qr_scan", "android": "https://dc.lft.to/lastmile_qr_scan"}, "fusion_lon": 0.0, "lat": 38.92519816666667, "is_disabled": 0, "bike_id": "ef99e2505163c5ebc37f5096d5079461", "fusion_lat": 0.0, "is_reserved": 0, "lon": -77.05127583333334}, {"type": "electric_scooter", "name": "9c1a712f47a9afcb12cd81c7c84b6e40", "rental_uris": {"ios": "https://dc.lft.to/lastmile_qr_scan", "android": "https://dc.lft.to/lastmile_qr_scan"}, "fusion_lon": 0.0, "lat": 38.8934995, "is_disabled": 0, "bike_id": "9c1a712f47a9afcb12cd81c7c84b6e40", "fusion_lat": 0.0, "is_reserved": 0, "lon": -77.0197485}, {"type": "electric_scooter", "name": "0e6ba11bb11414a92beeefcf1b9b6e63", "rental_uris": {"ios": "https://dc.lft.to/lastmile_qr_scan", "android": "https://dc.lft.to/lastmile_qr_scan"}, "fusion_lon": 0.0, "lat": 38.92747133333334, "is_disabled": 0, "bike_id": "0e6ba11bb11414a92beeefcf1b9b6e63", "fusion_lat": 0.0, "is_reserved": 0, "lon": -77.02531866666666}, {"type": "electric_scooter", "name": "8e74bcc2c41f320c046abbea8172112e", "rental_uris": {"ios": "https://dc.lft.to/lastmile_qr_scan", "android": "https://dc.lft.to/lastmile_qr_scan"}, "fusion_lon": 0.0, "lat": 38.9171695, "is_disabled": 0, "bike_id": "8e74bcc2c41f320c046abbea8172112e", "fusion_lat": 0.0, "is_reserved": 0, "lon": -77.02402516666666}, {"type": "electric_scooter", "name": "84e0dc82d99a2f8319ce201e7be28919", "rental_uris": {"ios": "https://dc.lft.to/lastmile_qr_scan", "android": "https://dc.lft.to/lastmile_qr_scan"}, "fusion_lon": 0.0, "lat": 38.896777666666665, "is_disabled": 0, "bike_id": "84e0dc82d99a2f8319ce201e7be28919", "fusion_lat": 0.0, "is_reserved": 0, "lon": -77.03205933333334}, {"type": "electric_scooter", "name": "67a214e59cded3b9fb5ded3ad3d9d656", "rental_uris": {"ios": "https://dc.lft.to/lastmile_qr_scan", "android": "https://dc.lft.to/lastmile_qr_scan"}, "fusion_lon": 0.0, "lat": 38.9389435, "is_disabled": 0, "bike_id": "67a214e59cded3b9fb5ded3ad3d9d656", "fusion_lat": 0.0, "is_reserved": 0, "lon": -77.03321916666667}, {"type": "electric_scooter", "name": "cd379a11d554aa73bcd0039d1e325bfc", "rental_uris": {"ios": "https://dc.lft.to/lastmile_qr_scan", "android": "https://dc.lft.to/lastmile_qr_scan"}, "fusion_lon": 0.0, "lat": 38.936864, "is_disabled": 0, "bike_id": "cd379a11d554aa73bcd0039d1e325bfc", "fusion_lat": 0.0, "is_reserved": 0, "lon": -77.03632416666666}, {"type": "electric_scooter", "name": "b513e21cef8d508fee26659300a4a259", "rental_uris": {"ios": "https://dc.lft.to/lastmile_qr_scan", "android": "https://dc.lft.to/lastmile_qr_scan"}, "fusion_lon": 0.0, "lat": 38.883073333333336, "is_disabled": 0, "bike_id": "b513e21cef8d508fee26659300a4a259", "fusion_lat": 0.0, "is_reserved": 0, "lon": -77.01770783333333}, {"type": "electric_scooter", "name": "debe3f9f17968156f00573e06f5975cd", "rental_uris": {"ios": "https://dc.lft.to/lastmile_qr_scan", "android": "https://dc.lft.to/lastmile_qr_scan"}, "fusion_lon": 0.0, "lat": 38.8737405, "is_disabled": 0, "bike_id": "debe3f9f17968156f00573e06f5975cd", "fusion_lat": 0.0, "is_reserved": 0, "lon": -76.97007583333334}, {"type": "electric_scooter", "name": "1f83c74b17f773e6ca8c354aa86a0367", "rental_uris": {"ios": "https://dc.lft.to/lastmile_qr_scan", "android": "https://dc.lft.to/lastmile_qr_scan"}, "fusion_lon": 0.0, "lat": 38.89874, "is_disabled": 0, "bike_id": "1f83c74b17f773e6ca8c354aa86a0367", "fusion_lat": 0.0, "is_reserved": 0, "lon": -76.93190183333333}, {"type": "electric_scooter", "name": "176821468ec7afdfed9e0390d38928e1", "rental_uris": {"ios": "https://dc.lft.to/lastmile_qr_scan", "android": "https://dc.lft.to/lastmile_qr_scan"}, "fusion_lon": 0.0, "lat": 38.873945666666664, "is_disabled": 0, "bike_id": "176821468ec7afdfed9e0390d38928e1", "fusion_lat": 0.0, "is_reserved": 0, "lon": -77.00203183333333}, {"type": "electric_scooter", "name": "cb4b44e0dbf1cf5c73f8786f7d27387a", "rental_uris": {"ios": "https://dc.lft.to/lastmile_qr_scan", "android": "https://dc.lft.to/lastmile_qr_scan"}, "fusion_lon": 0.0, "lat": 38.920573833333336, "is_disabled": 0, "bike_id": "cb4b44e0dbf1cf5c73f8786f7d27387a", "fusion_lat": 0.0, "is_reserved": 0, "lon": -77.02536666666667}, {"type": "electric_scooter", "name": "8ef03969c5b59ac0385c9d24a0551f33", "rental_uris": {"ios": "https://dc.lft.to/lastmile_qr_scan", "android": "https://dc.lft.to/lastmile_qr_scan"}, "fusion_lon": 0.0, "lat": 38.900130833333336, "is_disabled": 0, "bike_id": "8ef03969c5b59ac0385c9d24a0551f33", "fusion_lat": 0.0, "is_reserved": 0, "lon": -76.98854333333334}, {"type": "electric_scooter", "name": "2947102bee8620d461b202ac96f1a7c6", "rental_uris": {"ios": "https://dc.lft.to/lastmile_qr_scan", "android": "https://dc.lft.to/lastmile_qr_scan"}, "fusion_lon": 0.0, "lat": 38.883321, "is_disabled": 0, "bike_id": "2947102bee8620d461b202ac96f1a7c6", "fusion_lat": 0.0, "is_reserved": 0, "lon": -77.01742333333333}, {"type": "electric_scooter", "name": "e17cee53a4d09b27ca758e005c6a9076", "rental_uris": {"ios": "https://dc.lft.to/lastmile_qr_scan", "android": "https://dc.lft.to/lastmile_qr_scan"}, "fusion_lon": 0.0, "lat": 38.904732333333335, "is_disabled": 0, "bike_id": "e17cee53a4d09b27ca758e005c6a9076", "fusion_lat": 0.0, "is_reserved": 0, "lon": -77.03464333333334}, {"type": "electric_scooter", "name": "1848918266c0e2f7ee17692b6c3d84be", "rental_uris": {"ios": "https://dc.lft.to/lastmile_qr_scan", "android": "https://dc.lft.to/lastmile_qr_scan"}, "fusion_lon": 0.0, "lat": 38.919062333333336, "is_disabled": 0, "bike_id": "1848918266c0e2f7ee17692b6c3d84be", "fusion_lat": 0.0, "is_reserved": 0, "lon": -77.04105666666666}, {"type": "electric_scooter", "name": "c9346216035f8de2c71c65a1145d581e", "rental_uris": {"ios": "https://dc.lft.to/lastmile_qr_scan", "android": "https://dc.lft.to/lastmile_qr_scan"}, "fusion_lon": 0.0, "lat": 38.905004, "is_disabled": 0, "bike_id": "c9346216035f8de2c71c65a1145d581e", "fusion_lat": 0.0, "is_reserved": 0, "lon": -77.02948333333333}, {"type": "electric_scooter", "name": "854a1747771dc79edc7d51ce7782f7f0", "rental_uris": {"ios": "https://dc.lft.to/lastmile_qr_scan", "android": "https://dc.lft.to/lastmile_qr_scan"}, "fusion_lon": 0.0, "lat": 38.9098135, "is_disabled": 0, "bike_id": "854a1747771dc79edc7d51ce7782f7f0", "fusion_lat": 0.0, "is_reserved": 0, "lon": -77.06504283333334}, {"type": "electric_scooter", "name": "89b61a83bc0d51402cb960e9cc377de8", "rental_uris": {"ios": "https://dc.lft.to/lastmile_qr_scan", "android": "https://dc.lft.to/lastmile_qr_scan"}, "fusion_lon": 0.0, "lat": 38.9391055, "is_disabled": 0, "bike_id": "89b61a83bc0d51402cb960e9cc377de8", "fusion_lat": 0.0, "is_reserved": 0, "lon": -77.03624566666667}, {"type": "electric_scooter", "name": "0a5a6c6658bec45ed3f4f06f5b7728b1", "rental_uris": {"ios": "https://dc.lft.to/lastmile_qr_scan", "android": "https://dc.lft.to/lastmile_qr_scan"}, "fusion_lon": 0.0, "lat": 38.8961735, "is_disabled": 0, "bike_id": "0a5a6c6658bec45ed3f4f06f5b7728b1", "fusion_lat": 0.0, "is_reserved": 0, "lon": -77.00925}, {"type": "electric_bike", "name": "9912c3bb9d1d06bb2029b66c5320f2f2", "rental_uris": {"ios": "https://dc.lft.to/lastmile_qr_scan", "android": "https://dc.lft.to/lastmile_qr_scan"}, "fusion_lon": 0.0, "lat": 39.052529666666665, "is_disabled": 0, "bike_id": "9912c3bb9d1d06bb2029b66c5320f2f2", "fusion_lat": 0.0, "is_reserved": 0, "lon": -77.08065333333333}, {"type": "electric_scooter", "name": "4fa9c4d72d46d00e2f8b4d5a041a95f5", "rental_uris": {"ios": "https://dc.lft.to/lastmile_qr_scan", "android": "https://dc.lft.to/lastmile_qr_scan"}, "fusion_lon": 0.0, "lat": 38.9170355, "is_disabled": 0, "bike_id": "4fa9c4d72d46d00e2f8b4d5a041a95f5", "fusion_lat": 0.0, "is_reserved": 0, "lon": -77.03860016666667}, {"type": "electric_scooter", "name": "1a1ef51fa306a900f6e148b617d3178f", "rental_uris": {"ios": "https://dc.lft.to/lastmile_qr_scan", "android": "https://dc.lft.to/lastmile_qr_scan"}, "fusion_lon": 0.0, "lat": 38.9284655, "is_disabled": 0, "bike_id": "1a1ef51fa306a900f6e148b617d3178f", "fusion_lat": 0.0, "is_reserved": 0, "lon": -77.0328135}, {"type": "electric_scooter", "name": "de9fbb1d167202ee5303e8a45efdafea", "rental_uris": {"ios": "https://dc.lft.to/lastmile_qr_scan", "android": "https://dc.lft.to/lastmile_qr_scan"}, "fusion_lon": 0.0, "lat": 38.95643533333333, "is_disabled": 0, "bike_id": "de9fbb1d167202ee5303e8a45efdafea", "fusion_lat": 0.0, "is_reserved": 0, "lon": -77.02377266666667}, {"type": "electric_scooter", "name": "b62897ca98004d2feef55d7c7ba6c9a0", "rental_uris": {"ios": "https://dc.lft.to/lastmile_qr_scan", "android": "https://dc.lft.to/lastmile_qr_scan"}, "fusion_lon": 0.0, "lat": 38.9044985, "is_disabled": 0, "bike_id": "b62897ca98004d2feef55d7c7ba6c9a0", "fusion_lat": 0.0, "is_reserved": 0, "lon": -77.02874216666666}, {"type": "electric_scooter", "name": "af9eb17efadfe9a7ef1667d6f0f0e5f0", "rental_uris": {"ios": "https://dc.lft.to/lastmile_qr_scan", "android": "https://dc.lft.to/lastmile_qr_scan"}, "fusion_lon": 0.0, "lat": 38.88422283333333, "is_disabled": 0, "bike_id": "af9eb17efadfe9a7ef1667d6f0f0e5f0", "fusion_lat": 0.0, "is_reserved": 0, "lon": -77.01787983333334}, {"type": "electric_bike", "name": "12124a91aee2a41a2ef6db62a5475ce7", "rental_uris": {"ios": "https://dc.lft.to/lastmile_qr_scan", "android": "https://dc.lft.to/lastmile_qr_scan"}, "fusion_lon": 0.0, "lat": 39.0038535, "is_disabled": 0, "bike_id": "12124a91aee2a41a2ef6db62a5475ce7", "fusion_lat": 0.0, "is_reserved": 0, "lon": -77.01290683333333}, {"type": "electric_scooter", "name": "718b5a792c437475ec1be17c7c3df924", "rental_uris": {"ios": "https://dc.lft.to/lastmile_qr_scan", "android": "https://dc.lft.to/lastmile_qr_scan"}, "fusion_lon": 0.0, "lat": 38.884713, "is_disabled": 0, "bike_id": "718b5a792c437475ec1be17c7c3df924", "fusion_lat": 0.0, "is_reserved": 0, "lon": -77.01504216666666}, {"type": "electric_scooter", "name": "d1668ae277639bbce427f946409e3faa", "rental_uris": {"ios": "https://dc.lft.to/lastmile_qr_scan", "android": "https://dc.lft.to/lastmile_qr_scan"}, "fusion_lon": 0.0, "lat": 38.933600166666665, "is_disabled": 0, "bike_id": "d1668ae277639bbce427f946409e3faa", "fusion_lat": 0.0, "is_reserved": 0, "lon": -77.073561}, {"type": "electric_scooter", "name": "54e10082b41c220c3a718278fde52342", "rental_uris": {"ios": "https://dc.lft.to/lastmile_qr_scan", "android": "https://dc.lft.to/lastmile_qr_scan"}, "fusion_lon": 0.0, "lat": 38.909226, "is_disabled": 0, "bike_id": "54e10082b41c220c3a718278fde52342", "fusion_lat": 0.0, "is_reserved": 0, "lon": -77.03193833333333}, {"type": "electric_scooter", "name": "cb12a8e18ddaacbcde53aa20541d7f45", "rental_uris": {"ios": "https://dc.lft.to/lastmile_qr_scan", "android": "https://dc.lft.to/lastmile_qr_scan"}, "fusion_lon": 0.0, "lat": 38.9237645, "is_disabled": 0, "bike_id": "cb12a8e18ddaacbcde53aa20541d7f45", "fusion_lat": 0.0, "is_reserved": 0, "lon": -77.01906966666667}, {"type": "electric_scooter", "name": "4a03bb058721d09d941a8d60d38e7299", "rental_uris": {"ios": "https://dc.lft.to/lastmile_qr_scan", "android": "https://dc.lft.to/lastmile_qr_scan"}, "fusion_lon": 0.0, "lat": 38.9236545, "is_disabled": 0, "bike_id": "4a03bb058721d09d941a8d60d38e7299", "fusion_lat": 0.0, "is_reserved": 0, "lon": -77.050297}, {"type": "electric_bike", "name": "a25b0dc842ea6c6b2107f6f90cef2ef9", "rental_uris": {"ios": "https://dc.lft.to/lastmile_qr_scan", "android": "https://dc.lft.to/lastmile_qr_scan"}, "fusion_lon": 0.0, "lat": 39.0122825, "is_disabled": 0, "bike_id": "a25b0dc842ea6c6b2107f6f90cef2ef9", "fusion_lat": 0.0, "is_reserved": 0, "lon": -77.11083383333333}, {"type": "electric_scooter", "name": "8a7191530f8427d878ce23779dd7cb39", "rental_uris": {"ios": "https://dc.lft.to/lastmile_qr_scan", "android": "https://dc.lft.to/lastmile_qr_scan"}, "fusion_lon": 0.0, "lat": 38.911693166666666, "is_disabled": 0, "bike_id": "8a7191530f8427d878ce23779dd7cb39", "fusion_lat": 0.0, "is_reserved": 0, "lon": -77.0112585}, {"type": "electric_scooter", "name": "5f1202885b29fd4097ce10e100949daf", "rental_uris": {"ios": "https://dc.lft.to/lastmile_qr_scan", "android": "https://dc.lft.to/lastmile_qr_scan"}, "fusion_lon": 0.0, "lat": 38.884962, "is_disabled": 0, "bike_id": "5f1202885b29fd4097ce10e100949daf", "fusion_lat": 0.0, "is_reserved": 0, "lon": -77.01088716666666}, {"type": "electric_scooter", "name": "7ee81044d596f6d6bb864c48a8ab1b1d", "rental_uris": {"ios": "https://dc.lft.to/lastmile_qr_scan", "android": "https://dc.lft.to/lastmile_qr_scan"}, "fusion_lon": 0.0, "lat": 38.919367333333334, "is_disabled": 0, "bike_id": "7ee81044d596f6d6bb864c48a8ab1b1d", "fusion_lat": 0.0, "is_reserved": 0, "lon": -77.020724}, {"type": "electric_scooter", "name": "6df52b2b578f96bc0ab4a4443055c763", "rental_uris": {"ios": "https://dc.lft.to/lastmile_qr_scan", "android": "https://dc.lft.to/lastmile_qr_scan"}, "fusion_lon": 0.0, "lat": 38.898043, "is_disabled": 0, "bike_id": "6df52b2b578f96bc0ab4a4443055c763", "fusion_lat": 0.0, "is_reserved": 0, "lon": -77.02733783333333}, {"type": "electric_scooter", "name": "92a5f972eee0971579a52a433a346f33", "rental_uris": {"ios": "https://dc.lft.to/lastmile_qr_scan", "android": "https://dc.lft.to/lastmile_qr_scan"}, "fusion_lon": 0.0, "lat": 38.9316705, "is_disabled": 0, "bike_id": "92a5f972eee0971579a52a433a346f33", "fusion_lat": 0.0, "is_reserved": 0, "lon": -77.04303233333333}, {"type": "electric_scooter", "name": "397ab3fc351bdb87cfc59d38dab4d0cc", "rental_uris": {"ios": "https://dc.lft.to/lastmile_qr_scan", "android": "https://dc.lft.to/lastmile_qr_scan"}, "fusion_lon": 0.0, "lat": 38.936128333333336, "is_disabled": 0, "bike_id": "397ab3fc351bdb87cfc59d38dab4d0cc", "fusion_lat": 0.0, "is_reserved": 0, "lon": -77.037868}, {"type": "electric_scooter", "name": "013160b6e3795d3f115f7d3a492d56f5", "rental_uris": {"ios": "https://dc.lft.to/lastmile_qr_scan", "android": "https://dc.lft.to/lastmile_qr_scan"}, "fusion_lon": 0.0, "lat": 38.91987966666667, "is_disabled": 0, "bike_id": "013160b6e3795d3f115f7d3a492d56f5", "fusion_lat": 0.0, "is_reserved": 0, "lon": -76.97308233333334}, {"type": "electric_scooter", "name": "1be0219ece935e099953267376d55b98", "rental_uris": {"ios": "https://dc.lft.to/lastmile_qr_scan", "android": "https://dc.lft.to/lastmile_qr_scan"}, "fusion_lon": 0.0, "lat": 38.903942, "is_disabled": 0, "bike_id": "1be0219ece935e099953267376d55b98", "fusion_lat": 0.0, "is_reserved": 0, "lon": -76.98463383333333}, {"type": "electric_scooter", "name": "8306cf3485c7738891b07622d94b3305", "rental_uris": {"ios": "https://dc.lft.to/lastmile_qr_scan", "android": "https://dc.lft.to/lastmile_qr_scan"}, "fusion_lon": 0.0, "lat": 38.9243455, "is_disabled": 0, "bike_id": "8306cf3485c7738891b07622d94b3305", "fusion_lat": 0.0, "is_reserved": 0, "lon": -77.042553}, {"type": "electric_scooter", "name": "5a7bfb2d087ecb4c5bca15b2ff4dec42", "rental_uris": {"ios": "https://dc.lft.to/lastmile_qr_scan", "android": "https://dc.lft.to/lastmile_qr_scan"}, "fusion_lon": 0.0, "lat": 38.917113, "is_disabled": 0, "bike_id": "5a7bfb2d087ecb4c5bca15b2ff4dec42", "fusion_lat": 0.0, "is_reserved": 0, "lon": -77.03222466666666}, {"type": "electric_scooter", "name": "b893778cbbd8ae3349636f014ee53377", "rental_uris": {"ios": "https://dc.lft.to/lastmile_qr_scan", "android": "https://dc.lft.to/lastmile_qr_scan"}, "fusion_lon": 0.0, "lat": 38.92123266666667, "is_disabled": 0, "bike_id": "b893778cbbd8ae3349636f014ee53377", "fusion_lat": 0.0, "is_reserved": 0, "lon": -77.01922183333333}, {"type": "electric_scooter", "name": "6c50e07064303169eb538e18bc092120", "rental_uris": {"ios": "https://dc.lft.to/lastmile_qr_scan", "android": "https://dc.lft.to/lastmile_qr_scan"}, "fusion_lon": 0.0, "lat": 38.90444983333333, "is_disabled": 0, "bike_id": "6c50e07064303169eb538e18bc092120", "fusion_lat": 0.0, "is_reserved": 0, "lon": -77.043524}, {"type": "electric_scooter", "name": "f2307c261f7586a2b532f7761b7bb9e9", "rental_uris": {"ios": "https://dc.lft.to/lastmile_qr_scan", "android": "https://dc.lft.to/lastmile_qr_scan"}, "fusion_lon": 0.0, "lat": 38.90970766666667, "is_disabled": 0, "bike_id": "f2307c261f7586a2b532f7761b7bb9e9", "fusion_lat": 0.0, "is_reserved": 0, "lon": -77.038699}, {"type": "electric_scooter", "name": "9dac8fa4a3cb35fa829ed951c253b322", "rental_uris": {"ios": "https://dc.lft.to/lastmile_qr_scan", "android": "https://dc.lft.to/lastmile_qr_scan"}, "fusion_lon": 0.0, "lat": 38.88178466666667, "is_disabled": 0, "bike_id": "9dac8fa4a3cb35fa829ed951c253b322", "fusion_lat": 0.0, "is_reserved": 0, "lon": -76.9590395}, {"type": "electric_scooter", "name": "5837ca95ae3cc3310861f51fd51dba87", "rental_uris": {"ios": "https://dc.lft.to/lastmile_qr_scan", "android": "https://dc.lft.to/lastmile_qr_scan"}, "fusion_lon": 0.0, "lat": 38.927577166666666, "is_disabled": 0, "bike_id": "5837ca95ae3cc3310861f51fd51dba87", "fusion_lat": 0.0, "is_reserved": 0, "lon": -77.0327415}, {"type": "electric_scooter", "name": "f838c8bcf6390809036323cc83ed7f7d", "rental_uris": {"ios": "https://dc.lft.to/lastmile_qr_scan", "android": "https://dc.lft.to/lastmile_qr_scan"}, "fusion_lon": 0.0, "lat": 38.9324845, "is_disabled": 0, "bike_id": "f838c8bcf6390809036323cc83ed7f7d", "fusion_lat": 0.0, "is_reserved": 0, "lon": -77.0328695}, {"type": "electric_scooter", "name": "c9c84572c7fde22d5be84a319b0f66ce", "rental_uris": {"ios": "https://dc.lft.to/lastmile_qr_scan", "android": "https://dc.lft.to/lastmile_qr_scan"}, "fusion_lon": 0.0, "lat": 38.93249183333333, "is_disabled": 0, "bike_id": "c9c84572c7fde22d5be84a319b0f66ce", "fusion_lat": 0.0, "is_reserved": 0, "lon": -77.03863866666667}, {"type": "electric_scooter", "name": "3e9755d560d850ddfa35f6f8b7840526", "rental_uris": {"ios": "https://dc.lft.to/lastmile_qr_scan", "android": "https://dc.lft.to/lastmile_qr_scan"}, "fusion_lon": 0.0, "lat": 38.92325183333333, "is_disabled": 0, "bike_id": "3e9755d560d850ddfa35f6f8b7840526", "fusion_lat": 0.0, "is_reserved": 0, "lon": -77.0297455}, {"type": "electric_scooter", "name": "d74643b41484a7683b5417c7e0d151ad", "rental_uris": {"ios": "https://dc.lft.to/lastmile_qr_scan", "android": "https://dc.lft.to/lastmile_qr_scan"}, "fusion_lon": 0.0, "lat": 38.9284225, "is_disabled": 0, "bike_id": "d74643b41484a7683b5417c7e0d151ad", "fusion_lat": 0.0, "is_reserved": 0, "lon": -77.03651316666667}, {"type": "electric_scooter", "name": "f23cadea0a2021c57599a1e0562ba079", "rental_uris": {"ios": "https://dc.lft.to/lastmile_qr_scan", "android": "https://dc.lft.to/lastmile_qr_scan"}, "fusion_lon": 0.0, "lat": 38.9078505, "is_disabled": 0, "bike_id": "f23cadea0a2021c57599a1e0562ba079", "fusion_lat": 0.0, "is_reserved": 0, "lon": -77.04228816666667}, {"type": "electric_bike", "name": "8da69b92df6533f01d1c9a644f1bcc76", "rental_uris": {"ios": "https://dc.lft.to/lastmile_qr_scan", "android": "https://dc.lft.to/lastmile_qr_scan"}, "fusion_lon": 0.0, "lat": 38.990514833333336, "is_disabled": 0, "bike_id": "8da69b92df6533f01d1c9a644f1bcc76", "fusion_lat": 0.0, "is_reserved": 0, "lon": -77.03873783333333}, {"type": "electric_scooter", "name": "44d789dfb6a369d0b2b657f91fe7416f", "rental_uris": {"ios": "https://dc.lft.to/lastmile_qr_scan", "android": "https://dc.lft.to/lastmile_qr_scan"}, "fusion_lon": 0.0, "lat": 38.8971405, "is_disabled": 0, "bike_id": "44d789dfb6a369d0b2b657f91fe7416f", "fusion_lat": 0.0, "is_reserved": 0, "lon": -77.04548616666666}, {"type": "electric_bike", "name": "f8c4af745a012ac3f971679631c55f18", "rental_uris": {"ios": "https://dc.lft.to/lastmile_qr_scan", "android": "https://dc.lft.to/lastmile_qr_scan"}, "fusion_lon": 0.0, "lat": 38.835392, "is_disabled": 0, "bike_id": "f8c4af745a012ac3f971679631c55f18", "fusion_lat": 0.0, "is_reserved": 0, "lon": -76.98726966666666}, {"type": "electric_scooter", "name": "e6f17e1ed775775cf2dcfbc541771411", "rental_uris": {"ios": "https://dc.lft.to/lastmile_qr_scan", "android": "https://dc.lft.to/lastmile_qr_scan"}, "fusion_lon": 0.0, "lat": 38.8863195, "is_disabled": 0, "bike_id": "e6f17e1ed775775cf2dcfbc541771411", "fusion_lat": 0.0, "is_reserved": 0, "lon": -77.0153485}, {"type": "electric_scooter", "name": "c04204a611a8017a804250afa517db1f", "rental_uris": {"ios": "https://dc.lft.to/lastmile_qr_scan", "android": "https://dc.lft.to/lastmile_qr_scan"}, "fusion_lon": 0.0, "lat": 38.843968, "is_disabled": 0, "bike_id": "c04204a611a8017a804250afa517db1f", "fusion_lat": 0.0, "is_reserved": 0, "lon": -76.98949766666667}, {"type": "electric_scooter", "name": "ec4d4ff0e6130c2c1d54aa5af7d29e47", "rental_uris": {"ios": "https://dc.lft.to/lastmile_qr_scan", "android": "https://dc.lft.to/lastmile_qr_scan"}, "fusion_lon": 0.0, "lat": 38.916744, "is_disabled": 0, "bike_id": "ec4d4ff0e6130c2c1d54aa5af7d29e47", "fusion_lat": 0.0, "is_reserved": 0, "lon": -77.026967}, {"type": "electric_scooter", "name": "c41af2bdb7b82e0606318e1ddb85541c", "rental_uris": {"ios": "https://dc.lft.to/lastmile_qr_scan", "android": "https://dc.lft.to/lastmile_qr_scan"}, "fusion_lon": 0.0, "lat": 38.95641066666666, "is_disabled": 0, "bike_id": "c41af2bdb7b82e0606318e1ddb85541c", "fusion_lat": 0.0, "is_reserved": 0, "lon": -76.99791666666667}, {"type": "electric_scooter", "name": "46ddb8696ca36f799fc9c7dff45e9372", "rental_uris": {"ios": "https://dc.lft.to/lastmile_qr_scan", "android": "https://dc.lft.to/lastmile_qr_scan"}, "fusion_lon": 0.0, "lat": 38.9035755, "is_disabled": 0, "bike_id": "46ddb8696ca36f799fc9c7dff45e9372", "fusion_lat": 0.0, "is_reserved": 0, "lon": -77.00757416666667}, {"type": "electric_scooter", "name": "29298455bd4edba0349d2907d42a35e5", "rental_uris": {"ios": "https://dc.lft.to/lastmile_qr_scan", "android": "https://dc.lft.to/lastmile_qr_scan"}, "fusion_lon": 0.0, "lat": 38.928627166666665, "is_disabled": 0, "bike_id": "29298455bd4edba0349d2907d42a35e5", "fusion_lat": 0.0, "is_reserved": 0, "lon": -77.01356383333334}, {"type": "electric_scooter", "name": "399750aac359162ba7c78c3fe2c8f35e", "rental_uris": {"ios": "https://dc.lft.to/lastmile_qr_scan", "android": "https://dc.lft.to/lastmile_qr_scan"}, "fusion_lon": 0.0, "lat": 38.91551616666667, "is_disabled": 0, "bike_id": "399750aac359162ba7c78c3fe2c8f35e", "fusion_lat": 0.0, "is_reserved": 0, "lon": -77.02210066666666}, {"type": "electric_scooter", "name": "6cbf7b70d4fcdcc6e066d3ef4a4d6f62", "rental_uris": {"ios": "https://dc.lft.to/lastmile_qr_scan", "android": "https://dc.lft.to/lastmile_qr_scan"}, "fusion_lon": 0.0, "lat": 38.93442066666667, "is_disabled": 0, "bike_id": "6cbf7b70d4fcdcc6e066d3ef4a4d6f62", "fusion_lat": 0.0, "is_reserved": 0, "lon": -77.02982083333333}, {"type": "electric_scooter", "name": "7c820be119f7eb35e4db1999124d94c7", "rental_uris": {"ios": "https://dc.lft.to/lastmile_qr_scan", "android": "https://dc.lft.to/lastmile_qr_scan"}, "fusion_lon": 0.0, "lat": 38.856466166666664, "is_disabled": 0, "bike_id": "7c820be119f7eb35e4db1999124d94c7", "fusion_lat": 0.0, "is_reserved": 0, "lon": -76.99675916666666}, {"type": "electric_scooter", "name": "50a0a6744723c0b6ea7e10418e9926d2", "rental_uris": {"ios": "https://dc.lft.to/lastmile_qr_scan", "android": "https://dc.lft.to/lastmile_qr_scan"}, "fusion_lon": 0.0, "lat": 38.874631, "is_disabled": 0, "bike_id": "50a0a6744723c0b6ea7e10418e9926d2", "fusion_lat": 0.0, "is_reserved": 0, "lon": -77.0055855}, {"type": "electric_scooter", "name": "3f69e24f279561af1021f0b3d9385277", "rental_uris": {"ios": "https://dc.lft.to/lastmile_qr_scan", "android": "https://dc.lft.to/lastmile_qr_scan"}, "fusion_lon": 0.0, "lat": 38.956828333333334, "is_disabled": 0, "bike_id": "3f69e24f279561af1021f0b3d9385277", "fusion_lat": 0.0, "is_reserved": 0, "lon": -77.01928116666667}, {"type": "electric_bike", "name": "9446a1eb3ddae8daad3078b56c31b8f4", "rental_uris": {"ios": "https://dc.lft.to/lastmile_qr_scan", "android": "https://dc.lft.to/lastmile_qr_scan"}, "fusion_lon": 0.0, "lat": 38.897357166666666, "is_disabled": 0, "bike_id": "9446a1eb3ddae8daad3078b56c31b8f4", "fusion_lat": 0.0, "is_reserved": 0, "lon": -76.92044466666667}, {"type": "electric_scooter", "name": "6525a4a0128ca921ff8b2500d94c2907", "rental_uris": {"ios": "https://dc.lft.to/lastmile_qr_scan", "android": "https://dc.lft.to/lastmile_qr_scan"}, "fusion_lon": 0.0, "lat": 38.8990635, "is_disabled": 0, "bike_id": "6525a4a0128ca921ff8b2500d94c2907", "fusion_lat": 0.0, "is_reserved": 0, "lon": -76.93363733333334}, {"type": "electric_bike", "name": "d872247ab129b7ae9e990a4c09c04172", "rental_uris": {"ios": "https://dc.lft.to/lastmile_qr_scan", "android": "https://dc.lft.to/lastmile_qr_scan"}, "fusion_lon": 0.0, "lat": 38.988460333333336, "is_disabled": 0, "bike_id": "d872247ab129b7ae9e990a4c09c04172", "fusion_lat": 0.0, "is_reserved": 0, "lon": -77.00204883333333}, {"type": "electric_scooter", "name": "d30e18e1e11a4417a7b1b8dda308f605", "rental_uris": {"ios": "https://dc.lft.to/lastmile_qr_scan", "android": "https://dc.lft.to/lastmile_qr_scan"}, "fusion_lon": 0.0, "lat": 38.908362333333336, "is_disabled": 0, "bike_id": "d30e18e1e11a4417a7b1b8dda308f605", "fusion_lat": 0.0, "is_reserved": 0, "lon": -77.0319585}, {"type": "electric_scooter", "name": "0e4c9600f07dfaa1735b793677243599", "rental_uris": {"ios": "https://dc.lft.to/lastmile_qr_scan", "android": "https://dc.lft.to/lastmile_qr_scan"}, "fusion_lon": 0.0, "lat": 38.90113066666667, "is_disabled": 0, "bike_id": "0e4c9600f07dfaa1735b793677243599", "fusion_lat": 0.0, "is_reserved": 0, "lon": -77.044826}, {"type": "electric_scooter", "name": "e884d31d900cacca7ce969a60aa7c918", "rental_uris": {"ios": "https://dc.lft.to/lastmile_qr_scan", "android": "https://dc.lft.to/lastmile_qr_scan"}, "fusion_lon": 0.0, "lat": 38.9097435, "is_disabled": 0, "bike_id": "e884d31d900cacca7ce969a60aa7c918", "fusion_lat": 0.0, "is_reserved": 0, "lon": -77.03214216666667}, {"type": "electric_scooter", "name": "0c1fb689b116bbef23ca7b5541607d4f", "rental_uris": {"ios": "https://dc.lft.to/lastmile_qr_scan", "android": "https://dc.lft.to/lastmile_qr_scan"}, "fusion_lon": 0.0, "lat": 38.93119016666667, "is_disabled": 0, "bike_id": "0c1fb689b116bbef23ca7b5541607d4f", "fusion_lat": 0.0, "is_reserved": 0, "lon": -77.03881366666667}, {"type": "electric_scooter", "name": "f44edecdfd67c5e307a1f26c2740289c", "rental_uris": {"ios": "https://dc.lft.to/lastmile_qr_scan", "android": "https://dc.lft.to/lastmile_qr_scan"}, "fusion_lon": 0.0, "lat": 38.89731033333333, "is_disabled": 0, "bike_id": "f44edecdfd67c5e307a1f26c2740289c", "fusion_lat": 0.0, "is_reserved": 0, "lon": -77.00372916666667}, {"type": "electric_scooter", "name": "f2dc662181119564a700e66a9ec7be0b", "rental_uris": {"ios": "https://dc.lft.to/lastmile_qr_scan", "android": "https://dc.lft.to/lastmile_qr_scan"}, "fusion_lon": 0.0, "lat": 38.9177385, "is_disabled": 0, "bike_id": "f2dc662181119564a700e66a9ec7be0b", "fusion_lat": 0.0, "is_reserved": 0, "lon": -77.02307}, {"type": "electric_scooter", "name": "0c2b3b40376137f35e6506de71724f42", "rental_uris": {"ios": "https://dc.lft.to/lastmile_qr_scan", "android": "https://dc.lft.to/lastmile_qr_scan"}, "fusion_lon": 0.0, "lat": 38.9168075, "is_disabled": 0, "bike_id": "0c2b3b40376137f35e6506de71724f42", "fusion_lat": 0.0, "is_reserved": 0, "lon": -77.02945583333333}, {"type": "electric_scooter", "name": "73d690f2732c8a2b9618324e14439e2e", "rental_uris": {"ios": "https://dc.lft.to/lastmile_qr_scan", "android": "https://dc.lft.to/lastmile_qr_scan"}, "fusion_lon": 0.0, "lat": 38.924525333333335, "is_disabled": 0, "bike_id": "73d690f2732c8a2b9618324e14439e2e", "fusion_lat": 0.0, "is_reserved": 0, "lon": -77.03324016666667}, {"type": "electric_scooter", "name": "d72905c03c8f6ec9b794997a454dc9e6", "rental_uris": {"ios": "https://dc.lft.to/lastmile_qr_scan", "android": "https://dc.lft.to/lastmile_qr_scan"}, "fusion_lon": 0.0, "lat": 38.90624833333333, "is_disabled": 0, "bike_id": "d72905c03c8f6ec9b794997a454dc9e6", "fusion_lat": 0.0, "is_reserved": 0, "lon": -76.98706183333333}, {"type": "electric_scooter", "name": "a4b6fc667c2539c6548e2539bea665f9", "rental_uris": {"ios": "https://dc.lft.to/lastmile_qr_scan", "android": "https://dc.lft.to/lastmile_qr_scan"}, "fusion_lon": 0.0, "lat": 38.908365333333336, "is_disabled": 0, "bike_id": "a4b6fc667c2539c6548e2539bea665f9", "fusion_lat": 0.0, "is_reserved": 0, "lon": -77.02180533333333}, {"type": "electric_scooter", "name": "04baee65366c94e78825b90c22e58e06", "rental_uris": {"ios": "https://dc.lft.to/lastmile_qr_scan", "android": "https://dc.lft.to/lastmile_qr_scan"}, "fusion_lon": 0.0, "lat": 38.9049605, "is_disabled": 0, "bike_id": "04baee65366c94e78825b90c22e58e06", "fusion_lat": 0.0, "is_reserved": 0, "lon": -76.9813515}, {"type": "electric_scooter", "name": "9a1e7f22ab00ce29bc67df3fff232d6b", "rental_uris": {"ios": "https://dc.lft.to/lastmile_qr_scan", "android": "https://dc.lft.to/lastmile_qr_scan"}, "fusion_lon": 0.0, "lat": 38.91412666666667, "is_disabled": 0, "bike_id": "9a1e7f22ab00ce29bc67df3fff232d6b", "fusion_lat": 0.0, "is_reserved": 0, "lon": -77.018127}, {"type": "electric_scooter", "name": "164e7d3d971579ebcfe527cb31c4e318", "rental_uris": {"ios": "https://dc.lft.to/lastmile_qr_scan", "android": "https://dc.lft.to/lastmile_qr_scan"}, "fusion_lon": 0.0, "lat": 38.900227, "is_disabled": 0, "bike_id": "164e7d3d971579ebcfe527cb31c4e318", "fusion_lat": 0.0, "is_reserved": 0, "lon": -76.9739925}, {"type": "electric_scooter", "name": "111ac0837159a9ecf5147335ec22815f", "rental_uris": {"ios": "https://dc.lft.to/lastmile_qr_scan", "android": "https://dc.lft.to/lastmile_qr_scan"}, "fusion_lon": 0.0, "lat": 38.9319535, "is_disabled": 0, "bike_id": "111ac0837159a9ecf5147335ec22815f", "fusion_lat": 0.0, "is_reserved": 0, "lon": -77.01991166666667}, {"type": "electric_bike", "name": "887448fbec135918c748e924e1bbb7e8", "rental_uris": {"ios": "https://dc.lft.to/lastmile_qr_scan", "android": "https://dc.lft.to/lastmile_qr_scan"}, "fusion_lon": 0.0, "lat": 38.945099166666665, "is_disabled": 0, "bike_id": "887448fbec135918c748e924e1bbb7e8", "fusion_lat": 0.0, "is_reserved": 0, "lon": -77.0067205}, {"type": "electric_scooter", "name": "696c7d1a811236f02ee45234dfb2184e", "rental_uris": {"ios": "https://dc.lft.to/lastmile_qr_scan", "android": "https://dc.lft.to/lastmile_qr_scan"}, "fusion_lon": 0.0, "lat": 38.93329816666667, "is_disabled": 0, "bike_id": "696c7d1a811236f02ee45234dfb2184e", "fusion_lat": 0.0, "is_reserved": 0, "lon": -77.03265783333333}, {"type": "electric_scooter", "name": "d5e2382194cf97489bade9da6813051b", "rental_uris": {"ios": "https://dc.lft.to/lastmile_qr_scan", "android": "https://dc.lft.to/lastmile_qr_scan"}, "fusion_lon": 0.0, "lat": 38.912281166666666, "is_disabled": 0, "bike_id": "d5e2382194cf97489bade9da6813051b", "fusion_lat": 0.0, "is_reserved": 0, "lon": -77.03675666666666}, {"type": "electric_scooter", "name": "78c7b0de8b369db0224abef159ea7048", "rental_uris": {"ios": "https://dc.lft.to/lastmile_qr_scan", "android": "https://dc.lft.to/lastmile_qr_scan"}, "fusion_lon": 0.0, "lat": 38.9134215, "is_disabled": 0, "bike_id": "78c7b0de8b369db0224abef159ea7048", "fusion_lat": 0.0, "is_reserved": 0, "lon": -77.0486555}, {"type": "electric_scooter", "name": "9eea70e12560fef255a15b03fc7d4539", "rental_uris": {"ios": "https://dc.lft.to/lastmile_qr_scan", "android": "https://dc.lft.to/lastmile_qr_scan"}, "fusion_lon": 0.0, "lat": 38.920280166666664, "is_disabled": 0, "bike_id": "9eea70e12560fef255a15b03fc7d4539", "fusion_lat": 0.0, "is_reserved": 0, "lon": -77.017838}, {"type": "electric_scooter", "name": "6c25e1c24e87b075d36c9928836f0028", "rental_uris": {"ios": "https://dc.lft.to/lastmile_qr_scan", "android": "https://dc.lft.to/lastmile_qr_scan"}, "fusion_lon": 0.0, "lat": 38.89282466666667, "is_disabled": 0, "bike_id": "6c25e1c24e87b075d36c9928836f0028", "fusion_lat": 0.0, "is_reserved": 0, "lon": -76.983089}, {"type": "electric_scooter", "name": "aa336d86146f34c0f04559b529c173b1", "rental_uris": {"ios": "https://dc.lft.to/lastmile_qr_scan", "android": "https://dc.lft.to/lastmile_qr_scan"}, "fusion_lon": 0.0, "lat": 38.90706933333333, "is_disabled": 0, "bike_id": "aa336d86146f34c0f04559b529c173b1", "fusion_lat": 0.0, "is_reserved": 0, "lon": -77.02561716666666}, {"type": "electric_scooter", "name": "4fa7febf984dbea28b34a26212e65476", "rental_uris": {"ios": "https://dc.lft.to/lastmile_qr_scan", "android": "https://dc.lft.to/lastmile_qr_scan"}, "fusion_lon": 0.0, "lat": 38.91910633333333, "is_disabled": 0, "bike_id": "4fa7febf984dbea28b34a26212e65476", "fusion_lat": 0.0, "is_reserved": 0, "lon": -77.0344205}, {"type": "electric_scooter", "name": "d71534779f447f8645bad338fa28f371", "rental_uris": {"ios": "https://dc.lft.to/lastmile_qr_scan", "android": "https://dc.lft.to/lastmile_qr_scan"}, "fusion_lon": 0.0, "lat": 38.884472333333335, "is_disabled": 0, "bike_id": "d71534779f447f8645bad338fa28f371", "fusion_lat": 0.0, "is_reserved": 0, "lon": -76.95099316666666}, {"type": "electric_scooter", "name": "9ef7958d61c743dad7b5ba8daf72f712", "rental_uris": {"ios": "https://dc.lft.to/lastmile_qr_scan", "android": "https://dc.lft.to/lastmile_qr_scan"}, "fusion_lon": 0.0, "lat": 38.920694, "is_disabled": 0, "bike_id": "9ef7958d61c743dad7b5ba8daf72f712", "fusion_lat": 0.0, "is_reserved": 0, "lon": -77.040876}, {"type": "electric_scooter", "name": "4e18308034cf1c0c340cd0532dee133c", "rental_uris": {"ios": "https://dc.lft.to/lastmile_qr_scan", "android": "https://dc.lft.to/lastmile_qr_scan"}, "fusion_lon": 0.0, "lat": 38.94326083333333, "is_disabled": 0, "bike_id": "4e18308034cf1c0c340cd0532dee133c", "fusion_lat": 0.0, "is_reserved": 0, "lon": -77.0131455}, {"type": "electric_scooter", "name": "9dc28084dd538158aefff1160d791d6a", "rental_uris": {"ios": "https://dc.lft.to/lastmile_qr_scan", "android": "https://dc.lft.to/lastmile_qr_scan"}, "fusion_lon": 0.0, "lat": 38.901678, "is_disabled": 0, "bike_id": "9dc28084dd538158aefff1160d791d6a", "fusion_lat": 0.0, "is_reserved": 0, "lon": -77.01322666666667}, {"type": "electric_scooter", "name": "311ef8fe8e6ecb8fd02b317897401438", "rental_uris": {"ios": "https://dc.lft.to/lastmile_qr_scan", "android": "https://dc.lft.to/lastmile_qr_scan"}, "fusion_lon": 0.0, "lat": 38.89294616666667, "is_disabled": 0, "bike_id": "311ef8fe8e6ecb8fd02b317897401438", "fusion_lat": 0.0, "is_reserved": 0, "lon": -76.97525933333333}, {"type": "electric_scooter", "name": "a94d43e9ee82d6fc20acd6363e68cfa3", "rental_uris": {"ios": "https://dc.lft.to/lastmile_qr_scan", "android": "https://dc.lft.to/lastmile_qr_scan"}, "fusion_lon": 0.0, "lat": 38.91297933333333, "is_disabled": 0, "bike_id": "a94d43e9ee82d6fc20acd6363e68cfa3", "fusion_lat": 0.0, "is_reserved": 0, "lon": -77.048712}, {"type": "electric_scooter", "name": "3cb5a58534af47ff95228884cb8dcc4d", "rental_uris": {"ios": "https://dc.lft.to/lastmile_qr_scan", "android": "https://dc.lft.to/lastmile_qr_scan"}, "fusion_lon": 0.0, "lat": 38.902007, "is_disabled": 0, "bike_id": "3cb5a58534af47ff95228884cb8dcc4d", "fusion_lat": 0.0, "is_reserved": 0, "lon": -76.9820945}, {"type": "electric_scooter", "name": "789d201c4bf1e56b27f18212d454722a", "rental_uris": {"ios": "https://dc.lft.to/lastmile_qr_scan", "android": "https://dc.lft.to/lastmile_qr_scan"}, "fusion_lon": 0.0, "lat": 38.936808, "is_disabled": 0, "bike_id": "789d201c4bf1e56b27f18212d454722a", "fusion_lat": 0.0, "is_reserved": 0, "lon": -77.03628733333333}, {"type": "electric_scooter", "name": "7d0088f7404aa43d75957bdae3c1092f", "rental_uris": {"ios": "https://dc.lft.to/lastmile_qr_scan", "android": "https://dc.lft.to/lastmile_qr_scan"}, "fusion_lon": 0.0, "lat": 38.8617695, "is_disabled": 0, "bike_id": "7d0088f7404aa43d75957bdae3c1092f", "fusion_lat": 0.0, "is_reserved": 0, "lon": -76.9837195}, {"type": "electric_scooter", "name": "bed1499c6b11c93752ab99756314b7a0", "rental_uris": {"ios": "https://dc.lft.to/lastmile_qr_scan", "android": "https://dc.lft.to/lastmile_qr_scan"}, "fusion_lon": 0.0, "lat": 38.90581383333333, "is_disabled": 0, "bike_id": "bed1499c6b11c93752ab99756314b7a0", "fusion_lat": 0.0, "is_reserved": 0, "lon": -77.022105}, {"type": "electric_scooter", "name": "4b74330afb36e45b5fbc64b9a93730f2", "rental_uris": {"ios": "https://dc.lft.to/lastmile_qr_scan", "android": "https://dc.lft.to/lastmile_qr_scan"}, "fusion_lon": 0.0, "lat": 38.905605, "is_disabled": 0, "bike_id": "4b74330afb36e45b5fbc64b9a93730f2", "fusion_lat": 0.0, "is_reserved": 0, "lon": -77.0221615}, {"type": "electric_scooter", "name": "d3f362656f11de883aa64a2a0a6a1b54", "rental_uris": {"ios": "https://dc.lft.to/lastmile_qr_scan", "android": "https://dc.lft.to/lastmile_qr_scan"}, "fusion_lon": 0.0, "lat": 38.896084, "is_disabled": 0, "bike_id": "d3f362656f11de883aa64a2a0a6a1b54", "fusion_lat": 0.0, "is_reserved": 0, "lon": -77.02327783333334}, {"type": "electric_scooter", "name": "644826c0b081ab0295154258ce61019f", "rental_uris": {"ios": "https://dc.lft.to/lastmile_qr_scan", "android": "https://dc.lft.to/lastmile_qr_scan"}, "fusion_lon": 0.0, "lat": 38.92411366666666, "is_disabled": 0, "bike_id": "644826c0b081ab0295154258ce61019f", "fusion_lat": 0.0, "is_reserved": 0, "lon": -77.020343}, {"type": "electric_scooter", "name": "efb6b819378b4c6507918f04446c26af", "rental_uris": {"ios": "https://dc.lft.to/lastmile_qr_scan", "android": "https://dc.lft.to/lastmile_qr_scan"}, "fusion_lon": 0.0, "lat": 38.9177795, "is_disabled": 0, "bike_id": "efb6b819378b4c6507918f04446c26af", "fusion_lat": 0.0, "is_reserved": 0, "lon": -77.022227}, {"type": "electric_scooter", "name": "2c12d53525bcb7a45cbfe746fc9248c3", "rental_uris": {"ios": "https://dc.lft.to/lastmile_qr_scan", "android": "https://dc.lft.to/lastmile_qr_scan"}, "fusion_lon": 0.0, "lat": 38.89899333333334, "is_disabled": 0, "bike_id": "2c12d53525bcb7a45cbfe746fc9248c3", "fusion_lat": 0.0, "is_reserved": 0, "lon": -77.002299}, {"type": "electric_scooter", "name": "de4f4bf57617c98baaabe2d8554af22b", "rental_uris": {"ios": "https://dc.lft.to/lastmile_qr_scan", "android": "https://dc.lft.to/lastmile_qr_scan"}, "fusion_lon": 0.0, "lat": 38.93606583333333, "is_disabled": 0, "bike_id": "de4f4bf57617c98baaabe2d8554af22b", "fusion_lat": 0.0, "is_reserved": 0, "lon": -77.05863983333333}, {"type": "electric_scooter", "name": "ac96afc50eb82e44493a3c31d93c24d3", "rental_uris": {"ios": "https://dc.lft.to/lastmile_qr_scan", "android": "https://dc.lft.to/lastmile_qr_scan"},