{"data": {"bikes": [{"name": "11c27872cf3affede675ed5fbcd6df9d", "type": "electric_scooter", "lat": 38.90128633333333, "is_reserved": 0, "lon": -77.033332, "fusion_lon": 0.0, "is_disabled": 0, "fusion_lat": 0.0, "bike_id": "11c27872cf3affede675ed5fbcd6df9d", "rental_uris": {"ios": "https://dc.lft.to/lastmile_qr_scan", "android": "https://dc.lft.to/lastmile_qr_scan"}}, {"name": "4cbb73630a1b7eebb637d0838f95edbc", "type": "electric_scooter", "lat": 38.90462566666667, "is_reserved": 0, "lon": -77.0464375, "fusion_lon": 0.0, "is_disabled": 0, "fusion_lat": 0.0, "bike_id": "4cbb73630a1b7eebb637d0838f95edbc", "rental_uris": {"ios": "https://dc.lft.to/lastmile_qr_scan", "android": "https://dc.lft.to/lastmile_qr_scan"}}, {"name": "2c3cc7c8e4f3a47fc4d37c10197a3f2d", "type": "electric_scooter", "lat": 38.9181715, "is_reserved": 0, "lon": -77.02526233333333, "fusion_lon": 0.0, "is_disabled": 0, "fusion_lat": 0.0, "bike_id": "2c3cc7c8e4f3a47fc4d37c10197a3f2d", "rental_uris": {"ios": "https://dc.lft.to/lastmile_qr_scan", "android": "https://dc.lft.to/lastmile_qr_scan"}}, {"name": "acd8c3f211edc527277ef9f04474fc37", "type": "electric_scooter", "lat": 38.9095735, "is_reserved": 0, "lon": -77.00766116666667, "fusion_lon": 0.0, "is_disabled": 0, "fusion_lat": 0.0, "bike_id": "acd8c3f211edc527277ef9f04474fc37", "rental_uris": {"ios": "https://dc.lft.to/lastmile_qr_scan", "android": "https://dc.lft.to/lastmile_qr_scan"}}, {"name": "e8b512acf6fb516fdd9e3f66b76bc39e", "type": "electric_scooter", "lat": 38.89197083333333, "is_reserved": 0, "lon": -77.04589433333334, "fusion_lon": 0.0, "is_disabled": 0, "fusion_lat": 0.0, "bike_id": "e8b512acf6fb516fdd9e3f66b76bc39e", "rental_uris": {"ios": "https://dc.lft.to/lastmile_qr_scan", "android": "https://dc.lft.to/lastmile_qr_scan"}}, {"name": "b58513777c0f73a61a61878f264ef574", "type": "electric_scooter", "lat": 38.9320115, "is_reserved": 0, "lon": -77.03876783333334, "fusion_lon": 0.0, "is_disabled": 0, "fusion_lat": 0.0, "bike_id": "b58513777c0f73a61a61878f264ef574", "rental_uris": {"ios": "https://dc.lft.to/lastmile_qr_scan", "android": "https://dc.lft.to/lastmile_qr_scan"}}, {"name": "cee3bc7ee8806d30cf78240e9b8cc786", "type": "electric_scooter", "lat": 38.91318716666667, "is_reserved": 0, "lon": -77.038553, "fusion_lon": 0.0, "is_disabled": 0, "fusion_lat": 0.0, "bike_id": "cee3bc7ee8806d30cf78240e9b8cc786", "rental_uris": {"ios": "https://dc.lft.to/lastmile_qr_scan", "android": "https://dc.lft.to/lastmile_qr_scan"}}, {"name": "ef1a281081621c831cff541c00076629", "type": "electric_scooter", "lat": 38.9038835, "is_reserved": 0, "lon": -77.011027, "fusion_lon": 0.0, "is_disabled": 0, "fusion_lat": 0.0, "bike_id": "ef1a281081621c831cff541c00076629", "rental_uris": {"ios": "https://dc.lft.to/lastmile_qr_scan", "android": "https://dc.lft.to/lastmile_qr_scan"}}, {"name": "2540e1bb7a728b904665de10dfcf50ef", "type": "electric_bike", "lat": 38.802254833333336, "is_reserved": 0, "lon": -77.07916066666667, "fusion_lon": 0.0, "is_disabled": 0, "fusion_lat": 0.0, "bike_id": "2540e1bb7a728b904665de10dfcf50ef", "rental_uris": {"ios": "https://dc.lft.to/lastmile_qr_scan", "android": "https://dc.lft.to/lastmile_qr_scan"}}, {"name": "a4ac1e395c51cfb3cb5dc3a695056d7e", "type": "electric_bike", "lat": 38.9068785, "is_reserved": 0, "lon": -76.95185, "fusion_lon": 0.0, "is_disabled": 0, "fusion_lat": 0.0, "bike_id": "a4ac1e395c51cfb3cb5dc3a695056d7e", "rental_uris": {"ios": "https://dc.lft.to/lastmile_qr_scan", "android": "https://dc.lft.to/lastmile_qr_scan"}}, {"name": "f9a8bf2097f97c85caf21de2d0eeaed5", "type": "electric_bike", "lat": 38.8970525, "is_reserved": 0, "lon": -77.0071945, "fusion_lon": 0.0, "is_disabled": 0, "fusion_lat": 0.0, "bike_id": "f9a8bf2097f97c85caf21de2d0eeaed5", "rental_uris": {"ios": "https://dc.lft.to/lastmile_qr_scan", "android": "https://dc.lft.to/lastmile_qr_scan"}}, {"name": "f6d6ac47f7a6113a446a2f9d12dd1797", "type": "electric_scooter", "lat": 38.94445316666667, "is_reserved": 0, "lon": -77.06357633333333, "fusion_lon": 0.0, "is_disabled": 0, "fusion_lat": 0.0, "bike_id": "f6d6ac47f7a6113a446a2f9d12dd1797", "rental_uris": {"ios": "https://dc.lft.to/lastmile_qr_scan", "android": "https://dc.lft.to/lastmile_qr_scan"}}, {"name": "1fa11186619f8e0d20970c7052ec755c", "type": "electric_scooter", "lat": 38.907219833333336, "is_reserved": 0, "lon": -77.03450316666667, "fusion_lon": 0.0, "is_disabled": 0, "fusion_lat": 0.0, "bike_id": "1fa11186619f8e0d20970c7052ec755c", "rental_uris": {"ios": "https://dc.lft.to/lastmile_qr_scan", "android": "https://dc.lft.to/lastmile_qr_scan"}}, {"name": "3efa2a424acdee78f9adc242ab9b9764", "type": "electric_scooter", "lat": 38.90542666666666, "is_reserved": 0, "lon": -77.02179866666667, "fusion_lon": 0.0, "is_disabled": 0, "fusion_lat": 0.0, "bike_id": "3efa2a424acdee78f9adc242ab9b9764", "rental_uris": {"ios": "https://dc.lft.to/lastmile_qr_scan", "android": "https://dc.lft.to/lastmile_qr_scan"}}, {"name": "51c9423187925ebe74f8cb130737e754", "type": "electric_scooter", "lat": 38.92951, "is_reserved": 0, "lon": -77.0440135, "fusion_lon": 0.0, "is_disabled": 0, "fusion_lat": 0.0, "bike_id": "51c9423187925ebe74f8cb130737e754", "rental_uris": {"ios": "https://dc.lft.to/lastmile_qr_scan", "android": "https://dc.lft.to/lastmile_qr_scan"}}, {"name": "4a24ec4f2f29aff8524dd08c607b5cb9", "type": "electric_scooter", "lat": 38.866575166666664, "is_reserved": 0, "lon": -76.990129, "fusion_lon": 0.0, "is_disabled": 0, "fusion_lat": 0.0, "bike_id": "4a24ec4f2f29aff8524dd08c607b5cb9", "rental_uris": {"ios": "https://dc.lft.to/lastmile_qr_scan", "android": "https://dc.lft.to/lastmile_qr_scan"}}, {"name": "8b574c6faaa02c5faccc7cd9cbb9c4de", "type": "electric_scooter", "lat": 38.91417166666667, "is_reserved": 0, "lon": -77.02280683333333, "fusion_lon": 0.0, "is_disabled": 0, "fusion_lat": 0.0, "bike_id": "8b574c6faaa02c5faccc7cd9cbb9c4de", "rental_uris": {"ios": "https://dc.lft.to/lastmile_qr_scan", "android": "https://dc.lft.to/lastmile_qr_scan"}}, {"name": "45588032d781701f49641603864aa1eb", "type": "electric_scooter", "lat": 38.9008805, "is_reserved": 0, "lon": -77.05052433333333, "fusion_lon": 0.0, "is_disabled": 0, "fusion_lat": 0.0, "bike_id": "45588032d781701f49641603864aa1eb", "rental_uris": {"ios": "https://dc.lft.to/lastmile_qr_scan", "android": "https://dc.lft.to/lastmile_qr_scan"}}, {"name": "b4d532c26f963f0a4517ca457f79ffe1", "type": "electric_scooter", "lat": 38.930642166666665, "is_reserved": 0, "lon": -77.02981866666667, "fusion_lon": 0.0, "is_disabled": 0, "fusion_lat": 0.0, "bike_id": "b4d532c26f963f0a4517ca457f79ffe1", "rental_uris": {"ios": "https://dc.lft.to/lastmile_qr_scan", "android": "https://dc.lft.to/lastmile_qr_scan"}}, {"name": "6e1ead900154454d846735aa913245ae", "type": "electric_scooter", "lat": 38.89824216666667, "is_reserved": 0, "lon": -76.94651233333333, "fusion_lon": 0.0, "is_disabled": 0, "fusion_lat": 0.0, "bike_id": "6e1ead900154454d846735aa913245ae", "rental_uris": {"ios": "https://dc.lft.to/lastmile_qr_scan", "android": "https://dc.lft.to/lastmile_qr_scan"}}, {"name": "7c24793305c4cca4dec47d66d9d59ff1", "type": "electric_scooter", "lat": 38.9162295, "is_reserved": 0, "lon": -77.03194116666667, "fusion_lon": 0.0, "is_disabled": 0, "fusion_lat": 0.0, "bike_id": "7c24793305c4cca4dec47d66d9d59ff1", "rental_uris": {"ios": "https://dc.lft.to/lastmile_qr_scan", "android": "https://dc.lft.to/lastmile_qr_scan"}}, {"name": "6029f0abe3824ac88c7e20166e8e36bc", "type": "electric_scooter", "lat": 38.93770466666667, "is_reserved": 0, "lon": -77.02257966666667, "fusion_lon": 0.0, "is_disabled": 0, "fusion_lat": 0.0, "bike_id": "6029f0abe3824ac88c7e20166e8e36bc", "rental_uris": {"ios": "https://dc.lft.to/lastmile_qr_scan", "android": "https://dc.lft.to/lastmile_qr_scan"}}, {"name": "69b9e229ea18483d379b8424516856ca", "type": "electric_scooter", "lat": 38.91917133333333, "is_reserved": 0, "lon": -77.03421316666666, "fusion_lon": 0.0, "is_disabled": 0, "fusion_lat": 0.0, "bike_id": "69b9e229ea18483d379b8424516856ca", "rental_uris": {"ios": "https://dc.lft.to/lastmile_qr_scan", "android": "https://dc.lft.to/lastmile_qr_scan"}}, {"name": "56b7a80e34cf2b8b953149f6e32b3bd3", "type": "electric_bike", "lat": 38.839834, "is_reserved": 0, "lon": -77.00560716666666, "fusion_lon": 0.0, "is_disabled": 0, "fusion_lat": 0.0, "bike_id": "56b7a80e34cf2b8b953149f6e32b3bd3", "rental_uris": {"ios": "https://dc.lft.to/lastmile_qr_scan", "android": "https://dc.lft.to/lastmile_qr_scan"}}, {"name": "00c952d32f3bc9cac24fd9b7f5604cf4", "type": "electric_bike", "lat": 38.92209366666667, "is_reserved": 0, "lon": -77.081922, "fusion_lon": 0.0, "is_disabled": 0, "fusion_lat": 0.0, "bike_id": "00c952d32f3bc9cac24fd9b7f5604cf4", "rental_uris": {"ios": "https://dc.lft.to/lastmile_qr_scan", "android": "https://dc.lft.to/lastmile_qr_scan"}}, {"name": "6d75e34406d7d557b7b201b831117e63", "type": "electric_scooter", "lat": 38.9056585, "is_reserved": 0, "lon": -77.021772, "fusion_lon": 0.0, "is_disabled": 0, "fusion_lat": 0.0, "bike_id": "6d75e34406d7d557b7b201b831117e63", "rental_uris": {"ios": "https://dc.lft.to/lastmile_qr_scan", "android": "https://dc.lft.to/lastmile_qr_scan"}}, {"name": "e53d7be602281bbe16a603f1af7b0dc5", "type": "electric_scooter", "lat": 38.899581166666664, "is_reserved": 0, "lon": -76.98566083333333, "fusion_lon": 0.0, "is_disabled": 0, "fusion_lat": 0.0, "bike_id": "e53d7be602281bbe16a603f1af7b0dc5", "rental_uris": {"ios": "https://dc.lft.to/lastmile_qr_scan", "android": "https://dc.lft.to/lastmile_qr_scan"}}, {"name": "4078b5c5176bcc49339e8b11c41273e4", "type": "electric_scooter", "lat": 38.939529666666665, "is_reserved": 0, "lon": -77.03263716666666, "fusion_lon": 0.0, "is_disabled": 0, "fusion_lat": 0.0, "bike_id": "4078b5c5176bcc49339e8b11c41273e4", "rental_uris": {"ios": "https://dc.lft.to/lastmile_qr_scan", "android": "https://dc.lft.to/lastmile_qr_scan"}}, {"name": "ca56825e3c9e95b38f0da9b267df4f12", "type": "electric_scooter", "lat": 38.885928, "is_reserved": 0, "lon": -76.9526215, "fusion_lon": 0.0, "is_disabled": 0, "fusion_lat": 0.0, "bike_id": "ca56825e3c9e95b38f0da9b267df4f12", "rental_uris": {"ios": "https://dc.lft.to/lastmile_qr_scan", "android": "https://dc.lft.to/lastmile_qr_scan"}}, {"name": "7e4d9deaf686981fbbeb4cd2d04bd791", "type": "electric_scooter", "lat": 38.927595333333336, "is_reserved": 0, "lon": -77.05399433333334, "fusion_lon": 0.0, "is_disabled": 0, "fusion_lat": 0.0, "bike_id": "7e4d9deaf686981fbbeb4cd2d04bd791", "rental_uris": {"ios": "https://dc.lft.to/lastmile_qr_scan", "android": "https://dc.lft.to/lastmile_qr_scan"}}, {"name": "d27544c88727f5aba1d1965650603090", "type": "electric_scooter", "lat": 38.92234966666667, "is_reserved": 0, "lon": -77.0351995, "fusion_lon": 0.0, "is_disabled": 0, "fusion_lat": 0.0, "bike_id": "d27544c88727f5aba1d1965650603090", "rental_uris": {"ios": "https://dc.lft.to/lastmile_qr_scan", "android": "https://dc.lft.to/lastmile_qr_scan"}}, {"name": "4230a3d354e15b920b0f85ea46f38e4c", "type": "electric_scooter", "lat": 38.939498, "is_reserved": 0, "lon": -77.03270133333334, "fusion_lon": 0.0, "is_disabled": 0, "fusion_lat": 0.0, "bike_id": "4230a3d354e15b920b0f85ea46f38e4c", "rental_uris": {"ios": "https://dc.lft.to/lastmile_qr_scan", "android": "https://dc.lft.to/lastmile_qr_scan"}}, {"name": "44a8284dc419487614eed8e2bbf03ebb", "type": "electric_bike", "lat": 38.865933, "is_reserved": 0, "lon": -76.9323275, "fusion_lon": 0.0, "is_disabled": 0, "fusion_lat": 0.0, "bike_id": "44a8284dc419487614eed8e2bbf03ebb", "rental_uris": {"ios": "https://dc.lft.to/lastmile_qr_scan", "android": "https://dc.lft.to/lastmile_qr_scan"}}, {"name": "9d6d84c779f81510bedfc3c8e8e1004d", "type": "electric_bike", "lat": 38.806954, "is_reserved": 0, "lon": -77.059614, "fusion_lon": 0.0, "is_disabled": 0, "fusion_lat": 0.0, "bike_id": "9d6d84c779f81510bedfc3c8e8e1004d", "rental_uris": {"ios": "https://dc.lft.to/lastmile_qr_scan", "android": "https://dc.lft.to/lastmile_qr_scan"}}, {"name": "c5d4ff43244a181d325d0f976c97919e", "type": "electric_scooter", "lat": 38.90579233333333, "is_reserved": 0, "lon": -77.062715, "fusion_lon": 0.0, "is_disabled": 0, "fusion_lat": 0.0, "bike_id": "c5d4ff43244a181d325d0f976c97919e", "rental_uris": {"ios": "https://dc.lft.to/lastmile_qr_scan", "android": "https://dc.lft.to/lastmile_qr_scan"}}, {"name": "00f50fb4120a19be6d91f3ea5f5de3e9", "type": "electric_scooter", "lat": 38.924885, "is_reserved": 0, "lon": -77.02711716666667, "fusion_lon": 0.0, "is_disabled": 0, "fusion_lat": 0.0, "bike_id": "00f50fb4120a19be6d91f3ea5f5de3e9", "rental_uris": {"ios": "https://dc.lft.to/lastmile_qr_scan", "android": "https://dc.lft.to/lastmile_qr_scan"}}, {"name": "7c6d830c126ddf0069cc975770671a0d", "type": "electric_scooter", "lat": 38.882913333333335, "is_reserved": 0, "lon": -77.01775416666666, "fusion_lon": 0.0, "is_disabled": 0, "fusion_lat": 0.0, "bike_id": "7c6d830c126ddf0069cc975770671a0d", "rental_uris": {"ios": "https://dc.lft.to/lastmile_qr_scan", "android": "https://dc.lft.to/lastmile_qr_scan"}}, {"name": "8cf26b0591efb250a61dbd94a0747d2f", "type": "electric_scooter", "lat": 38.902729666666666, "is_reserved": 0, "lon": -77.04048283333333, "fusion_lon": 0.0, "is_disabled": 0, "fusion_lat": 0.0, "bike_id": "8cf26b0591efb250a61dbd94a0747d2f", "rental_uris": {"ios": "https://dc.lft.to/lastmile_qr_scan", "android": "https://dc.lft.to/lastmile_qr_scan"}}, {"name": "2ebe34bd2ec6345faaa732ed9321d36e", "type": "electric_bike", "lat": 38.852237333333335, "is_reserved": 0, "lon": -77.129573, "fusion_lon": 0.0, "is_disabled": 0, "fusion_lat": 0.0, "bike_id": "2ebe34bd2ec6345faaa732ed9321d36e", "rental_uris": {"ios": "https://dc.lft.to/lastmile_qr_scan", "android": "https://dc.lft.to/lastmile_qr_scan"}}, {"name": "7ed4276f89ccc9740678fba89bc8ab20", "type": "electric_bike", "lat": 38.832373, "is_reserved": 0, "lon": -77.0071635, "fusion_lon": 0.0, "is_disabled": 0, "fusion_lat": 0.0, "bike_id": "7ed4276f89ccc9740678fba89bc8ab20", "rental_uris": {"ios": "https://dc.lft.to/lastmile_qr_scan", "android": "https://dc.lft.to/lastmile_qr_scan"}}, {"name": "5defc13fccabca44db47246c3cc85fd9", "type": "electric_bike", "lat": 38.984638333333336, "is_reserved": 0, "lon": -76.955263, "fusion_lon": 0.0, "is_disabled": 0, "fusion_lat": 0.0, "bike_id": "5defc13fccabca44db47246c3cc85fd9", "rental_uris": {"ios": "https://dc.lft.to/lastmile_qr_scan", "android": "https://dc.lft.to/lastmile_qr_scan"}}, {"name": "8d3b3ca0151cf405b6add5a3c8c64a7b", "type": "electric_scooter", "lat": 38.9325205, "is_reserved": 0, "lon": -77.03278383333334, "fusion_lon": 0.0, "is_disabled": 0, "fusion_lat": 0.0, "bike_id": "8d3b3ca0151cf405b6add5a3c8c64a7b", "rental_uris": {"ios": "https://dc.lft.to/lastmile_qr_scan", "android": "https://dc.lft.to/lastmile_qr_scan"}}, {"name": "6649ac64d3b8edf5421d9e37197e3763", "type": "electric_scooter", "lat": 38.93498316666667, "is_reserved": 0, "lon": -77.0272, "fusion_lon": 0.0, "is_disabled": 0, "fusion_lat": 0.0, "bike_id": "6649ac64d3b8edf5421d9e37197e3763", "rental_uris": {"ios": "https://dc.lft.to/lastmile_qr_scan", "android": "https://dc.lft.to/lastmile_qr_scan"}}, {"name": "dddec594bd6a03e63b751d018ea105a8", "type": "electric_scooter", "lat": 38.91107383333333, "is_reserved": 0, "lon": -77.0422765, "fusion_lon": 0.0, "is_disabled": 0, "fusion_lat": 0.0, "bike_id": "dddec594bd6a03e63b751d018ea105a8", "rental_uris": {"ios": "https://dc.lft.to/lastmile_qr_scan", "android": "https://dc.lft.to/lastmile_qr_scan"}}, {"name": "85d18f43216a366500f2d4bb3e8f65a4", "type": "electric_scooter", "lat": 38.903483666666666, "is_reserved": 0, "lon": -77.02510133333334, "fusion_lon": 0.0, "is_disabled": 0, "fusion_lat": 0.0, "bike_id": "85d18f43216a366500f2d4bb3e8f65a4", "rental_uris": {"ios": "https://dc.lft.to/lastmile_qr_scan", "android": "https://dc.lft.to/lastmile_qr_scan"}}, {"name": "4dcf22e0ab4563da4df6769004f31e83", "type": "electric_scooter", "lat": 38.929038166666665, "is_reserved": 0, "lon": -77.02498983333334, "fusion_lon": 0.0, "is_disabled": 0, "fusion_lat": 0.0, "bike_id": "4dcf22e0ab4563da4df6769004f31e83", "rental_uris": {"ios": "https://dc.lft.to/lastmile_qr_scan", "android": "https://dc.lft.to/lastmile_qr_scan"}}, {"name": "76eebf73405a337217e7260ade105db3", "type": "electric_scooter", "lat": 38.939736, "is_reserved": 0, "lon": -77.03585816666667, "fusion_lon": 0.0, "is_disabled": 0, "fusion_lat": 0.0, "bike_id": "76eebf73405a337217e7260ade105db3", "rental_uris": {"ios": "https://dc.lft.to/lastmile_qr_scan", "android": "https://dc.lft.to/lastmile_qr_scan"}}, {"name": "b5ffd4d792d4deeb1c49489999ad48a7", "type": "electric_scooter", "lat": 38.92049566666667, "is_reserved": 0, "lon": -77.03392733333334, "fusion_lon": 0.0, "is_disabled": 0, "fusion_lat": 0.0, "bike_id": "b5ffd4d792d4deeb1c49489999ad48a7", "rental_uris": {"ios": "https://dc.lft.to/lastmile_qr_scan", "android": "https://dc.lft.to/lastmile_qr_scan"}}, {"name": "85fe549e6137e30dc105f7c4738afa13", "type": "electric_scooter", "lat": 38.900182666666666, "is_reserved": 0, "lon": -77.01167783333334, "fusion_lon": 0.0, "is_disabled": 0, "fusion_lat": 0.0, "bike_id": "85fe549e6137e30dc105f7c4738afa13", "rental_uris": {"ios": "https://dc.lft.to/lastmile_qr_scan", "android": "https://dc.lft.to/lastmile_qr_scan"}}, {"name": "13fbc3dcf9b71eb8549c69917c959fe2", "type": "electric_scooter", "lat": 38.862029666666665, "is_reserved": 0, "lon": -76.9946375, "fusion_lon": 0.0, "is_disabled": 0, "fusion_lat": 0.0, "bike_id": "13fbc3dcf9b71eb8549c69917c959fe2", "rental_uris": {"ios": "https://dc.lft.to/lastmile_qr_scan", "android": "https://dc.lft.to/lastmile_qr_scan"}}, {"name": "50b621d277faa28de370569b9e3245ce", "type": "electric_scooter", "lat": 38.877343833333335, "is_reserved": 0, "lon": -76.97277, "fusion_lon": 0.0, "is_disabled": 0, "fusion_lat": 0.0, "bike_id": "50b621d277faa28de370569b9e3245ce", "rental_uris": {"ios": "https://dc.lft.to/lastmile_qr_scan", "android": "https://dc.lft.to/lastmile_qr_scan"}}, {"name": "358783de258fe9d0c2c3f6ac90a25684", "type": "electric_bike", "lat": 38.92282683333333, "is_reserved": 0, "lon": -77.0365725, "fusion_lon": 0.0, "is_disabled": 0, "fusion_lat": 0.0, "bike_id": "358783de258fe9d0c2c3f6ac90a25684", "rental_uris": {"ios": "https://dc.lft.to/lastmile_qr_scan", "android": "https://dc.lft.to/lastmile_qr_scan"}}, {"name": "3b6f6f638bff8007da8ef593ab851ab6", "type": "electric_scooter", "lat": 38.9483925, "is_reserved": 0, "lon": -77.02548416666667, "fusion_lon": 0.0, "is_disabled": 0, "fusion_lat": 0.0, "bike_id": "3b6f6f638bff8007da8ef593ab851ab6", "rental_uris": {"ios": "https://dc.lft.to/lastmile_qr_scan", "android": "https://dc.lft.to/lastmile_qr_scan"}}, {"name": "87f45bbe4174451cc8d04291ee416657", "type": "electric_bike", "lat": 38.964990666666665, "is_reserved": 0, "lon": -77.10329316666666, "fusion_lon": 0.0, "is_disabled": 0, "fusion_lat": 0.0, "bike_id": "87f45bbe4174451cc8d04291ee416657", "rental_uris": {"ios": "https://dc.lft.to/lastmile_qr_scan", "android": "https://dc.lft.to/lastmile_qr_scan"}}, {"name": "fef0de61e744036a4c75012a5185b769", "type": "electric_scooter", "lat": 38.92718933333333, "is_reserved": 0, "lon": -77.0208405, "fusion_lon": 0.0, "is_disabled": 0, "fusion_lat": 0.0, "bike_id": "fef0de61e744036a4c75012a5185b769", "rental_uris": {"ios": "https://dc.lft.to/lastmile_qr_scan", "android": "https://dc.lft.to/lastmile_qr_scan"}}, {"name": "b1f9356f1c6818a7b069aa4ced132a58", "type": "electric_scooter", "lat": 38.866572833333336, "is_reserved": 0, "lon": -76.98884466666667, "fusion_lon": 0.0, "is_disabled": 0, "fusion_lat": 0.0, "bike_id": "b1f9356f1c6818a7b069aa4ced132a58", "rental_uris": {"ios": "https://dc.lft.to/lastmile_qr_scan", "android": "https://dc.lft.to/lastmile_qr_scan"}}, {"name": "8156cca8321cb590bf27cd4dbcdcb723", "type": "electric_scooter", "lat": 38.9427635, "is_reserved": 0, "lon": -77.02502783333334, "fusion_lon": 0.0, "is_disabled": 0, "fusion_lat": 0.0, "bike_id": "8156cca8321cb590bf27cd4dbcdcb723", "rental_uris": {"ios": "https://dc.lft.to/lastmile_qr_scan", "android": "https://dc.lft.to/lastmile_qr_scan"}}, {"name": "a84ec2a6b87332d1fdb5ade8995e2b2b", "type": "electric_scooter", "lat": 38.896319, "is_reserved": 0, "lon": -77.0322595, "fusion_lon": 0.0, "is_disabled": 0, "fusion_lat": 0.0, "bike_id": "a84ec2a6b87332d1fdb5ade8995e2b2b", "rental_uris": {"ios": "https://dc.lft.to/lastmile_qr_scan", "android": "https://dc.lft.to/lastmile_qr_scan"}}, {"name": "c650e4d8fb16a9cc4d6e75f053e1ff73", "type": "electric_scooter", "lat": 38.89851266666667, "is_reserved": 0, "lon": -76.99029766666666, "fusion_lon": 0.0, "is_disabled": 0, "fusion_lat": 0.0, "bike_id": "c650e4d8fb16a9cc4d6e75f053e1ff73", "rental_uris": {"ios": "https://dc.lft.to/lastmile_qr_scan", "android": "https://dc.lft.to/lastmile_qr_scan"}}, {"name": "46ec2c43a59695d67dcae8cffefcf994", "type": "electric_scooter", "lat": 38.91629183333333, "is_reserved": 0, "lon": -77.01095883333333, "fusion_lon": 0.0, "is_disabled": 0, "fusion_lat": 0.0, "bike_id": "46ec2c43a59695d67dcae8cffefcf994", "rental_uris": {"ios": "https://dc.lft.to/lastmile_qr_scan", "android": "https://dc.lft.to/lastmile_qr_scan"}}, {"name": "476f433680afded64cfc7f58787043e2", "type": "electric_scooter", "lat": 38.91632966666667, "is_reserved": 0, "lon": -77.0362715, "fusion_lon": 0.0, "is_disabled": 0, "fusion_lat": 0.0, "bike_id": "476f433680afded64cfc7f58787043e2", "rental_uris": {"ios": "https://dc.lft.to/lastmile_qr_scan", "android": "https://dc.lft.to/lastmile_qr_scan"}}, {"name": "b0c7324f7c71c7732c049277af29f49e", "type": "electric_scooter", "lat": 38.8778455, "is_reserved": 0, "lon": -76.9940905, "fusion_lon": 0.0, "is_disabled": 0, "fusion_lat": 0.0, "bike_id": "b0c7324f7c71c7732c049277af29f49e", "rental_uris": {"ios": "https://dc.lft.to/lastmile_qr_scan", "android": "https://dc.lft.to/lastmile_qr_scan"}}, {"name": "5b6435868661ff48e9d336fdcc9d92d1", "type": "electric_scooter", "lat": 38.90661866666667, "is_reserved": 0, "lon": -77.02688983333333, "fusion_lon": 0.0, "is_disabled": 0, "fusion_lat": 0.0, "bike_id": "5b6435868661ff48e9d336fdcc9d92d1", "rental_uris": {"ios": "https://dc.lft.to/lastmile_qr_scan", "android": "https://dc.lft.to/lastmile_qr_scan"}}, {"name": "014a4962205eaa103b6491490d4ddadb", "type": "electric_scooter", "lat": 38.92365916666667, "is_reserved": 0, "lon": -77.05029216666667, "fusion_lon": 0.0, "is_disabled": 0, "fusion_lat": 0.0, "bike_id": "014a4962205eaa103b6491490d4ddadb", "rental_uris": {"ios": "https://dc.lft.to/lastmile_qr_scan", "android": "https://dc.lft.to/lastmile_qr_scan"}}, {"name": "909ea7d374522f6d97af03bde5e0ee8d", "type": "electric_scooter", "lat": 38.925617, "is_reserved": 0, "lon": -77.022831, "fusion_lon": 0.0, "is_disabled": 0, "fusion_lat": 0.0, "bike_id": "909ea7d374522f6d97af03bde5e0ee8d", "rental_uris": {"ios": "https://dc.lft.to/lastmile_qr_scan", "android": "https://dc.lft.to/lastmile_qr_scan"}}, {"name": "2428467499aeac834e604808d7e2f9a5", "type": "electric_scooter", "lat": 38.95729933333333, "is_reserved": 0, "lon": -77.0240265, "fusion_lon": 0.0, "is_disabled": 0, "fusion_lat": 0.0, "bike_id": "2428467499aeac834e604808d7e2f9a5", "rental_uris": {"ios": "https://dc.lft.to/lastmile_qr_scan", "android": "https://dc.lft.to/lastmile_qr_scan"}}, {"name": "268cea5e398128616da5b538a5843c52", "type": "electric_scooter", "lat": 38.922318833333335, "is_reserved": 0, "lon": -77.0461485, "fusion_lon": 0.0, "is_disabled": 0, "fusion_lat": 0.0, "bike_id": "268cea5e398128616da5b538a5843c52", "rental_uris": {"ios": "https://dc.lft.to/lastmile_qr_scan", "android": "https://dc.lft.to/lastmile_qr_scan"}}, {"name": "11745b8b16ee6338735193ccb8ca5674", "type": "electric_scooter", "lat": 38.9013475, "is_reserved": 0, "lon": -77.045026, "fusion_lon": 0.0, "is_disabled": 0, "fusion_lat": 0.0, "bike_id": "11745b8b16ee6338735193ccb8ca5674", "rental_uris": {"ios": "https://dc.lft.to/lastmile_qr_scan", "android": "https://dc.lft.to/lastmile_qr_scan"}}, {"name": "b6d2af48cc6448f4b6dfcd1bccd6f5f8", "type": "electric_scooter", "lat": 38.90240033333333, "is_reserved": 0, "lon": -76.97925233333333, "fusion_lon": 0.0, "is_disabled": 0, "fusion_lat": 0.0, "bike_id": "b6d2af48cc6448f4b6dfcd1bccd6f5f8", "rental_uris": {"ios": "https://dc.lft.to/lastmile_qr_scan", "android": "https://dc.lft.to/lastmile_qr_scan"}}, {"name": "45f903bdb711955cca054159860734a9", "type": "electric_bike", "lat": 38.8516045, "is_reserved": 0, "lon": -77.128758, "fusion_lon": 0.0, "is_disabled": 0, "fusion_lat": 0.0, "bike_id": "45f903bdb711955cca054159860734a9", "rental_uris": {"ios": "https://dc.lft.to/lastmile_qr_scan", "android": "https://dc.lft.to/lastmile_qr_scan"}}, {"name": "bd5ba34ea975c2a8fc078b27b1c522e1", "type": "electric_bike", "lat": 38.884029166666664, "is_reserved": 0, "lon": -77.04646533333333, "fusion_lon": 0.0, "is_disabled": 0, "fusion_lat": 0.0, "bike_id": "bd5ba34ea975c2a8fc078b27b1c522e1", "rental_uris": {"ios": "https://dc.lft.to/lastmile_qr_scan", "android": "https://dc.lft.to/lastmile_qr_scan"}}, {"name": "a3b097d2b94cd12be7b7fa4b6e8494a3", "type": "electric_scooter", "lat": 38.90648916666667, "is_reserved": 0, "lon": -77.0428875, "fusion_lon": 0.0, "is_disabled": 0, "fusion_lat": 0.0, "bike_id": "a3b097d2b94cd12be7b7fa4b6e8494a3", "rental_uris": {"ios": "https://dc.lft.to/lastmile_qr_scan", "android": "https://dc.lft.to/lastmile_qr_scan"}}, {"name": "abef866ad626f7e55b1c30de6b9c658a", "type": "electric_scooter", "lat": 38.89473433333333, "is_reserved": 0, "lon": -76.98402483333334, "fusion_lon": 0.0, "is_disabled": 0, "fusion_lat": 0.0, "bike_id": "abef866ad626f7e55b1c30de6b9c658a", "rental_uris": {"ios": "https://dc.lft.to/lastmile_qr_scan", "android": "https://dc.lft.to/lastmile_qr_scan"}}, {"name": "cb132a14741646ba4eec16a2245f7b00", "type": "electric_scooter", "lat": 38.86570483333333, "is_reserved": 0, "lon": -76.98949583333334, "fusion_lon": 0.0, "is_disabled": 0, "fusion_lat": 0.0, "bike_id": "cb132a14741646ba4eec16a2245f7b00", "rental_uris": {"ios": "https://dc.lft.to/lastmile_qr_scan", "android": "https://dc.lft.to/lastmile_qr_scan"}}, {"name": "44cd1cdeb9556adc0ee910cb1430cb9c", "type": "electric_scooter", "lat": 38.930606166666664, "is_reserved": 0, "lon": -77.0395395, "fusion_lon": 0.0, "is_disabled": 0, "fusion_lat": 0.0, "bike_id": "44cd1cdeb9556adc0ee910cb1430cb9c", "rental_uris": {"ios": "https://dc.lft.to/lastmile_qr_scan", "android": "https://dc.lft.to/lastmile_qr_scan"}}, {"name": "8c0832bc8fb3d8b84e7327e13dd42a98", "type": "electric_scooter", "lat": 38.94311666666667, "is_reserved": 0, "lon": -77.05917016666666, "fusion_lon": 0.0, "is_disabled": 0, "fusion_lat": 0.0, "bike_id": "8c0832bc8fb3d8b84e7327e13dd42a98", "rental_uris": {"ios": "https://dc.lft.to/lastmile_qr_scan", "android": "https://dc.lft.to/lastmile_qr_scan"}}, {"name": "571d893c7a7ec0ff3a615ee87ccdea8a", "type": "electric_bike", "lat": 38.898371, "is_reserved": 0, "lon": -77.00576316666667, "fusion_lon": 0.0, "is_disabled": 0, "fusion_lat": 0.0, "bike_id": "571d893c7a7ec0ff3a615ee87ccdea8a", "rental_uris": {"ios": "https://dc.lft.to/lastmile_qr_scan", "android": "https://dc.lft.to/lastmile_qr_scan"}}, {"name": "c1c8cab2742bfb8f327b2b51d723af36", "type": "electric_scooter", "lat": 38.91649066666667, "is_reserved": 0, "lon": -77.03207783333333, "fusion_lon": 0.0, "is_disabled": 0, "fusion_lat": 0.0, "bike_id": "c1c8cab2742bfb8f327b2b51d723af36", "rental_uris": {"ios": "https://dc.lft.to/lastmile_qr_scan", "android": "https://dc.lft.to/lastmile_qr_scan"}}, {"name": "dbcf05eec2549c89a46ce37cb7266c89", "type": "electric_scooter", "lat": 38.899218, "is_reserved": 0, "lon": -76.93381566666666, "fusion_lon": 0.0, "is_disabled": 0, "fusion_lat": 0.0, "bike_id": "dbcf05eec2549c89a46ce37cb7266c89", "rental_uris": {"ios": "https://dc.lft.to/lastmile_qr_scan", "android": "https://dc.lft.to/lastmile_qr_scan"}}, {"name": "cf0a75cee97817ed2be3cfa8ff355151", "type": "electric_scooter", "lat": 38.92878416666667, "is_reserved": 0, "lon": -77.033094, "fusion_lon": 0.0, "is_disabled": 0, "fusion_lat": 0.0, "bike_id": "cf0a75cee97817ed2be3cfa8ff355151", "rental_uris": {"ios": "https://dc.lft.to/lastmile_qr_scan", "android": "https://dc.lft.to/lastmile_qr_scan"}}, {"name": "181a40d04c2c7184588ea06382ba1482", "type": "electric_scooter", "lat": 38.903643, "is_reserved": 0, "lon": -77.0110895, "fusion_lon": 0.0, "is_disabled": 0, "fusion_lat": 0.0, "bike_id": "181a40d04c2c7184588ea06382ba1482", "rental_uris": {"ios": "https://dc.lft.to/lastmile_qr_scan", "android": "https://dc.lft.to/lastmile_qr_scan"}}, {"name": "6901adb38a3fdf35b9cd626d32974667", "type": "electric_scooter", "lat": 38.928982500000004, "is_reserved": 0, "lon": -77.05452183333334, "fusion_lon": 0.0, "is_disabled": 0, "fusion_lat": 0.0, "bike_id": "6901adb38a3fdf35b9cd626d32974667", "rental_uris": {"ios": "https://dc.lft.to/lastmile_qr_scan", "android": "https://dc.lft.to/lastmile_qr_scan"}}, {"name": "5bb56dc73fb8914e94d1d2d968502537", "type": "electric_scooter", "lat": 38.91996783333333, "is_reserved": 0, "lon": -77.0398345, "fusion_lon": 0.0, "is_disabled": 0, "fusion_lat": 0.0, "bike_id": "5bb56dc73fb8914e94d1d2d968502537", "rental_uris": {"ios": "https://dc.lft.to/lastmile_qr_scan", "android": "https://dc.lft.to/lastmile_qr_scan"}}, {"name": "3970c2c7bc0274ef4708bf032285ce8a", "type": "electric_scooter", "lat": 38.902413, "is_reserved": 0, "lon": -77.00197666666666, "fusion_lon": 0.0, "is_disabled": 0, "fusion_lat": 0.0, "bike_id": "3970c2c7bc0274ef4708bf032285ce8a", "rental_uris": {"ios": "https://dc.lft.to/lastmile_qr_scan", "android": "https://dc.lft.to/lastmile_qr_scan"}}, {"name": "31727a3c47a3506ec447ccb3460a34b6", "type": "electric_scooter", "lat": 38.9033465, "is_reserved": 0, "lon": -77.06652583333333, "fusion_lon": 0.0, "is_disabled": 0, "fusion_lat": 0.0, "bike_id": "31727a3c47a3506ec447ccb3460a34b6", "rental_uris": {"ios": "https://dc.lft.to/lastmile_qr_scan", "android": "https://dc.lft.to/lastmile_qr_scan"}}, {"name": "e2c2699db10c7fe4e0fb80e1ec4bd8ce", "type": "electric_scooter", "lat": 38.910317166666665, "is_reserved": 0, "lon": -77.04807166666667, "fusion_lon": 0.0, "is_disabled": 0, "fusion_lat": 0.0, "bike_id": "e2c2699db10c7fe4e0fb80e1ec4bd8ce", "rental_uris": {"ios": "https://dc.lft.to/lastmile_qr_scan", "android": "https://dc.lft.to/lastmile_qr_scan"}}, {"name": "92d92cac3d37f77c3c7bf730a623aa95", "type": "electric_scooter", "lat": 38.94169333333333, "is_reserved": 0, "lon": -77.041372, "fusion_lon": 0.0, "is_disabled": 0, "fusion_lat": 0.0, "bike_id": "92d92cac3d37f77c3c7bf730a623aa95", "rental_uris": {"ios": "https://dc.lft.to/lastmile_qr_scan", "android": "https://dc.lft.to/lastmile_qr_scan"}}, {"name": "843154852c3697a0fe59b2be9fd7f08f", "type": "electric_scooter", "lat": 38.92641416666667, "is_reserved": 0, "lon": -77.033899, "fusion_lon": 0.0, "is_disabled": 0, "fusion_lat": 0.0, "bike_id": "843154852c3697a0fe59b2be9fd7f08f", "rental_uris": {"ios": "https://dc.lft.to/lastmile_qr_scan", "android": "https://dc.lft.to/lastmile_qr_scan"}}, {"name": "8d70a5d2b66e337afb295336419b8a96", "type": "electric_scooter", "lat": 38.898776166666664, "is_reserved": 0, "lon": -76.9315975, "fusion_lon": 0.0, "is_disabled": 0, "fusion_lat": 0.0, "bike_id": "8d70a5d2b66e337afb295336419b8a96", "rental_uris": {"ios": "https://dc.lft.to/lastmile_qr_scan", "android": "https://dc.lft.to/lastmile_qr_scan"}}, {"name": "dcf2f492560582ff46f23788ee654267", "type": "electric_scooter", "lat": 38.856296666666665, "is_reserved": 0, "lon": -76.97451033333333, "fusion_lon": 0.0, "is_disabled": 0, "fusion_lat": 0.0, "bike_id": "dcf2f492560582ff46f23788ee654267", "rental_uris": {"ios": "https://dc.lft.to/lastmile_qr_scan", "android": "https://dc.lft.to/lastmile_qr_scan"}}, {"name": "016f3c46a0f63247d7d711770f5e5cb5", "type": "electric_scooter", "lat": 38.92518283333333, "is_reserved": 0, "lon": -77.0332605, "fusion_lon": 0.0, "is_disabled": 0, "fusion_lat": 0.0, "bike_id": "016f3c46a0f63247d7d711770f5e5cb5", "rental_uris": {"ios": "https://dc.lft.to/lastmile_qr_scan", "android": "https://dc.lft.to/lastmile_qr_scan"}}, {"name": "bb81610f01e8ea061be42c5685bbdd25", "type": "electric_bike", "lat": 38.90862, "is_reserved": 0, "lon": -77.08077883333333, "fusion_lon": 0.0, "is_disabled": 0, "fusion_lat": 0.0, "bike_id": "bb81610f01e8ea061be42c5685bbdd25", "rental_uris": {"ios": "https://dc.lft.to/lastmile_qr_scan", "android": "https://dc.lft.to/lastmile_qr_scan"}}, {"name": "512255a0eef81e1816c2cbb8f9c5f2ed", "type": "electric_scooter", "lat": 38.905138666666666, "is_reserved": 0, "lon": -77.05325533333334, "fusion_lon": 0.0, "is_disabled": 0, "fusion_lat": 0.0, "bike_id": "512255a0eef81e1816c2cbb8f9c5f2ed", "rental_uris": {"ios": "https://dc.lft.to/lastmile_qr_scan", "android": "https://dc.lft.to/lastmile_qr_scan"}}, {"name": "156dc87111148252217df273b7c87fec", "type": "electric_scooter", "lat": 38.892240666666666, "is_reserved": 0, "lon": -77.0433225, "fusion_lon": 0.0, "is_disabled": 0, "fusion_lat": 0.0, "bike_id": "156dc87111148252217df273b7c87fec", "rental_uris": {"ios": "https://dc.lft.to/lastmile_qr_scan", "android": "https://dc.lft.to/lastmile_qr_scan"}}, {"name": "09fc5ab7a03a5b6c11f405e016803d8b", "type": "electric_scooter", "lat": 38.896087666666666, "is_reserved": 0, "lon": -77.00919966666666, "fusion_lon": 0.0, "is_disabled": 0, "fusion_lat": 0.0, "bike_id": "09fc5ab7a03a5b6c11f405e016803d8b", "rental_uris": {"ios": "https://dc.lft.to/lastmile_qr_scan", "android": "https://dc.lft.to/lastmile_qr_scan"}}, {"name": "deee0d6c692026945e4cea0b29248baa", "type": "electric_scooter", "lat": 38.90610183333333, "is_reserved": 0, "lon": -77.07486983333334, "fusion_lon": 0.0, "is_disabled": 0, "fusion_lat": 0.0, "bike_id": "deee0d6c692026945e4cea0b29248baa", "rental_uris": {"ios": "https://dc.lft.to/lastmile_qr_scan", "android": "https://dc.lft.to/lastmile_qr_scan"}}, {"name": "dc8af1ec5b39694ef9b492223de347d9", "type": "electric_scooter", "lat": 38.86657983333333, "is_reserved": 0, "lon": -76.9888235, "fusion_lon": 0.0, "is_disabled": 0, "fusion_lat": 0.0, "bike_id": "dc8af1ec5b39694ef9b492223de347d9", "rental_uris": {"ios": "https://dc.lft.to/lastmile_qr_scan", "android": "https://dc.lft.to/lastmile_qr_scan"}}, {"name": "a9a7f807bffee9cd0f2d976e9bc982b7", "type": "electric_scooter", "lat": 38.9274375, "is_reserved": 0, "lon": -77.0162655, "fusion_lon": 0.0, "is_disabled": 0, "fusion_lat": 0.0, "bike_id": "a9a7f807bffee9cd0f2d976e9bc982b7", "rental_uris": {"ios": "https://dc.lft.to/lastmile_qr_scan", "android": "https://dc.lft.to/lastmile_qr_scan"}}, {"name": "44f733c0ca6ad40653620b829c80b454", "type": "electric_scooter", "lat": 38.92511666666667, "is_reserved": 0, "lon": -77.00176433333333, "fusion_lon": 0.0, "is_disabled": 0, "fusion_lat": 0.0, "bike_id": "44f733c0ca6ad40653620b829c80b454", "rental_uris": {"ios": "https://dc.lft.to/lastmile_qr_scan", "android": "https://dc.lft.to/lastmile_qr_scan"}}, {"name": "4c9f749837e8fd13a607d2cad709d13b", "type": "electric_scooter", "lat": 38.8837535, "is_reserved": 0, "lon": -76.92376133333333, "fusion_lon": 0.0, "is_disabled": 0, "fusion_lat": 0.0, "bike_id": "4c9f749837e8fd13a607d2cad709d13b", "rental_uris": {"ios": "https://dc.lft.to/lastmile_qr_scan", "android": "https://dc.lft.to/lastmile_qr_scan"}}, {"name": "be81de4bd00254354ab781b37707d525", "type": "electric_scooter", "lat": 38.920308166666665, "is_reserved": 0, "lon": -77.03872333333334, "fusion_lon": 0.0, "is_disabled": 0, "fusion_lat": 0.0, "bike_id": "be81de4bd00254354ab781b37707d525", "rental_uris": {"ios": "https://dc.lft.to/lastmile_qr_scan", "android": "https://dc.lft.to/lastmile_qr_scan"}}, {"name": "886cf4293165441c44e01da97e963876", "type": "electric_scooter", "lat": 38.90735466666667, "is_reserved": 0, "lon": -77.03441783333334, "fusion_lon": 0.0, "is_disabled": 0, "fusion_lat": 0.0, "bike_id": "886cf4293165441c44e01da97e963876", "rental_uris": {"ios": "https://dc.lft.to/lastmile_qr_scan", "android": "https://dc.lft.to/lastmile_qr_scan"}}, {"name": "d08e3cbe91e6fd522caa454369559872", "type": "electric_scooter", "lat": 38.91549783333333, "is_reserved": 0, "lon": -77.038482, "fusion_lon": 0.0, "is_disabled": 0, "fusion_lat": 0.0, "bike_id": "d08e3cbe91e6fd522caa454369559872", "rental_uris": {"ios": "https://dc.lft.to/lastmile_qr_scan", "android": "https://dc.lft.to/lastmile_qr_scan"}}, {"name": "707832fa0d21069270982c24cde51ab9", "type": "electric_scooter", "lat": 38.923544166666666, "is_reserved": 0, "lon": -77.058411, "fusion_lon": 0.0, "is_disabled": 0, "fusion_lat": 0.0, "bike_id": "707832fa0d21069270982c24cde51ab9", "rental_uris": {"ios": "https://dc.lft.to/lastmile_qr_scan", "android": "https://dc.lft.to/lastmile_qr_scan"}}, {"name": "246cd0e8c0b6dfb2052ac8f6e22c2810", "type": "electric_scooter", "lat": 38.9196585, "is_reserved": 0, "lon": -77.033784, "fusion_lon": 0.0, "is_disabled": 0, "fusion_lat": 0.0, "bike_id": "246cd0e8c0b6dfb2052ac8f6e22c2810", "rental_uris": {"ios": "https://dc.lft.to/lastmile_qr_scan", "android": "https://dc.lft.to/lastmile_qr_scan"}}, {"name": "5841e2f3d38fdca1b26f9d7b31a34bb2", "type": "electric_scooter", "lat": 38.9126785, "is_reserved": 0, "lon": -77.03733316666667, "fusion_lon": 0.0, "is_disabled": 0, "fusion_lat": 0.0, "bike_id": "5841e2f3d38fdca1b26f9d7b31a34bb2", "rental_uris": {"ios": "https://dc.lft.to/lastmile_qr_scan", "android": "https://dc.lft.to/lastmile_qr_scan"}}, {"name": "8a222985370c6b9ddd5d9d3b036319f9", "type": "electric_scooter", "lat": 38.8670105, "is_reserved": 0, "lon": -76.98709983333333, "fusion_lon": 0.0, "is_disabled": 0, "fusion_lat": 0.0, "bike_id": "8a222985370c6b9ddd5d9d3b036319f9", "rental_uris": {"ios": "https://dc.lft.to/lastmile_qr_scan", "android": "https://dc.lft.to/lastmile_qr_scan"}}, {"name": "8b0f108ffb3ec5481113d23dd24e0425", "type": "electric_scooter", "lat": 38.932435, "is_reserved": 0, "lon": -77.02954066666666, "fusion_lon": 0.0, "is_disabled": 0, "fusion_lat": 0.0, "bike_id": "8b0f108ffb3ec5481113d23dd24e0425", "rental_uris": {"ios": "https://dc.lft.to/lastmile_qr_scan", "android": "https://dc.lft.to/lastmile_qr_scan"}}, {"name": "260e29d9f0b591f8efa9d3ab61dbf2c3", "type": "electric_scooter", "lat": 38.931228, "is_reserved": 0, "lon": -77.03599433333333, "fusion_lon": 0.0, "is_disabled": 0, "fusion_lat": 0.0, "bike_id": "260e29d9f0b591f8efa9d3ab61dbf2c3", "rental_uris": {"ios": "https://dc.lft.to/lastmile_qr_scan", "android": "https://dc.lft.to/lastmile_qr_scan"}}, {"name": "07b85e775621e1cd107ff1e1ca270b88", "type": "electric_scooter", "lat": 38.90646433333333, "is_reserved": 0, "lon": -77.02952383333333, "fusion_lon": 0.0, "is_disabled": 0, "fusion_lat": 0.0, "bike_id": "07b85e775621e1cd107ff1e1ca270b88", "rental_uris": {"ios": "https://dc.lft.to/lastmile_qr_scan", "android": "https://dc.lft.to/lastmile_qr_scan"}}, {"name": "2de9785266a357acd99ccb31586b3f2c", "type": "electric_scooter", "lat": 38.93096283333333, "is_reserved": 0, "lon": -77.0346345, "fusion_lon": 0.0, "is_disabled": 0, "fusion_lat": 0.0, "bike_id": "2de9785266a357acd99ccb31586b3f2c", "rental_uris": {"ios": "https://dc.lft.to/lastmile_qr_scan", "android": "https://dc.lft.to/lastmile_qr_scan"}}, {"name": "1d76b83f327f79c1328266bde05007fc", "type": "electric_scooter", "lat": 38.8976305, "is_reserved": 0, "lon": -77.02672483333333, "fusion_lon": 0.0, "is_disabled": 0, "fusion_lat": 0.0, "bike_id": "1d76b83f327f79c1328266bde05007fc", "rental_uris": {"ios": "https://dc.lft.to/lastmile_qr_scan", "android": "https://dc.lft.to/lastmile_qr_scan"}}, {"name": "c98ce80f6326a280e13fe7f552ee336a", "type": "electric_scooter", "lat": 38.896667, "is_reserved": 0, "lon": -77.01189483333333, "fusion_lon": 0.0, "is_disabled": 0, "fusion_lat": 0.0, "bike_id": "c98ce80f6326a280e13fe7f552ee336a", "rental_uris": {"ios": "https://dc.lft.to/lastmile_qr_scan", "android": "https://dc.lft.to/lastmile_qr_scan"}}, {"name": "33ed7fe28f74a67105c8a24f41f6c418", "type": "electric_scooter", "lat": 38.8994055, "is_reserved": 0, "lon": -77.0319385, "fusion_lon": 0.0, "is_disabled": 0, "fusion_lat": 0.0, "bike_id": "33ed7fe28f74a67105c8a24f41f6c418", "rental_uris": {"ios": "https://dc.lft.to/lastmile_qr_scan", "android": "https://dc.lft.to/lastmile_qr_scan"}}, {"name": "4523f5a8c919280054dfe90892c23181", "type": "electric_scooter", "lat": 38.897973, "is_reserved": 0, "lon": -76.99167083333333, "fusion_lon": 0.0, "is_disabled": 0, "fusion_lat": 0.0, "bike_id": "4523f5a8c919280054dfe90892c23181", "rental_uris": {"ios": "https://dc.lft.to/lastmile_qr_scan", "android": "https://dc.lft.to/lastmile_qr_scan"}}, {"name": "11d4dad64dc608b064a2a031a15dd180", "type": "electric_scooter", "lat": 38.8708725, "is_reserved": 0, "lon": -77.012045, "fusion_lon": 0.0, "is_disabled": 0, "fusion_lat": 0.0, "bike_id": "11d4dad64dc608b064a2a031a15dd180", "rental_uris": {"ios": "https://dc.lft.to/lastmile_qr_scan", "android": "https://dc.lft.to/lastmile_qr_scan"}}, {"name": "b2b480aa8f132b7a8e8b16f5f58c0390", "type": "electric_bike", "lat": 38.89791833333334, "is_reserved": 0, "lon": -76.90436516666666, "fusion_lon": 0.0, "is_disabled": 0, "fusion_lat": 0.0, "bike_id": "b2b480aa8f132b7a8e8b16f5f58c0390", "rental_uris": {"ios": "https://dc.lft.to/lastmile_qr_scan", "android": "https://dc.lft.to/lastmile_qr_scan"}}, {"name": "0bdc593779c28d3756f086094fb8227e", "type": "electric_scooter", "lat": 38.921473, "is_reserved": 0, "lon": -77.02391433333334, "fusion_lon": 0.0, "is_disabled": 0, "fusion_lat": 0.0, "bike_id": "0bdc593779c28d3756f086094fb8227e", "rental_uris": {"ios": "https://dc.lft.to/lastmile_qr_scan", "android": "https://dc.lft.to/lastmile_qr_scan"}}, {"name": "e505839b9d09f8a0ff701ad9d2dde1fb", "type": "electric_scooter", "lat": 38.93445583333333, "is_reserved": 0, "lon": -77.02841983333333, "fusion_lon": 0.0, "is_disabled": 0, "fusion_lat": 0.0, "bike_id": "e505839b9d09f8a0ff701ad9d2dde1fb", "rental_uris": {"ios": "https://dc.lft.to/lastmile_qr_scan", "android": "https://dc.lft.to/lastmile_qr_scan"}}, {"name": "b13ddf2036c2cc7f3a5cc2bce2706401", "type": "electric_scooter", "lat": 38.9079195, "is_reserved": 0, "lon": -77.0097385, "fusion_lon": 0.0, "is_disabled": 0, "fusion_lat": 0.0, "bike_id": "b13ddf2036c2cc7f3a5cc2bce2706401", "rental_uris": {"ios": "https://dc.lft.to/lastmile_qr_scan", "android": "https://dc.lft.to/lastmile_qr_scan"}}, {"name": "72b590108360ce57edcaf4f09f011823", "type": "electric_scooter", "lat": 38.9223395, "is_reserved": 0, "lon": -77.038775, "fusion_lon": 0.0, "is_disabled": 0, "fusion_lat": 0.0, "bike_id": "72b590108360ce57edcaf4f09f011823", "rental_uris": {"ios": "https://dc.lft.to/lastmile_qr_scan", "android": "https://dc.lft.to/lastmile_qr_scan"}}, {"name": "7511fcde67311536b0f4b00a28188240", "type": "electric_scooter", "lat": 38.924713, "is_reserved": 0, "lon": -77.03768383333333, "fusion_lon": 0.0, "is_disabled": 0, "fusion_lat": 0.0, "bike_id": "7511fcde67311536b0f4b00a28188240", "rental_uris": {"ios": "https://dc.lft.to/lastmile_qr_scan", "android": "https://dc.lft.to/lastmile_qr_scan"}}, {"name": "d7803946254ede5d1c49d9d3d0144731", "type": "electric_bike", "lat": 38.9462365, "is_reserved": 0, "lon": -76.9462415, "fusion_lon": 0.0, "is_disabled": 0, "fusion_lat": 0.0, "bike_id": "d7803946254ede5d1c49d9d3d0144731", "rental_uris": {"ios": "https://dc.lft.to/lastmile_qr_scan", "android": "https://dc.lft.to/lastmile_qr_scan"}}, {"name": "f44ae717beaaa31764cd6518ef710837", "type": "electric_scooter", "lat": 38.90579666666667, "is_reserved": 0, "lon": -77.005871, "fusion_lon": 0.0, "is_disabled": 0, "fusion_lat": 0.0, "bike_id": "f44ae717beaaa31764cd6518ef710837", "rental_uris": {"ios": "https://dc.lft.to/lastmile_qr_scan", "android": "https://dc.lft.to/lastmile_qr_scan"}}, {"name": "10d8a976d10382cb6e8970d6921266c8", "type": "electric_scooter", "lat": 38.906548, "is_reserved": 0, "lon": -77.0114995, "fusion_lon": 0.0, "is_disabled": 0, "fusion_lat": 0.0, "bike_id": "10d8a976d10382cb6e8970d6921266c8", "rental_uris": {"ios": "https://dc.lft.to/lastmile_qr_scan", "android": "https://dc.lft.to/lastmile_qr_scan"}}, {"name": "7c43c177115c89f2d43f844097d10053", "type": "electric_scooter", "lat": 38.90244933333334, "is_reserved": 0, "lon": -77.01631783333333, "fusion_lon": 0.0, "is_disabled": 0, "fusion_lat": 0.0, "bike_id": "7c43c177115c89f2d43f844097d10053", "rental_uris": {"ios": "https://dc.lft.to/lastmile_qr_scan", "android": "https://dc.lft.to/lastmile_qr_scan"}}, {"name": "d3c9cd7e7d4d5e679d8679207a7db2d2", "type": "electric_scooter", "lat": 38.9188235, "is_reserved": 0, "lon": -77.01618066666667, "fusion_lon": 0.0, "is_disabled": 0, "fusion_lat": 0.0, "bike_id": "d3c9cd7e7d4d5e679d8679207a7db2d2", "rental_uris": {"ios": "https://dc.lft.to/lastmile_qr_scan", "android": "https://dc.lft.to/lastmile_qr_scan"}}, {"name": "3d4eed7ad380a1e0024ccf13773a843a", "type": "electric_scooter", "lat": 38.9058135, "is_reserved": 0, "lon": -77.00252416666666, "fusion_lon": 0.0, "is_disabled": 0, "fusion_lat": 0.0, "bike_id": "3d4eed7ad380a1e0024ccf13773a843a", "rental_uris": {"ios": "https://dc.lft.to/lastmile_qr_scan", "android": "https://dc.lft.to/lastmile_qr_scan"}}, {"name": "c4281845e830610b3c1fb3e3b56d364d", "type": "electric_scooter", "lat": 38.913255, "is_reserved": 0, "lon": -77.048663, "fusion_lon": 0.0, "is_disabled": 0, "fusion_lat": 0.0, "bike_id": "c4281845e830610b3c1fb3e3b56d364d", "rental_uris": {"ios": "https://dc.lft.to/lastmile_qr_scan", "android": "https://dc.lft.to/lastmile_qr_scan"}}, {"name": "314872f24fc327e60a356c5ec3b17927", "type": "electric_scooter", "lat": 38.89864433333334, "is_reserved": 0, "lon": -77.02603483333333, "fusion_lon": 0.0, "is_disabled": 0, "fusion_lat": 0.0, "bike_id": "314872f24fc327e60a356c5ec3b17927", "rental_uris": {"ios": "https://dc.lft.to/lastmile_qr_scan", "android": "https://dc.lft.to/lastmile_qr_scan"}}, {"name": "0f7f3f17b25649b4933562691b8f2a87", "type": "electric_bike", "lat": 38.9708695, "is_reserved": 0, "lon": -77.06968766666667, "fusion_lon": 0.0, "is_disabled": 0, "fusion_lat": 0.0, "bike_id": "0f7f3f17b25649b4933562691b8f2a87", "rental_uris": {"ios": "https://dc.lft.to/lastmile_qr_scan", "android": "https://dc.lft.to/lastmile_qr_scan"}}, {"name": "9819c1a425c5d89e1eccef388eabf630", "type": "electric_scooter", "lat": 38.93885733333333, "is_reserved": 0, "lon": -77.02476216666666, "fusion_lon": 0.0, "is_disabled": 0, "fusion_lat": 0.0, "bike_id": "9819c1a425c5d89e1eccef388eabf630", "rental_uris": {"ios": "https://dc.lft.to/lastmile_qr_scan", "android": "https://dc.lft.to/lastmile_qr_scan"}}, {"name": "c5898ef9bea6510847a20664c3bd2fcb", "type": "electric_scooter", "lat": 38.92632416666667, "is_reserved": 0, "lon": -77.037912, "fusion_lon": 0.0, "is_disabled": 0, "fusion_lat": 0.0, "bike_id": "c5898ef9bea6510847a20664c3bd2fcb", "rental_uris": {"ios": "https://dc.lft.to/lastmile_qr_scan", "android": "https://dc.lft.to/lastmile_qr_scan"}}, {"name": "57f23b6c512ff2fa0119640e1958cb21", "type": "electric_scooter", "lat": 38.92580533333334, "is_reserved": 0, "lon": -77.00472683333334, "fusion_lon": 0.0, "is_disabled": 0, "fusion_lat": 0.0, "bike_id": "57f23b6c512ff2fa0119640e1958cb21", "rental_uris": {"ios": "https://dc.lft.to/lastmile_qr_scan", "android": "https://dc.lft.to/lastmile_qr_scan"}}, {"name": "56a69293fd8f2fe626bc63e627613f66", "type": "electric_scooter", "lat": 38.931419, "is_reserved": 0, "lon": -77.03851633333333, "fusion_lon": 0.0, "is_disabled": 0, "fusion_lat": 0.0, "bike_id": "56a69293fd8f2fe626bc63e627613f66", "rental_uris": {"ios": "https://dc.lft.to/lastmile_qr_scan", "android": "https://dc.lft.to/lastmile_qr_scan"}}, {"name": "10b49aba782805aa6cd683f3625c8b3b", "type": "electric_scooter", "lat": 38.90253716666667, "is_reserved": 0, "lon": -77.04606333333334, "fusion_lon": 0.0, "is_disabled": 0, "fusion_lat": 0.0, "bike_id": "10b49aba782805aa6cd683f3625c8b3b", "rental_uris": {"ios": "https://dc.lft.to/lastmile_qr_scan", "android": "https://dc.lft.to/lastmile_qr_scan"}}, {"name": "980cf93a0cb5feb4b1a3b4b0784fa2aa", "type": "electric_scooter", "lat": 38.877092, "is_reserved": 0, "lon": -76.9938435, "fusion_lon": 0.0, "is_disabled": 0, "fusion_lat": 0.0, "bike_id": "980cf93a0cb5feb4b1a3b4b0784fa2aa", "rental_uris": {"ios": "https://dc.lft.to/lastmile_qr_scan", "android": "https://dc.lft.to/lastmile_qr_scan"}}, {"name": "5f3d6a36394b685f3e0f3db80e67e044", "type": "electric_scooter", "lat": 38.898736166666666, "is_reserved": 0, "lon": -77.032786, "fusion_lon": 0.0, "is_disabled": 0, "fusion_lat": 0.0, "bike_id": "5f3d6a36394b685f3e0f3db80e67e044", "rental_uris": {"ios": "https://dc.lft.to/lastmile_qr_scan", "android": "https://dc.lft.to/lastmile_qr_scan"}}, {"name": "f7dba2cdba7e381b5cf9008c14dc39c4", "type": "electric_scooter", "lat": 38.88767083333333, "is_reserved": 0, "lon": -76.92711533333333, "fusion_lon": 0.0, "is_disabled": 0, "fusion_lat": 0.0, "bike_id": "f7dba2cdba7e381b5cf9008c14dc39c4", "rental_uris": {"ios": "https://dc.lft.to/lastmile_qr_scan", "android": "https://dc.lft.to/lastmile_qr_scan"}}, {"name": "10554573985d14c90b558df7a84f4fff", "type": "electric_scooter", "lat": 38.9059095, "is_reserved": 0, "lon": -77.01611216666667, "fusion_lon": 0.0, "is_disabled": 0, "fusion_lat": 0.0, "bike_id": "10554573985d14c90b558df7a84f4fff", "rental_uris": {"ios": "https://dc.lft.to/lastmile_qr_scan", "android": "https://dc.lft.to/lastmile_qr_scan"}}, {"name": "58a2ab8dba43d0b5aa1795379fbf306d", "type": "electric_bike", "lat": 38.842789, "is_reserved": 0, "lon": -76.9884095, "fusion_lon": 0.0, "is_disabled": 0, "fusion_lat": 0.0, "bike_id": "58a2ab8dba43d0b5aa1795379fbf306d", "rental_uris": {"ios": "https://dc.lft.to/lastmile_qr_scan", "android": "https://dc.lft.to/lastmile_qr_scan"}}, {"name": "c26c45f7c2fbe4e4ab52f4da5fc2bfdd", "type": "electric_scooter", "lat": 38.914649, "is_reserved": 0, "lon": -77.0390705, "fusion_lon": 0.0, "is_disabled": 0, "fusion_lat": 0.0, "bike_id": "c26c45f7c2fbe4e4ab52f4da5fc2bfdd", "rental_uris": {"ios": "https://dc.lft.to/lastmile_qr_scan", "android": "https://dc.lft.to/lastmile_qr_scan"}}, {"name": "fae4acb5d279d8d759d739691c50a98e", "type": "electric_scooter", "lat": 38.91453933333333, "is_reserved": 0, "lon": -77.03834, "fusion_lon": 0.0, "is_disabled": 0, "fusion_lat": 0.0, "bike_id": "fae4acb5d279d8d759d739691c50a98e", "rental_uris": {"ios": "https://dc.lft.to/lastmile_qr_scan", "android": "https://dc.lft.to/lastmile_qr_scan"}}, {"name": "687da535c7fc891b855e7c23b93c3016", "type": "electric_scooter", "lat": 38.900156833333334, "is_reserved": 0, "lon": -77.0117, "fusion_lon": 0.0, "is_disabled": 0, "fusion_lat": 0.0, "bike_id": "687da535c7fc891b855e7c23b93c3016", "rental_uris": {"ios": "https://dc.lft.to/lastmile_qr_scan", "android": "https://dc.lft.to/lastmile_qr_scan"}}, {"name": "e729ff87cf52eec43c2efb9196b46925", "type": "electric_scooter", "lat": 38.89807883333334, "is_reserved": 0, "lon": -77.032994, "fusion_lon": 0.0, "is_disabled": 0, "fusion_lat": 0.0, "bike_id": "e729ff87cf52eec43c2efb9196b46925", "rental_uris": {"ios": "https://dc.lft.to/lastmile_qr_scan", "android": "https://dc.lft.to/lastmile_qr_scan"}}, {"name": "cc449aa8ad962a17e45c36bdc7f01bb8", "type": "electric_scooter", "lat": 38.90311483333333, "is_reserved": 0, "lon": -77.03316766666667, "fusion_lon": 0.0, "is_disabled": 0, "fusion_lat": 0.0, "bike_id": "cc449aa8ad962a17e45c36bdc7f01bb8", "rental_uris": {"ios": "https://dc.lft.to/lastmile_qr_scan", "android": "https://dc.lft.to/lastmile_qr_scan"}}, {"name": "9112924764cfed7236fc3e51213c9441", "type": "electric_scooter", "lat": 38.91557316666667, "is_reserved": 0, "lon": -77.0217855, "fusion_lon": 0.0, "is_disabled": 0, "fusion_lat": 0.0, "bike_id": "9112924764cfed7236fc3e51213c9441", "rental_uris": {"ios": "https://dc.lft.to/lastmile_qr_scan", "android": "https://dc.lft.to/lastmile_qr_scan"}}, {"name": "dcfe0d81af4abaa651cec6a8a8cc4bbc", "type": "electric_bike", "lat": 38.839332166666665, "is_reserved": 0, "lon": -77.079055, "fusion_lon": 0.0, "is_disabled": 0, "fusion_lat": 0.0, "bike_id": "dcfe0d81af4abaa651cec6a8a8cc4bbc", "rental_uris": {"ios": "https://dc.lft.to/lastmile_qr_scan", "android": "https://dc.lft.to/lastmile_qr_scan"}}, {"name": "1f1c8fa0bf6b54eac78a23c789123b5f", "type": "electric_scooter", "lat": 38.92691466666667, "is_reserved": 0, "lon": -77.01489983333333, "fusion_lon": 0.0, "is_disabled": 0, "fusion_lat": 0.0, "bike_id": "1f1c8fa0bf6b54eac78a23c789123b5f", "rental_uris": {"ios": "https://dc.lft.to/lastmile_qr_scan", "android": "https://dc.lft.to/lastmile_qr_scan"}}, {"name": "766bd2ca6b3578a7d3e18ca91d9001f2", "type": "electric_bike", "lat": 38.88041466666667, "is_reserved": 0, "lon": -77.01324316666667, "fusion_lon": 0.0, "is_disabled": 0, "fusion_lat": 0.0, "bike_id": "766bd2ca6b3578a7d3e18ca91d9001f2", "rental_uris": {"ios": "https://dc.lft.to/lastmile_qr_scan", "android": "https://dc.lft.to/lastmile_qr_scan"}}, {"name": "ac31e563f087a0d34084c9420abfa547", "type": "electric_bike", "lat": 38.867522, "is_reserved": 0, "lon": -76.94531066666667, "fusion_lon": 0.0, "is_disabled": 0, "fusion_lat": 0.0, "bike_id": "ac31e563f087a0d34084c9420abfa547", "rental_uris": {"ios": "https://dc.lft.to/lastmile_qr_scan", "android": "https://dc.lft.to/lastmile_qr_scan"}}, {"name": "c0a96f644043ae698660d3762bc6ac8f", "type": "electric_scooter", "lat": 38.92942033333333, "is_reserved": 0, "lon": -77.05505283333333, "fusion_lon": 0.0, "is_disabled": 0, "fusion_lat": 0.0, "bike_id": "c0a96f644043ae698660d3762bc6ac8f", "rental_uris": {"ios": "https://dc.lft.to/lastmile_qr_scan", "android": "https://dc.lft.to/lastmile_qr_scan"}}, {"name": "e5d543a9176920163117f30610572508", "type": "electric_bike", "lat": 38.875285833333336, "is_reserved": 0, "lon": -77.19907283333333, "fusion_lon": 0.0, "is_disabled": 0, "fusion_lat": 0.0, "bike_id": "e5d543a9176920163117f30610572508", "rental_uris": {"ios": "https://dc.lft.to/lastmile_qr_scan", "android": "https://dc.lft.to/lastmile_qr_scan"}}, {"name": "2d1bff0f724d2e5b1d3a22e4525e1bc8", "type": "electric_bike", "lat": 38.840597, "is_reserved": 0, "lon": -77.06404833333333, "fusion_lon": 0.0, "is_disabled": 0, "fusion_lat": 0.0, "bike_id": "2d1bff0f724d2e5b1d3a22e4525e1bc8", "rental_uris": {"ios": "https://dc.lft.to/lastmile_qr_scan", "android": "https://dc.lft.to/lastmile_qr_scan"}}, {"name": "ef6df9c114ea0ebc07ba3c4ae06c8c5c", "type": "electric_scooter", "lat": 38.8972745, "is_reserved": 0, "lon": -77.0106035, "fusion_lon": 0.0, "is_disabled": 0, "fusion_lat": 0.0, "bike_id": "ef6df9c114ea0ebc07ba3c4ae06c8c5c", "rental_uris": {"ios": "https://dc.lft.to/lastmile_qr_scan", "android": "https://dc.lft.to/lastmile_qr_scan"}}, {"name": "e1eb744c2dc940827e01022769dc1a23", "type": "electric_scooter", "lat": 38.9026345, "is_reserved": 0, "lon": -77.0174885, "fusion_lon": 0.0, "is_disabled": 0, "fusion_lat": 0.0, "bike_id": "e1eb744c2dc940827e01022769dc1a23", "rental_uris": {"ios": "https://dc.lft.to/lastmile_qr_scan", "android": "https://dc.lft.to/lastmile_qr_scan"}}, {"name": "d47a1264046c3f8ec938459cc125d9f1", "type": "electric_scooter", "lat": 38.898444166666664, "is_reserved": 0, "lon": -76.94475783333333, "fusion_lon": 0.0, "is_disabled": 0, "fusion_lat": 0.0, "bike_id": "d47a1264046c3f8ec938459cc125d9f1", "rental_uris": {"ios": "https://dc.lft.to/lastmile_qr_scan", "android": "https://dc.lft.to/lastmile_qr_scan"}}, {"name": "461dca89ca67a38875e2da44bb39f247", "type": "electric_bike", "lat": 39.0945725, "is_reserved": 0, "lon": -77.14991266666667, "fusion_lon": 0.0, "is_disabled": 0, "fusion_lat": 0.0, "bike_id": "461dca89ca67a38875e2da44bb39f247", "rental_uris": {"ios": "https://dc.lft.to/lastmile_qr_scan", "android": "https://dc.lft.to/lastmile_qr_scan"}}, {"name": "c6df4fc06d5e3b789fcfd61886cc1bea", "type": "electric_scooter", "lat": 38.8624205, "is_reserved": 0, "lon": -76.9949535, "fusion_lon": 0.0, "is_disabled": 0, "fusion_lat": 0.0, "bike_id": "c6df4fc06d5e3b789fcfd61886cc1bea", "rental_uris": {"ios": "https://dc.lft.to/lastmile_qr_scan", "android": "https://dc.lft.to/lastmile_qr_scan"}}, {"name": "79a6c9d5677b210c1920905032dfa764", "type": "electric_bike", "lat": 38.827898833333336, "is_reserved": 0, "lon": -77.0090825, "fusion_lon": 0.0, "is_disabled": 0, "fusion_lat": 0.0, "bike_id": "79a6c9d5677b210c1920905032dfa764", "rental_uris": {"ios": "https://dc.lft.to/lastmile_qr_scan", "android": "https://dc.lft.to/lastmile_qr_scan"}}, {"name": "656b9098aab8cf8d218a0f9e3b203c98", "type": "electric_scooter", "lat": 38.894980833333335, "is_reserved": 0, "lon": -77.0021375, "fusion_lon": 0.0, "is_disabled": 0, "fusion_lat": 0.0, "bike_id": "656b9098aab8cf8d218a0f9e3b203c98", "rental_uris": {"ios": "https://dc.lft.to/lastmile_qr_scan", "android": "https://dc.lft.to/lastmile_qr_scan"}}, {"name": "7271aa517f3df625341a01ae0dfa61da", "type": "electric_bike", "lat": 38.8628035, "is_reserved": 0, "lon": -77.06346766666667, "fusion_lon": 0.0, "is_disabled": 0, "fusion_lat": 0.0, "bike_id": "7271aa517f3df625341a01ae0dfa61da", "rental_uris": {"ios": "https://dc.lft.to/lastmile_qr_scan", "android": "https://dc.lft.to/lastmile_qr_scan"}}, {"name": "5cfa2ae5fb0732f5b38770e4d1639f95", "type": "electric_scooter", "lat": 38.927249, "is_reserved": 0, "lon": -77.005623, "fusion_lon": 0.0, "is_disabled": 0, "fusion_lat": 0.0, "bike_id": "5cfa2ae5fb0732f5b38770e4d1639f95", "rental_uris": {"ios": "https://dc.lft.to/lastmile_qr_scan", "android": "https://dc.lft.to/lastmile_qr_scan"}}, {"name": "4ccd77fab5cfcf300d33126831471317", "type": "electric_scooter", "lat": 38.955273166666665, "is_reserved": 0, "lon": -77.0246985, "fusion_lon": 0.0, "is_disabled": 0, "fusion_lat": 0.0, "bike_id": "4ccd77fab5cfcf300d33126831471317", "rental_uris": {"ios": "https://dc.lft.to/lastmile_qr_scan", "android": "https://dc.lft.to/lastmile_qr_scan"}}, {"name": "c8f11a36c0dbe48cc9ca3bc7bd723a80", "type": "electric_scooter", "lat": 38.90119416666667, "is_reserved": 0, "lon": -77.04986083333333, "fusion_lon": 0.0, "is_disabled": 0, "fusion_lat": 0.0, "bike_id": "c8f11a36c0dbe48cc9ca3bc7bd723a80", "rental_uris": {"ios": "https://dc.lft.to/lastmile_qr_scan", "android": "https://dc.lft.to/lastmile_qr_scan"}}, {"name": "1144fb2f6ca57cd6b4843474f5a27a19", "type": "electric_bike", "lat": 38.90296166666667, "is_reserved": 0, "lon": -76.94441916666666, "fusion_lon": 0.0, "is_disabled": 0, "fusion_lat": 0.0, "bike_id": "1144fb2f6ca57cd6b4843474f5a27a19", "rental_uris": {"ios": "https://dc.lft.to/lastmile_qr_scan", "android": "https://dc.lft.to/lastmile_qr_scan"}}, {"name": "e158bc32c355ca29e341e4c2d51115b2", "type": "electric_scooter", "lat": 38.917203666666666, "is_reserved": 0, "lon": -77.01863866666666, "fusion_lon": 0.0, "is_disabled": 0, "fusion_lat": 0.0, "bike_id": "e158bc32c355ca29e341e4c2d51115b2", "rental_uris": {"ios": "https://dc.lft.to/lastmile_qr_scan", "android": "https://dc.lft.to/lastmile_qr_scan"}}, {"name": "62deeafd6450c97591d88f9cd056addd", "type": "electric_scooter", "lat": 38.90013733333333, "is_reserved": 0, "lon": -76.99074983333334, "fusion_lon": 0.0, "is_disabled": 0, "fusion_lat": 0.0, "bike_id": "62deeafd6450c97591d88f9cd056addd", "rental_uris": {"ios": "https://dc.lft.to/lastmile_qr_scan", "android": "https://dc.lft.to/lastmile_qr_scan"}}, {"name": "1f704fe54d93825af0b02305ba222d43", "type": "electric_scooter", "lat": 38.90560116666666, "is_reserved": 0, "lon": -77.02171533333333, "fusion_lon": 0.0, "is_disabled": 0, "fusion_lat": 0.0, "bike_id": "1f704fe54d93825af0b02305ba222d43", "rental_uris": {"ios": "https://dc.lft.to/lastmile_qr_scan", "android": "https://dc.lft.to/lastmile_qr_scan"}}, {"name": "d6443d1b47d39dba3c259f9127c06a2e", "type": "electric_scooter", "lat": 38.933910166666664, "is_reserved": 0, "lon": -77.03578366666666, "fusion_lon": 0.0, "is_disabled": 0, "fusion_lat": 0.0, "bike_id": "d6443d1b47d39dba3c259f9127c06a2e", "rental_uris": {"ios": "https://dc.lft.to/lastmile_qr_scan", "android": "https://dc.lft.to/lastmile_qr_scan"}}, {"name": "6a878d0d6066f177a6c6f46ca0dc66d8", "type": "electric_scooter", "lat": 38.9186395, "is_reserved": 0, "lon": -77.04028966666667, "fusion_lon": 0.0, "is_disabled": 0, "fusion_lat": 0.0, "bike_id": "6a878d0d6066f177a6c6f46ca0dc66d8", "rental_uris": {"ios": "https://dc.lft.to/lastmile_qr_scan", "android": "https://dc.lft.to/lastmile_qr_scan"}}, {"name": "d4cfff1daf66edd4b7955bc16b3aa0d2", "type": "electric_scooter", "lat": 38.9049935, "is_reserved": 0, "lon": -77.067531, "fusion_lon": 0.0, "is_disabled": 0, "fusion_lat": 0.0, "bike_id": "d4cfff1daf66edd4b7955bc16b3aa0d2", "rental_uris": {"ios": "https://dc.lft.to/lastmile_qr_scan", "android": "https://dc.lft.to/lastmile_qr_scan"}}, {"name": "e8cfcfcac7598ce46c18194800d31945", "type": "electric_scooter", "lat": 38.93113483333333, "is_reserved": 0, "lon": -77.03839116666667, "fusion_lon": 0.0, "is_disabled": 0, "fusion_lat": 0.0, "bike_id": "e8cfcfcac7598ce46c18194800d31945", "rental_uris": {"ios": "https://dc.lft.to/lastmile_qr_scan", "android": "https://dc.lft.to/lastmile_qr_scan"}}, {"name": "8b3797a7a89324298acdf0b418c9f295", "type": "electric_bike", "lat": 38.89214883333333, "is_reserved": 0, "lon": -77.10776883333334, "fusion_lon": 0.0, "is_disabled": 0, "fusion_lat": 0.0, "bike_id": "8b3797a7a89324298acdf0b418c9f295", "rental_uris": {"ios": "https://dc.lft.to/lastmile_qr_scan", "android": "https://dc.lft.to/lastmile_qr_scan"}}, {"name": "c7fdb350a6919c446013bd705eac3f7f", "type": "electric_scooter", "lat": 38.9430515, "is_reserved": 0, "lon": -77.02177983333333, "fusion_lon": 0.0, "is_disabled": 0, "fusion_lat": 0.0, "bike_id": "c7fdb350a6919c446013bd705eac3f7f", "rental_uris": {"ios": "https://dc.lft.to/lastmile_qr_scan", "android": "https://dc.lft.to/lastmile_qr_scan"}}, {"name": "80763c88b39243cc9886e6027666d316", "type": "electric_scooter", "lat": 38.90721333333333, "is_reserved": 0, "lon": -77.0306425, "fusion_lon": 0.0, "is_disabled": 0, "fusion_lat": 0.0, "bike_id": "80763c88b39243cc9886e6027666d316", "rental_uris": {"ios": "https://dc.lft.to/lastmile_qr_scan", "android": "https://dc.lft.to/lastmile_qr_scan"}}, {"name": "d9972541ec0565065d25f16f1dab9e8c", "type": "electric_scooter", "lat": 38.91311266666666, "is_reserved": 0, "lon": -77.04474566666667, "fusion_lon": 0.0, "is_disabled": 0, "fusion_lat": 0.0, "bike_id": "d9972541ec0565065d25f16f1dab9e8c", "rental_uris": {"ios": "https://dc.lft.to/lastmile_qr_scan", "android": "https://dc.lft.to/lastmile_qr_scan"}}, {"name": "2a20dc94d31f872c63c46a847bfeb4ab", "type": "electric_scooter", "lat": 38.93968316666667, "is_reserved": 0, "lon": -77.032553, "fusion_lon": 0.0, "is_disabled": 0, "fusion_lat": 0.0, "bike_id": "2a20dc94d31f872c63c46a847bfeb4ab", "rental_uris": {"ios": "https://dc.lft.to/lastmile_qr_scan", "android": "https://dc.lft.to/lastmile_qr_scan"}}, {"name": "c3d8b9479db8b9e59760df1527c23f44", "type": "electric_bike", "lat": 38.990612, "is_reserved": 0, "lon": -77.1002265, "fusion_lon": 0.0, "is_disabled": 0, "fusion_lat": 0.0, "bike_id": "c3d8b9479db8b9e59760df1527c23f44", "rental_uris": {"ios": "https://dc.lft.to/lastmile_qr_scan", "android": "https://dc.lft.to/lastmile_qr_scan"}}, {"name": "956b7f33d2a68f8302372a56c88c32cf", "type": "electric_scooter", "lat": 38.9395045, "is_reserved": 0, "lon": -77.032728, "fusion_lon": 0.0, "is_disabled": 0, "fusion_lat": 0.0, "bike_id": "956b7f33d2a68f8302372a56c88c32cf", "rental_uris": {"ios": "https://dc.lft.to/lastmile_qr_scan", "android": "https://dc.lft.to/lastmile_qr_scan"}}, {"name": "1a9976bfa1a14df70a36aa43040174a3", "type": "electric_scooter", "lat": 38.881124166666666, "is_reserved": 0, "lon": -76.9994185, "fusion_lon": 0.0, "is_disabled": 0, "fusion_lat": 0.0, "bike_id": "1a9976bfa1a14df70a36aa43040174a3", "rental_uris": {"ios": "https://dc.lft.to/lastmile_qr_scan", "android": "https://dc.lft.to/lastmile_qr_scan"}}, {"name": "80864b7bc15c5121071e56338a8900fd", "type": "electric_scooter", "lat": 38.90958233333333, "is_reserved": 0, "lon": -77.048668, "fusion_lon": 0.0, "is_disabled": 0, "fusion_lat": 0.0, "bike_id": "80864b7bc15c5121071e56338a8900fd", "rental_uris": {"ios": "https://dc.lft.to/lastmile_qr_scan", "android": "https://dc.lft.to/lastmile_qr_scan"}}, {"name": "ba768b9144ba551f7b839121d828fa18", "type": "electric_scooter", "lat": 38.9233865, "is_reserved": 0, "lon": -77.03523033333333, "fusion_lon": 0.0, "is_disabled": 0, "fusion_lat": 0.0, "bike_id": "ba768b9144ba551f7b839121d828fa18", "rental_uris": {"ios": "https://dc.lft.to/lastmile_qr_scan", "android": "https://dc.lft.to/lastmile_qr_scan"}}, {"name": "bd18c6127ddb6ea637266c49703a80b4", "type": "electric_scooter", "lat": 38.9179775, "is_reserved": 0, "lon": -77.02709083333333, "fusion_lon": 0.0, "is_disabled": 0, "fusion_lat": 0.0, "bike_id": "bd18c6127ddb6ea637266c49703a80b4", "rental_uris": {"ios": "https://dc.lft.to/lastmile_qr_scan", "android": "https://dc.lft.to/lastmile_qr_scan"}}, {"name": "488ad62288e0333f67e44cb46ce56914", "type": "electric_scooter", "lat": 38.88335416666666, "is_reserved": 0, "lon": -77.01740016666666, "fusion_lon": 0.0, "is_disabled": 0, "fusion_lat": 0.0, "bike_id": "488ad62288e0333f67e44cb46ce56914", "rental_uris": {"ios": "https://dc.lft.to/lastmile_qr_scan", "android": "https://dc.lft.to/lastmile_qr_scan"}}, {"name": "d6f47f1667969f977bc0b746b90ca3b6", "type": "electric_scooter", "lat": 38.92948883333333, "is_reserved": 0, "lon": -77.03462866666666, "fusion_lon": 0.0, "is_disabled": 0, "fusion_lat": 0.0, "bike_id": "d6f47f1667969f977bc0b746b90ca3b6", "rental_uris": {"ios": "https://dc.lft.to/lastmile_qr_scan", "android": "https://dc.lft.to/lastmile_qr_scan"}}, {"name": "40a576ab7bc268b3f8d3d8790c7e33fd", "type": "electric_scooter", "lat": 38.911734333333335, "is_reserved": 0, "lon": -77.00557766666667, "fusion_lon": 0.0, "is_disabled": 0, "fusion_lat": 0.0, "bike_id": "40a576ab7bc268b3f8d3d8790c7e33fd", "rental_uris": {"ios": "https://dc.lft.to/lastmile_qr_scan", "android": "https://dc.lft.to/lastmile_qr_scan"}}, {"name": "f839c8b30caa4e070039c63850b6f827", "type": "electric_scooter", "lat": 38.853181, "is_reserved": 0, "lon": -76.9800735, "fusion_lon": 0.0, "is_disabled": 0, "fusion_lat": 0.0, "bike_id": "f839c8b30caa4e070039c63850b6f827", "rental_uris": {"ios": "https://dc.lft.to/lastmile_qr_scan", "android": "https://dc.lft.to/lastmile_qr_scan"}}, {"name": "a949e59c63296abe550877c6769fbc1d", "type": "electric_scooter", "lat": 38.947602833333335, "is_reserved": 0, "lon": -77.06546283333333, "fusion_lon": 0.0, "is_disabled": 0, "fusion_lat": 0.0, "bike_id": "a949e59c63296abe550877c6769fbc1d", "rental_uris": {"ios": "https://dc.lft.to/lastmile_qr_scan", "android": "https://dc.lft.to/lastmile_qr_scan"}}, {"name": "bf983bb4b59d16259ce459210ee5cd23", "type": "electric_scooter", "lat": 38.940757166666664, "is_reserved": 0, "lon": -77.02699666666666, "fusion_lon": 0.0, "is_disabled": 0, "fusion_lat": 0.0, "bike_id": "bf983bb4b59d16259ce459210ee5cd23", "rental_uris": {"ios": "https://dc.lft.to/lastmile_qr_scan", "android": "https://dc.lft.to/lastmile_qr_scan"}}, {"name": "6a4043b235842596a84c26a0ed0e8fcd", "type": "electric_scooter", "lat": 38.921505833333335, "is_reserved": 0, "lon": -77.03387316666667, "fusion_lon": 0.0, "is_disabled": 0, "fusion_lat": 0.0, "bike_id": "6a4043b235842596a84c26a0ed0e8fcd", "rental_uris": {"ios": "https://dc.lft.to/lastmile_qr_scan", "android": "https://dc.lft.to/lastmile_qr_scan"}}, {"name": "ce726e57dd20ed628ba2fc230e7f700f", "type": "electric_scooter", "lat": 38.863761333333336, "is_reserved": 0, "lon": -76.99060816666666, "fusion_lon": 0.0, "is_disabled": 0, "fusion_lat": 0.0, "bike_id": "ce726e57dd20ed628ba2fc230e7f700f", "rental_uris": {"ios": "https://dc.lft.to/lastmile_qr_scan", "android": "https://dc.lft.to/lastmile_qr_scan"}}, {"name": "0c524a0cc8a1b0dc3b183062c49c3616", "type": "electric_bike", "lat": 38.8627675, "is_reserved": 0, "lon": -77.06349266666666, "fusion_lon": 0.0, "is_disabled": 0, "fusion_lat": 0.0, "bike_id": "0c524a0cc8a1b0dc3b183062c49c3616", "rental_uris": {"ios": "https://dc.lft.to/lastmile_qr_scan", "android": "https://dc.lft.to/lastmile_qr_scan"}}, {"name": "0d2d833014a6d7c468c21777d265b818", "type": "electric_scooter", "lat": 38.919961666666666, "is_reserved": 0, "lon": -77.03876916666667, "fusion_lon": 0.0, "is_disabled": 0, "fusion_lat": 0.0, "bike_id": "0d2d833014a6d7c468c21777d265b818", "rental_uris": {"ios": "https://dc.lft.to/lastmile_qr_scan", "android": "https://dc.lft.to/lastmile_qr_scan"}}, {"name": "d15c84fd333b3fc8ae09ebe2441c40f0", "type": "electric_scooter", "lat": 38.86657683333333, "is_reserved": 0, "lon": -76.988806, "fusion_lon": 0.0, "is_disabled": 0, "fusion_lat": 0.0, "bike_id": "d15c84fd333b3fc8ae09ebe2441c40f0", "rental_uris": {"ios": "https://dc.lft.to/lastmile_qr_scan", "android": "https://dc.lft.to/lastmile_qr_scan"}}, {"name": "8a597d508efc89ebf2cec5a332044b7d", "type": "electric_scooter", "lat": 38.9067125, "is_reserved": 0, "lon": -77.0383465, "fusion_lon": 0.0, "is_disabled": 0, "fusion_lat": 0.0, "bike_id": "8a597d508efc89ebf2cec5a332044b7d", "rental_uris": {"ios": "https://dc.lft.to/lastmile_qr_scan", "android": "https://dc.lft.to/lastmile_qr_scan"}}, {"name": "b0ebbba3b29ba114c760dc41865b4c92", "type": "electric_scooter", "lat": 38.926797, "is_reserved": 0, "lon": -77.02787566666667, "fusion_lon": 0.0, "is_disabled": 0, "fusion_lat": 0.0, "bike_id": "b0ebbba3b29ba114c760dc41865b4c92", "rental_uris": {"ios": "https://dc.lft.to/lastmile_qr_scan", "android": "https://dc.lft.to/lastmile_qr_scan"}}, {"name": "9c073b804a736d2afbcb52cf06e97f93", "type": "electric_scooter", "lat": 38.8938, "is_reserved": 0, "lon": -77.02993566666666, "fusion_lon": 0.0, "is_disabled": 0, "fusion_lat": 0.0, "bike_id": "9c073b804a736d2afbcb52cf06e97f93", "rental_uris": {"ios": "https://dc.lft.to/lastmile_qr_scan", "android": "https://dc.lft.to/lastmile_qr_scan"}}, {"name": "038f14b7a0b7cab721a2de46397472a8", "type": "electric_scooter", "lat": 38.8651005, "is_reserved": 0, "lon": -76.99032766666667, "fusion_lon": 0.0, "is_disabled": 0, "fusion_lat": 0.0, "bike_id": "038f14b7a0b7cab721a2de46397472a8", "rental_uris": {"ios": "https://dc.lft.to/lastmile_qr_scan", "android": "https://dc.lft.to/lastmile_qr_scan"}}, {"name": "c77099819d629a46e5cf9e9c994ecf4b", "type": "electric_scooter", "lat": 38.91109433333333, "is_reserved": 0, "lon": -77.038325, "fusion_lon": 0.0, "is_disabled": 0, "fusion_lat": 0.0, "bike_id": "c77099819d629a46e5cf9e9c994ecf4b", "rental_uris": {"ios": "https://dc.lft.to/lastmile_qr_scan", "android": "https://dc.lft.to/lastmile_qr_scan"}}, {"name": "6f68fa9c87cc19f549bae304e9d1f631", "type": "electric_scooter", "lat": 38.92478916666666, "is_reserved": 0, "lon": -77.03476316666666, "fusion_lon": 0.0, "is_disabled": 0, "fusion_lat": 0.0, "bike_id": "6f68fa9c87cc19f549bae304e9d1f631", "rental_uris": {"ios": "https://dc.lft.to/lastmile_qr_scan", "android": "https://dc.lft.to/lastmile_qr_scan"}}, {"name": "1c1abd17d13eff2af4774772de90bbbb", "type": "electric_scooter", "lat": 38.92741383333333, "is_reserved": 0, "lon": -77.03258683333334, "fusion_lon": 0.0, "is_disabled": 0, "fusion_lat": 0.0, "bike_id": "1c1abd17d13eff2af4774772de90bbbb", "rental_uris": {"ios": "https://dc.lft.to/lastmile_qr_scan", "android": "https://dc.lft.to/lastmile_qr_scan"}}, {"name": "7eab6b75837d2bf6e424e80f74642418", "type": "electric_scooter", "lat": 38.92512216666667, "is_reserved": 0, "lon": -77.01936, "fusion_lon": 0.0, "is_disabled": 0, "fusion_lat": 0.0, "bike_id": "7eab6b75837d2bf6e424e80f74642418", "rental_uris": {"ios": "https://dc.lft.to/lastmile_qr_scan", "android": "https://dc.lft.to/lastmile_qr_scan"}}, {"name": "b77e15eee1c228084a68fe750398f08b", "type": "electric_bike", "lat": 38.9527215, "is_reserved": 0, "lon": -77.06979016666666, "fusion_lon": 0.0, "is_disabled": 0, "fusion_lat": 0.0, "bike_id": "b77e15eee1c228084a68fe750398f08b", "rental_uris": {"ios": "https://dc.lft.to/lastmile_qr_scan", "android": "https://dc.lft.to/lastmile_qr_scan"}}, {"name": "14005dbcdccd564dc2c98b7dcdfd233c", "type": "electric_scooter", "lat": 38.886046, "is_reserved": 0, "lon": -76.99506533333333, "fusion_lon": 0.0, "is_disabled": 0, "fusion_lat": 0.0, "bike_id": "14005dbcdccd564dc2c98b7dcdfd233c", "rental_uris": {"ios": "https://dc.lft.to/lastmile_qr_scan", "android": "https://dc.lft.to/lastmile_qr_scan"}}, {"name": "f396c9ca8ecdf5bc829c438e6e857dcd", "type": "electric_scooter", "lat": 38.90844833333333, "is_reserved": 0, "lon": -77.02053616666667, "fusion_lon": 0.0, "is_disabled": 0, "fusion_lat": 0.0, "bike_id": "f396c9ca8ecdf5bc829c438e6e857dcd", "rental_uris": {"ios": "https://dc.lft.to/lastmile_qr_scan", "android": "https://dc.lft.to/lastmile_qr_scan"}}, {"name": "61d63d578320ae90119fd8068c21082c", "type": "electric_scooter", "lat": 38.92457566666667, "is_reserved": 0, "lon": -76.99896333333334, "fusion_lon": 0.0, "is_disabled": 0, "fusion_lat": 0.0, "bike_id": "61d63d578320ae90119fd8068c21082c", "rental_uris": {"ios": "https://dc.lft.to/lastmile_qr_scan", "android": "https://dc.lft.to/lastmile_qr_scan"}}, {"name": "85eb3f130094c23881a1cd1470a0e441", "type": "electric_scooter", "lat": 38.9311875, "is_reserved": 0, "lon": -77.021016, "fusion_lon": 0.0, "is_disabled": 0, "fusion_lat": 0.0, "bike_id": "85eb3f130094c23881a1cd1470a0e441", "rental_uris": {"ios": "https://dc.lft.to/lastmile_qr_scan", "android": "https://dc.lft.to/lastmile_qr_scan"}}, {"name": "65c9e24beb3e8ccccedbd4c4c6dfe52c", "type": "electric_scooter", "lat": 38.909788666666664, "is_reserved": 0, "lon": -77.06711633333333, "fusion_lon": 0.0, "is_disabled": 0, "fusion_lat": 0.0, "bike_id": "65c9e24beb3e8ccccedbd4c4c6dfe52c", "rental_uris": {"ios": "https://dc.lft.to/lastmile_qr_scan", "android": "https://dc.lft.to/lastmile_qr_scan"}}, {"name": "ddd346dbb289550309faf155f798097d", "type": "electric_scooter", "lat": 38.883295833333335, "is_reserved": 0, "lon": -77.0177355, "fusion_lon": 0.0, "is_disabled": 0, "fusion_lat": 0.0, "bike_id": "ddd346dbb289550309faf155f798097d", "rental_uris": {"ios": "https://dc.lft.to/lastmile_qr_scan", "android": "https://dc.lft.to/lastmile_qr_scan"}}, {"name": "a56abdcd85f44ef5c2500e36d00d1437", "type": "electric_scooter", "lat": 38.91722816666667, "is_reserved": 0, "lon": -77.03453833333333, "fusion_lon": 0.0, "is_disabled": 0, "fusion_lat": 0.0, "bike_id": "a56abdcd85f44ef5c2500e36d00d1437", "rental_uris": {"ios": "https://dc.lft.to/lastmile_qr_scan", "android": "https://dc.lft.to/lastmile_qr_scan"}}, {"name": "865cb8cd5b738c96989c467f56a3fd76", "type": "electric_scooter", "lat": 38.949284166666665, "is_reserved": 0, "lon": -77.01933183333334, "fusion_lon": 0.0, "is_disabled": 0, "fusion_lat": 0.0, "bike_id": "865cb8cd5b738c96989c467f56a3fd76", "rental_uris": {"ios": "https://dc.lft.to/lastmile_qr_scan", "android": "https://dc.lft.to/lastmile_qr_scan"}}, {"name": "7cb9f2b985360bb3aa65bd75bed01e94", "type": "electric_scooter", "lat": 38.91825216666667, "is_reserved": 0, "lon": -77.03208816666667, "fusion_lon": 0.0, "is_disabled": 0, "fusion_lat": 0.0, "bike_id": "7cb9f2b985360bb3aa65bd75bed01e94", "rental_uris": {"ios": "https://dc.lft.to/lastmile_qr_scan", "android": "https://dc.lft.to/lastmile_qr_scan"}}, {"name": "617e28fb2a37b46bed7aa5bfedb4ff56", "type": "electric_scooter", "lat": 38.91789333333333, "is_reserved": 0, "lon": -77.0230055, "fusion_lon": 0.0, "is_disabled": 0, "fusion_lat": 0.0, "bike_id": "617e28fb2a37b46bed7aa5bfedb4ff56", "rental_uris": {"ios": "https://dc.lft.to/lastmile_qr_scan", "android": "https://dc.lft.to/lastmile_qr_scan"}}, {"name": "9d3c5ff68e12e874122bdf35d80b5f96", "type": "electric_scooter", "lat": 38.9348675, "is_reserved": 0, "lon": -77.07255933333333, "fusion_lon": 0.0, "is_disabled": 0, "fusion_lat": 0.0, "bike_id": "9d3c5ff68e12e874122bdf35d80b5f96", "rental_uris": {"ios": "https://dc.lft.to/lastmile_qr_scan", "android": "https://dc.lft.to/lastmile_qr_scan"}}, {"name": "a7d998bc97cf7baba2d7b52fe0a2c54d", "type": "electric_scooter", "lat": 38.90833966666667, "is_reserved": 0, "lon": -77.00030933333333, "fusion_lon": 0.0, "is_disabled": 0, "fusion_lat": 0.0, "bike_id": "a7d998bc97cf7baba2d7b52fe0a2c54d", "rental_uris": {"ios": "https://dc.lft.to/lastmile_qr_scan", "android": "https://dc.lft.to/lastmile_qr_scan"}}, {"name": "d8d1f4f4922eaaa2a1ed5a6cbc1e4401", "type": "electric_scooter", "lat": 38.907210166666665, "is_reserved": 0, "lon": -77.04205116666667, "fusion_lon": 0.0, "is_disabled": 0, "fusion_lat": 0.0, "bike_id": "d8d1f4f4922eaaa2a1ed5a6cbc1e4401", "rental_uris": {"ios": "https://dc.lft.to/lastmile_qr_scan", "android": "https://dc.lft.to/lastmile_qr_scan"}}, {"name": "4807d62c16cf497d4815a77c9742dcee", "type": "electric_scooter", "lat": 38.9148175, "is_reserved": 0, "lon": -77.02177983333333, "fusion_lon": 0.0, "is_disabled": 0, "fusion_lat": 0.0, "bike_id": "4807d62c16cf497d4815a77c9742dcee", "rental_uris": {"ios": "https://dc.lft.to/lastmile_qr_scan", "android": "https://dc.lft.to/lastmile_qr_scan"}}, {"name": "9d6e044a6651eede0b9150bcadd3e640", "type": "electric_scooter", "lat": 38.894805, "is_reserved": 0, "lon": -76.94869516666667, "fusion_lon": 0.0, "is_disabled": 0, "fusion_lat": 0.0, "bike_id": "9d6e044a6651eede0b9150bcadd3e640", "rental_uris": {"ios": "https://dc.lft.to/lastmile_qr_scan", "android": "https://dc.lft.to/lastmile_qr_scan"}}, {"name": "e2f93ce7114957527ddd633b4c572381", "type": "electric_scooter", "lat": 38.912641, "is_reserved": 0, "lon": -77.0314215, "fusion_lon": 0.0, "is_disabled": 0, "fusion_lat": 0.0, "bike_id": "e2f93ce7114957527ddd633b4c572381", "rental_uris": {"ios": "https://dc.lft.to/lastmile_qr_scan", "android": "https://dc.lft.to/lastmile_qr_scan"}}, {"name": "b19581be810c2a9ff02fd4e9f6b6122f", "type": "electric_bike", "lat": 38.9234945, "is_reserved": 0, "lon": -76.99246033333333, "fusion_lon": 0.0, "is_disabled": 0, "fusion_lat": 0.0, "bike_id": "b19581be810c2a9ff02fd4e9f6b6122f", "rental_uris": {"ios": "https://dc.lft.to/lastmile_qr_scan", "android": "https://dc.lft.to/lastmile_qr_scan"}}, {"name": "5e080d1d9b34b7cbf2e5354ba5137b60", "type": "electric_scooter", "lat": 38.8921975, "is_reserved": 0, "lon": -77.0436495, "fusion_lon": 0.0, "is_disabled": 0, "fusion_lat": 0.0, "bike_id": "5e080d1d9b34b7cbf2e5354ba5137b60", "rental_uris": {"ios": "https://dc.lft.to/lastmile_qr_scan", "android": "https://dc.lft.to/lastmile_qr_scan"}}, {"name": "63ff54c349f948badd47cc55b876f489", "type": "electric_bike", "lat": 38.904719, "is_reserved": 0, "lon": -76.92947083333334, "fusion_lon": 0.0, "is_disabled": 0, "fusion_lat": 0.0, "bike_id": "63ff54c349f948badd47cc55b876f489", "rental_uris": {"ios": "https://dc.lft.to/lastmile_qr_scan", "android": "https://dc.lft.to/lastmile_qr_scan"}}, {"name": "4ab04bd99eadb3f4a6e8c63f51888f41", "type": "electric_scooter", "lat": 38.895249166666666, "is_reserved": 0, "lon": -77.04844816666666, "fusion_lon": 0.0, "is_disabled": 0, "fusion_lat": 0.0, "bike_id": "4ab04bd99eadb3f4a6e8c63f51888f41", "rental_uris": {"ios": "https://dc.lft.to/lastmile_qr_scan", "android": "https://dc.lft.to/lastmile_qr_scan"}}, {"name": "b54bc3535d19367784c9657d1c9b21b9", "type": "electric_scooter", "lat": 38.899984, "is_reserved": 0, "lon": -77.052348, "fusion_lon": 0.0, "is_disabled": 0, "fusion_lat": 0.0, "bike_id": "b54bc3535d19367784c9657d1c9b21b9", "rental_uris": {"ios": "https://dc.lft.to/lastmile_qr_scan", "android": "https://dc.lft.to/lastmile_qr_scan"}}, {"name": "6944c9052438d670dc78a021ae2fdd48", "type": "electric_scooter", "lat": 38.9035715, "is_reserved": 0, "lon": -77.033743, "fusion_lon": 0.0, "is_disabled": 0, "fusion_lat": 0.0, "bike_id": "6944c9052438d670dc78a021ae2fdd48", "rental_uris": {"ios": "https://dc.lft.to/lastmile_qr_scan", "android": "https://dc.lft.to/lastmile_qr_scan"}}, {"name": "d100c0ea8ceca8e6147f938ecea8d757", "type": "electric_scooter", "lat": 38.91409766666666, "is_reserved": 0, "lon": -77.03897316666666, "fusion_lon": 0.0, "is_disabled": 0, "fusion_lat": 0.0, "bike_id": "d100c0ea8ceca8e6147f938ecea8d757", "rental_uris": {"ios": "https://dc.lft.to/lastmile_qr_scan", "android": "https://dc.lft.to/lastmile_qr_scan"}}, {"name": "ab57d5a274b37b57d78c659c8da907d9", "type": "electric_scooter", "lat": 38.875499166666664, "is_reserved": 0, "lon": -76.9648855, "fusion_lon": 0.0, "is_disabled": 0, "fusion_lat": 0.0, "bike_id": "ab57d5a274b37b57d78c659c8da907d9", "rental_uris": {"ios": "https://dc.lft.to/lastmile_qr_scan", "android": "https://dc.lft.to/lastmile_qr_scan"}}, {"name": "2ee2804992fd32084d2cc2e7bb7186bb", "type": "electric_scooter", "lat": 38.91529833333333, "is_reserved": 0, "lon": -77.04609033333334, "fusion_lon": 0.0, "is_disabled": 0, "fusion_lat": 0.0, "bike_id": "2ee2804992fd32084d2cc2e7bb7186bb", "rental_uris": {"ios": "https://dc.lft.to/lastmile_qr_scan", "android": "https://dc.lft.to/lastmile_qr_scan"}}, {"name": "1f8b03898977b1bf0362e44d56cc861c", "type": "electric_scooter", "lat": 38.914890666666665, "is_reserved": 0, "lon": -77.01852383333333, "fusion_lon": 0.0, "is_disabled": 0, "fusion_lat": 0.0, "bike_id": "1f8b03898977b1bf0362e44d56cc861c", "rental_uris": {"ios": "https://dc.lft.to/lastmile_qr_scan", "android": "https://dc.lft.to/lastmile_qr_scan"}}, {"name": "ecc92b1f23e7103b5756ad3d33990b3c", "type": "electric_scooter", "lat": 38.89997833333334, "is_reserved": 0, "lon": -76.9855925, "fusion_lon": 0.0, "is_disabled": 0, "fusion_lat": 0.0, "bike_id": "ecc92b1f23e7103b5756ad3d33990b3c", "rental_uris": {"ios": "https://dc.lft.to/lastmile_qr_scan", "android": "https://dc.lft.to/lastmile_qr_scan"}}, {"name": "51a4f5af6a8a1616e21924e91eebaf04", "type": "electric_scooter", "lat": 38.91265533333333, "is_reserved": 0, "lon": -77.00363983333334, "fusion_lon": 0.0, "is_disabled": 0, "fusion_lat": 0.0, "bike_id": "51a4f5af6a8a1616e21924e91eebaf04", "rental_uris": {"ios": "https://dc.lft.to/lastmile_qr_scan", "android": "https://dc.lft.to/lastmile_qr_scan"}}, {"name": "9ad959886d79a604cff41ff7ad198124", "type": "electric_scooter", "lat": 38.930593333333334, "is_reserved": 0, "lon": -77.04132216666666, "fusion_lon": 0.0, "is_disabled": 0, "fusion_lat": 0.0, "bike_id": "9ad959886d79a604cff41ff7ad198124", "rental_uris": {"ios": "https://dc.lft.to/lastmile_qr_scan", "android": "https://dc.lft.to/lastmile_qr_scan"}}, {"name": "972533cd837ff20cfb1f396755d68e1f", "type": "electric_scooter", "lat": 38.924690166666664, "is_reserved": 0, "lon": -77.02841866666667, "fusion_lon": 0.0, "is_disabled": 0, "fusion_lat": 0.0, "bike_id": "972533cd837ff20cfb1f396755d68e1f", "rental_uris": {"ios": "https://dc.lft.to/lastmile_qr_scan", "android": "https://dc.lft.to/lastmile_qr_scan"}}, {"name": "a9d58d0c762f34b706fe1dfe64e81169", "type": "electric_scooter", "lat": 38.910857666666665, "is_reserved": 0, "lon": -77.03843016666667, "fusion_lon": 0.0, "is_disabled": 0, "fusion_lat": 0.0, "bike_id": "a9d58d0c762f34b706fe1dfe64e81169", "rental_uris": {"ios": "https://dc.lft.to/lastmile_qr_scan", "android": "https://dc.lft.to/lastmile_qr_scan"}}, {"name": "0eaffb1d6d5d133e871c09095883c27a", "type": "electric_scooter", "lat": 38.926881333333334, "is_reserved": 0, "lon": -77.095567, "fusion_lon": 0.0, "is_disabled": 0, "fusion_lat": 0.0, "bike_id": "0eaffb1d6d5d133e871c09095883c27a", "rental_uris": {"ios": "https://dc.lft.to/lastmile_qr_scan", "android": "https://dc.lft.to/lastmile_qr_scan"}}, {"name": "209f1cba74035f06313f0047be168a54", "type": "electric_scooter", "lat": 38.893974, "is_reserved": 0, "lon": -76.94801716666667, "fusion_lon": 0.0, "is_disabled": 0, "fusion_lat": 0.0, "bike_id": "209f1cba74035f06313f0047be168a54", "rental_uris": {"ios": "https://dc.lft.to/lastmile_qr_scan", "android": "https://dc.lft.to/lastmile_qr_scan"}}, {"name": "7fce4709b396fb9d7721dc51bdecd812", "type": "electric_bike", "lat": 38.99291016666667, "is_reserved": 0, "lon": -77.0254085, "fusion_lon": 0.0, "is_disabled": 0, "fusion_lat": 0.0, "bike_id": "7fce4709b396fb9d7721dc51bdecd812", "rental_uris": {"ios": "https://dc.lft.to/lastmile_qr_scan", "android": "https://dc.lft.to/lastmile_qr_scan"}}, {"name": "20c19d74b11d438e0d482846f3597640", "type": "electric_scooter", "lat": 38.908409666666664, "is_reserved": 0, "lon": -77.02696616666667, "fusion_lon": 0.0, "is_disabled": 0, "fusion_lat": 0.0, "bike_id": "20c19d74b11d438e0d482846f3597640", "rental_uris": {"ios": "https://dc.lft.to/lastmile_qr_scan", "android": "https://dc.lft.to/lastmile_qr_scan"}}, {"name": "3b14ee76afe14720774c354856180d3b", "type": "electric_bike", "lat": 38.880045333333335, "is_reserved": 0, "lon": -76.915952, "fusion_lon": 0.0, "is_disabled": 0, "fusion_lat": 0.0, "bike_id": "3b14ee76afe14720774c354856180d3b", "rental_uris": {"ios": "https://dc.lft.to/lastmile_qr_scan", "android": "https://dc.lft.to/lastmile_qr_scan"}}, {"name": "c808c390fff906825378ae2bfbef5589", "type": "electric_scooter", "lat": 38.935393166666664, "is_reserved": 0, "lon": -77.037003, "fusion_lon": 0.0, "is_disabled": 0, "fusion_lat": 0.0, "bike_id": "c808c390fff906825378ae2bfbef5589", "rental_uris": {"ios": "https://dc.lft.to/lastmile_qr_scan", "android": "https://dc.lft.to/lastmile_qr_scan"}}, {"name": "6641e56a84db883d528e7fd31e40a75b", "type": "electric_scooter", "lat": 38.925324, "is_reserved": 0, "lon": -77.05546433333333, "fusion_lon": 0.0, "is_disabled": 0, "fusion_lat": 0.0, "bike_id": "6641e56a84db883d528e7fd31e40a75b", "rental_uris": {"ios": "https://dc.lft.to/lastmile_qr_scan", "android": "https://dc.lft.to/lastmile_qr_scan"}}, {"name": "b4ea83aabdf5a9411b9799dcec596ee9", "type": "electric_scooter", "lat": 38.91875666666667, "is_reserved": 0, "lon": -77.04379216666666, "fusion_lon": 0.0, "is_disabled": 0, "fusion_lat": 0.0, "bike_id": "b4ea83aabdf5a9411b9799dcec596ee9", "rental_uris": {"ios": "https://dc.lft.to/lastmile_qr_scan", "android": "https://dc.lft.to/lastmile_qr_scan"}}, {"name": "2d53f483a8f76126e558a82c4414a766", "type": "electric_scooter", "lat": 38.901478, "is_reserved": 0, "lon": -76.930687, "fusion_lon": 0.0, "is_disabled": 0, "fusion_lat": 0.0, "bike_id": "2d53f483a8f76126e558a82c4414a766", "rental_uris": {"ios": "https://dc.lft.to/lastmile_qr_scan", "android": "https://dc.lft.to/lastmile_qr_scan"}}, {"name": "1aeb22422f71dc706b6a7fb2e347ded1", "type": "electric_scooter", "lat": 38.935793833333335, "is_reserved": 0, "lon": -76.991043, "fusion_lon": 0.0, "is_disabled": 0, "fusion_lat": 0.0, "bike_id": "1aeb22422f71dc706b6a7fb2e347ded1", "rental_uris": {"ios": "https://dc.lft.to/lastmile_qr_scan", "android": "https://dc.lft.to/lastmile_qr_scan"}}, {"name": "c4b9b0981e996d27c2beb8e9a89b5bb9", "type": "electric_scooter", "lat": 38.91575666666667, "is_reserved": 0, "lon": -77.04472116666666, "fusion_lon": 0.0, "is_disabled": 0, "fusion_lat": 0.0, "bike_id": "c4b9b0981e996d27c2beb8e9a89b5bb9", "rental_uris": {"ios": "https://dc.lft.to/lastmile_qr_scan", "android": "https://dc.lft.to/lastmile_qr_scan"}}, {"name": "ea0d1da8e4bd2f4d0a591f8c3eab8d3f", "type": "electric_scooter", "lat": 38.922331, "is_reserved": 0, "lon": -77.03340516666667, "fusion_lon": 0.0, "is_disabled": 0, "fusion_lat": 0.0, "bike_id": "ea0d1da8e4bd2f4d0a591f8c3eab8d3f", "rental_uris": {"ios": "https://dc.lft.to/lastmile_qr_scan", "android": "https://dc.lft.to/lastmile_qr_scan"}}, {"name": "c24ab3ac225b86e7d4027da35fb0d2e1", "type": "electric_scooter", "lat": 38.92469716666667, "is_reserved": 0, "lon": -77.03760233333334, "fusion_lon": 0.0, "is_disabled": 0, "fusion_lat": 0.0, "bike_id": "c24ab3ac225b86e7d4027da35fb0d2e1", "rental_uris": {"ios": "https://dc.lft.to/lastmile_qr_scan", "android": "https://dc.lft.to/lastmile_qr_scan"}}, {"name": "2cbec1942ae199addbe715cb326ef096", "type": "electric_scooter", "lat": 38.878352, "is_reserved": 0, "lon": -76.99035, "fusion_lon": 0.0, "is_disabled": 0, "fusion_lat": 0.0, "bike_id": "2cbec1942ae199addbe715cb326ef096", "rental_uris": {"ios": "https://dc.lft.to/lastmile_qr_scan", "android": "https://dc.lft.to/lastmile_qr_scan"}}, {"name": "9bbadb1c819d065baa2e7af9b03ec5b4", "type": "electric_scooter", "lat": 38.934895, "is_reserved": 0, "lon": -77.0328145, "fusion_lon": 0.0, "is_disabled": 0, "fusion_lat": 0.0, "bike_id": "9bbadb1c819d065baa2e7af9b03ec5b4", "rental_uris": {"ios": "https://dc.lft.to/lastmile_qr_scan", "android": "https://dc.lft.to/lastmile_qr_scan"}}, {"name": "5e98ea4febf025842d2a3b81fad5aedc", "type": "electric_scooter", "lat": 38.90302416666667, "is_reserved": 0, "lon": -76.99862516666667, "fusion_lon": 0.0, "is_disabled": 0, "fusion_lat": 0.0, "bike_id": "5e98ea4febf025842d2a3b81fad5aedc", "rental_uris": {"ios": "https://dc.lft.to/lastmile_qr_scan", "android": "https://dc.lft.to/lastmile_qr_scan"}}, {"name": "22eed3c377f8ad99c23929a44ee22b95", "type": "electric_scooter", "lat": 38.917171, "is_reserved": 0, "lon": -77.0683335, "fusion_lon": 0.0, "is_disabled": 0, "fusion_lat": 0.0, "bike_id": "22eed3c377f8ad99c23929a44ee22b95", "rental_uris": {"ios": "https://dc.lft.to/lastmile_qr_scan", "android": "https://dc.lft.to/lastmile_qr_scan"}}, {"name": "867395660c823813c9d57662fa886675", "type": "electric_scooter", "lat": 38.876289166666666, "is_reserved": 0, "lon": -76.96525483333333, "fusion_lon": 0.0, "is_disabled": 0, "fusion_lat": 0.0, "bike_id": "867395660c823813c9d57662fa886675", "rental_uris": {"ios": "https://dc.lft.to/lastmile_qr_scan", "android": "https://dc.lft.to/lastmile_qr_scan"}}, {"name": "8629ff3368b8fe952385f9f78587982b", "type": "electric_scooter", "lat": 38.905315333333334, "is_reserved": 0, "lon": -77.00606783333333, "fusion_lon": 0.0, "is_disabled": 0, "fusion_lat": 0.0, "bike_id": "8629ff3368b8fe952385f9f78587982b", "rental_uris": {"ios": "https://dc.lft.to/lastmile_qr_scan", "android": "https://dc.lft.to/lastmile_qr_scan"}}, {"name": "fd1a79d6c789eff9c5fb2ef4da6e4f45", "type": "electric_scooter", "lat": 38.89583566666667, "is_reserved": 0, "lon": -76.9371585, "fusion_lon": 0.0, "is_disabled": 0, "fusion_lat": 0.0, "bike_id": "fd1a79d6c789eff9c5fb2ef4da6e4f45", "rental_uris": {"ios": "https://dc.lft.to/lastmile_qr_scan", "android": "https://dc.lft.to/lastmile_qr_scan"}}, {"name": "0f7c482fcb62a12db177c1ba570c8adf", "type": "electric_scooter", "lat": 38.8561865, "is_reserved": 0, "lon": -76.980167, "fusion_lon": 0.0, "is_disabled": 0, "fusion_lat": 0.0, "bike_id": "0f7c482fcb62a12db177c1ba570c8adf", "rental_uris": {"ios": "https://dc.lft.to/lastmile_qr_scan", "android": "https://dc.lft.to/lastmile_qr_scan"}}, {"name": "29d161dafdc1e793e95ada24000a25cb", "type": "electric_scooter", "lat": 38.84293566666667, "is_reserved": 0, "lon": -76.99946116666666, "fusion_lon": 0.0, "is_disabled": 0, "fusion_lat": 0.0, "bike_id": "29d161dafdc1e793e95ada24000a25cb", "rental_uris": {"ios": "https://dc.lft.to/lastmile_qr_scan", "android": "https://dc.lft.to/lastmile_qr_scan"}}, {"name": "900f03d122a9dbaa3e1c9bbb88f65dcd", "type": "electric_scooter", "lat": 38.904486, "is_reserved": 0, "lon": -76.99623916666667, "fusion_lon": 0.0, "is_disabled": 0, "fusion_lat": 0.0, "bike_id": "900f03d122a9dbaa3e1c9bbb88f65dcd", "rental_uris": {"ios": "https://dc.lft.to/lastmile_qr_scan", "android": "https://dc.lft.to/lastmile_qr_scan"}}, {"name": "66034db515c82952b7b33a6abd9f3d44", "type": "electric_scooter", "lat": 38.8972665, "is_reserved": 0, "lon": -77.04335833333333, "fusion_lon": 0.0, "is_disabled": 0, "fusion_lat": 0.0, "bike_id": "66034db515c82952b7b33a6abd9f3d44", "rental_uris": {"ios": "https://dc.lft.to/lastmile_qr_scan", "android": "https://dc.lft.to/lastmile_qr_scan"}}, {"name": "f15d526b4441b61ef9b44c6ca78a35a3", "type": "electric_scooter", "lat": 38.9063695, "is_reserved": 0, "lon": -77.051247, "fusion_lon": 0.0, "is_disabled": 0, "fusion_lat": 0.0, "bike_id": "f15d526b4441b61ef9b44c6ca78a35a3", "rental_uris": {"ios": "https://dc.lft.to/lastmile_qr_scan", "android": "https://dc.lft.to/lastmile_qr_scan"}}, {"name": "79ea3b817c97c69c3c5bd56123e64c7f", "type": "electric_scooter", "lat": 38.910918333333335, "is_reserved": 0, "lon": -77.00495316666667, "fusion_lon": 0.0, "is_disabled": 0, "fusion_lat": 0.0, "bike_id": "79ea3b817c97c69c3c5bd56123e64c7f", "rental_uris": {"ios": "https://dc.lft.to/lastmile_qr_scan", "android": "https://dc.lft.to/lastmile_qr_scan"}}, {"name": "b7756cfc974e2c86e172846a08e4d068", "type": "electric_scooter", "lat": 38.90662733333333, "is_reserved": 0, "lon": -77.05111716666667, "fusion_lon": 0.0, "is_disabled": 0, "fusion_lat": 0.0, "bike_id": "b7756cfc974e2c86e172846a08e4d068", "rental_uris": {"ios": "https://dc.lft.to/lastmile_qr_scan", "android": "https://dc.lft.to/lastmile_qr_scan"}}, {"name": "136ce2202d77462a2fd932274e4273dd", "type": "electric_scooter", "lat": 38.930140333333334, "is_reserved": 0, "lon": -77.0232635, "fusion_lon": 0.0, "is_disabled": 0, "fusion_lat": 0.0, "bike_id": "136ce2202d77462a2fd932274e4273dd", "rental_uris": {"ios": "https://dc.lft.to/lastmile_qr_scan", "android": "https://dc.lft.to/lastmile_qr_scan"}}, {"name": "7f3cd64c9d76ccaa583c428b75633131", "type": "electric_scooter", "lat": 38.900143, "is_reserved": 0, "lon": -77.04018, "fusion_lon": 0.0, "is_disabled": 0, "fusion_lat": 0.0, "bike_id": "7f3cd64c9d76ccaa583c428b75633131", "rental_uris": {"ios": "https://dc.lft.to/lastmile_qr_scan", "android": "https://dc.lft.to/lastmile_qr_scan"}}, {"name": "1ef8f093a2f7b8b4113ccd099fb2b28e", "type": "electric_scooter", "lat": 38.905769666666664, "is_reserved": 0, "lon": -77.03442733333333, "fusion_lon": 0.0, "is_disabled": 0, "fusion_lat": 0.0, "bike_id": "1ef8f093a2f7b8b4113ccd099fb2b28e", "rental_uris": {"ios": "https://dc.lft.to/lastmile_qr_scan", "android": "https://dc.lft.to/lastmile_qr_scan"}}, {"name": "7162559f947785ca31ea410ea50a0c5c", "type": "electric_scooter", "lat": 38.90025716666667, "is_reserved": 0, "lon": -77.01180116666667, "fusion_lon": 0.0, "is_disabled": 0, "fusion_lat": 0.0, "bike_id": "7162559f947785ca31ea410ea50a0c5c", "rental_uris": {"ios": "https://dc.lft.to/lastmile_qr_scan", "android": "https://dc.lft.to/lastmile_qr_scan"}}, {"name": "71c60256f6ea0cc7da9b360925bec9ee", "type": "electric_scooter", "lat": 38.899930499999996, "is_reserved": 0, "lon": -77.033082, "fusion_lon": 0.0, "is_disabled": 0, "fusion_lat": 0.0, "bike_id": "71c60256f6ea0cc7da9b360925bec9ee", "rental_uris": {"ios": "https://dc.lft.to/lastmile_qr_scan", "android": "https://dc.lft.to/lastmile_qr_scan"}}, {"name": "301d5d234b52f08d13eaef4e2186e159", "type": "electric_scooter", "lat": 38.9086315, "is_reserved": 0, "lon": -77.02486583333334, "fusion_lon": 0.0, "is_disabled": 0, "fusion_lat": 0.0, "bike_id": "301d5d234b52f08d13eaef4e2186e159", "rental_uris": {"ios": "https://dc.lft.to/lastmile_qr_scan", "android": "https://dc.lft.to/lastmile_qr_scan"}}, {"name": "6376789a00964c572c5c1ce626bba0d8", "type": "electric_scooter", "lat": 38.90515283333333, "is_reserved": 0, "lon": -77.05319083333333, "fusion_lon": 0.0, "is_disabled": 0, "fusion_lat": 0.0, "bike_id": "6376789a00964c572c5c1ce626bba0d8", "rental_uris": {"ios": "https://dc.lft.to/lastmile_qr_scan", "android": "https://dc.lft.to/lastmile_qr_scan"}}, {"name": "c9b32e4a84842c883af14355e1a5845f", "type": "electric_scooter", "lat": 38.91324016666667, "is_reserved": 0, "lon": -77.02200016666667, "fusion_lon": 0.0, "is_disabled": 0, "fusion_lat": 0.0, "bike_id": "c9b32e4a84842c883af14355e1a5845f", "rental_uris": {"ios": "https://dc.lft.to/lastmile_qr_scan", "android": "https://dc.lft.to/lastmile_qr_scan"}}, {"name": "b6a9797c1673251d6f41c428a752b1ee", "type": "electric_scooter", "lat": 38.894657333333335, "is_reserved": 0, "lon": -76.97717633333333, "fusion_lon": 0.0, "is_disabled": 0, "fusion_lat": 0.0, "bike_id": "b6a9797c1673251d6f41c428a752b1ee", "rental_uris": {"ios": "https://dc.lft.to/lastmile_qr_scan", "android": "https://dc.lft.to/lastmile_qr_scan"}}, {"name": "79569916843bc54c3254013fdbc735c3", "type": "electric_bike", "lat": 38.91694416666667, "is_reserved": 0, "lon": -77.03758533333334, "fusion_lon": 0.0, "is_disabled": 0, "fusion_lat": 0.0, "bike_id": "79569916843bc54c3254013fdbc735c3", "rental_uris": {"ios": "https://dc.lft.to/lastmile_qr_scan", "android": "https://dc.lft.to/lastmile_qr_scan"}}, {"name": "cac06c8ecf3620a4e2b98200697d427e", "type": "electric_scooter", "lat": 38.941792166666666, "is_reserved": 0, "lon": -77.03651666666667, "fusion_lon": 0.0, "is_disabled": 0, "fusion_lat": 0.0, "bike_id": "cac06c8ecf3620a4e2b98200697d427e", "rental_uris": {"ios": "https://dc.lft.to/lastmile_qr_scan", "android": "https://dc.lft.to/lastmile_qr_scan"}}, {"name": "52aef186f66669c4cab2167ad8ecf481", "type": "electric_scooter", "lat": 38.90725366666667, "is_reserved": 0, "lon": -77.043338, "fusion_lon": 0.0, "is_disabled": 0, "fusion_lat": 0.0, "bike_id": "52aef186f66669c4cab2167ad8ecf481", "rental_uris": {"ios": "https://dc.lft.to/lastmile_qr_scan", "android": "https://dc.lft.to/lastmile_qr_scan"}}, {"name": "5be12d60b3e1fc13750b2c56832a56e8", "type": "electric_scooter", "lat": 38.911905, "is_reserved": 0, "lon": -77.0321305, "fusion_lon": 0.0, "is_disabled": 0, "fusion_lat": 0.0, "bike_id": "5be12d60b3e1fc13750b2c56832a56e8", "rental_uris": {"ios": "https://dc.lft.to/lastmile_qr_scan", "android": "https://dc.lft.to/lastmile_qr_scan"}}, {"name": "f3217445d0d4e118e60d3414830d406b", "type": "electric_scooter", "lat": 38.897386833333336, "is_reserved": 0, "lon": -76.94249916666666, "fusion_lon": 0.0, "is_disabled": 0, "fusion_lat": 0.0, "bike_id": "f3217445d0d4e118e60d3414830d406b", "rental_uris": {"ios": "https://dc.lft.to/lastmile_qr_scan", "android": "https://dc.lft.to/lastmile_qr_scan"}}, {"name": "2f4f0e5af64fd8b2812c8ad3cd85a066", "type": "electric_scooter", "lat": 38.880519, "is_reserved": 0, "lon": -77.01326566666667, "fusion_lon": 0.0, "is_disabled": 0, "fusion_lat": 0.0, "bike_id": "2f4f0e5af64fd8b2812c8ad3cd85a066", "rental_uris": {"ios": "https://dc.lft.to/lastmile_qr_scan", "android": "https://dc.lft.to/lastmile_qr_scan"}}, {"name": "6407eee0b12a61af154aac6b0da30585", "type": "electric_scooter", "lat": 38.89518433333333, "is_reserved": 0, "lon": -76.99157016666666, "fusion_lon": 0.0, "is_disabled": 0, "fusion_lat": 0.0, "bike_id": "6407eee0b12a61af154aac6b0da30585", "rental_uris": {"ios": "https://dc.lft.to/lastmile_qr_scan", "android": "https://dc.lft.to/lastmile_qr_scan"}}, {"name": "c2d31bf1e598b768ca801e510a2e2a7d", "type": "electric_scooter", "lat": 38.89884583333333, "is_reserved": 0, "lon": -76.931767, "fusion_lon": 0.0, "is_disabled": 0, "fusion_lat": 0.0, "bike_id": "c2d31bf1e598b768ca801e510a2e2a7d", "rental_uris": {"ios": "https://dc.lft.to/lastmile_qr_scan", "android": "https://dc.lft.to/lastmile_qr_scan"}}, {"name": "d7f92399e2861df7b0cc4cd67644612c", "type": "electric_bike", "lat": 38.935776833333335, "is_reserved": 0, "lon": -77.02124316666666, "fusion_lon": 0.0, "is_disabled": 0, "fusion_lat": 0.0, "bike_id": "d7f92399e2861df7b0cc4cd67644612c", "rental_uris": {"ios": "https://dc.lft.to/lastmile_qr_scan", "android": "https://dc.lft.to/lastmile_qr_scan"}}, {"name": "e9f1c02d2876d96791e3a0b3fbbfebfc", "type": "electric_scooter", "lat": 38.94211766666667, "is_reserved": 0, "lon": -77.03582733333333, "fusion_lon": 0.0, "is_disabled": 0, "fusion_lat": 0.0, "bike_id": "e9f1c02d2876d96791e3a0b3fbbfebfc", "rental_uris": {"ios": "https://dc.lft.to/lastmile_qr_scan", "android": "https://dc.lft.to/lastmile_qr_scan"}}, {"name": "5ce53f03438358f0aa8735af21186282", "type": "electric_scooter", "lat": 38.901121, "is_reserved": 0, "lon": -77.0498145, "fusion_lon": 0.0, "is_disabled": 0, "fusion_lat": 0.0, "bike_id": "5ce53f03438358f0aa8735af21186282", "rental_uris": {"ios": "https://dc.lft.to/lastmile_qr_scan", "android": "https://dc.lft.to/lastmile_qr_scan"}}, {"name": "ef8de3ab2674a11f73c5785ca8ac7466", "type": "electric_scooter", "lat": 38.93150883333333, "is_reserved": 0, "lon": -77.0383175, "fusion_lon": 0.0, "is_disabled": 0, "fusion_lat": 0.0, "bike_id": "ef8de3ab2674a11f73c5785ca8ac7466", "rental_uris": {"ios": "https://dc.lft.to/lastmile_qr_scan", "android": "https://dc.lft.to/lastmile_qr_scan"}},