{"data": {"bikes": [{"rental_uris": {"ios": "https://dc.lft.to/lastmile_qr_scan", "android": "https://dc.lft.to/lastmile_qr_scan"}, "lon": -77.08868233333334, "type": "electric_scooter", "fusion_lat": 0.0, "lat": 38.90987, "name": "89fb781b07459293cf1f0c210517773b", "fusion_lon": 0.0, "bike_id": "89fb781b07459293cf1f0c210517773b", "is_disabled": 0, "is_reserved": 0}, {"rental_uris": {"ios": "https://dc.lft.to/lastmile_qr_scan", "android": "https://dc.lft.to/lastmile_qr_scan"}, "lon": -77.02935316666667, "type": "electric_scooter", "fusion_lat": 0.0, "lat": 38.899419, "name": "e12196b7293259b6c7a35748168ea0c4", "fusion_lon": 0.0, "bike_id": "e12196b7293259b6c7a35748168ea0c4", "is_disabled": 0, "is_reserved": 0}, {"rental_uris": {"ios": "https://dc.lft.to/lastmile_qr_scan", "android": "https://dc.lft.to/lastmile_qr_scan"}, "lon": -77.00502683333333, "type": "electric_scooter", "fusion_lat": 0.0, "lat": 38.87889033333333, "name": "64778ca407cdbf2e88b30c83d1e9096f", "fusion_lon": 0.0, "bike_id": "64778ca407cdbf2e88b30c83d1e9096f", "is_disabled": 0, "is_reserved": 0}, {"rental_uris": {"ios": "https://dc.lft.to/lastmile_qr_scan", "android": "https://dc.lft.to/lastmile_qr_scan"}, "lon": -77.00929283333333, "type": "electric_scooter", "fusion_lat": 0.0, "lat": 38.87116133333333, "name": "fb955efa29786c15811296363b99692e", "fusion_lon": 0.0, "bike_id": "fb955efa29786c15811296363b99692e", "is_disabled": 0, "is_reserved": 0}, {"rental_uris": {"ios": "https://dc.lft.to/lastmile_qr_scan", "android": "https://dc.lft.to/lastmile_qr_scan"}, "lon": -77.04819483333333, "type": "electric_scooter", "fusion_lat": 0.0, "lat": 38.907956, "name": "9c7e3e9989942a7b69cf88f5e514ec47", "fusion_lon": 0.0, "bike_id": "9c7e3e9989942a7b69cf88f5e514ec47", "is_disabled": 0, "is_reserved": 0}, {"rental_uris": {"ios": "https://dc.lft.to/lastmile_qr_scan", "android": "https://dc.lft.to/lastmile_qr_scan"}, "lon": -77.063272, "type": "electric_bike", "fusion_lat": 0.0, "lat": 38.92107983333333, "name": "228b16f4e6592060d7e0c3db68cc136c", "fusion_lon": 0.0, "bike_id": "228b16f4e6592060d7e0c3db68cc136c", "is_disabled": 0, "is_reserved": 0}, {"rental_uris": {"ios": "https://dc.lft.to/lastmile_qr_scan", "android": "https://dc.lft.to/lastmile_qr_scan"}, "lon": -76.94632166666666, "type": "electric_scooter", "fusion_lat": 0.0, "lat": 38.898399, "name": "2c43bb8504ffc07df575b7b582a53cc5", "fusion_lon": 0.0, "bike_id": "2c43bb8504ffc07df575b7b582a53cc5", "is_disabled": 0, "is_reserved": 0}, {"rental_uris": {"ios": "https://dc.lft.to/lastmile_qr_scan", "android": "https://dc.lft.to/lastmile_qr_scan"}, "lon": -77.058625, "type": "electric_scooter", "fusion_lat": 0.0, "lat": 38.936080833333335, "name": "b73b769a494d8260d375b61c7226e98c", "fusion_lon": 0.0, "bike_id": "b73b769a494d8260d375b61c7226e98c", "is_disabled": 0, "is_reserved": 0}, {"rental_uris": {"ios": "https://dc.lft.to/lastmile_qr_scan", "android": "https://dc.lft.to/lastmile_qr_scan"}, "lon": -77.05346883333333, "type": "electric_scooter", "fusion_lat": 0.0, "lat": 38.902659666666665, "name": "4bcd6463d0f98257228ac08a44ecdb2d", "fusion_lon": 0.0, "bike_id": "4bcd6463d0f98257228ac08a44ecdb2d", "is_disabled": 0, "is_reserved": 0}, {"rental_uris": {"ios": "https://dc.lft.to/lastmile_qr_scan", "android": "https://dc.lft.to/lastmile_qr_scan"}, "lon": -76.931002, "type": "electric_scooter", "fusion_lat": 0.0, "lat": 38.90138783333333, "name": "dc2d3f0bef3642613f94bbc815830d3c", "fusion_lon": 0.0, "bike_id": "dc2d3f0bef3642613f94bbc815830d3c", "is_disabled": 0, "is_reserved": 0}, {"rental_uris": {"ios": "https://dc.lft.to/lastmile_qr_scan", "android": "https://dc.lft.to/lastmile_qr_scan"}, "lon": -76.99509466666666, "type": "electric_scooter", "fusion_lat": 0.0, "lat": 38.877385333333336, "name": "4df425ffe847669981d311b1cc9b9004", "fusion_lon": 0.0, "bike_id": "4df425ffe847669981d311b1cc9b9004", "is_disabled": 0, "is_reserved": 0}, {"rental_uris": {"ios": "https://dc.lft.to/lastmile_qr_scan", "android": "https://dc.lft.to/lastmile_qr_scan"}, "lon": -77.0335095, "type": "electric_scooter", "fusion_lat": 0.0, "lat": 38.89243, "name": "4c38c336751b585f66017261c0101d43", "fusion_lon": 0.0, "bike_id": "4c38c336751b585f66017261c0101d43", "is_disabled": 0, "is_reserved": 0}, {"rental_uris": {"ios": "https://dc.lft.to/lastmile_qr_scan", "android": "https://dc.lft.to/lastmile_qr_scan"}, "lon": -76.9605925, "type": "electric_bike", "fusion_lat": 0.0, "lat": 38.884026, "name": "efff7c79fafc1d1a3f22fe767ae08036", "fusion_lon": 0.0, "bike_id": "efff7c79fafc1d1a3f22fe767ae08036", "is_disabled": 0, "is_reserved": 0}, {"rental_uris": {"ios": "https://dc.lft.to/lastmile_qr_scan", "android": "https://dc.lft.to/lastmile_qr_scan"}, "lon": -76.90817466666667, "type": "electric_bike", "fusion_lat": 0.0, "lat": 38.99452983333333, "name": "e8cd9674b48ea2243ed443d3462aebf8", "fusion_lon": 0.0, "bike_id": "e8cd9674b48ea2243ed443d3462aebf8", "is_disabled": 0, "is_reserved": 0}, {"rental_uris": {"ios": "https://dc.lft.to/lastmile_qr_scan", "android": "https://dc.lft.to/lastmile_qr_scan"}, "lon": -77.01131416666666, "type": "electric_scooter", "fusion_lat": 0.0, "lat": 38.89528, "name": "3b322f233eb6d361a06ff36e580ee0ab", "fusion_lon": 0.0, "bike_id": "3b322f233eb6d361a06ff36e580ee0ab", "is_disabled": 0, "is_reserved": 0}, {"rental_uris": {"ios": "https://dc.lft.to/lastmile_qr_scan", "android": "https://dc.lft.to/lastmile_qr_scan"}, "lon": -76.96560966666667, "type": "electric_scooter", "fusion_lat": 0.0, "lat": 38.918640333333336, "name": "abd808145a76baaf183364d394e42c0b", "fusion_lon": 0.0, "bike_id": "abd808145a76baaf183364d394e42c0b", "is_disabled": 0, "is_reserved": 0}, {"rental_uris": {"ios": "https://dc.lft.to/lastmile_qr_scan", "android": "https://dc.lft.to/lastmile_qr_scan"}, "lon": -77.06292033333334, "type": "electric_scooter", "fusion_lat": 0.0, "lat": 38.903962666666665, "name": "afd4014b31402934f609b0b75320952e", "fusion_lon": 0.0, "bike_id": "afd4014b31402934f609b0b75320952e", "is_disabled": 0, "is_reserved": 0}, {"rental_uris": {"ios": "https://dc.lft.to/lastmile_qr_scan", "android": "https://dc.lft.to/lastmile_qr_scan"}, "lon": -77.02835083333333, "type": "electric_scooter", "fusion_lat": 0.0, "lat": 38.93189916666667, "name": "04efc7e74501a16d49541a46af9cd993", "fusion_lon": 0.0, "bike_id": "04efc7e74501a16d49541a46af9cd993", "is_disabled": 0, "is_reserved": 0}, {"rental_uris": {"ios": "https://dc.lft.to/lastmile_qr_scan", "android": "https://dc.lft.to/lastmile_qr_scan"}, "lon": -77.048153, "type": "electric_scooter", "fusion_lat": 0.0, "lat": 38.913359166666666, "name": "76181ea922e2f48791be651d1fffb6e7", "fusion_lon": 0.0, "bike_id": "76181ea922e2f48791be651d1fffb6e7", "is_disabled": 0, "is_reserved": 0}, {"rental_uris": {"ios": "https://dc.lft.to/lastmile_qr_scan", "android": "https://dc.lft.to/lastmile_qr_scan"}, "lon": -77.03658483333334, "type": "electric_scooter", "fusion_lat": 0.0, "lat": 38.93083433333334, "name": "9f0ec2a2bc2e4fee97c5a6200c695d22", "fusion_lon": 0.0, "bike_id": "9f0ec2a2bc2e4fee97c5a6200c695d22", "is_disabled": 0, "is_reserved": 0}, {"rental_uris": {"ios": "https://dc.lft.to/lastmile_qr_scan", "android": "https://dc.lft.to/lastmile_qr_scan"}, "lon": -77.02202516666667, "type": "electric_scooter", "fusion_lat": 0.0, "lat": 38.914563333333334, "name": "6c38fe14ff4889821f5d95f47dbb3aad", "fusion_lon": 0.0, "bike_id": "6c38fe14ff4889821f5d95f47dbb3aad", "is_disabled": 0, "is_reserved": 0}, {"rental_uris": {"ios": "https://dc.lft.to/lastmile_qr_scan", "android": "https://dc.lft.to/lastmile_qr_scan"}, "lon": -77.08262, "type": "electric_scooter", "fusion_lat": 0.0, "lat": 38.93584083333333, "name": "9e894cccd8c8f30650bedf830be69813", "fusion_lon": 0.0, "bike_id": "9e894cccd8c8f30650bedf830be69813", "is_disabled": 0, "is_reserved": 0}, {"rental_uris": {"ios": "https://dc.lft.to/lastmile_qr_scan", "android": "https://dc.lft.to/lastmile_qr_scan"}, "lon": -77.02835366666666, "type": "electric_scooter", "fusion_lat": 0.0, "lat": 38.887266, "name": "b0068ddbe921919ccb1b8ae414b5e496", "fusion_lon": 0.0, "bike_id": "b0068ddbe921919ccb1b8ae414b5e496", "is_disabled": 0, "is_reserved": 0}, {"rental_uris": {"ios": "https://dc.lft.to/lastmile_qr_scan", "android": "https://dc.lft.to/lastmile_qr_scan"}, "lon": -77.04263066666667, "type": "electric_scooter", "fusion_lat": 0.0, "lat": 38.92214283333333, "name": "4b596825625812210ed6ea3e51df6f50", "fusion_lon": 0.0, "bike_id": "4b596825625812210ed6ea3e51df6f50", "is_disabled": 0, "is_reserved": 0}, {"rental_uris": {"ios": "https://dc.lft.to/lastmile_qr_scan", "android": "https://dc.lft.to/lastmile_qr_scan"}, "lon": -77.00626166666666, "type": "electric_scooter", "fusion_lat": 0.0, "lat": 38.899896166666664, "name": "64ed0ba1c44bb7169e0fc92a61650a8f", "fusion_lon": 0.0, "bike_id": "64ed0ba1c44bb7169e0fc92a61650a8f", "is_disabled": 0, "is_reserved": 0}, {"rental_uris": {"ios": "https://dc.lft.to/lastmile_qr_scan", "android": "https://dc.lft.to/lastmile_qr_scan"}, "lon": -77.0461265, "type": "electric_scooter", "fusion_lat": 0.0, "lat": 38.8982295, "name": "da6d52b3683d7580f0dd5b25b798dab6", "fusion_lon": 0.0, "bike_id": "da6d52b3683d7580f0dd5b25b798dab6", "is_disabled": 0, "is_reserved": 0}, {"rental_uris": {"ios": "https://dc.lft.to/lastmile_qr_scan", "android": "https://dc.lft.to/lastmile_qr_scan"}, "lon": -77.04865683333334, "type": "electric_scooter", "fusion_lat": 0.0, "lat": 38.90378283333333, "name": "7ee089f1ab27cfca8c459b544df8370e", "fusion_lon": 0.0, "bike_id": "7ee089f1ab27cfca8c459b544df8370e", "is_disabled": 0, "is_reserved": 0}, {"rental_uris": {"ios": "https://dc.lft.to/lastmile_qr_scan", "android": "https://dc.lft.to/lastmile_qr_scan"}, "lon": -77.03188066666667, "type": "electric_scooter", "fusion_lat": 0.0, "lat": 38.9132565, "name": "f3c8ed6a965ad77845e56365806845ed", "fusion_lon": 0.0, "bike_id": "f3c8ed6a965ad77845e56365806845ed", "is_disabled": 0, "is_reserved": 0}, {"rental_uris": {"ios": "https://dc.lft.to/lastmile_qr_scan", "android": "https://dc.lft.to/lastmile_qr_scan"}, "lon": -77.06002933333333, "type": "electric_scooter", "fusion_lat": 0.0, "lat": 38.905348833333335, "name": "04b0f2ebbeb4e71cda01cb07a480785a", "fusion_lon": 0.0, "bike_id": "04b0f2ebbeb4e71cda01cb07a480785a", "is_disabled": 0, "is_reserved": 0}, {"rental_uris": {"ios": "https://dc.lft.to/lastmile_qr_scan", "android": "https://dc.lft.to/lastmile_qr_scan"}, "lon": -76.96557, "type": "electric_scooter", "fusion_lat": 0.0, "lat": 38.918552166666665, "name": "f51e3e49fbf3d7317a3cf8a352c650e0", "fusion_lon": 0.0, "bike_id": "f51e3e49fbf3d7317a3cf8a352c650e0", "is_disabled": 0, "is_reserved": 0}, {"rental_uris": {"ios": "https://dc.lft.to/lastmile_qr_scan", "android": "https://dc.lft.to/lastmile_qr_scan"}, "lon": -76.96851983333333, "type": "electric_scooter", "fusion_lat": 0.0, "lat": 38.860663, "name": "b7bb962b9c1d9305470a3aeb9b13cb2d", "fusion_lon": 0.0, "bike_id": "b7bb962b9c1d9305470a3aeb9b13cb2d", "is_disabled": 0, "is_reserved": 0}, {"rental_uris": {"ios": "https://dc.lft.to/lastmile_qr_scan", "android": "https://dc.lft.to/lastmile_qr_scan"}, "lon": -77.01533833333333, "type": "electric_scooter", "fusion_lat": 0.0, "lat": 38.887381166666664, "name": "6a48a61824eb2ae945c8db366a2c6d59", "fusion_lon": 0.0, "bike_id": "6a48a61824eb2ae945c8db366a2c6d59", "is_disabled": 0, "is_reserved": 0}, {"rental_uris": {"ios": "https://dc.lft.to/lastmile_qr_scan", "android": "https://dc.lft.to/lastmile_qr_scan"}, "lon": -77.10512533333333, "type": "electric_bike", "fusion_lat": 0.0, "lat": 38.92845333333333, "name": "58fd2db47e50952b6e11ba43ec460ba0", "fusion_lon": 0.0, "bike_id": "58fd2db47e50952b6e11ba43ec460ba0", "is_disabled": 0, "is_reserved": 0}, {"rental_uris": {"ios": "https://dc.lft.to/lastmile_qr_scan", "android": "https://dc.lft.to/lastmile_qr_scan"}, "lon": -77.041316, "type": "electric_scooter", "fusion_lat": 0.0, "lat": 38.924326666666666, "name": "e24f7ca3783b39779cfe0f1df48aba32", "fusion_lon": 0.0, "bike_id": "e24f7ca3783b39779cfe0f1df48aba32", "is_disabled": 0, "is_reserved": 0}, {"rental_uris": {"ios": "https://dc.lft.to/lastmile_qr_scan", "android": "https://dc.lft.to/lastmile_qr_scan"}, "lon": -77.05353733333334, "type": "electric_scooter", "fusion_lat": 0.0, "lat": 38.92714466666666, "name": "4d7b680d4a2888ab63fbd2801d57bd03", "fusion_lon": 0.0, "bike_id": "4d7b680d4a2888ab63fbd2801d57bd03", "is_disabled": 0, "is_reserved": 0}, {"rental_uris": {"ios": "https://dc.lft.to/lastmile_qr_scan", "android": "https://dc.lft.to/lastmile_qr_scan"}, "lon": -77.02713683333333, "type": "electric_scooter", "fusion_lat": 0.0, "lat": 38.908454, "name": "5f5d6d7ee3afcc14fc2528328a4538e9", "fusion_lon": 0.0, "bike_id": "5f5d6d7ee3afcc14fc2528328a4538e9", "is_disabled": 0, "is_reserved": 0}, {"rental_uris": {"ios": "https://dc.lft.to/lastmile_qr_scan", "android": "https://dc.lft.to/lastmile_qr_scan"}, "lon": -77.028035, "type": "electric_scooter", "fusion_lat": 0.0, "lat": 38.916818666666664, "name": "23e09e5c636f2cc8f72c97e39f60e358", "fusion_lon": 0.0, "bike_id": "23e09e5c636f2cc8f72c97e39f60e358", "is_disabled": 0, "is_reserved": 0}, {"rental_uris": {"ios": "https://dc.lft.to/lastmile_qr_scan", "android": "https://dc.lft.to/lastmile_qr_scan"}, "lon": -77.02957816666667, "type": "electric_scooter", "fusion_lat": 0.0, "lat": 38.91148166666667, "name": "41cdf793af90e3825d8ab43f00765066", "fusion_lon": 0.0, "bike_id": "41cdf793af90e3825d8ab43f00765066", "is_disabled": 0, "is_reserved": 0}, {"rental_uris": {"ios": "https://dc.lft.to/lastmile_qr_scan", "android": "https://dc.lft.to/lastmile_qr_scan"}, "lon": -77.02231383333333, "type": "electric_scooter", "fusion_lat": 0.0, "lat": 38.91423283333334, "name": "a2d0484589f21e7a0ea7a36e33c4c632", "fusion_lon": 0.0, "bike_id": "a2d0484589f21e7a0ea7a36e33c4c632", "is_disabled": 0, "is_reserved": 0}, {"rental_uris": {"ios": "https://dc.lft.to/lastmile_qr_scan", "android": "https://dc.lft.to/lastmile_qr_scan"}, "lon": -77.0083015, "type": "electric_scooter", "fusion_lat": 0.0, "lat": 38.91264233333333, "name": "fc6e17370f80f1d0c6119eb608c4056d", "fusion_lon": 0.0, "bike_id": "fc6e17370f80f1d0c6119eb608c4056d", "is_disabled": 0, "is_reserved": 0}, {"rental_uris": {"ios": "https://dc.lft.to/lastmile_qr_scan", "android": "https://dc.lft.to/lastmile_qr_scan"}, "lon": -77.0221905, "type": "electric_scooter", "fusion_lat": 0.0, "lat": 38.938702166666666, "name": "1f75bfb4c17ca6a639baeea6b347b93a", "fusion_lon": 0.0, "bike_id": "1f75bfb4c17ca6a639baeea6b347b93a", "is_disabled": 0, "is_reserved": 0}, {"rental_uris": {"ios": "https://dc.lft.to/lastmile_qr_scan", "android": "https://dc.lft.to/lastmile_qr_scan"}, "lon": -77.00216533333334, "type": "electric_scooter", "fusion_lat": 0.0, "lat": 38.91105366666667, "name": "060278b1c63d048f3ee4233b07768c5a", "fusion_lon": 0.0, "bike_id": "060278b1c63d048f3ee4233b07768c5a", "is_disabled": 0, "is_reserved": 0}, {"rental_uris": {"ios": "https://dc.lft.to/lastmile_qr_scan", "android": "https://dc.lft.to/lastmile_qr_scan"}, "lon": -77.01348683333333, "type": "electric_scooter", "fusion_lat": 0.0, "lat": 38.86725966666667, "name": "219832938209f7c8b1a1d780ac0a7906", "fusion_lon": 0.0, "bike_id": "219832938209f7c8b1a1d780ac0a7906", "is_disabled": 0, "is_reserved": 0}, {"rental_uris": {"ios": "https://dc.lft.to/lastmile_qr_scan", "android": "https://dc.lft.to/lastmile_qr_scan"}, "lon": -77.04177533333333, "type": "electric_scooter", "fusion_lat": 0.0, "lat": 38.91935266666667, "name": "e603a4388c514740509318c8c7b07f3b", "fusion_lon": 0.0, "bike_id": "e603a4388c514740509318c8c7b07f3b", "is_disabled": 0, "is_reserved": 0}, {"rental_uris": {"ios": "https://dc.lft.to/lastmile_qr_scan", "android": "https://dc.lft.to/lastmile_qr_scan"}, "lon": -77.03238316666666, "type": "electric_scooter", "fusion_lat": 0.0, "lat": 38.909577666666664, "name": "83558392f4c5c84f7ad333978549668c", "fusion_lon": 0.0, "bike_id": "83558392f4c5c84f7ad333978549668c", "is_disabled": 0, "is_reserved": 0}, {"rental_uris": {"ios": "https://dc.lft.to/lastmile_qr_scan", "android": "https://dc.lft.to/lastmile_qr_scan"}, "lon": -77.04814483333334, "type": "electric_scooter", "fusion_lat": 0.0, "lat": 38.89621983333333, "name": "23b6a185cc0e09f587d9ae62fd5e6d1a", "fusion_lon": 0.0, "bike_id": "23b6a185cc0e09f587d9ae62fd5e6d1a", "is_disabled": 0, "is_reserved": 0}, {"rental_uris": {"ios": "https://dc.lft.to/lastmile_qr_scan", "android": "https://dc.lft.to/lastmile_qr_scan"}, "lon": -77.05880516666667, "type": "electric_scooter", "fusion_lat": 0.0, "lat": 38.93636083333333, "name": "4ad6af26e5b0c84a44ead98acf30c359", "fusion_lon": 0.0, "bike_id": "4ad6af26e5b0c84a44ead98acf30c359", "is_disabled": 0, "is_reserved": 0}, {"rental_uris": {"ios": "https://dc.lft.to/lastmile_qr_scan", "android": "https://dc.lft.to/lastmile_qr_scan"}, "lon": -77.03781566666666, "type": "electric_scooter", "fusion_lat": 0.0, "lat": 38.905629166666664, "name": "01e1cef544ac5f9d2e1ef64d6a48491d", "fusion_lon": 0.0, "bike_id": "01e1cef544ac5f9d2e1ef64d6a48491d", "is_disabled": 0, "is_reserved": 0}, {"rental_uris": {"ios": "https://dc.lft.to/lastmile_qr_scan", "android": "https://dc.lft.to/lastmile_qr_scan"}, "lon": -77.02705866666666, "type": "electric_scooter", "fusion_lat": 0.0, "lat": 38.906661666666665, "name": "4d6e62a2ea3eac06132f6294f1bb0bcb", "fusion_lon": 0.0, "bike_id": "4d6e62a2ea3eac06132f6294f1bb0bcb", "is_disabled": 0, "is_reserved": 0}, {"rental_uris": {"ios": "https://dc.lft.to/lastmile_qr_scan", "android": "https://dc.lft.to/lastmile_qr_scan"}, "lon": -77.02162716666666, "type": "electric_scooter", "fusion_lat": 0.0, "lat": 38.9261145, "name": "cd61b9db096df86ae7923a068c79b965", "fusion_lon": 0.0, "bike_id": "cd61b9db096df86ae7923a068c79b965", "is_disabled": 0, "is_reserved": 0}, {"rental_uris": {"ios": "https://dc.lft.to/lastmile_qr_scan", "android": "https://dc.lft.to/lastmile_qr_scan"}, "lon": -76.9655855, "type": "electric_scooter", "fusion_lat": 0.0, "lat": 38.91859733333333, "name": "dd88d3eb76468be97d897ed1833afdb0", "fusion_lon": 0.0, "bike_id": "dd88d3eb76468be97d897ed1833afdb0", "is_disabled": 0, "is_reserved": 0}, {"rental_uris": {"ios": "https://dc.lft.to/lastmile_qr_scan", "android": "https://dc.lft.to/lastmile_qr_scan"}, "lon": -76.87819266666666, "type": "electric_bike", "fusion_lat": 0.0, "lat": 38.99236583333333, "name": "58852fe7ef2623b10c527b0b1e3af701", "fusion_lon": 0.0, "bike_id": "58852fe7ef2623b10c527b0b1e3af701", "is_disabled": 0, "is_reserved": 0}, {"rental_uris": {"ios": "https://dc.lft.to/lastmile_qr_scan", "android": "https://dc.lft.to/lastmile_qr_scan"}, "lon": -77.10716733333334, "type": "electric_bike", "fusion_lat": 0.0, "lat": 38.855304833333335, "name": "878ac416ce15f54b0d4289c702aadddc", "fusion_lon": 0.0, "bike_id": "878ac416ce15f54b0d4289c702aadddc", "is_disabled": 0, "is_reserved": 0}, {"rental_uris": {"ios": "https://dc.lft.to/lastmile_qr_scan", "android": "https://dc.lft.to/lastmile_qr_scan"}, "lon": -77.0325585, "type": "electric_scooter", "fusion_lat": 0.0, "lat": 38.92868166666667, "name": "18aa623754fc5ca52e701e6653738bf0", "fusion_lon": 0.0, "bike_id": "18aa623754fc5ca52e701e6653738bf0", "is_disabled": 0, "is_reserved": 0}, {"rental_uris": {"ios": "https://dc.lft.to/lastmile_qr_scan", "android": "https://dc.lft.to/lastmile_qr_scan"}, "lon": -76.97613716666666, "type": "electric_scooter", "fusion_lat": 0.0, "lat": 38.903839166666664, "name": "f0487983b362a53e4d859a4989fb89c6", "fusion_lon": 0.0, "bike_id": "f0487983b362a53e4d859a4989fb89c6", "is_disabled": 0, "is_reserved": 0}, {"rental_uris": {"ios": "https://dc.lft.to/lastmile_qr_scan", "android": "https://dc.lft.to/lastmile_qr_scan"}, "lon": -76.9463485, "type": "electric_scooter", "fusion_lat": 0.0, "lat": 38.89832633333333, "name": "8cce8f4ed03c41bad2422d55706bc720", "fusion_lon": 0.0, "bike_id": "8cce8f4ed03c41bad2422d55706bc720", "is_disabled": 0, "is_reserved": 0}, {"rental_uris": {"ios": "https://dc.lft.to/lastmile_qr_scan", "android": "https://dc.lft.to/lastmile_qr_scan"}, "lon": -76.97742966666667, "type": "electric_scooter", "fusion_lat": 0.0, "lat": 38.90005383333333, "name": "e44bbf8c2a6067f89ee7d3db820c3c50", "fusion_lon": 0.0, "bike_id": "e44bbf8c2a6067f89ee7d3db820c3c50", "is_disabled": 0, "is_reserved": 0}, {"rental_uris": {"ios": "https://dc.lft.to/lastmile_qr_scan", "android": "https://dc.lft.to/lastmile_qr_scan"}, "lon": -77.03783483333333, "type": "electric_scooter", "fusion_lat": 0.0, "lat": 38.9262525, "name": "4f9abdaf6d6f7e48fcf8e01d3f61bf48", "fusion_lon": 0.0, "bike_id": "4f9abdaf6d6f7e48fcf8e01d3f61bf48", "is_disabled": 0, "is_reserved": 0}, {"rental_uris": {"ios": "https://dc.lft.to/lastmile_qr_scan", "android": "https://dc.lft.to/lastmile_qr_scan"}, "lon": -76.9655045, "type": "electric_scooter", "fusion_lat": 0.0, "lat": 38.918554, "name": "17d6d9bf682d42435ef75c24be2d15d9", "fusion_lon": 0.0, "bike_id": "17d6d9bf682d42435ef75c24be2d15d9", "is_disabled": 0, "is_reserved": 0}, {"rental_uris": {"ios": "https://dc.lft.to/lastmile_qr_scan", "android": "https://dc.lft.to/lastmile_qr_scan"}, "lon": -77.034664, "type": "electric_bike", "fusion_lat": 0.0, "lat": 38.9293775, "name": "767c4b4882af58fe81a287fb0d697d48", "fusion_lon": 0.0, "bike_id": "767c4b4882af58fe81a287fb0d697d48", "is_disabled": 0, "is_reserved": 0}, {"rental_uris": {"ios": "https://dc.lft.to/lastmile_qr_scan", "android": "https://dc.lft.to/lastmile_qr_scan"}, "lon": -76.95763016666666, "type": "electric_bike", "fusion_lat": 0.0, "lat": 38.8841715, "name": "a07ec9a4b3278d537869f506509b18ef", "fusion_lon": 0.0, "bike_id": "a07ec9a4b3278d537869f506509b18ef", "is_disabled": 0, "is_reserved": 0}, {"rental_uris": {"ios": "https://dc.lft.to/lastmile_qr_scan", "android": "https://dc.lft.to/lastmile_qr_scan"}, "lon": -77.02071633333334, "type": "electric_scooter", "fusion_lat": 0.0, "lat": 38.90152533333333, "name": "96c62d0d96f14a8a1221cde1bfa65dd3", "fusion_lon": 0.0, "bike_id": "96c62d0d96f14a8a1221cde1bfa65dd3", "is_disabled": 0, "is_reserved": 0}, {"rental_uris": {"ios": "https://dc.lft.to/lastmile_qr_scan", "android": "https://dc.lft.to/lastmile_qr_scan"}, "lon": -77.077227, "type": "electric_scooter", "fusion_lat": 0.0, "lat": 38.94706383333333, "name": "2acc7b4abd12933e77246d8b1dedf847", "fusion_lon": 0.0, "bike_id": "2acc7b4abd12933e77246d8b1dedf847", "is_disabled": 0, "is_reserved": 0}, {"rental_uris": {"ios": "https://dc.lft.to/lastmile_qr_scan", "android": "https://dc.lft.to/lastmile_qr_scan"}, "lon": -76.98392, "type": "electric_scooter", "fusion_lat": 0.0, "lat": 38.87835116666667, "name": "839f649e9db38190ab679066fca173ba", "fusion_lon": 0.0, "bike_id": "839f649e9db38190ab679066fca173ba", "is_disabled": 0, "is_reserved": 0}, {"rental_uris": {"ios": "https://dc.lft.to/lastmile_qr_scan", "android": "https://dc.lft.to/lastmile_qr_scan"}, "lon": -77.03145233333333, "type": "electric_scooter", "fusion_lat": 0.0, "lat": 38.937665333333335, "name": "e89531d51870462ae81dcc7a46ab1078", "fusion_lon": 0.0, "bike_id": "e89531d51870462ae81dcc7a46ab1078", "is_disabled": 0, "is_reserved": 0}, {"rental_uris": {"ios": "https://dc.lft.to/lastmile_qr_scan", "android": "https://dc.lft.to/lastmile_qr_scan"}, "lon": -77.023167, "type": "electric_scooter", "fusion_lat": 0.0, "lat": 38.8818655, "name": "32e03f733aa6a2c4ff0783ad277f89ae", "fusion_lon": 0.0, "bike_id": "32e03f733aa6a2c4ff0783ad277f89ae", "is_disabled": 0, "is_reserved": 0}, {"rental_uris": {"ios": "https://dc.lft.to/lastmile_qr_scan", "android": "https://dc.lft.to/lastmile_qr_scan"}, "lon": -77.0163235, "type": "electric_scooter", "fusion_lat": 0.0, "lat": 38.90608, "name": "38e6cf59d2568f628bd97010498dcc27", "fusion_lon": 0.0, "bike_id": "38e6cf59d2568f628bd97010498dcc27", "is_disabled": 0, "is_reserved": 0}, {"rental_uris": {"ios": "https://dc.lft.to/lastmile_qr_scan", "android": "https://dc.lft.to/lastmile_qr_scan"}, "lon": -76.98093916666667, "type": "electric_bike", "fusion_lat": 0.0, "lat": 38.881335, "name": "5e40d346c5a86082d86d33c0ee5a7e1d", "fusion_lon": 0.0, "bike_id": "5e40d346c5a86082d86d33c0ee5a7e1d", "is_disabled": 0, "is_reserved": 0}, {"rental_uris": {"ios": "https://dc.lft.to/lastmile_qr_scan", "android": "https://dc.lft.to/lastmile_qr_scan"}, "lon": -77.041949, "type": "electric_scooter", "fusion_lat": 0.0, "lat": 38.89921116666667, "name": "2f6de2581f3d250b540ba63b822365ed", "fusion_lon": 0.0, "bike_id": "2f6de2581f3d250b540ba63b822365ed", "is_disabled": 0, "is_reserved": 0}, {"rental_uris": {"ios": "https://dc.lft.to/lastmile_qr_scan", "android": "https://dc.lft.to/lastmile_qr_scan"}, "lon": -77.02920183333333, "type": "electric_scooter", "fusion_lat": 0.0, "lat": 38.917003, "name": "feb949338b3d58afd7a4ed61e155d602", "fusion_lon": 0.0, "bike_id": "feb949338b3d58afd7a4ed61e155d602", "is_disabled": 0, "is_reserved": 0}, {"rental_uris": {"ios": "https://dc.lft.to/lastmile_qr_scan", "android": "https://dc.lft.to/lastmile_qr_scan"}, "lon": -76.965479, "type": "electric_scooter", "fusion_lat": 0.0, "lat": 38.918586833333336, "name": "dc136629b0d6d64d18fef8dfdbc747a4", "fusion_lon": 0.0, "bike_id": "dc136629b0d6d64d18fef8dfdbc747a4", "is_disabled": 0, "is_reserved": 0}, {"rental_uris": {"ios": "https://dc.lft.to/lastmile_qr_scan", "android": "https://dc.lft.to/lastmile_qr_scan"}, "lon": -77.04784433333333, "type": "electric_scooter", "fusion_lat": 0.0, "lat": 38.899533166666664, "name": "c4bcaf238d663f3a15baac3dfcdc1051", "fusion_lon": 0.0, "bike_id": "c4bcaf238d663f3a15baac3dfcdc1051", "is_disabled": 0, "is_reserved": 0}, {"rental_uris": {"ios": "https://dc.lft.to/lastmile_qr_scan", "android": "https://dc.lft.to/lastmile_qr_scan"}, "lon": -77.024615, "type": "electric_scooter", "fusion_lat": 0.0, "lat": 38.908470333333334, "name": "0ec0e929b27b452f7952c41a54eecb2e", "fusion_lon": 0.0, "bike_id": "0ec0e929b27b452f7952c41a54eecb2e", "is_disabled": 0, "is_reserved": 0}, {"rental_uris": {"ios": "https://dc.lft.to/lastmile_qr_scan", "android": "https://dc.lft.to/lastmile_qr_scan"}, "lon": -77.07097016666667, "type": "electric_bike", "fusion_lat": 0.0, "lat": 38.91445016666667, "name": "b38504612f2bad72710100fd0fc40798", "fusion_lon": 0.0, "bike_id": "b38504612f2bad72710100fd0fc40798", "is_disabled": 0, "is_reserved": 0}, {"rental_uris": {"ios": "https://dc.lft.to/lastmile_qr_scan", "android": "https://dc.lft.to/lastmile_qr_scan"}, "lon": -77.05556233333333, "type": "electric_scooter", "fusion_lat": 0.0, "lat": 38.898955666666666, "name": "33f1a6452b6a46b7c05b019593b4a2df", "fusion_lon": 0.0, "bike_id": "33f1a6452b6a46b7c05b019593b4a2df", "is_disabled": 0, "is_reserved": 0}, {"rental_uris": {"ios": "https://dc.lft.to/lastmile_qr_scan", "android": "https://dc.lft.to/lastmile_qr_scan"}, "lon": -77.02735983333334, "type": "electric_scooter", "fusion_lat": 0.0, "lat": 38.932067, "name": "0f47430c3edda53add0cc27bcab6ef6c", "fusion_lon": 0.0, "bike_id": "0f47430c3edda53add0cc27bcab6ef6c", "is_disabled": 0, "is_reserved": 0}, {"rental_uris": {"ios": "https://dc.lft.to/lastmile_qr_scan", "android": "https://dc.lft.to/lastmile_qr_scan"}, "lon": -77.06475683333333, "type": "electric_bike", "fusion_lat": 0.0, "lat": 38.9738165, "name": "fdbd9cb9b4575a9d93858b6579fe3cf6", "fusion_lon": 0.0, "bike_id": "fdbd9cb9b4575a9d93858b6579fe3cf6", "is_disabled": 0, "is_reserved": 0}, {"rental_uris": {"ios": "https://dc.lft.to/lastmile_qr_scan", "android": "https://dc.lft.to/lastmile_qr_scan"}, "lon": -77.04154916666667, "type": "electric_scooter", "fusion_lat": 0.0, "lat": 38.909889166666666, "name": "7568608280286026bfb17ceb2f49d128", "fusion_lon": 0.0, "bike_id": "7568608280286026bfb17ceb2f49d128", "is_disabled": 0, "is_reserved": 0}, {"rental_uris": {"ios": "https://dc.lft.to/lastmile_qr_scan", "android": "https://dc.lft.to/lastmile_qr_scan"}, "lon": -76.9916825, "type": "electric_scooter", "fusion_lat": 0.0, "lat": 38.879251, "name": "3c59e72e865869e73d819e2d84f06b65", "fusion_lon": 0.0, "bike_id": "3c59e72e865869e73d819e2d84f06b65", "is_disabled": 0, "is_reserved": 0}, {"rental_uris": {"ios": "https://dc.lft.to/lastmile_qr_scan", "android": "https://dc.lft.to/lastmile_qr_scan"}, "lon": -77.048029, "type": "electric_scooter", "fusion_lat": 0.0, "lat": 38.892218, "name": "2ac7ac6d8558e0e0e75df0a828a26fd9", "fusion_lon": 0.0, "bike_id": "2ac7ac6d8558e0e0e75df0a828a26fd9", "is_disabled": 0, "is_reserved": 0}, {"rental_uris": {"ios": "https://dc.lft.to/lastmile_qr_scan", "android": "https://dc.lft.to/lastmile_qr_scan"}, "lon": -77.04630166666666, "type": "electric_bike", "fusion_lat": 0.0, "lat": 38.99909483333333, "name": "bbc70bdd5d4a13750895bcf1b7f42d21", "fusion_lon": 0.0, "bike_id": "bbc70bdd5d4a13750895bcf1b7f42d21", "is_disabled": 0, "is_reserved": 0}, {"rental_uris": {"ios": "https://dc.lft.to/lastmile_qr_scan", "android": "https://dc.lft.to/lastmile_qr_scan"}, "lon": -77.03378133333334, "type": "electric_scooter", "fusion_lat": 0.0, "lat": 38.91034116666667, "name": "247f62ee5c0cef121c43a80178af6bbf", "fusion_lon": 0.0, "bike_id": "247f62ee5c0cef121c43a80178af6bbf", "is_disabled": 0, "is_reserved": 0}, {"rental_uris": {"ios": "https://dc.lft.to/lastmile_qr_scan", "android": "https://dc.lft.to/lastmile_qr_scan"}, "lon": -77.001202, "type": "electric_scooter", "fusion_lat": 0.0, "lat": 38.9245045, "name": "515c529a429bb2677bfef429652d71a5", "fusion_lon": 0.0, "bike_id": "515c529a429bb2677bfef429652d71a5", "is_disabled": 0, "is_reserved": 0}, {"rental_uris": {"ios": "https://dc.lft.to/lastmile_qr_scan", "android": "https://dc.lft.to/lastmile_qr_scan"}, "lon": -77.03265216666667, "type": "electric_scooter", "fusion_lat": 0.0, "lat": 38.928741, "name": "df32fbd81a072a539919cb27f545078c", "fusion_lon": 0.0, "bike_id": "df32fbd81a072a539919cb27f545078c", "is_disabled": 0, "is_reserved": 0}, {"rental_uris": {"ios": "https://dc.lft.to/lastmile_qr_scan", "android": "https://dc.lft.to/lastmile_qr_scan"}, "lon": -77.04102883333333, "type": "electric_scooter", "fusion_lat": 0.0, "lat": 38.9177515, "name": "059d7c4e86cd9d604636026f77a46a5d", "fusion_lon": 0.0, "bike_id": "059d7c4e86cd9d604636026f77a46a5d", "is_disabled": 0, "is_reserved": 0}, {"rental_uris": {"ios": "https://dc.lft.to/lastmile_qr_scan", "android": "https://dc.lft.to/lastmile_qr_scan"}, "lon": -77.04954833333333, "type": "electric_scooter", "fusion_lat": 0.0, "lat": 38.897389, "name": "829a0bbd001962a3dcc9b1f78ca4ca97", "fusion_lon": 0.0, "bike_id": "829a0bbd001962a3dcc9b1f78ca4ca97", "is_disabled": 0, "is_reserved": 0}, {"rental_uris": {"ios": "https://dc.lft.to/lastmile_qr_scan", "android": "https://dc.lft.to/lastmile_qr_scan"}, "lon": -77.033854, "type": "electric_scooter", "fusion_lat": 0.0, "lat": 38.8995445, "name": "2fb7f2946b23639313b684485593dca3", "fusion_lon": 0.0, "bike_id": "2fb7f2946b23639313b684485593dca3", "is_disabled": 0, "is_reserved": 0}, {"rental_uris": {"ios": "https://dc.lft.to/lastmile_qr_scan", "android": "https://dc.lft.to/lastmile_qr_scan"}, "lon": -77.03290033333333, "type": "electric_scooter", "fusion_lat": 0.0, "lat": 38.922093333333336, "name": "e39f1612db686e5b9b0aaf35ac2cf328", "fusion_lon": 0.0, "bike_id": "e39f1612db686e5b9b0aaf35ac2cf328", "is_disabled": 0, "is_reserved": 0}, {"rental_uris": {"ios": "https://dc.lft.to/lastmile_qr_scan", "android": "https://dc.lft.to/lastmile_qr_scan"}, "lon": -76.97991733333333, "type": "electric_bike", "fusion_lat": 0.0, "lat": 38.877491666666664, "name": "0e9ad847cb0b31cbba70354ca308b155", "fusion_lon": 0.0, "bike_id": "0e9ad847cb0b31cbba70354ca308b155", "is_disabled": 0, "is_reserved": 0}, {"rental_uris": {"ios": "https://dc.lft.to/lastmile_qr_scan", "android": "https://dc.lft.to/lastmile_qr_scan"}, "lon": -77.03941883333333, "type": "electric_scooter", "fusion_lat": 0.0, "lat": 38.900301666666664, "name": "49dcd26c84451547aec7348765549e22", "fusion_lon": 0.0, "bike_id": "49dcd26c84451547aec7348765549e22", "is_disabled": 0, "is_reserved": 0}, {"rental_uris": {"ios": "https://dc.lft.to/lastmile_qr_scan", "android": "https://dc.lft.to/lastmile_qr_scan"}, "lon": -77.36094533333333, "type": "electric_bike", "fusion_lat": 0.0, "lat": 38.93956283333333, "name": "a1b063e8c8c6dad54ab758055a935c74", "fusion_lon": 0.0, "bike_id": "a1b063e8c8c6dad54ab758055a935c74", "is_disabled": 0, "is_reserved": 0}, {"rental_uris": {"ios": "https://dc.lft.to/lastmile_qr_scan", "android": "https://dc.lft.to/lastmile_qr_scan"}, "lon": -77.02098333333333, "type": "electric_scooter", "fusion_lat": 0.0, "lat": 38.910111666666666, "name": "60f9b652624dd5c0b6ea8d8b56ff772c", "fusion_lon": 0.0, "bike_id": "60f9b652624dd5c0b6ea8d8b56ff772c", "is_disabled": 0, "is_reserved": 0}, {"rental_uris": {"ios": "https://dc.lft.to/lastmile_qr_scan", "android": "https://dc.lft.to/lastmile_qr_scan"}, "lon": -77.03207933333333, "type": "electric_scooter", "fusion_lat": 0.0, "lat": 38.914699, "name": "926e128b680a8cfe6949cd0e10693342", "fusion_lon": 0.0, "bike_id": "926e128b680a8cfe6949cd0e10693342", "is_disabled": 0, "is_reserved": 0}, {"rental_uris": {"ios": "https://dc.lft.to/lastmile_qr_scan", "android": "https://dc.lft.to/lastmile_qr_scan"}, "lon": -77.027959, "type": "electric_scooter", "fusion_lat": 0.0, "lat": 38.92970716666667, "name": "a90f3ed85678e5b50814caf7d7a6f92f", "fusion_lon": 0.0, "bike_id": "a90f3ed85678e5b50814caf7d7a6f92f", "is_disabled": 0, "is_reserved": 0}, {"rental_uris": {"ios": "https://dc.lft.to/lastmile_qr_scan", "android": "https://dc.lft.to/lastmile_qr_scan"}, "lon": -77.06849916666667, "type": "electric_scooter", "fusion_lat": 0.0, "lat": 38.91723833333333, "name": "1ca92bb7825763762dffa98abc9022ac", "fusion_lon": 0.0, "bike_id": "1ca92bb7825763762dffa98abc9022ac", "is_disabled": 0, "is_reserved": 0}, {"rental_uris": {"ios": "https://dc.lft.to/lastmile_qr_scan", "android": "https://dc.lft.to/lastmile_qr_scan"}, "lon": -77.01615866666667, "type": "electric_scooter", "fusion_lat": 0.0, "lat": 38.87870616666667, "name": "bd7995f41a7215b465f600ac78bf0562", "fusion_lon": 0.0, "bike_id": "bd7995f41a7215b465f600ac78bf0562", "is_disabled": 0, "is_reserved": 0}, {"rental_uris": {"ios": "https://dc.lft.to/lastmile_qr_scan", "android": "https://dc.lft.to/lastmile_qr_scan"}, "lon": -77.04562833333334, "type": "electric_scooter", "fusion_lat": 0.0, "lat": 38.908569, "name": "634edb6b11c540f1f731b472d12d4f30", "fusion_lon": 0.0, "bike_id": "634edb6b11c540f1f731b472d12d4f30", "is_disabled": 0, "is_reserved": 0}, {"rental_uris": {"ios": "https://dc.lft.to/lastmile_qr_scan", "android": "https://dc.lft.to/lastmile_qr_scan"}, "lon": -77.02803783333333, "type": "electric_scooter", "fusion_lat": 0.0, "lat": 38.906624, "name": "bab61e60e963c2d7d0c126898366e8b4", "fusion_lon": 0.0, "bike_id": "bab61e60e963c2d7d0c126898366e8b4", "is_disabled": 0, "is_reserved": 0}, {"rental_uris": {"ios": "https://dc.lft.to/lastmile_qr_scan", "android": "https://dc.lft.to/lastmile_qr_scan"}, "lon": -77.09872716666666, "type": "electric_bike", "fusion_lat": 0.0, "lat": 38.853720333333335, "name": "00a4e9191fd94670dd12ef0fe9a9f496", "fusion_lon": 0.0, "bike_id": "00a4e9191fd94670dd12ef0fe9a9f496", "is_disabled": 0, "is_reserved": 0}, {"rental_uris": {"ios": "https://dc.lft.to/lastmile_qr_scan", "android": "https://dc.lft.to/lastmile_qr_scan"}, "lon": -77.0281225, "type": "electric_scooter", "fusion_lat": 0.0, "lat": 38.91660266666667, "name": "c1d805b88de4b6d4c118ef624009c130", "fusion_lon": 0.0, "bike_id": "c1d805b88de4b6d4c118ef624009c130", "is_disabled": 0, "is_reserved": 0}, {"rental_uris": {"ios": "https://dc.lft.to/lastmile_qr_scan", "android": "https://dc.lft.to/lastmile_qr_scan"}, "lon": -77.03556716666667, "type": "electric_scooter", "fusion_lat": 0.0, "lat": 38.908344, "name": "ae6c1c57e72f7fa4be60d2ebe51f6f8e", "fusion_lon": 0.0, "bike_id": "ae6c1c57e72f7fa4be60d2ebe51f6f8e", "is_disabled": 0, "is_reserved": 0}, {"rental_uris": {"ios": "https://dc.lft.to/lastmile_qr_scan", "android": "https://dc.lft.to/lastmile_qr_scan"}, "lon": -77.03415866666667, "type": "electric_bike", "fusion_lat": 0.0, "lat": 38.900350833333334, "name": "f2f30aa1fe403a19967fcffba8d33bc0", "fusion_lon": 0.0, "bike_id": "f2f30aa1fe403a19967fcffba8d33bc0", "is_disabled": 0, "is_reserved": 0}, {"rental_uris": {"ios": "https://dc.lft.to/lastmile_qr_scan", "android": "https://dc.lft.to/lastmile_qr_scan"}, "lon": -77.0996035, "type": "electric_bike", "fusion_lat": 0.0, "lat": 38.85787583333333, "name": "4c8b2adf91dcf7636f79cc70af55a720", "fusion_lon": 0.0, "bike_id": "4c8b2adf91dcf7636f79cc70af55a720", "is_disabled": 0, "is_reserved": 0}, {"rental_uris": {"ios": "https://dc.lft.to/lastmile_qr_scan", "android": "https://dc.lft.to/lastmile_qr_scan"}, "lon": -77.0405295, "type": "electric_scooter", "fusion_lat": 0.0, "lat": 38.927147, "name": "20b698c7acb6e54d82afb1d50361e7b1", "fusion_lon": 0.0, "bike_id": "20b698c7acb6e54d82afb1d50361e7b1", "is_disabled": 0, "is_reserved": 0}, {"rental_uris": {"ios": "https://dc.lft.to/lastmile_qr_scan", "android": "https://dc.lft.to/lastmile_qr_scan"}, "lon": -77.03962566666667, "type": "electric_scooter", "fusion_lat": 0.0, "lat": 38.901191833333336, "name": "8457f65400646d0c39373b85e4164f36", "fusion_lon": 0.0, "bike_id": "8457f65400646d0c39373b85e4164f36", "is_disabled": 0, "is_reserved": 0}, {"rental_uris": {"ios": "https://dc.lft.to/lastmile_qr_scan", "android": "https://dc.lft.to/lastmile_qr_scan"}, "lon": -77.02842933333334, "type": "electric_scooter", "fusion_lat": 0.0, "lat": 38.942618333333336, "name": "477ad255c0104c6f7cc3b306f49c70a7", "fusion_lon": 0.0, "bike_id": "477ad255c0104c6f7cc3b306f49c70a7", "is_disabled": 0, "is_reserved": 0}, {"rental_uris": {"ios": "https://dc.lft.to/lastmile_qr_scan", "android": "https://dc.lft.to/lastmile_qr_scan"}, "lon": -76.994896, "type": "electric_scooter", "fusion_lat": 0.0, "lat": 38.86235466666667, "name": "fe9c007be766b196a99147457f080587", "fusion_lon": 0.0, "bike_id": "fe9c007be766b196a99147457f080587", "is_disabled": 0, "is_reserved": 0}, {"rental_uris": {"ios": "https://dc.lft.to/lastmile_qr_scan", "android": "https://dc.lft.to/lastmile_qr_scan"}, "lon": -77.048664, "type": "electric_scooter", "fusion_lat": 0.0, "lat": 38.892228833333334, "name": "35e159b0ad3f3cb02d72167b06315b5b", "fusion_lon": 0.0, "bike_id": "35e159b0ad3f3cb02d72167b06315b5b", "is_disabled": 0, "is_reserved": 0}, {"rental_uris": {"ios": "https://dc.lft.to/lastmile_qr_scan", "android": "https://dc.lft.to/lastmile_qr_scan"}, "lon": -76.9872655, "type": "electric_scooter", "fusion_lat": 0.0, "lat": 38.884175666666664, "name": "343854021051f9909f2d5b0a3cd8114b", "fusion_lon": 0.0, "bike_id": "343854021051f9909f2d5b0a3cd8114b", "is_disabled": 0, "is_reserved": 0}, {"rental_uris": {"ios": "https://dc.lft.to/lastmile_qr_scan", "android": "https://dc.lft.to/lastmile_qr_scan"}, "lon": -76.93177366666667, "type": "electric_scooter", "fusion_lat": 0.0, "lat": 38.89884466666667, "name": "eb3238df82edaa9618deb8dc2c8fc64b", "fusion_lon": 0.0, "bike_id": "eb3238df82edaa9618deb8dc2c8fc64b", "is_disabled": 0, "is_reserved": 0}, {"rental_uris": {"ios": "https://dc.lft.to/lastmile_qr_scan", "android": "https://dc.lft.to/lastmile_qr_scan"}, "lon": -77.353099, "type": "electric_bike", "fusion_lat": 0.0, "lat": 38.950006333333334, "name": "844b9852a015ac43d398037b7187d985", "fusion_lon": 0.0, "bike_id": "844b9852a015ac43d398037b7187d985", "is_disabled": 0, "is_reserved": 0}, {"rental_uris": {"ios": "https://dc.lft.to/lastmile_qr_scan", "android": "https://dc.lft.to/lastmile_qr_scan"}, "lon": -76.99498316666667, "type": "electric_scooter", "fusion_lat": 0.0, "lat": 38.899607, "name": "088c99137d91ccc6d3b208eb767c044b", "fusion_lon": 0.0, "bike_id": "088c99137d91ccc6d3b208eb767c044b", "is_disabled": 0, "is_reserved": 0}, {"rental_uris": {"ios": "https://dc.lft.to/lastmile_qr_scan", "android": "https://dc.lft.to/lastmile_qr_scan"}, "lon": -77.06291133333333, "type": "electric_scooter", "fusion_lat": 0.0, "lat": 38.903979666666665, "name": "b156bc04c0b7bd098d723bb5449277c1", "fusion_lon": 0.0, "bike_id": "b156bc04c0b7bd098d723bb5449277c1", "is_disabled": 0, "is_reserved": 0}, {"rental_uris": {"ios": "https://dc.lft.to/lastmile_qr_scan", "android": "https://dc.lft.to/lastmile_qr_scan"}, "lon": -77.0314935, "type": "electric_scooter", "fusion_lat": 0.0, "lat": 38.88298533333333, "name": "3043b80e8072575dabab81dcdf0afa09", "fusion_lon": 0.0, "bike_id": "3043b80e8072575dabab81dcdf0afa09", "is_disabled": 0, "is_reserved": 0}, {"rental_uris": {"ios": "https://dc.lft.to/lastmile_qr_scan", "android": "https://dc.lft.to/lastmile_qr_scan"}, "lon": -77.023211, "type": "electric_scooter", "fusion_lat": 0.0, "lat": 38.918118, "name": "d54633a34f58a6a593b51ae7d57c69e1", "fusion_lon": 0.0, "bike_id": "d54633a34f58a6a593b51ae7d57c69e1", "is_disabled": 0, "is_reserved": 0}, {"rental_uris": {"ios": "https://dc.lft.to/lastmile_qr_scan", "android": "https://dc.lft.to/lastmile_qr_scan"}, "lon": -77.03258916666667, "type": "electric_scooter", "fusion_lat": 0.0, "lat": 38.93811133333333, "name": "b876407d47da03256c7ef72577e05db0", "fusion_lon": 0.0, "bike_id": "b876407d47da03256c7ef72577e05db0", "is_disabled": 0, "is_reserved": 0}, {"rental_uris": {"ios": "https://dc.lft.to/lastmile_qr_scan", "android": "https://dc.lft.to/lastmile_qr_scan"}, "lon": -76.99522666666667, "type": "electric_scooter", "fusion_lat": 0.0, "lat": 38.862594666666666, "name": "cb5d72456290d910c2ff58c64ce4d8b7", "fusion_lon": 0.0, "bike_id": "cb5d72456290d910c2ff58c64ce4d8b7", "is_disabled": 0, "is_reserved": 0}, {"rental_uris": {"ios": "https://dc.lft.to/lastmile_qr_scan", "android": "https://dc.lft.to/lastmile_qr_scan"}, "lon": -77.00843883333333, "type": "electric_bike", "fusion_lat": 0.0, "lat": 38.94915983333333, "name": "41d14c5ffdc17e9db9a9019170af3127", "fusion_lon": 0.0, "bike_id": "41d14c5ffdc17e9db9a9019170af3127", "is_disabled": 0, "is_reserved": 0}, {"rental_uris": {"ios": "https://dc.lft.to/lastmile_qr_scan", "android": "https://dc.lft.to/lastmile_qr_scan"}, "lon": -77.0219615, "type": "electric_scooter", "fusion_lat": 0.0, "lat": 38.9165125, "name": "791a1ab14c470e8bc7fdd435d173553c", "fusion_lon": 0.0, "bike_id": "791a1ab14c470e8bc7fdd435d173553c", "is_disabled": 0, "is_reserved": 0}, {"rental_uris": {"ios": "https://dc.lft.to/lastmile_qr_scan", "android": "https://dc.lft.to/lastmile_qr_scan"}, "lon": -77.03787066666666, "type": "electric_scooter", "fusion_lat": 0.0, "lat": 38.954943, "name": "d5f0d4901a6b02048983d65ea8f2d222", "fusion_lon": 0.0, "bike_id": "d5f0d4901a6b02048983d65ea8f2d222", "is_disabled": 0, "is_reserved": 0}, {"rental_uris": {"ios": "https://dc.lft.to/lastmile_qr_scan", "android": "https://dc.lft.to/lastmile_qr_scan"}, "lon": -77.14123416666666, "type": "electric_bike", "fusion_lat": 0.0, "lat": 38.816030833333336, "name": "9276709da25482301be8c45b04660f9c", "fusion_lon": 0.0, "bike_id": "9276709da25482301be8c45b04660f9c", "is_disabled": 0, "is_reserved": 0}, {"rental_uris": {"ios": "https://dc.lft.to/lastmile_qr_scan", "android": "https://dc.lft.to/lastmile_qr_scan"}, "lon": -77.04561983333333, "type": "electric_scooter", "fusion_lat": 0.0, "lat": 38.914064, "name": "2e95b45f3cdcc7f04f384aa25e44c17f", "fusion_lon": 0.0, "bike_id": "2e95b45f3cdcc7f04f384aa25e44c17f", "is_disabled": 0, "is_reserved": 0}, {"rental_uris": {"ios": "https://dc.lft.to/lastmile_qr_scan", "android": "https://dc.lft.to/lastmile_qr_scan"}, "lon": -77.01537016666667, "type": "electric_scooter", "fusion_lat": 0.0, "lat": 38.89196116666667, "name": "e12b2d8f41ceed53c70597cdf0471d24", "fusion_lon": 0.0, "bike_id": "e12b2d8f41ceed53c70597cdf0471d24", "is_disabled": 0, "is_reserved": 0}, {"rental_uris": {"ios": "https://dc.lft.to/lastmile_qr_scan", "android": "https://dc.lft.to/lastmile_qr_scan"}, "lon": -77.04506666666667, "type": "electric_scooter", "fusion_lat": 0.0, "lat": 38.909569166666664, "name": "f12ef1dee38d3c3863b65333a12e031f", "fusion_lon": 0.0, "bike_id": "f12ef1dee38d3c3863b65333a12e031f", "is_disabled": 0, "is_reserved": 0}, {"rental_uris": {"ios": "https://dc.lft.to/lastmile_qr_scan", "android": "https://dc.lft.to/lastmile_qr_scan"}, "lon": -77.033903, "type": "electric_scooter", "fusion_lat": 0.0, "lat": 38.91919716666666, "name": "cecb633b544f9aecd62a285042970d08", "fusion_lon": 0.0, "bike_id": "cecb633b544f9aecd62a285042970d08", "is_disabled": 0, "is_reserved": 0}, {"rental_uris": {"ios": "https://dc.lft.to/lastmile_qr_scan", "android": "https://dc.lft.to/lastmile_qr_scan"}, "lon": -77.020835, "type": "electric_scooter", "fusion_lat": 0.0, "lat": 38.88653633333333, "name": "f873eddd071bd91cd36c45e660992b76", "fusion_lon": 0.0, "bike_id": "f873eddd071bd91cd36c45e660992b76", "is_disabled": 0, "is_reserved": 0}, {"rental_uris": {"ios": "https://dc.lft.to/lastmile_qr_scan", "android": "https://dc.lft.to/lastmile_qr_scan"}, "lon": -77.02613233333334, "type": "electric_scooter", "fusion_lat": 0.0, "lat": 38.917106, "name": "cfbb8f87e5da0886d1ee96992f509d23", "fusion_lon": 0.0, "bike_id": "cfbb8f87e5da0886d1ee96992f509d23", "is_disabled": 0, "is_reserved": 0}, {"rental_uris": {"ios": "https://dc.lft.to/lastmile_qr_scan", "android": "https://dc.lft.to/lastmile_qr_scan"}, "lon": -76.9655535, "type": "electric_scooter", "fusion_lat": 0.0, "lat": 38.91850616666667, "name": "645c0f309e692458d28942941169c1f6", "fusion_lon": 0.0, "bike_id": "645c0f309e692458d28942941169c1f6", "is_disabled": 0, "is_reserved": 0}, {"rental_uris": {"ios": "https://dc.lft.to/lastmile_qr_scan", "android": "https://dc.lft.to/lastmile_qr_scan"}, "lon": -77.04658766666667, "type": "electric_scooter", "fusion_lat": 0.0, "lat": 38.89332383333333, "name": "130f8cb46962869468cadea03038c841", "fusion_lon": 0.0, "bike_id": "130f8cb46962869468cadea03038c841", "is_disabled": 0, "is_reserved": 0}, {"rental_uris": {"ios": "https://dc.lft.to/lastmile_qr_scan", "android": "https://dc.lft.to/lastmile_qr_scan"}, "lon": -76.93177516666667, "type": "electric_scooter", "fusion_lat": 0.0, "lat": 38.898832666666664, "name": "ebce8eac5d05d379890d380229d1fcb7", "fusion_lon": 0.0, "bike_id": "ebce8eac5d05d379890d380229d1fcb7", "is_disabled": 0, "is_reserved": 0}, {"rental_uris": {"ios": "https://dc.lft.to/lastmile_qr_scan", "android": "https://dc.lft.to/lastmile_qr_scan"}, "lon": -77.0006235, "type": "electric_scooter", "fusion_lat": 0.0, "lat": 38.905834166666665, "name": "f98476df1abccdadc4806b8933d663bb", "fusion_lon": 0.0, "bike_id": "f98476df1abccdadc4806b8933d663bb", "is_disabled": 0, "is_reserved": 0}, {"rental_uris": {"ios": "https://dc.lft.to/lastmile_qr_scan", "android": "https://dc.lft.to/lastmile_qr_scan"}, "lon": -77.12022683333333, "type": "electric_bike", "fusion_lat": 0.0, "lat": 38.85508433333333, "name": "01f93dc7e696f07d1a07d4ad1814ca62", "fusion_lon": 0.0, "bike_id": "01f93dc7e696f07d1a07d4ad1814ca62", "is_disabled": 0, "is_reserved": 0}, {"rental_uris": {"ios": "https://dc.lft.to/lastmile_qr_scan", "android": "https://dc.lft.to/lastmile_qr_scan"}, "lon": -77.04597083333333, "type": "electric_scooter", "fusion_lat": 0.0, "lat": 38.902739333333336, "name": "6d6fea601b936977201e8bd4265c344c", "fusion_lon": 0.0, "bike_id": "6d6fea601b936977201e8bd4265c344c", "is_disabled": 0, "is_reserved": 0}, {"rental_uris": {"ios": "https://dc.lft.to/lastmile_qr_scan", "android": "https://dc.lft.to/lastmile_qr_scan"}, "lon": -77.00108716666666, "type": "electric_scooter", "fusion_lat": 0.0, "lat": 38.8942685, "name": "6c0b728a91de2802ea5d753f2af68a4f", "fusion_lon": 0.0, "bike_id": "6c0b728a91de2802ea5d753f2af68a4f", "is_disabled": 0, "is_reserved": 0}, {"rental_uris": {"ios": "https://dc.lft.to/lastmile_qr_scan", "android": "https://dc.lft.to/lastmile_qr_scan"}, "lon": -77.06609016666667, "type": "electric_scooter", "fusion_lat": 0.0, "lat": 38.9053655, "name": "e416f26e75201577fb3b7ebcbccc317f", "fusion_lon": 0.0, "bike_id": "e416f26e75201577fb3b7ebcbccc317f", "is_disabled": 0, "is_reserved": 0}, {"rental_uris": {"ios": "https://dc.lft.to/lastmile_qr_scan", "android": "https://dc.lft.to/lastmile_qr_scan"}, "lon": -77.02194933333334, "type": "electric_scooter", "fusion_lat": 0.0, "lat": 38.91476816666667, "name": "b8ce931ee50a693e434591e79e66b617", "fusion_lon": 0.0, "bike_id": "b8ce931ee50a693e434591e79e66b617", "is_disabled": 0, "is_reserved": 0}, {"rental_uris": {"ios": "https://dc.lft.to/lastmile_qr_scan", "android": "https://dc.lft.to/lastmile_qr_scan"}, "lon": -77.02929333333333, "type": "electric_scooter", "fusion_lat": 0.0, "lat": 38.882204333333334, "name": "9f45e0a2b639c2eca52ce705f3b508b1", "fusion_lon": 0.0, "bike_id": "9f45e0a2b639c2eca52ce705f3b508b1", "is_disabled": 0, "is_reserved": 0}, {"rental_uris": {"ios": "https://dc.lft.to/lastmile_qr_scan", "android": "https://dc.lft.to/lastmile_qr_scan"}, "lon": -76.96529516666666, "type": "electric_scooter", "fusion_lat": 0.0, "lat": 38.87627, "name": "d9f3c68c88f5a6acd991607c0b8bb37f", "fusion_lon": 0.0, "bike_id": "d9f3c68c88f5a6acd991607c0b8bb37f", "is_disabled": 0, "is_reserved": 0}, {"rental_uris": {"ios": "https://dc.lft.to/lastmile_qr_scan", "android": "https://dc.lft.to/lastmile_qr_scan"}, "lon": -77.04786466666667, "type": "electric_scooter", "fusion_lat": 0.0, "lat": 38.897766833333336, "name": "0e9200118747a7e052e23df52f089465", "fusion_lon": 0.0, "bike_id": "0e9200118747a7e052e23df52f089465", "is_disabled": 0, "is_reserved": 0}, {"rental_uris": {"ios": "https://dc.lft.to/lastmile_qr_scan", "android": "https://dc.lft.to/lastmile_qr_scan"}, "lon": -77.0186665, "type": "electric_scooter", "fusion_lat": 0.0, "lat": 38.948902333333336, "name": "506b91924a9f6e2e838d5db95e60d2df", "fusion_lon": 0.0, "bike_id": "506b91924a9f6e2e838d5db95e60d2df", "is_disabled": 0, "is_reserved": 0}, {"rental_uris": {"ios": "https://dc.lft.to/lastmile_qr_scan", "android": "https://dc.lft.to/lastmile_qr_scan"}, "lon": -76.99739616666666, "type": "electric_scooter", "fusion_lat": 0.0, "lat": 38.90938466666667, "name": "2ad6acd36b0aa6338c6bdf0e05d2eba0", "fusion_lon": 0.0, "bike_id": "2ad6acd36b0aa6338c6bdf0e05d2eba0", "is_disabled": 0, "is_reserved": 0}, {"rental_uris": {"ios": "https://dc.lft.to/lastmile_qr_scan", "android": "https://dc.lft.to/lastmile_qr_scan"}, "lon": -77.04380433333333, "type": "electric_scooter", "fusion_lat": 0.0, "lat": 38.92069933333333, "name": "d00e36cb76f3a6b0fc5897e2522554e0", "fusion_lon": 0.0, "bike_id": "d00e36cb76f3a6b0fc5897e2522554e0", "is_disabled": 0, "is_reserved": 0}, {"rental_uris": {"ios": "https://dc.lft.to/lastmile_qr_scan", "android": "https://dc.lft.to/lastmile_qr_scan"}, "lon": -76.965553, "type": "electric_scooter", "fusion_lat": 0.0, "lat": 38.918531, "name": "f5ac35f6680d4b863c4ecaf3b938771b", "fusion_lon": 0.0, "bike_id": "f5ac35f6680d4b863c4ecaf3b938771b", "is_disabled": 0, "is_reserved": 0}, {"rental_uris": {"ios": "https://dc.lft.to/lastmile_qr_scan", "android": "https://dc.lft.to/lastmile_qr_scan"}, "lon": -77.036428, "type": "electric_scooter", "fusion_lat": 0.0, "lat": 38.911239, "name": "cc9f3842bddbf89c479fc5c344067d68", "fusion_lon": 0.0, "bike_id": "cc9f3842bddbf89c479fc5c344067d68", "is_disabled": 0, "is_reserved": 0}, {"rental_uris": {"ios": "https://dc.lft.to/lastmile_qr_scan", "android": "https://dc.lft.to/lastmile_qr_scan"}, "lon": -76.950002, "type": "electric_scooter", "fusion_lat": 0.0, "lat": 38.89373483333333, "name": "78023571907ae35009a4a7e94961f594", "fusion_lon": 0.0, "bike_id": "78023571907ae35009a4a7e94961f594", "is_disabled": 0, "is_reserved": 0}, {"rental_uris": {"ios": "https://dc.lft.to/lastmile_qr_scan", "android": "https://dc.lft.to/lastmile_qr_scan"}, "lon": -77.049022, "type": "electric_scooter", "fusion_lat": 0.0, "lat": 38.88840616666667, "name": "20e4457871608e96366d8aed1f1fb9b0", "fusion_lon": 0.0, "bike_id": "20e4457871608e96366d8aed1f1fb9b0", "is_disabled": 0, "is_reserved": 0}, {"rental_uris": {"ios": "https://dc.lft.to/lastmile_qr_scan", "android": "https://dc.lft.to/lastmile_qr_scan"}, "lon": -77.03209633333333, "type": "electric_scooter", "fusion_lat": 0.0, "lat": 38.91265933333333, "name": "9494153fd2fbd6cdf9955c04402a0d19", "fusion_lon": 0.0, "bike_id": "9494153fd2fbd6cdf9955c04402a0d19", "is_disabled": 0, "is_reserved": 0}, {"rental_uris": {"ios": "https://dc.lft.to/lastmile_qr_scan", "android": "https://dc.lft.to/lastmile_qr_scan"}, "lon": -77.02006116666666, "type": "electric_scooter", "fusion_lat": 0.0, "lat": 38.9190515, "name": "5080bdab1b38931040f3aa25b161ed4b", "fusion_lon": 0.0, "bike_id": "5080bdab1b38931040f3aa25b161ed4b", "is_disabled": 0, "is_reserved": 0}, {"rental_uris": {"ios": "https://dc.lft.to/lastmile_qr_scan", "android": "https://dc.lft.to/lastmile_qr_scan"}, "lon": -77.0164045, "type": "electric_scooter", "fusion_lat": 0.0, "lat": 38.92934433333333, "name": "7dffbc4b88607b6a35e73b72b5cce38b", "fusion_lon": 0.0, "bike_id": "7dffbc4b88607b6a35e73b72b5cce38b", "is_disabled": 0, "is_reserved": 0}, {"rental_uris": {"ios": "https://dc.lft.to/lastmile_qr_scan", "android": "https://dc.lft.to/lastmile_qr_scan"}, "lon": -77.04123816666667, "type": "electric_scooter", "fusion_lat": 0.0, "lat": 38.918886666666666, "name": "b3eb93007fee38df468b1d70ea7d8da9", "fusion_lon": 0.0, "bike_id": "b3eb93007fee38df468b1d70ea7d8da9", "is_disabled": 0, "is_reserved": 0}, {"rental_uris": {"ios": "https://dc.lft.to/lastmile_qr_scan", "android": "https://dc.lft.to/lastmile_qr_scan"}, "lon": -77.03203983333333, "type": "electric_scooter", "fusion_lat": 0.0, "lat": 38.91992316666666, "name": "fea1be8bf2e337f22fc4a47e5c72ca7e", "fusion_lon": 0.0, "bike_id": "fea1be8bf2e337f22fc4a47e5c72ca7e", "is_disabled": 0, "is_reserved": 0}, {"rental_uris": {"ios": "https://dc.lft.to/lastmile_qr_scan", "android": "https://dc.lft.to/lastmile_qr_scan"}, "lon": -76.99468316666666, "type": "electric_scooter", "fusion_lat": 0.0, "lat": 38.86209566666667, "name": "862401c09cd637dbf64013fde0109511", "fusion_lon": 0.0, "bike_id": "862401c09cd637dbf64013fde0109511", "is_disabled": 0, "is_reserved": 0}, {"rental_uris": {"ios": "https://dc.lft.to/lastmile_qr_scan", "android": "https://dc.lft.to/lastmile_qr_scan"}, "lon": -76.965536, "type": "electric_scooter", "fusion_lat": 0.0, "lat": 38.918638666666666, "name": "bf4ed098331c769a7e1c80c7aaa05ab4", "fusion_lon": 0.0, "bike_id": "bf4ed098331c769a7e1c80c7aaa05ab4", "is_disabled": 0, "is_reserved": 0}, {"rental_uris": {"ios": "https://dc.lft.to/lastmile_qr_scan", "android": "https://dc.lft.to/lastmile_qr_scan"}, "lon": -76.99889066666667, "type": "electric_scooter", "fusion_lat": 0.0, "lat": 38.90945083333333, "name": "fdffc68705456df4c4c588ab6f6aa9fb", "fusion_lon": 0.0, "bike_id": "fdffc68705456df4c4c588ab6f6aa9fb", "is_disabled": 0, "is_reserved": 0}, {"rental_uris": {"ios": "https://dc.lft.to/lastmile_qr_scan", "android": "https://dc.lft.to/lastmile_qr_scan"}, "lon": -77.041802, "type": "electric_scooter", "fusion_lat": 0.0, "lat": 38.9172965, "name": "35207682af096278da4eee4545ce3861", "fusion_lon": 0.0, "bike_id": "35207682af096278da4eee4545ce3861", "is_disabled": 0, "is_reserved": 0}, {"rental_uris": {"ios": "https://dc.lft.to/lastmile_qr_scan", "android": "https://dc.lft.to/lastmile_qr_scan"}, "lon": -77.02278383333334, "type": "electric_scooter", "fusion_lat": 0.0, "lat": 38.916670333333336, "name": "84ee96ebdfe901bfc5df90635db2fd6d", "fusion_lon": 0.0, "bike_id": "84ee96ebdfe901bfc5df90635db2fd6d", "is_disabled": 0, "is_reserved": 0}, {"rental_uris": {"ios": "https://dc.lft.to/lastmile_qr_scan", "android": "https://dc.lft.to/lastmile_qr_scan"}, "lon": -76.99510933333333, "type": "electric_scooter", "fusion_lat": 0.0, "lat": 38.883054, "name": "8e9f26542f8fc7d42ea58dfe8a0b6eb5", "fusion_lon": 0.0, "bike_id": "8e9f26542f8fc7d42ea58dfe8a0b6eb5", "is_disabled": 0, "is_reserved": 0}, {"rental_uris": {"ios": "https://dc.lft.to/lastmile_qr_scan", "android": "https://dc.lft.to/lastmile_qr_scan"}, "lon": -77.0263675, "type": "electric_scooter", "fusion_lat": 0.0, "lat": 38.91062766666667, "name": "138fe5f41facff500171ed01249c14dd", "fusion_lon": 0.0, "bike_id": "138fe5f41facff500171ed01249c14dd", "is_disabled": 0, "is_reserved": 0}, {"rental_uris": {"ios": "https://dc.lft.to/lastmile_qr_scan", "android": "https://dc.lft.to/lastmile_qr_scan"}, "lon": -77.014217, "type": "electric_scooter", "fusion_lat": 0.0, "lat": 38.91704983333333, "name": "bf52070ab8302c25e17fc72797bee101", "fusion_lon": 0.0, "bike_id": "bf52070ab8302c25e17fc72797bee101", "is_disabled": 0, "is_reserved": 0}, {"rental_uris": {"ios": "https://dc.lft.to/lastmile_qr_scan", "android": "https://dc.lft.to/lastmile_qr_scan"}, "lon": -77.04259433333333, "type": "electric_scooter", "fusion_lat": 0.0, "lat": 38.90556766666667, "name": "f8ba5d564d46f46766bb844103c467bc", "fusion_lon": 0.0, "bike_id": "f8ba5d564d46f46766bb844103c467bc", "is_disabled": 0, "is_reserved": 0}, {"rental_uris": {"ios": "https://dc.lft.to/lastmile_qr_scan", "android": "https://dc.lft.to/lastmile_qr_scan"}, "lon": -76.933687, "type": "electric_scooter", "fusion_lat": 0.0, "lat": 38.89918633333333, "name": "8b0a3d24a09789977d92edd7148753ed", "fusion_lon": 0.0, "bike_id": "8b0a3d24a09789977d92edd7148753ed", "is_disabled": 0, "is_reserved": 0}, {"rental_uris": {"ios": "https://dc.lft.to/lastmile_qr_scan", "android": "https://dc.lft.to/lastmile_qr_scan"}, "lon": -76.93643783333333, "type": "electric_scooter", "fusion_lat": 0.0, "lat": 38.8899395, "name": "2dee1cb4660b2309951a3146fd9ffa42", "fusion_lon": 0.0, "bike_id": "2dee1cb4660b2309951a3146fd9ffa42", "is_disabled": 0, "is_reserved": 0}, {"rental_uris": {"ios": "https://dc.lft.to/lastmile_qr_scan", "android": "https://dc.lft.to/lastmile_qr_scan"}, "lon": -77.033692, "type": "electric_scooter", "fusion_lat": 0.0, "lat": 38.914117, "name": "378ef09380f570252c4d3bece7ab3fbd", "fusion_lon": 0.0, "bike_id": "378ef09380f570252c4d3bece7ab3fbd", "is_disabled": 0, "is_reserved": 0}, {"rental_uris": {"ios": "https://dc.lft.to/lastmile_qr_scan", "android": "https://dc.lft.to/lastmile_qr_scan"}, "lon": -77.1096785, "type": "electric_bike", "fusion_lat": 0.0, "lat": 38.81301666666667, "name": "8916591b3b115f2c77f0c9eff1eaed2f", "fusion_lon": 0.0, "bike_id": "8916591b3b115f2c77f0c9eff1eaed2f", "is_disabled": 0, "is_reserved": 0}, {"rental_uris": {"ios": "https://dc.lft.to/lastmile_qr_scan", "android": "https://dc.lft.to/lastmile_qr_scan"}, "lon": -77.04369883333334, "type": "electric_scooter", "fusion_lat": 0.0, "lat": 38.92087883333333, "name": "e9940026d61b519e6792f731f690fd92", "fusion_lon": 0.0, "bike_id": "e9940026d61b519e6792f731f690fd92", "is_disabled": 0, "is_reserved": 0}, {"rental_uris": {"ios": "https://dc.lft.to/lastmile_qr_scan", "android": "https://dc.lft.to/lastmile_qr_scan"}, "lon": -77.04705633333333, "type": "electric_scooter", "fusion_lat": 0.0, "lat": 38.89733716666667, "name": "c6600409506b0002e5279584987146c5", "fusion_lon": 0.0, "bike_id": "c6600409506b0002e5279584987146c5", "is_disabled": 0, "is_reserved": 0}, {"rental_uris": {"ios": "https://dc.lft.to/lastmile_qr_scan", "android": "https://dc.lft.to/lastmile_qr_scan"}, "lon": -76.99147916666666, "type": "electric_scooter", "fusion_lat": 0.0, "lat": 38.89343483333333, "name": "4bd583e31751faeeeb7757de43e5e1ac", "fusion_lon": 0.0, "bike_id": "4bd583e31751faeeeb7757de43e5e1ac", "is_disabled": 0, "is_reserved": 0}, {"rental_uris": {"ios": "https://dc.lft.to/lastmile_qr_scan", "android": "https://dc.lft.to/lastmile_qr_scan"}, "lon": -77.00562416666666, "type": "electric_scooter", "fusion_lat": 0.0, "lat": 38.871751833333335, "name": "1baedb0dac5949ac7d453289b3873fda", "fusion_lon": 0.0, "bike_id": "1baedb0dac5949ac7d453289b3873fda", "is_disabled": 0, "is_reserved": 0}, {"rental_uris": {"ios": "https://dc.lft.to/lastmile_qr_scan", "android": "https://dc.lft.to/lastmile_qr_scan"}, "lon": -77.00282133333333, "type": "electric_scooter", "fusion_lat": 0.0, "lat": 38.91908883333333, "name": "980019dcf1b68da65f6d19c4c944459b", "fusion_lon": 0.0, "bike_id": "980019dcf1b68da65f6d19c4c944459b", "is_disabled": 0, "is_reserved": 0}, {"rental_uris": {"ios": "https://dc.lft.to/lastmile_qr_scan", "android": "https://dc.lft.to/lastmile_qr_scan"}, "lon": -77.03221333333333, "type": "electric_scooter", "fusion_lat": 0.0, "lat": 38.918095, "name": "227e7665628e30330439cf3ede62dffd", "fusion_lon": 0.0, "bike_id": "227e7665628e30330439cf3ede62dffd", "is_disabled": 0, "is_reserved": 0}, {"rental_uris": {"ios": "https://dc.lft.to/lastmile_qr_scan", "android": "https://dc.lft.to/lastmile_qr_scan"}, "lon": -76.97329116666667, "type": "electric_scooter", "fusion_lat": 0.0, "lat": 38.90477683333334, "name": "37f9d6d297964d91e7d41104bf9b1e14", "fusion_lon": 0.0, "bike_id": "37f9d6d297964d91e7d41104bf9b1e14", "is_disabled": 0, "is_reserved": 0}, {"rental_uris": {"ios": "https://dc.lft.to/lastmile_qr_scan", "android": "https://dc.lft.to/lastmile_qr_scan"}, "lon": -77.05806, "type": "electric_scooter", "fusion_lat": 0.0, "lat": 38.902938, "name": "59343e504f423bd2034b38ec6bd532a5", "fusion_lon": 0.0, "bike_id": "59343e504f423bd2034b38ec6bd532a5", "is_disabled": 0, "is_reserved": 0}, {"rental_uris": {"ios": "https://dc.lft.to/lastmile_qr_scan", "android": "https://dc.lft.to/lastmile_qr_scan"}, "lon": -77.0223105, "type": "electric_scooter", "fusion_lat": 0.0, "lat": 38.9142255, "name": "13cc9ca6a1c7fa0cf0d1f05be425e05d", "fusion_lon": 0.0, "bike_id": "13cc9ca6a1c7fa0cf0d1f05be425e05d", "is_disabled": 0, "is_reserved": 0}, {"rental_uris": {"ios": "https://dc.lft.to/lastmile_qr_scan", "android": "https://dc.lft.to/lastmile_qr_scan"}, "lon": -76.97445433333333, "type": "electric_bike", "fusion_lat": 0.0, "lat": 38.86402833333333, "name": "45b1aff07abe46667693a2dd55caeb4e", "fusion_lon": 0.0, "bike_id": "45b1aff07abe46667693a2dd55caeb4e", "is_disabled": 0, "is_reserved": 0}, {"rental_uris": {"ios": "https://dc.lft.to/lastmile_qr_scan", "android": "https://dc.lft.to/lastmile_qr_scan"}, "lon": -76.94964016666667, "type": "electric_scooter", "fusion_lat": 0.0, "lat": 38.893642, "name": "6fdc01681e1b32a2d5026187a836ef09", "fusion_lon": 0.0, "bike_id": "6fdc01681e1b32a2d5026187a836ef09", "is_disabled": 0, "is_reserved": 0}, {"rental_uris": {"ios": "https://dc.lft.to/lastmile_qr_scan", "android": "https://dc.lft.to/lastmile_qr_scan"}, "lon": -76.977332, "type": "electric_scooter", "fusion_lat": 0.0, "lat": 38.872888333333336, "name": "de827d1fb51523d08f98870f460138a7", "fusion_lon": 0.0, "bike_id": "de827d1fb51523d08f98870f460138a7", "is_disabled": 0, "is_reserved": 0}, {"rental_uris": {"ios": "https://dc.lft.to/lastmile_qr_scan", "android": "https://dc.lft.to/lastmile_qr_scan"}, "lon": -76.99777766666666, "type": "electric_scooter", "fusion_lat": 0.0, "lat": 38.844252, "name": "d0c5a0120232c5fdfa8d7451d7392259", "fusion_lon": 0.0, "bike_id": "d0c5a0120232c5fdfa8d7451d7392259", "is_disabled": 0, "is_reserved": 0}, {"rental_uris": {"ios": "https://dc.lft.to/lastmile_qr_scan", "android": "https://dc.lft.to/lastmile_qr_scan"}, "lon": -76.95746266666667, "type": "electric_scooter", "fusion_lat": 0.0, "lat": 38.89217566666667, "name": "6cdf08adf22773d9d095c6b0b3b2a71f", "fusion_lon": 0.0, "bike_id": "6cdf08adf22773d9d095c6b0b3b2a71f", "is_disabled": 0, "is_reserved": 0}, {"rental_uris": {"ios": "https://dc.lft.to/lastmile_qr_scan", "android": "https://dc.lft.to/lastmile_qr_scan"}, "lon": -77.04350416666666, "type": "electric_scooter", "fusion_lat": 0.0, "lat": 38.911261833333334, "name": "885ffcd3c9ea52f2bd2f984a62cff636", "fusion_lon": 0.0, "bike_id": "885ffcd3c9ea52f2bd2f984a62cff636", "is_disabled": 0, "is_reserved": 0}, {"rental_uris": {"ios": "https://dc.lft.to/lastmile_qr_scan", "android": "https://dc.lft.to/lastmile_qr_scan"}, "lon": -77.0427065, "type": "electric_scooter", "fusion_lat": 0.0, "lat": 38.907310833333334, "name": "e3186c9c41e0f6d7528c91ca76878c41", "fusion_lon": 0.0, "bike_id": "e3186c9c41e0f6d7528c91ca76878c41", "is_disabled": 0, "is_reserved": 0}, {"rental_uris": {"ios": "https://dc.lft.to/lastmile_qr_scan", "android": "https://dc.lft.to/lastmile_qr_scan"}, "lon": -77.0154265, "type": "electric_scooter", "fusion_lat": 0.0, "lat": 38.898205833333336, "name": "4e7da8de3dbc459bb51e2e92d65dc800", "fusion_lon": 0.0, "bike_id": "4e7da8de3dbc459bb51e2e92d65dc800", "is_disabled": 0, "is_reserved": 0}, {"rental_uris": {"ios": "https://dc.lft.to/lastmile_qr_scan", "android": "https://dc.lft.to/lastmile_qr_scan"}, "lon": -77.053242, "type": "electric_scooter", "fusion_lat": 0.0, "lat": 38.902973333333335, "name": "636e48a6ccfa5570782bdf02feed2c6a", "fusion_lon": 0.0, "bike_id": "636e48a6ccfa5570782bdf02feed2c6a", "is_disabled": 0, "is_reserved": 0}, {"rental_uris": {"ios": "https://dc.lft.to/lastmile_qr_scan", "android": "https://dc.lft.to/lastmile_qr_scan"}, "lon": -77.02726, "type": "electric_scooter", "fusion_lat": 0.0, "lat": 38.902080166666664, "name": "9ccbf4a94a1489bb2125641e318e5c51", "fusion_lon": 0.0, "bike_id": "9ccbf4a94a1489bb2125641e318e5c51", "is_disabled": 0, "is_reserved": 0}, {"rental_uris": {"ios": "https://dc.lft.to/lastmile_qr_scan", "android": "https://dc.lft.to/lastmile_qr_scan"}, "lon": -77.0290525, "type": "electric_scooter", "fusion_lat": 0.0, "lat": 38.93265483333333, "name": "e0f4f47506d82cbfdef468d107f491be", "fusion_lon": 0.0, "bike_id": "e0f4f47506d82cbfdef468d107f491be", "is_disabled": 0, "is_reserved": 0}, {"rental_uris": {"ios": "https://dc.lft.to/lastmile_qr_scan", "android": "https://dc.lft.to/lastmile_qr_scan"}, "lon": -77.05087866666666, "type": "electric_scooter", "fusion_lat": 0.0, "lat": 38.900461166666666, "name": "81d27eea7554d747e7d68c04e617a362", "fusion_lon": 0.0, "bike_id": "81d27eea7554d747e7d68c04e617a362", "is_disabled": 0, "is_reserved": 0}, {"rental_uris": {"ios": "https://dc.lft.to/lastmile_qr_scan", "android": "https://dc.lft.to/lastmile_qr_scan"}, "lon": -77.02977633333333, "type": "electric_scooter", "fusion_lat": 0.0, "lat": 38.900486666666666, "name": "ed7b3d6074e2faac9308ab4f4bad88e6", "fusion_lon": 0.0, "bike_id": "ed7b3d6074e2faac9308ab4f4bad88e6", "is_disabled": 0, "is_reserved": 0}, {"rental_uris": {"ios": "https://dc.lft.to/lastmile_qr_scan", "android": "https://dc.lft.to/lastmile_qr_scan"}, "lon": -77.03829533333334, "type": "electric_bike", "fusion_lat": 0.0, "lat": 38.996625, "name": "655cdcb7f638e0c2e6359772cdcfd317", "fusion_lon": 0.0, "bike_id": "655cdcb7f638e0c2e6359772cdcfd317", "is_disabled": 0, "is_reserved": 0}, {"rental_uris": {"ios": "https://dc.lft.to/lastmile_qr_scan", "android": "https://dc.lft.to/lastmile_qr_scan"}, "lon": -77.0314605, "type": "electric_scooter", "fusion_lat": 0.0, "lat": 38.912699, "name": "2c381c925c49323617eeba13e4e1fca9", "fusion_lon": 0.0, "bike_id": "2c381c925c49323617eeba13e4e1fca9", "is_disabled": 0, "is_reserved": 0}, {"rental_uris": {"ios": "https://dc.lft.to/lastmile_qr_scan", "android": "https://dc.lft.to/lastmile_qr_scan"}, "lon": -77.02223333333333, "type": "electric_scooter", "fusion_lat": 0.0, "lat": 38.91631983333333, "name": "67316939cef0db521f9bebc452f0161c", "fusion_lon": 0.0, "bike_id": "67316939cef0db521f9bebc452f0161c", "is_disabled": 0, "is_reserved": 0}, {"rental_uris": {"ios": "https://dc.lft.to/lastmile_qr_scan", "android": "https://dc.lft.to/lastmile_qr_scan"}, "lon": -77.02757216666667, "type": "electric_scooter", "fusion_lat": 0.0, "lat": 38.92915566666667, "name": "8cf23d0db8d64d63443665c5288a3897", "fusion_lon": 0.0, "bike_id": "8cf23d0db8d64d63443665c5288a3897", "is_disabled": 0, "is_reserved": 0}, {"rental_uris": {"ios": "https://dc.lft.to/lastmile_qr_scan", "android": "https://dc.lft.to/lastmile_qr_scan"}, "lon": -77.131793, "type": "electric_bike", "fusion_lat": 0.0, "lat": 38.86912133333333, "name": "eeeb72a75419d4f4ba18f996bab27bc3", "fusion_lon": 0.0, "bike_id": "eeeb72a75419d4f4ba18f996bab27bc3", "is_disabled": 0, "is_reserved": 0}, {"rental_uris": {"ios": "https://dc.lft.to/lastmile_qr_scan", "android": "https://dc.lft.to/lastmile_qr_scan"}, "lon": -77.039826, "type": "electric_scooter", "fusion_lat": 0.0, "lat": 38.90038766666667, "name": "10504ca04b28240fa411122dc6157358", "fusion_lon": 0.0, "bike_id": "10504ca04b28240fa411122dc6157358", "is_disabled": 0, "is_reserved": 0}, {"rental_uris": {"ios": "https://dc.lft.to/lastmile_qr_scan", "android": "https://dc.lft.to/lastmile_qr_scan"}, "lon": -77.0322435, "type": "electric_scooter", "fusion_lat": 0.0, "lat": 38.91254883333333, "name": "24c7f7e5be5260b3c110a14b5a560289", "fusion_lon": 0.0, "bike_id": "24c7f7e5be5260b3c110a14b5a560289", "is_disabled": 0, "is_reserved": 0}, {"rental_uris": {"ios": "https://dc.lft.to/lastmile_qr_scan", "android": "https://dc.lft.to/lastmile_qr_scan"}, "lon": -76.98998883333333, "type": "electric_scooter", "fusion_lat": 0.0, "lat": 38.86503483333333, "name": "5c195c7a52d92fde6afbbb9c08b01cb4", "fusion_lon": 0.0, "bike_id": "5c195c7a52d92fde6afbbb9c08b01cb4", "is_disabled": 0, "is_reserved": 0}, {"rental_uris": {"ios": "https://dc.lft.to/lastmile_qr_scan", "android": "https://dc.lft.to/lastmile_qr_scan"}, "lon": -76.96551416666667, "type": "electric_scooter", "fusion_lat": 0.0, "lat": 38.91858533333333, "name": "7628b92f6df4616b6b7ee79cc8bc4869", "fusion_lon": 0.0, "bike_id": "7628b92f6df4616b6b7ee79cc8bc4869", "is_disabled": 0, "is_reserved": 0}, {"rental_uris": {"ios": "https://dc.lft.to/lastmile_qr_scan", "android": "https://dc.lft.to/lastmile_qr_scan"}, "lon": -77.06116516666667, "type": "electric_scooter", "fusion_lat": 0.0, "lat": 38.9129345, "name": "09708004dc06b630b07519eea27289df", "fusion_lon": 0.0, "bike_id": "09708004dc06b630b07519eea27289df", "is_disabled": 0, "is_reserved": 0}, {"rental_uris": {"ios": "https://dc.lft.to/lastmile_qr_scan", "android": "https://dc.lft.to/lastmile_qr_scan"}, "lon": -77.00309016666667, "type": "electric_scooter", "fusion_lat": 0.0, "lat": 38.8876355, "name": "0e8c407c71874027f862db1e479b8193", "fusion_lon": 0.0, "bike_id": "0e8c407c71874027f862db1e479b8193", "is_disabled": 0, "is_reserved": 0}, {"rental_uris": {"ios": "https://dc.lft.to/lastmile_qr_scan", "android": "https://dc.lft.to/lastmile_qr_scan"}, "lon": -77.00740083333334, "type": "electric_scooter", "fusion_lat": 0.0, "lat": 38.95520966666667, "name": "5ff218e04784f9f9ca88d7ca3f1be7d6", "fusion_lon": 0.0, "bike_id": "5ff218e04784f9f9ca88d7ca3f1be7d6", "is_disabled": 0, "is_reserved": 0}, {"rental_uris": {"ios": "https://dc.lft.to/lastmile_qr_scan", "android": "https://dc.lft.to/lastmile_qr_scan"}, "lon": -77.04244383333334, "type": "electric_scooter", "fusion_lat": 0.0, "lat": 38.921534666666666, "name": "2472b3d05db984b58950fd9528417498", "fusion_lon": 0.0, "bike_id": "2472b3d05db984b58950fd9528417498", "is_disabled": 0, "is_reserved": 0}, {"rental_uris": {"ios": "https://dc.lft.to/lastmile_qr_scan", "android": "https://dc.lft.to/lastmile_qr_scan"}, "lon": -77.0472145, "type": "electric_scooter", "fusion_lat": 0.0, "lat": 38.90238183333334, "name": "0863940554bdae7fa9d5594d2832ce1d", "fusion_lon": 0.0, "bike_id": "0863940554bdae7fa9d5594d2832ce1d", "is_disabled": 0, "is_reserved": 0}, {"rental_uris": {"ios": "https://dc.lft.to/lastmile_qr_scan", "android": "https://dc.lft.to/lastmile_qr_scan"}, "lon": -77.122633, "type": "electric_bike", "fusion_lat": 0.0, "lat": 38.8918695, "name": "ad58f9405c6a334961489dee9bbbc232", "fusion_lon": 0.0, "bike_id": "ad58f9405c6a334961489dee9bbbc232", "is_disabled": 0, "is_reserved": 0}, {"rental_uris": {"ios": "https://dc.lft.to/lastmile_qr_scan", "android": "https://dc.lft.to/lastmile_qr_scan"}, "lon": -76.95752033333333, "type": "electric_scooter", "fusion_lat": 0.0, "lat": 38.884333166666664, "name": "a2c3a49f72fb516eb9c409eb5eee0ee4", "fusion_lon": 0.0, "bike_id": "a2c3a49f72fb516eb9c409eb5eee0ee4", "is_disabled": 0, "is_reserved": 0}, {"rental_uris": {"ios": "https://dc.lft.to/lastmile_qr_scan", "android": "https://dc.lft.to/lastmile_qr_scan"}, "lon": -77.02908283333333, "type": "electric_scooter", "fusion_lat": 0.0, "lat": 38.89842816666667, "name": "00aae49d86d27f28638dc91f1fa33ce2", "fusion_lon": 0.0, "bike_id": "00aae49d86d27f28638dc91f1fa33ce2", "is_disabled": 0, "is_reserved": 0}, {"rental_uris": {"ios": "https://dc.lft.to/lastmile_qr_scan", "android": "https://dc.lft.to/lastmile_qr_scan"}, "lon": -77.0768455, "type": "electric_bike", "fusion_lat": 0.0, "lat": 38.83194183333333, "name": "324870690366c56cd0154f43452c4eb1", "fusion_lon": 0.0, "bike_id": "324870690366c56cd0154f43452c4eb1", "is_disabled": 0, "is_reserved": 0}, {"rental_uris": {"ios": "https://dc.lft.to/lastmile_qr_scan", "android": "https://dc.lft.to/lastmile_qr_scan"}, "lon": -77.0490605, "type": "electric_scooter", "fusion_lat": 0.0, "lat": 38.888412, "name": "a030316ef1dfefe8c8c0bcab81c44134", "fusion_lon": 0.0, "bike_id": "a030316ef1dfefe8c8c0bcab81c44134", "is_disabled": 0, "is_reserved": 0}, {"rental_uris": {"ios": "https://dc.lft.to/lastmile_qr_scan", "android": "https://dc.lft.to/lastmile_qr_scan"}, "lon": -77.04322683333334, "type": "electric_scooter", "fusion_lat": 0.0, "lat": 38.914862666666664, "name": "25cba52d6ca71af7f3335f3745f3239d", "fusion_lon": 0.0, "bike_id": "25cba52d6ca71af7f3335f3745f3239d", "is_disabled": 0, "is_reserved": 0}, {"rental_uris": {"ios": "https://dc.lft.to/lastmile_qr_scan", "android": "https://dc.lft.to/lastmile_qr_scan"}, "lon": -77.1122295, "type": "electric_bike", "fusion_lat": 0.0, "lat": 38.828721333333334, "name": "3ea082ae71427e1a8df7a9fd926ab8c1", "fusion_lon": 0.0, "bike_id": "3ea082ae71427e1a8df7a9fd926ab8c1", "is_disabled": 0, "is_reserved": 0}, {"rental_uris": {"ios": "https://dc.lft.to/lastmile_qr_scan", "android": "https://dc.lft.to/lastmile_qr_scan"}, "lon": -77.048109, "type": "electric_scooter", "fusion_lat": 0.0, "lat": 38.896105166666665, "name": "a4efc5f66f338ab098f96e7d688cbc8d", "fusion_lon": 0.0, "bike_id": "a4efc5f66f338ab098f96e7d688cbc8d", "is_disabled": 0, "is_reserved": 0}, {"rental_uris": {"ios": "https://dc.lft.to/lastmile_qr_scan", "android": "https://dc.lft.to/lastmile_qr_scan"}, "lon": -77.0438975, "type": "electric_scooter", "fusion_lat": 0.0, "lat": 38.920541166666666, "name": "c394590ff36569fb09100a261def0ccc", "fusion_lon": 0.0, "bike_id": "c394590ff36569fb09100a261def0ccc", "is_disabled": 0, "is_reserved": 0}, {"rental_uris": {"ios": "https://dc.lft.to/lastmile_qr_scan", "android": "https://dc.lft.to/lastmile_qr_scan"}, "lon": -77.032651, "type": "electric_scooter", "fusion_lat": 0.0, "lat": 38.929194833333334, "name": "ab9b2d6aecd29a88b05461e715c6ed8c", "fusion_lon": 0.0, "bike_id": "ab9b2d6aecd29a88b05461e715c6ed8c", "is_disabled": 0, "is_reserved": 0}, {"rental_uris": {"ios": "https://dc.lft.to/lastmile_qr_scan", "android": "https://dc.lft.to/lastmile_qr_scan"}, "lon": -77.11205016666666, "type": "electric_bike", "fusion_lat": 0.0, "lat": 38.813047833333336, "name": "9be8a05bf067c6d79143dfe4ecd1e8f1", "fusion_lon": 0.0, "bike_id": "9be8a05bf067c6d79143dfe4ecd1e8f1", "is_disabled": 0, "is_reserved": 0}, {"rental_uris": {"ios": "https://dc.lft.to/lastmile_qr_scan", "android": "https://dc.lft.to/lastmile_qr_scan"}, "lon": -76.93540583333333, "type": "electric_bike", "fusion_lat": 0.0, "lat": 38.955459166666664, "name": "c90680390b7db6f57c0e774a9997e2bb", "fusion_lon": 0.0, "bike_id": "c90680390b7db6f57c0e774a9997e2bb", "is_disabled": 0, "is_reserved": 0}, {"rental_uris": {"ios": "https://dc.lft.to/lastmile_qr_scan", "android": "https://dc.lft.to/lastmile_qr_scan"}, "lon": -77.02798033333333, "type": "electric_bike", "fusion_lat": 0.0, "lat": 38.94294266666667, "name": "a73370c21e1f99b370593b98c3af10ca", "fusion_lon": 0.0, "bike_id": "a73370c21e1f99b370593b98c3af10ca", "is_disabled": 0, "is_reserved": 0}, {"rental_uris": {"ios": "https://dc.lft.to/lastmile_qr_scan", "android": "https://dc.lft.to/lastmile_qr_scan"}, "lon": -76.96552466666667, "type": "electric_scooter", "fusion_lat": 0.0, "lat": 38.918515166666666, "name": "fb2cf095b986e575d11d2af462a903e5", "fusion_lon": 0.0, "bike_id": "fb2cf095b986e575d11d2af462a903e5", "is_disabled": 0, "is_reserved": 0}, {"rental_uris": {"ios": "https://dc.lft.to/lastmile_qr_scan", "android": "https://dc.lft.to/lastmile_qr_scan"}, "lon": -77.00331566666667, "type": "electric_scooter", "fusion_lat": 0.0, "lat": 38.907027, "name": "758836b6f75e1bb89b932aa5880ccee5", "fusion_lon": 0.0, "bike_id": "758836b6f75e1bb89b932aa5880ccee5", "is_disabled": 0, "is_reserved": 0}, {"rental_uris": {"ios": "https://dc.lft.to/lastmile_qr_scan", "android": "https://dc.lft.to/lastmile_qr_scan"}, "lon": -77.0264345, "type": "electric_scooter", "fusion_lat": 0.0, "lat": 38.93041183333333, "name": "7d316a2288712cc0b8b756d1b2d3d917", "fusion_lon": 0.0, "bike_id": "7d316a2288712cc0b8b756d1b2d3d917", "is_disabled": 0, "is_reserved": 0}, {"rental_uris": {"ios": "https://dc.lft.to/lastmile_qr_scan", "android": "https://dc.lft.to/lastmile_qr_scan"}, "lon": -77.0404525, "type": "electric_scooter", "fusion_lat": 0.0, "lat": 38.92460766666667, "name": "39124d385424f325baf7df68a2abbbb5", "fusion_lon": 0.0, "bike_id": "39124d385424f325baf7df68a2abbbb5", "is_disabled": 0, "is_reserved": 0}, {"rental_uris": {"ios": "https://dc.lft.to/lastmile_qr_scan", "android": "https://dc.lft.to/lastmile_qr_scan"}, "lon": -77.04682383333333, "type": "electric_scooter", "fusion_lat": 0.0, "lat": 38.892212, "name": "80a9c68f110b8e6be225b1fa09dc556c", "fusion_lon": 0.0, "bike_id": "80a9c68f110b8e6be225b1fa09dc556c", "is_disabled": 0, "is_reserved": 0}, {"rental_uris": {"ios": "https://dc.lft.to/lastmile_qr_scan", "android": "https://dc.lft.to/lastmile_qr_scan"}, "lon": -77.07256566666666, "type": "electric_scooter", "fusion_lat": 0.0, "lat": 38.933760166666666, "name": "1ab752f22aa09e2c6f969e3d107e744e", "fusion_lon": 0.0, "bike_id": "1ab752f22aa09e2c6f969e3d107e744e", "is_disabled": 0, "is_reserved": 0}, {"rental_uris": {"ios": "https://dc.lft.to/lastmile_qr_scan", "android": "https://dc.lft.to/lastmile_qr_scan"}, "lon": -77.02617166666667, "type": "electric_scooter", "fusion_lat": 0.0, "lat": 38.91667366666667, "name": "99a767d85a8f65b667240a11e3322349", "fusion_lon": 0.0, "bike_id": "99a767d85a8f65b667240a11e3322349", "is_disabled": 0, "is_reserved": 0}, {"rental_uris": {"ios": "https://dc.lft.to/lastmile_qr_scan", "android": "https://dc.lft.to/lastmile_qr_scan"}, "lon": -77.07213366666667, "type": "electric_scooter", "fusion_lat": 0.0, "lat": 38.934700666666664, "name": "aad1e654895fb4632f0c4cf5ec3bc4b2", "fusion_lon": 0.0, "bike_id": "aad1e654895fb4632f0c4cf5ec3bc4b2", "is_disabled": 0, "is_reserved": 0}, {"rental_uris": {"ios": "https://dc.lft.to/lastmile_qr_scan", "android": "https://dc.lft.to/lastmile_qr_scan"}, "lon": -77.053858, "type": "electric_scooter", "fusion_lat": 0.0, "lat": 38.927938833333336, "name": "19464f3d63b080e8332aa6e4f021e430", "fusion_lon": 0.0, "bike_id": "19464f3d63b080e8332aa6e4f021e430", "is_disabled": 0, "is_reserved": 0}, {"rental_uris": {"ios": "https://dc.lft.to/lastmile_qr_scan", "android": "https://dc.lft.to/lastmile_qr_scan"}, "lon": -77.059159, "type": "electric_scooter", "fusion_lat": 0.0, "lat": 38.904466166666666, "name": "529a0e77c53797856e23c50187343c73", "fusion_lon": 0.0, "bike_id": "529a0e77c53797856e23c50187343c73", "is_disabled": 0, "is_reserved": 0}, {"rental_uris": {"ios": "https://dc.lft.to/lastmile_qr_scan", "android": "https://dc.lft.to/lastmile_qr_scan"}, "lon": -76.98022516666667, "type": "electric_scooter", "fusion_lat": 0.0, "lat": 38.887629, "name": "9f813161af7a4538bbf4ac08f766a917", "fusion_lon": 0.0, "bike_id": "9f813161af7a4538bbf4ac08f766a917", "is_disabled": 0, "is_reserved": 0}, {"rental_uris": {"ios": "https://dc.lft.to/lastmile_qr_scan", "android": "https://dc.lft.to/lastmile_qr_scan"}, "lon": -76.99250866666667, "type": "electric_bike", "fusion_lat": 0.0, "lat": 38.92545, "name": "5d12aff284c08750e33e66b54fdb94ce", "fusion_lon": 0.0, "bike_id": "5d12aff284c08750e33e66b54fdb94ce", "is_disabled": 0, "is_reserved": 0}, {"rental_uris": {"ios": "https://dc.lft.to/lastmile_qr_scan", "android": "https://dc.lft.to/lastmile_qr_scan"}, "lon": -77.01358516666667, "type": "electric_scooter", "fusion_lat": 0.0, "lat": 38.86986866666667, "name": "4e5c9af2c296043b1711c493c0f5f836", "fusion_lon": 0.0, "bike_id": "4e5c9af2c296043b1711c493c0f5f836", "is_disabled": 0, "is_reserved": 0}, {"rental_uris": {"ios": "https://dc.lft.to/lastmile_qr_scan", "android": "https://dc.lft.to/lastmile_qr_scan"}, "lon": -77.01440466666666, "type": "electric_scooter", "fusion_lat": 0.0, "lat": 38.92988783333333, "name": "b9bdae6122a914430d6915f296905388", "fusion_lon": 0.0, "bike_id": "b9bdae6122a914430d6915f296905388", "is_disabled": 0, "is_reserved": 0}, {"rental_uris": {"ios": "https://dc.lft.to/lastmile_qr_scan", "android": "https://dc.lft.to/lastmile_qr_scan"}, "lon": -76.96553566666667, "type": "electric_scooter", "fusion_lat": 0.0, "lat": 38.918546666666664, "name": "c536dd211396fe3cf07741617f926592", "fusion_lon": 0.0, "bike_id": "c536dd211396fe3cf07741617f926592", "is_disabled": 0, "is_reserved": 0}, {"rental_uris": {"ios": "https://dc.lft.to/lastmile_qr_scan", "android": "https://dc.lft.to/lastmile_qr_scan"}, "lon": -77.04659983333333, "type": "electric_scooter", "fusion_lat": 0.0, "lat": 38.892502666666665, "name": "61dd9559bc8d8f1b0f832443ec8b0c72", "fusion_lon": 0.0, "bike_id": "61dd9559bc8d8f1b0f832443ec8b0c72", "is_disabled": 0, "is_reserved": 0}, {"rental_uris": {"ios": "https://dc.lft.to/lastmile_qr_scan", "android": "https://dc.lft.to/lastmile_qr_scan"}, "lon": -77.012947, "type": "electric_scooter", "fusion_lat": 0.0, "lat": 38.956547, "name": "239c1efe3812529da275545f91390015", "fusion_lon": 0.0, "bike_id": "239c1efe3812529da275545f91390015", "is_disabled": 0, "is_reserved": 0}, {"rental_uris": {"ios": "https://dc.lft.to/lastmile_qr_scan", "android": "https://dc.lft.to/lastmile_qr_scan"}, "lon": -76.9951595, "type": "electric_scooter", "fusion_lat": 0.0, "lat": 38.86256083333333, "name": "eca1e8ea86c01c3d85b9408c59a6636e", "fusion_lon": 0.0, "bike_id": "eca1e8ea86c01c3d85b9408c59a6636e", "is_disabled": 0, "is_reserved": 0}, {"rental_uris": {"ios": "https://dc.lft.to/lastmile_qr_scan", "android": "https://dc.lft.to/lastmile_qr_scan"}, "lon": -77.04872666666667, "type": "electric_scooter", "fusion_lat": 0.0, "lat": 38.89226416666666, "name": "39473d7baf05c60cf1d18ae13268a7ae", "fusion_lon": 0.0, "bike_id": "39473d7baf05c60cf1d18ae13268a7ae", "is_disabled": 0, "is_reserved": 0}, {"rental_uris": {"ios": "https://dc.lft.to/lastmile_qr_scan", "android": "https://dc.lft.to/lastmile_qr_scan"}, "lon": -77.02697466666666, "type": "electric_scooter", "fusion_lat": 0.0, "lat": 38.919037833333334, "name": "d29f53fd307107a6a268730ca0fca159", "fusion_lon": 0.0, "bike_id": "d29f53fd307107a6a268730ca0fca159", "is_disabled": 0, "is_reserved": 0}, {"rental_uris": {"ios": "https://dc.lft.to/lastmile_qr_scan", "android": "https://dc.lft.to/lastmile_qr_scan"}, "lon": -77.03761866666666, "type": "electric_scooter", "fusion_lat": 0.0, "lat": 38.92879216666667, "name": "9a3a1543e627d0c5a366f8082dea280a", "fusion_lon": 0.0, "bike_id": "9a3a1543e627d0c5a366f8082dea280a", "is_disabled": 0, "is_reserved": 0}, {"rental_uris": {"ios": "https://dc.lft.to/lastmile_qr_scan", "android": "https://dc.lft.to/lastmile_qr_scan"}, "lon": -77.050138, "type": "electric_scooter", "fusion_lat": 0.0, "lat": 38.923549, "name": "070736b7d52f1a45d94a01826771b6fd", "fusion_lon": 0.0, "bike_id": "070736b7d52f1a45d94a01826771b6fd", "is_disabled": 0, "is_reserved": 0}, {"rental_uris": {"ios": "https://dc.lft.to/lastmile_qr_scan", "android": "https://dc.lft.to/lastmile_qr_scan"}, "lon": -77.0230825, "type": "electric_scooter", "fusion_lat": 0.0, "lat": 38.91830233333334, "name": "aaef54c425eb4f9defa732a93b6c3b01", "fusion_lon": 0.0, "bike_id": "aaef54c425eb4f9defa732a93b6c3b01", "is_disabled": 0, "is_reserved": 0}, {"rental_uris": {"ios": "https://dc.lft.to/lastmile_qr_scan", "android": "https://dc.lft.to/lastmile_qr_scan"}, "lon": -76.97829616666667, "type": "electric_bike", "fusion_lat": 0.0, "lat": 38.84607833333333, "name": "ea59b54fcbe9766dfcb751cffa7f8fed", "fusion_lon": 0.0, "bike_id": "ea59b54fcbe9766dfcb751cffa7f8fed", "is_disabled": 0, "is_reserved": 0}, {"rental_uris": {"ios": "https://dc.lft.to/lastmile_qr_scan", "android": "https://dc.lft.to/lastmile_qr_scan"}, "lon": -77.06281233333333, "type": "electric_scooter", "fusion_lat": 0.0, "lat": 38.902809, "name": "9f594bd679ee397ca49b34f997a830da", "fusion_lon": 0.0, "bike_id": "9f594bd679ee397ca49b34f997a830da", "is_disabled": 0, "is_reserved": 0}, {"rental_uris": {"ios": "https://dc.lft.to/lastmile_qr_scan", "android": "https://dc.lft.to/lastmile_qr_scan"}, "lon": -77.03930533333333, "type": "electric_scooter", "fusion_lat": 0.0, "lat": 38.921121666666664, "name": "1d13be8f8d8f15788dcb43bda43ba52b", "fusion_lon": 0.0, "bike_id": "1d13be8f8d8f15788dcb43bda43ba52b", "is_disabled": 0, "is_reserved": 0}, {"rental_uris": {"ios": "https://dc.lft.to/lastmile_qr_scan", "android": "https://dc.lft.to/lastmile_qr_scan"}, "lon": -77.12626366666667, "type": "electric_bike", "fusion_lat": 0.0, "lat": 39.058136166666664, "name": "3e8e37540902e0cacc2956c5dc71a356", "fusion_lon": 0.0, "bike_id": "3e8e37540902e0cacc2956c5dc71a356", "is_disabled": 0, "is_reserved": 0}, {"rental_uris": {"ios": "https://dc.lft.to/lastmile_qr_scan", "android": "https://dc.lft.to/lastmile_qr_scan"}, "lon": -77.03388016666666, "type": "electric_scooter", "fusion_lat": 0.0, "lat": 38.90602833333333, "name": "4ce2d4d8f825b261b33238605ad06955", "fusion_lon": 0.0, "bike_id": "4ce2d4d8f825b261b33238605ad06955", "is_disabled": 0, "is_reserved": 0}, {"rental_uris": {"ios": "https://dc.lft.to/lastmile_qr_scan", "android": "https://dc.lft.to/lastmile_qr_scan"}, "lon": -77.01884166666666, "type": "electric_scooter", "fusion_lat": 0.0, "lat": 38.91740716666666, "name": "b6a7b0cb264d67c07755165de0a535b8", "fusion_lon": 0.0, "bike_id": "b6a7b0cb264d67c07755165de0a535b8", "is_disabled": 0, "is_reserved": 0}, {"rental_uris": {"ios": "https://dc.lft.to/lastmile_qr_scan", "android": "https://dc.lft.to/lastmile_qr_scan"}, "lon": -77.03796833333334, "type": "electric_scooter", "fusion_lat": 0.0, "lat": 38.926407166666664, "name": "13e1095bb9ac7ffa094630330663616d", "fusion_lon": 0.0, "bike_id": "13e1095bb9ac7ffa094630330663616d", "is_disabled": 0, "is_reserved": 0}, {"rental_uris": {"ios": "https://dc.lft.to/lastmile_qr_scan", "android": "https://dc.lft.to/lastmile_qr_scan"}, "lon": -76.96555966666666, "type": "electric_scooter", "fusion_lat": 0.0, "lat": 38.918561833333335, "name": "4e4fd4a2daa6b7cf7f33ac521db6ba07", "fusion_lon": 0.0, "bike_id": "4e4fd4a2daa6b7cf7f33ac521db6ba07", "is_disabled": 0, "is_reserved": 0}, {"rental_uris": {"ios": "https://dc.lft.to/lastmile_qr_scan", "android": "https://dc.lft.to/lastmile_qr_scan"}, "lon": -77.05213716666667, "type": "electric_scooter", "fusion_lat": 0.0, "lat": 38.92436283333333, "name": "096c836dd5568a6749380ef980506330", "fusion_lon": 0.0, "bike_id": "096c836dd5568a6749380ef980506330", "is_disabled": 0, "is_reserved": 0}, {"rental_uris": {"ios": "https://dc.lft.to/lastmile_qr_scan", "android": "https://dc.lft.to/lastmile_qr_scan"}, "lon": -76.998483, "type": "electric_scooter", "fusion_lat": 0.0, "lat": 38.894888333333334, "name": "5be9a2f90a1ebc94ac42326b842ad069", "fusion_lon": 0.0, "bike_id": "5be9a2f90a1ebc94ac42326b842ad069", "is_disabled": 0, "is_reserved": 0}, {"rental_uris": {"ios": "https://dc.lft.to/lastmile_qr_scan", "android": "https://dc.lft.to/lastmile_qr_scan"}, "lon": -77.0306515, "type": "electric_scooter", "fusion_lat": 0.0, "lat": 38.905682166666665, "name": "dfe2ddb3851dbd6807544b1e88ff449e", "fusion_lon": 0.0, "bike_id": "dfe2ddb3851dbd6807544b1e88ff449e", "is_disabled": 0, "is_reserved": 0}, {"rental_uris": {"ios": "https://dc.lft.to/lastmile_qr_scan", "android": "https://dc.lft.to/lastmile_qr_scan"}, "lon": -77.04832466666667, "type": "electric_scooter", "fusion_lat": 0.0, "lat": 38.90968783333334, "name": "a5854d46f377f236e59ffe19aadacfb2", "fusion_lon": 0.0, "bike_id": "a5854d46f377f236e59ffe19aadacfb2", "is_disabled": 0, "is_reserved": 0}, {"rental_uris": {"ios": "https://dc.lft.to/lastmile_qr_scan", "android": "https://dc.lft.to/lastmile_qr_scan"}, "lon": -77.010784, "type": "electric_bike", "fusion_lat": 0.0, "lat": 38.95654833333333, "name": "5d9d9ddf73c5fa4d8f6d154b9f195502", "fusion_lon": 0.0, "bike_id": "5d9d9ddf73c5fa4d8f6d154b9f195502", "is_disabled": 0, "is_reserved": 0}, {"rental_uris": {"ios": "https://dc.lft.to/lastmile_qr_scan", "android": "https://dc.lft.to/lastmile_qr_scan"}, "lon": -76.98843133333334, "type": "electric_bike", "fusion_lat": 0.0, "lat": 38.8426995, "name": "1f8f49a9d3bb2b518de988c3534d8e84", "fusion_lon": 0.0, "bike_id": "1f8f49a9d3bb2b518de988c3534d8e84", "is_disabled": 0, "is_reserved": 0}, {"rental_uris": {"ios": "https://dc.lft.to/lastmile_qr_scan", "android": "https://dc.lft.to/lastmile_qr_scan"}, "lon": -77.00262383333333, "type": "electric_scooter", "fusion_lat": 0.0, "lat": 38.8989585, "name": "c90a2d4ea6c8236de435d9cb143dfa8e", "fusion_lon": 0.0, "bike_id": "c90a2d4ea6c8236de435d9cb143dfa8e", "is_disabled": 0, "is_reserved": 0}, {"rental_uris": {"ios": "https://dc.lft.to/lastmile_qr_scan", "android": "https://dc.lft.to/lastmile_qr_scan"}, "lon": -77.0777875, "type": "electric_scooter", "fusion_lat": 0.0, "lat": 38.945625166666666, "name": "0c0cb72911351b5ed4d4e47e11a0066d", "fusion_lon": 0.0, "bike_id": "0c0cb72911351b5ed4d4e47e11a0066d", "is_disabled": 0, "is_reserved": 0}, {"rental_uris": {"ios": "https://dc.lft.to/lastmile_qr_scan", "android": "https://dc.lft.to/lastmile_qr_scan"}, "lon": -77.04256016666666, "type": "electric_scooter", "fusion_lat": 0.0, "lat": 38.9220225, "name": "7f9ef08d5a2f57233d3f7028d0edd9b7", "fusion_lon": 0.0, "bike_id": "7f9ef08d5a2f57233d3f7028d0edd9b7", "is_disabled": 0, "is_reserved": 0}, {"rental_uris": {"ios": "https://dc.lft.to/lastmile_qr_scan", "android": "https://dc.lft.to/lastmile_qr_scan"}, "lon": -77.04165766666667, "type": "electric_scooter", "fusion_lat": 0.0, "lat": 38.912389166666664, "name": "d1531432315f3f2ce7635643b0b0586c", "fusion_lon": 0.0, "bike_id": "d1531432315f3f2ce7635643b0b0586c", "is_disabled": 0, "is_reserved": 0}, {"rental_uris": {"ios": "https://dc.lft.to/lastmile_qr_scan", "android": "https://dc.lft.to/lastmile_qr_scan"}, "lon": -77.01369683333333, "type": "electric_scooter", "fusion_lat": 0.0, "lat": 38.8698465, "name": "8c11014c7d12691cab6e69f41d088957", "fusion_lon": 0.0, "bike_id": "8c11014c7d12691cab6e69f41d088957", "is_disabled": 0, "is_reserved": 0}, {"rental_uris": {"ios": "https://dc.lft.to/lastmile_qr_scan", "android": "https://dc.lft.to/lastmile_qr_scan"}, "lon": -77.03362983333334, "type": "electric_scooter", "fusion_lat": 0.0, "lat": 38.88748416666667, "name": "afe0a59f74dff46127b42f88a32a8d79", "fusion_lon": 0.0, "bike_id": "afe0a59f74dff46127b42f88a32a8d79", "is_disabled": 0, "is_reserved": 0}, {"rental_uris": {"ios": "https://dc.lft.to/lastmile_qr_scan", "android": "https://dc.lft.to/lastmile_qr_scan"}, "lon": -77.01782716666666, "type": "electric_scooter", "fusion_lat": 0.0, "lat": 38.88717166666667, "name": "2d89c656097f47269fbf5544c1849df5", "fusion_lon": 0.0, "bike_id": "2d89c656097f47269fbf5544c1849df5", "is_disabled": 0, "is_reserved": 0}, {"rental_uris": {"ios": "https://dc.lft.to/lastmile_qr_scan", "android": "https://dc.lft.to/lastmile_qr_scan"}, "lon": -77.03184133333333, "type": "electric_scooter", "fusion_lat": 0.0, "lat": 38.912315166666666, "name": "389017f0a21af58dcbe726b4be9b5f15", "fusion_lon": 0.0, "bike_id": "389017f0a21af58dcbe726b4be9b5f15", "is_disabled": 0, "is_reserved": 0}, {"rental_uris": {"ios": "https://dc.lft.to/lastmile_qr_scan", "android": "https://dc.lft.to/lastmile_qr_scan"}, "lon": -76.98828733333333, "type": "electric_scooter", "fusion_lat": 0.0, "lat": 38.88028833333333, "name": "f139b4329d9fc757f842908cb8200cf8", "fusion_lon": 0.0, "bike_id": "f139b4329d9fc757f842908cb8200cf8", "is_disabled": 0, "is_reserved": 0}, {"rental_uris": {"ios": "https://dc.lft.to/lastmile_qr_scan", "android": "https://dc.lft.to/lastmile_qr_scan"}, "lon": -77.055212, "type": "electric_scooter", "fusion_lat": 0.0, "lat": 38.899427333333335, "name": "555cd4e2fe0fb3d489b1b574fffbda28", "fusion_lon": 0.0, "bike_id": "555cd4e2fe0fb3d489b1b574fffbda28", "is_disabled": 0, "is_reserved": 0}, {"rental_uris": {"ios": "https://dc.lft.to/lastmile_qr_scan", "android": "https://dc.lft.to/lastmile_qr_scan"}, "lon": -77.0326725, "type": "electric_scooter", "fusion_lat": 0.0, "lat": 38.92905116666667, "name": "c5f2ff5e07412a80c34011d28e8a3476", "fusion_lon": 0.0, "bike_id": "c5f2ff5e07412a80c34011d28e8a3476", "is_disabled": 0, "is_reserved": 0}, {"rental_uris": {"ios": "https://dc.lft.to/lastmile_qr_scan", "android": "https://dc.lft.to/lastmile_qr_scan"}, "lon": -77.02738916666667, "type": "electric_scooter", "fusion_lat": 0.0, "lat": 38.89489366666667, "name": "a9ab20e18ae064144494806563db456e", "fusion_lon": 0.0, "bike_id": "a9ab20e18ae064144494806563db456e", "is_disabled": 0, "is_reserved": 0}, {"rental_uris": {"ios": "https://dc.lft.to/lastmile_qr_scan", "android": "https://dc.lft.to/lastmile_qr_scan"}, "lon": -77.12374333333334, "type": "electric_bike", "fusion_lat": 0.0, "lat": 38.8473915, "name": "82b44f706ac5e53f1491610684bb0ef0", "fusion_lon": 0.0, "bike_id": "82b44f706ac5e53f1491610684bb0ef0", "is_disabled": 0, "is_reserved": 0}, {"rental_uris": {"ios": "https://dc.lft.to/lastmile_qr_scan", "android": "https://dc.lft.to/lastmile_qr_scan"}, "lon": -77.042563, "type": "electric_scooter", "fusion_lat": 0.0, "lat": 38.92201683333333, "name": "14f38daa60f2c7f0e81bb35e1af093f3", "fusion_lon": 0.0, "bike_id": "14f38daa60f2c7f0e81bb35e1af093f3", "is_disabled": 0, "is_reserved": 0}, {"rental_uris": {"ios": "https://dc.lft.to/lastmile_qr_scan", "android": "https://dc.lft.to/lastmile_qr_scan"}, "lon": -77.04482066666667, "type": "electric_scooter", "fusion_lat": 0.0, "lat": 38.900685333333335, "name": "c297fd374b5a39304256ffb04f041e97", "fusion_lon": 0.0, "bike_id": "c297fd374b5a39304256ffb04f041e97", "is_disabled": 0, "is_reserved": 0}, {"rental_uris": {"ios": "https://dc.lft.to/lastmile_qr_scan", "android": "https://dc.lft.to/lastmile_qr_scan"}, "lon": -77.07061183333333, "type": "electric_scooter", "fusion_lat": 0.0, "lat": 38.901107, "name": "0dfce237e6506fc1c6769f2328f923c3", "fusion_lon": 0.0, "bike_id": "0dfce237e6506fc1c6769f2328f923c3", "is_disabled": 0, "is_reserved": 0}, {"rental_uris": {"ios": "https://dc.lft.to/lastmile_qr_scan", "android": "https://dc.lft.to/lastmile_qr_scan"}, "lon": -77.0334445, "type": "electric_scooter", "fusion_lat": 0.0, "lat": 38.89966066666667, "name": "2489941db659e2a0b9de68021f138a5f", "fusion_lon": 0.0, "bike_id": "2489941db659e2a0b9de68021f138a5f", "is_disabled": 0, "is_reserved": 0}, {"rental_uris": {"ios": "https://dc.lft.to/lastmile_qr_scan", "android": "https://dc.lft.to/lastmile_qr_scan"}, "lon": -77.00544566666666, "type": "electric_scooter", "fusion_lat": 0.0, "lat": 38.87457033333333, "name": "3ed3fb680cc4ee472c1aa02ad7407cbb", "fusion_lon": 0.0, "bike_id": "3ed3fb680cc4ee472c1aa02ad7407cbb", "is_disabled": 0, "is_reserved": 0}, {"rental_uris": {"ios": "https://dc.lft.to/lastmile_qr_scan", "android": "https://dc.lft.to/lastmile_qr_scan"}, "lon": -77.0219485, "type": "electric_scooter", "fusion_lat": 0.0, "lat": 38.9147835, "name": "aac8c90e25b81c68af58fd3f25f4070d", "fusion_lon": 0.0, "bike_id": "aac8c90e25b81c68af58fd3f25f4070d", "is_disabled": 0, "is_reserved": 0}, {"rental_uris": {"ios": "https://dc.lft.to/lastmile_qr_scan", "android": "https://dc.lft.to/lastmile_qr_scan"}, "lon": -77.025046, "type": "electric_scooter", "fusion_lat": 0.0, "lat": 38.9019795, "name": "ef2daf8e7bafcc77c5ea245f6b162a4c", "fusion_lon": 0.0, "bike_id": "ef2daf8e7bafcc77c5ea245f6b162a4c", "is_disabled": 0, "is_reserved": 0}, {"rental_uris": {"ios": "https://dc.lft.to/lastmile_qr_scan", "android": "https://dc.lft.to/lastmile_qr_scan"}, "lon": -77.03584466666666, "type": "electric_scooter", "fusion_lat": 0.0, "lat": 38.9075815, "name": "5ab8b776d35f7f75dcbb1274e7a7ff84", "fusion_lon": 0.0, "bike_id": "5ab8b776d35f7f75dcbb1274e7a7ff84", "is_disabled": 0, "is_reserved": 0}, {"rental_uris": {"ios": "https://dc.lft.to/lastmile_qr_scan", "android": "https://dc.lft.to/lastmile_qr_scan"}, "lon": -77.03520433333334, "type": "electric_scooter", "fusion_lat": 0.0, "lat": 38.90659866666667, "name": "bb9599bda40285602c219130a30713b3", "fusion_lon": 0.0, "bike_id": "bb9599bda40285602c219130a30713b3", "is_disabled": 0, "is_reserved": 0}, {"rental_uris": {"ios": "https://dc.lft.to/lastmile_qr_scan", "android": "https://dc.lft.to/lastmile_qr_scan"}, "lon": -76.99493016666666, "type": "electric_scooter", "fusion_lat": 0.0, "lat": 38.90232266666667, "name": "bb1f3e906737cb40e99954d700e670db", "fusion_lon": 0.0, "bike_id": "bb1f3e906737cb40e99954d700e670db", "is_disabled": 0, "is_reserved": 0}, {"rental_uris": {"ios": "https://dc.lft.to/lastmile_qr_scan", "android": "https://dc.lft.to/lastmile_qr_scan"}, "lon": -77.04288116666666, "type": "electric_scooter", "fusion_lat": 0.0, "lat": 38.90783666666667, "name": "c69fcdee75e104bba4a19cb6c4ccd5eb", "fusion_lon": 0.0, "bike_id": "c69fcdee75e104bba4a19cb6c4ccd5eb", "is_disabled": 0, "is_reserved": 0}, {"rental_uris": {"ios": "https://dc.lft.to/lastmile_qr_scan", "android": "https://dc.lft.to/lastmile_qr_scan"}, "lon": -77.01638783333334, "type": "electric_scooter", "fusion_lat": 0.0, "lat": 38.929375, "name": "ab2b975627c62af414eb00d8b2a109fa", "fusion_lon": 0.0, "bike_id": "ab2b975627c62af414eb00d8b2a109fa", "is_disabled": 0, "is_reserved": 0}, {"rental_uris": {"ios": "https://dc.lft.to/lastmile_qr_scan", "android": "https://dc.lft.to/lastmile_qr_scan"}, "lon": -77.06939516666667, "type": "electric_scooter", "fusion_lat": 0.0, "lat": 38.905091, "name": "7fced7e6313823c43429a81b8c2e018b", "fusion_lon": 0.0, "bike_id": "7fced7e6313823c43429a81b8c2e018b", "is_disabled": 0, "is_reserved": 0}, {"rental_uris": {"ios": "https://dc.lft.to/lastmile_qr_scan", "android": "https://dc.lft.to/lastmile_qr_scan"}, "lon": -77.051525, "type": "electric_scooter", "fusion_lat": 0.0, "lat": 38.92384216666667, "name": "dd4485358cdd54152745a544abc15966", "fusion_lon": 0.0, "bike_id": "dd4485358cdd54152745a544abc15966", "is_disabled": 0, "is_reserved": 0}, {"rental_uris": {"ios": "https://dc.lft.to/lastmile_qr_scan", "android": "https://dc.lft.to/lastmile_qr_scan"}, "lon": -77.02539566666667, "type": "electric_scooter", "fusion_lat": 0.0, "lat": 38.91483733333333, "name": "e825d4e8bafc9617588f4995a85dc45f", "fusion_lon": 0.0, "bike_id": "e825d4e8bafc9617588f4995a85dc45f", "is_disabled": 0, "is_reserved": 0}, {"rental_uris": {"ios": "https://dc.lft.to/lastmile_qr_scan", "android": "https://dc.lft.to/lastmile_qr_scan"}, "lon": -77.05997516666666, "type": "electric_scooter", "fusion_lat": 0.0, "lat": 38.905159166666664, "name": "23cf1a6fbe70729236a62107225a3cf6", "fusion_lon": 0.0, "bike_id": "23cf1a6fbe70729236a62107225a3cf6", "is_disabled": 0, "is_reserved": 0}, {"rental_uris": {"ios": "https://dc.lft.to/lastmile_qr_scan", "android": "https://dc.lft.to/lastmile_qr_scan"}, "lon": -77.00892566666667, "type": "electric_scooter", "fusion_lat": 0.0, "lat": 38.905218, "name": "f5096076e5acfc3be81e984ee83b1de7", "fusion_lon": 0.0, "bike_id": "f5096076e5acfc3be81e984ee83b1de7", "is_disabled": 0, "is_reserved": 0}, {"rental_uris": {"ios": "https://dc.lft.to/lastmile_qr_scan", "android": "https://dc.lft.to/lastmile_qr_scan"}, "lon": -77.02198316666667, "type": "electric_scooter", "fusion_lat": 0.0, "lat": 38.914230833333335, "name": "8b7ef613d1b2be5be0e228535dd1ff8b", "fusion_lon": 0.0, "bike_id": "8b7ef613d1b2be5be0e228535dd1ff8b", "is_disabled": 0, "is_reserved": 0}, {"rental_uris": {"ios": "https://dc.lft.to/lastmile_qr_scan", "android": "https://dc.lft.to/lastmile_qr_scan"}, "lon": -77.03830666666667, "type": "electric_scooter", "fusion_lat": 0.0, "lat": 38.921715, "name": "6d41f5bd4aa94a01274c0ded97a4b1f3", "fusion_lon": 0.0, "bike_id": "6d41f5bd4aa94a01274c0ded97a4b1f3", "is_disabled": 0, "is_reserved": 0}, {"rental_uris": {"ios": "https://dc.lft.to/lastmile_qr_scan", "android": "https://dc.lft.to/lastmile_qr_scan"},