{"data": {"bikes": [{"fusion_lat": 0.0, "type": "electric_scooter", "bike_id": "eac43cd234f75a41a0bc49d573e12c8e", "lat": 38.904919166666666, "name": "eac43cd234f75a41a0bc49d573e12c8e", "is_disabled": 0, "rental_uris": {"android": "https://dc.lft.to/lastmile_qr_scan", "ios": "https://dc.lft.to/lastmile_qr_scan"}, "fusion_lon": 0.0, "lon": -77.0293175, "is_reserved": 0}, {"fusion_lat": 0.0, "type": "electric_bike", "bike_id": "d4285d412623f154c586baa5fd08ce2d", "lat": 38.90614633333333, "name": "d4285d412623f154c586baa5fd08ce2d", "is_disabled": 0, "rental_uris": {"android": "https://dc.lft.to/lastmile_qr_scan", "ios": "https://dc.lft.to/lastmile_qr_scan"}, "fusion_lon": 0.0, "lon": -77.12871083333333, "is_reserved": 0}, {"fusion_lat": 0.0, "type": "electric_scooter", "bike_id": "1ae0bd6a3041929d0859d9d6cc703063", "lat": 38.91415383333333, "name": "1ae0bd6a3041929d0859d9d6cc703063", "is_disabled": 0, "rental_uris": {"android": "https://dc.lft.to/lastmile_qr_scan", "ios": "https://dc.lft.to/lastmile_qr_scan"}, "fusion_lon": 0.0, "lon": -77.01801833333333, "is_reserved": 0}, {"fusion_lat": 0.0, "type": "electric_scooter", "bike_id": "5aaaf48fa3f6614f8cd0cbb4c370af45", "lat": 38.929817166666666, "name": "5aaaf48fa3f6614f8cd0cbb4c370af45", "is_disabled": 0, "rental_uris": {"android": "https://dc.lft.to/lastmile_qr_scan", "ios": "https://dc.lft.to/lastmile_qr_scan"}, "fusion_lon": 0.0, "lon": -77.03467266666667, "is_reserved": 0}, {"fusion_lat": 0.0, "type": "electric_scooter", "bike_id": "cc059887075f3527266d10626ae0494b", "lat": 38.895247833333336, "name": "cc059887075f3527266d10626ae0494b", "is_disabled": 0, "rental_uris": {"android": "https://dc.lft.to/lastmile_qr_scan", "ios": "https://dc.lft.to/lastmile_qr_scan"}, "fusion_lon": 0.0, "lon": -77.00340483333333, "is_reserved": 0}, {"fusion_lat": 0.0, "type": "electric_scooter", "bike_id": "da9cb717fc37b0adcddd131c15ce40ab", "lat": 38.908131166666664, "name": "da9cb717fc37b0adcddd131c15ce40ab", "is_disabled": 0, "rental_uris": {"android": "https://dc.lft.to/lastmile_qr_scan", "ios": "https://dc.lft.to/lastmile_qr_scan"}, "fusion_lon": 0.0, "lon": -76.997045, "is_reserved": 0}, {"fusion_lat": 0.0, "type": "electric_scooter", "bike_id": "ace560713eec6f77839bb480650e75dd", "lat": 38.90974716666667, "name": "ace560713eec6f77839bb480650e75dd", "is_disabled": 0, "rental_uris": {"android": "https://dc.lft.to/lastmile_qr_scan", "ios": "https://dc.lft.to/lastmile_qr_scan"}, "fusion_lon": 0.0, "lon": -76.98464016666667, "is_reserved": 0}, {"fusion_lat": 0.0, "type": "electric_scooter", "bike_id": "e56575a1933a8f477603717f51c657e7", "lat": 38.900937166666665, "name": "e56575a1933a8f477603717f51c657e7", "is_disabled": 0, "rental_uris": {"android": "https://dc.lft.to/lastmile_qr_scan", "ios": "https://dc.lft.to/lastmile_qr_scan"}, "fusion_lon": 0.0, "lon": -76.976819, "is_reserved": 0}, {"fusion_lat": 0.0, "type": "electric_scooter", "bike_id": "abaec9ad1aa46a9b41f5a8a722b91ebf", "lat": 38.8825465, "name": "abaec9ad1aa46a9b41f5a8a722b91ebf", "is_disabled": 0, "rental_uris": {"android": "https://dc.lft.to/lastmile_qr_scan", "ios": "https://dc.lft.to/lastmile_qr_scan"}, "fusion_lon": 0.0, "lon": -77.0037295, "is_reserved": 0}, {"fusion_lat": 0.0, "type": "electric_scooter", "bike_id": "222e5ed73288020eafd9ba77271e3fb5", "lat": 38.897277333333335, "name": "222e5ed73288020eafd9ba77271e3fb5", "is_disabled": 0, "rental_uris": {"android": "https://dc.lft.to/lastmile_qr_scan", "ios": "https://dc.lft.to/lastmile_qr_scan"}, "fusion_lon": 0.0, "lon": -77.04743083333334, "is_reserved": 0}, {"fusion_lat": 0.0, "type": "electric_scooter", "bike_id": "55a4d76213e87eacd7e85e7688134802", "lat": 38.92468, "name": "55a4d76213e87eacd7e85e7688134802", "is_disabled": 0, "rental_uris": {"android": "https://dc.lft.to/lastmile_qr_scan", "ios": "https://dc.lft.to/lastmile_qr_scan"}, "fusion_lon": 0.0, "lon": -77.02221433333334, "is_reserved": 0}, {"fusion_lat": 0.0, "type": "electric_scooter", "bike_id": "e6aad4063d310a793367d29b594ed15f", "lat": 38.9043165, "name": "e6aad4063d310a793367d29b594ed15f", "is_disabled": 0, "rental_uris": {"android": "https://dc.lft.to/lastmile_qr_scan", "ios": "https://dc.lft.to/lastmile_qr_scan"}, "fusion_lon": 0.0, "lon": -77.0531885, "is_reserved": 0}, {"fusion_lat": 0.0, "type": "electric_scooter", "bike_id": "571ffec83909a9e312e62357b249e082", "lat": 38.9271775, "name": "571ffec83909a9e312e62357b249e082", "is_disabled": 0, "rental_uris": {"android": "https://dc.lft.to/lastmile_qr_scan", "ios": "https://dc.lft.to/lastmile_qr_scan"}, "fusion_lon": 0.0, "lon": -77.059883, "is_reserved": 0}, {"fusion_lat": 0.0, "type": "electric_scooter", "bike_id": "da2f8244c7658c91de537a90e8a3857c", "lat": 38.9428355, "name": "da2f8244c7658c91de537a90e8a3857c", "is_disabled": 0, "rental_uris": {"android": "https://dc.lft.to/lastmile_qr_scan", "ios": "https://dc.lft.to/lastmile_qr_scan"}, "fusion_lon": 0.0, "lon": -77.0293635, "is_reserved": 0}, {"fusion_lat": 0.0, "type": "electric_scooter", "bike_id": "e416388484e68ef495dc8718f12905d2", "lat": 38.9354075, "name": "e416388484e68ef495dc8718f12905d2", "is_disabled": 0, "rental_uris": {"android": "https://dc.lft.to/lastmile_qr_scan", "ios": "https://dc.lft.to/lastmile_qr_scan"}, "fusion_lon": 0.0, "lon": -77.0309015, "is_reserved": 0}, {"fusion_lat": 0.0, "type": "electric_scooter", "bike_id": "9074b7e49ec4d56c73d0b405ac74a8f9", "lat": 38.94453733333334, "name": "9074b7e49ec4d56c73d0b405ac74a8f9", "is_disabled": 0, "rental_uris": {"android": "https://dc.lft.to/lastmile_qr_scan", "ios": "https://dc.lft.to/lastmile_qr_scan"}, "fusion_lon": 0.0, "lon": -77.02337883333334, "is_reserved": 0}, {"fusion_lat": 0.0, "type": "electric_scooter", "bike_id": "50e39f053cd86aab94f36842b356c17e", "lat": 38.893640166666664, "name": "50e39f053cd86aab94f36842b356c17e", "is_disabled": 0, "rental_uris": {"android": "https://dc.lft.to/lastmile_qr_scan", "ios": "https://dc.lft.to/lastmile_qr_scan"}, "fusion_lon": 0.0, "lon": -77.0280485, "is_reserved": 0}, {"fusion_lat": 0.0, "type": "electric_scooter", "bike_id": "3cc10941b6189aed31cf839c665c6717", "lat": 38.89823283333333, "name": "3cc10941b6189aed31cf839c665c6717", "is_disabled": 0, "rental_uris": {"android": "https://dc.lft.to/lastmile_qr_scan", "ios": "https://dc.lft.to/lastmile_qr_scan"}, "fusion_lon": 0.0, "lon": -77.01206966666666, "is_reserved": 0}, {"fusion_lat": 0.0, "type": "electric_bike", "bike_id": "1ad02472e6ae5453121a99017557004e", "lat": 38.897831333333336, "name": "1ad02472e6ae5453121a99017557004e", "is_disabled": 0, "rental_uris": {"android": "https://dc.lft.to/lastmile_qr_scan", "ios": "https://dc.lft.to/lastmile_qr_scan"}, "fusion_lon": 0.0, "lon": -77.0135815, "is_reserved": 0}, {"fusion_lat": 0.0, "type": "electric_bike", "bike_id": "df91e6fe61d4e5475e6cd950c06238e5", "lat": 38.99672133333333, "name": "df91e6fe61d4e5475e6cd950c06238e5", "is_disabled": 0, "rental_uris": {"android": "https://dc.lft.to/lastmile_qr_scan", "ios": "https://dc.lft.to/lastmile_qr_scan"}, "fusion_lon": 0.0, "lon": -77.03786566666666, "is_reserved": 0}, {"fusion_lat": 0.0, "type": "electric_scooter", "bike_id": "2163cbb27b8f6f5b8f25d2e6634e0161", "lat": 38.91737583333333, "name": "2163cbb27b8f6f5b8f25d2e6634e0161", "is_disabled": 0, "rental_uris": {"android": "https://dc.lft.to/lastmile_qr_scan", "ios": "https://dc.lft.to/lastmile_qr_scan"}, "fusion_lon": 0.0, "lon": -77.02115233333333, "is_reserved": 0}, {"fusion_lat": 0.0, "type": "electric_scooter", "bike_id": "af726f789b6ee6b726624f5268126d11", "lat": 38.921586833333336, "name": "af726f789b6ee6b726624f5268126d11", "is_disabled": 0, "rental_uris": {"android": "https://dc.lft.to/lastmile_qr_scan", "ios": "https://dc.lft.to/lastmile_qr_scan"}, "fusion_lon": 0.0, "lon": -77.03327166666666, "is_reserved": 0}, {"fusion_lat": 0.0, "type": "electric_scooter", "bike_id": "265c7f5c74e1eef25c8a57c4cdd706fa", "lat": 38.88460883333333, "name": "265c7f5c74e1eef25c8a57c4cdd706fa", "is_disabled": 0, "rental_uris": {"android": "https://dc.lft.to/lastmile_qr_scan", "ios": "https://dc.lft.to/lastmile_qr_scan"}, "fusion_lon": 0.0, "lon": -76.92957966666667, "is_reserved": 0}, {"fusion_lat": 0.0, "type": "electric_scooter", "bike_id": "5bdaa1c19d2e9df7e9394a3ce81d9b9e", "lat": 38.94918883333333, "name": "5bdaa1c19d2e9df7e9394a3ce81d9b9e", "is_disabled": 0, "rental_uris": {"android": "https://dc.lft.to/lastmile_qr_scan", "ios": "https://dc.lft.to/lastmile_qr_scan"}, "fusion_lon": 0.0, "lon": -77.01858383333334, "is_reserved": 0}, {"fusion_lat": 0.0, "type": "electric_scooter", "bike_id": "ce548214ca956b6b11398a2fc93b1a84", "lat": 38.902728833333335, "name": "ce548214ca956b6b11398a2fc93b1a84", "is_disabled": 0, "rental_uris": {"android": "https://dc.lft.to/lastmile_qr_scan", "ios": "https://dc.lft.to/lastmile_qr_scan"}, "fusion_lon": 0.0, "lon": -77.06007133333334, "is_reserved": 0}, {"fusion_lat": 0.0, "type": "electric_scooter", "bike_id": "7077732a1aaa7350a4322c3f07f22c36", "lat": 38.87423533333333, "name": "7077732a1aaa7350a4322c3f07f22c36", "is_disabled": 0, "rental_uris": {"android": "https://dc.lft.to/lastmile_qr_scan", "ios": "https://dc.lft.to/lastmile_qr_scan"}, "fusion_lon": 0.0, "lon": -77.00055233333333, "is_reserved": 0}, {"fusion_lat": 0.0, "type": "electric_scooter", "bike_id": "19fd0d8ed1ce64dc142dddbb4c3495af", "lat": 38.903909166666665, "name": "19fd0d8ed1ce64dc142dddbb4c3495af", "is_disabled": 0, "rental_uris": {"android": "https://dc.lft.to/lastmile_qr_scan", "ios": "https://dc.lft.to/lastmile_qr_scan"}, "fusion_lon": 0.0, "lon": -77.04759033333333, "is_reserved": 0}, {"fusion_lat": 0.0, "type": "electric_scooter", "bike_id": "98b949a1476792986602463cf61e22d2", "lat": 38.887276, "name": "98b949a1476792986602463cf61e22d2", "is_disabled": 0, "rental_uris": {"android": "https://dc.lft.to/lastmile_qr_scan", "ios": "https://dc.lft.to/lastmile_qr_scan"}, "fusion_lon": 0.0, "lon": -76.98340316666666, "is_reserved": 0}, {"fusion_lat": 0.0, "type": "electric_scooter", "bike_id": "a9e8307db7ead28e394a98c7e35433e1", "lat": 38.896263833333336, "name": "a9e8307db7ead28e394a98c7e35433e1", "is_disabled": 0, "rental_uris": {"android": "https://dc.lft.to/lastmile_qr_scan", "ios": "https://dc.lft.to/lastmile_qr_scan"}, "fusion_lon": 0.0, "lon": -76.98572016666667, "is_reserved": 0}, {"fusion_lat": 0.0, "type": "electric_scooter", "bike_id": "6c8722e148c7b1759b41c0655469812a", "lat": 38.9262055, "name": "6c8722e148c7b1759b41c0655469812a", "is_disabled": 0, "rental_uris": {"android": "https://dc.lft.to/lastmile_qr_scan", "ios": "https://dc.lft.to/lastmile_qr_scan"}, "fusion_lon": 0.0, "lon": -77.04326833333333, "is_reserved": 0}, {"fusion_lat": 0.0, "type": "electric_scooter", "bike_id": "b01350f79c83016dc580566dc73b6406", "lat": 38.90398733333333, "name": "b01350f79c83016dc580566dc73b6406", "is_disabled": 0, "rental_uris": {"android": "https://dc.lft.to/lastmile_qr_scan", "ios": "https://dc.lft.to/lastmile_qr_scan"}, "fusion_lon": 0.0, "lon": -77.03478666666666, "is_reserved": 0}, {"fusion_lat": 0.0, "type": "electric_scooter", "bike_id": "6ba9c6636b7870292f515bde2d225fda", "lat": 38.88748566666666, "name": "6ba9c6636b7870292f515bde2d225fda", "is_disabled": 0, "rental_uris": {"android": "https://dc.lft.to/lastmile_qr_scan", "ios": "https://dc.lft.to/lastmile_qr_scan"}, "fusion_lon": 0.0, "lon": -77.03148583333333, "is_reserved": 0}, {"fusion_lat": 0.0, "type": "electric_scooter", "bike_id": "a29b729f2d84af6a676124cb6031cfd0", "lat": 38.967963, "name": "a29b729f2d84af6a676124cb6031cfd0", "is_disabled": 0, "rental_uris": {"android": "https://dc.lft.to/lastmile_qr_scan", "ios": "https://dc.lft.to/lastmile_qr_scan"}, "fusion_lon": 0.0, "lon": -77.0241105, "is_reserved": 0}, {"fusion_lat": 0.0, "type": "electric_scooter", "bike_id": "5da6117391798578bb495cba25c26d6e", "lat": 38.885781333333334, "name": "5da6117391798578bb495cba25c26d6e", "is_disabled": 0, "rental_uris": {"android": "https://dc.lft.to/lastmile_qr_scan", "ios": "https://dc.lft.to/lastmile_qr_scan"}, "fusion_lon": 0.0, "lon": -77.00057366666667, "is_reserved": 0}, {"fusion_lat": 0.0, "type": "electric_scooter", "bike_id": "af7cca2c172f6dc93454266d70a58429", "lat": 38.8792395, "name": "af7cca2c172f6dc93454266d70a58429", "is_disabled": 0, "rental_uris": {"android": "https://dc.lft.to/lastmile_qr_scan", "ios": "https://dc.lft.to/lastmile_qr_scan"}, "fusion_lon": 0.0, "lon": -77.02373616666667, "is_reserved": 0}, {"fusion_lat": 0.0, "type": "electric_scooter", "bike_id": "26b16eb30e8ee7f358584758f015201b", "lat": 38.924398333333336, "name": "26b16eb30e8ee7f358584758f015201b", "is_disabled": 0, "rental_uris": {"android": "https://dc.lft.to/lastmile_qr_scan", "ios": "https://dc.lft.to/lastmile_qr_scan"}, "fusion_lon": 0.0, "lon": -77.02158566666667, "is_reserved": 0}, {"fusion_lat": 0.0, "type": "electric_bike", "bike_id": "afca9704839db042c146e69af31c0bfc", "lat": 38.85601666666667, "name": "afca9704839db042c146e69af31c0bfc", "is_disabled": 0, "rental_uris": {"android": "https://dc.lft.to/lastmile_qr_scan", "ios": "https://dc.lft.to/lastmile_qr_scan"}, "fusion_lon": 0.0, "lon": -76.972765, "is_reserved": 0}, {"fusion_lat": 0.0, "type": "electric_scooter", "bike_id": "b879d9b4647307433bb3efcd0048aa2d", "lat": 38.906191166666666, "name": "b879d9b4647307433bb3efcd0048aa2d", "is_disabled": 0, "rental_uris": {"android": "https://dc.lft.to/lastmile_qr_scan", "ios": "https://dc.lft.to/lastmile_qr_scan"}, "fusion_lon": 0.0, "lon": -77.00584516666666, "is_reserved": 0}, {"fusion_lat": 0.0, "type": "electric_bike", "bike_id": "1d9d8fec4472042bc5afe6f96c9f8ee0", "lat": 38.98557783333333, "name": "1d9d8fec4472042bc5afe6f96c9f8ee0", "is_disabled": 0, "rental_uris": {"android": "https://dc.lft.to/lastmile_qr_scan", "ios": "https://dc.lft.to/lastmile_qr_scan"}, "fusion_lon": 0.0, "lon": -77.00401716666667, "is_reserved": 0}, {"fusion_lat": 0.0, "type": "electric_scooter", "bike_id": "59171110d004784d5ffb67d8533f97d3", "lat": 38.92122533333333, "name": "59171110d004784d5ffb67d8533f97d3", "is_disabled": 0, "rental_uris": {"android": "https://dc.lft.to/lastmile_qr_scan", "ios": "https://dc.lft.to/lastmile_qr_scan"}, "fusion_lon": 0.0, "lon": -77.03935416666667, "is_reserved": 0}, {"fusion_lat": 0.0, "type": "electric_scooter", "bike_id": "20458773cf37e8bfafe8fbf24d2635b6", "lat": 38.924361, "name": "20458773cf37e8bfafe8fbf24d2635b6", "is_disabled": 0, "rental_uris": {"android": "https://dc.lft.to/lastmile_qr_scan", "ios": "https://dc.lft.to/lastmile_qr_scan"}, "fusion_lon": 0.0, "lon": -77.04250383333333, "is_reserved": 0}, {"fusion_lat": 0.0, "type": "electric_scooter", "bike_id": "033f9fd32f3af552a951bfaab6a8a21d", "lat": 38.9233315, "name": "033f9fd32f3af552a951bfaab6a8a21d", "is_disabled": 0, "rental_uris": {"android": "https://dc.lft.to/lastmile_qr_scan", "ios": "https://dc.lft.to/lastmile_qr_scan"}, "fusion_lon": 0.0, "lon": -77.00892516666667, "is_reserved": 0}, {"fusion_lat": 0.0, "type": "electric_scooter", "bike_id": "e6dfb89a220bb2e3206b3e52cd38daa6", "lat": 38.92687516666667, "name": "e6dfb89a220bb2e3206b3e52cd38daa6", "is_disabled": 0, "rental_uris": {"android": "https://dc.lft.to/lastmile_qr_scan", "ios": "https://dc.lft.to/lastmile_qr_scan"}, "fusion_lon": 0.0, "lon": -77.015706, "is_reserved": 0}, {"fusion_lat": 0.0, "type": "electric_scooter", "bike_id": "1b8504402f4d63a04c4b356db0f1d7d3", "lat": 38.898418, "name": "1b8504402f4d63a04c4b356db0f1d7d3", "is_disabled": 0, "rental_uris": {"android": "https://dc.lft.to/lastmile_qr_scan", "ios": "https://dc.lft.to/lastmile_qr_scan"}, "fusion_lon": 0.0, "lon": -77.049845, "is_reserved": 0}, {"fusion_lat": 0.0, "type": "electric_bike", "bike_id": "f995109b246e17008f284fab25980e6f", "lat": 38.880329, "name": "f995109b246e17008f284fab25980e6f", "is_disabled": 0, "rental_uris": {"android": "https://dc.lft.to/lastmile_qr_scan", "ios": "https://dc.lft.to/lastmile_qr_scan"}, "fusion_lon": 0.0, "lon": -76.91721966666667, "is_reserved": 0}, {"fusion_lat": 0.0, "type": "electric_scooter", "bike_id": "811512fc8fd00ec57702b3fb3369133d", "lat": 38.89899166666667, "name": "811512fc8fd00ec57702b3fb3369133d", "is_disabled": 0, "rental_uris": {"android": "https://dc.lft.to/lastmile_qr_scan", "ios": "https://dc.lft.to/lastmile_qr_scan"}, "fusion_lon": 0.0, "lon": -77.01427466666667, "is_reserved": 0}, {"fusion_lat": 0.0, "type": "electric_scooter", "bike_id": "6cce2a161d6ada2615567557a025b6f7", "lat": 38.955441666666665, "name": "6cce2a161d6ada2615567557a025b6f7", "is_disabled": 0, "rental_uris": {"android": "https://dc.lft.to/lastmile_qr_scan", "ios": "https://dc.lft.to/lastmile_qr_scan"}, "fusion_lon": 0.0, "lon": -77.02782383333333, "is_reserved": 0}, {"fusion_lat": 0.0, "type": "electric_scooter", "bike_id": "239ef0bc605bc5418edc3dadb9823da9", "lat": 38.923716, "name": "239ef0bc605bc5418edc3dadb9823da9", "is_disabled": 0, "rental_uris": {"android": "https://dc.lft.to/lastmile_qr_scan", "ios": "https://dc.lft.to/lastmile_qr_scan"}, "fusion_lon": 0.0, "lon": -77.02069, "is_reserved": 0}, {"fusion_lat": 0.0, "type": "electric_scooter", "bike_id": "63dbb12e862d3c1548ed7a0d28650c19", "lat": 38.9052195, "name": "63dbb12e862d3c1548ed7a0d28650c19", "is_disabled": 0, "rental_uris": {"android": "https://dc.lft.to/lastmile_qr_scan", "ios": "https://dc.lft.to/lastmile_qr_scan"}, "fusion_lon": 0.0, "lon": -77.06034566666666, "is_reserved": 0}, {"fusion_lat": 0.0, "type": "electric_scooter", "bike_id": "6e0c686877aaa08eef2aa1f8c9949efc", "lat": 38.90658, "name": "6e0c686877aaa08eef2aa1f8c9949efc", "is_disabled": 0, "rental_uris": {"android": "https://dc.lft.to/lastmile_qr_scan", "ios": "https://dc.lft.to/lastmile_qr_scan"}, "fusion_lon": 0.0, "lon": -77.0141375, "is_reserved": 0}, {"fusion_lat": 0.0, "type": "electric_scooter", "bike_id": "728b241896f72b297cc962182565d8d4", "lat": 38.90741766666667, "name": "728b241896f72b297cc962182565d8d4", "is_disabled": 0, "rental_uris": {"android": "https://dc.lft.to/lastmile_qr_scan", "ios": "https://dc.lft.to/lastmile_qr_scan"}, "fusion_lon": 0.0, "lon": -77.0280725, "is_reserved": 0}, {"fusion_lat": 0.0, "type": "electric_scooter", "bike_id": "5e337f7f178b6a0ad89d817f032a4901", "lat": 38.93288883333334, "name": "5e337f7f178b6a0ad89d817f032a4901", "is_disabled": 0, "rental_uris": {"android": "https://dc.lft.to/lastmile_qr_scan", "ios": "https://dc.lft.to/lastmile_qr_scan"}, "fusion_lon": 0.0, "lon": -77.03982966666666, "is_reserved": 0}, {"fusion_lat": 0.0, "type": "electric_scooter", "bike_id": "120e9e1d4778db895f641543a4e0a6ec", "lat": 38.904387166666666, "name": "120e9e1d4778db895f641543a4e0a6ec", "is_disabled": 0, "rental_uris": {"android": "https://dc.lft.to/lastmile_qr_scan", "ios": "https://dc.lft.to/lastmile_qr_scan"}, "fusion_lon": 0.0, "lon": -77.053389, "is_reserved": 0}, {"fusion_lat": 0.0, "type": "electric_scooter", "bike_id": "3f89cf05f4471eb0af7f99eafa863281", "lat": 38.89912233333333, "name": "3f89cf05f4471eb0af7f99eafa863281", "is_disabled": 0, "rental_uris": {"android": "https://dc.lft.to/lastmile_qr_scan", "ios": "https://dc.lft.to/lastmile_qr_scan"}, "fusion_lon": 0.0, "lon": -77.0420285, "is_reserved": 0}, {"fusion_lat": 0.0, "type": "electric_scooter", "bike_id": "11565e8f43c5931391ea346a018c775a", "lat": 38.924729, "name": "11565e8f43c5931391ea346a018c775a", "is_disabled": 0, "rental_uris": {"android": "https://dc.lft.to/lastmile_qr_scan", "ios": "https://dc.lft.to/lastmile_qr_scan"}, "fusion_lon": 0.0, "lon": -77.02200166666667, "is_reserved": 0}, {"fusion_lat": 0.0, "type": "electric_scooter", "bike_id": "726e2bc43c4334b016905305f1689e9c", "lat": 38.925544333333335, "name": "726e2bc43c4334b016905305f1689e9c", "is_disabled": 0, "rental_uris": {"android": "https://dc.lft.to/lastmile_qr_scan", "ios": "https://dc.lft.to/lastmile_qr_scan"}, "fusion_lon": 0.0, "lon": -77.022791, "is_reserved": 0}, {"fusion_lat": 0.0, "type": "electric_scooter", "bike_id": "0b6b96bb1e25d3ca3e083144ed220bdd", "lat": 38.91650466666667, "name": "0b6b96bb1e25d3ca3e083144ed220bdd", "is_disabled": 0, "rental_uris": {"android": "https://dc.lft.to/lastmile_qr_scan", "ios": "https://dc.lft.to/lastmile_qr_scan"}, "fusion_lon": 0.0, "lon": -77.02257866666666, "is_reserved": 0}, {"fusion_lat": 0.0, "type": "electric_scooter", "bike_id": "a57d8a00a64b64ee74677dbfe470ab16", "lat": 38.921111833333335, "name": "a57d8a00a64b64ee74677dbfe470ab16", "is_disabled": 0, "rental_uris": {"android": "https://dc.lft.to/lastmile_qr_scan", "ios": "https://dc.lft.to/lastmile_qr_scan"}, "fusion_lon": 0.0, "lon": -77.040141, "is_reserved": 0}, {"fusion_lat": 0.0, "type": "electric_scooter", "bike_id": "7f58521ec1b7d088f70cce46b70d502e", "lat": 38.9261515, "name": "7f58521ec1b7d088f70cce46b70d502e", "is_disabled": 0, "rental_uris": {"android": "https://dc.lft.to/lastmile_qr_scan", "ios": "https://dc.lft.to/lastmile_qr_scan"}, "fusion_lon": 0.0, "lon": -77.02159516666667, "is_reserved": 0}, {"fusion_lat": 0.0, "type": "electric_scooter", "bike_id": "ed9281791fd955827605603ca7ac2b33", "lat": 38.884299, "name": "ed9281791fd955827605603ca7ac2b33", "is_disabled": 0, "rental_uris": {"android": "https://dc.lft.to/lastmile_qr_scan", "ios": "https://dc.lft.to/lastmile_qr_scan"}, "fusion_lon": 0.0, "lon": -76.99596983333333, "is_reserved": 0}, {"fusion_lat": 0.0, "type": "electric_scooter", "bike_id": "fafef9e7112a544aa874ec39ec566f1e", "lat": 38.928921, "name": "fafef9e7112a544aa874ec39ec566f1e", "is_disabled": 0, "rental_uris": {"android": "https://dc.lft.to/lastmile_qr_scan", "ios": "https://dc.lft.to/lastmile_qr_scan"}, "fusion_lon": 0.0, "lon": -77.01655366666667, "is_reserved": 0}, {"fusion_lat": 0.0, "type": "electric_scooter", "bike_id": "551ee3acd704562058708bf71150b6ea", "lat": 38.917162, "name": "551ee3acd704562058708bf71150b6ea", "is_disabled": 0, "rental_uris": {"android": "https://dc.lft.to/lastmile_qr_scan", "ios": "https://dc.lft.to/lastmile_qr_scan"}, "fusion_lon": 0.0, "lon": -77.0229785, "is_reserved": 0}, {"fusion_lat": 0.0, "type": "electric_bike", "bike_id": "bc5aa8671e80ef6d9458645d9a6cc662", "lat": 38.900413, "name": "bc5aa8671e80ef6d9458645d9a6cc662", "is_disabled": 0, "rental_uris": {"android": "https://dc.lft.to/lastmile_qr_scan", "ios": "https://dc.lft.to/lastmile_qr_scan"}, "fusion_lon": 0.0, "lon": -77.02986633333333, "is_reserved": 0}, {"fusion_lat": 0.0, "type": "electric_scooter", "bike_id": "22e4b77f3f27109cddf8d6247535a7cd", "lat": 38.919078166666665, "name": "22e4b77f3f27109cddf8d6247535a7cd", "is_disabled": 0, "rental_uris": {"android": "https://dc.lft.to/lastmile_qr_scan", "ios": "https://dc.lft.to/lastmile_qr_scan"}, "fusion_lon": 0.0, "lon": -77.02135416666667, "is_reserved": 0}, {"fusion_lat": 0.0, "type": "electric_scooter", "bike_id": "d40951381a4ff1d599ec9be93a90f22b", "lat": 38.918210333333334, "name": "d40951381a4ff1d599ec9be93a90f22b", "is_disabled": 0, "rental_uris": {"android": "https://dc.lft.to/lastmile_qr_scan", "ios": "https://dc.lft.to/lastmile_qr_scan"}, "fusion_lon": 0.0, "lon": -77.027705, "is_reserved": 0}, {"fusion_lat": 0.0, "type": "electric_scooter", "bike_id": "12a63368e0af340c07141af59f7bca06", "lat": 38.904849666666664, "name": "12a63368e0af340c07141af59f7bca06", "is_disabled": 0, "rental_uris": {"android": "https://dc.lft.to/lastmile_qr_scan", "ios": "https://dc.lft.to/lastmile_qr_scan"}, "fusion_lon": 0.0, "lon": -77.03473416666667, "is_reserved": 0}, {"fusion_lat": 0.0, "type": "electric_bike", "bike_id": "f42af41d2f42d50bb4d9f7ea3a0c33bc", "lat": 38.85065616666667, "name": "f42af41d2f42d50bb4d9f7ea3a0c33bc", "is_disabled": 0, "rental_uris": {"android": "https://dc.lft.to/lastmile_qr_scan", "ios": "https://dc.lft.to/lastmile_qr_scan"}, "fusion_lon": 0.0, "lon": -76.95830533333333, "is_reserved": 0}, {"fusion_lat": 0.0, "type": "electric_scooter", "bike_id": "2a24cf2a2d606dfd1bb5a30892d3c081", "lat": 38.90035366666667, "name": "2a24cf2a2d606dfd1bb5a30892d3c081", "is_disabled": 0, "rental_uris": {"android": "https://dc.lft.to/lastmile_qr_scan", "ios": "https://dc.lft.to/lastmile_qr_scan"}, "fusion_lon": 0.0, "lon": -77.03402733333333, "is_reserved": 0}, {"fusion_lat": 0.0, "type": "electric_scooter", "bike_id": "57e3810708d53f2e3526e191d55c9dbd", "lat": 38.90888433333333, "name": "57e3810708d53f2e3526e191d55c9dbd", "is_disabled": 0, "rental_uris": {"android": "https://dc.lft.to/lastmile_qr_scan", "ios": "https://dc.lft.to/lastmile_qr_scan"}, "fusion_lon": 0.0, "lon": -76.98239483333333, "is_reserved": 0}, {"fusion_lat": 0.0, "type": "electric_scooter", "bike_id": "5c6757596db86f5dfb5892df1d8a8258", "lat": 38.9045025, "name": "5c6757596db86f5dfb5892df1d8a8258", "is_disabled": 0, "rental_uris": {"android": "https://dc.lft.to/lastmile_qr_scan", "ios": "https://dc.lft.to/lastmile_qr_scan"}, "fusion_lon": 0.0, "lon": -77.04345716666667, "is_reserved": 0}, {"fusion_lat": 0.0, "type": "electric_scooter", "bike_id": "402fce2b078785d042abf99d52cb0e50", "lat": 38.9229365, "name": "402fce2b078785d042abf99d52cb0e50", "is_disabled": 0, "rental_uris": {"android": "https://dc.lft.to/lastmile_qr_scan", "ios": "https://dc.lft.to/lastmile_qr_scan"}, "fusion_lon": 0.0, "lon": -77.02244066666667, "is_reserved": 0}, {"fusion_lat": 0.0, "type": "electric_scooter", "bike_id": "98cd71ba22090b913d7c054f74fd4d56", "lat": 38.899068, "name": "98cd71ba22090b913d7c054f74fd4d56", "is_disabled": 0, "rental_uris": {"android": "https://dc.lft.to/lastmile_qr_scan", "ios": "https://dc.lft.to/lastmile_qr_scan"}, "fusion_lon": 0.0, "lon": -77.03214083333333, "is_reserved": 0}, {"fusion_lat": 0.0, "type": "electric_scooter", "bike_id": "5564f7f0b850597ac849b5133f586fae", "lat": 38.91338483333333, "name": "5564f7f0b850597ac849b5133f586fae", "is_disabled": 0, "rental_uris": {"android": "https://dc.lft.to/lastmile_qr_scan", "ios": "https://dc.lft.to/lastmile_qr_scan"}, "fusion_lon": 0.0, "lon": -77.031933, "is_reserved": 0}, {"fusion_lat": 0.0, "type": "electric_scooter", "bike_id": "fa2fa1aec8db2153af4409aaa7ced22a", "lat": 38.880645666666666, "name": "fa2fa1aec8db2153af4409aaa7ced22a", "is_disabled": 0, "rental_uris": {"android": "https://dc.lft.to/lastmile_qr_scan", "ios": "https://dc.lft.to/lastmile_qr_scan"}, "fusion_lon": 0.0, "lon": -76.93213216666666, "is_reserved": 0}, {"fusion_lat": 0.0, "type": "electric_scooter", "bike_id": "fce2251ebdc5fc1c4e9ac14f11dfc1dd", "lat": 38.8961145, "name": "fce2251ebdc5fc1c4e9ac14f11dfc1dd", "is_disabled": 0, "rental_uris": {"android": "https://dc.lft.to/lastmile_qr_scan", "ios": "https://dc.lft.to/lastmile_qr_scan"}, "fusion_lon": 0.0, "lon": -77.02662966666666, "is_reserved": 0}, {"fusion_lat": 0.0, "type": "electric_scooter", "bike_id": "c450952de2a48d14391d35117ceef995", "lat": 38.896776333333335, "name": "c450952de2a48d14391d35117ceef995", "is_disabled": 0, "rental_uris": {"android": "https://dc.lft.to/lastmile_qr_scan", "ios": "https://dc.lft.to/lastmile_qr_scan"}, "fusion_lon": 0.0, "lon": -77.00519766666666, "is_reserved": 0}, {"fusion_lat": 0.0, "type": "electric_scooter", "bike_id": "97722b5cae49fafb3ef002f853d29199", "lat": 38.927175, "name": "97722b5cae49fafb3ef002f853d29199", "is_disabled": 0, "rental_uris": {"android": "https://dc.lft.to/lastmile_qr_scan", "ios": "https://dc.lft.to/lastmile_qr_scan"}, "fusion_lon": 0.0, "lon": -77.06004516666667, "is_reserved": 0}, {"fusion_lat": 0.0, "type": "electric_scooter", "bike_id": "1ab60fd837d131b7705edfe907106c5f", "lat": 38.92146816666666, "name": "1ab60fd837d131b7705edfe907106c5f", "is_disabled": 0, "rental_uris": {"android": "https://dc.lft.to/lastmile_qr_scan", "ios": "https://dc.lft.to/lastmile_qr_scan"}, "fusion_lon": 0.0, "lon": -77.02422016666667, "is_reserved": 0}, {"fusion_lat": 0.0, "type": "electric_scooter", "bike_id": "610aa5a3c99d4d90df53a0a1298f023e", "lat": 38.92578616666667, "name": "610aa5a3c99d4d90df53a0a1298f023e", "is_disabled": 0, "rental_uris": {"android": "https://dc.lft.to/lastmile_qr_scan", "ios": "https://dc.lft.to/lastmile_qr_scan"}, "fusion_lon": 0.0, "lon": -77.02891333333334, "is_reserved": 0}, {"fusion_lat": 0.0, "type": "electric_bike", "bike_id": "908018aff30bb67605791c15bae0e175", "lat": 38.95779116666667, "name": "908018aff30bb67605791c15bae0e175", "is_disabled": 0, "rental_uris": {"android": "https://dc.lft.to/lastmile_qr_scan", "ios": "https://dc.lft.to/lastmile_qr_scan"}, "fusion_lon": 0.0, "lon": -77.08019533333334, "is_reserved": 0}, {"fusion_lat": 0.0, "type": "electric_scooter", "bike_id": "71181c475df6114b569e198686f5967f", "lat": 38.9246195, "name": "71181c475df6114b569e198686f5967f", "is_disabled": 0, "rental_uris": {"android": "https://dc.lft.to/lastmile_qr_scan", "ios": "https://dc.lft.to/lastmile_qr_scan"}, "fusion_lon": 0.0, "lon": -77.03969083333334, "is_reserved": 0}, {"fusion_lat": 0.0, "type": "electric_scooter", "bike_id": "18af303547dd20a28030602aeadfad97", "lat": 38.896194666666666, "name": "18af303547dd20a28030602aeadfad97", "is_disabled": 0, "rental_uris": {"android": "https://dc.lft.to/lastmile_qr_scan", "ios": "https://dc.lft.to/lastmile_qr_scan"}, "fusion_lon": 0.0, "lon": -77.022598, "is_reserved": 0}, {"fusion_lat": 0.0, "type": "electric_scooter", "bike_id": "3506d04a8b0264c9623245cab1592618", "lat": 38.924171, "name": "3506d04a8b0264c9623245cab1592618", "is_disabled": 0, "rental_uris": {"android": "https://dc.lft.to/lastmile_qr_scan", "ios": "https://dc.lft.to/lastmile_qr_scan"}, "fusion_lon": 0.0, "lon": -77.02031283333334, "is_reserved": 0}, {"fusion_lat": 0.0, "type": "electric_scooter", "bike_id": "e3360e833f55104c9afb2cc98d9a048b", "lat": 38.90387666666667, "name": "e3360e833f55104c9afb2cc98d9a048b", "is_disabled": 0, "rental_uris": {"android": "https://dc.lft.to/lastmile_qr_scan", "ios": "https://dc.lft.to/lastmile_qr_scan"}, "fusion_lon": 0.0, "lon": -77.02719666666667, "is_reserved": 0}, {"fusion_lat": 0.0, "type": "electric_scooter", "bike_id": "84ea58f783e53c1eedb20cd8b1c01d3a", "lat": 38.9219325, "name": "84ea58f783e53c1eedb20cd8b1c01d3a", "is_disabled": 0, "rental_uris": {"android": "https://dc.lft.to/lastmile_qr_scan", "ios": "https://dc.lft.to/lastmile_qr_scan"}, "fusion_lon": 0.0, "lon": -77.04025216666666, "is_reserved": 0}, {"fusion_lat": 0.0, "type": "electric_scooter", "bike_id": "40f38a174afbe97e92a5cf9846a15237", "lat": 38.89359733333333, "name": "40f38a174afbe97e92a5cf9846a15237", "is_disabled": 0, "rental_uris": {"android": "https://dc.lft.to/lastmile_qr_scan", "ios": "https://dc.lft.to/lastmile_qr_scan"}, "fusion_lon": 0.0, "lon": -76.9470095, "is_reserved": 0}, {"fusion_lat": 0.0, "type": "electric_scooter", "bike_id": "5c23ecee1a52812ec5a196dfbfa3ffbc", "lat": 38.948867, "name": "5c23ecee1a52812ec5a196dfbfa3ffbc", "is_disabled": 0, "rental_uris": {"android": "https://dc.lft.to/lastmile_qr_scan", "ios": "https://dc.lft.to/lastmile_qr_scan"}, "fusion_lon": 0.0, "lon": -77.0185115, "is_reserved": 0}, {"fusion_lat": 0.0, "type": "electric_bike", "bike_id": "8dd5d90cb3800082c3fd10d196eaf741", "lat": 38.91417716666667, "name": "8dd5d90cb3800082c3fd10d196eaf741", "is_disabled": 0, "rental_uris": {"android": "https://dc.lft.to/lastmile_qr_scan", "ios": "https://dc.lft.to/lastmile_qr_scan"}, "fusion_lon": 0.0, "lon": -77.05301366666667, "is_reserved": 0}, {"fusion_lat": 0.0, "type": "electric_scooter", "bike_id": "84a2cb1252941b1503e4e1f49c5aa971", "lat": 38.903543, "name": "84a2cb1252941b1503e4e1f49c5aa971", "is_disabled": 0, "rental_uris": {"android": "https://dc.lft.to/lastmile_qr_scan", "ios": "https://dc.lft.to/lastmile_qr_scan"}, "fusion_lon": 0.0, "lon": -77.03859016666667, "is_reserved": 0}, {"fusion_lat": 0.0, "type": "electric_scooter", "bike_id": "d9ce9f53536713f7b58a928c53e714bb", "lat": 38.907836, "name": "d9ce9f53536713f7b58a928c53e714bb", "is_disabled": 0, "rental_uris": {"android": "https://dc.lft.to/lastmile_qr_scan", "ios": "https://dc.lft.to/lastmile_qr_scan"}, "fusion_lon": 0.0, "lon": -77.045133, "is_reserved": 0}, {"fusion_lat": 0.0, "type": "electric_bike", "bike_id": "d27537910f5f0e5f5105db3e89d39456", "lat": 38.80481916666667, "name": "d27537910f5f0e5f5105db3e89d39456", "is_disabled": 0, "rental_uris": {"android": "https://dc.lft.to/lastmile_qr_scan", "ios": "https://dc.lft.to/lastmile_qr_scan"}, "fusion_lon": 0.0, "lon": -76.99096983333334, "is_reserved": 0}, {"fusion_lat": 0.0, "type": "electric_bike", "bike_id": "488874d575df0fac2a086faa258abd72", "lat": 38.895684, "name": "488874d575df0fac2a086faa258abd72", "is_disabled": 0, "rental_uris": {"android": "https://dc.lft.to/lastmile_qr_scan", "ios": "https://dc.lft.to/lastmile_qr_scan"}, "fusion_lon": 0.0, "lon": -77.12741, "is_reserved": 0}, {"fusion_lat": 0.0, "type": "electric_bike", "bike_id": "af6d6890737e84ca8ba093ce6d0864d1", "lat": 38.920635833333336, "name": "af6d6890737e84ca8ba093ce6d0864d1", "is_disabled": 0, "rental_uris": {"android": "https://dc.lft.to/lastmile_qr_scan", "ios": "https://dc.lft.to/lastmile_qr_scan"}, "fusion_lon": 0.0, "lon": -76.970732, "is_reserved": 0}, {"fusion_lat": 0.0, "type": "electric_scooter", "bike_id": "98fc39dbf34fb289574772a63da2ffc4", "lat": 38.9153565, "name": "98fc39dbf34fb289574772a63da2ffc4", "is_disabled": 0, "rental_uris": {"android": "https://dc.lft.to/lastmile_qr_scan", "ios": "https://dc.lft.to/lastmile_qr_scan"}, "fusion_lon": 0.0, "lon": -77.044654, "is_reserved": 0}, {"fusion_lat": 0.0, "type": "electric_scooter", "bike_id": "c8834939eb97fa4d99bccd3cd1455a0a", "lat": 38.8992705, "name": "c8834939eb97fa4d99bccd3cd1455a0a", "is_disabled": 0, "rental_uris": {"android": "https://dc.lft.to/lastmile_qr_scan", "ios": "https://dc.lft.to/lastmile_qr_scan"}, "fusion_lon": 0.0, "lon": -76.9458115, "is_reserved": 0}, {"fusion_lat": 0.0, "type": "electric_scooter", "bike_id": "5aa108488b55a292d7cfe259573ca4db", "lat": 38.89198833333333, "name": "5aa108488b55a292d7cfe259573ca4db", "is_disabled": 0, "rental_uris": {"android": "https://dc.lft.to/lastmile_qr_scan", "ios": "https://dc.lft.to/lastmile_qr_scan"}, "fusion_lon": 0.0, "lon": -77.02382633333333, "is_reserved": 0}, {"fusion_lat": 0.0, "type": "electric_bike", "bike_id": "193d3544a9561e75e02d68c429a6f772", "lat": 39.026252166666666, "name": "193d3544a9561e75e02d68c429a6f772", "is_disabled": 0, "rental_uris": {"android": "https://dc.lft.to/lastmile_qr_scan", "ios": "https://dc.lft.to/lastmile_qr_scan"}, "fusion_lon": 0.0, "lon": -77.03883566666667, "is_reserved": 0}, {"fusion_lat": 0.0, "type": "electric_scooter", "bike_id": "e324ae0bb4ffeb187964ebd885242b45", "lat": 38.901216833333336, "name": "e324ae0bb4ffeb187964ebd885242b45", "is_disabled": 0, "rental_uris": {"android": "https://dc.lft.to/lastmile_qr_scan", "ios": "https://dc.lft.to/lastmile_qr_scan"}, "fusion_lon": 0.0, "lon": -77.033779, "is_reserved": 0}, {"fusion_lat": 0.0, "type": "electric_bike", "bike_id": "75e3b75a34d7a5ea3a1f9253e46d5ba6", "lat": 38.955395333333335, "name": "75e3b75a34d7a5ea3a1f9253e46d5ba6", "is_disabled": 0, "rental_uris": {"android": "https://dc.lft.to/lastmile_qr_scan", "ios": "https://dc.lft.to/lastmile_qr_scan"}, "fusion_lon": 0.0, "lon": -76.9567455, "is_reserved": 0}, {"fusion_lat": 0.0, "type": "electric_scooter", "bike_id": "1b5e622e7132404ac7cb902ab0b6dcb8", "lat": 38.901457666666666, "name": "1b5e622e7132404ac7cb902ab0b6dcb8", "is_disabled": 0, "rental_uris": {"android": "https://dc.lft.to/lastmile_qr_scan", "ios": "https://dc.lft.to/lastmile_qr_scan"}, "fusion_lon": 0.0, "lon": -77.045423, "is_reserved": 0}, {"fusion_lat": 0.0, "type": "electric_scooter", "bike_id": "312adb8f79e632bf531e7791d21a54b5", "lat": 38.92334916666667, "name": "312adb8f79e632bf531e7791d21a54b5", "is_disabled": 0, "rental_uris": {"android": "https://dc.lft.to/lastmile_qr_scan", "ios": "https://dc.lft.to/lastmile_qr_scan"}, "fusion_lon": 0.0, "lon": -77.04155133333333, "is_reserved": 0}, {"fusion_lat": 0.0, "type": "electric_scooter", "bike_id": "f6ced01c0824ed14f347476fa0be6627", "lat": 38.901904, "name": "f6ced01c0824ed14f347476fa0be6627", "is_disabled": 0, "rental_uris": {"android": "https://dc.lft.to/lastmile_qr_scan", "ios": "https://dc.lft.to/lastmile_qr_scan"}, "fusion_lon": 0.0, "lon": -77.04848266666667, "is_reserved": 0}, {"fusion_lat": 0.0, "type": "electric_scooter", "bike_id": "355ef958efa605e540ab1f58e0e3d5c4", "lat": 38.905292, "name": "355ef958efa605e540ab1f58e0e3d5c4", "is_disabled": 0, "rental_uris": {"android": "https://dc.lft.to/lastmile_qr_scan", "ios": "https://dc.lft.to/lastmile_qr_scan"}, "fusion_lon": 0.0, "lon": -77.05038416666666, "is_reserved": 0}, {"fusion_lat": 0.0, "type": "electric_scooter", "bike_id": "db7493e46d61ff9b1bd9aaab757b31a5", "lat": 38.93776616666667, "name": "db7493e46d61ff9b1bd9aaab757b31a5", "is_disabled": 0, "rental_uris": {"android": "https://dc.lft.to/lastmile_qr_scan", "ios": "https://dc.lft.to/lastmile_qr_scan"}, "fusion_lon": 0.0, "lon": -77.0596455, "is_reserved": 0}, {"fusion_lat": 0.0, "type": "electric_scooter", "bike_id": "237ba08faf9f68528ff8146aeea935e9", "lat": 38.88488516666666, "name": "237ba08faf9f68528ff8146aeea935e9", "is_disabled": 0, "rental_uris": {"android": "https://dc.lft.to/lastmile_qr_scan", "ios": "https://dc.lft.to/lastmile_qr_scan"}, "fusion_lon": 0.0, "lon": -77.02496166666667, "is_reserved": 0}, {"fusion_lat": 0.0, "type": "electric_scooter", "bike_id": "2e0ef484000446f0a3504845dd078fe7", "lat": 38.87740066666667, "name": "2e0ef484000446f0a3504845dd078fe7", "is_disabled": 0, "rental_uris": {"android": "https://dc.lft.to/lastmile_qr_scan", "ios": "https://dc.lft.to/lastmile_qr_scan"}, "fusion_lon": 0.0, "lon": -77.005976, "is_reserved": 0}, {"fusion_lat": 0.0, "type": "electric_scooter", "bike_id": "ff7ff553cf1871c953090d11cfbc7242", "lat": 38.929744, "name": "ff7ff553cf1871c953090d11cfbc7242", "is_disabled": 0, "rental_uris": {"android": "https://dc.lft.to/lastmile_qr_scan", "ios": "https://dc.lft.to/lastmile_qr_scan"}, "fusion_lon": 0.0, "lon": -77.03178483333333, "is_reserved": 0}, {"fusion_lat": 0.0, "type": "electric_scooter", "bike_id": "3cc0ec85f1e1837d9ca353331e71f868", "lat": 38.942017, "name": "3cc0ec85f1e1837d9ca353331e71f868", "is_disabled": 0, "rental_uris": {"android": "https://dc.lft.to/lastmile_qr_scan", "ios": "https://dc.lft.to/lastmile_qr_scan"}, "fusion_lon": 0.0, "lon": -77.02342566666667, "is_reserved": 0}, {"fusion_lat": 0.0, "type": "electric_scooter", "bike_id": "5823607a4770bbc6c56a27bebeb31014", "lat": 38.9198035, "name": "5823607a4770bbc6c56a27bebeb31014", "is_disabled": 0, "rental_uris": {"android": "https://dc.lft.to/lastmile_qr_scan", "ios": "https://dc.lft.to/lastmile_qr_scan"}, "fusion_lon": 0.0, "lon": -77.0248445, "is_reserved": 0}, {"fusion_lat": 0.0, "type": "electric_scooter", "bike_id": "bb7352f92ba97c542c75c418ca29c5ba", "lat": 38.92020933333333, "name": "bb7352f92ba97c542c75c418ca29c5ba", "is_disabled": 0, "rental_uris": {"android": "https://dc.lft.to/lastmile_qr_scan", "ios": "https://dc.lft.to/lastmile_qr_scan"}, "fusion_lon": 0.0, "lon": -77.06366516666667, "is_reserved": 0}, {"fusion_lat": 0.0, "type": "electric_scooter", "bike_id": "71619c66089afd6ed85957027d85aceb", "lat": 38.89991933333334, "name": "71619c66089afd6ed85957027d85aceb", "is_disabled": 0, "rental_uris": {"android": "https://dc.lft.to/lastmile_qr_scan", "ios": "https://dc.lft.to/lastmile_qr_scan"}, "fusion_lon": 0.0, "lon": -77.02708516666667, "is_reserved": 0}, {"fusion_lat": 0.0, "type": "electric_scooter", "bike_id": "6e8da9800be1cfe215af77dc6aa34d71", "lat": 38.914153166666665, "name": "6e8da9800be1cfe215af77dc6aa34d71", "is_disabled": 0, "rental_uris": {"android": "https://dc.lft.to/lastmile_qr_scan", "ios": "https://dc.lft.to/lastmile_qr_scan"}, "fusion_lon": 0.0, "lon": -77.02588533333333, "is_reserved": 0}, {"fusion_lat": 0.0, "type": "electric_scooter", "bike_id": "9690839d491c15a92d156dd5b8eebb34", "lat": 38.89996133333333, "name": "9690839d491c15a92d156dd5b8eebb34", "is_disabled": 0, "rental_uris": {"android": "https://dc.lft.to/lastmile_qr_scan", "ios": "https://dc.lft.to/lastmile_qr_scan"}, "fusion_lon": 0.0, "lon": -77.03104283333333, "is_reserved": 0}, {"fusion_lat": 0.0, "type": "electric_scooter", "bike_id": "642f35112f045a04b697d4f4dd90cbe5", "lat": 38.918178, "name": "642f35112f045a04b697d4f4dd90cbe5", "is_disabled": 0, "rental_uris": {"android": "https://dc.lft.to/lastmile_qr_scan", "ios": "https://dc.lft.to/lastmile_qr_scan"}, "fusion_lon": 0.0, "lon": -77.04173516666667, "is_reserved": 0}, {"fusion_lat": 0.0, "type": "electric_scooter", "bike_id": "3fb7e58f0404ba38b0fb81c4a3b619ba", "lat": 38.8984255, "name": "3fb7e58f0404ba38b0fb81c4a3b619ba", "is_disabled": 0, "rental_uris": {"android": "https://dc.lft.to/lastmile_qr_scan", "ios": "https://dc.lft.to/lastmile_qr_scan"}, "fusion_lon": 0.0, "lon": -77.045429, "is_reserved": 0}, {"fusion_lat": 0.0, "type": "electric_scooter", "bike_id": "8d66ef68728fa9e2c3409abed6130b01", "lat": 38.91543716666666, "name": "8d66ef68728fa9e2c3409abed6130b01", "is_disabled": 0, "rental_uris": {"android": "https://dc.lft.to/lastmile_qr_scan", "ios": "https://dc.lft.to/lastmile_qr_scan"}, "fusion_lon": 0.0, "lon": -77.04426733333334, "is_reserved": 0}, {"fusion_lat": 0.0, "type": "electric_scooter", "bike_id": "5edacf94ce482842d957692235e21520", "lat": 38.90663283333333, "name": "5edacf94ce482842d957692235e21520", "is_disabled": 0, "rental_uris": {"android": "https://dc.lft.to/lastmile_qr_scan", "ios": "https://dc.lft.to/lastmile_qr_scan"}, "fusion_lon": 0.0, "lon": -77.05145733333333, "is_reserved": 0}, {"fusion_lat": 0.0, "type": "electric_scooter", "bike_id": "fa079efd881eca344f488e2949b2b3d8", "lat": 38.900402, "name": "fa079efd881eca344f488e2949b2b3d8", "is_disabled": 0, "rental_uris": {"android": "https://dc.lft.to/lastmile_qr_scan", "ios": "https://dc.lft.to/lastmile_qr_scan"}, "fusion_lon": 0.0, "lon": -76.99146483333334, "is_reserved": 0}, {"fusion_lat": 0.0, "type": "electric_scooter", "bike_id": "feea716c6fe86462c330c9851e0e42c9", "lat": 38.8770055, "name": "feea716c6fe86462c330c9851e0e42c9", "is_disabled": 0, "rental_uris": {"android": "https://dc.lft.to/lastmile_qr_scan", "ios": "https://dc.lft.to/lastmile_qr_scan"}, "fusion_lon": 0.0, "lon": -77.00312066666666, "is_reserved": 0}, {"fusion_lat": 0.0, "type": "electric_scooter", "bike_id": "bf6f1d5720e4590c460dd792864c2582", "lat": 38.86035116666667, "name": "bf6f1d5720e4590c460dd792864c2582", "is_disabled": 0, "rental_uris": {"android": "https://dc.lft.to/lastmile_qr_scan", "ios": "https://dc.lft.to/lastmile_qr_scan"}, "fusion_lon": 0.0, "lon": -76.98375366666667, "is_reserved": 0}, {"fusion_lat": 0.0, "type": "electric_scooter", "bike_id": "c044502b7e6072db00931d767a5d1f12", "lat": 38.9275375, "name": "c044502b7e6072db00931d767a5d1f12", "is_disabled": 0, "rental_uris": {"android": "https://dc.lft.to/lastmile_qr_scan", "ios": "https://dc.lft.to/lastmile_qr_scan"}, "fusion_lon": 0.0, "lon": -77.0295905, "is_reserved": 0}, {"fusion_lat": 0.0, "type": "electric_scooter", "bike_id": "f4f14896b13c9ba345d7fb16d183e89f", "lat": 38.8961675, "name": "f4f14896b13c9ba345d7fb16d183e89f", "is_disabled": 0, "rental_uris": {"android": "https://dc.lft.to/lastmile_qr_scan", "ios": "https://dc.lft.to/lastmile_qr_scan"}, "fusion_lon": 0.0, "lon": -76.99730933333333, "is_reserved": 0}, {"fusion_lat": 0.0, "type": "electric_scooter", "bike_id": "9ff07dfb2badd264225b0208cd888ed7", "lat": 38.938607, "name": "9ff07dfb2badd264225b0208cd888ed7", "is_disabled": 0, "rental_uris": {"android": "https://dc.lft.to/lastmile_qr_scan", "ios": "https://dc.lft.to/lastmile_qr_scan"}, "fusion_lon": 0.0, "lon": -77.0245575, "is_reserved": 0}, {"fusion_lat": 0.0, "type": "electric_scooter", "bike_id": "ed68ff9ce6d298c18683566645ec216f", "lat": 38.90042233333333, "name": "ed68ff9ce6d298c18683566645ec216f", "is_disabled": 0, "rental_uris": {"android": "https://dc.lft.to/lastmile_qr_scan", "ios": "https://dc.lft.to/lastmile_qr_scan"}, "fusion_lon": 0.0, "lon": -77.04328533333333, "is_reserved": 0}, {"fusion_lat": 0.0, "type": "electric_bike", "bike_id": "49da5f8b93d00dba35e4e0a6c59c1e7a", "lat": 38.945128833333335, "name": "49da5f8b93d00dba35e4e0a6c59c1e7a", "is_disabled": 0, "rental_uris": {"android": "https://dc.lft.to/lastmile_qr_scan", "ios": "https://dc.lft.to/lastmile_qr_scan"}, "fusion_lon": 0.0, "lon": -77.00674216666667, "is_reserved": 0}, {"fusion_lat": 0.0, "type": "electric_scooter", "bike_id": "ce449b156dd7e6282914d24ca7799794", "lat": 38.902688833333336, "name": "ce449b156dd7e6282914d24ca7799794", "is_disabled": 0, "rental_uris": {"android": "https://dc.lft.to/lastmile_qr_scan", "ios": "https://dc.lft.to/lastmile_qr_scan"}, "fusion_lon": 0.0, "lon": -77.03224366666667, "is_reserved": 0}, {"fusion_lat": 0.0, "type": "electric_scooter", "bike_id": "1e7655ae906c1b5d1fa13cbfe2f89dd3", "lat": 38.92036366666667, "name": "1e7655ae906c1b5d1fa13cbfe2f89dd3", "is_disabled": 0, "rental_uris": {"android": "https://dc.lft.to/lastmile_qr_scan", "ios": "https://dc.lft.to/lastmile_qr_scan"}, "fusion_lon": 0.0, "lon": -77.02588616666667, "is_reserved": 0}, {"fusion_lat": 0.0, "type": "electric_scooter", "bike_id": "bea9521fc33a2d2cd4af54fdf2f2e820", "lat": 38.87392166666667, "name": "bea9521fc33a2d2cd4af54fdf2f2e820", "is_disabled": 0, "rental_uris": {"android": "https://dc.lft.to/lastmile_qr_scan", "ios": "https://dc.lft.to/lastmile_qr_scan"}, "fusion_lon": 0.0, "lon": -77.0002425, "is_reserved": 0}, {"fusion_lat": 0.0, "type": "electric_scooter", "bike_id": "18d825c05ca4dcee90618f9b4fca7c31", "lat": 38.924238833333334, "name": "18d825c05ca4dcee90618f9b4fca7c31", "is_disabled": 0, "rental_uris": {"android": "https://dc.lft.to/lastmile_qr_scan", "ios": "https://dc.lft.to/lastmile_qr_scan"}, "fusion_lon": 0.0, "lon": -77.0193455, "is_reserved": 0}, {"fusion_lat": 0.0, "type": "electric_scooter", "bike_id": "ad7c73a788ad88ac47af70d09ac32a66", "lat": 38.921044333333334, "name": "ad7c73a788ad88ac47af70d09ac32a66", "is_disabled": 0, "rental_uris": {"android": "https://dc.lft.to/lastmile_qr_scan", "ios": "https://dc.lft.to/lastmile_qr_scan"}, "fusion_lon": 0.0, "lon": -76.99428233333333, "is_reserved": 0}, {"fusion_lat": 0.0, "type": "electric_scooter", "bike_id": "3f7f64d422e3a52b7693ade6cb2548f5", "lat": 38.8909905, "name": "3f7f64d422e3a52b7693ade6cb2548f5", "is_disabled": 0, "rental_uris": {"android": "https://dc.lft.to/lastmile_qr_scan", "ios": "https://dc.lft.to/lastmile_qr_scan"}, "fusion_lon": 0.0, "lon": -76.98826666666666, "is_reserved": 0}, {"fusion_lat": 0.0, "type": "electric_scooter", "bike_id": "2c766e61c88c9e06bffa359600a3a98c", "lat": 38.9119705, "name": "2c766e61c88c9e06bffa359600a3a98c", "is_disabled": 0, "rental_uris": {"android": "https://dc.lft.to/lastmile_qr_scan", "ios": "https://dc.lft.to/lastmile_qr_scan"}, "fusion_lon": 0.0, "lon": -77.00725166666666, "is_reserved": 0}, {"fusion_lat": 0.0, "type": "electric_scooter", "bike_id": "6ba2f1e23a1686d3f35cbe2da2bf8415", "lat": 38.91007166666667, "name": "6ba2f1e23a1686d3f35cbe2da2bf8415", "is_disabled": 0, "rental_uris": {"android": "https://dc.lft.to/lastmile_qr_scan", "ios": "https://dc.lft.to/lastmile_qr_scan"}, "fusion_lon": 0.0, "lon": -76.99401866666666, "is_reserved": 0}, {"fusion_lat": 0.0, "type": "electric_scooter", "bike_id": "01a6162806dcf41949f034c5d6cc0945", "lat": 38.9173945, "name": "01a6162806dcf41949f034c5d6cc0945", "is_disabled": 0, "rental_uris": {"android": "https://dc.lft.to/lastmile_qr_scan", "ios": "https://dc.lft.to/lastmile_qr_scan"}, "fusion_lon": 0.0, "lon": -77.02115966666666, "is_reserved": 0}, {"fusion_lat": 0.0, "type": "electric_scooter", "bike_id": "ea9d9b502a12bfa544e2088e0527b728", "lat": 38.907204666666665, "name": "ea9d9b502a12bfa544e2088e0527b728", "is_disabled": 0, "rental_uris": {"android": "https://dc.lft.to/lastmile_qr_scan", "ios": "https://dc.lft.to/lastmile_qr_scan"}, "fusion_lon": 0.0, "lon": -77.00046766666667, "is_reserved": 0}, {"fusion_lat": 0.0, "type": "electric_scooter", "bike_id": "fb55930bdea50ad395a798b5495e96ef", "lat": 38.893729, "name": "fb55930bdea50ad395a798b5495e96ef", "is_disabled": 0, "rental_uris": {"android": "https://dc.lft.to/lastmile_qr_scan", "ios": "https://dc.lft.to/lastmile_qr_scan"}, "fusion_lon": 0.0, "lon": -77.01547166666667, "is_reserved": 0}, {"fusion_lat": 0.0, "type": "electric_scooter", "bike_id": "e2e9e1012a164aaac2bf41b8c827875f", "lat": 38.90863916666667, "name": "e2e9e1012a164aaac2bf41b8c827875f", "is_disabled": 0, "rental_uris": {"android": "https://dc.lft.to/lastmile_qr_scan", "ios": "https://dc.lft.to/lastmile_qr_scan"}, "fusion_lon": 0.0, "lon": -77.01356283333334, "is_reserved": 0}, {"fusion_lat": 0.0, "type": "electric_scooter", "bike_id": "5f416a8d5fb162a3ddc10c5ac3f408e8", "lat": 38.91695633333333, "name": "5f416a8d5fb162a3ddc10c5ac3f408e8", "is_disabled": 0, "rental_uris": {"android": "https://dc.lft.to/lastmile_qr_scan", "ios": "https://dc.lft.to/lastmile_qr_scan"}, "fusion_lon": 0.0, "lon": -77.029368, "is_reserved": 0}, {"fusion_lat": 0.0, "type": "electric_scooter", "bike_id": "ddd80fce99dd9cac2ad5d9622017cf49", "lat": 38.89609516666667, "name": "ddd80fce99dd9cac2ad5d9622017cf49", "is_disabled": 0, "rental_uris": {"android": "https://dc.lft.to/lastmile_qr_scan", "ios": "https://dc.lft.to/lastmile_qr_scan"}, "fusion_lon": 0.0, "lon": -77.04409733333334, "is_reserved": 0}, {"fusion_lat": 0.0, "type": "electric_scooter", "bike_id": "2bf8a0666163084ce041e3f9fb53fa90", "lat": 38.89859466666667, "name": "2bf8a0666163084ce041e3f9fb53fa90", "is_disabled": 0, "rental_uris": {"android": "https://dc.lft.to/lastmile_qr_scan", "ios": "https://dc.lft.to/lastmile_qr_scan"}, "fusion_lon": 0.0, "lon": -77.03974066666666, "is_reserved": 0}, {"fusion_lat": 0.0, "type": "electric_scooter", "bike_id": "e713b2411045b28c9ca91b8b83ad7126", "lat": 38.915743666666664, "name": "e713b2411045b28c9ca91b8b83ad7126", "is_disabled": 0, "rental_uris": {"android": "https://dc.lft.to/lastmile_qr_scan", "ios": "https://dc.lft.to/lastmile_qr_scan"}, "fusion_lon": 0.0, "lon": -77.02385916666667, "is_reserved": 0}, {"fusion_lat": 0.0, "type": "electric_scooter", "bike_id": "9380460e5268ef85b049960edd65c4d2", "lat": 38.906657, "name": "9380460e5268ef85b049960edd65c4d2", "is_disabled": 0, "rental_uris": {"android": "https://dc.lft.to/lastmile_qr_scan", "ios": "https://dc.lft.to/lastmile_qr_scan"}, "fusion_lon": 0.0, "lon": -77.07322116666667, "is_reserved": 0}, {"fusion_lat": 0.0, "type": "electric_scooter", "bike_id": "93e12371870eeea09d6f95657882bdd6", "lat": 38.92124116666667, "name": "93e12371870eeea09d6f95657882bdd6", "is_disabled": 0, "rental_uris": {"android": "https://dc.lft.to/lastmile_qr_scan", "ios": "https://dc.lft.to/lastmile_qr_scan"}, "fusion_lon": 0.0, "lon": -77.03661633333333, "is_reserved": 0}, {"fusion_lat": 0.0, "type": "electric_scooter", "bike_id": "29327feca5eb1fe648708f8863e95f54", "lat": 38.923960666666666, "name": "29327feca5eb1fe648708f8863e95f54", "is_disabled": 0, "rental_uris": {"android": "https://dc.lft.to/lastmile_qr_scan", "ios": "https://dc.lft.to/lastmile_qr_scan"}, "fusion_lon": 0.0, "lon": -77.0406825, "is_reserved": 0}, {"fusion_lat": 0.0, "type": "electric_scooter", "bike_id": "b20d955f6db51e2318f3ed2857221cb2", "lat": 38.893607, "name": "b20d955f6db51e2318f3ed2857221cb2", "is_disabled": 0, "rental_uris": {"android": "https://dc.lft.to/lastmile_qr_scan", "ios": "https://dc.lft.to/lastmile_qr_scan"}, "fusion_lon": 0.0, "lon": -77.04772216666667, "is_reserved": 0}, {"fusion_lat": 0.0, "type": "electric_scooter", "bike_id": "7a8003d73cdb1aff352d8cf8ae699007", "lat": 38.9232955, "name": "7a8003d73cdb1aff352d8cf8ae699007", "is_disabled": 0, "rental_uris": {"android": "https://dc.lft.to/lastmile_qr_scan", "ios": "https://dc.lft.to/lastmile_qr_scan"}, "fusion_lon": 0.0, "lon": -77.02292366666667, "is_reserved": 0}, {"fusion_lat": 0.0, "type": "electric_scooter", "bike_id": "6f2f81abfe5f411e452158c4490e639c", "lat": 38.90014983333333, "name": "6f2f81abfe5f411e452158c4490e639c", "is_disabled": 0, "rental_uris": {"android": "https://dc.lft.to/lastmile_qr_scan", "ios": "https://dc.lft.to/lastmile_qr_scan"}, "fusion_lon": 0.0, "lon": -77.033398, "is_reserved": 0}, {"fusion_lat": 0.0, "type": "electric_scooter", "bike_id": "f909c3214b09d31d71e732297fec52c8", "lat": 38.9078205, "name": "f909c3214b09d31d71e732297fec52c8", "is_disabled": 0, "rental_uris": {"android": "https://dc.lft.to/lastmile_qr_scan", "ios": "https://dc.lft.to/lastmile_qr_scan"}, "fusion_lon": 0.0, "lon": -77.04509883333333, "is_reserved": 0}, {"fusion_lat": 0.0, "type": "electric_scooter", "bike_id": "7b0434d74a278ed27ec14025905f46c3", "lat": 38.895868166666666, "name": "7b0434d74a278ed27ec14025905f46c3", "is_disabled": 0, "rental_uris": {"android": "https://dc.lft.to/lastmile_qr_scan", "ios": "https://dc.lft.to/lastmile_qr_scan"}, "fusion_lon": 0.0, "lon": -77.02707633333333, "is_reserved": 0}, {"fusion_lat": 0.0, "type": "electric_scooter", "bike_id": "a34528c0a5bf737701f6b2f3f83b7613", "lat": 38.92692866666667, "name": "a34528c0a5bf737701f6b2f3f83b7613", "is_disabled": 0, "rental_uris": {"android": "https://dc.lft.to/lastmile_qr_scan", "ios": "https://dc.lft.to/lastmile_qr_scan"}, "fusion_lon": 0.0, "lon": -77.0156915, "is_reserved": 0}, {"fusion_lat": 0.0, "type": "electric_scooter", "bike_id": "b322e5c5fb4f82b1c3677e4595a0bfea", "lat": 38.8947305, "name": "b322e5c5fb4f82b1c3677e4595a0bfea", "is_disabled": 0, "rental_uris": {"android": "https://dc.lft.to/lastmile_qr_scan", "ios": "https://dc.lft.to/lastmile_qr_scan"}, "fusion_lon": 0.0, "lon": -77.0111535, "is_reserved": 0}, {"fusion_lat": 0.0, "type": "electric_scooter", "bike_id": "b7f0e0fae0ea071edcf8c3d5a7627cca", "lat": 38.90262883333333, "name": "b7f0e0fae0ea071edcf8c3d5a7627cca", "is_disabled": 0, "rental_uris": {"android": "https://dc.lft.to/lastmile_qr_scan", "ios": "https://dc.lft.to/lastmile_qr_scan"}, "fusion_lon": 0.0, "lon": -77.04133066666667, "is_reserved": 0}, {"fusion_lat": 0.0, "type": "electric_scooter", "bike_id": "4fd02485957211e96fafe91057a52d5f", "lat": 38.9109665, "name": "4fd02485957211e96fafe91057a52d5f", "is_disabled": 0, "rental_uris": {"android": "https://dc.lft.to/lastmile_qr_scan", "ios": "https://dc.lft.to/lastmile_qr_scan"}, "fusion_lon": 0.0, "lon": -77.03843583333334, "is_reserved": 0}, {"fusion_lat": 0.0, "type": "electric_scooter", "bike_id": "bd9db004a3b7f4cf7f119777a9ee5556", "lat": 38.88511583333333, "name": "bd9db004a3b7f4cf7f119777a9ee5556", "is_disabled": 0, "rental_uris": {"android": "https://dc.lft.to/lastmile_qr_scan", "ios": "https://dc.lft.to/lastmile_qr_scan"}, "fusion_lon": 0.0, "lon": -77.01117166666667, "is_reserved": 0}, {"fusion_lat": 0.0, "type": "electric_scooter", "bike_id": "634c22ebcde487be6bba0135f374a445", "lat": 38.8996635, "name": "634c22ebcde487be6bba0135f374a445", "is_disabled": 0, "rental_uris": {"android": "https://dc.lft.to/lastmile_qr_scan", "ios": "https://dc.lft.to/lastmile_qr_scan"}, "fusion_lon": 0.0, "lon": -77.04497, "is_reserved": 0}, {"fusion_lat": 0.0, "type": "electric_scooter", "bike_id": "790aef403bff07924d1a1546eab418c7", "lat": 38.903424666666666, "name": "790aef403bff07924d1a1546eab418c7", "is_disabled": 0, "rental_uris": {"android": "https://dc.lft.to/lastmile_qr_scan", "ios": "https://dc.lft.to/lastmile_qr_scan"}, "fusion_lon": 0.0, "lon": -77.02092866666666, "is_reserved": 0}, {"fusion_lat": 0.0, "type": "electric_scooter", "bike_id": "7d73d9793822ae0e6af6f05d1ded71b1", "lat": 38.89625816666667, "name": "7d73d9793822ae0e6af6f05d1ded71b1", "is_disabled": 0, "rental_uris": {"android": "https://dc.lft.to/lastmile_qr_scan", "ios": "https://dc.lft.to/lastmile_qr_scan"}, "fusion_lon": 0.0, "lon": -77.01222866666667, "is_reserved": 0}, {"fusion_lat": 0.0, "type": "electric_scooter", "bike_id": "85f113e13989fd92062af3ba29583ee4", "lat": 38.92170216666667, "name": "85f113e13989fd92062af3ba29583ee4", "is_disabled": 0, "rental_uris": {"android": "https://dc.lft.to/lastmile_qr_scan", "ios": "https://dc.lft.to/lastmile_qr_scan"}, "fusion_lon": 0.0, "lon": -77.0219625, "is_reserved": 0}, {"fusion_lat": 0.0, "type": "electric_scooter", "bike_id": "5792d107e7e7fc0b23ff24e8769aaea0", "lat": 38.926072166666664, "name": "5792d107e7e7fc0b23ff24e8769aaea0", "is_disabled": 0, "rental_uris": {"android": "https://dc.lft.to/lastmile_qr_scan", "ios": "https://dc.lft.to/lastmile_qr_scan"}, "fusion_lon": 0.0, "lon": -77.0215645, "is_reserved": 0}, {"fusion_lat": 0.0, "type": "electric_scooter", "bike_id": "c12f938b66f99923868dd3a25d7e486b", "lat": 38.9196395, "name": "c12f938b66f99923868dd3a25d7e486b", "is_disabled": 0, "rental_uris": {"android": "https://dc.lft.to/lastmile_qr_scan", "ios": "https://dc.lft.to/lastmile_qr_scan"}, "fusion_lon": 0.0, "lon": -77.039583, "is_reserved": 0}, {"fusion_lat": 0.0, "type": "electric_scooter", "bike_id": "ef79792f8cccd52bd90860815dda2d96", "lat": 38.895581166666666, "name": "ef79792f8cccd52bd90860815dda2d96", "is_disabled": 0, "rental_uris": {"android": "https://dc.lft.to/lastmile_qr_scan", "ios": "https://dc.lft.to/lastmile_qr_scan"}, "fusion_lon": 0.0, "lon": -76.930636, "is_reserved": 0}, {"fusion_lat": 0.0, "type": "electric_scooter", "bike_id": "d1e7d8b12fc23d77003e568f0214c272", "lat": 38.899649333333336, "name": "d1e7d8b12fc23d77003e568f0214c272", "is_disabled": 0, "rental_uris": {"android": "https://dc.lft.to/lastmile_qr_scan", "ios": "https://dc.lft.to/lastmile_qr_scan"}, "fusion_lon": 0.0, "lon": -77.01510083333334, "is_reserved": 0}, {"fusion_lat": 0.0, "type": "electric_scooter", "bike_id": "d73b28fdaf503fffcffc0d7baf38214b", "lat": 38.884928333333335, "name": "d73b28fdaf503fffcffc0d7baf38214b", "is_disabled": 0, "rental_uris": {"android": "https://dc.lft.to/lastmile_qr_scan", "ios": "https://dc.lft.to/lastmile_qr_scan"}, "fusion_lon": 0.0, "lon": -77.00712116666666, "is_reserved": 0}, {"fusion_lat": 0.0, "type": "electric_scooter", "bike_id": "d9d635c19668e602f2185d3fed2fef1f", "lat": 38.905753, "name": "d9d635c19668e602f2185d3fed2fef1f", "is_disabled": 0, "rental_uris": {"android": "https://dc.lft.to/lastmile_qr_scan", "ios": "https://dc.lft.to/lastmile_qr_scan"}, "fusion_lon": 0.0, "lon": -77.06271583333333, "is_reserved": 0}, {"fusion_lat": 0.0, "type": "electric_scooter", "bike_id": "b5a815712213f1ff0bc32e1719b9752c", "lat": 38.92053666666666, "name": "b5a815712213f1ff0bc32e1719b9752c", "is_disabled": 0, "rental_uris": {"android": "https://dc.lft.to/lastmile_qr_scan", "ios": "https://dc.lft.to/lastmile_qr_scan"}, "fusion_lon": 0.0, "lon": -77.02365233333333, "is_reserved": 0}, {"fusion_lat": 0.0, "type": "electric_scooter", "bike_id": "4142d07cf19b90b8895022fd3229ff49", "lat": 38.93416716666667, "name": "4142d07cf19b90b8895022fd3229ff49", "is_disabled": 0, "rental_uris": {"android": "https://dc.lft.to/lastmile_qr_scan", "ios": "https://dc.lft.to/lastmile_qr_scan"}, "fusion_lon": 0.0, "lon": -77.041595, "is_reserved": 0}, {"fusion_lat": 0.0, "type": "electric_scooter", "bike_id": "23c4ac529272b98f85a5d3d0af30205a", "lat": 38.892233166666664, "name": "23c4ac529272b98f85a5d3d0af30205a", "is_disabled": 0, "rental_uris": {"android": "https://dc.lft.to/lastmile_qr_scan", "ios": "https://dc.lft.to/lastmile_qr_scan"}, "fusion_lon": 0.0, "lon": -77.02538666666666, "is_reserved": 0}, {"fusion_lat": 0.0, "type": "electric_scooter", "bike_id": "6042cde67a219d0a2991b011abfced3e", "lat": 38.944457, "name": "6042cde67a219d0a2991b011abfced3e", "is_disabled": 0, "rental_uris": {"android": "https://dc.lft.to/lastmile_qr_scan", "ios": "https://dc.lft.to/lastmile_qr_scan"}, "fusion_lon": 0.0, "lon": -77.02914316666667, "is_reserved": 0}, {"fusion_lat": 0.0, "type": "electric_scooter", "bike_id": "346560f3c9c6c39b441717f81a3317a7", "lat": 38.90516916666667, "name": "346560f3c9c6c39b441717f81a3317a7", "is_disabled": 0, "rental_uris": {"android": "https://dc.lft.to/lastmile_qr_scan", "ios": "https://dc.lft.to/lastmile_qr_scan"}, "fusion_lon": 0.0, "lon": -77.06873766666666, "is_reserved": 0}, {"fusion_lat": 0.0, "type": "electric_scooter", "bike_id": "9fcad779c7be175bdb1d2e4f209df67b", "lat": 38.90247133333333, "name": "9fcad779c7be175bdb1d2e4f209df67b", "is_disabled": 0, "rental_uris": {"android": "https://dc.lft.to/lastmile_qr_scan", "ios": "https://dc.lft.to/lastmile_qr_scan"}, "fusion_lon": 0.0, "lon": -76.98968433333333, "is_reserved": 0}, {"fusion_lat": 0.0, "type": "electric_scooter", "bike_id": "ef7852f4a7dffd6cacb7362ea69f8293", "lat": 38.922455666666664, "name": "ef7852f4a7dffd6cacb7362ea69f8293", "is_disabled": 0, "rental_uris": {"android": "https://dc.lft.to/lastmile_qr_scan", "ios": "https://dc.lft.to/lastmile_qr_scan"}, "fusion_lon": 0.0, "lon": -77.02813316666666, "is_reserved": 0}, {"fusion_lat": 0.0, "type": "electric_scooter", "bike_id": "c5fad7185dbab87f6ada1f029d0a4b50", "lat": 38.92433283333333, "name": "c5fad7185dbab87f6ada1f029d0a4b50", "is_disabled": 0, "rental_uris": {"android": "https://dc.lft.to/lastmile_qr_scan", "ios": "https://dc.lft.to/lastmile_qr_scan"}, "fusion_lon": 0.0, "lon": -77.04246166666667, "is_reserved": 0}, {"fusion_lat": 0.0, "type": "electric_scooter", "bike_id": "89cd379d1c63ba4282dbfbc6161ede5d", "lat": 38.90742566666667, "name": "89cd379d1c63ba4282dbfbc6161ede5d", "is_disabled": 0, "rental_uris": {"android": "https://dc.lft.to/lastmile_qr_scan", "ios": "https://dc.lft.to/lastmile_qr_scan"}, "fusion_lon": 0.0, "lon": -77.0280415, "is_reserved": 0}, {"fusion_lat": 0.0, "type": "electric_bike", "bike_id": "92d1a9055a1b16bdd5d7482ae1bd3df8", "lat": 38.8649075, "name": "92d1a9055a1b16bdd5d7482ae1bd3df8", "is_disabled": 0, "rental_uris": {"android": "https://dc.lft.to/lastmile_qr_scan", "ios": "https://dc.lft.to/lastmile_qr_scan"}, "fusion_lon": 0.0, "lon": -76.97749716666667, "is_reserved": 0}, {"fusion_lat": 0.0, "type": "electric_bike", "bike_id": "1ed600bc4acfb488a7fe25e30b55f028", "lat": 38.80010033333333, "name": "1ed600bc4acfb488a7fe25e30b55f028", "is_disabled": 0, "rental_uris": {"android": "https://dc.lft.to/lastmile_qr_scan", "ios": "https://dc.lft.to/lastmile_qr_scan"}, "fusion_lon": 0.0, "lon": -77.1299625, "is_reserved": 0}, {"fusion_lat": 0.0, "type": "electric_scooter", "bike_id": "5c82164945000f93f5ffc3f32500484d", "lat": 38.903744333333336, "name": "5c82164945000f93f5ffc3f32500484d", "is_disabled": 0, "rental_uris": {"android": "https://dc.lft.to/lastmile_qr_scan", "ios": "https://dc.lft.to/lastmile_qr_scan"}, "fusion_lon": 0.0, "lon": -77.04447583333334, "is_reserved": 0}, {"fusion_lat": 0.0, "type": "electric_scooter", "bike_id": "b00bdf7da2ae8d8914f89fac61dc45c3", "lat": 38.88603483333333, "name": "b00bdf7da2ae8d8914f89fac61dc45c3", "is_disabled": 0, "rental_uris": {"android": "https://dc.lft.to/lastmile_qr_scan", "ios": "https://dc.lft.to/lastmile_qr_scan"}, "fusion_lon": 0.0, "lon": -77.01796266666666, "is_reserved": 0}, {"fusion_lat": 0.0, "type": "electric_scooter", "bike_id": "c662db26103ad02b2b5f344c82e5ac8c", "lat": 38.903604, "name": "c662db26103ad02b2b5f344c82e5ac8c", "is_disabled": 0, "rental_uris": {"android": "https://dc.lft.to/lastmile_qr_scan", "ios": "https://dc.lft.to/lastmile_qr_scan"}, "fusion_lon": 0.0, "lon": -77.03174033333333, "is_reserved": 0}, {"fusion_lat": 0.0, "type": "electric_scooter", "bike_id": "fee60c48163ef8c191b1d7a0f258ccd3", "lat": 38.90386933333333, "name": "fee60c48163ef8c191b1d7a0f258ccd3", "is_disabled": 0, "rental_uris": {"android": "https://dc.lft.to/lastmile_qr_scan", "ios": "https://dc.lft.to/lastmile_qr_scan"}, "fusion_lon": 0.0, "lon": -77.04281166666667, "is_reserved": 0}, {"fusion_lat": 0.0, "type": "electric_scooter", "bike_id": "27f81b0629789d40b7ce8332a7a8a295", "lat": 38.90070683333333, "name": "27f81b0629789d40b7ce8332a7a8a295", "is_disabled": 0, "rental_uris": {"android": "https://dc.lft.to/lastmile_qr_scan", "ios": "https://dc.lft.to/lastmile_qr_scan"}, "fusion_lon": 0.0, "lon": -77.04429883333333, "is_reserved": 0}, {"fusion_lat": 0.0, "type": "electric_scooter", "bike_id": "30ecd380a5fade5f2f0397cd2b3d3b78", "lat": 38.873762666666664, "name": "30ecd380a5fade5f2f0397cd2b3d3b78", "is_disabled": 0, "rental_uris": {"android": "https://dc.lft.to/lastmile_qr_scan", "ios": "https://dc.lft.to/lastmile_qr_scan"}, "fusion_lon": 0.0, "lon": -77.00134383333334, "is_reserved": 0}, {"fusion_lat": 0.0, "type": "electric_scooter", "bike_id": "13f48c20f9fcc91e7177b8e70c4c3624", "lat": 38.92915, "name": "13f48c20f9fcc91e7177b8e70c4c3624", "is_disabled": 0, "rental_uris": {"android": "https://dc.lft.to/lastmile_qr_scan", "ios": "https://dc.lft.to/lastmile_qr_scan"}, "fusion_lon": 0.0, "lon": -77.018629, "is_reserved": 0}, {"fusion_lat": 0.0, "type": "electric_scooter", "bike_id": "af05e7804c08ab33d43e4194a64cfe91", "lat": 38.89962966666667, "name": "af05e7804c08ab33d43e4194a64cfe91", "is_disabled": 0, "rental_uris": {"android": "https://dc.lft.to/lastmile_qr_scan", "ios": "https://dc.lft.to/lastmile_qr_scan"}, "fusion_lon": 0.0, "lon": -77.016249, "is_reserved": 0}, {"fusion_lat": 0.0, "type": "electric_scooter", "bike_id": "23bb033a908272e65ab2d6c545bb5447", "lat": 38.914911833333335, "name": "23bb033a908272e65ab2d6c545bb5447", "is_disabled": 0, "rental_uris": {"android": "https://dc.lft.to/lastmile_qr_scan", "ios": "https://dc.lft.to/lastmile_qr_scan"}, "fusion_lon": 0.0, "lon": -77.02212033333333, "is_reserved": 0}, {"fusion_lat": 0.0, "type": "electric_scooter", "bike_id": "6e0e0b13d69b2a20763c221bb5e3694f", "lat": 38.89198433333333, "name": "6e0e0b13d69b2a20763c221bb5e3694f", "is_disabled": 0, "rental_uris": {"android": "https://dc.lft.to/lastmile_qr_scan", "ios": "https://dc.lft.to/lastmile_qr_scan"}, "fusion_lon": 0.0, "lon": -77.00295483333333, "is_reserved": 0}, {"fusion_lat": 0.0, "type": "electric_scooter", "bike_id": "a54c85b2a87d87ba84ec8e256f286381", "lat": 38.894742666666666, "name": "a54c85b2a87d87ba84ec8e256f286381", "is_disabled": 0, "rental_uris": {"android": "https://dc.lft.to/lastmile_qr_scan", "ios": "https://dc.lft.to/lastmile_qr_scan"}, "fusion_lon": 0.0, "lon": -76.95832116666666, "is_reserved": 0}, {"fusion_lat": 0.0, "type": "electric_scooter", "bike_id": "2092b6fe89aa292d5cfa7b1d3d668daa", "lat": 38.891987, "name": "2092b6fe89aa292d5cfa7b1d3d668daa", "is_disabled": 0, "rental_uris": {"android": "https://dc.lft.to/lastmile_qr_scan", "ios": "https://dc.lft.to/lastmile_qr_scan"}, "fusion_lon": 0.0, "lon": -77.023744, "is_reserved": 0}, {"fusion_lat": 0.0, "type": "electric_bike", "bike_id": "1a9e8412f344a3b62a359903334ff75d", "lat": 39.034284166666666, "name": "1a9e8412f344a3b62a359903334ff75d", "is_disabled": 0, "rental_uris": {"android": "https://dc.lft.to/lastmile_qr_scan", "ios": "https://dc.lft.to/lastmile_qr_scan"}, "fusion_lon": 0.0, "lon": -77.04296183333334, "is_reserved": 0}, {"fusion_lat": 0.0, "type": "electric_scooter", "bike_id": "f2a8f717d3b52591973d4b9a65d7b1c0", "lat": 38.907565, "name": "f2a8f717d3b52591973d4b9a65d7b1c0", "is_disabled": 0, "rental_uris": {"android": "https://dc.lft.to/lastmile_qr_scan", "ios": "https://dc.lft.to/lastmile_qr_scan"}, "fusion_lon": 0.0, "lon": -76.98847783333333, "is_reserved": 0}, {"fusion_lat": 0.0, "type": "electric_scooter", "bike_id": "eca2aa1e9ba2fec6d4a4cc13b44afd1d", "lat": 38.898691, "name": "eca2aa1e9ba2fec6d4a4cc13b44afd1d", "is_disabled": 0, "rental_uris": {"android": "https://dc.lft.to/lastmile_qr_scan", "ios": "https://dc.lft.to/lastmile_qr_scan"}, "fusion_lon": 0.0, "lon": -76.94666216666667, "is_reserved": 0}, {"fusion_lat": 0.0, "type": "electric_scooter", "bike_id": "171be57b5a08bf06e647808690eaed61", "lat": 38.91553566666666, "name": "171be57b5a08bf06e647808690eaed61", "is_disabled": 0, "rental_uris": {"android": "https://dc.lft.to/lastmile_qr_scan", "ios": "https://dc.lft.to/lastmile_qr_scan"}, "fusion_lon": 0.0, "lon": -77.0221015, "is_reserved": 0}, {"fusion_lat": 0.0, "type": "electric_scooter", "bike_id": "cc436f9e696a13b308ed0d997b391901", "lat": 38.902686833333334, "name": "cc436f9e696a13b308ed0d997b391901", "is_disabled": 0, "rental_uris": {"android": "https://dc.lft.to/lastmile_qr_scan", "ios": "https://dc.lft.to/lastmile_qr_scan"}, "fusion_lon": 0.0, "lon": -77.02841733333334, "is_reserved": 0}, {"fusion_lat": 0.0, "type": "electric_scooter", "bike_id": "30c41dfe66dd883d9772b2679900125c", "lat": 38.9076345, "name": "30c41dfe66dd883d9772b2679900125c", "is_disabled": 0, "rental_uris": {"android": "https://dc.lft.to/lastmile_qr_scan", "ios": "https://dc.lft.to/lastmile_qr_scan"}, "fusion_lon": 0.0, "lon": -77.0613955, "is_reserved": 0}, {"fusion_lat": 0.0, "type": "electric_scooter", "bike_id": "95221db6bd0c9ac1e90cc8e494e495ea", "lat": 38.89743983333334, "name": "95221db6bd0c9ac1e90cc8e494e495ea", "is_disabled": 0, "rental_uris": {"android": "https://dc.lft.to/lastmile_qr_scan", "ios": "https://dc.lft.to/lastmile_qr_scan"}, "fusion_lon": 0.0, "lon": -77.01314116666667, "is_reserved": 0}, {"fusion_lat": 0.0, "type": "electric_scooter", "bike_id": "ce808cc3db9abfd09100e01549518b4d", "lat": 38.90156866666667, "name": "ce808cc3db9abfd09100e01549518b4d", "is_disabled": 0, "rental_uris": {"android": "https://dc.lft.to/lastmile_qr_scan", "ios": "https://dc.lft.to/lastmile_qr_scan"}, "fusion_lon": 0.0, "lon": -77.02230216666666, "is_reserved": 0}, {"fusion_lat": 0.0, "type": "electric_scooter", "bike_id": "b22eae456b5f3dfc5c19f960bca180da", "lat": 38.95271983333333, "name": "b22eae456b5f3dfc5c19f960bca180da", "is_disabled": 0, "rental_uris": {"android": "https://dc.lft.to/lastmile_qr_scan", "ios": "https://dc.lft.to/lastmile_qr_scan"}, "fusion_lon": 0.0, "lon": -77.023847, "is_reserved": 0}, {"fusion_lat": 0.0, "type": "electric_scooter", "bike_id": "5a3b93bdf7d129c7fa77d299084fbbbc", "lat": 38.903865, "name": "5a3b93bdf7d129c7fa77d299084fbbbc", "is_disabled": 0, "rental_uris": {"android": "https://dc.lft.to/lastmile_qr_scan", "ios": "https://dc.lft.to/lastmile_qr_scan"}, "fusion_lon": 0.0, "lon": -77.03312933333333, "is_reserved": 0}, {"fusion_lat": 0.0, "type": "electric_scooter", "bike_id": "c6ca61de68a09a60420efda6cb6784c3", "lat": 38.93071166666667, "name": "c6ca61de68a09a60420efda6cb6784c3", "is_disabled": 0, "rental_uris": {"android": "https://dc.lft.to/lastmile_qr_scan", "ios": "https://dc.lft.to/lastmile_qr_scan"}, "fusion_lon": 0.0, "lon": -77.02331483333333, "is_reserved": 0}, {"fusion_lat": 0.0, "type": "electric_scooter", "bike_id": "24302712907efd51fae626ccb82472a4", "lat": 38.921375, "name": "24302712907efd51fae626ccb82472a4", "is_disabled": 0, "rental_uris": {"android": "https://dc.lft.to/lastmile_qr_scan", "ios": "https://dc.lft.to/lastmile_qr_scan"}, "fusion_lon": 0.0, "lon": -77.01852983333333, "is_reserved": 0}, {"fusion_lat": 0.0, "type": "electric_scooter", "bike_id": "105e2892635523be47e37e205ecdb607", "lat": 38.914907166666666, "name": "105e2892635523be47e37e205ecdb607", "is_disabled": 0, "rental_uris": {"android": "https://dc.lft.to/lastmile_qr_scan", "ios": "https://dc.lft.to/lastmile_qr_scan"}, "fusion_lon": 0.0, "lon": -77.02170983333333, "is_reserved": 0}, {"fusion_lat": 0.0, "type": "electric_scooter", "bike_id": "c2d70f77479537d9621906903f781ad4", "lat": 38.901822, "name": "c2d70f77479537d9621906903f781ad4", "is_disabled": 0, "rental_uris": {"android": "https://dc.lft.to/lastmile_qr_scan", "ios": "https://dc.lft.to/lastmile_qr_scan"}, "fusion_lon": 0.0, "lon": -77.05915283333333, "is_reserved": 0}, {"fusion_lat": 0.0, "type": "electric_scooter", "bike_id": "18fd48d9cebb738db1baf425b6376eb8", "lat": 38.9024115, "name": "18fd48d9cebb738db1baf425b6376eb8", "is_disabled": 0, "rental_uris": {"android": "https://dc.lft.to/lastmile_qr_scan", "ios": "https://dc.lft.to/lastmile_qr_scan"}, "fusion_lon": 0.0, "lon": -77.04550116666667, "is_reserved": 0}, {"fusion_lat": 0.0, "type": "electric_scooter", "bike_id": "a207a9cd62add635f15b72d487509400", "lat": 38.89216283333333, "name": "a207a9cd62add635f15b72d487509400", "is_disabled": 0, "rental_uris": {"android": "https://dc.lft.to/lastmile_qr_scan", "ios": "https://dc.lft.to/lastmile_qr_scan"}, "fusion_lon": 0.0, "lon": -77.00338333333333, "is_reserved": 0}, {"fusion_lat": 0.0, "type": "electric_scooter", "bike_id": "ce809353ba4042e00feb113427aef863", "lat": 38.92439016666667, "name": "ce809353ba4042e00feb113427aef863", "is_disabled": 0, "rental_uris": {"android": "https://dc.lft.to/lastmile_qr_scan", "ios": "https://dc.lft.to/lastmile_qr_scan"}, "fusion_lon": 0.0, "lon": -77.01958366666666, "is_reserved": 0}, {"fusion_lat": 0.0, "type": "electric_scooter", "bike_id": "b56968a26b80a057405d5d9e3a49f26b", "lat": 38.924195, "name": "b56968a26b80a057405d5d9e3a49f26b", "is_disabled": 0, "rental_uris": {"android": "https://dc.lft.to/lastmile_qr_scan", "ios": "https://dc.lft.to/lastmile_qr_scan"}, "fusion_lon": 0.0, "lon": -77.02007683333333, "is_reserved": 0}, {"fusion_lat": 0.0, "type": "electric_scooter", "bike_id": "9e66e251bec2e23d64a45a33e3a2e34c", "lat": 38.900799666666664, "name": "9e66e251bec2e23d64a45a33e3a2e34c", "is_disabled": 0, "rental_uris": {"android": "https://dc.lft.to/lastmile_qr_scan", "ios": "https://dc.lft.to/lastmile_qr_scan"}, "fusion_lon": 0.0, "lon": -77.0218475, "is_reserved": 0}, {"fusion_lat": 0.0, "type": "electric_scooter", "bike_id": "a719b16e262e85ccb62473daa4b96316", "lat": 38.918588666666665, "name": "a719b16e262e85ccb62473daa4b96316", "is_disabled": 0, "rental_uris": {"android": "https://dc.lft.to/lastmile_qr_scan", "ios": "https://dc.lft.to/lastmile_qr_scan"}, "fusion_lon": 0.0, "lon": -77.0321015, "is_reserved": 0}, {"fusion_lat": 0.0, "type": "electric_scooter", "bike_id": "148d0ba559eb99b829476d2498b60239", "lat": 38.92216916666667, "name": "148d0ba559eb99b829476d2498b60239", "is_disabled": 0, "rental_uris": {"android": "https://dc.lft.to/lastmile_qr_scan", "ios": "https://dc.lft.to/lastmile_qr_scan"}, "fusion_lon": 0.0, "lon": -77.02031733333334, "is_reserved": 0}, {"fusion_lat": 0.0, "type": "electric_scooter", "bike_id": "a1e653a4ac03f814d54483fcf724ffff", "lat": 38.90255533333333, "name": "a1e653a4ac03f814d54483fcf724ffff", "is_disabled": 0, "rental_uris": {"android": "https://dc.lft.to/lastmile_qr_scan", "ios": "https://dc.lft.to/lastmile_qr_scan"}, "fusion_lon": 0.0, "lon": -77.034127, "is_reserved": 0}, {"fusion_lat": 0.0, "type": "electric_scooter", "bike_id": "ea1ed6ed7e48bf7b1306b19fb3429d72", "lat": 38.9241945, "name": "ea1ed6ed7e48bf7b1306b19fb3429d72", "is_disabled": 0, "rental_uris": {"android": "https://dc.lft.to/lastmile_qr_scan", "ios": "https://dc.lft.to/lastmile_qr_scan"}, "fusion_lon": 0.0, "lon": -77.02134083333333, "is_reserved": 0}, {"fusion_lat": 0.0, "type": "electric_bike", "bike_id": "5dbfc120e4083a3043f189cc56cb2741", "lat": 38.9002715, "name": "5dbfc120e4083a3043f189cc56cb2741", "is_disabled": 0, "rental_uris": {"android": "https://dc.lft.to/lastmile_qr_scan", "ios": "https://dc.lft.to/lastmile_qr_scan"}, "fusion_lon": 0.0, "lon": -77.02999233333334, "is_reserved": 0}, {"fusion_lat": 0.0, "type": "electric_scooter", "bike_id": "5995c754e578531dd425e6bc2f09cfd9", "lat": 38.897353, "name": "5995c754e578531dd425e6bc2f09cfd9", "is_disabled": 0, "rental_uris": {"android": "https://dc.lft.to/lastmile_qr_scan", "ios": "https://dc.lft.to/lastmile_qr_scan"}, "fusion_lon": 0.0, "lon": -77.024629, "is_reserved": 0}, {"fusion_lat": 0.0, "type": "electric_scooter", "bike_id": "c46311c794288afa77f396f9ac38b83b", "lat": 38.924781833333334, "name": "c46311c794288afa77f396f9ac38b83b", "is_disabled": 0, "rental_uris": {"android": "https://dc.lft.to/lastmile_qr_scan", "ios": "https://dc.lft.to/lastmile_qr_scan"}, "fusion_lon": 0.0, "lon": -77.03056316666667, "is_reserved": 0}, {"fusion_lat": 0.0, "type": "electric_scooter", "bike_id": "e99490b1b16b98ad9f23480bb58a3620", "lat": 38.88358233333334, "name": "e99490b1b16b98ad9f23480bb58a3620", "is_disabled": 0, "rental_uris": {"android": "https://dc.lft.to/lastmile_qr_scan", "ios": "https://dc.lft.to/lastmile_qr_scan"}, "fusion_lon": 0.0, "lon": -76.95771433333333, "is_reserved": 0}, {"fusion_lat": 0.0, "type": "electric_scooter", "bike_id": "40a178ce5f87a9c04fc32e3a1bd0e5de", "lat": 38.90597066666667, "name": "40a178ce5f87a9c04fc32e3a1bd0e5de", "is_disabled": 0, "rental_uris": {"android": "https://dc.lft.to/lastmile_qr_scan", "ios": "https://dc.lft.to/lastmile_qr_scan"}, "fusion_lon": 0.0, "lon": -77.0700355, "is_reserved": 0}, {"fusion_lat": 0.0, "type": "electric_scooter", "bike_id": "82cd4c266ac7f8e80e14f52568699753", "lat": 38.8998325, "name": "82cd4c266ac7f8e80e14f52568699753", "is_disabled": 0, "rental_uris": {"android": "https://dc.lft.to/lastmile_qr_scan", "ios": "https://dc.lft.to/lastmile_qr_scan"}, "fusion_lon": 0.0, "lon": -76.94068183333333, "is_reserved": 0}, {"fusion_lat": 0.0, "type": "electric_scooter", "bike_id": "3858e04c088f0d0972bf27a6ee5c3961", "lat": 38.95302083333333, "name": "3858e04c088f0d0972bf27a6ee5c3961", "is_disabled": 0, "rental_uris": {"android": "https://dc.lft.to/lastmile_qr_scan", "ios": "https://dc.lft.to/lastmile_qr_scan"}, "fusion_lon": 0.0, "lon": -77.02769883333333, "is_reserved": 0}, {"fusion_lat": 0.0, "type": "electric_scooter", "bike_id": "a7b17855774fcec391cdf0a21079ad20", "lat": 38.907763333333335, "name": "a7b17855774fcec391cdf0a21079ad20", "is_disabled": 0, "rental_uris": {"android": "https://dc.lft.to/lastmile_qr_scan", "ios": "https://dc.lft.to/lastmile_qr_scan"}, "fusion_lon": 0.0, "lon": -77.0630065, "is_reserved": 0}, {"fusion_lat": 0.0, "type": "electric_scooter", "bike_id": "7925b8c2636cfb62c9136e721388ea5e", "lat": 38.943108, "name": "7925b8c2636cfb62c9136e721388ea5e", "is_disabled": 0, "rental_uris": {"android": "https://dc.lft.to/lastmile_qr_scan", "ios": "https://dc.lft.to/lastmile_qr_scan"}, "fusion_lon": 0.0, "lon": -77.02948716666667, "is_reserved": 0}, {"fusion_lat": 0.0, "type": "electric_scooter", "bike_id": "65cf70022a9c09db205c8ef521043d94", "lat": 38.929088666666665, "name": "65cf70022a9c09db205c8ef521043d94", "is_disabled": 0, "rental_uris": {"android": "https://dc.lft.to/lastmile_qr_scan", "ios": "https://dc.lft.to/lastmile_qr_scan"}, "fusion_lon": 0.0, "lon": -77.01866733333334, "is_reserved": 0}, {"fusion_lat": 0.0, "type": "electric_bike", "bike_id": "0aa13b5f88d1d3129a4992fa44f856b1", "lat": 38.895638166666664, "name": "0aa13b5f88d1d3129a4992fa44f856b1", "is_disabled": 0, "rental_uris": {"android": "https://dc.lft.to/lastmile_qr_scan", "ios": "https://dc.lft.to/lastmile_qr_scan"}, "fusion_lon": 0.0, "lon": -77.12736516666666, "is_reserved": 0}, {"fusion_lat": 0.0, "type": "electric_scooter", "bike_id": "d89de039671ef3f681ca3b66b88c400a", "lat": 38.91049, "name": "d89de039671ef3f681ca3b66b88c400a", "is_disabled": 0, "rental_uris": {"android": "https://dc.lft.to/lastmile_qr_scan", "ios": "https://dc.lft.to/lastmile_qr_scan"}, "fusion_lon": 0.0, "lon": -77.04357633333333, "is_reserved": 0}, {"fusion_lat": 0.0, "type": "electric_scooter", "bike_id": "2ab8c9a2781ad6dc6843010920ec8b55", "lat": 38.9039435, "name": "2ab8c9a2781ad6dc6843010920ec8b55", "is_disabled": 0, "rental_uris": {"android": "https://dc.lft.to/lastmile_qr_scan", "ios": "https://dc.lft.to/lastmile_qr_scan"}, "fusion_lon": 0.0, "lon": -76.99042683333333, "is_reserved": 0}, {"fusion_lat": 0.0, "type": "electric_scooter", "bike_id": "db650bd6e43bc45605005011eb3691d5", "lat": 38.92383916666667, "name": "db650bd6e43bc45605005011eb3691d5", "is_disabled": 0, "rental_uris": {"android": "https://dc.lft.to/lastmile_qr_scan", "ios": "https://dc.lft.to/lastmile_qr_scan"}, "fusion_lon": 0.0, "lon": -77.03052883333334, "is_reserved": 0}, {"fusion_lat": 0.0, "type": "electric_scooter", "bike_id": "76a246b97c68c07b85d3eb9a13adc524", "lat": 38.92250833333333, "name": "76a246b97c68c07b85d3eb9a13adc524", "is_disabled": 0, "rental_uris": {"android": "https://dc.lft.to/lastmile_qr_scan", "ios": "https://dc.lft.to/lastmile_qr_scan"}, "fusion_lon": 0.0, "lon": -77.04710366666667, "is_reserved": 0}, {"fusion_lat": 0.0, "type": "electric_scooter", "bike_id": "bc1160d7a1b896190f9edf41ecdec542", "lat": 38.9241615, "name": "bc1160d7a1b896190f9edf41ecdec542", "is_disabled": 0, "rental_uris": {"android": "https://dc.lft.to/lastmile_qr_scan", "ios": "https://dc.lft.to/lastmile_qr_scan"}, "fusion_lon": 0.0, "lon": -77.01947616666666, "is_reserved": 0}, {"fusion_lat": 0.0, "type": "electric_scooter", "bike_id": "9aa1780289a158976638f2417c8b0a81", "lat": 38.9213575, "name": "9aa1780289a158976638f2417c8b0a81", "is_disabled": 0, "rental_uris": {"android": "https://dc.lft.to/lastmile_qr_scan", "ios": "https://dc.lft.to/lastmile_qr_scan"}, "fusion_lon": 0.0, "lon": -77.01799766666667, "is_reserved": 0}, {"fusion_lat": 0.0, "type": "electric_scooter", "bike_id": "9c0348a9cfdd1138bdc830874bf47e85", "lat": 38.90832916666667, "name": "9c0348a9cfdd1138bdc830874bf47e85", "is_disabled": 0, "rental_uris": {"android": "https://dc.lft.to/lastmile_qr_scan", "ios": "https://dc.lft.to/lastmile_qr_scan"}, "fusion_lon": 0.0, "lon": -76.9970055, "is_reserved": 0}, {"fusion_lat": 0.0, "type": "electric_scooter", "bike_id": "88b01513282d98054a6cdf11fb482a50", "lat": 38.8948175, "name": "88b01513282d98054a6cdf11fb482a50", "is_disabled": 0, "rental_uris": {"android": "https://dc.lft.to/lastmile_qr_scan", "ios": "https://dc.lft.to/lastmile_qr_scan"}, "fusion_lon": 0.0, "lon": -77.020048, "is_reserved": 0}, {"fusion_lat": 0.0, "type": "electric_scooter", "bike_id": "472b8cebe0f4b5810ef1d1331437941e", "lat": 38.90126566666667, "name": "472b8cebe0f4b5810ef1d1331437941e", "is_disabled": 0, "rental_uris": {"android": "https://dc.lft.to/lastmile_qr_scan", "ios": "https://dc.lft.to/lastmile_qr_scan"}, "fusion_lon": 0.0, "lon": -77.04464483333334, "is_reserved": 0}, {"fusion_lat": 0.0, "type": "electric_scooter", "bike_id": "0272e4d12dbfd2f187b3be186c7cc8e8", "lat": 38.98465266666667, "name": "0272e4d12dbfd2f187b3be186c7cc8e8", "is_disabled": 0, "rental_uris": {"android": "https://dc.lft.to/lastmile_qr_scan", "ios": "https://dc.lft.to/lastmile_qr_scan"}, "fusion_lon": 0.0, "lon": -77.026831, "is_reserved": 0}, {"fusion_lat": 0.0, "type": "electric_scooter", "bike_id": "89f611ef24a233acc6a25cee44ca0e85", "lat": 38.898998, "name": "89f611ef24a233acc6a25cee44ca0e85", "is_disabled": 0, "rental_uris": {"android": "https://dc.lft.to/lastmile_qr_scan", "ios": "https://dc.lft.to/lastmile_qr_scan"}, "fusion_lon": 0.0, "lon": -77.03938666666667, "is_reserved": 0}, {"fusion_lat": 0.0, "type": "electric_scooter", "bike_id": "6c42e65c1c4efe9d25f5629f5ed632f5", "lat": 38.88492016666667, "name": "6c42e65c1c4efe9d25f5629f5ed632f5", "is_disabled": 0, "rental_uris": {"android": "https://dc.lft.to/lastmile_qr_scan", "ios": "https://dc.lft.to/lastmile_qr_scan"}, "fusion_lon": 0.0, "lon": -77.00728716666667, "is_reserved": 0}, {"fusion_lat": 0.0, "type": "electric_scooter", "bike_id": "3776e392f4a07a4a63a1d55e4c536a92", "lat": 38.90124316666667, "name": "3776e392f4a07a4a63a1d55e4c536a92", "is_disabled": 0, "rental_uris": {"android": "https://dc.lft.to/lastmile_qr_scan", "ios": "https://dc.lft.to/lastmile_qr_scan"}, "fusion_lon": 0.0, "lon": -77.038027, "is_reserved": 0}, {"fusion_lat": 0.0, "type": "electric_scooter", "bike_id": "c1ff717ebcb2b45be7cdc7e61170f66c", "lat": 38.917265666666665, "name": "c1ff717ebcb2b45be7cdc7e61170f66c", "is_disabled": 0, "rental_uris": {"android": "https://dc.lft.to/lastmile_qr_scan", "ios": "https://dc.lft.to/lastmile_qr_scan"}, "fusion_lon": 0.0, "lon": -77.0683885, "is_reserved": 0}, {"fusion_lat": 0.0, "type": "electric_scooter", "bike_id": "f3beb0fbb3f278ae477644153f95372c", "lat": 38.8675235, "name": "f3beb0fbb3f278ae477644153f95372c", "is_disabled": 0, "rental_uris": {"android": "https://dc.lft.to/lastmile_qr_scan", "ios": "https://dc.lft.to/lastmile_qr_scan"}, "fusion_lon": 0.0, "lon": -77.00148616666667, "is_reserved": 0}, {"fusion_lat": 0.0, "type": "electric_scooter", "bike_id": "f87c310c2232f0153faadb10ff9b4e03", "lat": 38.901321, "name": "f87c310c2232f0153faadb10ff9b4e03", "is_disabled": 0, "rental_uris": {"android": "https://dc.lft.to/lastmile_qr_scan", "ios": "https://dc.lft.to/lastmile_qr_scan"}, "fusion_lon": 0.0, "lon": -77.04461416666666, "is_reserved": 0}, {"fusion_lat": 0.0, "type": "electric_scooter", "bike_id": "ef5d718bdab110e45d3fac4b02840dbb", "lat": 38.94278033333333, "name": "ef5d718bdab110e45d3fac4b02840dbb", "is_disabled": 0, "rental_uris": {"android": "https://dc.lft.to/lastmile_qr_scan", "ios": "https://dc.lft.to/lastmile_qr_scan"}, "fusion_lon": 0.0, "lon": -77.02936633333333, "is_reserved": 0}, {"fusion_lat": 0.0, "type": "electric_scooter", "bike_id": "34be25d550ff310362ab900d9de55664", "lat": 38.930704666666664, "name": "34be25d550ff310362ab900d9de55664", "is_disabled": 0, "rental_uris": {"android": "https://dc.lft.to/lastmile_qr_scan", "ios": "https://dc.lft.to/lastmile_qr_scan"}, "fusion_lon": 0.0, "lon": -77.032126, "is_reserved": 0}, {"fusion_lat": 0.0, "type": "electric_scooter", "bike_id": "e446afa7f6bd94f409ce4cf3635ebe6b", "lat": 38.883953166666664, "name": "e446afa7f6bd94f409ce4cf3635ebe6b", "is_disabled": 0, "rental_uris": {"android": "https://dc.lft.to/lastmile_qr_scan", "ios": "https://dc.lft.to/lastmile_qr_scan"}, "fusion_lon": 0.0, "lon": -76.99509616666667, "is_reserved": 0}, {"fusion_lat": 0.0, "type": "electric_bike", "bike_id": "b6da45f2327d6ae8f22fa8e2c5bf1b8b", "lat": 39.0850725, "name": "b6da45f2327d6ae8f22fa8e2c5bf1b8b", "is_disabled": 0, "rental_uris": {"android": "https://dc.lft.to/lastmile_qr_scan", "ios": "https://dc.lft.to/lastmile_qr_scan"}, "fusion_lon": 0.0, "lon": -76.9506145, "is_reserved": 0}, {"fusion_lat": 0.0, "type": "electric_scooter", "bike_id": "76caad477d3929206a7be24c16ab9a68", "lat": 38.902789166666665, "name": "76caad477d3929206a7be24c16ab9a68", "is_disabled": 0, "rental_uris": {"android": "https://dc.lft.to/lastmile_qr_scan", "ios": "https://dc.lft.to/lastmile_qr_scan"}, "fusion_lon": 0.0, "lon": -77.04363033333334, "is_reserved": 0}, {"fusion_lat": 0.0, "type": "electric_scooter", "bike_id": "7a5b0160a93348fe6ff0b7ed64f81f4b", "lat": 38.915750333333335, "name": "7a5b0160a93348fe6ff0b7ed64f81f4b", "is_disabled": 0, "rental_uris": {"android": "https://dc.lft.to/lastmile_qr_scan", "ios": "https://dc.lft.to/lastmile_qr_scan"}, "fusion_lon": 0.0, "lon": -77.01991033333333, "is_reserved": 0}, {"fusion_lat": 0.0, "type": "electric_scooter", "bike_id": "da2eaeac04bbf20cfe4433af0d34fd91", "lat": 38.90487016666667, "name": "da2eaeac04bbf20cfe4433af0d34fd91", "is_disabled": 0, "rental_uris": {"android": "https://dc.lft.to/lastmile_qr_scan", "ios": "https://dc.lft.to/lastmile_qr_scan"}, "fusion_lon": 0.0, "lon": -77.02933516666667, "is_reserved": 0}, {"fusion_lat": 0.0, "type": "electric_scooter", "bike_id": "831bf43107e6506ae42bf1f00aedb62b", "lat": 38.917385833333334, "name": "831bf43107e6506ae42bf1f00aedb62b", "is_disabled": 0, "rental_uris": {"android": "https://dc.lft.to/lastmile_qr_scan", "ios": "https://dc.lft.to/lastmile_qr_scan"}, "fusion_lon": 0.0, "lon": -77.0211635, "is_reserved": 0}, {"fusion_lat": 0.0, "type": "electric_scooter", "bike_id": "b0202200a485dd377483235d2cd889ff", "lat": 38.966496666666664, "name": "b0202200a485dd377483235d2cd889ff", "is_disabled": 0, "rental_uris": {"android": "https://dc.lft.to/lastmile_qr_scan", "ios": "https://dc.lft.to/lastmile_qr_scan"}, "fusion_lon": 0.0, "lon": -77.02744383333334, "is_reserved": 0}, {"fusion_lat": 0.0, "type": "electric_bike", "bike_id": "9ad51c7a886845152632623853e3dafc", "lat": 38.99228033333333, "name": "9ad51c7a886845152632623853e3dafc", "is_disabled": 0, "rental_uris": {"android": "https://dc.lft.to/lastmile_qr_scan", "ios": "https://dc.lft.to/lastmile_qr_scan"}, "fusion_lon": 0.0, "lon": -77.03583516666667, "is_reserved": 0}, {"fusion_lat": 0.0, "type": "electric_bike", "bike_id": "2eb5c3448d9889e12b4e9be0d8a69a83", "lat": 38.836062166666665, "name": "2eb5c3448d9889e12b4e9be0d8a69a83", "is_disabled": 0, "rental_uris": {"android": "https://dc.lft.to/lastmile_qr_scan", "ios": "https://dc.lft.to/lastmile_qr_scan"}, "fusion_lon": 0.0, "lon": -77.00377583333334, "is_reserved": 0}, {"fusion_lat": 0.0, "type": "electric_bike", "bike_id": "af77c9add399986ac5280fc8fe865146", "lat": 38.83816516666667, "name": "af77c9add399986ac5280fc8fe865146", "is_disabled": 0, "rental_uris": {"android": "https://dc.lft.to/lastmile_qr_scan", "ios": "https://dc.lft.to/lastmile_qr_scan"}, "fusion_lon": 0.0, "lon": -77.00272966666667, "is_reserved": 0}, {"fusion_lat": 0.0, "type": "electric_scooter", "bike_id": "693d8ccac7fb7142f9f5a33f21cb9d14", "lat": 38.90171183333333, "name": "693d8ccac7fb7142f9f5a33f21cb9d14", "is_disabled": 0, "rental_uris": {"android": "https://dc.lft.to/lastmile_qr_scan", "ios": "https://dc.lft.to/lastmile_qr_scan"}, "fusion_lon": 0.0, "lon": -77.02555983333333, "is_reserved": 0}, {"fusion_lat": 0.0, "type": "electric_scooter", "bike_id": "0ac44cfdbf222b8127ecfcb23b330d10", "lat": 38.90373433333333, "name": "0ac44cfdbf222b8127ecfcb23b330d10", "is_disabled": 0, "rental_uris": {"android": "https://dc.lft.to/lastmile_qr_scan", "ios": "https://dc.lft.to/lastmile_qr_scan"}, "fusion_lon": 0.0, "lon": -77.03184283333333, "is_reserved": 0}, {"fusion_lat": 0.0, "type": "electric_bike", "bike_id": "be5d9f44d99c0befa2896fbcf92b094e", "lat": 38.84278916666667, "name": "be5d9f44d99c0befa2896fbcf92b094e", "is_disabled": 0, "rental_uris": {"android": "https://dc.lft.to/lastmile_qr_scan", "ios": "https://dc.lft.to/lastmile_qr_scan"}, "fusion_lon": 0.0, "lon": -76.9884285, "is_reserved": 0}, {"fusion_lat": 0.0, "type": "electric_scooter", "bike_id": "8e1d855df86f2060dd5f0bf60dc8b37d", "lat": 38.947418, "name": "8e1d855df86f2060dd5f0bf60dc8b37d", "is_disabled": 0, "rental_uris": {"android": "https://dc.lft.to/lastmile_qr_scan", "ios": "https://dc.lft.to/lastmile_qr_scan"}, "fusion_lon": 0.0, "lon": -77.02368633333333, "is_reserved": 0}, {"fusion_lat": 0.0, "type": "electric_scooter", "bike_id": "dca26a723e9c574092096dd6c9fb7908", "lat": 38.9043125, "name": "dca26a723e9c574092096dd6c9fb7908", "is_disabled": 0, "rental_uris": {"android": "https://dc.lft.to/lastmile_qr_scan", "ios": "https://dc.lft.to/lastmile_qr_scan"}, "fusion_lon": 0.0, "lon": -77.04361966666667, "is_reserved": 0}, {"fusion_lat": 0.0, "type": "electric_scooter", "bike_id": "203decf7a34a5ee3c5f2e7212d9c2be6", "lat": 38.897461, "name": "203decf7a34a5ee3c5f2e7212d9c2be6", "is_disabled": 0, "rental_uris": {"android": "https://dc.lft.to/lastmile_qr_scan", "ios": "https://dc.lft.to/lastmile_qr_scan"}, "fusion_lon": 0.0, "lon": -77.027061, "is_reserved": 0}, {"fusion_lat": 0.0, "type": "electric_scooter", "bike_id": "34ffeff0fde15d5ba01f46221d84206f", "lat": 38.91202633333333, "name": "34ffeff0fde15d5ba01f46221d84206f", "is_disabled": 0, "rental_uris": {"android": "https://dc.lft.to/lastmile_qr_scan", "ios": "https://dc.lft.to/lastmile_qr_scan"}, "fusion_lon": 0.0, "lon": -77.07311566666667, "is_reserved": 0}, {"fusion_lat": 0.0, "type": "electric_scooter", "bike_id": "18220766c09ed9558f07bbe0ed590655", "lat": 38.90833933333333, "name": "18220766c09ed9558f07bbe0ed590655", "is_disabled": 0, "rental_uris": {"android": "https://dc.lft.to/lastmile_qr_scan", "ios": "https://dc.lft.to/lastmile_qr_scan"}, "fusion_lon": 0.0, "lon": -77.04357733333333, "is_reserved": 0}, {"fusion_lat": 0.0, "type": "electric_scooter", "bike_id": "13c7e95c5157dfb29068f9128d982ec6", "lat": 38.94091066666667, "name": "13c7e95c5157dfb29068f9128d982ec6", "is_disabled": 0, "rental_uris": {"android": "https://dc.lft.to/lastmile_qr_scan", "ios": "https://dc.lft.to/lastmile_qr_scan"}, "fusion_lon": 0.0, "lon": -77.02721366666667, "is_reserved": 0}, {"fusion_lat": 0.0, "type": "electric_scooter", "bike_id": "c8e4982b090ca1f0f9af8facc6dab4c8", "lat": 38.87636583333333, "name": "c8e4982b090ca1f0f9af8facc6dab4c8", "is_disabled": 0, "rental_uris": {"android": "https://dc.lft.to/lastmile_qr_scan", "ios": "https://dc.lft.to/lastmile_qr_scan"}, "fusion_lon": 0.0, "lon": -77.00955333333333, "is_reserved": 0}, {"fusion_lat": 0.0, "type": "electric_scooter", "bike_id": "1b6c4c60f8f96317754a55c43a543e10", "lat": 38.89847416666667, "name": "1b6c4c60f8f96317754a55c43a543e10", "is_disabled": 0, "rental_uris": {"android": "https://dc.lft.to/lastmile_qr_scan", "ios": "https://dc.lft.to/lastmile_qr_scan"}, "fusion_lon": 0.0, "lon": -77.01374583333333, "is_reserved": 0}, {"fusion_lat": 0.0, "type": "electric_scooter", "bike_id": "d7a29f9b1d2e9622d707250d5f141fd5", "lat": 38.8972725, "name": "d7a29f9b1d2e9622d707250d5f141fd5", "is_disabled": 0, "rental_uris": {"android": "https://dc.lft.to/lastmile_qr_scan", "ios": "https://dc.lft.to/lastmile_qr_scan"}, "fusion_lon": 0.0, "lon": -77.0502775, "is_reserved": 0}, {"fusion_lat": 0.0, "type": "electric_scooter", "bike_id": "daa0167cd8f6aea98f3bef5e54d52d16", "lat": 38.91196633333333, "name": "daa0167cd8f6aea98f3bef5e54d52d16", "is_disabled": 0, "rental_uris": {"android": "https://dc.lft.to/lastmile_qr_scan", "ios": "https://dc.lft.to/lastmile_qr_scan"}, "fusion_lon": 0.0, "lon": -77.0072315, "is_reserved": 0}, {"fusion_lat": 0.0, "type": "electric_scooter", "bike_id": "0fc1c8866a329f2af49661656cd5d548", "lat": 38.9266745, "name": "0fc1c8866a329f2af49661656cd5d548", "is_disabled": 0, "rental_uris": {"android": "https://dc.lft.to/lastmile_qr_scan", "ios": "https://dc.lft.to/lastmile_qr_scan"}, "fusion_lon": 0.0, "lon": -76.995575, "is_reserved": 0}, {"fusion_lat": 0.0, "type": "electric_bike", "bike_id": "ec80fd2ff041c3bfcf89e4e0e378dff8", "lat": 38.924373833333334, "name": "ec80fd2ff041c3bfcf89e4e0e378dff8", "is_disabled": 0, "rental_uris": {"android": "https://dc.lft.to/lastmile_qr_scan", "ios": "https://dc.lft.to/lastmile_qr_scan"}, "fusion_lon": 0.0, "lon": -76.97162816666666, "is_reserved": 0}, {"fusion_lat": 0.0, "type": "electric_scooter", "bike_id": "5b9059918c075faac02e2443c9d19e67", "lat": 38.914685, "name": "5b9059918c075faac02e2443c9d19e67", "is_disabled": 0, "rental_uris": {"android": "https://dc.lft.to/lastmile_qr_scan", "ios": "https://dc.lft.to/lastmile_qr_scan"}, "fusion_lon": 0.0, "lon": -77.0455225, "is_reserved": 0}, {"fusion_lat": 0.0, "type": "electric_scooter", "bike_id": "98cfbe5cdcccfc743eebc7419d53dff9", "lat": 38.8995415, "name": "98cfbe5cdcccfc743eebc7419d53dff9", "is_disabled": 0, "rental_uris": {"android": "https://dc.lft.to/lastmile_qr_scan", "ios": "https://dc.lft.to/lastmile_qr_scan"}, "fusion_lon": 0.0, "lon": -76.988337, "is_reserved": 0}, {"fusion_lat": 0.0, "type": "electric_scooter", "bike_id": "e1f536d958e92c07f710f9c16f8f1b0c", "lat": 38.89278733333333, "name": "e1f536d958e92c07f710f9c16f8f1b0c", "is_disabled": 0, "rental_uris": {"android": "https://dc.lft.to/lastmile_qr_scan", "ios": "https://dc.lft.to/lastmile_qr_scan"}, "fusion_lon": 0.0, "lon": -77.00363916666667, "is_reserved": 0}, {"fusion_lat": 0.0, "type": "electric_scooter", "bike_id": "eeb3fe787fa925ce7c9547aced122810", "lat": 38.9319975, "name": "eeb3fe787fa925ce7c9547aced122810", "is_disabled": 0, "rental_uris": {"android": "https://dc.lft.to/lastmile_qr_scan", "ios": "https://dc.lft.to/lastmile_qr_scan"}, "fusion_lon": 0.0, "lon": -77.037476, "is_reserved": 0}, {"fusion_lat": 0.0, "type": "electric_scooter", "bike_id": "1f019e858654aab11c8627342792928c", "lat": 38.901591, "name": "1f019e858654aab11c8627342792928c", "is_disabled": 0, "rental_uris": {"android": "https://dc.lft.to/lastmile_qr_scan", "ios": "https://dc.lft.to/lastmile_qr_scan"}, "fusion_lon": 0.0, "lon": -77.05915133333333, "is_reserved": 0}, {"fusion_lat": 0.0, "type": "electric_scooter", "bike_id": "b85c92efe03fec84c19ed1a7015e24ae", "lat": 38.882947333333334, "name": "b85c92efe03fec84c19ed1a7015e24ae", "is_disabled": 0, "rental_uris": {"android": "https://dc.lft.to/lastmile_qr_scan", "ios": "https://dc.lft.to/lastmile_qr_scan"}, "fusion_lon": 0.0, "lon": -76.98934083333333, "is_reserved": 0}, {"fusion_lat": 0.0, "type": "electric_scooter", "bike_id": "d2fb41e9cfd06a4675b5ea61a4e91bc7", "lat": 38.910673833333334, "name": "d2fb41e9cfd06a4675b5ea61a4e91bc7", "is_disabled": 0, "rental_uris": {"android": "https://dc.lft.to/lastmile_qr_scan", "ios": "https://dc.lft.to/lastmile_qr_scan"}, "fusion_lon": 0.0, "lon": -77.04388283333333, "is_reserved": 0}, {"fusion_lat": 0.0, "type": "electric_bike", "bike_id": "511704490f86cdf6f58133ea413429c8", "lat": 38.8381235, "name": "511704490f86cdf6f58133ea413429c8", "is_disabled": 0, "rental_uris": {"android": "https://dc.lft.to/lastmile_qr_scan", "ios": "https://dc.lft.to/lastmile_qr_scan"}, "fusion_lon": 0.0, "lon": -77.09524383333333, "is_reserved": 0}, {"fusion_lat": 0.0, "type": "electric_scooter", "bike_id": "4af79ade90208216886d53814b5636c7", "lat": 38.93476916666667, "name": "4af79ade90208216886d53814b5636c7", "is_disabled": 0, "rental_uris": {"android": "https://dc.lft.to/lastmile_qr_scan", "ios": "https://dc.lft.to/lastmile_qr_scan"}, "fusion_lon": 0.0, "lon": -77.0727385, "is_reserved": 0}, {"fusion_lat": 0.0, "type": "electric_scooter", "bike_id": "31424701435607bfd5a08a52a69531be", "lat": 38.91470366666667, "name": "31424701435607bfd5a08a52a69531be", "is_disabled": 0, "rental_uris": {"android": "https://dc.lft.to/lastmile_qr_scan", "ios": "https://dc.lft.to/lastmile_qr_scan"}, "fusion_lon": 0.0, "lon": -76.98115233333333, "is_reserved": 0}, {"fusion_lat": 0.0, "type": "electric_scooter", "bike_id": "53119f5dbfbca5eda048bd98c8b0477e", "lat": 38.89116466666667, "name": "53119f5dbfbca5eda048bd98c8b0477e", "is_disabled": 0, "rental_uris": {"android": "https://dc.lft.to/lastmile_qr_scan", "ios": "https://dc.lft.to/lastmile_qr_scan"}, "fusion_lon": 0.0, "lon": -76.94381383333334, "is_reserved": 0}, {"fusion_lat": 0.0, "type": "electric_scooter", "bike_id": "d913487897593d53fd71b28a59846aae", "lat": 38.88506916666667, "name": "d913487897593d53fd71b28a59846aae", "is_disabled": 0, "rental_uris": {"android": "https://dc.lft.to/lastmile_qr_scan", "ios": "https://dc.lft.to/lastmile_qr_scan"}, "fusion_lon": 0.0, "lon": -77.00562866666667, "is_reserved": 0}, {"fusion_lat": 0.0, "type": "electric_scooter", "bike_id": "cbe4bcbe6c0e62c59338617425c2995a", "lat": 38.90486933333333, "name": "cbe4bcbe6c0e62c59338617425c2995a", "is_disabled": 0, "rental_uris": {"android": "https://dc.lft.to/lastmile_qr_scan", "ios": "https://dc.lft.to/lastmile_qr_scan"}, "fusion_lon": 0.0, "lon": -77.0353895, "is_reserved": 0}, {"fusion_lat": 0.0, "type": "electric_scooter", "bike_id": "4d99902f18a3c329d40eeccc66165977", "lat": 38.8991075, "name": "4d99902f18a3c329d40eeccc66165977", "is_disabled": 0, "rental_uris": {"android": "https://dc.lft.to/lastmile_qr_scan", "ios": "https://dc.lft.to/lastmile_qr_scan"}, "fusion_lon": 0.0, "lon": -77.03942966666666, "is_reserved": 0}, {"fusion_lat": 0.0, "type": "electric_scooter", "bike_id": "d367ef8bbe5bbe7a2a82294dbda15e6f", "lat": 38.892793166666664, "name": "d367ef8bbe5bbe7a2a82294dbda15e6f", "is_disabled": 0, "rental_uris": {"android": "https://dc.lft.to/lastmile_qr_scan", "ios": "https://dc.lft.to/lastmile_qr_scan"}, "fusion_lon": 0.0, "lon": -77.04877083333334, "is_reserved": 0}, {"fusion_lat": 0.0, "type": "electric_scooter", "bike_id": "fbb1267f54c0ad085a8846a54ee21970", "lat": 38.89223533333333, "name": "fbb1267f54c0ad085a8846a54ee21970", "is_disabled": 0, "rental_uris": {"android": "https://dc.lft.to/lastmile_qr_scan", "ios": "https://dc.lft.to/lastmile_qr_scan"}, "fusion_lon": 0.0, "lon": -77.04686516666666, "is_reserved": 0}, {"fusion_lat": 0.0, "type": "electric_scooter", "bike_id": "ff9955e844db89c7546998f819e70787", "lat": 38.90160366666667, "name": "ff9955e844db89c7546998f819e70787", "is_disabled": 0, "rental_uris": {"android": "https://dc.lft.to/lastmile_qr_scan", "ios": "https://dc.lft.to/lastmile_qr_scan"}, "fusion_lon": 0.0, "lon": -77.0506815, "is_reserved": 0}, {"fusion_lat": 0.0, "type": "electric_scooter", "bike_id": "2aed87dadaf947424ccca1c7307f0597", "lat": 38.906563, "name": "2aed87dadaf947424ccca1c7307f0597", "is_disabled": 0, "rental_uris": {"android": "https://dc.lft.to/lastmile_qr_scan", "ios": "https://dc.lft.to/lastmile_qr_scan"}, "fusion_lon": 0.0, "lon": -77.0514005, "is_reserved": 0},