{"data": {"bikes": [{"lat": 38.903644, "is_disabled": 0, "type": "electric_scooter", "lon": -77.06276933333334, "bike_id": "6798cc45ce028e5bf8d165593620669b", "fusion_lat": 0.0, "name": "6798cc45ce028e5bf8d165593620669b", "is_reserved": 0, "rental_uris": {"android": "https://dc.lft.to/lastmile_qr_scan", "ios": "https://dc.lft.to/lastmile_qr_scan"}, "fusion_lon": 0.0}, {"lat": 38.813460666666664, "is_disabled": 0, "type": "electric_bike", "lon": -77.049259, "bike_id": "df480c9717adf586702673328a344f6a", "fusion_lat": 0.0, "name": "df480c9717adf586702673328a344f6a", "is_reserved": 0, "rental_uris": {"android": "https://dc.lft.to/lastmile_qr_scan", "ios": "https://dc.lft.to/lastmile_qr_scan"}, "fusion_lon": 0.0}, {"lat": 38.89757783333334, "is_disabled": 0, "type": "electric_scooter", "lon": -76.94183066666666, "bike_id": "2a0809f3ce1c7cc06539994d44debb55", "fusion_lat": 0.0, "name": "2a0809f3ce1c7cc06539994d44debb55", "is_reserved": 0, "rental_uris": {"android": "https://dc.lft.to/lastmile_qr_scan", "ios": "https://dc.lft.to/lastmile_qr_scan"}, "fusion_lon": 0.0}, {"lat": 38.90727716666667, "is_disabled": 0, "type": "electric_scooter", "lon": -77.0435545, "bike_id": "db089c1fd6480dd479ae844b3f3c72cc", "fusion_lat": 0.0, "name": "db089c1fd6480dd479ae844b3f3c72cc", "is_reserved": 0, "rental_uris": {"android": "https://dc.lft.to/lastmile_qr_scan", "ios": "https://dc.lft.to/lastmile_qr_scan"}, "fusion_lon": 0.0}, {"lat": 38.91781483333333, "is_disabled": 0, "type": "electric_scooter", "lon": -77.0231645, "bike_id": "74c4f8bad6931d8b38e8612370a02502", "fusion_lat": 0.0, "name": "74c4f8bad6931d8b38e8612370a02502", "is_reserved": 0, "rental_uris": {"android": "https://dc.lft.to/lastmile_qr_scan", "ios": "https://dc.lft.to/lastmile_qr_scan"}, "fusion_lon": 0.0}, {"lat": 38.923833333333334, "is_disabled": 0, "type": "electric_scooter", "lon": -77.030586, "bike_id": "6f1b4c121d65c313c4f3a3671e0f0d85", "fusion_lat": 0.0, "name": "6f1b4c121d65c313c4f3a3671e0f0d85", "is_reserved": 0, "rental_uris": {"android": "https://dc.lft.to/lastmile_qr_scan", "ios": "https://dc.lft.to/lastmile_qr_scan"}, "fusion_lon": 0.0}, {"lat": 38.92229716666667, "is_disabled": 0, "type": "electric_scooter", "lon": -77.04337933333333, "bike_id": "2beaf01b9bbbbf21008b84b9ff69dc7e", "fusion_lat": 0.0, "name": "2beaf01b9bbbbf21008b84b9ff69dc7e", "is_reserved": 0, "rental_uris": {"android": "https://dc.lft.to/lastmile_qr_scan", "ios": "https://dc.lft.to/lastmile_qr_scan"}, "fusion_lon": 0.0}, {"lat": 38.9147635, "is_disabled": 0, "type": "electric_scooter", "lon": -77.013811, "bike_id": "b53ecc8e1a9a088ba7d8a76f38e9d0e5", "fusion_lat": 0.0, "name": "b53ecc8e1a9a088ba7d8a76f38e9d0e5", "is_reserved": 0, "rental_uris": {"android": "https://dc.lft.to/lastmile_qr_scan", "ios": "https://dc.lft.to/lastmile_qr_scan"}, "fusion_lon": 0.0}, {"lat": 38.900396, "is_disabled": 0, "type": "electric_scooter", "lon": -77.0019165, "bike_id": "ce404f1bec42f7ca16ec00ea8ff73dfe", "fusion_lat": 0.0, "name": "ce404f1bec42f7ca16ec00ea8ff73dfe", "is_reserved": 0, "rental_uris": {"android": "https://dc.lft.to/lastmile_qr_scan", "ios": "https://dc.lft.to/lastmile_qr_scan"}, "fusion_lon": 0.0}, {"lat": 38.90030633333333, "is_disabled": 0, "type": "electric_scooter", "lon": -76.99901316666667, "bike_id": "8d54dcc932720d99a0a51f6d29811f0c", "fusion_lat": 0.0, "name": "8d54dcc932720d99a0a51f6d29811f0c", "is_reserved": 0, "rental_uris": {"android": "https://dc.lft.to/lastmile_qr_scan", "ios": "https://dc.lft.to/lastmile_qr_scan"}, "fusion_lon": 0.0}, {"lat": 38.855176666666665, "is_disabled": 0, "type": "electric_bike", "lon": -76.9842425, "bike_id": "652dd0ab3955ede6c72b9676ca673944", "fusion_lat": 0.0, "name": "652dd0ab3955ede6c72b9676ca673944", "is_reserved": 0, "rental_uris": {"android": "https://dc.lft.to/lastmile_qr_scan", "ios": "https://dc.lft.to/lastmile_qr_scan"}, "fusion_lon": 0.0}, {"lat": 38.893027333333336, "is_disabled": 0, "type": "electric_scooter", "lon": -77.00013333333334, "bike_id": "6c35437f0dfabb098b8fb9d8e23923af", "fusion_lat": 0.0, "name": "6c35437f0dfabb098b8fb9d8e23923af", "is_reserved": 0, "rental_uris": {"android": "https://dc.lft.to/lastmile_qr_scan", "ios": "https://dc.lft.to/lastmile_qr_scan"}, "fusion_lon": 0.0}, {"lat": 38.91298466666667, "is_disabled": 0, "type": "electric_scooter", "lon": -77.061669, "bike_id": "46ce87ab71c51aeabff0b4b77f3087bc", "fusion_lat": 0.0, "name": "46ce87ab71c51aeabff0b4b77f3087bc", "is_reserved": 0, "rental_uris": {"android": "https://dc.lft.to/lastmile_qr_scan", "ios": "https://dc.lft.to/lastmile_qr_scan"}, "fusion_lon": 0.0}, {"lat": 38.920962333333335, "is_disabled": 0, "type": "electric_scooter", "lon": -77.025255, "bike_id": "9049287a0fe4939db2bcd94960e15c07", "fusion_lat": 0.0, "name": "9049287a0fe4939db2bcd94960e15c07", "is_reserved": 0, "rental_uris": {"android": "https://dc.lft.to/lastmile_qr_scan", "ios": "https://dc.lft.to/lastmile_qr_scan"}, "fusion_lon": 0.0}, {"lat": 38.902863333333336, "is_disabled": 0, "type": "electric_scooter", "lon": -77.03858716666667, "bike_id": "260ca5f7827052c2497d2a6773a38af9", "fusion_lat": 0.0, "name": "260ca5f7827052c2497d2a6773a38af9", "is_reserved": 0, "rental_uris": {"android": "https://dc.lft.to/lastmile_qr_scan", "ios": "https://dc.lft.to/lastmile_qr_scan"}, "fusion_lon": 0.0}, {"lat": 38.952878, "is_disabled": 0, "type": "electric_bike", "lon": -76.94600316666667, "bike_id": "ca3ab1df0a29da33311c7d177b590673", "fusion_lat": 0.0, "name": "ca3ab1df0a29da33311c7d177b590673", "is_reserved": 0, "rental_uris": {"android": "https://dc.lft.to/lastmile_qr_scan", "ios": "https://dc.lft.to/lastmile_qr_scan"}, "fusion_lon": 0.0}, {"lat": 38.903527, "is_disabled": 0, "type": "electric_scooter", "lon": -77.04477166666666, "bike_id": "b53f3e1e07fea6f48941d6c3529677e3", "fusion_lat": 0.0, "name": "b53f3e1e07fea6f48941d6c3529677e3", "is_reserved": 0, "rental_uris": {"android": "https://dc.lft.to/lastmile_qr_scan", "ios": "https://dc.lft.to/lastmile_qr_scan"}, "fusion_lon": 0.0}, {"lat": 38.91142983333334, "is_disabled": 0, "type": "electric_scooter", "lon": -77.0443055, "bike_id": "83072882076feb11c887b96f3f5a044a", "fusion_lat": 0.0, "name": "83072882076feb11c887b96f3f5a044a", "is_reserved": 0, "rental_uris": {"android": "https://dc.lft.to/lastmile_qr_scan", "ios": "https://dc.lft.to/lastmile_qr_scan"}, "fusion_lon": 0.0}, {"lat": 38.990032, "is_disabled": 0, "type": "electric_bike", "lon": -77.00446466666666, "bike_id": "e0c579661c51b59d8857097ccf6663f1", "fusion_lat": 0.0, "name": "e0c579661c51b59d8857097ccf6663f1", "is_reserved": 0, "rental_uris": {"android": "https://dc.lft.to/lastmile_qr_scan", "ios": "https://dc.lft.to/lastmile_qr_scan"}, "fusion_lon": 0.0}, {"lat": 38.90549716666666, "is_disabled": 0, "type": "electric_scooter", "lon": -77.0031085, "bike_id": "afb36e267f652087ded800b0e6f0221b", "fusion_lat": 0.0, "name": "afb36e267f652087ded800b0e6f0221b", "is_reserved": 0, "rental_uris": {"android": "https://dc.lft.to/lastmile_qr_scan", "ios": "https://dc.lft.to/lastmile_qr_scan"}, "fusion_lon": 0.0}, {"lat": 38.8955265, "is_disabled": 0, "type": "electric_scooter", "lon": -76.93077566666666, "bike_id": "d59cf1eb06b8fb2737749be9f252a464", "fusion_lat": 0.0, "name": "d59cf1eb06b8fb2737749be9f252a464", "is_reserved": 0, "rental_uris": {"android": "https://dc.lft.to/lastmile_qr_scan", "ios": "https://dc.lft.to/lastmile_qr_scan"}, "fusion_lon": 0.0}, {"lat": 38.932744666666665, "is_disabled": 0, "type": "electric_bike", "lon": -76.99509766666667, "bike_id": "2364deaf23825a9d953fd082d89b0623", "fusion_lat": 0.0, "name": "2364deaf23825a9d953fd082d89b0623", "is_reserved": 0, "rental_uris": {"android": "https://dc.lft.to/lastmile_qr_scan", "ios": "https://dc.lft.to/lastmile_qr_scan"}, "fusion_lon": 0.0}, {"lat": 38.93951583333333, "is_disabled": 0, "type": "electric_bike", "lon": -77.36097383333333, "bike_id": "6a9d77830ca8a9dd97511c4b2944f01c", "fusion_lat": 0.0, "name": "6a9d77830ca8a9dd97511c4b2944f01c", "is_reserved": 0, "rental_uris": {"android": "https://dc.lft.to/lastmile_qr_scan", "ios": "https://dc.lft.to/lastmile_qr_scan"}, "fusion_lon": 0.0}, {"lat": 38.9113605, "is_disabled": 0, "type": "electric_bike", "lon": -77.00879833333333, "bike_id": "40257e159a5e379a7d5f66940d665e43", "fusion_lat": 0.0, "name": "40257e159a5e379a7d5f66940d665e43", "is_reserved": 0, "rental_uris": {"android": "https://dc.lft.to/lastmile_qr_scan", "ios": "https://dc.lft.to/lastmile_qr_scan"}, "fusion_lon": 0.0}, {"lat": 38.93594133333333, "is_disabled": 0, "type": "electric_scooter", "lon": -77.037531, "bike_id": "66699c6b02e39e8f439faa738fb3d65f", "fusion_lat": 0.0, "name": "66699c6b02e39e8f439faa738fb3d65f", "is_reserved": 0, "rental_uris": {"android": "https://dc.lft.to/lastmile_qr_scan", "ios": "https://dc.lft.to/lastmile_qr_scan"}, "fusion_lon": 0.0}, {"lat": 38.928224666666665, "is_disabled": 0, "type": "electric_scooter", "lon": -77.02624016666667, "bike_id": "34b70f9fb6362aeb191f105e6203e8ef", "fusion_lat": 0.0, "name": "34b70f9fb6362aeb191f105e6203e8ef", "is_reserved": 0, "rental_uris": {"android": "https://dc.lft.to/lastmile_qr_scan", "ios": "https://dc.lft.to/lastmile_qr_scan"}, "fusion_lon": 0.0}, {"lat": 38.978234666666665, "is_disabled": 0, "type": "electric_bike", "lon": -76.92892316666666, "bike_id": "05ed2de7b3cced1bbd0c01a5af46a3b8", "fusion_lat": 0.0, "name": "05ed2de7b3cced1bbd0c01a5af46a3b8", "is_reserved": 0, "rental_uris": {"android": "https://dc.lft.to/lastmile_qr_scan", "ios": "https://dc.lft.to/lastmile_qr_scan"}, "fusion_lon": 0.0}, {"lat": 38.93610866666667, "is_disabled": 0, "type": "electric_scooter", "lon": -77.03177516666666, "bike_id": "3a4f28cb4a246d8861143e90675b6b5c", "fusion_lat": 0.0, "name": "3a4f28cb4a246d8861143e90675b6b5c", "is_reserved": 0, "rental_uris": {"android": "https://dc.lft.to/lastmile_qr_scan", "ios": "https://dc.lft.to/lastmile_qr_scan"}, "fusion_lon": 0.0}, {"lat": 38.894967666666666, "is_disabled": 0, "type": "electric_scooter", "lon": -77.0021255, "bike_id": "f445af0ef7ea0fa987333ff8e58af233", "fusion_lat": 0.0, "name": "f445af0ef7ea0fa987333ff8e58af233", "is_reserved": 0, "rental_uris": {"android": "https://dc.lft.to/lastmile_qr_scan", "ios": "https://dc.lft.to/lastmile_qr_scan"}, "fusion_lon": 0.0}, {"lat": 38.893678666666666, "is_disabled": 0, "type": "electric_scooter", "lon": -77.0282775, "bike_id": "6d6c7d9b1f812b18c7d1c89f612b12ef", "fusion_lat": 0.0, "name": "6d6c7d9b1f812b18c7d1c89f612b12ef", "is_reserved": 0, "rental_uris": {"android": "https://dc.lft.to/lastmile_qr_scan", "ios": "https://dc.lft.to/lastmile_qr_scan"}, "fusion_lon": 0.0}, {"lat": 38.944230833333336, "is_disabled": 0, "type": "electric_scooter", "lon": -77.0625965, "bike_id": "e6f192a8102f40305027d0dff83f1aff", "fusion_lat": 0.0, "name": "e6f192a8102f40305027d0dff83f1aff", "is_reserved": 0, "rental_uris": {"android": "https://dc.lft.to/lastmile_qr_scan", "ios": "https://dc.lft.to/lastmile_qr_scan"}, "fusion_lon": 0.0}, {"lat": 38.926205333333336, "is_disabled": 0, "type": "electric_scooter", "lon": -77.04194383333333, "bike_id": "47ef93e94b7de3ebfb3a9bfcb9f89fcb", "fusion_lat": 0.0, "name": "47ef93e94b7de3ebfb3a9bfcb9f89fcb", "is_reserved": 0, "rental_uris": {"android": "https://dc.lft.to/lastmile_qr_scan", "ios": "https://dc.lft.to/lastmile_qr_scan"}, "fusion_lon": 0.0}, {"lat": 38.89662883333333, "is_disabled": 0, "type": "electric_scooter", "lon": -77.02412383333333, "bike_id": "686fcac5a80767df4ae757de73ba6bc0", "fusion_lat": 0.0, "name": "686fcac5a80767df4ae757de73ba6bc0", "is_reserved": 0, "rental_uris": {"android": "https://dc.lft.to/lastmile_qr_scan", "ios": "https://dc.lft.to/lastmile_qr_scan"}, "fusion_lon": 0.0}, {"lat": 38.921113166666665, "is_disabled": 0, "type": "electric_scooter", "lon": -76.99423, "bike_id": "30da336f58df7c149173753bfe25c693", "fusion_lat": 0.0, "name": "30da336f58df7c149173753bfe25c693", "is_reserved": 0, "rental_uris": {"android": "https://dc.lft.to/lastmile_qr_scan", "ios": "https://dc.lft.to/lastmile_qr_scan"}, "fusion_lon": 0.0}, {"lat": 38.89223116666667, "is_disabled": 0, "type": "electric_scooter", "lon": -77.03337466666666, "bike_id": "7183d8cf6fe6d64ee3f2ec8ea04def7d", "fusion_lat": 0.0, "name": "7183d8cf6fe6d64ee3f2ec8ea04def7d", "is_reserved": 0, "rental_uris": {"android": "https://dc.lft.to/lastmile_qr_scan", "ios": "https://dc.lft.to/lastmile_qr_scan"}, "fusion_lon": 0.0}, {"lat": 38.907297, "is_disabled": 0, "type": "electric_scooter", "lon": -77.01089166666667, "bike_id": "2aea06139d4897f2324d6b29483dfc58", "fusion_lat": 0.0, "name": "2aea06139d4897f2324d6b29483dfc58", "is_reserved": 0, "rental_uris": {"android": "https://dc.lft.to/lastmile_qr_scan", "ios": "https://dc.lft.to/lastmile_qr_scan"}, "fusion_lon": 0.0}, {"lat": 38.83981083333333, "is_disabled": 0, "type": "electric_bike", "lon": -77.00569116666667, "bike_id": "5521921662135be30c5a88e9a832d42e", "fusion_lat": 0.0, "name": "5521921662135be30c5a88e9a832d42e", "is_reserved": 0, "rental_uris": {"android": "https://dc.lft.to/lastmile_qr_scan", "ios": "https://dc.lft.to/lastmile_qr_scan"}, "fusion_lon": 0.0}, {"lat": 38.924069, "is_disabled": 0, "type": "electric_scooter", "lon": -77.05262016666667, "bike_id": "7d7c452c405ead7f839841343c5c0d59", "fusion_lat": 0.0, "name": "7d7c452c405ead7f839841343c5c0d59", "is_reserved": 0, "rental_uris": {"android": "https://dc.lft.to/lastmile_qr_scan", "ios": "https://dc.lft.to/lastmile_qr_scan"}, "fusion_lon": 0.0}, {"lat": 38.91253716666667, "is_disabled": 0, "type": "electric_scooter", "lon": -77.03862916666667, "bike_id": "48dc069dd2607ef3849c8a7cacc3c6a8", "fusion_lat": 0.0, "name": "48dc069dd2607ef3849c8a7cacc3c6a8", "is_reserved": 0, "rental_uris": {"android": "https://dc.lft.to/lastmile_qr_scan", "ios": "https://dc.lft.to/lastmile_qr_scan"}, "fusion_lon": 0.0}, {"lat": 38.90040233333333, "is_disabled": 0, "type": "electric_scooter", "lon": -76.99498216666667, "bike_id": "69a4e14ae9424f43b9af1e5210a4cb6b", "fusion_lat": 0.0, "name": "69a4e14ae9424f43b9af1e5210a4cb6b", "is_reserved": 0, "rental_uris": {"android": "https://dc.lft.to/lastmile_qr_scan", "ios": "https://dc.lft.to/lastmile_qr_scan"}, "fusion_lon": 0.0}, {"lat": 38.873135833333336, "is_disabled": 0, "type": "electric_bike", "lon": -77.0109985, "bike_id": "6281d04438f125a77523845b6cdc29ff", "fusion_lat": 0.0, "name": "6281d04438f125a77523845b6cdc29ff", "is_reserved": 0, "rental_uris": {"android": "https://dc.lft.to/lastmile_qr_scan", "ios": "https://dc.lft.to/lastmile_qr_scan"}, "fusion_lon": 0.0}, {"lat": 38.90426333333333, "is_disabled": 0, "type": "electric_scooter", "lon": -77.058929, "bike_id": "b8fddb35740c288280065760954be021", "fusion_lat": 0.0, "name": "b8fddb35740c288280065760954be021", "is_reserved": 0, "rental_uris": {"android": "https://dc.lft.to/lastmile_qr_scan", "ios": "https://dc.lft.to/lastmile_qr_scan"}, "fusion_lon": 0.0}, {"lat": 38.9338085, "is_disabled": 0, "type": "electric_scooter", "lon": -77.02603883333333, "bike_id": "ad0b3392eb80683b059d932bf51ce3c6", "fusion_lat": 0.0, "name": "ad0b3392eb80683b059d932bf51ce3c6", "is_reserved": 0, "rental_uris": {"android": "https://dc.lft.to/lastmile_qr_scan", "ios": "https://dc.lft.to/lastmile_qr_scan"}, "fusion_lon": 0.0}, {"lat": 38.929318333333335, "is_disabled": 0, "type": "electric_scooter", "lon": -77.03283216666667, "bike_id": "4b75b94d09e6a957fa88ed8757508671", "fusion_lat": 0.0, "name": "4b75b94d09e6a957fa88ed8757508671", "is_reserved": 0, "rental_uris": {"android": "https://dc.lft.to/lastmile_qr_scan", "ios": "https://dc.lft.to/lastmile_qr_scan"}, "fusion_lon": 0.0}, {"lat": 38.90955483333333, "is_disabled": 0, "type": "electric_scooter", "lon": -77.04168333333334, "bike_id": "e8e8136e017458a81bae4573b8b64540", "fusion_lat": 0.0, "name": "e8e8136e017458a81bae4573b8b64540", "is_reserved": 0, "rental_uris": {"android": "https://dc.lft.to/lastmile_qr_scan", "ios": "https://dc.lft.to/lastmile_qr_scan"}, "fusion_lon": 0.0}, {"lat": 38.909813666666665, "is_disabled": 0, "type": "electric_scooter", "lon": -76.9847035, "bike_id": "89d94a910a3835f73c8616dbe47b4794", "fusion_lat": 0.0, "name": "89d94a910a3835f73c8616dbe47b4794", "is_reserved": 0, "rental_uris": {"android": "https://dc.lft.to/lastmile_qr_scan", "ios": "https://dc.lft.to/lastmile_qr_scan"}, "fusion_lon": 0.0}, {"lat": 38.905668, "is_disabled": 0, "type": "electric_scooter", "lon": -77.00491566666666, "bike_id": "f4b643ded4042231eed916869c588049", "fusion_lat": 0.0, "name": "f4b643ded4042231eed916869c588049", "is_reserved": 0, "rental_uris": {"android": "https://dc.lft.to/lastmile_qr_scan", "ios": "https://dc.lft.to/lastmile_qr_scan"}, "fusion_lon": 0.0}, {"lat": 38.909183166666665, "is_disabled": 0, "type": "electric_scooter", "lon": -77.036473, "bike_id": "aed6f98d3aa867fd17a40022393d3711", "fusion_lat": 0.0, "name": "aed6f98d3aa867fd17a40022393d3711", "is_reserved": 0, "rental_uris": {"android": "https://dc.lft.to/lastmile_qr_scan", "ios": "https://dc.lft.to/lastmile_qr_scan"}, "fusion_lon": 0.0}, {"lat": 38.865573166666664, "is_disabled": 0, "type": "electric_scooter", "lon": -76.98951666666666, "bike_id": "c6cb04fee35cab02a750148e4fef32eb", "fusion_lat": 0.0, "name": "c6cb04fee35cab02a750148e4fef32eb", "is_reserved": 0, "rental_uris": {"android": "https://dc.lft.to/lastmile_qr_scan", "ios": "https://dc.lft.to/lastmile_qr_scan"}, "fusion_lon": 0.0}, {"lat": 38.918372, "is_disabled": 0, "type": "electric_scooter", "lon": -77.02606316666666, "bike_id": "4cd2bf167f3e6b002385a6a14356fbdc", "fusion_lat": 0.0, "name": "4cd2bf167f3e6b002385a6a14356fbdc", "is_reserved": 0, "rental_uris": {"android": "https://dc.lft.to/lastmile_qr_scan", "ios": "https://dc.lft.to/lastmile_qr_scan"}, "fusion_lon": 0.0}, {"lat": 38.90768633333333, "is_disabled": 0, "type": "electric_scooter", "lon": -76.9830585, "bike_id": "8bec69f8da1825c1f4aeda41c29b127b", "fusion_lat": 0.0, "name": "8bec69f8da1825c1f4aeda41c29b127b", "is_reserved": 0, "rental_uris": {"android": "https://dc.lft.to/lastmile_qr_scan", "ios": "https://dc.lft.to/lastmile_qr_scan"}, "fusion_lon": 0.0}, {"lat": 38.90187783333333, "is_disabled": 0, "type": "electric_scooter", "lon": -77.02151166666667, "bike_id": "9e07e5747590e977df3baecf789ac319", "fusion_lat": 0.0, "name": "9e07e5747590e977df3baecf789ac319", "is_reserved": 0, "rental_uris": {"android": "https://dc.lft.to/lastmile_qr_scan", "ios": "https://dc.lft.to/lastmile_qr_scan"}, "fusion_lon": 0.0}, {"lat": 38.955635666666666, "is_disabled": 0, "type": "electric_scooter", "lon": -77.022408, "bike_id": "5ebf64fdd70867f8ed823f6a2c681a8c", "fusion_lat": 0.0, "name": "5ebf64fdd70867f8ed823f6a2c681a8c", "is_reserved": 0, "rental_uris": {"android": "https://dc.lft.to/lastmile_qr_scan", "ios": "https://dc.lft.to/lastmile_qr_scan"}, "fusion_lon": 0.0}, {"lat": 38.9083445, "is_disabled": 0, "type": "electric_scooter", "lon": -77.043405, "bike_id": "bea3bb94026d749fa946a1e9571f7b1a", "fusion_lat": 0.0, "name": "bea3bb94026d749fa946a1e9571f7b1a", "is_reserved": 0, "rental_uris": {"android": "https://dc.lft.to/lastmile_qr_scan", "ios": "https://dc.lft.to/lastmile_qr_scan"}, "fusion_lon": 0.0}, {"lat": 38.887293666666665, "is_disabled": 0, "type": "electric_scooter", "lon": -77.02841166666667, "bike_id": "66d39c6a6cdd22a341fdb11ae60e35a8", "fusion_lat": 0.0, "name": "66d39c6a6cdd22a341fdb11ae60e35a8", "is_reserved": 0, "rental_uris": {"android": "https://dc.lft.to/lastmile_qr_scan", "ios": "https://dc.lft.to/lastmile_qr_scan"}, "fusion_lon": 0.0}, {"lat": 38.895046666666666, "is_disabled": 0, "type": "electric_scooter", "lon": -77.00325616666667, "bike_id": "cd80478f0d7153667041b8ea61f32406", "fusion_lat": 0.0, "name": "cd80478f0d7153667041b8ea61f32406", "is_reserved": 0, "rental_uris": {"android": "https://dc.lft.to/lastmile_qr_scan", "ios": "https://dc.lft.to/lastmile_qr_scan"}, "fusion_lon": 0.0}, {"lat": 38.899880333333336, "is_disabled": 0, "type": "electric_scooter", "lon": -77.0215105, "bike_id": "66a95b5181578e28db49e00030221a58", "fusion_lat": 0.0, "name": "66a95b5181578e28db49e00030221a58", "is_reserved": 0, "rental_uris": {"android": "https://dc.lft.to/lastmile_qr_scan", "ios": "https://dc.lft.to/lastmile_qr_scan"}, "fusion_lon": 0.0}, {"lat": 38.922655, "is_disabled": 0, "type": "electric_scooter", "lon": -77.02245166666667, "bike_id": "fd8074b05efcbc68c91cfc08e58181fb", "fusion_lat": 0.0, "name": "fd8074b05efcbc68c91cfc08e58181fb", "is_reserved": 0, "rental_uris": {"android": "https://dc.lft.to/lastmile_qr_scan", "ios": "https://dc.lft.to/lastmile_qr_scan"}, "fusion_lon": 0.0}, {"lat": 38.881949666666664, "is_disabled": 0, "type": "electric_scooter", "lon": -76.99621066666667, "bike_id": "a4f10ab3edb430d48657a1e1ec8385fb", "fusion_lat": 0.0, "name": "a4f10ab3edb430d48657a1e1ec8385fb", "is_reserved": 0, "rental_uris": {"android": "https://dc.lft.to/lastmile_qr_scan", "ios": "https://dc.lft.to/lastmile_qr_scan"}, "fusion_lon": 0.0}, {"lat": 38.87066383333333, "is_disabled": 0, "type": "electric_scooter", "lon": -77.00841833333334, "bike_id": "7c139a96369aba9b8b10531139c96a5e", "fusion_lat": 0.0, "name": "7c139a96369aba9b8b10531139c96a5e", "is_reserved": 0, "rental_uris": {"android": "https://dc.lft.to/lastmile_qr_scan", "ios": "https://dc.lft.to/lastmile_qr_scan"}, "fusion_lon": 0.0}, {"lat": 38.915476, "is_disabled": 0, "type": "electric_scooter", "lon": -77.0123435, "bike_id": "ea7dfda8d9ccd24d01c7f272910a5446", "fusion_lat": 0.0, "name": "ea7dfda8d9ccd24d01c7f272910a5446", "is_reserved": 0, "rental_uris": {"android": "https://dc.lft.to/lastmile_qr_scan", "ios": "https://dc.lft.to/lastmile_qr_scan"}, "fusion_lon": 0.0}, {"lat": 38.904258166666665, "is_disabled": 0, "type": "electric_scooter", "lon": -77.02617983333333, "bike_id": "421bf17ed3f194c348ff7925878f6f03", "fusion_lat": 0.0, "name": "421bf17ed3f194c348ff7925878f6f03", "is_reserved": 0, "rental_uris": {"android": "https://dc.lft.to/lastmile_qr_scan", "ios": "https://dc.lft.to/lastmile_qr_scan"}, "fusion_lon": 0.0}, {"lat": 38.922132833333336, "is_disabled": 0, "type": "electric_scooter", "lon": -77.03292433333333, "bike_id": "785cea9ea01efa738679d20789075a04", "fusion_lat": 0.0, "name": "785cea9ea01efa738679d20789075a04", "is_reserved": 0, "rental_uris": {"android": "https://dc.lft.to/lastmile_qr_scan", "ios": "https://dc.lft.to/lastmile_qr_scan"}, "fusion_lon": 0.0}, {"lat": 38.96096266666667, "is_disabled": 0, "type": "electric_scooter", "lon": -77.0828485, "bike_id": "c3311cfc5a1c49edd675858d7de6814f", "fusion_lat": 0.0, "name": "c3311cfc5a1c49edd675858d7de6814f", "is_reserved": 0, "rental_uris": {"android": "https://dc.lft.to/lastmile_qr_scan", "ios": "https://dc.lft.to/lastmile_qr_scan"}, "fusion_lon": 0.0}, {"lat": 38.90135716666666, "is_disabled": 0, "type": "electric_scooter", "lon": -77.000694, "bike_id": "8f7aa8c46de1e3f1243118f681dff5bb", "fusion_lat": 0.0, "name": "8f7aa8c46de1e3f1243118f681dff5bb", "is_reserved": 0, "rental_uris": {"android": "https://dc.lft.to/lastmile_qr_scan", "ios": "https://dc.lft.to/lastmile_qr_scan"}, "fusion_lon": 0.0}, {"lat": 38.908380333333334, "is_disabled": 0, "type": "electric_scooter", "lon": -77.04348083333333, "bike_id": "f44ae9ada6879a5ef3f64bd3832a9602", "fusion_lat": 0.0, "name": "f44ae9ada6879a5ef3f64bd3832a9602", "is_reserved": 0, "rental_uris": {"android": "https://dc.lft.to/lastmile_qr_scan", "ios": "https://dc.lft.to/lastmile_qr_scan"}, "fusion_lon": 0.0}, {"lat": 38.91819233333333, "is_disabled": 0, "type": "electric_scooter", "lon": -77.035718, "bike_id": "054e292238cdbe50dea903ebddc692cb", "fusion_lat": 0.0, "name": "054e292238cdbe50dea903ebddc692cb", "is_reserved": 0, "rental_uris": {"android": "https://dc.lft.to/lastmile_qr_scan", "ios": "https://dc.lft.to/lastmile_qr_scan"}, "fusion_lon": 0.0}, {"lat": 38.927994, "is_disabled": 0, "type": "electric_scooter", "lon": -77.03694416666667, "bike_id": "b37ecb4f6dd75cb22f230a6cecfc1648", "fusion_lat": 0.0, "name": "b37ecb4f6dd75cb22f230a6cecfc1648", "is_reserved": 0, "rental_uris": {"android": "https://dc.lft.to/lastmile_qr_scan", "ios": "https://dc.lft.to/lastmile_qr_scan"}, "fusion_lon": 0.0}, {"lat": 38.8287255, "is_disabled": 0, "type": "electric_bike", "lon": -77.11220133333333, "bike_id": "f661c80feb3ffa340856b21f25a35634", "fusion_lat": 0.0, "name": "f661c80feb3ffa340856b21f25a35634", "is_reserved": 0, "rental_uris": {"android": "https://dc.lft.to/lastmile_qr_scan", "ios": "https://dc.lft.to/lastmile_qr_scan"}, "fusion_lon": 0.0}, {"lat": 38.90986083333333, "is_disabled": 0, "type": "electric_scooter", "lon": -76.997374, "bike_id": "8d977c5d052ba808673ab7cb426f05cf", "fusion_lat": 0.0, "name": "8d977c5d052ba808673ab7cb426f05cf", "is_reserved": 0, "rental_uris": {"android": "https://dc.lft.to/lastmile_qr_scan", "ios": "https://dc.lft.to/lastmile_qr_scan"}, "fusion_lon": 0.0}, {"lat": 39.00475466666666, "is_disabled": 0, "type": "electric_bike", "lon": -76.90136433333333, "bike_id": "1c2db78821ddb14f23935ae928741e94", "fusion_lat": 0.0, "name": "1c2db78821ddb14f23935ae928741e94", "is_reserved": 0, "rental_uris": {"android": "https://dc.lft.to/lastmile_qr_scan", "ios": "https://dc.lft.to/lastmile_qr_scan"}, "fusion_lon": 0.0}, {"lat": 38.93287633333333, "is_disabled": 0, "type": "electric_scooter", "lon": -77.032793, "bike_id": "946acec383ad90f1c064e948a404dc8f", "fusion_lat": 0.0, "name": "946acec383ad90f1c064e948a404dc8f", "is_reserved": 0, "rental_uris": {"android": "https://dc.lft.to/lastmile_qr_scan", "ios": "https://dc.lft.to/lastmile_qr_scan"}, "fusion_lon": 0.0}, {"lat": 38.923238833333336, "is_disabled": 0, "type": "electric_scooter", "lon": -77.028043, "bike_id": "862e54942dc55c3588d8c832efe8184a", "fusion_lat": 0.0, "name": "862e54942dc55c3588d8c832efe8184a", "is_reserved": 0, "rental_uris": {"android": "https://dc.lft.to/lastmile_qr_scan", "ios": "https://dc.lft.to/lastmile_qr_scan"}, "fusion_lon": 0.0}, {"lat": 38.917709333333335, "is_disabled": 0, "type": "electric_scooter", "lon": -77.03660283333333, "bike_id": "a6b4740c4de81772b6d87ccb7b43278f", "fusion_lat": 0.0, "name": "a6b4740c4de81772b6d87ccb7b43278f", "is_reserved": 0, "rental_uris": {"android": "https://dc.lft.to/lastmile_qr_scan", "ios": "https://dc.lft.to/lastmile_qr_scan"}, "fusion_lon": 0.0}, {"lat": 38.930244333333334, "is_disabled": 0, "type": "electric_scooter", "lon": -77.0445485, "bike_id": "6d19772feac52c58dffa2307e09fdc98", "fusion_lat": 0.0, "name": "6d19772feac52c58dffa2307e09fdc98", "is_reserved": 0, "rental_uris": {"android": "https://dc.lft.to/lastmile_qr_scan", "ios": "https://dc.lft.to/lastmile_qr_scan"}, "fusion_lon": 0.0}, {"lat": 38.900744333333336, "is_disabled": 0, "type": "electric_scooter", "lon": -77.00205266666667, "bike_id": "4345370e1666780cb52c51ddfc692e3e", "fusion_lat": 0.0, "name": "4345370e1666780cb52c51ddfc692e3e", "is_reserved": 0, "rental_uris": {"android": "https://dc.lft.to/lastmile_qr_scan", "ios": "https://dc.lft.to/lastmile_qr_scan"}, "fusion_lon": 0.0}, {"lat": 38.89401766666667, "is_disabled": 0, "type": "electric_scooter", "lon": -77.04999333333333, "bike_id": "85e99a5bf6ea25598db501a7e9d5ca48", "fusion_lat": 0.0, "name": "85e99a5bf6ea25598db501a7e9d5ca48", "is_reserved": 0, "rental_uris": {"android": "https://dc.lft.to/lastmile_qr_scan", "ios": "https://dc.lft.to/lastmile_qr_scan"}, "fusion_lon": 0.0}, {"lat": 38.91423283333334, "is_disabled": 0, "type": "electric_scooter", "lon": -77.03183266666667, "bike_id": "d13c896581d2bc1732120d15a7152b2f", "fusion_lat": 0.0, "name": "d13c896581d2bc1732120d15a7152b2f", "is_reserved": 0, "rental_uris": {"android": "https://dc.lft.to/lastmile_qr_scan", "ios": "https://dc.lft.to/lastmile_qr_scan"}, "fusion_lon": 0.0}, {"lat": 38.93212, "is_disabled": 0, "type": "electric_scooter", "lon": -76.97767616666667, "bike_id": "706ec6c1d6e40797975bf6a75a36df4e", "fusion_lat": 0.0, "name": "706ec6c1d6e40797975bf6a75a36df4e", "is_reserved": 0, "rental_uris": {"android": "https://dc.lft.to/lastmile_qr_scan", "ios": "https://dc.lft.to/lastmile_qr_scan"}, "fusion_lon": 0.0}, {"lat": 38.902952166666665, "is_disabled": 0, "type": "electric_scooter", "lon": -77.03651316666667, "bike_id": "aef0f05e996fe5fbfe264ad88f253531", "fusion_lat": 0.0, "name": "aef0f05e996fe5fbfe264ad88f253531", "is_reserved": 0, "rental_uris": {"android": "https://dc.lft.to/lastmile_qr_scan", "ios": "https://dc.lft.to/lastmile_qr_scan"}, "fusion_lon": 0.0}, {"lat": 38.917153166666665, "is_disabled": 0, "type": "electric_scooter", "lon": -77.03338333333333, "bike_id": "f78934b0f710739df5c79dc18e75f657", "fusion_lat": 0.0, "name": "f78934b0f710739df5c79dc18e75f657", "is_reserved": 0, "rental_uris": {"android": "https://dc.lft.to/lastmile_qr_scan", "ios": "https://dc.lft.to/lastmile_qr_scan"}, "fusion_lon": 0.0}, {"lat": 38.9112525, "is_disabled": 0, "type": "electric_scooter", "lon": -77.04352366666667, "bike_id": "0f805e2c13c0b59e27609b3f6276c662", "fusion_lat": 0.0, "name": "0f805e2c13c0b59e27609b3f6276c662", "is_reserved": 0, "rental_uris": {"android": "https://dc.lft.to/lastmile_qr_scan", "ios": "https://dc.lft.to/lastmile_qr_scan"}, "fusion_lon": 0.0}, {"lat": 38.89582083333333, "is_disabled": 0, "type": "electric_bike", "lon": -77.12730683333334, "bike_id": "0147396e1872b3b4282f96dbc0e0d730", "fusion_lat": 0.0, "name": "0147396e1872b3b4282f96dbc0e0d730", "is_reserved": 0, "rental_uris": {"android": "https://dc.lft.to/lastmile_qr_scan", "ios": "https://dc.lft.to/lastmile_qr_scan"}, "fusion_lon": 0.0}, {"lat": 38.9100195, "is_disabled": 0, "type": "electric_scooter", "lon": -77.044258, "bike_id": "46ffb0fb7fc35755ec1d585d6bd15014", "fusion_lat": 0.0, "name": "46ffb0fb7fc35755ec1d585d6bd15014", "is_reserved": 0, "rental_uris": {"android": "https://dc.lft.to/lastmile_qr_scan", "ios": "https://dc.lft.to/lastmile_qr_scan"}, "fusion_lon": 0.0}, {"lat": 38.90671, "is_disabled": 0, "type": "electric_scooter", "lon": -77.03858433333333, "bike_id": "fc974389067a057197812addd9652cd7", "fusion_lat": 0.0, "name": "fc974389067a057197812addd9652cd7", "is_reserved": 0, "rental_uris": {"android": "https://dc.lft.to/lastmile_qr_scan", "ios": "https://dc.lft.to/lastmile_qr_scan"}, "fusion_lon": 0.0}, {"lat": 38.91013733333333, "is_disabled": 0, "type": "electric_scooter", "lon": -77.04445716666666, "bike_id": "3eb0cc1a944580651a1fa08db459f5ec", "fusion_lat": 0.0, "name": "3eb0cc1a944580651a1fa08db459f5ec", "is_reserved": 0, "rental_uris": {"android": "https://dc.lft.to/lastmile_qr_scan", "ios": "https://dc.lft.to/lastmile_qr_scan"}, "fusion_lon": 0.0}, {"lat": 38.865243166666666, "is_disabled": 0, "type": "electric_scooter", "lon": -76.990269, "bike_id": "f4847c6afb4d05af7ccc8ed7e54d2258", "fusion_lat": 0.0, "name": "f4847c6afb4d05af7ccc8ed7e54d2258", "is_reserved": 0, "rental_uris": {"android": "https://dc.lft.to/lastmile_qr_scan", "ios": "https://dc.lft.to/lastmile_qr_scan"}, "fusion_lon": 0.0}, {"lat": 38.933567333333336, "is_disabled": 0, "type": "electric_bike", "lon": -77.09964, "bike_id": "f3629aafd8c45eccec43ea7d84d7a172", "fusion_lat": 0.0, "name": "f3629aafd8c45eccec43ea7d84d7a172", "is_reserved": 0, "rental_uris": {"android": "https://dc.lft.to/lastmile_qr_scan", "ios": "https://dc.lft.to/lastmile_qr_scan"}, "fusion_lon": 0.0}, {"lat": 38.9430695, "is_disabled": 0, "type": "electric_scooter", "lon": -77.061367, "bike_id": "7b5d7de116a015d09a2c7a030a0ff4d5", "fusion_lat": 0.0, "name": "7b5d7de116a015d09a2c7a030a0ff4d5", "is_reserved": 0, "rental_uris": {"android": "https://dc.lft.to/lastmile_qr_scan", "ios": "https://dc.lft.to/lastmile_qr_scan"}, "fusion_lon": 0.0}, {"lat": 38.91574633333333, "is_disabled": 0, "type": "electric_scooter", "lon": -77.05017616666666, "bike_id": "69638b0d214d7943f82c75a7ba535f26", "fusion_lat": 0.0, "name": "69638b0d214d7943f82c75a7ba535f26", "is_reserved": 0, "rental_uris": {"android": "https://dc.lft.to/lastmile_qr_scan", "ios": "https://dc.lft.to/lastmile_qr_scan"}, "fusion_lon": 0.0}, {"lat": 38.92171316666666, "is_disabled": 0, "type": "electric_scooter", "lon": -77.04022216666667, "bike_id": "96f106e400f75c7b747a4ee5ccd8ef39", "fusion_lat": 0.0, "name": "96f106e400f75c7b747a4ee5ccd8ef39", "is_reserved": 0, "rental_uris": {"android": "https://dc.lft.to/lastmile_qr_scan", "ios": "https://dc.lft.to/lastmile_qr_scan"}, "fusion_lon": 0.0}, {"lat": 38.9066325, "is_disabled": 0, "type": "electric_scooter", "lon": -77.03861516666667, "bike_id": "b86ef518d8311e5304b50e2cdaeaef18", "fusion_lat": 0.0, "name": "b86ef518d8311e5304b50e2cdaeaef18", "is_reserved": 0, "rental_uris": {"android": "https://dc.lft.to/lastmile_qr_scan", "ios": "https://dc.lft.to/lastmile_qr_scan"}, "fusion_lon": 0.0}, {"lat": 38.91370766666667, "is_disabled": 0, "type": "electric_scooter", "lon": -77.04662616666667, "bike_id": "2864b5d94842b21612ce467714f37e26", "fusion_lat": 0.0, "name": "2864b5d94842b21612ce467714f37e26", "is_reserved": 0, "rental_uris": {"android": "https://dc.lft.to/lastmile_qr_scan", "ios": "https://dc.lft.to/lastmile_qr_scan"}, "fusion_lon": 0.0}, {"lat": 38.895069, "is_disabled": 0, "type": "electric_scooter", "lon": -77.01616883333334, "bike_id": "9580b1643db428458d84aa046d7be8e7", "fusion_lat": 0.0, "name": "9580b1643db428458d84aa046d7be8e7", "is_reserved": 0, "rental_uris": {"android": "https://dc.lft.to/lastmile_qr_scan", "ios": "https://dc.lft.to/lastmile_qr_scan"}, "fusion_lon": 0.0}, {"lat": 38.924764833333334, "is_disabled": 0, "type": "electric_scooter", "lon": -77.0348435, "bike_id": "5556737c8cb3df61f9a688ac5bcd40dd", "fusion_lat": 0.0, "name": "5556737c8cb3df61f9a688ac5bcd40dd", "is_reserved": 0, "rental_uris": {"android": "https://dc.lft.to/lastmile_qr_scan", "ios": "https://dc.lft.to/lastmile_qr_scan"}, "fusion_lon": 0.0}, {"lat": 38.894872, "is_disabled": 0, "type": "electric_scooter", "lon": -77.002276, "bike_id": "966308feaae217ba5bdf68e377c57633", "fusion_lat": 0.0, "name": "966308feaae217ba5bdf68e377c57633", "is_reserved": 0, "rental_uris": {"android": "https://dc.lft.to/lastmile_qr_scan", "ios": "https://dc.lft.to/lastmile_qr_scan"}, "fusion_lon": 0.0}, {"lat": 38.982237, "is_disabled": 0, "type": "electric_scooter", "lon": -77.02644916666667, "bike_id": "0d79d552fedc35f886d09a40396ff4d6", "fusion_lat": 0.0, "name": "0d79d552fedc35f886d09a40396ff4d6", "is_reserved": 0, "rental_uris": {"android": "https://dc.lft.to/lastmile_qr_scan", "ios": "https://dc.lft.to/lastmile_qr_scan"}, "fusion_lon": 0.0}, {"lat": 38.90292183333333, "is_disabled": 0, "type": "electric_scooter", "lon": -77.03645816666666, "bike_id": "0dda4fa53c98fe593120628d3f99c249", "fusion_lat": 0.0, "name": "0dda4fa53c98fe593120628d3f99c249", "is_reserved": 0, "rental_uris": {"android": "https://dc.lft.to/lastmile_qr_scan", "ios": "https://dc.lft.to/lastmile_qr_scan"}, "fusion_lon": 0.0}, {"lat": 38.92120716666667, "is_disabled": 0, "type": "electric_scooter", "lon": -77.04185583333333, "bike_id": "f19f8fe6f8462f901832374a0ec02c44", "fusion_lat": 0.0, "name": "f19f8fe6f8462f901832374a0ec02c44", "is_reserved": 0, "rental_uris": {"android": "https://dc.lft.to/lastmile_qr_scan", "ios": "https://dc.lft.to/lastmile_qr_scan"}, "fusion_lon": 0.0}, {"lat": 38.88638483333333, "is_disabled": 0, "type": "electric_scooter", "lon": -76.954915, "bike_id": "1443f04598868ff346c78eeb2ed4070c", "fusion_lat": 0.0, "name": "1443f04598868ff346c78eeb2ed4070c", "is_reserved": 0, "rental_uris": {"android": "https://dc.lft.to/lastmile_qr_scan", "ios": "https://dc.lft.to/lastmile_qr_scan"}, "fusion_lon": 0.0}, {"lat": 38.926994, "is_disabled": 0, "type": "electric_scooter", "lon": -77.01500716666666, "bike_id": "bf33615f9ed2b50369cb1b1c10326b1d", "fusion_lat": 0.0, "name": "bf33615f9ed2b50369cb1b1c10326b1d", "is_reserved": 0, "rental_uris": {"android": "https://dc.lft.to/lastmile_qr_scan", "ios": "https://dc.lft.to/lastmile_qr_scan"}, "fusion_lon": 0.0}, {"lat": 38.900702, "is_disabled": 0, "type": "electric_scooter", "lon": -77.00202666666667, "bike_id": "629a84d6ce1bf21a85a3f9cf2397f1eb", "fusion_lat": 0.0, "name": "629a84d6ce1bf21a85a3f9cf2397f1eb", "is_reserved": 0, "rental_uris": {"android": "https://dc.lft.to/lastmile_qr_scan", "ios": "https://dc.lft.to/lastmile_qr_scan"}, "fusion_lon": 0.0}, {"lat": 38.908465166666666, "is_disabled": 0, "type": "electric_scooter", "lon": -77.04772266666667, "bike_id": "9cff173488f2be5d8d416961ce2e6066", "fusion_lat": 0.0, "name": "9cff173488f2be5d8d416961ce2e6066", "is_reserved": 0, "rental_uris": {"android": "https://dc.lft.to/lastmile_qr_scan", "ios": "https://dc.lft.to/lastmile_qr_scan"}, "fusion_lon": 0.0}, {"lat": 38.900723666666664, "is_disabled": 0, "type": "electric_scooter", "lon": -77.02715083333334, "bike_id": "d64fd4022089e60ad666625ee5bc6358", "fusion_lat": 0.0, "name": "d64fd4022089e60ad666625ee5bc6358", "is_reserved": 0, "rental_uris": {"android": "https://dc.lft.to/lastmile_qr_scan", "ios": "https://dc.lft.to/lastmile_qr_scan"}, "fusion_lon": 0.0}, {"lat": 38.88924816666667, "is_disabled": 0, "type": "electric_scooter", "lon": -76.97374933333333, "bike_id": "7c430615e2d1d2af1fe43af44164d8ab", "fusion_lat": 0.0, "name": "7c430615e2d1d2af1fe43af44164d8ab", "is_reserved": 0, "rental_uris": {"android": "https://dc.lft.to/lastmile_qr_scan", "ios": "https://dc.lft.to/lastmile_qr_scan"}, "fusion_lon": 0.0}, {"lat": 38.862549333333334, "is_disabled": 0, "type": "electric_scooter", "lon": -76.99511333333334, "bike_id": "7cd4a808f680e68a510ee5d633511078", "fusion_lat": 0.0, "name": "7cd4a808f680e68a510ee5d633511078", "is_reserved": 0, "rental_uris": {"android": "https://dc.lft.to/lastmile_qr_scan", "ios": "https://dc.lft.to/lastmile_qr_scan"}, "fusion_lon": 0.0}, {"lat": 38.94322066666667, "is_disabled": 0, "type": "electric_scooter", "lon": -77.01709433333333, "bike_id": "c68ff16c5ddcb49e02cecce103251ee2", "fusion_lat": 0.0, "name": "c68ff16c5ddcb49e02cecce103251ee2", "is_reserved": 0, "rental_uris": {"android": "https://dc.lft.to/lastmile_qr_scan", "ios": "https://dc.lft.to/lastmile_qr_scan"}, "fusion_lon": 0.0}, {"lat": 38.901907666666666, "is_disabled": 0, "type": "electric_scooter", "lon": -77.023214, "bike_id": "35dd20f229f3e2a7b0c7bfc9dbba1b3d", "fusion_lat": 0.0, "name": "35dd20f229f3e2a7b0c7bfc9dbba1b3d", "is_reserved": 0, "rental_uris": {"android": "https://dc.lft.to/lastmile_qr_scan", "ios": "https://dc.lft.to/lastmile_qr_scan"}, "fusion_lon": 0.0}, {"lat": 38.9023305, "is_disabled": 0, "type": "electric_scooter", "lon": -77.045958, "bike_id": "d704da054129bf8f5b393d25a021f54a", "fusion_lat": 0.0, "name": "d704da054129bf8f5b393d25a021f54a", "is_reserved": 0, "rental_uris": {"android": "https://dc.lft.to/lastmile_qr_scan", "ios": "https://dc.lft.to/lastmile_qr_scan"}, "fusion_lon": 0.0}, {"lat": 38.90723366666667, "is_disabled": 0, "type": "electric_scooter", "lon": -77.02974016666667, "bike_id": "5af377361b15d792d55c7f6e0e954a32", "fusion_lat": 0.0, "name": "5af377361b15d792d55c7f6e0e954a32", "is_reserved": 0, "rental_uris": {"android": "https://dc.lft.to/lastmile_qr_scan", "ios": "https://dc.lft.to/lastmile_qr_scan"}, "fusion_lon": 0.0}, {"lat": 38.904301, "is_disabled": 0, "type": "electric_scooter", "lon": -77.00213666666667, "bike_id": "65797cb1a9f36d01aa324e258cc03da1", "fusion_lat": 0.0, "name": "65797cb1a9f36d01aa324e258cc03da1", "is_reserved": 0, "rental_uris": {"android": "https://dc.lft.to/lastmile_qr_scan", "ios": "https://dc.lft.to/lastmile_qr_scan"}, "fusion_lon": 0.0}, {"lat": 38.96202366666667, "is_disabled": 0, "type": "electric_bike", "lon": -77.03515716666666, "bike_id": "1e9c087ecd3cbb2df95dd3f6ba2f9331", "fusion_lat": 0.0, "name": "1e9c087ecd3cbb2df95dd3f6ba2f9331", "is_reserved": 0, "rental_uris": {"android": "https://dc.lft.to/lastmile_qr_scan", "ios": "https://dc.lft.to/lastmile_qr_scan"}, "fusion_lon": 0.0}, {"lat": 38.92509033333333, "is_disabled": 0, "type": "electric_scooter", "lon": -77.02367016666666, "bike_id": "8b324387c135025b68f6ef421d3d7a7a", "fusion_lat": 0.0, "name": "8b324387c135025b68f6ef421d3d7a7a", "is_reserved": 0, "rental_uris": {"android": "https://dc.lft.to/lastmile_qr_scan", "ios": "https://dc.lft.to/lastmile_qr_scan"}, "fusion_lon": 0.0}, {"lat": 38.912912666666664, "is_disabled": 0, "type": "electric_scooter", "lon": -77.038619, "bike_id": "b5c229936c0cd9253e469567ce5b2d93", "fusion_lat": 0.0, "name": "b5c229936c0cd9253e469567ce5b2d93", "is_reserved": 0, "rental_uris": {"android": "https://dc.lft.to/lastmile_qr_scan", "ios": "https://dc.lft.to/lastmile_qr_scan"}, "fusion_lon": 0.0}, {"lat": 38.896105666666664, "is_disabled": 0, "type": "electric_scooter", "lon": -76.95656516666666, "bike_id": "9cb34ce4f71e16ec072bf52088260b7c", "fusion_lat": 0.0, "name": "9cb34ce4f71e16ec072bf52088260b7c", "is_reserved": 0, "rental_uris": {"android": "https://dc.lft.to/lastmile_qr_scan", "ios": "https://dc.lft.to/lastmile_qr_scan"}, "fusion_lon": 0.0}, {"lat": 38.81348083333334, "is_disabled": 0, "type": "electric_bike", "lon": -77.0492195, "bike_id": "38177eb4a85bd17a7d0145ca8152ff97", "fusion_lat": 0.0, "name": "38177eb4a85bd17a7d0145ca8152ff97", "is_reserved": 0, "rental_uris": {"android": "https://dc.lft.to/lastmile_qr_scan", "ios": "https://dc.lft.to/lastmile_qr_scan"}, "fusion_lon": 0.0}, {"lat": 38.941073833333334, "is_disabled": 0, "type": "electric_scooter", "lon": -77.00065683333334, "bike_id": "eb99cf6cfa939fe5f5a6b09bd64198c2", "fusion_lat": 0.0, "name": "eb99cf6cfa939fe5f5a6b09bd64198c2", "is_reserved": 0, "rental_uris": {"android": "https://dc.lft.to/lastmile_qr_scan", "ios": "https://dc.lft.to/lastmile_qr_scan"}, "fusion_lon": 0.0}, {"lat": 38.895539666666664, "is_disabled": 0, "type": "electric_scooter", "lon": -77.00373583333334, "bike_id": "49f792bb26ff0940fdef8584a864cf28", "fusion_lat": 0.0, "name": "49f792bb26ff0940fdef8584a864cf28", "is_reserved": 0, "rental_uris": {"android": "https://dc.lft.to/lastmile_qr_scan", "ios": "https://dc.lft.to/lastmile_qr_scan"}, "fusion_lon": 0.0}, {"lat": 38.900105333333336, "is_disabled": 0, "type": "electric_scooter", "lon": -77.03314483333334, "bike_id": "b1f75fabd89f3f20d8fe89e6f3e23c87", "fusion_lat": 0.0, "name": "b1f75fabd89f3f20d8fe89e6f3e23c87", "is_reserved": 0, "rental_uris": {"android": "https://dc.lft.to/lastmile_qr_scan", "ios": "https://dc.lft.to/lastmile_qr_scan"}, "fusion_lon": 0.0}, {"lat": 38.90788966666667, "is_disabled": 0, "type": "electric_scooter", "lon": -77.0110375, "bike_id": "ebf0436567f030ccfe5e054cddcae1e8", "fusion_lat": 0.0, "name": "ebf0436567f030ccfe5e054cddcae1e8", "is_reserved": 0, "rental_uris": {"android": "https://dc.lft.to/lastmile_qr_scan", "ios": "https://dc.lft.to/lastmile_qr_scan"}, "fusion_lon": 0.0}, {"lat": 38.8716545, "is_disabled": 0, "type": "electric_scooter", "lon": -77.01361066666666, "bike_id": "ad6bbe0bc81bff7057d5777594037018", "fusion_lat": 0.0, "name": "ad6bbe0bc81bff7057d5777594037018", "is_reserved": 0, "rental_uris": {"android": "https://dc.lft.to/lastmile_qr_scan", "ios": "https://dc.lft.to/lastmile_qr_scan"}, "fusion_lon": 0.0}, {"lat": 38.92125166666667, "is_disabled": 0, "type": "electric_scooter", "lon": -77.04226916666667, "bike_id": "7fe40aa31ee99ac12ca9eed3576af560", "fusion_lat": 0.0, "name": "7fe40aa31ee99ac12ca9eed3576af560", "is_reserved": 0, "rental_uris": {"android": "https://dc.lft.to/lastmile_qr_scan", "ios": "https://dc.lft.to/lastmile_qr_scan"}, "fusion_lon": 0.0}, {"lat": 38.94907716666667, "is_disabled": 0, "type": "electric_scooter", "lon": -77.06625983333333, "bike_id": "86a8f144556dd9c8389ce75bccf72190", "fusion_lat": 0.0, "name": "86a8f144556dd9c8389ce75bccf72190", "is_reserved": 0, "rental_uris": {"android": "https://dc.lft.to/lastmile_qr_scan", "ios": "https://dc.lft.to/lastmile_qr_scan"}, "fusion_lon": 0.0}, {"lat": 38.91122766666667, "is_disabled": 0, "type": "electric_scooter", "lon": -77.03818333333334, "bike_id": "9d9b0a8211caae23d2dfb03468da7383", "fusion_lat": 0.0, "name": "9d9b0a8211caae23d2dfb03468da7383", "is_reserved": 0, "rental_uris": {"android": "https://dc.lft.to/lastmile_qr_scan", "ios": "https://dc.lft.to/lastmile_qr_scan"}, "fusion_lon": 0.0}, {"lat": 38.925764666666666, "is_disabled": 0, "type": "electric_scooter", "lon": -77.040155, "bike_id": "5b8c2af967a7f609ea6276ad62cb64e2", "fusion_lat": 0.0, "name": "5b8c2af967a7f609ea6276ad62cb64e2", "is_reserved": 0, "rental_uris": {"android": "https://dc.lft.to/lastmile_qr_scan", "ios": "https://dc.lft.to/lastmile_qr_scan"}, "fusion_lon": 0.0}, {"lat": 38.892254333333334, "is_disabled": 0, "type": "electric_scooter", "lon": -77.0486195, "bike_id": "fa47662d55738d70cd864b59fc557cab", "fusion_lat": 0.0, "name": "fa47662d55738d70cd864b59fc557cab", "is_reserved": 0, "rental_uris": {"android": "https://dc.lft.to/lastmile_qr_scan", "ios": "https://dc.lft.to/lastmile_qr_scan"}, "fusion_lon": 0.0}, {"lat": 38.90522966666666, "is_disabled": 0, "type": "electric_scooter", "lon": -77.06242833333333, "bike_id": "1db9adedf3e87bff9c2890edf9551a1c", "fusion_lat": 0.0, "name": "1db9adedf3e87bff9c2890edf9551a1c", "is_reserved": 0, "rental_uris": {"android": "https://dc.lft.to/lastmile_qr_scan", "ios": "https://dc.lft.to/lastmile_qr_scan"}, "fusion_lon": 0.0}, {"lat": 38.933256166666666, "is_disabled": 0, "type": "electric_scooter", "lon": -77.0437055, "bike_id": "10dc613d9bfed1c3ad4fcf807d7ebd2f", "fusion_lat": 0.0, "name": "10dc613d9bfed1c3ad4fcf807d7ebd2f", "is_reserved": 0, "rental_uris": {"android": "https://dc.lft.to/lastmile_qr_scan", "ios": "https://dc.lft.to/lastmile_qr_scan"}, "fusion_lon": 0.0}, {"lat": 38.892194, "is_disabled": 0, "type": "electric_scooter", "lon": -77.0262735, "bike_id": "1342fa3799323ef95953b2f7cc3406d0", "fusion_lat": 0.0, "name": "1342fa3799323ef95953b2f7cc3406d0", "is_reserved": 0, "rental_uris": {"android": "https://dc.lft.to/lastmile_qr_scan", "ios": "https://dc.lft.to/lastmile_qr_scan"}, "fusion_lon": 0.0}, {"lat": 38.919540166666664, "is_disabled": 0, "type": "electric_scooter", "lon": -76.98084666666666, "bike_id": "dfff6e4af9e5783e7ee01dd726581e9f", "fusion_lat": 0.0, "name": "dfff6e4af9e5783e7ee01dd726581e9f", "is_reserved": 0, "rental_uris": {"android": "https://dc.lft.to/lastmile_qr_scan", "ios": "https://dc.lft.to/lastmile_qr_scan"}, "fusion_lon": 0.0}, {"lat": 38.90270833333334, "is_disabled": 0, "type": "electric_scooter", "lon": -77.0282465, "bike_id": "b92442639a14f93ac80007600bae0f1d", "fusion_lat": 0.0, "name": "b92442639a14f93ac80007600bae0f1d", "is_reserved": 0, "rental_uris": {"android": "https://dc.lft.to/lastmile_qr_scan", "ios": "https://dc.lft.to/lastmile_qr_scan"}, "fusion_lon": 0.0}, {"lat": 38.85557, "is_disabled": 0, "type": "electric_bike", "lon": -77.1113065, "bike_id": "026e7786484f5fc6e036c24f1202cd1a", "fusion_lat": 0.0, "name": "026e7786484f5fc6e036c24f1202cd1a", "is_reserved": 0, "rental_uris": {"android": "https://dc.lft.to/lastmile_qr_scan", "ios": "https://dc.lft.to/lastmile_qr_scan"}, "fusion_lon": 0.0}, {"lat": 38.91422416666666, "is_disabled": 0, "type": "electric_scooter", "lon": -77.03180683333333, "bike_id": "f660461a41cb1e9109e057f857bfe5dc", "fusion_lat": 0.0, "name": "f660461a41cb1e9109e057f857bfe5dc", "is_reserved": 0, "rental_uris": {"android": "https://dc.lft.to/lastmile_qr_scan", "ios": "https://dc.lft.to/lastmile_qr_scan"}, "fusion_lon": 0.0}, {"lat": 38.918768166666666, "is_disabled": 0, "type": "electric_scooter", "lon": -77.04029733333333, "bike_id": "6edd300195d58dce16803d94fffaf5e1", "fusion_lat": 0.0, "name": "6edd300195d58dce16803d94fffaf5e1", "is_reserved": 0, "rental_uris": {"android": "https://dc.lft.to/lastmile_qr_scan", "ios": "https://dc.lft.to/lastmile_qr_scan"}, "fusion_lon": 0.0}, {"lat": 38.90704316666667, "is_disabled": 0, "type": "electric_scooter", "lon": -77.06314733333333, "bike_id": "53b3bed3ddb01887d11468c83fd4206a", "fusion_lat": 0.0, "name": "53b3bed3ddb01887d11468c83fd4206a", "is_reserved": 0, "rental_uris": {"android": "https://dc.lft.to/lastmile_qr_scan", "ios": "https://dc.lft.to/lastmile_qr_scan"}, "fusion_lon": 0.0}, {"lat": 38.91344933333333, "is_disabled": 0, "type": "electric_scooter", "lon": -77.0022475, "bike_id": "61e916c0310ac1a895f23f19f35e721d", "fusion_lat": 0.0, "name": "61e916c0310ac1a895f23f19f35e721d", "is_reserved": 0, "rental_uris": {"android": "https://dc.lft.to/lastmile_qr_scan", "ios": "https://dc.lft.to/lastmile_qr_scan"}, "fusion_lon": 0.0}, {"lat": 38.899007, "is_disabled": 0, "type": "electric_scooter", "lon": -77.02211766666667, "bike_id": "38cac8ec460416282526a153835d4840", "fusion_lat": 0.0, "name": "38cac8ec460416282526a153835d4840", "is_reserved": 0, "rental_uris": {"android": "https://dc.lft.to/lastmile_qr_scan", "ios": "https://dc.lft.to/lastmile_qr_scan"}, "fusion_lon": 0.0}, {"lat": 38.8610845, "is_disabled": 0, "type": "electric_scooter", "lon": -76.96782383333333, "bike_id": "e6a70299e13f72a8415aa216ac4e0980", "fusion_lat": 0.0, "name": "e6a70299e13f72a8415aa216ac4e0980", "is_reserved": 0, "rental_uris": {"android": "https://dc.lft.to/lastmile_qr_scan", "ios": "https://dc.lft.to/lastmile_qr_scan"}, "fusion_lon": 0.0}, {"lat": 38.858045, "is_disabled": 0, "type": "electric_scooter", "lon": -76.98708316666666, "bike_id": "1a2f05299b0ca1d09c3ed79dc68ed1fc", "fusion_lat": 0.0, "name": "1a2f05299b0ca1d09c3ed79dc68ed1fc", "is_reserved": 0, "rental_uris": {"android": "https://dc.lft.to/lastmile_qr_scan", "ios": "https://dc.lft.to/lastmile_qr_scan"}, "fusion_lon": 0.0}, {"lat": 38.883434666666666, "is_disabled": 0, "type": "electric_scooter", "lon": -77.03151283333334, "bike_id": "e1a1f3f29aaa331f4f3dca9f9afb1a27", "fusion_lat": 0.0, "name": "e1a1f3f29aaa331f4f3dca9f9afb1a27", "is_reserved": 0, "rental_uris": {"android": "https://dc.lft.to/lastmile_qr_scan", "ios": "https://dc.lft.to/lastmile_qr_scan"}, "fusion_lon": 0.0}, {"lat": 38.9121365, "is_disabled": 0, "type": "electric_scooter", "lon": -77.04506583333334, "bike_id": "0bc6443ceb4b19ac612ef8db45ec6f74", "fusion_lat": 0.0, "name": "0bc6443ceb4b19ac612ef8db45ec6f74", "is_reserved": 0, "rental_uris": {"android": "https://dc.lft.to/lastmile_qr_scan", "ios": "https://dc.lft.to/lastmile_qr_scan"}, "fusion_lon": 0.0}, {"lat": 38.922459833333335, "is_disabled": 0, "type": "electric_scooter", "lon": -77.04260366666666, "bike_id": "6f3b64727e38b19d07492e827600dbbd", "fusion_lat": 0.0, "name": "6f3b64727e38b19d07492e827600dbbd", "is_reserved": 0, "rental_uris": {"android": "https://dc.lft.to/lastmile_qr_scan", "ios": "https://dc.lft.to/lastmile_qr_scan"}, "fusion_lon": 0.0}, {"lat": 38.911094, "is_disabled": 0, "type": "electric_scooter", "lon": -77.03217533333333, "bike_id": "00fefabdbce4d16f09cd2d665e6b76b5", "fusion_lat": 0.0, "name": "00fefabdbce4d16f09cd2d665e6b76b5", "is_reserved": 0, "rental_uris": {"android": "https://dc.lft.to/lastmile_qr_scan", "ios": "https://dc.lft.to/lastmile_qr_scan"}, "fusion_lon": 0.0}, {"lat": 38.92394566666667, "is_disabled": 0, "type": "electric_scooter", "lon": -77.0006855, "bike_id": "b10517dddfe5ff37d49eccb0ed94d1a8", "fusion_lat": 0.0, "name": "b10517dddfe5ff37d49eccb0ed94d1a8", "is_reserved": 0, "rental_uris": {"android": "https://dc.lft.to/lastmile_qr_scan", "ios": "https://dc.lft.to/lastmile_qr_scan"}, "fusion_lon": 0.0}, {"lat": 38.918049833333335, "is_disabled": 0, "type": "electric_scooter", "lon": -77.02696783333333, "bike_id": "28764b10cda339b271a0d2afce8654ea", "fusion_lat": 0.0, "name": "28764b10cda339b271a0d2afce8654ea", "is_reserved": 0, "rental_uris": {"android": "https://dc.lft.to/lastmile_qr_scan", "ios": "https://dc.lft.to/lastmile_qr_scan"}, "fusion_lon": 0.0}, {"lat": 38.918077833333335, "is_disabled": 0, "type": "electric_scooter", "lon": -77.03438116666666, "bike_id": "5269cf3cb5f6fef14cc8e25b1245e87f", "fusion_lat": 0.0, "name": "5269cf3cb5f6fef14cc8e25b1245e87f", "is_reserved": 0, "rental_uris": {"android": "https://dc.lft.to/lastmile_qr_scan", "ios": "https://dc.lft.to/lastmile_qr_scan"}, "fusion_lon": 0.0}, {"lat": 38.91540033333333, "is_disabled": 0, "type": "electric_scooter", "lon": -77.03209933333333, "bike_id": "64504f91c0aa8e87120290cb9da93416", "fusion_lat": 0.0, "name": "64504f91c0aa8e87120290cb9da93416", "is_reserved": 0, "rental_uris": {"android": "https://dc.lft.to/lastmile_qr_scan", "ios": "https://dc.lft.to/lastmile_qr_scan"}, "fusion_lon": 0.0}, {"lat": 38.999942, "is_disabled": 0, "type": "electric_bike", "lon": -76.92497933333334, "bike_id": "5fa08be79a9b12c364993afed2c9f75d", "fusion_lat": 0.0, "name": "5fa08be79a9b12c364993afed2c9f75d", "is_reserved": 0, "rental_uris": {"android": "https://dc.lft.to/lastmile_qr_scan", "ios": "https://dc.lft.to/lastmile_qr_scan"}, "fusion_lon": 0.0}, {"lat": 38.897314, "is_disabled": 0, "type": "electric_scooter", "lon": -77.05474883333333, "bike_id": "3b80b398420a530c0efbb72f15db3aa0", "fusion_lat": 0.0, "name": "3b80b398420a530c0efbb72f15db3aa0", "is_reserved": 0, "rental_uris": {"android": "https://dc.lft.to/lastmile_qr_scan", "ios": "https://dc.lft.to/lastmile_qr_scan"}, "fusion_lon": 0.0}, {"lat": 38.916374, "is_disabled": 0, "type": "electric_scooter", "lon": -77.022465, "bike_id": "51b7f0bb7bb38e17a4bf85d9ba37aab6", "fusion_lat": 0.0, "name": "51b7f0bb7bb38e17a4bf85d9ba37aab6", "is_reserved": 0, "rental_uris": {"android": "https://dc.lft.to/lastmile_qr_scan", "ios": "https://dc.lft.to/lastmile_qr_scan"}, "fusion_lon": 0.0}, {"lat": 38.91313616666667, "is_disabled": 0, "type": "electric_scooter", "lon": -77.03207916666666, "bike_id": "c4834388a93836b34e867697a32760f6", "fusion_lat": 0.0, "name": "c4834388a93836b34e867697a32760f6", "is_reserved": 0, "rental_uris": {"android": "https://dc.lft.to/lastmile_qr_scan", "ios": "https://dc.lft.to/lastmile_qr_scan"}, "fusion_lon": 0.0}, {"lat": 38.91404033333333, "is_disabled": 0, "type": "electric_scooter", "lon": -77.0449925, "bike_id": "2fad7f48546b80be8eaf6b50d36b8094", "fusion_lat": 0.0, "name": "2fad7f48546b80be8eaf6b50d36b8094", "is_reserved": 0, "rental_uris": {"android": "https://dc.lft.to/lastmile_qr_scan", "ios": "https://dc.lft.to/lastmile_qr_scan"}, "fusion_lon": 0.0}, {"lat": 38.890868, "is_disabled": 0, "type": "electric_scooter", "lon": -76.9526795, "bike_id": "33d55db3d0dbb4ebabf05adb956e8861", "fusion_lat": 0.0, "name": "33d55db3d0dbb4ebabf05adb956e8861", "is_reserved": 0, "rental_uris": {"android": "https://dc.lft.to/lastmile_qr_scan", "ios": "https://dc.lft.to/lastmile_qr_scan"}, "fusion_lon": 0.0}, {"lat": 38.9521735, "is_disabled": 0, "type": "electric_scooter", "lon": -77.08601366666667, "bike_id": "2e29b0e4940ec3d5cd667121cd705624", "fusion_lat": 0.0, "name": "2e29b0e4940ec3d5cd667121cd705624", "is_reserved": 0, "rental_uris": {"android": "https://dc.lft.to/lastmile_qr_scan", "ios": "https://dc.lft.to/lastmile_qr_scan"}, "fusion_lon": 0.0}, {"lat": 39.075042333333336, "is_disabled": 0, "type": "electric_bike", "lon": -77.11897566666667, "bike_id": "301d6150fc874af2b5da7fa46b9423c1", "fusion_lat": 0.0, "name": "301d6150fc874af2b5da7fa46b9423c1", "is_reserved": 0, "rental_uris": {"android": "https://dc.lft.to/lastmile_qr_scan", "ios": "https://dc.lft.to/lastmile_qr_scan"}, "fusion_lon": 0.0}, {"lat": 38.921108833333335, "is_disabled": 0, "type": "electric_bike", "lon": -77.04829883333333, "bike_id": "d0945e7f06748c8b2baa13423117ce7b", "fusion_lat": 0.0, "name": "d0945e7f06748c8b2baa13423117ce7b", "is_reserved": 0, "rental_uris": {"android": "https://dc.lft.to/lastmile_qr_scan", "ios": "https://dc.lft.to/lastmile_qr_scan"}, "fusion_lon": 0.0}, {"lat": 38.926545, "is_disabled": 0, "type": "electric_scooter", "lon": -77.024188, "bike_id": "1ee9d39404d0e65181e5b8fe7eccec4a", "fusion_lat": 0.0, "name": "1ee9d39404d0e65181e5b8fe7eccec4a", "is_reserved": 0, "rental_uris": {"android": "https://dc.lft.to/lastmile_qr_scan", "ios": "https://dc.lft.to/lastmile_qr_scan"}, "fusion_lon": 0.0}, {"lat": 38.91264683333333, "is_disabled": 0, "type": "electric_scooter", "lon": -77.02252666666666, "bike_id": "1ff3193b501c51aa8b190df0858edff2", "fusion_lat": 0.0, "name": "1ff3193b501c51aa8b190df0858edff2", "is_reserved": 0, "rental_uris": {"android": "https://dc.lft.to/lastmile_qr_scan", "ios": "https://dc.lft.to/lastmile_qr_scan"}, "fusion_lon": 0.0}, {"lat": 38.9210405, "is_disabled": 0, "type": "electric_scooter", "lon": -77.04575466666667, "bike_id": "443d0ebbcda041e53449def20f4c9aaf", "fusion_lat": 0.0, "name": "443d0ebbcda041e53449def20f4c9aaf", "is_reserved": 0, "rental_uris": {"android": "https://dc.lft.to/lastmile_qr_scan", "ios": "https://dc.lft.to/lastmile_qr_scan"}, "fusion_lon": 0.0}, {"lat": 38.910993500000004, "is_disabled": 0, "type": "electric_scooter", "lon": -77.03855666666666, "bike_id": "70cc36a8e401cf1d508669e96e038ee4", "fusion_lat": 0.0, "name": "70cc36a8e401cf1d508669e96e038ee4", "is_reserved": 0, "rental_uris": {"android": "https://dc.lft.to/lastmile_qr_scan", "ios": "https://dc.lft.to/lastmile_qr_scan"}, "fusion_lon": 0.0}, {"lat": 38.911788333333334, "is_disabled": 0, "type": "electric_scooter", "lon": -77.03190116666667, "bike_id": "af499e62cdd652e627bd3e829705508e", "fusion_lat": 0.0, "name": "af499e62cdd652e627bd3e829705508e", "is_reserved": 0, "rental_uris": {"android": "https://dc.lft.to/lastmile_qr_scan", "ios": "https://dc.lft.to/lastmile_qr_scan"}, "fusion_lon": 0.0}, {"lat": 38.91404983333334, "is_disabled": 0, "type": "electric_scooter", "lon": -77.03864133333333, "bike_id": "4a92e245ea80fbec5f5f53f3a221c2cf", "fusion_lat": 0.0, "name": "4a92e245ea80fbec5f5f53f3a221c2cf", "is_reserved": 0, "rental_uris": {"android": "https://dc.lft.to/lastmile_qr_scan", "ios": "https://dc.lft.to/lastmile_qr_scan"}, "fusion_lon": 0.0}, {"lat": 38.897440333333336, "is_disabled": 0, "type": "electric_scooter", "lon": -77.000736, "bike_id": "2562d78ab572b09b392b162b4fd04704", "fusion_lat": 0.0, "name": "2562d78ab572b09b392b162b4fd04704", "is_reserved": 0, "rental_uris": {"android": "https://dc.lft.to/lastmile_qr_scan", "ios": "https://dc.lft.to/lastmile_qr_scan"}, "fusion_lon": 0.0}, {"lat": 38.90017116666667, "is_disabled": 0, "type": "electric_scooter", "lon": -77.0119795, "bike_id": "0cd3c20c336e3737a97ec6249a713c25", "fusion_lat": 0.0, "name": "0cd3c20c336e3737a97ec6249a713c25", "is_reserved": 0, "rental_uris": {"android": "https://dc.lft.to/lastmile_qr_scan", "ios": "https://dc.lft.to/lastmile_qr_scan"}, "fusion_lon": 0.0}, {"lat": 38.9169085, "is_disabled": 0, "type": "electric_scooter", "lon": -77.03773933333333, "bike_id": "036b6c0fff2f33a94370577706a34702", "fusion_lat": 0.0, "name": "036b6c0fff2f33a94370577706a34702", "is_reserved": 0, "rental_uris": {"android": "https://dc.lft.to/lastmile_qr_scan", "ios": "https://dc.lft.to/lastmile_qr_scan"}, "fusion_lon": 0.0}, {"lat": 38.933191666666666, "is_disabled": 0, "type": "electric_scooter", "lon": -77.04522683333333, "bike_id": "946b37968c62ca1b01105e4bc30eb81d", "fusion_lat": 0.0, "name": "946b37968c62ca1b01105e4bc30eb81d", "is_reserved": 0, "rental_uris": {"android": "https://dc.lft.to/lastmile_qr_scan", "ios": "https://dc.lft.to/lastmile_qr_scan"}, "fusion_lon": 0.0}, {"lat": 38.905384, "is_disabled": 0, "type": "electric_scooter", "lon": -77.05698783333334, "bike_id": "fab528753883048ba2abfd9d66cc0ede", "fusion_lat": 0.0, "name": "fab528753883048ba2abfd9d66cc0ede", "is_reserved": 0, "rental_uris": {"android": "https://dc.lft.to/lastmile_qr_scan", "ios": "https://dc.lft.to/lastmile_qr_scan"}, "fusion_lon": 0.0}, {"lat": 38.89869983333333, "is_disabled": 0, "type": "electric_scooter", "lon": -77.02016433333333, "bike_id": "17757b819880c84bfc8bae0437ed5c07", "fusion_lat": 0.0, "name": "17757b819880c84bfc8bae0437ed5c07", "is_reserved": 0, "rental_uris": {"android": "https://dc.lft.to/lastmile_qr_scan", "ios": "https://dc.lft.to/lastmile_qr_scan"}, "fusion_lon": 0.0}, {"lat": 38.878834833333336, "is_disabled": 0, "type": "electric_scooter", "lon": -77.00738683333333, "bike_id": "91bc75512e81992da8fb6745d02af63b", "fusion_lat": 0.0, "name": "91bc75512e81992da8fb6745d02af63b", "is_reserved": 0, "rental_uris": {"android": "https://dc.lft.to/lastmile_qr_scan", "ios": "https://dc.lft.to/lastmile_qr_scan"}, "fusion_lon": 0.0}, {"lat": 38.901158333333335, "is_disabled": 0, "type": "electric_scooter", "lon": -77.0319565, "bike_id": "9115bb38a8eab5875f05ad5787feb02e", "fusion_lat": 0.0, "name": "9115bb38a8eab5875f05ad5787feb02e", "is_reserved": 0, "rental_uris": {"android": "https://dc.lft.to/lastmile_qr_scan", "ios": "https://dc.lft.to/lastmile_qr_scan"}, "fusion_lon": 0.0}, {"lat": 38.866772, "is_disabled": 0, "type": "electric_scooter", "lon": -76.98538783333333, "bike_id": "22477e6df079963b6daeb9b212daab56", "fusion_lat": 0.0, "name": "22477e6df079963b6daeb9b212daab56", "is_reserved": 0, "rental_uris": {"android": "https://dc.lft.to/lastmile_qr_scan", "ios": "https://dc.lft.to/lastmile_qr_scan"}, "fusion_lon": 0.0}, {"lat": 38.877301833333334, "is_disabled": 0, "type": "electric_bike", "lon": -76.98110466666667, "bike_id": "216e0373de94957a7e743093c8e60e0b", "fusion_lat": 0.0, "name": "216e0373de94957a7e743093c8e60e0b", "is_reserved": 0, "rental_uris": {"android": "https://dc.lft.to/lastmile_qr_scan", "ios": "https://dc.lft.to/lastmile_qr_scan"}, "fusion_lon": 0.0}, {"lat": 38.89303533333333, "is_disabled": 0, "type": "electric_scooter", "lon": -77.026145, "bike_id": "7c96056a4d951ac88a18165460b6f0db", "fusion_lat": 0.0, "name": "7c96056a4d951ac88a18165460b6f0db", "is_reserved": 0, "rental_uris": {"android": "https://dc.lft.to/lastmile_qr_scan", "ios": "https://dc.lft.to/lastmile_qr_scan"}, "fusion_lon": 0.0}, {"lat": 38.832353, "is_disabled": 0, "type": "electric_bike", "lon": -77.04974383333334, "bike_id": "8a37e75ca3acc0ee3eeb8b59cf10179c", "fusion_lat": 0.0, "name": "8a37e75ca3acc0ee3eeb8b59cf10179c", "is_reserved": 0, "rental_uris": {"android": "https://dc.lft.to/lastmile_qr_scan", "ios": "https://dc.lft.to/lastmile_qr_scan"}, "fusion_lon": 0.0}, {"lat": 38.91781133333333, "is_disabled": 0, "type": "electric_scooter", "lon": -77.02881916666666, "bike_id": "8d9a4cc7d6a947a176e1f677dec1667d", "fusion_lat": 0.0, "name": "8d9a4cc7d6a947a176e1f677dec1667d", "is_reserved": 0, "rental_uris": {"android": "https://dc.lft.to/lastmile_qr_scan", "ios": "https://dc.lft.to/lastmile_qr_scan"}, "fusion_lon": 0.0}, {"lat": 38.922003, "is_disabled": 0, "type": "electric_scooter", "lon": -76.95659283333333, "bike_id": "730bf9cf8cae1f490ba63b9ac3cb6e76", "fusion_lat": 0.0, "name": "730bf9cf8cae1f490ba63b9ac3cb6e76", "is_reserved": 0, "rental_uris": {"android": "https://dc.lft.to/lastmile_qr_scan", "ios": "https://dc.lft.to/lastmile_qr_scan"}, "fusion_lon": 0.0}, {"lat": 39.088550166666664, "is_disabled": 0, "type": "electric_bike", "lon": -77.1784295, "bike_id": "5d53044939262cc079b76f199cac89c9", "fusion_lat": 0.0, "name": "5d53044939262cc079b76f199cac89c9", "is_reserved": 0, "rental_uris": {"android": "https://dc.lft.to/lastmile_qr_scan", "ios": "https://dc.lft.to/lastmile_qr_scan"}, "fusion_lon": 0.0}, {"lat": 38.928536333333334, "is_disabled": 0, "type": "electric_bike", "lon": -77.22204483333333, "bike_id": "391f20bc910af8b4e94aff00f9598c87", "fusion_lat": 0.0, "name": "391f20bc910af8b4e94aff00f9598c87", "is_reserved": 0, "rental_uris": {"android": "https://dc.lft.to/lastmile_qr_scan", "ios": "https://dc.lft.to/lastmile_qr_scan"}, "fusion_lon": 0.0}, {"lat": 38.90652033333333, "is_disabled": 0, "type": "electric_bike", "lon": -77.04177333333334, "bike_id": "185e5fac5f7530f13d15edd23d600247", "fusion_lat": 0.0, "name": "185e5fac5f7530f13d15edd23d600247", "is_reserved": 0, "rental_uris": {"android": "https://dc.lft.to/lastmile_qr_scan", "ios": "https://dc.lft.to/lastmile_qr_scan"}, "fusion_lon": 0.0}, {"lat": 38.901762833333336, "is_disabled": 0, "type": "electric_scooter", "lon": -77.05001366666667, "bike_id": "a2eaee9eba2907fbd93ff43c5abcaec3", "fusion_lat": 0.0, "name": "a2eaee9eba2907fbd93ff43c5abcaec3", "is_reserved": 0, "rental_uris": {"android": "https://dc.lft.to/lastmile_qr_scan", "ios": "https://dc.lft.to/lastmile_qr_scan"}, "fusion_lon": 0.0}, {"lat": 38.965546833333335, "is_disabled": 0, "type": "electric_bike", "lon": -77.0204005, "bike_id": "e463c8e8f6e318a443665ce48e9bde73", "fusion_lat": 0.0, "name": "e463c8e8f6e318a443665ce48e9bde73", "is_reserved": 0, "rental_uris": {"android": "https://dc.lft.to/lastmile_qr_scan", "ios": "https://dc.lft.to/lastmile_qr_scan"}, "fusion_lon": 0.0}, {"lat": 38.9063495, "is_disabled": 0, "type": "electric_scooter", "lon": -77.031448, "bike_id": "8ee287b74d604ec5103dba56ec1f5d3a", "fusion_lat": 0.0, "name": "8ee287b74d604ec5103dba56ec1f5d3a", "is_reserved": 0, "rental_uris": {"android": "https://dc.lft.to/lastmile_qr_scan", "ios": "https://dc.lft.to/lastmile_qr_scan"}, "fusion_lon": 0.0}, {"lat": 38.903205166666666, "is_disabled": 0, "type": "electric_scooter", "lon": -77.02882833333334, "bike_id": "772cac9f8aee2e5b8078c8d5a2e89bfd", "fusion_lat": 0.0, "name": "772cac9f8aee2e5b8078c8d5a2e89bfd", "is_reserved": 0, "rental_uris": {"android": "https://dc.lft.to/lastmile_qr_scan", "ios": "https://dc.lft.to/lastmile_qr_scan"}, "fusion_lon": 0.0}, {"lat": 38.915342333333335, "is_disabled": 0, "type": "electric_scooter", "lon": -77.0318685, "bike_id": "10ce542ca9fb84908ccf335aabb2ed58", "fusion_lat": 0.0, "name": "10ce542ca9fb84908ccf335aabb2ed58", "is_reserved": 0, "rental_uris": {"android": "https://dc.lft.to/lastmile_qr_scan", "ios": "https://dc.lft.to/lastmile_qr_scan"}, "fusion_lon": 0.0}, {"lat": 38.917647333333335, "is_disabled": 0, "type": "electric_scooter", "lon": -77.04768033333333, "bike_id": "7938e8d874ffa5e9e0719e6dd36a5963", "fusion_lat": 0.0, "name": "7938e8d874ffa5e9e0719e6dd36a5963", "is_reserved": 0, "rental_uris": {"android": "https://dc.lft.to/lastmile_qr_scan", "ios": "https://dc.lft.to/lastmile_qr_scan"}, "fusion_lon": 0.0}, {"lat": 38.80046433333333, "is_disabled": 0, "type": "electric_bike", "lon": -77.06294933333334, "bike_id": "008e619fb02a147cd8cb64a2ee86158b", "fusion_lat": 0.0, "name": "008e619fb02a147cd8cb64a2ee86158b", "is_reserved": 0, "rental_uris": {"android": "https://dc.lft.to/lastmile_qr_scan", "ios": "https://dc.lft.to/lastmile_qr_scan"}, "fusion_lon": 0.0}, {"lat": 38.866462166666665, "is_disabled": 0, "type": "electric_scooter", "lon": -76.98888283333334, "bike_id": "dc6be35f6fe916b1670dd3c22dcebee6", "fusion_lat": 0.0, "name": "dc6be35f6fe916b1670dd3c22dcebee6", "is_reserved": 0, "rental_uris": {"android": "https://dc.lft.to/lastmile_qr_scan", "ios": "https://dc.lft.to/lastmile_qr_scan"}, "fusion_lon": 0.0}, {"lat": 38.94171383333333, "is_disabled": 0, "type": "electric_bike", "lon": -76.98484516666667, "bike_id": "60845bfde0f828e40fd116d7870ad22d", "fusion_lat": 0.0, "name": "60845bfde0f828e40fd116d7870ad22d", "is_reserved": 0, "rental_uris": {"android": "https://dc.lft.to/lastmile_qr_scan", "ios": "https://dc.lft.to/lastmile_qr_scan"}, "fusion_lon": 0.0}, {"lat": 38.886737833333335, "is_disabled": 0, "type": "electric_scooter", "lon": -77.01383266666667, "bike_id": "6d0868cdb3e84894d80427bd660ba387", "fusion_lat": 0.0, "name": "6d0868cdb3e84894d80427bd660ba387", "is_reserved": 0, "rental_uris": {"android": "https://dc.lft.to/lastmile_qr_scan", "ios": "https://dc.lft.to/lastmile_qr_scan"}, "fusion_lon": 0.0}, {"lat": 38.9125265, "is_disabled": 0, "type": "electric_scooter", "lon": -77.03215233333333, "bike_id": "f0ab644228bd129357043e80578af1ff", "fusion_lat": 0.0, "name": "f0ab644228bd129357043e80578af1ff", "is_reserved": 0, "rental_uris": {"android": "https://dc.lft.to/lastmile_qr_scan", "ios": "https://dc.lft.to/lastmile_qr_scan"}, "fusion_lon": 0.0}, {"lat": 38.907163833333335, "is_disabled": 0, "type": "electric_scooter", "lon": -77.02978066666667, "bike_id": "60e1aaf81963d8c1714ae94733972e01", "fusion_lat": 0.0, "name": "60e1aaf81963d8c1714ae94733972e01", "is_reserved": 0, "rental_uris": {"android": "https://dc.lft.to/lastmile_qr_scan", "ios": "https://dc.lft.to/lastmile_qr_scan"}, "fusion_lon": 0.0}, {"lat": 38.88497133333333, "is_disabled": 0, "type": "electric_scooter", "lon": -77.00710566666666, "bike_id": "0bb0dbf8b55091411fd25d1fb78dfdaf", "fusion_lat": 0.0, "name": "0bb0dbf8b55091411fd25d1fb78dfdaf", "is_reserved": 0, "rental_uris": {"android": "https://dc.lft.to/lastmile_qr_scan", "ios": "https://dc.lft.to/lastmile_qr_scan"}, "fusion_lon": 0.0}, {"lat": 38.89551633333333, "is_disabled": 0, "type": "electric_scooter", "lon": -77.00440816666666, "bike_id": "f4b20c86cccb8805d222e694e329d5f4", "fusion_lat": 0.0, "name": "f4b20c86cccb8805d222e694e329d5f4", "is_reserved": 0, "rental_uris": {"android": "https://dc.lft.to/lastmile_qr_scan", "ios": "https://dc.lft.to/lastmile_qr_scan"}, "fusion_lon": 0.0}, {"lat": 38.85680466666667, "is_disabled": 0, "type": "electric_scooter", "lon": -76.98180183333334, "bike_id": "62569f4a7c35a4e4c738ad80f82c0001", "fusion_lat": 0.0, "name": "62569f4a7c35a4e4c738ad80f82c0001", "is_reserved": 0, "rental_uris": {"android": "https://dc.lft.to/lastmile_qr_scan", "ios": "https://dc.lft.to/lastmile_qr_scan"}, "fusion_lon": 0.0}, {"lat": 38.91660816666667, "is_disabled": 0, "type": "electric_scooter", "lon": -77.04716883333333, "bike_id": "2aaa812a5e8dd4c7765fc8422579e822", "fusion_lat": 0.0, "name": "2aaa812a5e8dd4c7765fc8422579e822", "is_reserved": 0, "rental_uris": {"android": "https://dc.lft.to/lastmile_qr_scan", "ios": "https://dc.lft.to/lastmile_qr_scan"}, "fusion_lon": 0.0}, {"lat": 38.90143533333333, "is_disabled": 0, "type": "electric_scooter", "lon": -77.029267, "bike_id": "1f7d6ecc8ad88ca86ea42b771c0668f2", "fusion_lat": 0.0, "name": "1f7d6ecc8ad88ca86ea42b771c0668f2", "is_reserved": 0, "rental_uris": {"android": "https://dc.lft.to/lastmile_qr_scan", "ios": "https://dc.lft.to/lastmile_qr_scan"}, "fusion_lon": 0.0}, {"lat": 38.920295333333335, "is_disabled": 0, "type": "electric_scooter", "lon": -76.99346133333333, "bike_id": "e83fc645208459f8e0f9ebdcb634bc04", "fusion_lat": 0.0, "name": "e83fc645208459f8e0f9ebdcb634bc04", "is_reserved": 0, "rental_uris": {"android": "https://dc.lft.to/lastmile_qr_scan", "ios": "https://dc.lft.to/lastmile_qr_scan"}, "fusion_lon": 0.0}, {"lat": 38.9177885, "is_disabled": 0, "type": "electric_scooter", "lon": -77.02313333333333, "bike_id": "b2927f792fc636c7cf314b77dea9eaa7", "fusion_lat": 0.0, "name": "b2927f792fc636c7cf314b77dea9eaa7", "is_reserved": 0, "rental_uris": {"android": "https://dc.lft.to/lastmile_qr_scan", "ios": "https://dc.lft.to/lastmile_qr_scan"}, "fusion_lon": 0.0}, {"lat": 38.86509383333333, "is_disabled": 0, "type": "electric_scooter", "lon": -76.99010733333333, "bike_id": "59940c110bfad52364db448ebd399d79", "fusion_lat": 0.0, "name": "59940c110bfad52364db448ebd399d79", "is_reserved": 0, "rental_uris": {"android": "https://dc.lft.to/lastmile_qr_scan", "ios": "https://dc.lft.to/lastmile_qr_scan"}, "fusion_lon": 0.0}, {"lat": 38.89340516666667, "is_disabled": 0, "type": "electric_scooter", "lon": -77.01231133333333, "bike_id": "d40c18c601564e73bb9a64817755f63d", "fusion_lat": 0.0, "name": "d40c18c601564e73bb9a64817755f63d", "is_reserved": 0, "rental_uris": {"android": "https://dc.lft.to/lastmile_qr_scan", "ios": "https://dc.lft.to/lastmile_qr_scan"}, "fusion_lon": 0.0}, {"lat": 38.90322233333333, "is_disabled": 0, "type": "electric_scooter", "lon": -77.02864816666667, "bike_id": "0d7c3d2f575027fdcf62850b0edad726", "fusion_lat": 0.0, "name": "0d7c3d2f575027fdcf62850b0edad726", "is_reserved": 0, "rental_uris": {"android": "https://dc.lft.to/lastmile_qr_scan", "ios": "https://dc.lft.to/lastmile_qr_scan"}, "fusion_lon": 0.0}, {"lat": 38.84273783333333, "is_disabled": 0, "type": "electric_bike", "lon": -76.9884745, "bike_id": "24333611e685a3d4d375c0b32e265aba", "fusion_lat": 0.0, "name": "24333611e685a3d4d375c0b32e265aba", "is_reserved": 0, "rental_uris": {"android": "https://dc.lft.to/lastmile_qr_scan", "ios": "https://dc.lft.to/lastmile_qr_scan"}, "fusion_lon": 0.0}, {"lat": 38.837289, "is_disabled": 0, "type": "electric_bike", "lon": -76.99763083333333, "bike_id": "2e3c9c38c8f1bea206f846e32c054927", "fusion_lat": 0.0, "name": "2e3c9c38c8f1bea206f846e32c054927", "is_reserved": 0, "rental_uris": {"android": "https://dc.lft.to/lastmile_qr_scan", "ios": "https://dc.lft.to/lastmile_qr_scan"}, "fusion_lon": 0.0}, {"lat": 38.973256, "is_disabled": 0, "type": "electric_bike", "lon": -77.02290766666667, "bike_id": "1ab54a9f1a699d093cc9027697016985", "fusion_lat": 0.0, "name": "1ab54a9f1a699d093cc9027697016985", "is_reserved": 0, "rental_uris": {"android": "https://dc.lft.to/lastmile_qr_scan", "ios": "https://dc.lft.to/lastmile_qr_scan"}, "fusion_lon": 0.0}, {"lat": 38.934109166666666, "is_disabled": 0, "type": "electric_scooter", "lon": -77.02468483333334, "bike_id": "850019e1dd8f763bfb1114dea57b87f2", "fusion_lat": 0.0, "name": "850019e1dd8f763bfb1114dea57b87f2", "is_reserved": 0, "rental_uris": {"android": "https://dc.lft.to/lastmile_qr_scan", "ios": "https://dc.lft.to/lastmile_qr_scan"}, "fusion_lon": 0.0}, {"lat": 38.88678983333333, "is_disabled": 0, "type": "electric_bike", "lon": -77.16241516666666, "bike_id": "ac6db08ebcf8c74da49437a21e131325", "fusion_lat": 0.0, "name": "ac6db08ebcf8c74da49437a21e131325", "is_reserved": 0, "rental_uris": {"android": "https://dc.lft.to/lastmile_qr_scan", "ios": "https://dc.lft.to/lastmile_qr_scan"}, "fusion_lon": 0.0}, {"lat": 38.908261, "is_disabled": 0, "type": "electric_scooter", "lon": -77.0201075, "bike_id": "c15f8234972438b8b72d5c2da0e6d6f0", "fusion_lat": 0.0, "name": "c15f8234972438b8b72d5c2da0e6d6f0", "is_reserved": 0, "rental_uris": {"android": "https://dc.lft.to/lastmile_qr_scan", "ios": "https://dc.lft.to/lastmile_qr_scan"}, "fusion_lon": 0.0}, {"lat": 38.933789166666664, "is_disabled": 0, "type": "electric_scooter", "lon": -77.03554266666667, "bike_id": "f23201f2cb0931e75bc3ac72b718907e", "fusion_lat": 0.0, "name": "f23201f2cb0931e75bc3ac72b718907e", "is_reserved": 0, "rental_uris": {"android": "https://dc.lft.to/lastmile_qr_scan", "ios": "https://dc.lft.to/lastmile_qr_scan"}, "fusion_lon": 0.0}, {"lat": 38.929014, "is_disabled": 0, "type": "electric_scooter", "lon": -77.01651233333334, "bike_id": "7521e601aec9e450e186c11c78d591d1", "fusion_lat": 0.0, "name": "7521e601aec9e450e186c11c78d591d1", "is_reserved": 0, "rental_uris": {"android": "https://dc.lft.to/lastmile_qr_scan", "ios": "https://dc.lft.to/lastmile_qr_scan"}, "fusion_lon": 0.0}, {"lat": 38.886082, "is_disabled": 0, "type": "electric_scooter", "lon": -77.01889733333333, "bike_id": "6aaaebe7be7ba5688f59681861cdcacc", "fusion_lat": 0.0, "name": "6aaaebe7be7ba5688f59681861cdcacc", "is_reserved": 0, "rental_uris": {"android": "https://dc.lft.to/lastmile_qr_scan", "ios": "https://dc.lft.to/lastmile_qr_scan"}, "fusion_lon": 0.0}, {"lat": 38.90391616666667, "is_disabled": 0, "type": "electric_scooter", "lon": -76.99004316666667, "bike_id": "a423f384f2dc9717f707975b70d24169", "fusion_lat": 0.0, "name": "a423f384f2dc9717f707975b70d24169", "is_reserved": 0, "rental_uris": {"android": "https://dc.lft.to/lastmile_qr_scan", "ios": "https://dc.lft.to/lastmile_qr_scan"}, "fusion_lon": 0.0}, {"lat": 38.885473166666664, "is_disabled": 0, "type": "electric_bike", "lon": -77.117868, "bike_id": "6223fa87b601b6c8a309e9bc61e315f7", "fusion_lat": 0.0, "name": "6223fa87b601b6c8a309e9bc61e315f7", "is_reserved": 0, "rental_uris": {"android": "https://dc.lft.to/lastmile_qr_scan", "ios": "https://dc.lft.to/lastmile_qr_scan"}, "fusion_lon": 0.0}, {"lat": 38.9570925, "is_disabled": 0, "type": "electric_scooter", "lon": -77.02405133333333, "bike_id": "d5c275272bd59f760c1fe446b91591b5", "fusion_lat": 0.0, "name": "d5c275272bd59f760c1fe446b91591b5", "is_reserved": 0, "rental_uris": {"android": "https://dc.lft.to/lastmile_qr_scan", "ios": "https://dc.lft.to/lastmile_qr_scan"}, "fusion_lon": 0.0}, {"lat": 38.94822716666667, "is_disabled": 0, "type": "electric_scooter", "lon": -76.9990485, "bike_id": "87c58128530747713efccbe4c9333a3e", "fusion_lat": 0.0, "name": "87c58128530747713efccbe4c9333a3e", "is_reserved": 0, "rental_uris": {"android": "https://dc.lft.to/lastmile_qr_scan", "ios": "https://dc.lft.to/lastmile_qr_scan"}, "fusion_lon": 0.0}, {"lat": 38.90648616666667, "is_disabled": 0, "type": "electric_scooter", "lon": -77.0082525, "bike_id": "d1aefcdaa921272fc96555afc6c31373", "fusion_lat": 0.0, "name": "d1aefcdaa921272fc96555afc6c31373", "is_reserved": 0, "rental_uris": {"android": "https://dc.lft.to/lastmile_qr_scan", "ios": "https://dc.lft.to/lastmile_qr_scan"}, "fusion_lon": 0.0}, {"lat": 38.90432466666667, "is_disabled": 0, "type": "electric_scooter", "lon": -77.05088766666667, "bike_id": "2f7be6e035da6fe286bd48d593065f8b", "fusion_lat": 0.0, "name": "2f7be6e035da6fe286bd48d593065f8b", "is_reserved": 0, "rental_uris": {"android": "https://dc.lft.to/lastmile_qr_scan", "ios": "https://dc.lft.to/lastmile_qr_scan"}, "fusion_lon": 0.0}, {"lat": 38.901998166666665, "is_disabled": 0, "type": "electric_scooter", "lon": -77.02140283333334, "bike_id": "57acc62a5e1178ca0049dd04c073e80f", "fusion_lat": 0.0, "name": "57acc62a5e1178ca0049dd04c073e80f", "is_reserved": 0, "rental_uris": {"android": "https://dc.lft.to/lastmile_qr_scan", "ios": "https://dc.lft.to/lastmile_qr_scan"}, "fusion_lon": 0.0}, {"lat": 38.91492066666667, "is_disabled": 0, "type": "electric_scooter", "lon": -76.98380983333334, "bike_id": "528077f1c9f95f4db2cf14eadc10d968", "fusion_lat": 0.0, "name": "528077f1c9f95f4db2cf14eadc10d968", "is_reserved": 0, "rental_uris": {"android": "https://dc.lft.to/lastmile_qr_scan", "ios": "https://dc.lft.to/lastmile_qr_scan"}, "fusion_lon": 0.0}, {"lat": 38.88276666666667, "is_disabled": 0, "type": "electric_bike", "lon": -76.9324325, "bike_id": "fc6478bc3f3217d0252b5164d11fcac1", "fusion_lat": 0.0, "name": "fc6478bc3f3217d0252b5164d11fcac1", "is_reserved": 0, "rental_uris": {"android": "https://dc.lft.to/lastmile_qr_scan", "ios": "https://dc.lft.to/lastmile_qr_scan"}, "fusion_lon": 0.0}, {"lat": 38.957349666666666, "is_disabled": 0, "type": "electric_scooter", "lon": -77.02381233333334, "bike_id": "5a5395d778bc1b19a03017927a0ab00c", "fusion_lat": 0.0, "name": "5a5395d778bc1b19a03017927a0ab00c", "is_reserved": 0, "rental_uris": {"android": "https://dc.lft.to/lastmile_qr_scan", "ios": "https://dc.lft.to/lastmile_qr_scan"}, "fusion_lon": 0.0}, {"lat": 38.9088275, "is_disabled": 0, "type": "electric_scooter", "lon": -77.03666483333333, "bike_id": "7085c28b02a9a707636cd206a0a050e6", "fusion_lat": 0.0, "name": "7085c28b02a9a707636cd206a0a050e6", "is_reserved": 0, "rental_uris": {"android": "https://dc.lft.to/lastmile_qr_scan", "ios": "https://dc.lft.to/lastmile_qr_scan"}, "fusion_lon": 0.0}, {"lat": 38.86615483333333, "is_disabled": 0, "type": "electric_scooter", "lon": -76.98664483333333, "bike_id": "b99bd56fdeabd492c64eb37a5fab71fd", "fusion_lat": 0.0, "name": "b99bd56fdeabd492c64eb37a5fab71fd", "is_reserved": 0, "rental_uris": {"android": "https://dc.lft.to/lastmile_qr_scan", "ios": "https://dc.lft.to/lastmile_qr_scan"}, "fusion_lon": 0.0}, {"lat": 38.90756283333333, "is_disabled": 0, "type": "electric_scooter", "lon": -77.03181166666667, "bike_id": "3904749f8d8799322fde14c362c13613", "fusion_lat": 0.0, "name": "3904749f8d8799322fde14c362c13613", "is_reserved": 0, "rental_uris": {"android": "https://dc.lft.to/lastmile_qr_scan", "ios": "https://dc.lft.to/lastmile_qr_scan"}, "fusion_lon": 0.0}, {"lat": 38.9357895, "is_disabled": 0, "type": "electric_scooter", "lon": -77.037582, "bike_id": "c73968c8ee1fb2feac2af5da0a319ac3", "fusion_lat": 0.0, "name": "c73968c8ee1fb2feac2af5da0a319ac3", "is_reserved": 0, "rental_uris": {"android": "https://dc.lft.to/lastmile_qr_scan", "ios": "https://dc.lft.to/lastmile_qr_scan"}, "fusion_lon": 0.0}, {"lat": 38.903358833333336, "is_disabled": 0, "type": "electric_scooter", "lon": -76.97057833333334, "bike_id": "2d3c19a4aabe43a836ea2155b0afe083", "fusion_lat": 0.0, "name": "2d3c19a4aabe43a836ea2155b0afe083", "is_reserved": 0, "rental_uris": {"android": "https://dc.lft.to/lastmile_qr_scan", "ios": "https://dc.lft.to/lastmile_qr_scan"}, "fusion_lon": 0.0}, {"lat": 38.894218333333335, "is_disabled": 0, "type": "electric_scooter", "lon": -77.02090566666666, "bike_id": "e899c73557e689bfefcac79be43d0786", "fusion_lat": 0.0, "name": "e899c73557e689bfefcac79be43d0786", "is_reserved": 0, "rental_uris": {"android": "https://dc.lft.to/lastmile_qr_scan", "ios": "https://dc.lft.to/lastmile_qr_scan"}, "fusion_lon": 0.0}, {"lat": 38.90133466666666, "is_disabled": 0, "type": "electric_scooter", "lon": -77.05098566666666, "bike_id": "97fb94eaa7cdd7d85ae8bf3e34820b31", "fusion_lat": 0.0, "name": "97fb94eaa7cdd7d85ae8bf3e34820b31", "is_reserved": 0, "rental_uris": {"android": "https://dc.lft.to/lastmile_qr_scan", "ios": "https://dc.lft.to/lastmile_qr_scan"}, "fusion_lon": 0.0}, {"lat": 38.9507885, "is_disabled": 0, "type": "electric_bike", "lon": -77.01199016666666, "bike_id": "25c42564ed632ee65c9f01aa81b121d2", "fusion_lat": 0.0, "name": "25c42564ed632ee65c9f01aa81b121d2", "is_reserved": 0, "rental_uris": {"android": "https://dc.lft.to/lastmile_qr_scan", "ios": "https://dc.lft.to/lastmile_qr_scan"}, "fusion_lon": 0.0}, {"lat": 38.92602983333333, "is_disabled": 0, "type": "electric_scooter", "lon": -77.02157783333334, "bike_id": "f9ada4c98afd78a3fa3dc8357d0971ec", "fusion_lat": 0.0, "name": "f9ada4c98afd78a3fa3dc8357d0971ec", "is_reserved": 0, "rental_uris": {"android": "https://dc.lft.to/lastmile_qr_scan", "ios": "https://dc.lft.to/lastmile_qr_scan"}, "fusion_lon": 0.0}, {"lat": 38.90346983333333, "is_disabled": 0, "type": "electric_scooter", "lon": -77.00216666666667, "bike_id": "5c06e72b11f36d39640f1d02bb186e8d", "fusion_lat": 0.0, "name": "5c06e72b11f36d39640f1d02bb186e8d", "is_reserved": 0, "rental_uris": {"android": "https://dc.lft.to/lastmile_qr_scan", "ios": "https://dc.lft.to/lastmile_qr_scan"}, "fusion_lon": 0.0}, {"lat": 38.911973, "is_disabled": 0, "type": "electric_scooter", "lon": -77.04469366666666, "bike_id": "42d0aecaac2b9704736ed0ecde01b802", "fusion_lat": 0.0, "name": "42d0aecaac2b9704736ed0ecde01b802", "is_reserved": 0, "rental_uris": {"android": "https://dc.lft.to/lastmile_qr_scan", "ios": "https://dc.lft.to/lastmile_qr_scan"}, "fusion_lon": 0.0}, {"lat": 38.90764583333333, "is_disabled": 0, "type": "electric_scooter", "lon": -77.0415495, "bike_id": "b4b372b7988eb6dc57034c7de0a411e0", "fusion_lat": 0.0, "name": "b4b372b7988eb6dc57034c7de0a411e0", "is_reserved": 0, "rental_uris": {"android": "https://dc.lft.to/lastmile_qr_scan", "ios": "https://dc.lft.to/lastmile_qr_scan"}, "fusion_lon": 0.0}, {"lat": 38.9062645, "is_disabled": 0, "type": "electric_scooter", "lon": -77.02192966666667, "bike_id": "866e26832e8ea764466d5fc5fcae0bc6", "fusion_lat": 0.0, "name": "866e26832e8ea764466d5fc5fcae0bc6", "is_reserved": 0, "rental_uris": {"android": "https://dc.lft.to/lastmile_qr_scan", "ios": "https://dc.lft.to/lastmile_qr_scan"}, "fusion_lon": 0.0}, {"lat": 38.91648083333333, "is_disabled": 0, "type": "electric_scooter", "lon": -77.0158755, "bike_id": "c8b7c15fedb51fe0ee2716a91ef9f42c", "fusion_lat": 0.0, "name": "c8b7c15fedb51fe0ee2716a91ef9f42c", "is_reserved": 0, "rental_uris": {"android": "https://dc.lft.to/lastmile_qr_scan", "ios": "https://dc.lft.to/lastmile_qr_scan"}, "fusion_lon": 0.0}, {"lat": 38.961347333333336, "is_disabled": 0, "type": "electric_scooter", "lon": -77.022367, "bike_id": "ed688ff1ece0c16b703b23f77100036e", "fusion_lat": 0.0, "name": "ed688ff1ece0c16b703b23f77100036e", "is_reserved": 0, "rental_uris": {"android": "https://dc.lft.to/lastmile_qr_scan", "ios": "https://dc.lft.to/lastmile_qr_scan"}, "fusion_lon": 0.0}, {"lat": 38.916269666666665, "is_disabled": 0, "type": "electric_scooter", "lon": -77.02305783333334, "bike_id": "6a1b6f922a2dee654e0b671583da8a4f", "fusion_lat": 0.0, "name": "6a1b6f922a2dee654e0b671583da8a4f", "is_reserved": 0, "rental_uris": {"android": "https://dc.lft.to/lastmile_qr_scan", "ios": "https://dc.lft.to/lastmile_qr_scan"}, "fusion_lon": 0.0}, {"lat": 38.92274533333333, "is_disabled": 0, "type": "electric_scooter", "lon": -77.02240633333334, "bike_id": "4813cc44f1e6ca7e53fa9d2d9212133a", "fusion_lat": 0.0, "name": "4813cc44f1e6ca7e53fa9d2d9212133a", "is_reserved": 0, "rental_uris": {"android": "https://dc.lft.to/lastmile_qr_scan", "ios": "https://dc.lft.to/lastmile_qr_scan"}, "fusion_lon": 0.0}, {"lat": 38.92972866666667, "is_disabled": 0, "type": "electric_scooter", "lon": -77.013045, "bike_id": "11432c44a6e0a5ce14a22f79a2482354", "fusion_lat": 0.0, "name": "11432c44a6e0a5ce14a22f79a2482354", "is_reserved": 0, "rental_uris": {"android": "https://dc.lft.to/lastmile_qr_scan", "ios": "https://dc.lft.to/lastmile_qr_scan"}, "fusion_lon": 0.0}, {"lat": 38.906663333333334, "is_disabled": 0, "type": "electric_scooter", "lon": -77.038608, "bike_id": "a72e59ac2a90be882b3c9bf714a8c4d6", "fusion_lat": 0.0, "name": "a72e59ac2a90be882b3c9bf714a8c4d6", "is_reserved": 0, "rental_uris": {"android": "https://dc.lft.to/lastmile_qr_scan", "ios": "https://dc.lft.to/lastmile_qr_scan"}, "fusion_lon": 0.0}, {"lat": 38.8571755, "is_disabled": 0, "type": "electric_bike", "lon": -76.97106666666667, "bike_id": "7b5a327ec12cfc3688172ee0deb99ede", "fusion_lat": 0.0, "name": "7b5a327ec12cfc3688172ee0deb99ede", "is_reserved": 0, "rental_uris": {"android": "https://dc.lft.to/lastmile_qr_scan", "ios": "https://dc.lft.to/lastmile_qr_scan"}, "fusion_lon": 0.0}, {"lat": 38.87144283333333, "is_disabled": 0, "type": "electric_bike", "lon": -76.9370265, "bike_id": "7db43357062a081903fe392f2ce9b9c2", "fusion_lat": 0.0, "name": "7db43357062a081903fe392f2ce9b9c2", "is_reserved": 0, "rental_uris": {"android": "https://dc.lft.to/lastmile_qr_scan", "ios": "https://dc.lft.to/lastmile_qr_scan"}, "fusion_lon": 0.0}, {"lat": 38.908379833333335, "is_disabled": 0, "type": "electric_scooter", "lon": -77.04352366666667, "bike_id": "7b592c023cfc0caf8ba8565203389415", "fusion_lat": 0.0, "name": "7b592c023cfc0caf8ba8565203389415", "is_reserved": 0, "rental_uris": {"android": "https://dc.lft.to/lastmile_qr_scan", "ios": "https://dc.lft.to/lastmile_qr_scan"}, "fusion_lon": 0.0}, {"lat": 38.84503, "is_disabled": 0, "type": "electric_bike", "lon": -76.99355766666666, "bike_id": "c226c467ee2ab2ae9954e09f11df96bc", "fusion_lat": 0.0, "name": "c226c467ee2ab2ae9954e09f11df96bc", "is_reserved": 0, "rental_uris": {"android": "https://dc.lft.to/lastmile_qr_scan", "ios": "https://dc.lft.to/lastmile_qr_scan"}, "fusion_lon": 0.0}, {"lat": 38.8671035, "is_disabled": 0, "type": "electric_scooter", "lon": -76.98728283333334, "bike_id": "4150ff7c7f65cda51819f1e18a4d03fe", "fusion_lat": 0.0, "name": "4150ff7c7f65cda51819f1e18a4d03fe", "is_reserved": 0, "rental_uris": {"android": "https://dc.lft.to/lastmile_qr_scan", "ios": "https://dc.lft.to/lastmile_qr_scan"}, "fusion_lon": 0.0}, {"lat": 38.904323, "is_disabled": 0, "type": "electric_scooter", "lon": -77.05337166666666, "bike_id": "eb2395761938ad4ce84ab7fd292fa837", "fusion_lat": 0.0, "name": "eb2395761938ad4ce84ab7fd292fa837", "is_reserved": 0, "rental_uris": {"android": "https://dc.lft.to/lastmile_qr_scan", "ios": "https://dc.lft.to/lastmile_qr_scan"}, "fusion_lon": 0.0}, {"lat": 38.918797, "is_disabled": 0, "type": "electric_scooter", "lon": -77.0349815, "bike_id": "c745093d8eed33a9200d16c7d537e41a", "fusion_lat": 0.0, "name": "c745093d8eed33a9200d16c7d537e41a", "is_reserved": 0, "rental_uris": {"android": "https://dc.lft.to/lastmile_qr_scan", "ios": "https://dc.lft.to/lastmile_qr_scan"}, "fusion_lon": 0.0}, {"lat": 38.91265083333333, "is_disabled": 0, "type": "electric_scooter", "lon": -77.02253216666666, "bike_id": "805aaa4f43be3423f338bafd583574db", "fusion_lat": 0.0, "name": "805aaa4f43be3423f338bafd583574db", "is_reserved": 0, "rental_uris": {"android": "https://dc.lft.to/lastmile_qr_scan", "ios": "https://dc.lft.to/lastmile_qr_scan"}, "fusion_lon": 0.0}, {"lat": 38.89653166666667, "is_disabled": 0, "type": "electric_scooter", "lon": -77.005207, "bike_id": "5d54eea59f3b92969dc6c02747fd494e", "fusion_lat": 0.0, "name": "5d54eea59f3b92969dc6c02747fd494e", "is_reserved": 0, "rental_uris": {"android": "https://dc.lft.to/lastmile_qr_scan", "ios": "https://dc.lft.to/lastmile_qr_scan"}, "fusion_lon": 0.0}, {"lat": 38.90588133333333, "is_disabled": 0, "type": "electric_scooter", "lon": -76.98619633333334, "bike_id": "e8603d0c52319a63f628ef61add8406d", "fusion_lat": 0.0, "name": "e8603d0c52319a63f628ef61add8406d", "is_reserved": 0, "rental_uris": {"android": "https://dc.lft.to/lastmile_qr_scan", "ios": "https://dc.lft.to/lastmile_qr_scan"}, "fusion_lon": 0.0}, {"lat": 38.912564333333336, "is_disabled": 0, "type": "electric_scooter", "lon": -77.0514035, "bike_id": "343986d13d1b0465986d9d81756563b8", "fusion_lat": 0.0, "name": "343986d13d1b0465986d9d81756563b8", "is_reserved": 0, "rental_uris": {"android": "https://dc.lft.to/lastmile_qr_scan", "ios": "https://dc.lft.to/lastmile_qr_scan"}, "fusion_lon": 0.0}, {"lat": 38.908623, "is_disabled": 0, "type": "electric_bike", "lon": -76.940084, "bike_id": "8e374ea212040e713f121897955fd70b", "fusion_lat": 0.0, "name": "8e374ea212040e713f121897955fd70b", "is_reserved": 0, "rental_uris": {"android": "https://dc.lft.to/lastmile_qr_scan", "ios": "https://dc.lft.to/lastmile_qr_scan"}, "fusion_lon": 0.0}, {"lat": 38.906305333333336, "is_disabled": 0, "type": "electric_scooter", "lon": -76.9857255, "bike_id": "5f4853c526a898293a2d6559b5b3377f", "fusion_lat": 0.0, "name": "5f4853c526a898293a2d6559b5b3377f", "is_reserved": 0, "rental_uris": {"android": "https://dc.lft.to/lastmile_qr_scan", "ios": "https://dc.lft.to/lastmile_qr_scan"}, "fusion_lon": 0.0}, {"lat": 38.90053533333333, "is_disabled": 0, "type": "electric_scooter", "lon": -76.9979895, "bike_id": "b226090f8e596b81abc419b0ee6fe73c", "fusion_lat": 0.0, "name": "b226090f8e596b81abc419b0ee6fe73c", "is_reserved": 0, "rental_uris": {"android": "https://dc.lft.to/lastmile_qr_scan", "ios": "https://dc.lft.to/lastmile_qr_scan"}, "fusion_lon": 0.0}, {"lat": 38.890393333333336, "is_disabled": 0, "type": "electric_scooter", "lon": -77.029758, "bike_id": "659801773f6ab9bc6b9f6382f9da68a7", "fusion_lat": 0.0, "name": "659801773f6ab9bc6b9f6382f9da68a7", "is_reserved": 0, "rental_uris": {"android": "https://dc.lft.to/lastmile_qr_scan", "ios": "https://dc.lft.to/lastmile_qr_scan"}, "fusion_lon": 0.0}, {"lat": 38.899824, "is_disabled": 0, "type": "electric_scooter", "lon": -77.02119933333333, "bike_id": "bae92f3c8ac4026f57c2f5e03da73f52", "fusion_lat": 0.0, "name": "bae92f3c8ac4026f57c2f5e03da73f52", "is_reserved": 0, "rental_uris": {"android": "https://dc.lft.to/lastmile_qr_scan", "ios": "https://dc.lft.to/lastmile_qr_scan"}, "fusion_lon": 0.0}, {"lat": 38.900762, "is_disabled": 0, "type": "electric_scooter", "lon": -77.0019895, "bike_id": "a850bf5a580f2a4a764f0e1ca887d640", "fusion_lat": 0.0, "name": "a850bf5a580f2a4a764f0e1ca887d640", "is_reserved": 0, "rental_uris": {"android": "https://dc.lft.to/lastmile_qr_scan", "ios": "https://dc.lft.to/lastmile_qr_scan"}, "fusion_lon": 0.0}, {"lat": 38.903706666666665, "is_disabled": 0, "type": "electric_scooter", "lon": -77.03428216666667, "bike_id": "24554119b2b77dd4505631101003432a", "fusion_lat": 0.0, "name": "24554119b2b77dd4505631101003432a", "is_reserved": 0, "rental_uris": {"android": "https://dc.lft.to/lastmile_qr_scan", "ios": "https://dc.lft.to/lastmile_qr_scan"}, "fusion_lon": 0.0}, {"lat": 38.899923333333334, "is_disabled": 0, "type": "electric_scooter", "lon": -77.05270433333334, "bike_id": "d65b147994efa84d0baa23f35f3d4692", "fusion_lat": 0.0, "name": "d65b147994efa84d0baa23f35f3d4692", "is_reserved": 0, "rental_uris": {"android": "https://dc.lft.to/lastmile_qr_scan", "ios": "https://dc.lft.to/lastmile_qr_scan"}, "fusion_lon": 0.0}, {"lat": 38.83212116666667, "is_disabled": 0, "type": "electric_bike", "lon": -76.9462265, "bike_id": "869e9906b562ebce496189c1476fe141", "fusion_lat": 0.0, "name": "869e9906b562ebce496189c1476fe141", "is_reserved": 0, "rental_uris": {"android": "https://dc.lft.to/lastmile_qr_scan", "ios": "https://dc.lft.to/lastmile_qr_scan"}, "fusion_lon": 0.0}, {"lat": 38.91637516666667, "is_disabled": 0, "type": "electric_scooter", "lon": -77.031076, "bike_id": "92ac44979b7180460cff47b3089405ad", "fusion_lat": 0.0, "name": "92ac44979b7180460cff47b3089405ad", "is_reserved": 0, "rental_uris": {"android": "https://dc.lft.to/lastmile_qr_scan", "ios": "https://dc.lft.to/lastmile_qr_scan"}, "fusion_lon": 0.0}, {"lat": 38.9118615, "is_disabled": 0, "type": "electric_scooter", "lon": -77.03198266666666, "bike_id": "01fa5205a71528f7a48d2ea17fd5214c", "fusion_lat": 0.0, "name": "01fa5205a71528f7a48d2ea17fd5214c", "is_reserved": 0, "rental_uris": {"android": "https://dc.lft.to/lastmile_qr_scan", "ios": "https://dc.lft.to/lastmile_qr_scan"}, "fusion_lon": 0.0}, {"lat": 38.863475333333334, "is_disabled": 0, "type": "electric_scooter", "lon": -76.9900495, "bike_id": "bd8e13cc48d10dfdb3cd56069201003c", "fusion_lat": 0.0, "name": "bd8e13cc48d10dfdb3cd56069201003c", "is_reserved": 0, "rental_uris": {"android": "https://dc.lft.to/lastmile_qr_scan", "ios": "https://dc.lft.to/lastmile_qr_scan"}, "fusion_lon": 0.0}, {"lat": 38.848561333333336, "is_disabled": 0, "type": "electric_scooter", "lon": -76.97696216666667, "bike_id": "11a3eff3c66f590fb7882e64edb73192", "fusion_lat": 0.0, "name": "11a3eff3c66f590fb7882e64edb73192", "is_reserved": 0, "rental_uris": {"android": "https://dc.lft.to/lastmile_qr_scan", "ios": "https://dc.lft.to/lastmile_qr_scan"}, "fusion_lon": 0.0}, {"lat": 38.91248433333333, "is_disabled": 0, "type": "electric_scooter", "lon": -77.04771483333333, "bike_id": "252e84313c420bdbfc4790e1c7b8c7d2", "fusion_lat": 0.0, "name": "252e84313c420bdbfc4790e1c7b8c7d2", "is_reserved": 0, "rental_uris": {"android": "https://dc.lft.to/lastmile_qr_scan", "ios": "https://dc.lft.to/lastmile_qr_scan"}, "fusion_lon": 0.0}, {"lat": 38.898782, "is_disabled": 0, "type": "electric_scooter", "lon": -77.053396, "bike_id": "8b37ee5a045fb80e15933d43950f09ba", "fusion_lat": 0.0, "name": "8b37ee5a045fb80e15933d43950f09ba", "is_reserved": 0, "rental_uris": {"android": "https://dc.lft.to/lastmile_qr_scan", "ios": "https://dc.lft.to/lastmile_qr_scan"}, "fusion_lon": 0.0}, {"lat": 38.955598333333334, "is_disabled": 0, "type": "electric_bike", "lon": -76.935404, "bike_id": "81e27cd53399b5cdbf4b7630f3a68b1d", "fusion_lat": 0.0, "name": "81e27cd53399b5cdbf4b7630f3a68b1d", "is_reserved": 0, "rental_uris": {"android": "https://dc.lft.to/lastmile_qr_scan", "ios": "https://dc.lft.to/lastmile_qr_scan"}, "fusion_lon": 0.0}, {"lat": 38.89919283333333, "is_disabled": 0, "type": "electric_scooter", "lon": -76.933824, "bike_id": "c800149818420c96918163e693a0b84c", "fusion_lat": 0.0, "name": "c800149818420c96918163e693a0b84c", "is_reserved": 0, "rental_uris": {"android": "https://dc.lft.to/lastmile_qr_scan", "ios": "https://dc.lft.to/lastmile_qr_scan"}, "fusion_lon": 0.0}, {"lat": 38.93862333333333, "is_disabled": 0, "type": "electric_scooter", "lon": -77.0259585, "bike_id": "7ad5c9115f25b19436eb91d86302f2be", "fusion_lat": 0.0, "name": "7ad5c9115f25b19436eb91d86302f2be", "is_reserved": 0, "rental_uris": {"android": "https://dc.lft.to/lastmile_qr_scan", "ios": "https://dc.lft.to/lastmile_qr_scan"}, "fusion_lon": 0.0}, {"lat": 38.912688833333334, "is_disabled": 0, "type": "electric_scooter", "lon": -77.03024216666667, "bike_id": "d2727feac319f046f9abef8dc97ae40a", "fusion_lat": 0.0, "name": "d2727feac319f046f9abef8dc97ae40a", "is_reserved": 0, "rental_uris": {"android": "https://dc.lft.to/lastmile_qr_scan", "ios": "https://dc.lft.to/lastmile_qr_scan"}, "fusion_lon": 0.0}, {"lat": 38.92112566666667, "is_disabled": 0, "type": "electric_scooter", "lon": -77.04225066666666, "bike_id": "a26d537496c04c5baa30bef97979a538", "fusion_lat": 0.0, "name": "a26d537496c04c5baa30bef97979a538", "is_reserved": 0, "rental_uris": {"android": "https://dc.lft.to/lastmile_qr_scan", "ios": "https://dc.lft.to/lastmile_qr_scan"}, "fusion_lon": 0.0}, {"lat": 38.905576833333335, "is_disabled": 0, "type": "electric_scooter", "lon": -76.98136466666666, "bike_id": "898bec7126af95937bbddf18f3d07bc8", "fusion_lat": 0.0, "name": "898bec7126af95937bbddf18f3d07bc8", "is_reserved": 0, "rental_uris": {"android": "https://dc.lft.to/lastmile_qr_scan", "ios": "https://dc.lft.to/lastmile_qr_scan"}, "fusion_lon": 0.0}, {"lat": 38.9342635, "is_disabled": 0, "type": "electric_scooter", "lon": -77.02844283333333, "bike_id": "8077bb88956db3c00935a26c52b5bb51", "fusion_lat": 0.0, "name": "8077bb88956db3c00935a26c52b5bb51", "is_reserved": 0, "rental_uris": {"android": "https://dc.lft.to/lastmile_qr_scan", "ios": "https://dc.lft.to/lastmile_qr_scan"}, "fusion_lon": 0.0}, {"lat": 38.93417, "is_disabled": 0, "type": "electric_scooter", "lon": -77.02845866666667, "bike_id": "4f2f591c254afa1de749be277dfe0eac", "fusion_lat": 0.0, "name": "4f2f591c254afa1de749be277dfe0eac", "is_reserved": 0, "rental_uris": {"android": "https://dc.lft.to/lastmile_qr_scan", "ios": "https://dc.lft.to/lastmile_qr_scan"}, "fusion_lon": 0.0}, {"lat": 38.85414016666667, "is_disabled": 0, "type": "electric_bike", "lon": -76.90975333333333, "bike_id": "57b3a2150e4ff8e7e6f85efd910faa8e", "fusion_lat": 0.0, "name": "57b3a2150e4ff8e7e6f85efd910faa8e", "is_reserved": 0, "rental_uris": {"android": "https://dc.lft.to/lastmile_qr_scan", "ios": "https://dc.lft.to/lastmile_qr_scan"}, "fusion_lon": 0.0}, {"lat": 38.844324, "is_disabled": 0, "type": "electric_scooter", "lon": -76.998134, "bike_id": "7d0b5d5e8ef33aefe470e275c56fb06c", "fusion_lat": 0.0, "name": "7d0b5d5e8ef33aefe470e275c56fb06c", "is_reserved": 0, "rental_uris": {"android": "https://dc.lft.to/lastmile_qr_scan", "ios": "https://dc.lft.to/lastmile_qr_scan"}, "fusion_lon": 0.0}, {"lat": 38.945993333333334, "is_disabled": 0, "type": "electric_scooter", "lon": -77.07035416666666, "bike_id": "2e2826330a31d5f34f7ea337bc488d5c", "fusion_lat": 0.0, "name": "2e2826330a31d5f34f7ea337bc488d5c", "is_reserved": 0, "rental_uris": {"android": "https://dc.lft.to/lastmile_qr_scan", "ios": "https://dc.lft.to/lastmile_qr_scan"}, "fusion_lon": 0.0}, {"lat": 38.936037166666665, "is_disabled": 0, "type": "electric_scooter", "lon": -77.0586045, "bike_id": "50977408e26fc28fdefb4078b74a1c86", "fusion_lat": 0.0, "name": "50977408e26fc28fdefb4078b74a1c86", "is_reserved": 0, "rental_uris": {"android": "https://dc.lft.to/lastmile_qr_scan", "ios": "https://dc.lft.to/lastmile_qr_scan"}, "fusion_lon": 0.0}, {"lat": 38.810494166666665, "is_disabled": 0, "type": "electric_bike", "lon": -77.08507683333333, "bike_id": "0d150f66cd830e8272b3ec847dd5bc44", "fusion_lat": 0.0, "name": "0d150f66cd830e8272b3ec847dd5bc44", "is_reserved": 0, "rental_uris": {"android": "https://dc.lft.to/lastmile_qr_scan", "ios": "https://dc.lft.to/lastmile_qr_scan"}, "fusion_lon": 0.0}, {"lat": 38.902540333333334, "is_disabled": 0, "type": "electric_scooter", "lon": -77.06245833333334, "bike_id": "8308b3593e0b3fe5e9fa374c32ba3f1e", "fusion_lat": 0.0, "name": "8308b3593e0b3fe5e9fa374c32ba3f1e", "is_reserved": 0, "rental_uris": {"android": "https://dc.lft.to/lastmile_qr_scan", "ios": "https://dc.lft.to/lastmile_qr_scan"}, "fusion_lon": 0.0}, {"lat": 38.899215833333336, "is_disabled": 0, "type": "electric_scooter", "lon": -77.0322465, "bike_id": "f52456e26102077d457f3dead928802d", "fusion_lat": 0.0, "name": "f52456e26102077d457f3dead928802d", "is_reserved": 0, "rental_uris": {"android": "https://dc.lft.to/lastmile_qr_scan", "ios": "https://dc.lft.to/lastmile_qr_scan"}, "fusion_lon": 0.0}, {"lat": 38.920643166666665, "is_disabled": 0, "type": "electric_scooter", "lon": -77.02712133333333, "bike_id": "ca7b024309bd152aa718b88c98cac912", "fusion_lat": 0.0, "name": "ca7b024309bd152aa718b88c98cac912", "is_reserved": 0, "rental_uris": {"android": "https://dc.lft.to/lastmile_qr_scan", "ios": "https://dc.lft.to/lastmile_qr_scan"}, "fusion_lon": 0.0}, {"lat": 38.90601866666667, "is_disabled": 0, "type": "electric_scooter", "lon": -77.01629683333333, "bike_id": "a1ee887abf6ed093b37de70f42dec7ed", "fusion_lat": 0.0, "name": "a1ee887abf6ed093b37de70f42dec7ed", "is_reserved": 0, "rental_uris": {"android": "https://dc.lft.to/lastmile_qr_scan", "ios": "https://dc.lft.to/lastmile_qr_scan"}, "fusion_lon": 0.0},