{"data": {"bikes": [{"rental_uris": {"android": "https://dc.lft.to/lastmile_qr_scan", "ios": "https://dc.lft.to/lastmile_qr_scan"}, "lon": -77.115126, "name": "ec29add9f843bde39c60ac7b76adf8c3", "fusion_lon": 0.0, "bike_id": "ec29add9f843bde39c60ac7b76adf8c3", "is_reserved": 0, "type": "electric_bike", "lat": 39.074651, "fusion_lat": 0.0, "is_disabled": 0}, {"rental_uris": {"android": "https://dc.lft.to/lastmile_qr_scan", "ios": "https://dc.lft.to/lastmile_qr_scan"}, "lon": -77.027731, "name": "4325f580ea7ce74af8244c23e1311817", "fusion_lon": 0.0, "bike_id": "4325f580ea7ce74af8244c23e1311817", "is_reserved": 0, "type": "electric_scooter", "lat": 38.9639625, "fusion_lat": 0.0, "is_disabled": 0}, {"rental_uris": {"android": "https://dc.lft.to/lastmile_qr_scan", "ios": "https://dc.lft.to/lastmile_qr_scan"}, "lon": -77.01411866666666, "name": "18840bae487a8a11ed66d33517ef2419", "fusion_lon": 0.0, "bike_id": "18840bae487a8a11ed66d33517ef2419", "is_reserved": 0, "type": "electric_scooter", "lat": 38.91552433333333, "fusion_lat": 0.0, "is_disabled": 0}, {"rental_uris": {"android": "https://dc.lft.to/lastmile_qr_scan", "ios": "https://dc.lft.to/lastmile_qr_scan"}, "lon": -77.01496583333333, "name": "da21252ec73bfe4b3b9cfbc2edfac959", "fusion_lon": 0.0, "bike_id": "da21252ec73bfe4b3b9cfbc2edfac959", "is_reserved": 0, "type": "electric_scooter", "lat": 38.94329783333333, "fusion_lat": 0.0, "is_disabled": 0}, {"rental_uris": {"android": "https://dc.lft.to/lastmile_qr_scan", "ios": "https://dc.lft.to/lastmile_qr_scan"}, "lon": -77.02799966666667, "name": "0170acefd2be5a05d610be17becf6b8c", "fusion_lon": 0.0, "bike_id": "0170acefd2be5a05d610be17becf6b8c", "is_reserved": 0, "type": "electric_scooter", "lat": 38.90661766666667, "fusion_lat": 0.0, "is_disabled": 0}, {"rental_uris": {"android": "https://dc.lft.to/lastmile_qr_scan", "ios": "https://dc.lft.to/lastmile_qr_scan"}, "lon": -77.03351966666666, "name": "a0cf033cfcebfe7e794b16c68b916dfc", "fusion_lon": 0.0, "bike_id": "a0cf033cfcebfe7e794b16c68b916dfc", "is_reserved": 0, "type": "electric_scooter", "lat": 38.8969325, "fusion_lat": 0.0, "is_disabled": 0}, {"rental_uris": {"android": "https://dc.lft.to/lastmile_qr_scan", "ios": "https://dc.lft.to/lastmile_qr_scan"}, "lon": -77.02826533333334, "name": "eae7adf5077388864e975664ef60f6b5", "fusion_lon": 0.0, "bike_id": "eae7adf5077388864e975664ef60f6b5", "is_reserved": 0, "type": "electric_scooter", "lat": 38.93140983333333, "fusion_lat": 0.0, "is_disabled": 0}, {"rental_uris": {"android": "https://dc.lft.to/lastmile_qr_scan", "ios": "https://dc.lft.to/lastmile_qr_scan"}, "lon": -77.0415835, "name": "a23857beade7108e85f2d6f6c1c300dc", "fusion_lon": 0.0, "bike_id": "a23857beade7108e85f2d6f6c1c300dc", "is_reserved": 0, "type": "electric_scooter", "lat": 38.91984933333333, "fusion_lat": 0.0, "is_disabled": 0}, {"rental_uris": {"android": "https://dc.lft.to/lastmile_qr_scan", "ios": "https://dc.lft.to/lastmile_qr_scan"}, "lon": -77.0238595, "name": "ddd39be602ddb194d280f09903ca5e74", "fusion_lon": 0.0, "bike_id": "ddd39be602ddb194d280f09903ca5e74", "is_reserved": 0, "type": "electric_scooter", "lat": 38.900334, "fusion_lat": 0.0, "is_disabled": 0}, {"rental_uris": {"android": "https://dc.lft.to/lastmile_qr_scan", "ios": "https://dc.lft.to/lastmile_qr_scan"}, "lon": -77.05029883333333, "name": "03b682161d5aff2c1a68a32d1cb3f4fc", "fusion_lon": 0.0, "bike_id": "03b682161d5aff2c1a68a32d1cb3f4fc", "is_reserved": 0, "type": "electric_scooter", "lat": 38.923623166666665, "fusion_lat": 0.0, "is_disabled": 0}, {"rental_uris": {"android": "https://dc.lft.to/lastmile_qr_scan", "ios": "https://dc.lft.to/lastmile_qr_scan"}, "lon": -77.069133, "name": "0eca3c1a0300426d1e67a97144021d56", "fusion_lon": 0.0, "bike_id": "0eca3c1a0300426d1e67a97144021d56", "is_reserved": 0, "type": "electric_scooter", "lat": 38.90816683333333, "fusion_lat": 0.0, "is_disabled": 0}, {"rental_uris": {"android": "https://dc.lft.to/lastmile_qr_scan", "ios": "https://dc.lft.to/lastmile_qr_scan"}, "lon": -76.99911716666666, "name": "ed890bc23a91481276e6e4eabff55e6b", "fusion_lon": 0.0, "bike_id": "ed890bc23a91481276e6e4eabff55e6b", "is_reserved": 0, "type": "electric_bike", "lat": 38.927828166666664, "fusion_lat": 0.0, "is_disabled": 0}, {"rental_uris": {"android": "https://dc.lft.to/lastmile_qr_scan", "ios": "https://dc.lft.to/lastmile_qr_scan"}, "lon": -76.99501916666667, "name": "414a7343c3101553f667a7f6c58f7c4b", "fusion_lon": 0.0, "bike_id": "414a7343c3101553f667a7f6c58f7c4b", "is_reserved": 0, "type": "electric_scooter", "lat": 38.862452833333336, "fusion_lat": 0.0, "is_disabled": 0}, {"rental_uris": {"android": "https://dc.lft.to/lastmile_qr_scan", "ios": "https://dc.lft.to/lastmile_qr_scan"}, "lon": -77.02750383333333, "name": "de46e19d5060c0a06f17e82626ca658a", "fusion_lon": 0.0, "bike_id": "de46e19d5060c0a06f17e82626ca658a", "is_reserved": 0, "type": "electric_scooter", "lat": 38.90569683333333, "fusion_lat": 0.0, "is_disabled": 0}, {"rental_uris": {"android": "https://dc.lft.to/lastmile_qr_scan", "ios": "https://dc.lft.to/lastmile_qr_scan"}, "lon": -77.0177325, "name": "d23b9d590b45bd5e0b7b92277530bad5", "fusion_lon": 0.0, "bike_id": "d23b9d590b45bd5e0b7b92277530bad5", "is_reserved": 0, "type": "electric_scooter", "lat": 38.90035783333333, "fusion_lat": 0.0, "is_disabled": 0}, {"rental_uris": {"android": "https://dc.lft.to/lastmile_qr_scan", "ios": "https://dc.lft.to/lastmile_qr_scan"}, "lon": -77.04020483333333, "name": "0cf2c8001992da7b2d3fd8973e755e79", "fusion_lon": 0.0, "bike_id": "0cf2c8001992da7b2d3fd8973e755e79", "is_reserved": 0, "type": "electric_scooter", "lat": 38.91800666666666, "fusion_lat": 0.0, "is_disabled": 0}, {"rental_uris": {"android": "https://dc.lft.to/lastmile_qr_scan", "ios": "https://dc.lft.to/lastmile_qr_scan"}, "lon": -77.02324966666667, "name": "f3544b9bedbc7630122c939d1d15c015", "fusion_lon": 0.0, "bike_id": "f3544b9bedbc7630122c939d1d15c015", "is_reserved": 0, "type": "electric_scooter", "lat": 38.920668, "fusion_lat": 0.0, "is_disabled": 0}, {"rental_uris": {"android": "https://dc.lft.to/lastmile_qr_scan", "ios": "https://dc.lft.to/lastmile_qr_scan"}, "lon": -77.0335755, "name": "12ec30c15d6571a33cac26ccaf306458", "fusion_lon": 0.0, "bike_id": "12ec30c15d6571a33cac26ccaf306458", "is_reserved": 0, "type": "electric_scooter", "lat": 38.90055383333333, "fusion_lat": 0.0, "is_disabled": 0}, {"rental_uris": {"android": "https://dc.lft.to/lastmile_qr_scan", "ios": "https://dc.lft.to/lastmile_qr_scan"}, "lon": -77.03916083333333, "name": "aab1fa6fc6703f706991adb3edaaa1a8", "fusion_lon": 0.0, "bike_id": "aab1fa6fc6703f706991adb3edaaa1a8", "is_reserved": 0, "type": "electric_bike", "lat": 39.03563416666667, "fusion_lat": 0.0, "is_disabled": 0}, {"rental_uris": {"android": "https://dc.lft.to/lastmile_qr_scan", "ios": "https://dc.lft.to/lastmile_qr_scan"}, "lon": -76.99836233333333, "name": "afc1144f91c7f7c1d783cef427636c14", "fusion_lon": 0.0, "bike_id": "afc1144f91c7f7c1d783cef427636c14", "is_reserved": 0, "type": "electric_scooter", "lat": 38.90029466666667, "fusion_lat": 0.0, "is_disabled": 0}, {"rental_uris": {"android": "https://dc.lft.to/lastmile_qr_scan", "ios": "https://dc.lft.to/lastmile_qr_scan"}, "lon": -77.0317085, "name": "adda368dc401114052a4a693d7667c75", "fusion_lon": 0.0, "bike_id": "adda368dc401114052a4a693d7667c75", "is_reserved": 0, "type": "electric_scooter", "lat": 38.89330616666667, "fusion_lat": 0.0, "is_disabled": 0}, {"rental_uris": {"android": "https://dc.lft.to/lastmile_qr_scan", "ios": "https://dc.lft.to/lastmile_qr_scan"}, "lon": -76.98538, "name": "dfe5915cd08d587c84071b75f27d7da8", "fusion_lon": 0.0, "bike_id": "dfe5915cd08d587c84071b75f27d7da8", "is_reserved": 0, "type": "electric_scooter", "lat": 38.88525683333334, "fusion_lat": 0.0, "is_disabled": 0}, {"rental_uris": {"android": "https://dc.lft.to/lastmile_qr_scan", "ios": "https://dc.lft.to/lastmile_qr_scan"}, "lon": -77.0318335, "name": "32cec04f1564bc521cbb86dfab34d475", "fusion_lon": 0.0, "bike_id": "32cec04f1564bc521cbb86dfab34d475", "is_reserved": 0, "type": "electric_scooter", "lat": 38.899926, "fusion_lat": 0.0, "is_disabled": 0}, {"rental_uris": {"android": "https://dc.lft.to/lastmile_qr_scan", "ios": "https://dc.lft.to/lastmile_qr_scan"}, "lon": -77.00578716666666, "name": "17f95aad523f8b2137d87e583adf894b", "fusion_lon": 0.0, "bike_id": "17f95aad523f8b2137d87e583adf894b", "is_reserved": 0, "type": "electric_scooter", "lat": 38.87573733333333, "fusion_lat": 0.0, "is_disabled": 0}, {"rental_uris": {"android": "https://dc.lft.to/lastmile_qr_scan", "ios": "https://dc.lft.to/lastmile_qr_scan"}, "lon": -77.02629416666667, "name": "82c03e52e42787abaa9e1f80f002c711", "fusion_lon": 0.0, "bike_id": "82c03e52e42787abaa9e1f80f002c711", "is_reserved": 0, "type": "electric_bike", "lat": 38.962169, "fusion_lat": 0.0, "is_disabled": 0}, {"rental_uris": {"android": "https://dc.lft.to/lastmile_qr_scan", "ios": "https://dc.lft.to/lastmile_qr_scan"}, "lon": -77.02845883333333, "name": "5c7535aee94f4c93f0b65b9e170e77b3", "fusion_lon": 0.0, "bike_id": "5c7535aee94f4c93f0b65b9e170e77b3", "is_reserved": 0, "type": "electric_scooter", "lat": 38.935256333333335, "fusion_lat": 0.0, "is_disabled": 0}, {"rental_uris": {"android": "https://dc.lft.to/lastmile_qr_scan", "ios": "https://dc.lft.to/lastmile_qr_scan"}, "lon": -77.06918266666666, "name": "94cb7c557837a7a91bdb21d3ae7f44d0", "fusion_lon": 0.0, "bike_id": "94cb7c557837a7a91bdb21d3ae7f44d0", "is_reserved": 0, "type": "electric_scooter", "lat": 38.907751, "fusion_lat": 0.0, "is_disabled": 0}, {"rental_uris": {"android": "https://dc.lft.to/lastmile_qr_scan", "ios": "https://dc.lft.to/lastmile_qr_scan"}, "lon": -77.01902983333333, "name": "7a72dda9876a1ff27a5c076d12e57eb3", "fusion_lon": 0.0, "bike_id": "7a72dda9876a1ff27a5c076d12e57eb3", "is_reserved": 0, "type": "electric_scooter", "lat": 38.921285833333336, "fusion_lat": 0.0, "is_disabled": 0}, {"rental_uris": {"android": "https://dc.lft.to/lastmile_qr_scan", "ios": "https://dc.lft.to/lastmile_qr_scan"}, "lon": -77.0454575, "name": "e32cfb0248029afce87447d58280970d", "fusion_lon": 0.0, "bike_id": "e32cfb0248029afce87447d58280970d", "is_reserved": 0, "type": "electric_scooter", "lat": 38.90720433333333, "fusion_lat": 0.0, "is_disabled": 0}, {"rental_uris": {"android": "https://dc.lft.to/lastmile_qr_scan", "ios": "https://dc.lft.to/lastmile_qr_scan"}, "lon": -77.032247, "name": "58987a769aeb47f0376280566f4e6537", "fusion_lon": 0.0, "bike_id": "58987a769aeb47f0376280566f4e6537", "is_reserved": 0, "type": "electric_scooter", "lat": 38.8978565, "fusion_lat": 0.0, "is_disabled": 0}, {"rental_uris": {"android": "https://dc.lft.to/lastmile_qr_scan", "ios": "https://dc.lft.to/lastmile_qr_scan"}, "lon": -77.00285666666667, "name": "c4e1ba67ce69d0fb5ff26ab022b25811", "fusion_lon": 0.0, "bike_id": "c4e1ba67ce69d0fb5ff26ab022b25811", "is_reserved": 0, "type": "electric_bike", "lat": 38.96011816666667, "fusion_lat": 0.0, "is_disabled": 0}, {"rental_uris": {"android": "https://dc.lft.to/lastmile_qr_scan", "ios": "https://dc.lft.to/lastmile_qr_scan"}, "lon": -77.00807, "name": "8d3d24c2edf9bcdfd9baa535feadea17", "fusion_lon": 0.0, "bike_id": "8d3d24c2edf9bcdfd9baa535feadea17", "is_reserved": 0, "type": "electric_scooter", "lat": 38.907218, "fusion_lat": 0.0, "is_disabled": 0}, {"rental_uris": {"android": "https://dc.lft.to/lastmile_qr_scan", "ios": "https://dc.lft.to/lastmile_qr_scan"}, "lon": -77.00594716666667, "name": "8a21b59a79f11a4039b059df2634d4b1", "fusion_lon": 0.0, "bike_id": "8a21b59a79f11a4039b059df2634d4b1", "is_reserved": 0, "type": "electric_scooter", "lat": 38.90564366666667, "fusion_lat": 0.0, "is_disabled": 0}, {"rental_uris": {"android": "https://dc.lft.to/lastmile_qr_scan", "ios": "https://dc.lft.to/lastmile_qr_scan"}, "lon": -77.023539, "name": "dcd62f0689ea8dd520c1e3de9846203a", "fusion_lon": 0.0, "bike_id": "dcd62f0689ea8dd520c1e3de9846203a", "is_reserved": 0, "type": "electric_scooter", "lat": 38.908598, "fusion_lat": 0.0, "is_disabled": 0}, {"rental_uris": {"android": "https://dc.lft.to/lastmile_qr_scan", "ios": "https://dc.lft.to/lastmile_qr_scan"}, "lon": -77.14652116666667, "name": "2e7e665001ab6325df5e4760346b7dcc", "fusion_lon": 0.0, "bike_id": "2e7e665001ab6325df5e4760346b7dcc", "is_reserved": 0, "type": "electric_bike", "lat": 38.8619445, "fusion_lat": 0.0, "is_disabled": 0}, {"rental_uris": {"android": "https://dc.lft.to/lastmile_qr_scan", "ios": "https://dc.lft.to/lastmile_qr_scan"}, "lon": -77.00597783333333, "name": "b223ee9b9b39b39fa156a59e532f9668", "fusion_lon": 0.0, "bike_id": "b223ee9b9b39b39fa156a59e532f9668", "is_reserved": 0, "type": "electric_scooter", "lat": 38.87555583333334, "fusion_lat": 0.0, "is_disabled": 0}, {"rental_uris": {"android": "https://dc.lft.to/lastmile_qr_scan", "ios": "https://dc.lft.to/lastmile_qr_scan"}, "lon": -77.0419165, "name": "cbdde12fbc5821f5908b8c125388bd6e", "fusion_lon": 0.0, "bike_id": "cbdde12fbc5821f5908b8c125388bd6e", "is_reserved": 0, "type": "electric_scooter", "lat": 38.90252866666667, "fusion_lat": 0.0, "is_disabled": 0}, {"rental_uris": {"android": "https://dc.lft.to/lastmile_qr_scan", "ios": "https://dc.lft.to/lastmile_qr_scan"}, "lon": -77.03185983333333, "name": "a6c53a7a3c60f8ce0b4260b0a0882b5e", "fusion_lon": 0.0, "bike_id": "a6c53a7a3c60f8ce0b4260b0a0882b5e", "is_reserved": 0, "type": "electric_scooter", "lat": 38.92489066666667, "fusion_lat": 0.0, "is_disabled": 0}, {"rental_uris": {"android": "https://dc.lft.to/lastmile_qr_scan", "ios": "https://dc.lft.to/lastmile_qr_scan"}, "lon": -77.02318333333334, "name": "a4b61825d58377d34319a8d344918c0f", "fusion_lon": 0.0, "bike_id": "a4b61825d58377d34319a8d344918c0f", "is_reserved": 0, "type": "electric_scooter", "lat": 38.925156333333334, "fusion_lat": 0.0, "is_disabled": 0}, {"rental_uris": {"android": "https://dc.lft.to/lastmile_qr_scan", "ios": "https://dc.lft.to/lastmile_qr_scan"}, "lon": -77.02196466666666, "name": "e6f15d202d2564d1c658260fa7a65f88", "fusion_lon": 0.0, "bike_id": "e6f15d202d2564d1c658260fa7a65f88", "is_reserved": 0, "type": "electric_scooter", "lat": 38.91783516666667, "fusion_lat": 0.0, "is_disabled": 0}, {"rental_uris": {"android": "https://dc.lft.to/lastmile_qr_scan", "ios": "https://dc.lft.to/lastmile_qr_scan"}, "lon": -77.00742316666667, "name": "b514993b7030b1f917d60f37b0ee2809", "fusion_lon": 0.0, "bike_id": "b514993b7030b1f917d60f37b0ee2809", "is_reserved": 0, "type": "electric_scooter", "lat": 38.876923833333336, "fusion_lat": 0.0, "is_disabled": 0}, {"rental_uris": {"android": "https://dc.lft.to/lastmile_qr_scan", "ios": "https://dc.lft.to/lastmile_qr_scan"}, "lon": -77.01884016666666, "name": "5dca0636a817792b4d8d1c660b2d11be", "fusion_lon": 0.0, "bike_id": "5dca0636a817792b4d8d1c660b2d11be", "is_reserved": 0, "type": "electric_scooter", "lat": 38.95095583333333, "fusion_lat": 0.0, "is_disabled": 0}, {"rental_uris": {"android": "https://dc.lft.to/lastmile_qr_scan", "ios": "https://dc.lft.to/lastmile_qr_scan"}, "lon": -77.0268205, "name": "98ef222e87fb915ad250a5d5c3fe55f3", "fusion_lon": 0.0, "bike_id": "98ef222e87fb915ad250a5d5c3fe55f3", "is_reserved": 0, "type": "electric_scooter", "lat": 38.898051, "fusion_lat": 0.0, "is_disabled": 0}, {"rental_uris": {"android": "https://dc.lft.to/lastmile_qr_scan", "ios": "https://dc.lft.to/lastmile_qr_scan"}, "lon": -77.02714683333333, "name": "8652e0019c9cfd9ccd6bb35cb6ff22b7", "fusion_lon": 0.0, "bike_id": "8652e0019c9cfd9ccd6bb35cb6ff22b7", "is_reserved": 0, "type": "electric_scooter", "lat": 38.906733, "fusion_lat": 0.0, "is_disabled": 0}, {"rental_uris": {"android": "https://dc.lft.to/lastmile_qr_scan", "ios": "https://dc.lft.to/lastmile_qr_scan"}, "lon": -77.00408433333334, "name": "e041c69d6e1e45d6cdd85d68b70a2174", "fusion_lon": 0.0, "bike_id": "e041c69d6e1e45d6cdd85d68b70a2174", "is_reserved": 0, "type": "electric_scooter", "lat": 38.92947216666666, "fusion_lat": 0.0, "is_disabled": 0}, {"rental_uris": {"android": "https://dc.lft.to/lastmile_qr_scan", "ios": "https://dc.lft.to/lastmile_qr_scan"}, "lon": -77.0159055, "name": "9b3ec1767e28dc3f18275e41449ad1fe", "fusion_lon": 0.0, "bike_id": "9b3ec1767e28dc3f18275e41449ad1fe", "is_reserved": 0, "type": "electric_scooter", "lat": 38.885029, "fusion_lat": 0.0, "is_disabled": 0}, {"rental_uris": {"android": "https://dc.lft.to/lastmile_qr_scan", "ios": "https://dc.lft.to/lastmile_qr_scan"}, "lon": -76.983602, "name": "22df77a5085fbc889712711580d05396", "fusion_lon": 0.0, "bike_id": "22df77a5085fbc889712711580d05396", "is_reserved": 0, "type": "electric_scooter", "lat": 38.887234166666666, "fusion_lat": 0.0, "is_disabled": 0}, {"rental_uris": {"android": "https://dc.lft.to/lastmile_qr_scan", "ios": "https://dc.lft.to/lastmile_qr_scan"}, "lon": -76.92745683333334, "name": "c96a44f27c5a50305ba38ee90e92268a", "fusion_lon": 0.0, "bike_id": "c96a44f27c5a50305ba38ee90e92268a", "is_reserved": 0, "type": "electric_scooter", "lat": 38.9006365, "fusion_lat": 0.0, "is_disabled": 0}, {"rental_uris": {"android": "https://dc.lft.to/lastmile_qr_scan", "ios": "https://dc.lft.to/lastmile_qr_scan"}, "lon": -77.04408283333333, "name": "6b4311fe8b39765da88d3573c465ce3b", "fusion_lon": 0.0, "bike_id": "6b4311fe8b39765da88d3573c465ce3b", "is_reserved": 0, "type": "electric_scooter", "lat": 38.896041333333336, "fusion_lat": 0.0, "is_disabled": 0}, {"rental_uris": {"android": "https://dc.lft.to/lastmile_qr_scan", "ios": "https://dc.lft.to/lastmile_qr_scan"}, "lon": -77.0318945, "name": "67bb3e0c88f705ebd198b22ef1190c44", "fusion_lon": 0.0, "bike_id": "67bb3e0c88f705ebd198b22ef1190c44", "is_reserved": 0, "type": "electric_scooter", "lat": 38.917884, "fusion_lat": 0.0, "is_disabled": 0}, {"rental_uris": {"android": "https://dc.lft.to/lastmile_qr_scan", "ios": "https://dc.lft.to/lastmile_qr_scan"}, "lon": -77.03195066666666, "name": "62db062549f7bdf76d773d09a38b3d34", "fusion_lon": 0.0, "bike_id": "62db062549f7bdf76d773d09a38b3d34", "is_reserved": 0, "type": "electric_scooter", "lat": 38.91803633333333, "fusion_lat": 0.0, "is_disabled": 0}, {"rental_uris": {"android": "https://dc.lft.to/lastmile_qr_scan", "ios": "https://dc.lft.to/lastmile_qr_scan"}, "lon": -77.02660233333333, "name": "eb6e3ea0d22a13f44ff7f725872fb57e", "fusion_lon": 0.0, "bike_id": "eb6e3ea0d22a13f44ff7f725872fb57e", "is_reserved": 0, "type": "electric_scooter", "lat": 38.922079333333336, "fusion_lat": 0.0, "is_disabled": 0}, {"rental_uris": {"android": "https://dc.lft.to/lastmile_qr_scan", "ios": "https://dc.lft.to/lastmile_qr_scan"}, "lon": -76.990199, "name": "e10ac11a492c1780b5a4d18f11f6f0ca", "fusion_lon": 0.0, "bike_id": "e10ac11a492c1780b5a4d18f11f6f0ca", "is_reserved": 0, "type": "electric_bike", "lat": 38.898973166666664, "fusion_lat": 0.0, "is_disabled": 0}, {"rental_uris": {"android": "https://dc.lft.to/lastmile_qr_scan", "ios": "https://dc.lft.to/lastmile_qr_scan"}, "lon": -77.02203166666666, "name": "c0d4fdac3d5d76daf00d9ef734a7d622", "fusion_lon": 0.0, "bike_id": "c0d4fdac3d5d76daf00d9ef734a7d622", "is_reserved": 0, "type": "electric_scooter", "lat": 38.9154165, "fusion_lat": 0.0, "is_disabled": 0}, {"rental_uris": {"android": "https://dc.lft.to/lastmile_qr_scan", "ios": "https://dc.lft.to/lastmile_qr_scan"}, "lon": -77.03584433333333, "name": "e72c0e6a82ac148e990fd7558759eaf4", "fusion_lon": 0.0, "bike_id": "e72c0e6a82ac148e990fd7558759eaf4", "is_reserved": 0, "type": "electric_scooter", "lat": 38.94238633333333, "fusion_lat": 0.0, "is_disabled": 0}, {"rental_uris": {"android": "https://dc.lft.to/lastmile_qr_scan", "ios": "https://dc.lft.to/lastmile_qr_scan"}, "lon": -77.03659483333334, "name": "e3a6b735e7c6f7f21ce5148430ebbec2", "fusion_lon": 0.0, "bike_id": "e3a6b735e7c6f7f21ce5148430ebbec2", "is_reserved": 0, "type": "electric_scooter", "lat": 38.92283, "fusion_lat": 0.0, "is_disabled": 0}, {"rental_uris": {"android": "https://dc.lft.to/lastmile_qr_scan", "ios": "https://dc.lft.to/lastmile_qr_scan"}, "lon": -77.030228, "name": "284f0f03a2a2271e5d6f3599cc7fc88e", "fusion_lon": 0.0, "bike_id": "284f0f03a2a2271e5d6f3599cc7fc88e", "is_reserved": 0, "type": "electric_scooter", "lat": 38.9181725, "fusion_lat": 0.0, "is_disabled": 0}, {"rental_uris": {"android": "https://dc.lft.to/lastmile_qr_scan", "ios": "https://dc.lft.to/lastmile_qr_scan"}, "lon": -77.02584233333333, "name": "0ef98203502e4033f8c6837ffbe7bc5f", "fusion_lon": 0.0, "bike_id": "0ef98203502e4033f8c6837ffbe7bc5f", "is_reserved": 0, "type": "electric_scooter", "lat": 38.909675666666665, "fusion_lat": 0.0, "is_disabled": 0}, {"rental_uris": {"android": "https://dc.lft.to/lastmile_qr_scan", "ios": "https://dc.lft.to/lastmile_qr_scan"}, "lon": -77.0223, "name": "9a79ba6e4fa8b345797791710256abad", "fusion_lon": 0.0, "bike_id": "9a79ba6e4fa8b345797791710256abad", "is_reserved": 0, "type": "electric_scooter", "lat": 38.8922305, "fusion_lat": 0.0, "is_disabled": 0}, {"rental_uris": {"android": "https://dc.lft.to/lastmile_qr_scan", "ios": "https://dc.lft.to/lastmile_qr_scan"}, "lon": -77.036402, "name": "52f71404f48a5999b61da52b0ee6d826", "fusion_lon": 0.0, "bike_id": "52f71404f48a5999b61da52b0ee6d826", "is_reserved": 0, "type": "electric_scooter", "lat": 38.933340666666666, "fusion_lat": 0.0, "is_disabled": 0}, {"rental_uris": {"android": "https://dc.lft.to/lastmile_qr_scan", "ios": "https://dc.lft.to/lastmile_qr_scan"}, "lon": -77.021292, "name": "556e320c95585262c96340d4b366648d", "fusion_lon": 0.0, "bike_id": "556e320c95585262c96340d4b366648d", "is_reserved": 0, "type": "electric_scooter", "lat": 38.9227265, "fusion_lat": 0.0, "is_disabled": 0}, {"rental_uris": {"android": "https://dc.lft.to/lastmile_qr_scan", "ios": "https://dc.lft.to/lastmile_qr_scan"}, "lon": -77.031994, "name": "3c23547ee05b838a567f98487e327205", "fusion_lon": 0.0, "bike_id": "3c23547ee05b838a567f98487e327205", "is_reserved": 0, "type": "electric_scooter", "lat": 38.90744466666666, "fusion_lat": 0.0, "is_disabled": 0}, {"rental_uris": {"android": "https://dc.lft.to/lastmile_qr_scan", "ios": "https://dc.lft.to/lastmile_qr_scan"}, "lon": -76.97458366666666, "name": "ce77193f041106ceb2a314188d32b2c5", "fusion_lon": 0.0, "bike_id": "ce77193f041106ceb2a314188d32b2c5", "is_reserved": 0, "type": "electric_scooter", "lat": 38.86530183333333, "fusion_lat": 0.0, "is_disabled": 0}, {"rental_uris": {"android": "https://dc.lft.to/lastmile_qr_scan", "ios": "https://dc.lft.to/lastmile_qr_scan"}, "lon": -76.93005466666666, "name": "61a7488dd81e14e0571eacfd5478dabc", "fusion_lon": 0.0, "bike_id": "61a7488dd81e14e0571eacfd5478dabc", "is_reserved": 0, "type": "electric_scooter", "lat": 38.90183833333333, "fusion_lat": 0.0, "is_disabled": 0}, {"rental_uris": {"android": "https://dc.lft.to/lastmile_qr_scan", "ios": "https://dc.lft.to/lastmile_qr_scan"}, "lon": -77.12665466666667, "name": "43dc148148de7e9ee1572ffdeb7c30b2", "fusion_lon": 0.0, "bike_id": "43dc148148de7e9ee1572ffdeb7c30b2", "is_reserved": 0, "type": "electric_bike", "lat": 38.819120833333336, "fusion_lat": 0.0, "is_disabled": 0}, {"rental_uris": {"android": "https://dc.lft.to/lastmile_qr_scan", "ios": "https://dc.lft.to/lastmile_qr_scan"}, "lon": -76.99574183333333, "name": "8efa591409cacdfdadce42881ad8b4f8", "fusion_lon": 0.0, "bike_id": "8efa591409cacdfdadce42881ad8b4f8", "is_reserved": 0, "type": "electric_scooter", "lat": 38.894846666666666, "fusion_lat": 0.0, "is_disabled": 0}, {"rental_uris": {"android": "https://dc.lft.to/lastmile_qr_scan", "ios": "https://dc.lft.to/lastmile_qr_scan"}, "lon": -77.03421916666667, "name": "9e10e79449b1556ceb3c34b343136b72", "fusion_lon": 0.0, "bike_id": "9e10e79449b1556ceb3c34b343136b72", "is_reserved": 0, "type": "electric_scooter", "lat": 38.919203833333334, "fusion_lat": 0.0, "is_disabled": 0}, {"rental_uris": {"android": "https://dc.lft.to/lastmile_qr_scan", "ios": "https://dc.lft.to/lastmile_qr_scan"}, "lon": -77.02009466666667, "name": "f50cecb8e269dca2ebf74e598e970609", "fusion_lon": 0.0, "bike_id": "f50cecb8e269dca2ebf74e598e970609", "is_reserved": 0, "type": "electric_scooter", "lat": 38.92416166666667, "fusion_lat": 0.0, "is_disabled": 0}, {"rental_uris": {"android": "https://dc.lft.to/lastmile_qr_scan", "ios": "https://dc.lft.to/lastmile_qr_scan"}, "lon": -76.9278155, "name": "c21db50175588c75d90df0c7d88f3cbf", "fusion_lon": 0.0, "bike_id": "c21db50175588c75d90df0c7d88f3cbf", "is_reserved": 0, "type": "electric_scooter", "lat": 38.90185733333333, "fusion_lat": 0.0, "is_disabled": 0}, {"rental_uris": {"android": "https://dc.lft.to/lastmile_qr_scan", "ios": "https://dc.lft.to/lastmile_qr_scan"}, "lon": -77.0647485, "name": "65b694b6c74f1957a25d44d232803adb", "fusion_lon": 0.0, "bike_id": "65b694b6c74f1957a25d44d232803adb", "is_reserved": 0, "type": "electric_scooter", "lat": 38.946495166666665, "fusion_lat": 0.0, "is_disabled": 0}, {"rental_uris": {"android": "https://dc.lft.to/lastmile_qr_scan", "ios": "https://dc.lft.to/lastmile_qr_scan"}, "lon": -77.0312855, "name": "d187e284ae1819a04d08c3d9541fd7f6", "fusion_lon": 0.0, "bike_id": "d187e284ae1819a04d08c3d9541fd7f6", "is_reserved": 0, "type": "electric_bike", "lat": 38.931735833333335, "fusion_lat": 0.0, "is_disabled": 0}, {"rental_uris": {"android": "https://dc.lft.to/lastmile_qr_scan", "ios": "https://dc.lft.to/lastmile_qr_scan"}, "lon": -77.058707, "name": "0d935ae21b7dfe6a6089b66de4b32a59", "fusion_lon": 0.0, "bike_id": "0d935ae21b7dfe6a6089b66de4b32a59", "is_reserved": 0, "type": "electric_scooter", "lat": 38.9358375, "fusion_lat": 0.0, "is_disabled": 0}, {"rental_uris": {"android": "https://dc.lft.to/lastmile_qr_scan", "ios": "https://dc.lft.to/lastmile_qr_scan"}, "lon": -77.0460385, "name": "ca49300f56db8596987cbc8c04e21e16", "fusion_lon": 0.0, "bike_id": "ca49300f56db8596987cbc8c04e21e16", "is_reserved": 0, "type": "electric_scooter", "lat": 38.910632666666665, "fusion_lat": 0.0, "is_disabled": 0}, {"rental_uris": {"android": "https://dc.lft.to/lastmile_qr_scan", "ios": "https://dc.lft.to/lastmile_qr_scan"}, "lon": -77.02098466666666, "name": "511823d5ab3f63ec2c0f234f5511398b", "fusion_lon": 0.0, "bike_id": "511823d5ab3f63ec2c0f234f5511398b", "is_reserved": 0, "type": "electric_scooter", "lat": 38.90181533333333, "fusion_lat": 0.0, "is_disabled": 0}, {"rental_uris": {"android": "https://dc.lft.to/lastmile_qr_scan", "ios": "https://dc.lft.to/lastmile_qr_scan"}, "lon": -77.0507505, "name": "73260efe4d487487bcd3dd1fe3d4bca7", "fusion_lon": 0.0, "bike_id": "73260efe4d487487bcd3dd1fe3d4bca7", "is_reserved": 0, "type": "electric_scooter", "lat": 38.9016305, "fusion_lat": 0.0, "is_disabled": 0}, {"rental_uris": {"android": "https://dc.lft.to/lastmile_qr_scan", "ios": "https://dc.lft.to/lastmile_qr_scan"}, "lon": -77.02070416666666, "name": "a1cd26b57fe24f25a249d2f3b22fa480", "fusion_lon": 0.0, "bike_id": "a1cd26b57fe24f25a249d2f3b22fa480", "is_reserved": 0, "type": "electric_scooter", "lat": 38.949106, "fusion_lat": 0.0, "is_disabled": 0}, {"rental_uris": {"android": "https://dc.lft.to/lastmile_qr_scan", "ios": "https://dc.lft.to/lastmile_qr_scan"}, "lon": -77.0304565, "name": "ce09ed4ad354af36952f1f267c4c335a", "fusion_lon": 0.0, "bike_id": "ce09ed4ad354af36952f1f267c4c335a", "is_reserved": 0, "type": "electric_scooter", "lat": 38.90112933333333, "fusion_lat": 0.0, "is_disabled": 0}, {"rental_uris": {"android": "https://dc.lft.to/lastmile_qr_scan", "ios": "https://dc.lft.to/lastmile_qr_scan"}, "lon": -76.99568066666667, "name": "b37eb4e5b39a550178ab3ba9f897862f", "fusion_lon": 0.0, "bike_id": "b37eb4e5b39a550178ab3ba9f897862f", "is_reserved": 0, "type": "electric_scooter", "lat": 38.884637, "fusion_lat": 0.0, "is_disabled": 0}, {"rental_uris": {"android": "https://dc.lft.to/lastmile_qr_scan", "ios": "https://dc.lft.to/lastmile_qr_scan"}, "lon": -77.02432183333333, "name": "29fe62cbe74aee95801275e4d09fb0b7", "fusion_lon": 0.0, "bike_id": "29fe62cbe74aee95801275e4d09fb0b7", "is_reserved": 0, "type": "electric_scooter", "lat": 38.89464233333333, "fusion_lat": 0.0, "is_disabled": 0}, {"rental_uris": {"android": "https://dc.lft.to/lastmile_qr_scan", "ios": "https://dc.lft.to/lastmile_qr_scan"}, "lon": -77.03466616666667, "name": "d128c88b005b8ad008546639543acfac", "fusion_lon": 0.0, "bike_id": "d128c88b005b8ad008546639543acfac", "is_reserved": 0, "type": "electric_scooter", "lat": 38.905579333333336, "fusion_lat": 0.0, "is_disabled": 0}, {"rental_uris": {"android": "https://dc.lft.to/lastmile_qr_scan", "ios": "https://dc.lft.to/lastmile_qr_scan"}, "lon": -77.03764166666667, "name": "36e9cc2f8f635af609b2ef174ab24ae2", "fusion_lon": 0.0, "bike_id": "36e9cc2f8f635af609b2ef174ab24ae2", "is_reserved": 0, "type": "electric_scooter", "lat": 38.90238866666667, "fusion_lat": 0.0, "is_disabled": 0}, {"rental_uris": {"android": "https://dc.lft.to/lastmile_qr_scan", "ios": "https://dc.lft.to/lastmile_qr_scan"}, "lon": -77.04992066666667, "name": "ae394738b263ea5e151a17c0ead94a4b", "fusion_lon": 0.0, "bike_id": "ae394738b263ea5e151a17c0ead94a4b", "is_reserved": 0, "type": "electric_scooter", "lat": 38.901151166666665, "fusion_lat": 0.0, "is_disabled": 0}, {"rental_uris": {"android": "https://dc.lft.to/lastmile_qr_scan", "ios": "https://dc.lft.to/lastmile_qr_scan"}, "lon": -77.02686816666667, "name": "b9f3b60da6ca34f4cf9a6d9e2036bb11", "fusion_lon": 0.0, "bike_id": "b9f3b60da6ca34f4cf9a6d9e2036bb11", "is_reserved": 0, "type": "electric_scooter", "lat": 38.9071635, "fusion_lat": 0.0, "is_disabled": 0}, {"rental_uris": {"android": "https://dc.lft.to/lastmile_qr_scan", "ios": "https://dc.lft.to/lastmile_qr_scan"}, "lon": -77.02192566666666, "name": "63dea7b4c42d827aa2f4177416433807", "fusion_lon": 0.0, "bike_id": "63dea7b4c42d827aa2f4177416433807", "is_reserved": 0, "type": "electric_scooter", "lat": 38.89717533333334, "fusion_lat": 0.0, "is_disabled": 0}, {"rental_uris": {"android": "https://dc.lft.to/lastmile_qr_scan", "ios": "https://dc.lft.to/lastmile_qr_scan"}, "lon": -77.0192095, "name": "7e5046dd141d4c42136b520008aab794", "fusion_lon": 0.0, "bike_id": "7e5046dd141d4c42136b520008aab794", "is_reserved": 0, "type": "electric_scooter", "lat": 38.9175375, "fusion_lat": 0.0, "is_disabled": 0}, {"rental_uris": {"android": "https://dc.lft.to/lastmile_qr_scan", "ios": "https://dc.lft.to/lastmile_qr_scan"}, "lon": -77.031674, "name": "d270732e74f57b7bb25f6a74b02a5a9e", "fusion_lon": 0.0, "bike_id": "d270732e74f57b7bb25f6a74b02a5a9e", "is_reserved": 0, "type": "electric_scooter", "lat": 38.90314133333333, "fusion_lat": 0.0, "is_disabled": 0}, {"rental_uris": {"android": "https://dc.lft.to/lastmile_qr_scan", "ios": "https://dc.lft.to/lastmile_qr_scan"}, "lon": -77.02696483333334, "name": "dcd780e7a2d583a0399bba8c11a6306a", "fusion_lon": 0.0, "bike_id": "dcd780e7a2d583a0399bba8c11a6306a", "is_reserved": 0, "type": "electric_scooter", "lat": 38.90697633333333, "fusion_lat": 0.0, "is_disabled": 0}, {"rental_uris": {"android": "https://dc.lft.to/lastmile_qr_scan", "ios": "https://dc.lft.to/lastmile_qr_scan"}, "lon": -77.032169, "name": "7f0ef85a9c3c11d148a58523a749cecb", "fusion_lon": 0.0, "bike_id": "7f0ef85a9c3c11d148a58523a749cecb", "is_reserved": 0, "type": "electric_scooter", "lat": 38.91420733333333, "fusion_lat": 0.0, "is_disabled": 0}, {"rental_uris": {"android": "https://dc.lft.to/lastmile_qr_scan", "ios": "https://dc.lft.to/lastmile_qr_scan"}, "lon": -77.042133, "name": "f89c22655563064dfe3dbe221a8063a9", "fusion_lon": 0.0, "bike_id": "f89c22655563064dfe3dbe221a8063a9", "is_reserved": 0, "type": "electric_scooter", "lat": 38.919227666666664, "fusion_lat": 0.0, "is_disabled": 0}, {"rental_uris": {"android": "https://dc.lft.to/lastmile_qr_scan", "ios": "https://dc.lft.to/lastmile_qr_scan"}, "lon": -77.03161866666666, "name": "4c5d3c2b0186dedcb430908a7ee1ffd9", "fusion_lon": 0.0, "bike_id": "4c5d3c2b0186dedcb430908a7ee1ffd9", "is_reserved": 0, "type": "electric_scooter", "lat": 38.9181355, "fusion_lat": 0.0, "is_disabled": 0}, {"rental_uris": {"android": "https://dc.lft.to/lastmile_qr_scan", "ios": "https://dc.lft.to/lastmile_qr_scan"}, "lon": -76.99816283333334, "name": "fa1fa5ee52fedd1597ca737acc76c7ae", "fusion_lon": 0.0, "bike_id": "fa1fa5ee52fedd1597ca737acc76c7ae", "is_reserved": 0, "type": "electric_scooter", "lat": 38.92917683333334, "fusion_lat": 0.0, "is_disabled": 0}, {"rental_uris": {"android": "https://dc.lft.to/lastmile_qr_scan", "ios": "https://dc.lft.to/lastmile_qr_scan"}, "lon": -77.00336466666667, "name": "d4d34f3daa6a8ee29214e7e9b47392a4", "fusion_lon": 0.0, "bike_id": "d4d34f3daa6a8ee29214e7e9b47392a4", "is_reserved": 0, "type": "electric_scooter", "lat": 38.893538166666666, "fusion_lat": 0.0, "is_disabled": 0}, {"rental_uris": {"android": "https://dc.lft.to/lastmile_qr_scan", "ios": "https://dc.lft.to/lastmile_qr_scan"}, "lon": -77.34463916666667, "name": "af660d0c5b3d5d6acb86c01a1c48f31d", "fusion_lon": 0.0, "bike_id": "af660d0c5b3d5d6acb86c01a1c48f31d", "is_reserved": 0, "type": "electric_bike", "lat": 38.9454005, "fusion_lat": 0.0, "is_disabled": 0}, {"rental_uris": {"android": "https://dc.lft.to/lastmile_qr_scan", "ios": "https://dc.lft.to/lastmile_qr_scan"}, "lon": -77.02794133333333, "name": "5688c9ba4f762cbc4491fc1a1d34bffe", "fusion_lon": 0.0, "bike_id": "5688c9ba4f762cbc4491fc1a1d34bffe", "is_reserved": 0, "type": "electric_scooter", "lat": 38.92966583333333, "fusion_lat": 0.0, "is_disabled": 0}, {"rental_uris": {"android": "https://dc.lft.to/lastmile_qr_scan", "ios": "https://dc.lft.to/lastmile_qr_scan"}, "lon": -77.02427166666666, "name": "199b9e115ee53e76630abe0a5d9c39d6", "fusion_lon": 0.0, "bike_id": "199b9e115ee53e76630abe0a5d9c39d6", "is_reserved": 0, "type": "electric_scooter", "lat": 38.905696, "fusion_lat": 0.0, "is_disabled": 0}, {"rental_uris": {"android": "https://dc.lft.to/lastmile_qr_scan", "ios": "https://dc.lft.to/lastmile_qr_scan"}, "lon": -76.93676216666667, "name": "62ad28770ac715db9d4e4be65ec1ce8d", "fusion_lon": 0.0, "bike_id": "62ad28770ac715db9d4e4be65ec1ce8d", "is_reserved": 0, "type": "electric_scooter", "lat": 38.886595666666665, "fusion_lat": 0.0, "is_disabled": 0}, {"rental_uris": {"android": "https://dc.lft.to/lastmile_qr_scan", "ios": "https://dc.lft.to/lastmile_qr_scan"}, "lon": -76.95150183333334, "name": "e1c9c07ba12ae822bc25f2688ce29fba", "fusion_lon": 0.0, "bike_id": "e1c9c07ba12ae822bc25f2688ce29fba", "is_reserved": 0, "type": "electric_bike", "lat": 39.084294666666665, "fusion_lat": 0.0, "is_disabled": 0}, {"rental_uris": {"android": "https://dc.lft.to/lastmile_qr_scan", "ios": "https://dc.lft.to/lastmile_qr_scan"}, "lon": -76.98065316666667, "name": "52cebea7aca9f8429a2db00038c21a5d", "fusion_lon": 0.0, "bike_id": "52cebea7aca9f8429a2db00038c21a5d", "is_reserved": 0, "type": "electric_scooter", "lat": 38.8649695, "fusion_lat": 0.0, "is_disabled": 0}, {"rental_uris": {"android": "https://dc.lft.to/lastmile_qr_scan", "ios": "https://dc.lft.to/lastmile_qr_scan"}, "lon": -77.0716885, "name": "7f499e4cc3a8ca3ed0a8ae6e501a3a87", "fusion_lon": 0.0, "bike_id": "7f499e4cc3a8ca3ed0a8ae6e501a3a87", "is_reserved": 0, "type": "electric_bike", "lat": 38.908679, "fusion_lat": 0.0, "is_disabled": 0}, {"rental_uris": {"android": "https://dc.lft.to/lastmile_qr_scan", "ios": "https://dc.lft.to/lastmile_qr_scan"}, "lon": -77.02408366666667, "name": "889b3fb1e9dde904859eb59d53ad6814", "fusion_lon": 0.0, "bike_id": "889b3fb1e9dde904859eb59d53ad6814", "is_reserved": 0, "type": "electric_scooter", "lat": 38.90990716666667, "fusion_lat": 0.0, "is_disabled": 0}, {"rental_uris": {"android": "https://dc.lft.to/lastmile_qr_scan", "ios": "https://dc.lft.to/lastmile_qr_scan"}, "lon": -77.02166416666667, "name": "fce1ca967482eb9ab55c3ae55bfd51b4", "fusion_lon": 0.0, "bike_id": "fce1ca967482eb9ab55c3ae55bfd51b4", "is_reserved": 0, "type": "electric_scooter", "lat": 38.92448316666667, "fusion_lat": 0.0, "is_disabled": 0}, {"rental_uris": {"android": "https://dc.lft.to/lastmile_qr_scan", "ios": "https://dc.lft.to/lastmile_qr_scan"}, "lon": -77.027161, "name": "99c41c5a5be3943f2f58bf5197342a0e", "fusion_lon": 0.0, "bike_id": "99c41c5a5be3943f2f58bf5197342a0e", "is_reserved": 0, "type": "electric_scooter", "lat": 38.924818, "fusion_lat": 0.0, "is_disabled": 0}, {"rental_uris": {"android": "https://dc.lft.to/lastmile_qr_scan", "ios": "https://dc.lft.to/lastmile_qr_scan"}, "lon": -77.04027683333334, "name": "0c4e6fc7c5afb6a845c58c51efca31a9", "fusion_lon": 0.0, "bike_id": "0c4e6fc7c5afb6a845c58c51efca31a9", "is_reserved": 0, "type": "electric_scooter", "lat": 38.90522266666667, "fusion_lat": 0.0, "is_disabled": 0}, {"rental_uris": {"android": "https://dc.lft.to/lastmile_qr_scan", "ios": "https://dc.lft.to/lastmile_qr_scan"}, "lon": -77.032132, "name": "e37d8b8c5673c7f2e5923969a4dab498", "fusion_lon": 0.0, "bike_id": "e37d8b8c5673c7f2e5923969a4dab498", "is_reserved": 0, "type": "electric_scooter", "lat": 38.88722083333333, "fusion_lat": 0.0, "is_disabled": 0}, {"rental_uris": {"android": "https://dc.lft.to/lastmile_qr_scan", "ios": "https://dc.lft.to/lastmile_qr_scan"}, "lon": -77.04153166666667, "name": "b16c61cbe29b58821e4703c22df835c2", "fusion_lon": 0.0, "bike_id": "b16c61cbe29b58821e4703c22df835c2", "is_reserved": 0, "type": "electric_scooter", "lat": 38.9174975, "fusion_lat": 0.0, "is_disabled": 0}, {"rental_uris": {"android": "https://dc.lft.to/lastmile_qr_scan", "ios": "https://dc.lft.to/lastmile_qr_scan"}, "lon": -76.97351333333333, "name": "d0711d0a65b9aa624bab228f359db7d7", "fusion_lon": 0.0, "bike_id": "d0711d0a65b9aa624bab228f359db7d7", "is_reserved": 0, "type": "electric_scooter", "lat": 38.904006, "fusion_lat": 0.0, "is_disabled": 0}, {"rental_uris": {"android": "https://dc.lft.to/lastmile_qr_scan", "ios": "https://dc.lft.to/lastmile_qr_scan"}, "lon": -77.01900316666666, "name": "7d22a946ccfe710095f70fea61c70a8d", "fusion_lon": 0.0, "bike_id": "7d22a946ccfe710095f70fea61c70a8d", "is_reserved": 0, "type": "electric_scooter", "lat": 38.91950333333333, "fusion_lat": 0.0, "is_disabled": 0}, {"rental_uris": {"android": "https://dc.lft.to/lastmile_qr_scan", "ios": "https://dc.lft.to/lastmile_qr_scan"}, "lon": -76.92776833333333, "name": "d741446e6d1d4153315e0e12ec8c1b12", "fusion_lon": 0.0, "bike_id": "d741446e6d1d4153315e0e12ec8c1b12", "is_reserved": 0, "type": "electric_scooter", "lat": 38.89532833333333, "fusion_lat": 0.0, "is_disabled": 0}, {"rental_uris": {"android": "https://dc.lft.to/lastmile_qr_scan", "ios": "https://dc.lft.to/lastmile_qr_scan"}, "lon": -77.03760183333333, "name": "dda81435c085e715d3a3ca3e5d3aa4a0", "fusion_lon": 0.0, "bike_id": "dda81435c085e715d3a3ca3e5d3aa4a0", "is_reserved": 0, "type": "electric_scooter", "lat": 38.916814333333335, "fusion_lat": 0.0, "is_disabled": 0}, {"rental_uris": {"android": "https://dc.lft.to/lastmile_qr_scan", "ios": "https://dc.lft.to/lastmile_qr_scan"}, "lon": -77.02556816666667, "name": "a66c7d09dde6ea393ae354c7aa517f37", "fusion_lon": 0.0, "bike_id": "a66c7d09dde6ea393ae354c7aa517f37", "is_reserved": 0, "type": "electric_scooter", "lat": 38.9163495, "fusion_lat": 0.0, "is_disabled": 0}, {"rental_uris": {"android": "https://dc.lft.to/lastmile_qr_scan", "ios": "https://dc.lft.to/lastmile_qr_scan"}, "lon": -76.9986545, "name": "378503068324cce8d37008a61a712227", "fusion_lon": 0.0, "bike_id": "378503068324cce8d37008a61a712227", "is_reserved": 0, "type": "electric_scooter", "lat": 38.9089495, "fusion_lat": 0.0, "is_disabled": 0}, {"rental_uris": {"android": "https://dc.lft.to/lastmile_qr_scan", "ios": "https://dc.lft.to/lastmile_qr_scan"}, "lon": -76.97003466666666, "name": "4550df79ce23a299ae8cd73d7ef4205a", "fusion_lon": 0.0, "bike_id": "4550df79ce23a299ae8cd73d7ef4205a", "is_reserved": 0, "type": "electric_scooter", "lat": 38.860131833333334, "fusion_lat": 0.0, "is_disabled": 0}, {"rental_uris": {"android": "https://dc.lft.to/lastmile_qr_scan", "ios": "https://dc.lft.to/lastmile_qr_scan"}, "lon": -77.01264383333333, "name": "4220111e5214607256eb7dbc0b0fe088", "fusion_lon": 0.0, "bike_id": "4220111e5214607256eb7dbc0b0fe088", "is_reserved": 0, "type": "electric_scooter", "lat": 38.951809, "fusion_lat": 0.0, "is_disabled": 0}, {"rental_uris": {"android": "https://dc.lft.to/lastmile_qr_scan", "ios": "https://dc.lft.to/lastmile_qr_scan"}, "lon": -76.983377, "name": "e11d3eb360b49eab24aa491e63a8e99e", "fusion_lon": 0.0, "bike_id": "e11d3eb360b49eab24aa491e63a8e99e", "is_reserved": 0, "type": "electric_scooter", "lat": 38.8954525, "fusion_lat": 0.0, "is_disabled": 0}, {"rental_uris": {"android": "https://dc.lft.to/lastmile_qr_scan", "ios": "https://dc.lft.to/lastmile_qr_scan"}, "lon": -77.051214, "name": "5be70c801d3f6afaf75e7423b01f4252", "fusion_lon": 0.0, "bike_id": "5be70c801d3f6afaf75e7423b01f4252", "is_reserved": 0, "type": "electric_bike", "lat": 38.847681, "fusion_lat": 0.0, "is_disabled": 0}, {"rental_uris": {"android": "https://dc.lft.to/lastmile_qr_scan", "ios": "https://dc.lft.to/lastmile_qr_scan"}, "lon": -77.0180955, "name": "fb3f210c50ea802bc6b07b0f64aa63d0", "fusion_lon": 0.0, "bike_id": "fb3f210c50ea802bc6b07b0f64aa63d0", "is_reserved": 0, "type": "electric_scooter", "lat": 38.92139383333333, "fusion_lat": 0.0, "is_disabled": 0}, {"rental_uris": {"android": "https://dc.lft.to/lastmile_qr_scan", "ios": "https://dc.lft.to/lastmile_qr_scan"}, "lon": -77.03613916666667, "name": "6847e2feea5d9b3b750a5460b4f7bb09", "fusion_lon": 0.0, "bike_id": "6847e2feea5d9b3b750a5460b4f7bb09", "is_reserved": 0, "type": "electric_scooter", "lat": 38.9667475, "fusion_lat": 0.0, "is_disabled": 0}, {"rental_uris": {"android": "https://dc.lft.to/lastmile_qr_scan", "ios": "https://dc.lft.to/lastmile_qr_scan"}, "lon": -77.032119, "name": "3ec1e5ea5764f83d33984c41b004c542", "fusion_lon": 0.0, "bike_id": "3ec1e5ea5764f83d33984c41b004c542", "is_reserved": 0, "type": "electric_scooter", "lat": 38.914709, "fusion_lat": 0.0, "is_disabled": 0}, {"rental_uris": {"android": "https://dc.lft.to/lastmile_qr_scan", "ios": "https://dc.lft.to/lastmile_qr_scan"}, "lon": -77.03095683333333, "name": "06280ba5825c0ee6a0686b71ffd3562b", "fusion_lon": 0.0, "bike_id": "06280ba5825c0ee6a0686b71ffd3562b", "is_reserved": 0, "type": "electric_scooter", "lat": 38.9141405, "fusion_lat": 0.0, "is_disabled": 0}, {"rental_uris": {"android": "https://dc.lft.to/lastmile_qr_scan", "ios": "https://dc.lft.to/lastmile_qr_scan"}, "lon": -77.01756316666666, "name": "b52a457a9bb2336599cc69e7971f6792", "fusion_lon": 0.0, "bike_id": "b52a457a9bb2336599cc69e7971f6792", "is_reserved": 0, "type": "electric_scooter", "lat": 38.913579666666664, "fusion_lat": 0.0, "is_disabled": 0}, {"rental_uris": {"android": "https://dc.lft.to/lastmile_qr_scan", "ios": "https://dc.lft.to/lastmile_qr_scan"}, "lon": -76.98580383333334, "name": "1f462501fbf1ea87c31bf7b8bc51e226", "fusion_lon": 0.0, "bike_id": "1f462501fbf1ea87c31bf7b8bc51e226", "is_reserved": 0, "type": "electric_scooter", "lat": 38.89904816666667, "fusion_lat": 0.0, "is_disabled": 0}, {"rental_uris": {"android": "https://dc.lft.to/lastmile_qr_scan", "ios": "https://dc.lft.to/lastmile_qr_scan"}, "lon": -77.0399485, "name": "66a034ff7669da75391c732bb6572973", "fusion_lon": 0.0, "bike_id": "66a034ff7669da75391c732bb6572973", "is_reserved": 0, "type": "electric_scooter", "lat": 38.892228, "fusion_lat": 0.0, "is_disabled": 0}, {"rental_uris": {"android": "https://dc.lft.to/lastmile_qr_scan", "ios": "https://dc.lft.to/lastmile_qr_scan"}, "lon": -77.02979233333333, "name": "439658e158f6a18ec56b3fd5d59d7b1f", "fusion_lon": 0.0, "bike_id": "439658e158f6a18ec56b3fd5d59d7b1f", "is_reserved": 0, "type": "electric_scooter", "lat": 38.925157666666664, "fusion_lat": 0.0, "is_disabled": 0}, {"rental_uris": {"android": "https://dc.lft.to/lastmile_qr_scan", "ios": "https://dc.lft.to/lastmile_qr_scan"}, "lon": -77.005979, "name": "bd003a4f890bcfe8b443ea708bc223f8", "fusion_lon": 0.0, "bike_id": "bd003a4f890bcfe8b443ea708bc223f8", "is_reserved": 0, "type": "electric_scooter", "lat": 38.878553833333335, "fusion_lat": 0.0, "is_disabled": 0}, {"rental_uris": {"android": "https://dc.lft.to/lastmile_qr_scan", "ios": "https://dc.lft.to/lastmile_qr_scan"}, "lon": -77.01946583333333, "name": "4aa5ff7c029828b3ab186d52a46c1ca3", "fusion_lon": 0.0, "bike_id": "4aa5ff7c029828b3ab186d52a46c1ca3", "is_reserved": 0, "type": "electric_scooter", "lat": 38.92418083333333, "fusion_lat": 0.0, "is_disabled": 0}, {"rental_uris": {"android": "https://dc.lft.to/lastmile_qr_scan", "ios": "https://dc.lft.to/lastmile_qr_scan"}, "lon": -77.02170933333333, "name": "a034b1a27b76a3a670143a072106d505", "fusion_lon": 0.0, "bike_id": "a034b1a27b76a3a670143a072106d505", "is_reserved": 0, "type": "electric_scooter", "lat": 38.914201166666665, "fusion_lat": 0.0, "is_disabled": 0}, {"rental_uris": {"android": "https://dc.lft.to/lastmile_qr_scan", "ios": "https://dc.lft.to/lastmile_qr_scan"}, "lon": -77.0321345, "name": "0ec5eb38dedf5b9646d86536d286579f", "fusion_lon": 0.0, "bike_id": "0ec5eb38dedf5b9646d86536d286579f", "is_reserved": 0, "type": "electric_scooter", "lat": 38.936147166666665, "fusion_lat": 0.0, "is_disabled": 0}, {"rental_uris": {"android": "https://dc.lft.to/lastmile_qr_scan", "ios": "https://dc.lft.to/lastmile_qr_scan"}, "lon": -77.0258055, "name": "c5100dd8977eb303caf3b6bbe895a633", "fusion_lon": 0.0, "bike_id": "c5100dd8977eb303caf3b6bbe895a633", "is_reserved": 0, "type": "electric_scooter", "lat": 38.91595933333333, "fusion_lat": 0.0, "is_disabled": 0}, {"rental_uris": {"android": "https://dc.lft.to/lastmile_qr_scan", "ios": "https://dc.lft.to/lastmile_qr_scan"}, "lon": -77.02687516666667, "name": "1538140c7f7bc69186952062d44cfb59", "fusion_lon": 0.0, "bike_id": "1538140c7f7bc69186952062d44cfb59", "is_reserved": 0, "type": "electric_scooter", "lat": 38.923808666666666, "fusion_lat": 0.0, "is_disabled": 0}, {"rental_uris": {"android": "https://dc.lft.to/lastmile_qr_scan", "ios": "https://dc.lft.to/lastmile_qr_scan"}, "lon": -77.04894183333333, "name": "9cf640be7da18efce86e7b9fdb6390ab", "fusion_lon": 0.0, "bike_id": "9cf640be7da18efce86e7b9fdb6390ab", "is_reserved": 0, "type": "electric_scooter", "lat": 38.91935516666667, "fusion_lat": 0.0, "is_disabled": 0}, {"rental_uris": {"android": "https://dc.lft.to/lastmile_qr_scan", "ios": "https://dc.lft.to/lastmile_qr_scan"}, "lon": -76.9942715, "name": "c541114258b5e58f3eeafae3c1d9080d", "fusion_lon": 0.0, "bike_id": "c541114258b5e58f3eeafae3c1d9080d", "is_reserved": 0, "type": "electric_scooter", "lat": 38.8522005, "fusion_lat": 0.0, "is_disabled": 0}, {"rental_uris": {"android": "https://dc.lft.to/lastmile_qr_scan", "ios": "https://dc.lft.to/lastmile_qr_scan"}, "lon": -77.03199633333334, "name": "fe1c527fbc187e18f6688d0708043129", "fusion_lon": 0.0, "bike_id": "fe1c527fbc187e18f6688d0708043129", "is_reserved": 0, "type": "electric_scooter", "lat": 38.91804333333333, "fusion_lat": 0.0, "is_disabled": 0}, {"rental_uris": {"android": "https://dc.lft.to/lastmile_qr_scan", "ios": "https://dc.lft.to/lastmile_qr_scan"}, "lon": -77.03223416666667, "name": "4a2f3a84a8a554ee2ee45458524dddca", "fusion_lon": 0.0, "bike_id": "4a2f3a84a8a554ee2ee45458524dddca", "is_reserved": 0, "type": "electric_scooter", "lat": 38.89219166666667, "fusion_lat": 0.0, "is_disabled": 0}, {"rental_uris": {"android": "https://dc.lft.to/lastmile_qr_scan", "ios": "https://dc.lft.to/lastmile_qr_scan"}, "lon": -77.0292285, "name": "01d677cd26a3576e0e5076e3e190f857", "fusion_lon": 0.0, "bike_id": "01d677cd26a3576e0e5076e3e190f857", "is_reserved": 0, "type": "electric_scooter", "lat": 38.905489833333334, "fusion_lat": 0.0, "is_disabled": 0}, {"rental_uris": {"android": "https://dc.lft.to/lastmile_qr_scan", "ios": "https://dc.lft.to/lastmile_qr_scan"}, "lon": -77.03203683333334, "name": "c47bc416220c3e4ec2217eb72fd3c005", "fusion_lon": 0.0, "bike_id": "c47bc416220c3e4ec2217eb72fd3c005", "is_reserved": 0, "type": "electric_scooter", "lat": 38.932406666666665, "fusion_lat": 0.0, "is_disabled": 0}, {"rental_uris": {"android": "https://dc.lft.to/lastmile_qr_scan", "ios": "https://dc.lft.to/lastmile_qr_scan"}, "lon": -77.00198716666667, "name": "89086b7b853956c7e3c5126341e8bdc7", "fusion_lon": 0.0, "bike_id": "89086b7b853956c7e3c5126341e8bdc7", "is_reserved": 0, "type": "electric_scooter", "lat": 38.89491483333333, "fusion_lat": 0.0, "is_disabled": 0}, {"rental_uris": {"android": "https://dc.lft.to/lastmile_qr_scan", "ios": "https://dc.lft.to/lastmile_qr_scan"}, "lon": -77.04117, "name": "8cd073925bee7766020cf0da6415f66f", "fusion_lon": 0.0, "bike_id": "8cd073925bee7766020cf0da6415f66f", "is_reserved": 0, "type": "electric_scooter", "lat": 38.90536, "fusion_lat": 0.0, "is_disabled": 0}, {"rental_uris": {"android": "https://dc.lft.to/lastmile_qr_scan", "ios": "https://dc.lft.to/lastmile_qr_scan"}, "lon": -77.02241016666666, "name": "0c3c39bc15613ad28ac57e5aecbfaf02", "fusion_lon": 0.0, "bike_id": "0c3c39bc15613ad28ac57e5aecbfaf02", "is_reserved": 0, "type": "electric_scooter", "lat": 38.899889333333334, "fusion_lat": 0.0, "is_disabled": 0}, {"rental_uris": {"android": "https://dc.lft.to/lastmile_qr_scan", "ios": "https://dc.lft.to/lastmile_qr_scan"}, "lon": -76.93266716666666, "name": "447a5aada0c8654c02224405f83b8c07", "fusion_lon": 0.0, "bike_id": "447a5aada0c8654c02224405f83b8c07", "is_reserved": 0, "type": "electric_scooter", "lat": 38.887677833333335, "fusion_lat": 0.0, "is_disabled": 0}, {"rental_uris": {"android": "https://dc.lft.to/lastmile_qr_scan", "ios": "https://dc.lft.to/lastmile_qr_scan"}, "lon": -77.0029125, "name": "19873d038c54eb9eda18948833845546", "fusion_lon": 0.0, "bike_id": "19873d038c54eb9eda18948833845546", "is_reserved": 0, "type": "electric_scooter", "lat": 38.89196233333333, "fusion_lat": 0.0, "is_disabled": 0}, {"rental_uris": {"android": "https://dc.lft.to/lastmile_qr_scan", "ios": "https://dc.lft.to/lastmile_qr_scan"}, "lon": -77.05517716666667, "name": "0364eebe63a1388ce7597260c1ccc29e", "fusion_lon": 0.0, "bike_id": "0364eebe63a1388ce7597260c1ccc29e", "is_reserved": 0, "type": "electric_scooter", "lat": 38.94412783333333, "fusion_lat": 0.0, "is_disabled": 0}, {"rental_uris": {"android": "https://dc.lft.to/lastmile_qr_scan", "ios": "https://dc.lft.to/lastmile_qr_scan"}, "lon": -77.0459835, "name": "4fcd3400cae553799bff78a90fa83830", "fusion_lon": 0.0, "bike_id": "4fcd3400cae553799bff78a90fa83830", "is_reserved": 0, "type": "electric_scooter", "lat": 38.896132, "fusion_lat": 0.0, "is_disabled": 0}, {"rental_uris": {"android": "https://dc.lft.to/lastmile_qr_scan", "ios": "https://dc.lft.to/lastmile_qr_scan"}, "lon": -77.02254333333333, "name": "b300974356ef087672883fc82ac547cf", "fusion_lon": 0.0, "bike_id": "b300974356ef087672883fc82ac547cf", "is_reserved": 0, "type": "electric_scooter", "lat": 38.927321, "fusion_lat": 0.0, "is_disabled": 0}, {"rental_uris": {"android": "https://dc.lft.to/lastmile_qr_scan", "ios": "https://dc.lft.to/lastmile_qr_scan"}, "lon": -77.04243183333334, "name": "522a9c10ac1a434b6247d2af00dfac4d", "fusion_lon": 0.0, "bike_id": "522a9c10ac1a434b6247d2af00dfac4d", "is_reserved": 0, "type": "electric_scooter", "lat": 38.922194166666664, "fusion_lat": 0.0, "is_disabled": 0}, {"rental_uris": {"android": "https://dc.lft.to/lastmile_qr_scan", "ios": "https://dc.lft.to/lastmile_qr_scan"}, "lon": -77.00594983333333, "name": "616a9b673ef475a4fc58bc2f02fd763c", "fusion_lon": 0.0, "bike_id": "616a9b673ef475a4fc58bc2f02fd763c", "is_reserved": 0, "type": "electric_scooter", "lat": 38.90564033333333, "fusion_lat": 0.0, "is_disabled": 0}, {"rental_uris": {"android": "https://dc.lft.to/lastmile_qr_scan", "ios": "https://dc.lft.to/lastmile_qr_scan"}, "lon": -76.990363, "name": "453f805dc047c3a211dcb839ae5a5d6f", "fusion_lon": 0.0, "bike_id": "453f805dc047c3a211dcb839ae5a5d6f", "is_reserved": 0, "type": "electric_scooter", "lat": 38.88877183333334, "fusion_lat": 0.0, "is_disabled": 0}, {"rental_uris": {"android": "https://dc.lft.to/lastmile_qr_scan", "ios": "https://dc.lft.to/lastmile_qr_scan"}, "lon": -77.01224666666667, "name": "09302c8ea1de2dad7304a06c621309d5", "fusion_lon": 0.0, "bike_id": "09302c8ea1de2dad7304a06c621309d5", "is_reserved": 0, "type": "electric_scooter", "lat": 38.915375166666664, "fusion_lat": 0.0, "is_disabled": 0}, {"rental_uris": {"android": "https://dc.lft.to/lastmile_qr_scan", "ios": "https://dc.lft.to/lastmile_qr_scan"}, "lon": -77.0256235, "name": "3e9c9a684b38daff65fba28b09e01190", "fusion_lon": 0.0, "bike_id": "3e9c9a684b38daff65fba28b09e01190", "is_reserved": 0, "type": "electric_scooter", "lat": 38.92068033333334, "fusion_lat": 0.0, "is_disabled": 0}, {"rental_uris": {"android": "https://dc.lft.to/lastmile_qr_scan", "ios": "https://dc.lft.to/lastmile_qr_scan"}, "lon": -77.00754933333333, "name": "845a7db56fb1484ea51b11f888e35d77", "fusion_lon": 0.0, "bike_id": "845a7db56fb1484ea51b11f888e35d77", "is_reserved": 0, "type": "electric_bike", "lat": 38.835396, "fusion_lat": 0.0, "is_disabled": 0}, {"rental_uris": {"android": "https://dc.lft.to/lastmile_qr_scan", "ios": "https://dc.lft.to/lastmile_qr_scan"}, "lon": -77.0415855, "name": "80aeb12be14b86c899efd8f12b94f3c7", "fusion_lon": 0.0, "bike_id": "80aeb12be14b86c899efd8f12b94f3c7", "is_reserved": 0, "type": "electric_scooter", "lat": 38.905150166666665, "fusion_lat": 0.0, "is_disabled": 0}, {"rental_uris": {"android": "https://dc.lft.to/lastmile_qr_scan", "ios": "https://dc.lft.to/lastmile_qr_scan"}, "lon": -77.04220466666666, "name": "ece320bd8faf189717c68188bbd91782", "fusion_lon": 0.0, "bike_id": "ece320bd8faf189717c68188bbd91782", "is_reserved": 0, "type": "electric_scooter", "lat": 38.903775, "fusion_lat": 0.0, "is_disabled": 0}, {"rental_uris": {"android": "https://dc.lft.to/lastmile_qr_scan", "ios": "https://dc.lft.to/lastmile_qr_scan"}, "lon": -77.00203416666666, "name": "ef88848031f35cadfcc62988ddc6a32a", "fusion_lon": 0.0, "bike_id": "ef88848031f35cadfcc62988ddc6a32a", "is_reserved": 0, "type": "electric_scooter", "lat": 38.90033866666667, "fusion_lat": 0.0, "is_disabled": 0}, {"rental_uris": {"android": "https://dc.lft.to/lastmile_qr_scan", "ios": "https://dc.lft.to/lastmile_qr_scan"}, "lon": -77.0308305, "name": "cfac4afe245c40bcae08023dd1bb0aaf", "fusion_lon": 0.0, "bike_id": "cfac4afe245c40bcae08023dd1bb0aaf", "is_reserved": 0, "type": "electric_scooter", "lat": 38.9278495, "fusion_lat": 0.0, "is_disabled": 0}, {"rental_uris": {"android": "https://dc.lft.to/lastmile_qr_scan", "ios": "https://dc.lft.to/lastmile_qr_scan"}, "lon": -77.072774, "name": "c02a89422a47ade8ec40a7d04363417a", "fusion_lon": 0.0, "bike_id": "c02a89422a47ade8ec40a7d04363417a", "is_reserved": 0, "type": "electric_scooter", "lat": 38.908918, "fusion_lat": 0.0, "is_disabled": 0}, {"rental_uris": {"android": "https://dc.lft.to/lastmile_qr_scan", "ios": "https://dc.lft.to/lastmile_qr_scan"}, "lon": -77.03312766666667, "name": "c5357f3d828481b9d97ece238049895d", "fusion_lon": 0.0, "bike_id": "c5357f3d828481b9d97ece238049895d", "is_reserved": 0, "type": "electric_scooter", "lat": 38.919854666666666, "fusion_lat": 0.0, "is_disabled": 0}, {"rental_uris": {"android": "https://dc.lft.to/lastmile_qr_scan", "ios": "https://dc.lft.to/lastmile_qr_scan"}, "lon": -77.042865, "name": "2351acc3c837527370b24bc50d446dab", "fusion_lon": 0.0, "bike_id": "2351acc3c837527370b24bc50d446dab", "is_reserved": 0, "type": "electric_scooter", "lat": 38.914107666666666, "fusion_lat": 0.0, "is_disabled": 0}, {"rental_uris": {"android": "https://dc.lft.to/lastmile_qr_scan", "ios": "https://dc.lft.to/lastmile_qr_scan"}, "lon": -77.05325483333333, "name": "c08935af00c63757cd236141f99ea838", "fusion_lon": 0.0, "bike_id": "c08935af00c63757cd236141f99ea838", "is_reserved": 0, "type": "electric_scooter", "lat": 38.90649766666667, "fusion_lat": 0.0, "is_disabled": 0}, {"rental_uris": {"android": "https://dc.lft.to/lastmile_qr_scan", "ios": "https://dc.lft.to/lastmile_qr_scan"}, "lon": -77.01460466666667, "name": "f2b7235688d5f314c206b4c97714d713", "fusion_lon": 0.0, "bike_id": "f2b7235688d5f314c206b4c97714d713", "is_reserved": 0, "type": "electric_scooter", "lat": 38.91040866666667, "fusion_lat": 0.0, "is_disabled": 0}, {"rental_uris": {"android": "https://dc.lft.to/lastmile_qr_scan", "ios": "https://dc.lft.to/lastmile_qr_scan"}, "lon": -76.98712066666667, "name": "0fc05c6510314728277914902d2d1385", "fusion_lon": 0.0, "bike_id": "0fc05c6510314728277914902d2d1385", "is_reserved": 0, "type": "electric_scooter", "lat": 38.8634045, "fusion_lat": 0.0, "is_disabled": 0}, {"rental_uris": {"android": "https://dc.lft.to/lastmile_qr_scan", "ios": "https://dc.lft.to/lastmile_qr_scan"}, "lon": -77.03250916666667, "name": "13ef62e5037e2ec0ae95fa224ed44d2f", "fusion_lon": 0.0, "bike_id": "13ef62e5037e2ec0ae95fa224ed44d2f", "is_reserved": 0, "type": "electric_bike", "lat": 38.887761833333336, "fusion_lat": 0.0, "is_disabled": 0}, {"rental_uris": {"android": "https://dc.lft.to/lastmile_qr_scan", "ios": "https://dc.lft.to/lastmile_qr_scan"}, "lon": -77.0353725, "name": "2288bd3770bfa3ee125759d808b0c452", "fusion_lon": 0.0, "bike_id": "2288bd3770bfa3ee125759d808b0c452", "is_reserved": 0, "type": "electric_scooter", "lat": 38.907537, "fusion_lat": 0.0, "is_disabled": 0}, {"rental_uris": {"android": "https://dc.lft.to/lastmile_qr_scan", "ios": "https://dc.lft.to/lastmile_qr_scan"}, "lon": -77.021944, "name": "b95732ac4818f69719a8bfb1456c32f3", "fusion_lon": 0.0, "bike_id": "b95732ac4818f69719a8bfb1456c32f3", "is_reserved": 0, "type": "electric_scooter", "lat": 38.90357366666667, "fusion_lat": 0.0, "is_disabled": 0}, {"rental_uris": {"android": "https://dc.lft.to/lastmile_qr_scan", "ios": "https://dc.lft.to/lastmile_qr_scan"}, "lon": -77.0392735, "name": "8b3983e4cffb03cadf3bce3b5c358faf", "fusion_lon": 0.0, "bike_id": "8b3983e4cffb03cadf3bce3b5c358faf", "is_reserved": 0, "type": "electric_scooter", "lat": 38.903713, "fusion_lat": 0.0, "is_disabled": 0}, {"rental_uris": {"android": "https://dc.lft.to/lastmile_qr_scan", "ios": "https://dc.lft.to/lastmile_qr_scan"}, "lon": -77.01404533333333, "name": "e534a93ad67534f852d25c6c3ad9a5c5", "fusion_lon": 0.0, "bike_id": "e534a93ad67534f852d25c6c3ad9a5c5", "is_reserved": 0, "type": "electric_scooter", "lat": 38.928203833333335, "fusion_lat": 0.0, "is_disabled": 0}, {"rental_uris": {"android": "https://dc.lft.to/lastmile_qr_scan", "ios": "https://dc.lft.to/lastmile_qr_scan"}, "lon": -76.97889316666667, "name": "87d3706ca06c022e6f0991c7f8810269", "fusion_lon": 0.0, "bike_id": "87d3706ca06c022e6f0991c7f8810269", "is_reserved": 0, "type": "electric_bike", "lat": 38.898957333333335, "fusion_lat": 0.0, "is_disabled": 0}, {"rental_uris": {"android": "https://dc.lft.to/lastmile_qr_scan", "ios": "https://dc.lft.to/lastmile_qr_scan"}, "lon": -77.02318583333333, "name": "3f08b43387ed6af8f9c015c1831f0dd5", "fusion_lon": 0.0, "bike_id": "3f08b43387ed6af8f9c015c1831f0dd5", "is_reserved": 0, "type": "electric_scooter", "lat": 38.917815, "fusion_lat": 0.0, "is_disabled": 0}, {"rental_uris": {"android": "https://dc.lft.to/lastmile_qr_scan", "ios": "https://dc.lft.to/lastmile_qr_scan"}, "lon": -77.02198166666666, "name": "2ad7daedbbf26bc5a5e8ed7b0b659a07", "fusion_lon": 0.0, "bike_id": "2ad7daedbbf26bc5a5e8ed7b0b659a07", "is_reserved": 0, "type": "electric_scooter", "lat": 38.91127316666667, "fusion_lat": 0.0, "is_disabled": 0}, {"rental_uris": {"android": "https://dc.lft.to/lastmile_qr_scan", "ios": "https://dc.lft.to/lastmile_qr_scan"}, "lon": -76.98216016666666, "name": "0c8544e0a8fb1a9ac7422ab5d0f087c1", "fusion_lon": 0.0, "bike_id": "0c8544e0a8fb1a9ac7422ab5d0f087c1", "is_reserved": 0, "type": "electric_scooter", "lat": 38.857038333333335, "fusion_lat": 0.0, "is_disabled": 0}, {"rental_uris": {"android": "https://dc.lft.to/lastmile_qr_scan", "ios": "https://dc.lft.to/lastmile_qr_scan"}, "lon": -77.02489916666667, "name": "57fcc0084e970138e685681430571eb3", "fusion_lon": 0.0, "bike_id": "57fcc0084e970138e685681430571eb3", "is_reserved": 0, "type": "electric_scooter", "lat": 38.897263333333335, "fusion_lat": 0.0, "is_disabled": 0}, {"rental_uris": {"android": "https://dc.lft.to/lastmile_qr_scan", "ios": "https://dc.lft.to/lastmile_qr_scan"}, "lon": -77.03306116666667, "name": "7cd087b294b3f24cec0ee9a09c3eb8f5", "fusion_lon": 0.0, "bike_id": "7cd087b294b3f24cec0ee9a09c3eb8f5", "is_reserved": 0, "type": "electric_scooter", "lat": 38.918102166666664, "fusion_lat": 0.0, "is_disabled": 0}, {"rental_uris": {"android": "https://dc.lft.to/lastmile_qr_scan", "ios": "https://dc.lft.to/lastmile_qr_scan"}, "lon": -77.0482075, "name": "42224dd7ca2641c3c98f0074dfae08b6", "fusion_lon": 0.0, "bike_id": "42224dd7ca2641c3c98f0074dfae08b6", "is_reserved": 0, "type": "electric_scooter", "lat": 38.92035283333333, "fusion_lat": 0.0, "is_disabled": 0}, {"rental_uris": {"android": "https://dc.lft.to/lastmile_qr_scan", "ios": "https://dc.lft.to/lastmile_qr_scan"}, "lon": -77.063241, "name": "cfd0223e3306fd3c6f1638c9db61e8af", "fusion_lon": 0.0, "bike_id": "cfd0223e3306fd3c6f1638c9db61e8af", "is_reserved": 0, "type": "electric_scooter", "lat": 38.944086666666664, "fusion_lat": 0.0, "is_disabled": 0}, {"rental_uris": {"android": "https://dc.lft.to/lastmile_qr_scan", "ios": "https://dc.lft.to/lastmile_qr_scan"}, "lon": -76.992714, "name": "bc046add02df0e798ba0362bce4d34b1", "fusion_lon": 0.0, "bike_id": "bc046add02df0e798ba0362bce4d34b1", "is_reserved": 0, "type": "electric_scooter", "lat": 38.883507333333334, "fusion_lat": 0.0, "is_disabled": 0}, {"rental_uris": {"android": "https://dc.lft.to/lastmile_qr_scan", "ios": "https://dc.lft.to/lastmile_qr_scan"}, "lon": -77.032268, "name": "9fa6d40e6ff3bded2d6b0ba56fc3ff30", "fusion_lon": 0.0, "bike_id": "9fa6d40e6ff3bded2d6b0ba56fc3ff30", "is_reserved": 0, "type": "electric_scooter", "lat": 38.90120116666667, "fusion_lat": 0.0, "is_disabled": 0}, {"rental_uris": {"android": "https://dc.lft.to/lastmile_qr_scan", "ios": "https://dc.lft.to/lastmile_qr_scan"}, "lon": -77.01187333333333, "name": "bb5f223922cce5cb41addad8ac7ec6da", "fusion_lon": 0.0, "bike_id": "bb5f223922cce5cb41addad8ac7ec6da", "is_reserved": 0, "type": "electric_scooter", "lat": 38.88071, "fusion_lat": 0.0, "is_disabled": 0}, {"rental_uris": {"android": "https://dc.lft.to/lastmile_qr_scan", "ios": "https://dc.lft.to/lastmile_qr_scan"}, "lon": -77.037909, "name": "dacf69bed52171ee1bbc72a75b237473", "fusion_lon": 0.0, "bike_id": "dacf69bed52171ee1bbc72a75b237473", "is_reserved": 0, "type": "electric_scooter", "lat": 38.92431716666667, "fusion_lat": 0.0, "is_disabled": 0}, {"rental_uris": {"android": "https://dc.lft.to/lastmile_qr_scan", "ios": "https://dc.lft.to/lastmile_qr_scan"}, "lon": -77.02883083333333, "name": "e6d8d3b2ad1ac79717e6966821e2c02f", "fusion_lon": 0.0, "bike_id": "e6d8d3b2ad1ac79717e6966821e2c02f", "is_reserved": 0, "type": "electric_scooter", "lat": 38.935984166666664, "fusion_lat": 0.0, "is_disabled": 0}, {"rental_uris": {"android": "https://dc.lft.to/lastmile_qr_scan", "ios": "https://dc.lft.to/lastmile_qr_scan"}, "lon": -77.02472233333333, "name": "f862dd5a810457a0941a0799e494bae3", "fusion_lon": 0.0, "bike_id": "f862dd5a810457a0941a0799e494bae3", "is_reserved": 0, "type": "electric_scooter", "lat": 38.93852833333333, "fusion_lat": 0.0, "is_disabled": 0}, {"rental_uris": {"android": "https://dc.lft.to/lastmile_qr_scan", "ios": "https://dc.lft.to/lastmile_qr_scan"}, "lon": -77.03280316666667, "name": "30885295a877376aa88aa8a732b6d70f", "fusion_lon": 0.0, "bike_id": "30885295a877376aa88aa8a732b6d70f", "is_reserved": 0, "type": "electric_scooter", "lat": 38.932514166666664, "fusion_lat": 0.0, "is_disabled": 0}, {"rental_uris": {"android": "https://dc.lft.to/lastmile_qr_scan", "ios": "https://dc.lft.to/lastmile_qr_scan"}, "lon": -76.9991655, "name": "1d22c6baa94096d8ebf71846b892f6c0", "fusion_lon": 0.0, "bike_id": "1d22c6baa94096d8ebf71846b892f6c0", "is_reserved": 0, "type": "electric_scooter", "lat": 38.9245245, "fusion_lat": 0.0, "is_disabled": 0}, {"rental_uris": {"android": "https://dc.lft.to/lastmile_qr_scan", "ios": "https://dc.lft.to/lastmile_qr_scan"}, "lon": -77.045653, "name": "fa228c9356dac24fa67f2a5229e3eacc", "fusion_lon": 0.0, "bike_id": "fa228c9356dac24fa67f2a5229e3eacc", "is_reserved": 0, "type": "electric_scooter", "lat": 38.918335666666664, "fusion_lat": 0.0, "is_disabled": 0}, {"rental_uris": {"android": "https://dc.lft.to/lastmile_qr_scan", "ios": "https://dc.lft.to/lastmile_qr_scan"}, "lon": -77.128839, "name": "bf14adfdb3fe67f1280464c56c354915", "fusion_lon": 0.0, "bike_id": "bf14adfdb3fe67f1280464c56c354915", "is_reserved": 0, "type": "electric_bike", "lat": 38.90595733333333, "fusion_lat": 0.0, "is_disabled": 0}, {"rental_uris": {"android": "https://dc.lft.to/lastmile_qr_scan", "ios": "https://dc.lft.to/lastmile_qr_scan"}, "lon": -77.05172916666666, "name": "1cb6dd6c2b11f72df9a742de807a6e15", "fusion_lon": 0.0, "bike_id": "1cb6dd6c2b11f72df9a742de807a6e15", "is_reserved": 0, "type": "electric_scooter", "lat": 38.90527183333333, "fusion_lat": 0.0, "is_disabled": 0}, {"rental_uris": {"android": "https://dc.lft.to/lastmile_qr_scan", "ios": "https://dc.lft.to/lastmile_qr_scan"}, "lon": -76.98684233333333, "name": "360ddde0da6ad5ea622d289038a91f6f", "fusion_lon": 0.0, "bike_id": "360ddde0da6ad5ea622d289038a91f6f", "is_reserved": 0, "type": "electric_scooter", "lat": 38.900723, "fusion_lat": 0.0, "is_disabled": 0}, {"rental_uris": {"android": "https://dc.lft.to/lastmile_qr_scan", "ios": "https://dc.lft.to/lastmile_qr_scan"}, "lon": -76.99862666666667, "name": "e0e5dcd6d9baf549864376223d5f730e", "fusion_lon": 0.0, "bike_id": "e0e5dcd6d9baf549864376223d5f730e", "is_reserved": 0, "type": "electric_scooter", "lat": 38.86428183333334, "fusion_lat": 0.0, "is_disabled": 0}, {"rental_uris": {"android": "https://dc.lft.to/lastmile_qr_scan", "ios": "https://dc.lft.to/lastmile_qr_scan"}, "lon": -77.04069816666667, "name": "67dab8c7a5c38cd7e6bcbb08b55dc7b3", "fusion_lon": 0.0, "bike_id": "67dab8c7a5c38cd7e6bcbb08b55dc7b3", "is_reserved": 0, "type": "electric_scooter", "lat": 38.898924, "fusion_lat": 0.0, "is_disabled": 0}, {"rental_uris": {"android": "https://dc.lft.to/lastmile_qr_scan", "ios": "https://dc.lft.to/lastmile_qr_scan"}, "lon": -77.04358133333334, "name": "3723fc511f1b0b6ac9f16cf3cb460044", "fusion_lon": 0.0, "bike_id": "3723fc511f1b0b6ac9f16cf3cb460044", "is_reserved": 0, "type": "electric_scooter", "lat": 38.90609216666667, "fusion_lat": 0.0, "is_disabled": 0}, {"rental_uris": {"android": "https://dc.lft.to/lastmile_qr_scan", "ios": "https://dc.lft.to/lastmile_qr_scan"}, "lon": -76.97327566666667, "name": "e743e7a8012d90a8c903985e80c22175", "fusion_lon": 0.0, "bike_id": "e743e7a8012d90a8c903985e80c22175", "is_reserved": 0, "type": "electric_bike", "lat": 38.930559333333335, "fusion_lat": 0.0, "is_disabled": 0}, {"rental_uris": {"android": "https://dc.lft.to/lastmile_qr_scan", "ios": "https://dc.lft.to/lastmile_qr_scan"}, "lon": -77.0363685, "name": "c2d1b5446acc72e9c6338be9c12be1b0", "fusion_lon": 0.0, "bike_id": "c2d1b5446acc72e9c6338be9c12be1b0", "is_reserved": 0, "type": "electric_scooter", "lat": 38.90366783333333, "fusion_lat": 0.0, "is_disabled": 0}, {"rental_uris": {"android": "https://dc.lft.to/lastmile_qr_scan", "ios": "https://dc.lft.to/lastmile_qr_scan"}, "lon": -77.0021605, "name": "248b9a69524bec4e34945355af227fb9", "fusion_lon": 0.0, "bike_id": "248b9a69524bec4e34945355af227fb9", "is_reserved": 0, "type": "electric_scooter", "lat": 38.90023033333333, "fusion_lat": 0.0, "is_disabled": 0}, {"rental_uris": {"android": "https://dc.lft.to/lastmile_qr_scan", "ios": "https://dc.lft.to/lastmile_qr_scan"}, "lon": -77.01638233333334, "name": "f20371dfc62659ea9c300afbb3fc1d97", "fusion_lon": 0.0, "bike_id": "f20371dfc62659ea9c300afbb3fc1d97", "is_reserved": 0, "type": "electric_scooter", "lat": 38.88109083333333, "fusion_lat": 0.0, "is_disabled": 0}, {"rental_uris": {"android": "https://dc.lft.to/lastmile_qr_scan", "ios": "https://dc.lft.to/lastmile_qr_scan"}, "lon": -77.01693566666667, "name": "b7718094f03dcc950cb87cf3a117e87d", "fusion_lon": 0.0, "bike_id": "b7718094f03dcc950cb87cf3a117e87d", "is_reserved": 0, "type": "electric_scooter", "lat": 38.974999, "fusion_lat": 0.0, "is_disabled": 0}, {"rental_uris": {"android": "https://dc.lft.to/lastmile_qr_scan", "ios": "https://dc.lft.to/lastmile_qr_scan"}, "lon": -77.03477783333334, "name": "f2a1538db036aebdeab1b41d12acc5c9", "fusion_lon": 0.0, "bike_id": "f2a1538db036aebdeab1b41d12acc5c9", "is_reserved": 0, "type": "electric_scooter", "lat": 38.91118, "fusion_lat": 0.0, "is_disabled": 0}, {"rental_uris": {"android": "https://dc.lft.to/lastmile_qr_scan", "ios": "https://dc.lft.to/lastmile_qr_scan"}, "lon": -77.0364055, "name": "822bb30e3b7c0285f7d1faff49a9cb60", "fusion_lon": 0.0, "bike_id": "822bb30e3b7c0285f7d1faff49a9cb60", "is_reserved": 0, "type": "electric_scooter", "lat": 38.905589, "fusion_lat": 0.0, "is_disabled": 0}, {"rental_uris": {"android": "https://dc.lft.to/lastmile_qr_scan", "ios": "https://dc.lft.to/lastmile_qr_scan"}, "lon": -77.020679, "name": "7e8b4d2e327670cb8168337a6f242417", "fusion_lon": 0.0, "bike_id": "7e8b4d2e327670cb8168337a6f242417", "is_reserved": 0, "type": "electric_scooter", "lat": 38.95740833333333, "fusion_lat": 0.0, "is_disabled": 0}, {"rental_uris": {"android": "https://dc.lft.to/lastmile_qr_scan", "ios": "https://dc.lft.to/lastmile_qr_scan"}, "lon": -77.03722783333333, "name": "42151a10fa142179411799f2493fb86f", "fusion_lon": 0.0, "bike_id": "42151a10fa142179411799f2493fb86f", "is_reserved": 0, "type": "electric_scooter", "lat": 38.88070166666667, "fusion_lat": 0.0, "is_disabled": 0}, {"rental_uris": {"android": "https://dc.lft.to/lastmile_qr_scan", "ios": "https://dc.lft.to/lastmile_qr_scan"}, "lon": -76.98461133333333, "name": "5a5983523b974d15e692d0f4c8683d83", "fusion_lon": 0.0, "bike_id": "5a5983523b974d15e692d0f4c8683d83", "is_reserved": 0, "type": "electric_scooter", "lat": 38.89364033333333, "fusion_lat": 0.0, "is_disabled": 0}, {"rental_uris": {"android": "https://dc.lft.to/lastmile_qr_scan", "ios": "https://dc.lft.to/lastmile_qr_scan"}, "lon": -76.92974833333334, "name": "bb6086de2867675b3dcf9634917cdd79", "fusion_lon": 0.0, "bike_id": "bb6086de2867675b3dcf9634917cdd79", "is_reserved": 0, "type": "electric_scooter", "lat": 38.8961275, "fusion_lat": 0.0, "is_disabled": 0}, {"rental_uris": {"android": "https://dc.lft.to/lastmile_qr_scan", "ios": "https://dc.lft.to/lastmile_qr_scan"}, "lon": -77.04699033333333, "name": "00e3d7d95d39c330d87821caf7d3ca30", "fusion_lon": 0.0, "bike_id": "00e3d7d95d39c330d87821caf7d3ca30", "is_reserved": 0, "type": "electric_scooter", "lat": 38.90140533333334, "fusion_lat": 0.0, "is_disabled": 0}, {"rental_uris": {"android": "https://dc.lft.to/lastmile_qr_scan", "ios": "https://dc.lft.to/lastmile_qr_scan"}, "lon": -77.01600816666667, "name": "d5e4ae16a178e94632ecf334d865310a", "fusion_lon": 0.0, "bike_id": "d5e4ae16a178e94632ecf334d865310a", "is_reserved": 0, "type": "electric_scooter", "lat": 38.95213416666667, "fusion_lat": 0.0, "is_disabled": 0}, {"rental_uris": {"android": "https://dc.lft.to/lastmile_qr_scan", "ios": "https://dc.lft.to/lastmile_qr_scan"}, "lon": -77.03651833333333, "name": "83d95ea6183df0e9dbcf32bb3a1b4ef5", "fusion_lon": 0.0, "bike_id": "83d95ea6183df0e9dbcf32bb3a1b4ef5", "is_reserved": 0, "type": "electric_scooter", "lat": 38.91860116666667, "fusion_lat": 0.0, "is_disabled": 0}, {"rental_uris": {"android": "https://dc.lft.to/lastmile_qr_scan", "ios": "https://dc.lft.to/lastmile_qr_scan"}, "lon": -76.98432116666666, "name": "ebc06984365e2a89cc2dc31465bbe517", "fusion_lon": 0.0, "bike_id": "ebc06984365e2a89cc2dc31465bbe517", "is_reserved": 0, "type": "electric_scooter", "lat": 38.92054366666667, "fusion_lat": 0.0, "is_disabled": 0}, {"rental_uris": {"android": "https://dc.lft.to/lastmile_qr_scan", "ios": "https://dc.lft.to/lastmile_qr_scan"}, "lon": -77.052196, "name": "eabd9450a459c5155340f72ed8147c7a", "fusion_lon": 0.0, "bike_id": "eabd9450a459c5155340f72ed8147c7a", "is_reserved": 0, "type": "electric_scooter", "lat": 38.924444, "fusion_lat": 0.0, "is_disabled": 0}, {"rental_uris": {"android": "https://dc.lft.to/lastmile_qr_scan", "ios": "https://dc.lft.to/lastmile_qr_scan"}, "lon": -77.0186695, "name": "0cb6a48cdf59b84d9379ac360b9db17e", "fusion_lon": 0.0, "bike_id": "0cb6a48cdf59b84d9379ac360b9db17e", "is_reserved": 0, "type": "electric_scooter", "lat": 38.97365666666666, "fusion_lat": 0.0, "is_disabled": 0}, {"rental_uris": {"android": "https://dc.lft.to/lastmile_qr_scan", "ios": "https://dc.lft.to/lastmile_qr_scan"}, "lon": -77.03786483333333, "name": "389c285c9ff25e5cdb8178cc809890a2", "fusion_lon": 0.0, "bike_id": "389c285c9ff25e5cdb8178cc809890a2", "is_reserved": 0, "type": "electric_scooter", "lat": 38.9296535, "fusion_lat": 0.0, "is_disabled": 0}, {"rental_uris": {"android": "https://dc.lft.to/lastmile_qr_scan", "ios": "https://dc.lft.to/lastmile_qr_scan"}, "lon": -77.02504366666666, "name": "55490fc8be2b349d7b782b3c14dee5b8", "fusion_lon": 0.0, "bike_id": "55490fc8be2b349d7b782b3c14dee5b8", "is_reserved": 0, "type": "electric_scooter", "lat": 38.89825283333333, "fusion_lat": 0.0, "is_disabled": 0}, {"rental_uris": {"android": "https://dc.lft.to/lastmile_qr_scan", "ios": "https://dc.lft.to/lastmile_qr_scan"}, "lon": -76.99574133333333, "name": "0f02c83e56ba25240280e928a82bbb78", "fusion_lon": 0.0, "bike_id": "0f02c83e56ba25240280e928a82bbb78", "is_reserved": 0, "type": "electric_scooter", "lat": 38.92022016666667, "fusion_lat": 0.0, "is_disabled": 0}, {"rental_uris": {"android": "https://dc.lft.to/lastmile_qr_scan", "ios": "https://dc.lft.to/lastmile_qr_scan"}, "lon": -77.01629083333333, "name": "bcfb11ea2597928e1148d3dcb35ffec3", "fusion_lon": 0.0, "bike_id": "bcfb11ea2597928e1148d3dcb35ffec3", "is_reserved": 0, "type": "electric_scooter", "lat": 38.896198166666665, "fusion_lat": 0.0, "is_disabled": 0}, {"rental_uris": {"android": "https://dc.lft.to/lastmile_qr_scan", "ios": "https://dc.lft.to/lastmile_qr_scan"}, "lon": -77.03859916666667, "name": "6e8fbdffe9c495bdf5e44460d15a8290", "fusion_lon": 0.0, "bike_id": "6e8fbdffe9c495bdf5e44460d15a8290", "is_reserved": 0, "type": "electric_scooter", "lat": 38.91205683333333, "fusion_lat": 0.0, "is_disabled": 0}, {"rental_uris": {"android": "https://dc.lft.to/lastmile_qr_scan", "ios": "https://dc.lft.to/lastmile_qr_scan"}, "lon": -76.9974015, "name": "1230fc09a360540766c035f87e7d2ccf", "fusion_lon": 0.0, "bike_id": "1230fc09a360540766c035f87e7d2ccf", "is_reserved": 0, "type": "electric_bike", "lat": 39.04229216666667, "fusion_lat": 0.0, "is_disabled": 0}, {"rental_uris": {"android": "https://dc.lft.to/lastmile_qr_scan", "ios": "https://dc.lft.to/lastmile_qr_scan"}, "lon": -76.9958885, "name": "c8b8ab8f433ed1adc8c3cc3cedfbebf2", "fusion_lon": 0.0, "bike_id": "c8b8ab8f433ed1adc8c3cc3cedfbebf2", "is_reserved": 0, "type": "electric_bike", "lat": 38.97333366666667, "fusion_lat": 0.0, "is_disabled": 0}, {"rental_uris": {"android": "https://dc.lft.to/lastmile_qr_scan", "ios": "https://dc.lft.to/lastmile_qr_scan"}, "lon": -77.00208016666667, "name": "856843529c67cd9e807865dfab803ad3", "fusion_lon": 0.0, "bike_id": "856843529c67cd9e807865dfab803ad3", "is_reserved": 0, "type": "electric_scooter", "lat": 38.890994666666664, "fusion_lat": 0.0, "is_disabled": 0}, {"rental_uris": {"android": "https://dc.lft.to/lastmile_qr_scan", "ios": "https://dc.lft.to/lastmile_qr_scan"}, "lon": -77.027378, "name": "45ad51fd47f33e8d2463c714e632ad71", "fusion_lon": 0.0, "bike_id": "45ad51fd47f33e8d2463c714e632ad71", "is_reserved": 0, "type": "electric_scooter", "lat": 38.898634333333334, "fusion_lat": 0.0, "is_disabled": 0}, {"rental_uris": {"android": "https://dc.lft.to/lastmile_qr_scan", "ios": "https://dc.lft.to/lastmile_qr_scan"}, "lon": -77.044864, "name": "8e8bbd877470b693ea3768929dd2e1ec", "fusion_lon": 0.0, "bike_id": "8e8bbd877470b693ea3768929dd2e1ec", "is_reserved": 0, "type": "electric_scooter", "lat": 38.913658, "fusion_lat": 0.0, "is_disabled": 0}, {"rental_uris": {"android": "https://dc.lft.to/lastmile_qr_scan", "ios": "https://dc.lft.to/lastmile_qr_scan"}, "lon": -77.033595, "name": "a0fe401dc9a1ba73c7a817245356eb96", "fusion_lon": 0.0, "bike_id": "a0fe401dc9a1ba73c7a817245356eb96", "is_reserved": 0, "type": "electric_scooter", "lat": 38.89531516666667, "fusion_lat": 0.0, "is_disabled": 0}, {"rental_uris": {"android": "https://dc.lft.to/lastmile_qr_scan", "ios": "https://dc.lft.to/lastmile_qr_scan"}, "lon": -77.0192365, "name": "cb906ec1c880af81fd3b9310acac7c54", "fusion_lon": 0.0, "bike_id": "cb906ec1c880af81fd3b9310acac7c54", "is_reserved": 0, "type": "electric_scooter", "lat": 38.902346666666666, "fusion_lat": 0.0, "is_disabled": 0}, {"rental_uris": {"android": "https://dc.lft.to/lastmile_qr_scan", "ios": "https://dc.lft.to/lastmile_qr_scan"}, "lon": -77.02216083333333, "name": "ad8a420ba5e923b25e47e30cd8f35a51", "fusion_lon": 0.0, "bike_id": "ad8a420ba5e923b25e47e30cd8f35a51", "is_reserved": 0, "type": "electric_scooter", "lat": 38.912634, "fusion_lat": 0.0, "is_disabled": 0}, {"rental_uris": {"android": "https://dc.lft.to/lastmile_qr_scan", "ios": "https://dc.lft.to/lastmile_qr_scan"}, "lon": -77.03010666666667, "name": "78d2d74f806154d47ac55f934aebcfce", "fusion_lon": 0.0, "bike_id": "78d2d74f806154d47ac55f934aebcfce", "is_reserved": 0, "type": "electric_bike", "lat": 38.922468, "fusion_lat": 0.0, "is_disabled": 0}, {"rental_uris": {"android": "https://dc.lft.to/lastmile_qr_scan", "ios": "https://dc.lft.to/lastmile_qr_scan"}, "lon": -77.06016466666667, "name": "79679a21219b979ba23a4ce925dfc25b", "fusion_lon": 0.0, "bike_id": "79679a21219b979ba23a4ce925dfc25b", "is_reserved": 0, "type": "electric_scooter", "lat": 38.905025333333334, "fusion_lat": 0.0, "is_disabled": 0}, {"rental_uris": {"android": "https://dc.lft.to/lastmile_qr_scan", "ios": "https://dc.lft.to/lastmile_qr_scan"}, "lon": -76.99574366666667, "name": "56c62460f9e682188ad55d6e9d9d1de8", "fusion_lon": 0.0, "bike_id": "56c62460f9e682188ad55d6e9d9d1de8", "is_reserved": 0, "type": "electric_scooter", "lat": 38.955383499999996, "fusion_lat": 0.0, "is_disabled": 0}, {"rental_uris": {"android": "https://dc.lft.to/lastmile_qr_scan", "ios": "https://dc.lft.to/lastmile_qr_scan"}, "lon": -77.036483, "name": "295c494ff050cd43986221cda8794856", "fusion_lon": 0.0, "bike_id": "295c494ff050cd43986221cda8794856", "is_reserved": 0, "type": "electric_scooter", "lat": 38.92806083333333, "fusion_lat": 0.0, "is_disabled": 0}, {"rental_uris": {"android": "https://dc.lft.to/lastmile_qr_scan", "ios": "https://dc.lft.to/lastmile_qr_scan"}, "lon": -77.04872516666667, "name": "9425869ee12134dbfcc313550d837633", "fusion_lon": 0.0, "bike_id": "9425869ee12134dbfcc313550d837633", "is_reserved": 0, "type": "electric_scooter", "lat": 38.901676, "fusion_lat": 0.0, "is_disabled": 0}, {"rental_uris": {"android": "https://dc.lft.to/lastmile_qr_scan", "ios": "https://dc.lft.to/lastmile_qr_scan"}, "lon": -77.050853, "name": "0fa3844337f8a86357fc8fd3fb194ab1", "fusion_lon": 0.0, "bike_id": "0fa3844337f8a86357fc8fd3fb194ab1", "is_reserved": 0, "type": "electric_scooter", "lat": 38.92343866666667, "fusion_lat": 0.0, "is_disabled": 0}, {"rental_uris": {"android": "https://dc.lft.to/lastmile_qr_scan", "ios": "https://dc.lft.to/lastmile_qr_scan"}, "lon": -77.00360883333333, "name": "75b221d2d138283f53313312e81c6086", "fusion_lon": 0.0, "bike_id": "75b221d2d138283f53313312e81c6086", "is_reserved": 0, "type": "electric_scooter", "lat": 38.88299133333334, "fusion_lat": 0.0, "is_disabled": 0}, {"rental_uris": {"android": "https://dc.lft.to/lastmile_qr_scan", "ios": "https://dc.lft.to/lastmile_qr_scan"}, "lon": -77.05747433333333, "name": "a4ba93b33eb9544ba6d63ac055919a25", "fusion_lon": 0.0, "bike_id": "a4ba93b33eb9544ba6d63ac055919a25", "is_reserved": 0, "type": "electric_scooter", "lat": 38.934001, "fusion_lat": 0.0, "is_disabled": 0}, {"rental_uris": {"android": "https://dc.lft.to/lastmile_qr_scan", "ios": "https://dc.lft.to/lastmile_qr_scan"}, "lon": -77.043322, "name": "89802240d4222ddfc40ff832919d2700", "fusion_lon": 0.0, "bike_id": "89802240d4222ddfc40ff832919d2700", "is_reserved": 0, "type": "electric_scooter", "lat": 38.9005285, "fusion_lat": 0.0, "is_disabled": 0}, {"rental_uris": {"android": "https://dc.lft.to/lastmile_qr_scan", "ios": "https://dc.lft.to/lastmile_qr_scan"}, "lon": -77.08758733333333, "name": "10d014ca9a9c3352225d8ad5b8fdbe91", "fusion_lon": 0.0, "bike_id": "10d014ca9a9c3352225d8ad5b8fdbe91", "is_reserved": 0, "type": "electric_bike", "lat": 38.806650833333336, "fusion_lat": 0.0, "is_disabled": 0}, {"rental_uris": {"android": "https://dc.lft.to/lastmile_qr_scan", "ios": "https://dc.lft.to/lastmile_qr_scan"}, "lon": -77.02426533333333, "name": "9ee60b825dc6d56e98c3b060a01612f4", "fusion_lon": 0.0, "bike_id": "9ee60b825dc6d56e98c3b060a01612f4", "is_reserved": 0, "type": "electric_scooter", "lat": 38.96022516666667, "fusion_lat": 0.0, "is_disabled": 0}, {"rental_uris": {"android": "https://dc.lft.to/lastmile_qr_scan", "ios": "https://dc.lft.to/lastmile_qr_scan"}, "lon": -76.97458666666667, "name": "f09d04cd4ba6157821df939700160748", "fusion_lon": 0.0, "bike_id": "f09d04cd4ba6157821df939700160748", "is_reserved": 0, "type": "electric_bike", "lat": 38.855943833333335, "fusion_lat": 0.0, "is_disabled": 0}, {"rental_uris": {"android": "https://dc.lft.to/lastmile_qr_scan", "ios": "https://dc.lft.to/lastmile_qr_scan"}, "lon": -77.04169283333333, "name": "6604d39a21d1918401a868e2b3aebd0b", "fusion_lon": 0.0, "bike_id": "6604d39a21d1918401a868e2b3aebd0b", "is_reserved": 0, "type": "electric_scooter", "lat": 38.9073855, "fusion_lat": 0.0, "is_disabled": 0}, {"rental_uris": {"android": "https://dc.lft.to/lastmile_qr_scan", "ios": "https://dc.lft.to/lastmile_qr_scan"}, "lon": -76.9769245, "name": "186354dc2f29b7371d615efcb10c7b5c", "fusion_lon": 0.0, "bike_id": "186354dc2f29b7371d615efcb10c7b5c", "is_reserved": 0, "type": "electric_scooter", "lat": 38.89744233333333, "fusion_lat": 0.0, "is_disabled": 0}, {"rental_uris": {"android": "https://dc.lft.to/lastmile_qr_scan", "ios": "https://dc.lft.to/lastmile_qr_scan"}, "lon": -77.049994, "name": "27c3e8a9942373c03f822def44f021cf", "fusion_lon": 0.0, "bike_id": "27c3e8a9942373c03f822def44f021cf", "is_reserved": 0, "type": "electric_scooter", "lat": 38.905576, "fusion_lat": 0.0, "is_disabled": 0}, {"rental_uris": {"android": "https://dc.lft.to/lastmile_qr_scan", "ios": "https://dc.lft.to/lastmile_qr_scan"}, "lon": -77.01651566666666, "name": "1eb8997d155a85a318d2937bf1f49f4d", "fusion_lon": 0.0, "bike_id": "1eb8997d155a85a318d2937bf1f49f4d", "is_reserved": 0, "type": "electric_scooter", "lat": 38.9289965, "fusion_lat": 0.0, "is_disabled": 0}, {"rental_uris": {"android": "https://dc.lft.to/lastmile_qr_scan", "ios": "https://dc.lft.to/lastmile_qr_scan"}, "lon": -77.0176035, "name": "16a1e7c2edfa205b41c3a7282cca5537", "fusion_lon": 0.0, "bike_id": "16a1e7c2edfa205b41c3a7282cca5537", "is_reserved": 0, "type": "electric_scooter", "lat": 38.93889083333333, "fusion_lat": 0.0, "is_disabled": 0}, {"rental_uris": {"android": "https://dc.lft.to/lastmile_qr_scan", "ios": "https://dc.lft.to/lastmile_qr_scan"}, "lon": -77.025887, "name": "bea42a8cefece555917ca4c8e359fb80", "fusion_lon": 0.0, "bike_id": "bea42a8cefece555917ca4c8e359fb80", "is_reserved": 0, "type": "electric_scooter", "lat": 38.904166833333335, "fusion_lat": 0.0, "is_disabled": 0}, {"rental_uris": {"android": "https://dc.lft.to/lastmile_qr_scan", "ios": "https://dc.lft.to/lastmile_qr_scan"}, "lon": -77.0480275, "name": "b97627e29178e40016bd676cdef5fee8", "fusion_lon": 0.0, "bike_id": "b97627e29178e40016bd676cdef5fee8", "is_reserved": 0, "type": "electric_scooter", "lat": 38.90389866666666, "fusion_lat": 0.0, "is_disabled": 0}, {"rental_uris": {"android": "https://dc.lft.to/lastmile_qr_scan", "ios": "https://dc.lft.to/lastmile_qr_scan"}, "lon": -77.05028333333334, "name": "26f8b8a0e731e4c0bc92bd61fb65d89f", "fusion_lon": 0.0, "bike_id": "26f8b8a0e731e4c0bc92bd61fb65d89f", "is_reserved": 0, "type": "electric_scooter", "lat": 38.923631, "fusion_lat": 0.0, "is_disabled": 0}, {"rental_uris": {"android": "https://dc.lft.to/lastmile_qr_scan", "ios": "https://dc.lft.to/lastmile_qr_scan"}, "lon": -77.03184633333333, "name": "a80e866c09931a633871860dadca1103", "fusion_lon": 0.0, "bike_id": "a80e866c09931a633871860dadca1103", "is_reserved": 0, "type": "electric_scooter", "lat": 38.89223416666667, "fusion_lat": 0.0, "is_disabled": 0}, {"rental_uris": {"android": "https://dc.lft.to/lastmile_qr_scan", "ios": "https://dc.lft.to/lastmile_qr_scan"}, "lon": -76.9901405, "name": "ebd98b8122b70de0360c68c0defd8606", "fusion_lon": 0.0, "bike_id": "ebd98b8122b70de0360c68c0defd8606", "is_reserved": 0, "type": "electric_bike", "lat": 38.943109166666666, "fusion_lat": 0.0, "is_disabled": 0}, {"rental_uris": {"android": "https://dc.lft.to/lastmile_qr_scan", "ios": "https://dc.lft.to/lastmile_qr_scan"}, "lon": -77.03205316666667, "name": "918fa0329c603fdfc936d8d006edc1b1", "fusion_lon": 0.0, "bike_id": "918fa0329c603fdfc936d8d006edc1b1", "is_reserved": 0, "type": "electric_scooter", "lat": 38.91337466666667, "fusion_lat": 0.0, "is_disabled": 0}, {"rental_uris": {"android": "https://dc.lft.to/lastmile_qr_scan", "ios": "https://dc.lft.to/lastmile_qr_scan"}, "lon": -77.04879083333333, "name": "85a0ec7124c50798c64b9371a64da22b", "fusion_lon": 0.0, "bike_id": "85a0ec7124c50798c64b9371a64da22b", "is_reserved": 0, "type": "electric_scooter", "lat": 38.89856233333333, "fusion_lat": 0.0, "is_disabled": 0}, {"rental_uris": {"android": "https://dc.lft.to/lastmile_qr_scan", "ios": "https://dc.lft.to/lastmile_qr_scan"}, "lon": -77.01559383333333, "name": "e8c7c66b37ad88d39d49899b90c0d59e", "fusion_lon": 0.0, "bike_id": "e8c7c66b37ad88d39d49899b90c0d59e", "is_reserved": 0, "type": "electric_scooter", "lat": 38.872983, "fusion_lat": 0.0, "is_disabled": 0}, {"rental_uris": {"android": "https://dc.lft.to/lastmile_qr_scan", "ios": "https://dc.lft.to/lastmile_qr_scan"}, "lon": -77.11193366666667, "name": "fa00a91f3583151cedbae184717df36a", "fusion_lon": 0.0, "bike_id": "fa00a91f3583151cedbae184717df36a", "is_reserved": 0, "type": "electric_bike", "lat": 38.882703166666666, "fusion_lat": 0.0, "is_disabled": 0}, {"rental_uris": {"android": "https://dc.lft.to/lastmile_qr_scan", "ios": "https://dc.lft.to/lastmile_qr_scan"}, "lon": -77.01943016666667, "name": "8a382fac98ef8159b92ba4ab5b3930e4", "fusion_lon": 0.0, "bike_id": "8a382fac98ef8159b92ba4ab5b3930e4", "is_reserved": 0, "type": "electric_scooter", "lat": 38.9241685, "fusion_lat": 0.0, "is_disabled": 0}, {"rental_uris": {"android": "https://dc.lft.to/lastmile_qr_scan", "ios": "https://dc.lft.to/lastmile_qr_scan"}, "lon": -77.0161235, "name": "c24afe49a79d20a59c6a104724b13ad3", "fusion_lon": 0.0, "bike_id": "c24afe49a79d20a59c6a104724b13ad3", "is_reserved": 0, "type": "electric_scooter", "lat": 38.905837, "fusion_lat": 0.0, "is_disabled": 0}, {"rental_uris": {"android": "https://dc.lft.to/lastmile_qr_scan", "ios": "https://dc.lft.to/lastmile_qr_scan"}, "lon": -77.029635, "name": "06dd8ddf6a5f762f8f85cdf1f578b5c7", "fusion_lon": 0.0, "bike_id": "06dd8ddf6a5f762f8f85cdf1f578b5c7", "is_reserved": 0, "type": "electric_scooter", "lat": 38.92684783333333, "fusion_lat": 0.0, "is_disabled": 0}, {"rental_uris": {"android": "https://dc.lft.to/lastmile_qr_scan", "ios": "https://dc.lft.to/lastmile_qr_scan"}, "lon": -77.01903583333333, "name": "14485c003c7e7f91fac954b8879783c9", "fusion_lon": 0.0, "bike_id": "14485c003c7e7f91fac954b8879783c9", "is_reserved": 0, "type": "electric_scooter", "lat": 38.9233845, "fusion_lat": 0.0, "is_disabled": 0}, {"rental_uris": {"android": "https://dc.lft.to/lastmile_qr_scan", "ios": "https://dc.lft.to/lastmile_qr_scan"}, "lon": -77.04108166666667, "name": "5feac2d360d06e8188749f2885fa5245", "fusion_lon": 0.0, "bike_id": "5feac2d360d06e8188749f2885fa5245", "is_reserved": 0, "type": "electric_scooter", "lat": 38.910592666666666, "fusion_lat": 0.0, "is_disabled": 0}, {"rental_uris": {"android": "https://dc.lft.to/lastmile_qr_scan", "ios": "https://dc.lft.to/lastmile_qr_scan"}, "lon": -77.07450866666667, "name": "85e6e95d11ee00188a632167c89f378f", "fusion_lon": 0.0, "bike_id": "85e6e95d11ee00188a632167c89f378f", "is_reserved": 0, "type": "electric_scooter", "lat": 38.93556016666667, "fusion_lat": 0.0, "is_disabled": 0}, {"rental_uris": {"android": "https://dc.lft.to/lastmile_qr_scan", "ios": "https://dc.lft.to/lastmile_qr_scan"}, "lon": -77.03462866666666, "name": "510f64bdeb2b1dc5aa4d360975e926ea", "fusion_lon": 0.0, "bike_id": "510f64bdeb2b1dc5aa4d360975e926ea", "is_reserved": 0, "type": "electric_scooter", "lat": 38.92061483333333, "fusion_lat": 0.0, "is_disabled": 0}, {"rental_uris": {"android": "https://dc.lft.to/lastmile_qr_scan", "ios": "https://dc.lft.to/lastmile_qr_scan"}, "lon": -76.97713716666667, "name": "d9e61938869d2772e66fa17e29d0be60", "fusion_lon": 0.0, "bike_id": "d9e61938869d2772e66fa17e29d0be60", "is_reserved": 0, "type": "electric_scooter", "lat": 38.887945, "fusion_lat": 0.0, "is_disabled": 0}, {"rental_uris": {"android": "https://dc.lft.to/lastmile_qr_scan", "ios": "https://dc.lft.to/lastmile_qr_scan"}, "lon": -77.04184683333334, "name": "f51f646b8cd9e98e8984cb89ddea6ae6", "fusion_lon": 0.0, "bike_id": "f51f646b8cd9e98e8984cb89ddea6ae6", "is_reserved": 0, "type": "electric_scooter", "lat": 38.904799, "fusion_lat": 0.0, "is_disabled": 0}, {"rental_uris": {"android": "https://dc.lft.to/lastmile_qr_scan", "ios": "https://dc.lft.to/lastmile_qr_scan"}, "lon": -77.05051633333333, "name": "5a95853f7a9273cc7657f153759cd32b", "fusion_lon": 0.0, "bike_id": "5a95853f7a9273cc7657f153759cd32b", "is_reserved": 0, "type": "electric_scooter", "lat": 38.906202, "fusion_lat": 0.0, "is_disabled": 0}, {"rental_uris": {"android": "https://dc.lft.to/lastmile_qr_scan", "ios": "https://dc.lft.to/lastmile_qr_scan"}, "lon": -77.036386, "name": "469ccf8f42aeb9126e34b71e00227a48", "fusion_lon": 0.0, "bike_id": "469ccf8f42aeb9126e34b71e00227a48", "is_reserved": 0, "type": "electric_scooter", "lat": 38.91814466666666, "fusion_lat": 0.0, "is_disabled": 0}, {"rental_uris": {"android": "https://dc.lft.to/lastmile_qr_scan", "ios": "https://dc.lft.to/lastmile_qr_scan"}, "lon": -76.98439783333333, "name": "6c04d016001bf1962cac9dd5cd5ea5d8", "fusion_lon": 0.0, "bike_id": "6c04d016001bf1962cac9dd5cd5ea5d8", "is_reserved": 0, "type": "electric_bike", "lat": 38.90148533333333, "fusion_lat": 0.0, "is_disabled": 0}, {"rental_uris": {"android": "https://dc.lft.to/lastmile_qr_scan", "ios": "https://dc.lft.to/lastmile_qr_scan"}, "lon": -77.05960466666667, "name": "3ff27b892e20900be636ee810e0f8922", "fusion_lon": 0.0, "bike_id": "3ff27b892e20900be636ee810e0f8922", "is_reserved": 0, "type": "electric_scooter", "lat": 38.90507866666667, "fusion_lat": 0.0, "is_disabled": 0}, {"rental_uris": {"android": "https://dc.lft.to/lastmile_qr_scan", "ios": "https://dc.lft.to/lastmile_qr_scan"}, "lon": -77.01617983333334, "name": "120e28e5e0acd08b4bd9ee8d3fee7e93", "fusion_lon": 0.0, "bike_id": "120e28e5e0acd08b4bd9ee8d3fee7e93", "is_reserved": 0, "type": "electric_scooter", "lat": 38.89970616666667, "fusion_lat": 0.0, "is_disabled": 0}, {"rental_uris": {"android": "https://dc.lft.to/lastmile_qr_scan", "ios": "https://dc.lft.to/lastmile_qr_scan"}, "lon": -76.96531116666667, "name": "ef0c39cbb18197184a09e73c29debf4f", "fusion_lon": 0.0, "bike_id": "ef0c39cbb18197184a09e73c29debf4f", "is_reserved": 0, "type": "electric_bike", "lat": 38.874745, "fusion_lat": 0.0, "is_disabled": 0}, {"rental_uris": {"android": "https://dc.lft.to/lastmile_qr_scan", "ios": "https://dc.lft.to/lastmile_qr_scan"}, "lon": -77.024051, "name": "b4c7e567e576ea48030bbfaa340ccbce", "fusion_lon": 0.0, "bike_id": "b4c7e567e576ea48030bbfaa340ccbce", "is_reserved": 0, "type": "electric_scooter", "lat": 38.90770833333333, "fusion_lat": 0.0, "is_disabled": 0}, {"rental_uris": {"android": "https://dc.lft.to/lastmile_qr_scan", "ios": "https://dc.lft.to/lastmile_qr_scan"}, "lon": -77.0284215, "name": "dbf4e9253b01933f83e1f8bb34df2cb4", "fusion_lon": 0.0, "bike_id": "dbf4e9253b01933f83e1f8bb34df2cb4", "is_reserved": 0, "type": "electric_scooter", "lat": 38.932768333333335, "fusion_lat": 0.0, "is_disabled": 0}, {"rental_uris": {"android": "https://dc.lft.to/lastmile_qr_scan", "ios": "https://dc.lft.to/lastmile_qr_scan"}, "lon": -77.02697683333334, "name": "dbb0af4c076cd1b39ec18085a8828b38", "fusion_lon": 0.0, "bike_id": "dbb0af4c076cd1b39ec18085a8828b38", "is_reserved": 0, "type": "electric_scooter", "lat": 38.92400516666667, "fusion_lat": 0.0, "is_disabled": 0}, {"rental_uris": {"android": "https://dc.lft.to/lastmile_qr_scan", "ios": "https://dc.lft.to/lastmile_qr_scan"}, "lon": -77.0033625, "name": "12b130d9f3acb172cdc6e0656107f495", "fusion_lon": 0.0, "bike_id": "12b130d9f3acb172cdc6e0656107f495", "is_reserved": 0, "type": "electric_scooter", "lat": 38.88991133333333, "fusion_lat": 0.0, "is_disabled": 0}, {"rental_uris": {"android": "https://dc.lft.to/lastmile_qr_scan", "ios": "https://dc.lft.to/lastmile_qr_scan"}, "lon": -77.03288533333334, "name": "3acc4c0cba07e264c690cc9a5bcb3ab0", "fusion_lon": 0.0, "bike_id": "3acc4c0cba07e264c690cc9a5bcb3ab0", "is_reserved": 0, "type": "electric_scooter", "lat": 38.939664666666665, "fusion_lat": 0.0, "is_disabled": 0}, {"rental_uris": {"android": "https://dc.lft.to/lastmile_qr_scan", "ios": "https://dc.lft.to/lastmile_qr_scan"}, "lon": -76.95237066666667, "name": "f374965d5cc0ff4d0265dd1bfac2aebd", "fusion_lon": 0.0, "bike_id": "f374965d5cc0ff4d0265dd1bfac2aebd", "is_reserved": 0, "type": "electric_bike", "lat": 38.84802116666667, "fusion_lat": 0.0, "is_disabled": 0}, {"rental_uris": {"android": "https://dc.lft.to/lastmile_qr_scan", "ios": "https://dc.lft.to/lastmile_qr_scan"}, "lon": -77.03235483333333, "name": "59d2ada436ebc8d460b152ad4b5d2f8e", "fusion_lon": 0.0, "bike_id": "59d2ada436ebc8d460b152ad4b5d2f8e", "is_reserved": 0, "type": "electric_scooter", "lat": 38.926869333333336, "fusion_lat": 0.0, "is_disabled": 0}, {"rental_uris": {"android": "https://dc.lft.to/lastmile_qr_scan", "ios": "https://dc.lft.to/lastmile_qr_scan"}, "lon": -77.033643, "name": "5648217b81d9591da954d05b9011dabb", "fusion_lon": 0.0, "bike_id": "5648217b81d9591da954d05b9011dabb", "is_reserved": 0, "type": "electric_scooter", "lat": 38.923499166666666, "fusion_lat": 0.0, "is_disabled": 0}, {"rental_uris": {"android": "https://dc.lft.to/lastmile_qr_scan", "ios": "https://dc.lft.to/lastmile_qr_scan"}, "lon": -76.9746975, "name": "408068e64d02e80ac4564210031ec64e", "fusion_lon": 0.0, "bike_id": "408068e64d02e80ac4564210031ec64e", "is_reserved": 0, "type": "electric_scooter", "lat": 38.871468666666665, "fusion_lat": 0.0, "is_disabled": 0}, {"rental_uris": {"android": "https://dc.lft.to/lastmile_qr_scan", "ios": "https://dc.lft.to/lastmile_qr_scan"}, "lon": -77.03748733333333, "name": "b1b991cf022e8cddad3f5f5271cd5315", "fusion_lon": 0.0, "bike_id": "b1b991cf022e8cddad3f5f5271cd5315", "is_reserved": 0, "type": "electric_scooter", "lat": 38.9308815, "fusion_lat": 0.0, "is_disabled": 0}, {"rental_uris": {"android": "https://dc.lft.to/lastmile_qr_scan", "ios": "https://dc.lft.to/lastmile_qr_scan"}, "lon": -77.02213183333333, "name": "04d0d278b0a9bc1255b1c27e565cc718", "fusion_lon": 0.0, "bike_id": "04d0d278b0a9bc1255b1c27e565cc718", "is_reserved": 0, "type": "electric_scooter", "lat": 38.8985285, "fusion_lat": 0.0, "is_disabled": 0}, {"rental_uris": {"android": "https://dc.lft.to/lastmile_qr_scan", "ios": "https://dc.lft.to/lastmile_qr_scan"}, "lon": -77.02118666666667, "name": "59cd8f7b7a24818f52cd11bf660db1f8", "fusion_lon": 0.0, "bike_id": "59cd8f7b7a24818f52cd11bf660db1f8", "is_reserved": 0, "type": "electric_scooter", "lat": 38.9231735, "fusion_lat": 0.0, "is_disabled": 0}, {"rental_uris": {"android": "https://dc.lft.to/lastmile_qr_scan", "ios": "https://dc.lft.to/lastmile_qr_scan"}, "lon": -77.0276885, "name": "3b86c48dd464dcd80b182ce0f03df127", "fusion_lon": 0.0, "bike_id": "3b86c48dd464dcd80b182ce0f03df127", "is_reserved": 0, "type": "electric_scooter", "lat": 38.901135, "fusion_lat": 0.0, "is_disabled": 0}, {"rental_uris": {"android": "https://dc.lft.to/lastmile_qr_scan", "ios": "https://dc.lft.to/lastmile_qr_scan"}, "lon": -77.01937966666667, "name": "97d9dcc0ac6d057ab61821e602c705ed", "fusion_lon": 0.0, "bike_id": "97d9dcc0ac6d057ab61821e602c705ed", "is_reserved": 0, "type": "electric_scooter", "lat": 38.8948095, "fusion_lat": 0.0, "is_disabled": 0}, {"rental_uris": {"android": "https://dc.lft.to/lastmile_qr_scan", "ios": "https://dc.lft.to/lastmile_qr_scan"}, "lon": -77.02798266666667, "name": "d1d906055f2fdeb68792d87cb8e96212", "fusion_lon": 0.0, "bike_id": "d1d906055f2fdeb68792d87cb8e96212", "is_reserved": 0, "type": "electric_scooter", "lat": 38.892497166666665, "fusion_lat": 0.0, "is_disabled": 0}, {"rental_uris": {"android": "https://dc.lft.to/lastmile_qr_scan", "ios": "https://dc.lft.to/lastmile_qr_scan"}, "lon": -77.05413416666667, "name": "ee31cf1f9f9bcc4d6e375b26c73566e0", "fusion_lon": 0.0, "bike_id": "ee31cf1f9f9bcc4d6e375b26c73566e0", "is_reserved": 0, "type": "electric_bike", "lat": 38.848851333333336, "fusion_lat": 0.0, "is_disabled": 0}, {"rental_uris": {"android": "https://dc.lft.to/lastmile_qr_scan", "ios": "https://dc.lft.to/lastmile_qr_scan"}, "lon": -77.05590733333334, "name": "b6d728796594b149de628434cd5a71db", "fusion_lon": 0.0, "bike_id": "b6d728796594b149de628434cd5a71db", "is_reserved": 0, "type": "electric_scooter", "lat": 38.936102, "fusion_lat": 0.0, "is_disabled": 0}, {"rental_uris": {"android": "https://dc.lft.to/lastmile_qr_scan", "ios": "https://dc.lft.to/lastmile_qr_scan"}, "lon": -76.98376883333333, "name": "ddb30c1a0c985ea8ca67a91ac5f44b10", "fusion_lon": 0.0, "bike_id": "ddb30c1a0c985ea8ca67a91ac5f44b10", "is_reserved": 0, "type": "electric_scooter", "lat": 38.887246, "fusion_lat": 0.0, "is_disabled": 0}, {"rental_uris": {"android": "https://dc.lft.to/lastmile_qr_scan", "ios": "https://dc.lft.to/lastmile_qr_scan"}, "lon": -77.04909616666667, "name": "698b4b57882db3c984878e3757ffd686", "fusion_lon": 0.0, "bike_id": "698b4b57882db3c984878e3757ffd686", "is_reserved": 0, "type": "electric_scooter", "lat": 38.90076233333333, "fusion_lat": 0.0, "is_disabled": 0}, {"rental_uris": {"android": "https://dc.lft.to/lastmile_qr_scan", "ios": "https://dc.lft.to/lastmile_qr_scan"}, "lon": -77.02188933333333, "name": "e3b868f93dc96117a30675d2ba0e386a", "fusion_lon": 0.0, "bike_id": "e3b868f93dc96117a30675d2ba0e386a", "is_reserved": 0, "type": "electric_scooter", "lat": 38.901906, "fusion_lat": 0.0, "is_disabled": 0}, {"rental_uris": {"android": "https://dc.lft.to/lastmile_qr_scan", "ios": "https://dc.lft.to/lastmile_qr_scan"}, "lon": -77.0232505, "name": "b99a84cc3b9311ffdc80d5215c5f44f7", "fusion_lon": 0.0, "bike_id": "b99a84cc3b9311ffdc80d5215c5f44f7", "is_reserved": 0, "type": "electric_scooter", "lat": 38.966066166666664, "fusion_lat": 0.0, "is_disabled": 0}, {"rental_uris": {"android": "https://dc.lft.to/lastmile_qr_scan", "ios": "https://dc.lft.to/lastmile_qr_scan"}, "lon": -77.03570966666666, "name": "dec7f9150b279585e18a8a933757b95c", "fusion_lon": 0.0, "bike_id": "dec7f9150b279585e18a8a933757b95c", "is_reserved": 0, "type": "electric_scooter", "lat": 38.905678, "fusion_lat": 0.0, "is_disabled": 0}, {"rental_uris": {"android": "https://dc.lft.to/lastmile_qr_scan", "ios": "https://dc.lft.to/lastmile_qr_scan"}, "lon": -77.03739383333334, "name": "ae46c6083709077636b68707261150b3", "fusion_lon": 0.0, "bike_id": "ae46c6083709077636b68707261150b3", "is_reserved": 0, "type": "electric_scooter", "lat": 38.879935333333336, "fusion_lat": 0.0, "is_disabled": 0}, {"rental_uris": {"android": "https://dc.lft.to/lastmile_qr_scan", "ios": "https://dc.lft.to/lastmile_qr_scan"}, "lon": -77.0447715, "name": "a8f33a5d58269580a1aae0036969f1db", "fusion_lon": 0.0, "bike_id": "a8f33a5d58269580a1aae0036969f1db", "is_reserved": 0, "type": "electric_scooter", "lat": 38.90640483333333, "fusion_lat": 0.0, "is_disabled": 0}, {"rental_uris": {"android": "https://dc.lft.to/lastmile_qr_scan", "ios": "https://dc.lft.to/lastmile_qr_scan"},