{"data": {"bikes": [{"type": "electric_scooter", "name": "b657fd3c5b86d96dc8112707b0d0197e", "fusion_lat": 0.0, "fusion_lon": 0.0, "lon": -77.03219416666667, "is_disabled": 0, "bike_id": "b657fd3c5b86d96dc8112707b0d0197e", "is_reserved": 0, "rental_uris": {"android": "https://dc.lft.to/lastmile_qr_scan", "ios": "https://dc.lft.to/lastmile_qr_scan"}, "lat": 38.91849333333333}, {"type": "electric_scooter", "name": "4f0abc886537423c6ca19413be776b28", "fusion_lat": 0.0, "fusion_lon": 0.0, "lon": -76.9465585, "is_disabled": 0, "bike_id": "4f0abc886537423c6ca19413be776b28", "is_reserved": 0, "rental_uris": {"android": "https://dc.lft.to/lastmile_qr_scan", "ios": "https://dc.lft.to/lastmile_qr_scan"}, "lat": 38.898297666666664}, {"type": "electric_scooter", "name": "6a02ce8cd95a02980b52ba90215649fb", "fusion_lat": 0.0, "fusion_lon": 0.0, "lon": -77.031884, "is_disabled": 0, "bike_id": "6a02ce8cd95a02980b52ba90215649fb", "is_reserved": 0, "rental_uris": {"android": "https://dc.lft.to/lastmile_qr_scan", "ios": "https://dc.lft.to/lastmile_qr_scan"}, "lat": 38.91348433333334}, {"type": "electric_scooter", "name": "42b5be5c509d2dd61745ce716be23893", "fusion_lat": 0.0, "fusion_lon": 0.0, "lon": -77.03521233333333, "is_disabled": 0, "bike_id": "42b5be5c509d2dd61745ce716be23893", "is_reserved": 0, "rental_uris": {"android": "https://dc.lft.to/lastmile_qr_scan", "ios": "https://dc.lft.to/lastmile_qr_scan"}, "lat": 38.922375}, {"type": "electric_scooter", "name": "a2b2238188ac99b6422deb1bb59b2a66", "fusion_lat": 0.0, "fusion_lon": 0.0, "lon": -77.02231183333333, "is_disabled": 0, "bike_id": "a2b2238188ac99b6422deb1bb59b2a66", "is_reserved": 0, "rental_uris": {"android": "https://dc.lft.to/lastmile_qr_scan", "ios": "https://dc.lft.to/lastmile_qr_scan"}, "lat": 38.9127345}, {"type": "electric_scooter", "name": "36679a88d3e2731fd156e3431e14426b", "fusion_lat": 0.0, "fusion_lon": 0.0, "lon": -76.983459, "is_disabled": 0, "bike_id": "36679a88d3e2731fd156e3431e14426b", "is_reserved": 0, "rental_uris": {"android": "https://dc.lft.to/lastmile_qr_scan", "ios": "https://dc.lft.to/lastmile_qr_scan"}, "lat": 38.91255483333333}, {"type": "electric_scooter", "name": "248c5e4abaf15c390c556dcc6a6c4d1c", "fusion_lat": 0.0, "fusion_lon": 0.0, "lon": -77.01719616666666, "is_disabled": 0, "bike_id": "248c5e4abaf15c390c556dcc6a6c4d1c", "is_reserved": 0, "rental_uris": {"android": "https://dc.lft.to/lastmile_qr_scan", "ios": "https://dc.lft.to/lastmile_qr_scan"}, "lat": 38.90471466666666}, {"type": "electric_scooter", "name": "bd3cf209fd9fac1c9f81ed2fdcd17dd7", "fusion_lat": 0.0, "fusion_lon": 0.0, "lon": -77.03464366666667, "is_disabled": 0, "bike_id": "bd3cf209fd9fac1c9f81ed2fdcd17dd7", "is_reserved": 0, "rental_uris": {"android": "https://dc.lft.to/lastmile_qr_scan", "ios": "https://dc.lft.to/lastmile_qr_scan"}, "lat": 38.90656766666667}, {"type": "electric_scooter", "name": "b0c437fe933123bccf75f5d3e9b027a3", "fusion_lat": 0.0, "fusion_lon": 0.0, "lon": -77.03365816666667, "is_disabled": 0, "bike_id": "b0c437fe933123bccf75f5d3e9b027a3", "is_reserved": 0, "rental_uris": {"android": "https://dc.lft.to/lastmile_qr_scan", "ios": "https://dc.lft.to/lastmile_qr_scan"}, "lat": 38.927556333333335}, {"type": "electric_bike", "name": "0850ef73198e47ba7883381553c5935f", "fusion_lat": 0.0, "fusion_lon": 0.0, "lon": -77.012332, "is_disabled": 0, "bike_id": "0850ef73198e47ba7883381553c5935f", "is_reserved": 0, "rental_uris": {"android": "https://dc.lft.to/lastmile_qr_scan", "ios": "https://dc.lft.to/lastmile_qr_scan"}, "lat": 38.95087766666666}, {"type": "electric_scooter", "name": "a5950e7f54b00417c6bdd462b334a021", "fusion_lat": 0.0, "fusion_lon": 0.0, "lon": -77.03186666666667, "is_disabled": 0, "bike_id": "a5950e7f54b00417c6bdd462b334a021", "is_reserved": 0, "rental_uris": {"android": "https://dc.lft.to/lastmile_qr_scan", "ios": "https://dc.lft.to/lastmile_qr_scan"}, "lat": 38.893303333333336}, {"type": "electric_scooter", "name": "26d7e73956fe5d37dfbb612d07cc6e37", "fusion_lat": 0.0, "fusion_lon": 0.0, "lon": -76.986471, "is_disabled": 0, "bike_id": "26d7e73956fe5d37dfbb612d07cc6e37", "is_reserved": 0, "rental_uris": {"android": "https://dc.lft.to/lastmile_qr_scan", "ios": "https://dc.lft.to/lastmile_qr_scan"}, "lat": 38.85510633333333}, {"type": "electric_scooter", "name": "eb059ba5401f7ca040cb0692e57f4110", "fusion_lat": 0.0, "fusion_lon": 0.0, "lon": -76.99159366666666, "is_disabled": 0, "bike_id": "eb059ba5401f7ca040cb0692e57f4110", "is_reserved": 0, "rental_uris": {"android": "https://dc.lft.to/lastmile_qr_scan", "ios": "https://dc.lft.to/lastmile_qr_scan"}, "lat": 38.888228}, {"type": "electric_scooter", "name": "f56ea55a04d4c2fdf865cc05caf7500b", "fusion_lat": 0.0, "fusion_lon": 0.0, "lon": -77.04619933333333, "is_disabled": 0, "bike_id": "f56ea55a04d4c2fdf865cc05caf7500b", "is_reserved": 0, "rental_uris": {"android": "https://dc.lft.to/lastmile_qr_scan", "ios": "https://dc.lft.to/lastmile_qr_scan"}, "lat": 38.90665533333333}, {"type": "electric_scooter", "name": "00f2e87d84779c020a19bb02939cd628", "fusion_lat": 0.0, "fusion_lon": 0.0, "lon": -77.0551485, "is_disabled": 0, "bike_id": "00f2e87d84779c020a19bb02939cd628", "is_reserved": 0, "rental_uris": {"android": "https://dc.lft.to/lastmile_qr_scan", "ios": "https://dc.lft.to/lastmile_qr_scan"}, "lat": 38.928360833333336}, {"type": "electric_scooter", "name": "293bd41eda7a362ddae1ac06c8d8d77f", "fusion_lat": 0.0, "fusion_lon": 0.0, "lon": -77.01863833333333, "is_disabled": 0, "bike_id": "293bd41eda7a362ddae1ac06c8d8d77f", "is_reserved": 0, "rental_uris": {"android": "https://dc.lft.to/lastmile_qr_scan", "ios": "https://dc.lft.to/lastmile_qr_scan"}, "lat": 38.9304935}, {"type": "electric_bike", "name": "918943723880e492c1dea0c8680704fd", "fusion_lat": 0.0, "fusion_lon": 0.0, "lon": -77.02420766666667, "is_disabled": 0, "bike_id": "918943723880e492c1dea0c8680704fd", "is_reserved": 0, "rental_uris": {"android": "https://dc.lft.to/lastmile_qr_scan", "ios": "https://dc.lft.to/lastmile_qr_scan"}, "lat": 38.99117916666667}, {"type": "electric_bike", "name": "9d672fab3c9f7db4b8e09bb28f30719e", "fusion_lat": 0.0, "fusion_lon": 0.0, "lon": -77.06531933333333, "is_disabled": 0, "bike_id": "9d672fab3c9f7db4b8e09bb28f30719e", "is_reserved": 0, "rental_uris": {"android": "https://dc.lft.to/lastmile_qr_scan", "ios": "https://dc.lft.to/lastmile_qr_scan"}, "lat": 38.992315833333336}, {"type": "electric_scooter", "name": "55a4770c1e57472d7f1861fb94afea1f", "fusion_lat": 0.0, "fusion_lon": 0.0, "lon": -77.01225166666667, "is_disabled": 0, "bike_id": "55a4770c1e57472d7f1861fb94afea1f", "is_reserved": 0, "rental_uris": {"android": "https://dc.lft.to/lastmile_qr_scan", "ios": "https://dc.lft.to/lastmile_qr_scan"}, "lat": 38.91405133333333}, {"type": "electric_bike", "name": "a0ae4035967f433a36bd3fc436103551", "fusion_lat": 0.0, "fusion_lon": 0.0, "lon": -77.13232466666666, "is_disabled": 0, "bike_id": "a0ae4035967f433a36bd3fc436103551", "is_reserved": 0, "rental_uris": {"android": "https://dc.lft.to/lastmile_qr_scan", "ios": "https://dc.lft.to/lastmile_qr_scan"}, "lat": 38.804519166666665}, {"type": "electric_scooter", "name": "13ea7d990259a21a24a484a44a912cfb", "fusion_lat": 0.0, "fusion_lon": 0.0, "lon": -77.03460483333333, "is_disabled": 0, "bike_id": "13ea7d990259a21a24a484a44a912cfb", "is_reserved": 0, "rental_uris": {"android": "https://dc.lft.to/lastmile_qr_scan", "ios": "https://dc.lft.to/lastmile_qr_scan"}, "lat": 38.917262}, {"type": "electric_scooter", "name": "35e357b0d4542b4b9f7303c35f92d9ba", "fusion_lat": 0.0, "fusion_lon": 0.0, "lon": -77.01565433333333, "is_disabled": 0, "bike_id": "35e357b0d4542b4b9f7303c35f92d9ba", "is_reserved": 0, "rental_uris": {"android": "https://dc.lft.to/lastmile_qr_scan", "ios": "https://dc.lft.to/lastmile_qr_scan"}, "lat": 38.876183166666664}, {"type": "electric_scooter", "name": "3c42a77d62510920ca663252c06b2ef0", "fusion_lat": 0.0, "fusion_lon": 0.0, "lon": -77.036038, "is_disabled": 0, "bike_id": "3c42a77d62510920ca663252c06b2ef0", "is_reserved": 0, "rental_uris": {"android": "https://dc.lft.to/lastmile_qr_scan", "ios": "https://dc.lft.to/lastmile_qr_scan"}, "lat": 38.93154666666667}, {"type": "electric_scooter", "name": "d3bd52b2b8b68bf2b89efc3ef5e2a0bb", "fusion_lat": 0.0, "fusion_lon": 0.0, "lon": -77.00326766666667, "is_disabled": 0, "bike_id": "d3bd52b2b8b68bf2b89efc3ef5e2a0bb", "is_reserved": 0, "rental_uris": {"android": "https://dc.lft.to/lastmile_qr_scan", "ios": "https://dc.lft.to/lastmile_qr_scan"}, "lat": 38.87713166666666}, {"type": "electric_scooter", "name": "824ce3831a405540357c2cf84d72e27e", "fusion_lat": 0.0, "fusion_lon": 0.0, "lon": -77.02041733333333, "is_disabled": 0, "bike_id": "824ce3831a405540357c2cf84d72e27e", "is_reserved": 0, "rental_uris": {"android": "https://dc.lft.to/lastmile_qr_scan", "ios": "https://dc.lft.to/lastmile_qr_scan"}, "lat": 38.92337633333333}, {"type": "electric_scooter", "name": "3e0718351064095f2fe2961d080a2b2c", "fusion_lat": 0.0, "fusion_lon": 0.0, "lon": -77.03292116666667, "is_disabled": 0, "bike_id": "3e0718351064095f2fe2961d080a2b2c", "is_reserved": 0, "rental_uris": {"android": "https://dc.lft.to/lastmile_qr_scan", "ios": "https://dc.lft.to/lastmile_qr_scan"}, "lat": 38.92756816666667}, {"type": "electric_scooter", "name": "2b62af9cbb0bf59a9e4c3d0b8a99da60", "fusion_lat": 0.0, "fusion_lon": 0.0, "lon": -77.04875833333334, "is_disabled": 0, "bike_id": "2b62af9cbb0bf59a9e4c3d0b8a99da60", "is_reserved": 0, "rental_uris": {"android": "https://dc.lft.to/lastmile_qr_scan", "ios": "https://dc.lft.to/lastmile_qr_scan"}, "lat": 38.906574666666664}, {"type": "electric_scooter", "name": "3426d9143fb73fcf9b49f247128667ad", "fusion_lat": 0.0, "fusion_lon": 0.0, "lon": -77.081989, "is_disabled": 0, "bike_id": "3426d9143fb73fcf9b49f247128667ad", "is_reserved": 0, "rental_uris": {"android": "https://dc.lft.to/lastmile_qr_scan", "ios": "https://dc.lft.to/lastmile_qr_scan"}, "lat": 38.89140166666667}, {"type": "electric_bike", "name": "563b9b68f8b0556a4e9b6b82d08f78cf", "fusion_lat": 0.0, "fusion_lon": 0.0, "lon": -77.04083083333333, "is_disabled": 0, "bike_id": "563b9b68f8b0556a4e9b6b82d08f78cf", "is_reserved": 0, "rental_uris": {"android": "https://dc.lft.to/lastmile_qr_scan", "ios": "https://dc.lft.to/lastmile_qr_scan"}, "lat": 38.83066133333333}, {"type": "electric_scooter", "name": "27c9c7a10dbb4615dd71af48932d3120", "fusion_lat": 0.0, "fusion_lon": 0.0, "lon": -77.03445683333334, "is_disabled": 0, "bike_id": "27c9c7a10dbb4615dd71af48932d3120", "is_reserved": 0, "rental_uris": {"android": "https://dc.lft.to/lastmile_qr_scan", "ios": "https://dc.lft.to/lastmile_qr_scan"}, "lat": 38.910272}, {"type": "electric_scooter", "name": "d6bfec02e07b2387bac9159b1476a1bd", "fusion_lat": 0.0, "fusion_lon": 0.0, "lon": -77.01887433333333, "is_disabled": 0, "bike_id": "d6bfec02e07b2387bac9159b1476a1bd", "is_reserved": 0, "rental_uris": {"android": "https://dc.lft.to/lastmile_qr_scan", "ios": "https://dc.lft.to/lastmile_qr_scan"}, "lat": 38.8974945}, {"type": "electric_scooter", "name": "4d047299de22638d3edf84a6a066fedd", "fusion_lat": 0.0, "fusion_lon": 0.0, "lon": -77.012994, "is_disabled": 0, "bike_id": "4d047299de22638d3edf84a6a066fedd", "is_reserved": 0, "rental_uris": {"android": "https://dc.lft.to/lastmile_qr_scan", "ios": "https://dc.lft.to/lastmile_qr_scan"}, "lat": 38.87774133333333}, {"type": "electric_scooter", "name": "98b4946035f3d6d56306f8f98d3c487f", "fusion_lat": 0.0, "fusion_lon": 0.0, "lon": -77.02085666666666, "is_disabled": 0, "bike_id": "98b4946035f3d6d56306f8f98d3c487f", "is_reserved": 0, "rental_uris": {"android": "https://dc.lft.to/lastmile_qr_scan", "ios": "https://dc.lft.to/lastmile_qr_scan"}, "lat": 38.92717433333333}, {"type": "electric_scooter", "name": "fae49702908cb7b09294d98c28252956", "fusion_lat": 0.0, "fusion_lon": 0.0, "lon": -77.01770783333333, "is_disabled": 0, "bike_id": "fae49702908cb7b09294d98c28252956", "is_reserved": 0, "rental_uris": {"android": "https://dc.lft.to/lastmile_qr_scan", "ios": "https://dc.lft.to/lastmile_qr_scan"}, "lat": 38.9003275}, {"type": "electric_scooter", "name": "3017394c6256a3b641e6bdf88410235a", "fusion_lat": 0.0, "fusion_lon": 0.0, "lon": -76.99724766666667, "is_disabled": 0, "bike_id": "3017394c6256a3b641e6bdf88410235a", "is_reserved": 0, "rental_uris": {"android": "https://dc.lft.to/lastmile_qr_scan", "ios": "https://dc.lft.to/lastmile_qr_scan"}, "lat": 38.845460333333335}, {"type": "electric_scooter", "name": "8fac23b28e38202433ce83a04a1fcc00", "fusion_lat": 0.0, "fusion_lon": 0.0, "lon": -77.03570133333334, "is_disabled": 0, "bike_id": "8fac23b28e38202433ce83a04a1fcc00", "is_reserved": 0, "rental_uris": {"android": "https://dc.lft.to/lastmile_qr_scan", "ios": "https://dc.lft.to/lastmile_qr_scan"}, "lat": 38.909637000000004}, {"type": "electric_scooter", "name": "f956fd5c5b335bdb8abd9eeaa4ae00ea", "fusion_lat": 0.0, "fusion_lon": 0.0, "lon": -76.94100666666667, "is_disabled": 0, "bike_id": "f956fd5c5b335bdb8abd9eeaa4ae00ea", "is_reserved": 0, "rental_uris": {"android": "https://dc.lft.to/lastmile_qr_scan", "ios": "https://dc.lft.to/lastmile_qr_scan"}, "lat": 38.89357233333333}, {"type": "electric_scooter", "name": "ae7c00925139dd240ceabc1a69bb301f", "fusion_lat": 0.0, "fusion_lon": 0.0, "lon": -77.02311533333334, "is_disabled": 0, "bike_id": "ae7c00925139dd240ceabc1a69bb301f", "is_reserved": 0, "rental_uris": {"android": "https://dc.lft.to/lastmile_qr_scan", "ios": "https://dc.lft.to/lastmile_qr_scan"}, "lat": 38.9178075}, {"type": "electric_scooter", "name": "06726f3b4bab80fdb56ee93fe01ff363", "fusion_lat": 0.0, "fusion_lon": 0.0, "lon": -77.017773, "is_disabled": 0, "bike_id": "06726f3b4bab80fdb56ee93fe01ff363", "is_reserved": 0, "rental_uris": {"android": "https://dc.lft.to/lastmile_qr_scan", "ios": "https://dc.lft.to/lastmile_qr_scan"}, "lat": 38.92104633333334}, {"type": "electric_bike", "name": "f508b2887033d95ceeb3048ad3e26421", "fusion_lat": 0.0, "fusion_lon": 0.0, "lon": -76.97320283333333, "is_disabled": 0, "bike_id": "f508b2887033d95ceeb3048ad3e26421", "is_reserved": 0, "rental_uris": {"android": "https://dc.lft.to/lastmile_qr_scan", "ios": "https://dc.lft.to/lastmile_qr_scan"}, "lat": 38.917594666666666}, {"type": "electric_scooter", "name": "f17b6da7a0def2d60c965301f1420fb6", "fusion_lat": 0.0, "fusion_lon": 0.0, "lon": -77.05324666666667, "is_disabled": 0, "bike_id": "f17b6da7a0def2d60c965301f1420fb6", "is_reserved": 0, "rental_uris": {"android": "https://dc.lft.to/lastmile_qr_scan", "ios": "https://dc.lft.to/lastmile_qr_scan"}, "lat": 38.90647583333333}, {"type": "electric_scooter", "name": "f1922cc0e3400cc0f03b42de12066312", "fusion_lat": 0.0, "fusion_lon": 0.0, "lon": -77.01615433333333, "is_disabled": 0, "bike_id": "f1922cc0e3400cc0f03b42de12066312", "is_reserved": 0, "rental_uris": {"android": "https://dc.lft.to/lastmile_qr_scan", "ios": "https://dc.lft.to/lastmile_qr_scan"}, "lat": 38.91592716666667}, {"type": "electric_bike", "name": "20565498093a8dc1b9fab89c03c652e3", "fusion_lat": 0.0, "fusion_lon": 0.0, "lon": -77.0775215, "is_disabled": 0, "bike_id": "20565498093a8dc1b9fab89c03c652e3", "is_reserved": 0, "rental_uris": {"android": "https://dc.lft.to/lastmile_qr_scan", "ios": "https://dc.lft.to/lastmile_qr_scan"}, "lat": 38.841937333333334}, {"type": "electric_scooter", "name": "b2255251622d8bca881197e19947a3a6", "fusion_lat": 0.0, "fusion_lon": 0.0, "lon": -76.99251766666667, "is_disabled": 0, "bike_id": "b2255251622d8bca881197e19947a3a6", "is_reserved": 0, "rental_uris": {"android": "https://dc.lft.to/lastmile_qr_scan", "ios": "https://dc.lft.to/lastmile_qr_scan"}, "lat": 38.940687}, {"type": "electric_scooter", "name": "a78f43ddb6f0dc720c90ee977f5c465f", "fusion_lat": 0.0, "fusion_lon": 0.0, "lon": -77.01716716666667, "is_disabled": 0, "bike_id": "a78f43ddb6f0dc720c90ee977f5c465f", "is_reserved": 0, "rental_uris": {"android": "https://dc.lft.to/lastmile_qr_scan", "ios": "https://dc.lft.to/lastmile_qr_scan"}, "lat": 38.904641166666664}, {"type": "electric_bike", "name": "8ed31dc696f0ac2a2970cae1b95ce3b0", "fusion_lat": 0.0, "fusion_lon": 0.0, "lon": -77.0460215, "is_disabled": 0, "bike_id": "8ed31dc696f0ac2a2970cae1b95ce3b0", "is_reserved": 0, "rental_uris": {"android": "https://dc.lft.to/lastmile_qr_scan", "ios": "https://dc.lft.to/lastmile_qr_scan"}, "lat": 38.93305066666667}, {"type": "electric_bike", "name": "0fd1ad1dd1343acc1ae25c0488692103", "fusion_lat": 0.0, "fusion_lon": 0.0, "lon": -76.960919, "is_disabled": 0, "bike_id": "0fd1ad1dd1343acc1ae25c0488692103", "is_reserved": 0, "rental_uris": {"android": "https://dc.lft.to/lastmile_qr_scan", "ios": "https://dc.lft.to/lastmile_qr_scan"}, "lat": 38.91855066666667}, {"type": "electric_scooter", "name": "1923fdfb3c013803ec900769233e0abc", "fusion_lat": 0.0, "fusion_lon": 0.0, "lon": -77.02558933333333, "is_disabled": 0, "bike_id": "1923fdfb3c013803ec900769233e0abc", "is_reserved": 0, "rental_uris": {"android": "https://dc.lft.to/lastmile_qr_scan", "ios": "https://dc.lft.to/lastmile_qr_scan"}, "lat": 38.953957333333335}, {"type": "electric_scooter", "name": "cb6dd5a4f976e4dafcebbc73b97054a4", "fusion_lat": 0.0, "fusion_lon": 0.0, "lon": -77.04189183333334, "is_disabled": 0, "bike_id": "cb6dd5a4f976e4dafcebbc73b97054a4", "is_reserved": 0, "rental_uris": {"android": "https://dc.lft.to/lastmile_qr_scan", "ios": "https://dc.lft.to/lastmile_qr_scan"}, "lat": 38.9204975}, {"type": "electric_scooter", "name": "92124581d88478fbd347f0d563222f00", "fusion_lat": 0.0, "fusion_lon": 0.0, "lon": -77.007418, "is_disabled": 0, "bike_id": "92124581d88478fbd347f0d563222f00", "is_reserved": 0, "rental_uris": {"android": "https://dc.lft.to/lastmile_qr_scan", "ios": "https://dc.lft.to/lastmile_qr_scan"}, "lat": 38.8766265}, {"type": "electric_scooter", "name": "5ce2e3d047b81c4f31d7a1ed9b7ad9ac", "fusion_lat": 0.0, "fusion_lon": 0.0, "lon": -77.02742916666666, "is_disabled": 0, "bike_id": "5ce2e3d047b81c4f31d7a1ed9b7ad9ac", "is_reserved": 0, "rental_uris": {"android": "https://dc.lft.to/lastmile_qr_scan", "ios": "https://dc.lft.to/lastmile_qr_scan"}, "lat": 38.89762783333333}, {"type": "electric_scooter", "name": "c326dd2af43e06e953cb139c6acf92a9", "fusion_lat": 0.0, "fusion_lon": 0.0, "lon": -76.96511966666667, "is_disabled": 0, "bike_id": "c326dd2af43e06e953cb139c6acf92a9", "is_reserved": 0, "rental_uris": {"android": "https://dc.lft.to/lastmile_qr_scan", "ios": "https://dc.lft.to/lastmile_qr_scan"}, "lat": 38.876315166666664}, {"type": "electric_scooter", "name": "13974920e185fa05c941ac0d6c59b241", "fusion_lat": 0.0, "fusion_lon": 0.0, "lon": -77.0393195, "is_disabled": 0, "bike_id": "13974920e185fa05c941ac0d6c59b241", "is_reserved": 0, "rental_uris": {"android": "https://dc.lft.to/lastmile_qr_scan", "ios": "https://dc.lft.to/lastmile_qr_scan"}, "lat": 38.914001999999996}, {"type": "electric_bike", "name": "87d91758783c21a38174c0e4ee4fca08", "fusion_lat": 0.0, "fusion_lon": 0.0, "lon": -76.97321933333333, "is_disabled": 0, "bike_id": "87d91758783c21a38174c0e4ee4fca08", "is_reserved": 0, "rental_uris": {"android": "https://dc.lft.to/lastmile_qr_scan", "ios": "https://dc.lft.to/lastmile_qr_scan"}, "lat": 38.857801}, {"type": "electric_scooter", "name": "00dc9c886b2437ec4d64de402d879980", "fusion_lat": 0.0, "fusion_lon": 0.0, "lon": -77.00206833333333, "is_disabled": 0, "bike_id": "00dc9c886b2437ec4d64de402d879980", "is_reserved": 0, "rental_uris": {"android": "https://dc.lft.to/lastmile_qr_scan", "ios": "https://dc.lft.to/lastmile_qr_scan"}, "lat": 38.90749066666667}, {"type": "electric_scooter", "name": "a6b43fccb33d0588bca4de10dc35ea57", "fusion_lat": 0.0, "fusion_lon": 0.0, "lon": -77.02979333333333, "is_disabled": 0, "bike_id": "a6b43fccb33d0588bca4de10dc35ea57", "is_reserved": 0, "rental_uris": {"android": "https://dc.lft.to/lastmile_qr_scan", "ios": "https://dc.lft.to/lastmile_qr_scan"}, "lat": 38.90725966666667}, {"type": "electric_scooter", "name": "1955d148e8f7cdd7e7ac0624d81ffbcf", "fusion_lat": 0.0, "fusion_lon": 0.0, "lon": -76.99452133333334, "is_disabled": 0, "bike_id": "1955d148e8f7cdd7e7ac0624d81ffbcf", "is_reserved": 0, "rental_uris": {"android": "https://dc.lft.to/lastmile_qr_scan", "ios": "https://dc.lft.to/lastmile_qr_scan"}, "lat": 38.8276875}, {"type": "electric_scooter", "name": "b67085b945a881e7780f9f156fe7d8d7", "fusion_lat": 0.0, "fusion_lon": 0.0, "lon": -77.03670233333334, "is_disabled": 0, "bike_id": "b67085b945a881e7780f9f156fe7d8d7", "is_reserved": 0, "rental_uris": {"android": "https://dc.lft.to/lastmile_qr_scan", "ios": "https://dc.lft.to/lastmile_qr_scan"}, "lat": 38.9232885}, {"type": "electric_scooter", "name": "bad26a3560c8e02fd34512b41e372194", "fusion_lat": 0.0, "fusion_lon": 0.0, "lon": -77.06297816666667, "is_disabled": 0, "bike_id": "bad26a3560c8e02fd34512b41e372194", "is_reserved": 0, "rental_uris": {"android": "https://dc.lft.to/lastmile_qr_scan", "ios": "https://dc.lft.to/lastmile_qr_scan"}, "lat": 38.90599866666667}, {"type": "electric_scooter", "name": "73d3459a1ce22c446a32d05c6bf43658", "fusion_lat": 0.0, "fusion_lon": 0.0, "lon": -77.03073166666667, "is_disabled": 0, "bike_id": "73d3459a1ce22c446a32d05c6bf43658", "is_reserved": 0, "rental_uris": {"android": "https://dc.lft.to/lastmile_qr_scan", "ios": "https://dc.lft.to/lastmile_qr_scan"}, "lat": 38.920222}, {"type": "electric_scooter", "name": "4ca49f9f9daab60ef7e380c624a5e945", "fusion_lat": 0.0, "fusion_lon": 0.0, "lon": -77.0317155, "is_disabled": 0, "bike_id": "4ca49f9f9daab60ef7e380c624a5e945", "is_reserved": 0, "rental_uris": {"android": "https://dc.lft.to/lastmile_qr_scan", "ios": "https://dc.lft.to/lastmile_qr_scan"}, "lat": 38.921003}, {"type": "electric_scooter", "name": "b89871a8ec5fdac826d472dbe0487214", "fusion_lat": 0.0, "fusion_lon": 0.0, "lon": -77.02807083333333, "is_disabled": 0, "bike_id": "b89871a8ec5fdac826d472dbe0487214", "is_reserved": 0, "rental_uris": {"android": "https://dc.lft.to/lastmile_qr_scan", "ios": "https://dc.lft.to/lastmile_qr_scan"}, "lat": 38.93081016666667}, {"type": "electric_bike", "name": "0bb581d0d71b127ffd02b8c6fff537e5", "fusion_lat": 0.0, "fusion_lon": 0.0, "lon": -77.019861, "is_disabled": 0, "bike_id": "0bb581d0d71b127ffd02b8c6fff537e5", "is_reserved": 0, "rental_uris": {"android": "https://dc.lft.to/lastmile_qr_scan", "ios": "https://dc.lft.to/lastmile_qr_scan"}, "lat": 38.8978025}, {"type": "electric_scooter", "name": "50567a8b774a5bbf13826830c45e30d3", "fusion_lat": 0.0, "fusion_lon": 0.0, "lon": -77.02438816666667, "is_disabled": 0, "bike_id": "50567a8b774a5bbf13826830c45e30d3", "is_reserved": 0, "rental_uris": {"android": "https://dc.lft.to/lastmile_qr_scan", "ios": "https://dc.lft.to/lastmile_qr_scan"}, "lat": 38.92053133333334}, {"type": "electric_bike", "name": "76341dd2fc375016d6d2de248549c9a7", "fusion_lat": 0.0, "fusion_lon": 0.0, "lon": -77.07892916666667, "is_disabled": 0, "bike_id": "76341dd2fc375016d6d2de248549c9a7", "is_reserved": 0, "rental_uris": {"android": "https://dc.lft.to/lastmile_qr_scan", "ios": "https://dc.lft.to/lastmile_qr_scan"}, "lat": 38.925450166666664}, {"type": "electric_scooter", "name": "b7483e19cb3e3063dcc506b7bc07887f", "fusion_lat": 0.0, "fusion_lon": 0.0, "lon": -77.014615, "is_disabled": 0, "bike_id": "b7483e19cb3e3063dcc506b7bc07887f", "is_reserved": 0, "rental_uris": {"android": "https://dc.lft.to/lastmile_qr_scan", "ios": "https://dc.lft.to/lastmile_qr_scan"}, "lat": 38.90654583333333}, {"type": "electric_scooter", "name": "df0c7faf7dd8438cb05190c10dcc144e", "fusion_lat": 0.0, "fusion_lon": 0.0, "lon": -77.0033525, "is_disabled": 0, "bike_id": "df0c7faf7dd8438cb05190c10dcc144e", "is_reserved": 0, "rental_uris": {"android": "https://dc.lft.to/lastmile_qr_scan", "ios": "https://dc.lft.to/lastmile_qr_scan"}, "lat": 38.876561833333334}, {"type": "electric_scooter", "name": "f7277571ac7fcccb2f9050c7bf3cc7af", "fusion_lat": 0.0, "fusion_lon": 0.0, "lon": -77.0320695, "is_disabled": 0, "bike_id": "f7277571ac7fcccb2f9050c7bf3cc7af", "is_reserved": 0, "rental_uris": {"android": "https://dc.lft.to/lastmile_qr_scan", "ios": "https://dc.lft.to/lastmile_qr_scan"}, "lat": 38.9119805}, {"type": "electric_scooter", "name": "c06ec9961f6d73952c1bb6dab40cc877", "fusion_lat": 0.0, "fusion_lon": 0.0, "lon": -76.93000366666666, "is_disabled": 0, "bike_id": "c06ec9961f6d73952c1bb6dab40cc877", "is_reserved": 0, "rental_uris": {"android": "https://dc.lft.to/lastmile_qr_scan", "ios": "https://dc.lft.to/lastmile_qr_scan"}, "lat": 38.8899175}, {"type": "electric_scooter", "name": "53e21e80eed4aefd93a27f6e9ad84a56", "fusion_lat": 0.0, "fusion_lon": 0.0, "lon": -77.06454166666667, "is_disabled": 0, "bike_id": "53e21e80eed4aefd93a27f6e9ad84a56", "is_reserved": 0, "rental_uris": {"android": "https://dc.lft.to/lastmile_qr_scan", "ios": "https://dc.lft.to/lastmile_qr_scan"}, "lat": 38.948804333333335}, {"type": "electric_scooter", "name": "8a6791c2e84669876eb7f4ea6a172987", "fusion_lat": 0.0, "fusion_lon": 0.0, "lon": -77.018241, "is_disabled": 0, "bike_id": "8a6791c2e84669876eb7f4ea6a172987", "is_reserved": 0, "rental_uris": {"android": "https://dc.lft.to/lastmile_qr_scan", "ios": "https://dc.lft.to/lastmile_qr_scan"}, "lat": 38.9095245}, {"type": "electric_scooter", "name": "ec90440055d5b3fe23dff2a3c971e402", "fusion_lat": 0.0, "fusion_lon": 0.0, "lon": -77.044835, "is_disabled": 0, "bike_id": "ec90440055d5b3fe23dff2a3c971e402", "is_reserved": 0, "rental_uris": {"android": "https://dc.lft.to/lastmile_qr_scan", "ios": "https://dc.lft.to/lastmile_qr_scan"}, "lat": 38.90949616666666}, {"type": "electric_scooter", "name": "5212582e9ecda5ca16178fd4d698eda6", "fusion_lat": 0.0, "fusion_lon": 0.0, "lon": -77.061163, "is_disabled": 0, "bike_id": "5212582e9ecda5ca16178fd4d698eda6", "is_reserved": 0, "rental_uris": {"android": "https://dc.lft.to/lastmile_qr_scan", "ios": "https://dc.lft.to/lastmile_qr_scan"}, "lat": 38.912873166666664}, {"type": "electric_scooter", "name": "732525df11ff1acd00b91c416205284a", "fusion_lat": 0.0, "fusion_lon": 0.0, "lon": -77.02268483333333, "is_disabled": 0, "bike_id": "732525df11ff1acd00b91c416205284a", "is_reserved": 0, "rental_uris": {"android": "https://dc.lft.to/lastmile_qr_scan", "ios": "https://dc.lft.to/lastmile_qr_scan"}, "lat": 38.89508}, {"type": "electric_scooter", "name": "52b8fee6e8495804eaaa6e4cb6abdc21", "fusion_lat": 0.0, "fusion_lon": 0.0, "lon": -76.99156233333333, "is_disabled": 0, "bike_id": "52b8fee6e8495804eaaa6e4cb6abdc21", "is_reserved": 0, "rental_uris": {"android": "https://dc.lft.to/lastmile_qr_scan", "ios": "https://dc.lft.to/lastmile_qr_scan"}, "lat": 38.900350833333334}, {"type": "electric_scooter", "name": "cd8b078d66df19f096028c9b55bc28b8", "fusion_lat": 0.0, "fusion_lon": 0.0, "lon": -77.00547516666667, "is_disabled": 0, "bike_id": "cd8b078d66df19f096028c9b55bc28b8", "is_reserved": 0, "rental_uris": {"android": "https://dc.lft.to/lastmile_qr_scan", "ios": "https://dc.lft.to/lastmile_qr_scan"}, "lat": 38.88042266666667}, {"type": "electric_scooter", "name": "bf8ad145e3795e8368dc92b031c21d5e", "fusion_lat": 0.0, "fusion_lon": 0.0, "lon": -77.050212, "is_disabled": 0, "bike_id": "bf8ad145e3795e8368dc92b031c21d5e", "is_reserved": 0, "rental_uris": {"android": "https://dc.lft.to/lastmile_qr_scan", "ios": "https://dc.lft.to/lastmile_qr_scan"}, "lat": 38.90530566666666}, {"type": "electric_scooter", "name": "a3be99062cc96315d726b8ad521f1b12", "fusion_lat": 0.0, "fusion_lon": 0.0, "lon": -77.028279, "is_disabled": 0, "bike_id": "a3be99062cc96315d726b8ad521f1b12", "is_reserved": 0, "rental_uris": {"android": "https://dc.lft.to/lastmile_qr_scan", "ios": "https://dc.lft.to/lastmile_qr_scan"}, "lat": 38.89372733333333}, {"type": "electric_scooter", "name": "28a4b72a19a00617d7accce73a6da5c3", "fusion_lat": 0.0, "fusion_lon": 0.0, "lon": -76.943824, "is_disabled": 0, "bike_id": "28a4b72a19a00617d7accce73a6da5c3", "is_reserved": 0, "rental_uris": {"android": "https://dc.lft.to/lastmile_qr_scan", "ios": "https://dc.lft.to/lastmile_qr_scan"}, "lat": 38.891049}, {"type": "electric_bike", "name": "747529e204fcf23c5cef965269d61b43", "fusion_lat": 0.0, "fusion_lon": 0.0, "lon": -76.96062166666667, "is_disabled": 0, "bike_id": "747529e204fcf23c5cef965269d61b43", "is_reserved": 0, "rental_uris": {"android": "https://dc.lft.to/lastmile_qr_scan", "ios": "https://dc.lft.to/lastmile_qr_scan"}, "lat": 38.88327}, {"type": "electric_scooter", "name": "283f9b48e4228e8589e6ae8b96c70fd1", "fusion_lat": 0.0, "fusion_lon": 0.0, "lon": -76.9259745, "is_disabled": 0, "bike_id": "283f9b48e4228e8589e6ae8b96c70fd1", "is_reserved": 0, "rental_uris": {"android": "https://dc.lft.to/lastmile_qr_scan", "ios": "https://dc.lft.to/lastmile_qr_scan"}, "lat": 38.89957833333333}, {"type": "electric_scooter", "name": "101c95a96604d36bc893e616356f5aaf", "fusion_lat": 0.0, "fusion_lon": 0.0, "lon": -77.04613766666667, "is_disabled": 0, "bike_id": "101c95a96604d36bc893e616356f5aaf", "is_reserved": 0, "rental_uris": {"android": "https://dc.lft.to/lastmile_qr_scan", "ios": "https://dc.lft.to/lastmile_qr_scan"}, "lat": 38.90662716666667}, {"type": "electric_scooter", "name": "a667c2a10ee0f642660c878298db8782", "fusion_lat": 0.0, "fusion_lon": 0.0, "lon": -77.03540383333333, "is_disabled": 0, "bike_id": "a667c2a10ee0f642660c878298db8782", "is_reserved": 0, "rental_uris": {"android": "https://dc.lft.to/lastmile_qr_scan", "ios": "https://dc.lft.to/lastmile_qr_scan"}, "lat": 38.923409666666664}, {"type": "electric_bike", "name": "73b522d1fa36ce32fe61b7431af80d42", "fusion_lat": 0.0, "fusion_lon": 0.0, "lon": -77.095218, "is_disabled": 0, "bike_id": "73b522d1fa36ce32fe61b7431af80d42", "is_reserved": 0, "rental_uris": {"android": "https://dc.lft.to/lastmile_qr_scan", "ios": "https://dc.lft.to/lastmile_qr_scan"}, "lat": 38.8381185}, {"type": "electric_scooter", "name": "432943351bafff96bdb114dd3cdb536f", "fusion_lat": 0.0, "fusion_lon": 0.0, "lon": -76.97546783333334, "is_disabled": 0, "bike_id": "432943351bafff96bdb114dd3cdb536f", "is_reserved": 0, "rental_uris": {"android": "https://dc.lft.to/lastmile_qr_scan", "ios": "https://dc.lft.to/lastmile_qr_scan"}, "lat": 38.87576083333333}, {"type": "electric_scooter", "name": "20540616b4f1348a8579fd25aa885175", "fusion_lat": 0.0, "fusion_lon": 0.0, "lon": -77.03022733333333, "is_disabled": 0, "bike_id": "20540616b4f1348a8579fd25aa885175", "is_reserved": 0, "rental_uris": {"android": "https://dc.lft.to/lastmile_qr_scan", "ios": "https://dc.lft.to/lastmile_qr_scan"}, "lat": 38.92663733333333}, {"type": "electric_scooter", "name": "e5a532c1e1624c61f5be5a32fc2cc483", "fusion_lat": 0.0, "fusion_lon": 0.0, "lon": -77.04037766666667, "is_disabled": 0, "bike_id": "e5a532c1e1624c61f5be5a32fc2cc483", "is_reserved": 0, "rental_uris": {"android": "https://dc.lft.to/lastmile_qr_scan", "ios": "https://dc.lft.to/lastmile_qr_scan"}, "lat": 38.911857833333336}, {"type": "electric_scooter", "name": "491c4e3f6066de17a1acc808bb129ede", "fusion_lat": 0.0, "fusion_lon": 0.0, "lon": -77.02854916666666, "is_disabled": 0, "bike_id": "491c4e3f6066de17a1acc808bb129ede", "is_reserved": 0, "rental_uris": {"android": "https://dc.lft.to/lastmile_qr_scan", "ios": "https://dc.lft.to/lastmile_qr_scan"}, "lat": 38.902552166666666}, {"type": "electric_scooter", "name": "4b2df11f92c3f5fbf13db67e108145c2", "fusion_lat": 0.0, "fusion_lon": 0.0, "lon": -77.064277, "is_disabled": 0, "bike_id": "4b2df11f92c3f5fbf13db67e108145c2", "is_reserved": 0, "rental_uris": {"android": "https://dc.lft.to/lastmile_qr_scan", "ios": "https://dc.lft.to/lastmile_qr_scan"}, "lat": 38.935636833333334}, {"type": "electric_bike", "name": "f13c30fe381906fb9ef3580fdfb62454", "fusion_lat": 0.0, "fusion_lon": 0.0, "lon": -76.97545833333334, "is_disabled": 0, "bike_id": "f13c30fe381906fb9ef3580fdfb62454", "is_reserved": 0, "rental_uris": {"android": "https://dc.lft.to/lastmile_qr_scan", "ios": "https://dc.lft.to/lastmile_qr_scan"}, "lat": 38.904279833333334}, {"type": "electric_scooter", "name": "323db0bbdc120e2795f8ddf941c55c88", "fusion_lat": 0.0, "fusion_lon": 0.0, "lon": -77.03905366666666, "is_disabled": 0, "bike_id": "323db0bbdc120e2795f8ddf941c55c88", "is_reserved": 0, "rental_uris": {"android": "https://dc.lft.to/lastmile_qr_scan", "ios": "https://dc.lft.to/lastmile_qr_scan"}, "lat": 38.9142175}, {"type": "electric_scooter", "name": "cb0639578875decaebe2b484e47b8441", "fusion_lat": 0.0, "fusion_lon": 0.0, "lon": -77.0322265, "is_disabled": 0, "bike_id": "cb0639578875decaebe2b484e47b8441", "is_reserved": 0, "rental_uris": {"android": "https://dc.lft.to/lastmile_qr_scan", "ios": "https://dc.lft.to/lastmile_qr_scan"}, "lat": 38.918469}, {"type": "electric_scooter", "name": "e25833ff34aed028823292d58f9d74a0", "fusion_lat": 0.0, "fusion_lon": 0.0, "lon": -76.9335265, "is_disabled": 0, "bike_id": "e25833ff34aed028823292d58f9d74a0", "is_reserved": 0, "rental_uris": {"android": "https://dc.lft.to/lastmile_qr_scan", "ios": "https://dc.lft.to/lastmile_qr_scan"}, "lat": 38.899098333333335}, {"type": "electric_scooter", "name": "eb840575ecc051e536658c903550c2e6", "fusion_lat": 0.0, "fusion_lon": 0.0, "lon": -76.99945866666667, "is_disabled": 0, "bike_id": "eb840575ecc051e536658c903550c2e6", "is_reserved": 0, "rental_uris": {"android": "https://dc.lft.to/lastmile_qr_scan", "ios": "https://dc.lft.to/lastmile_qr_scan"}, "lat": 38.890867}, {"type": "electric_scooter", "name": "85b8c385ed40556a306c0c8ac049fce8", "fusion_lat": 0.0, "fusion_lon": 0.0, "lon": -77.00156366666667, "is_disabled": 0, "bike_id": "85b8c385ed40556a306c0c8ac049fce8", "is_reserved": 0, "rental_uris": {"android": "https://dc.lft.to/lastmile_qr_scan", "ios": "https://dc.lft.to/lastmile_qr_scan"}, "lat": 38.821344833333335}, {"type": "electric_scooter", "name": "0579e07027b207f993fb29780179a01d", "fusion_lat": 0.0, "fusion_lon": 0.0, "lon": -77.02963533333333, "is_disabled": 0, "bike_id": "0579e07027b207f993fb29780179a01d", "is_reserved": 0, "rental_uris": {"android": "https://dc.lft.to/lastmile_qr_scan", "ios": "https://dc.lft.to/lastmile_qr_scan"}, "lat": 38.91633483333333}, {"type": "electric_bike", "name": "68078584220c2244bef8fb158f2f421e", "fusion_lat": 0.0, "fusion_lon": 0.0, "lon": -76.951593, "is_disabled": 0, "bike_id": "68078584220c2244bef8fb158f2f421e", "is_reserved": 0, "rental_uris": {"android": "https://dc.lft.to/lastmile_qr_scan", "ios": "https://dc.lft.to/lastmile_qr_scan"}, "lat": 39.0844035}, {"type": "electric_bike", "name": "443f20904ea263253d0530c60a09bc4f", "fusion_lat": 0.0, "fusion_lon": 0.0, "lon": -77.07767233333334, "is_disabled": 0, "bike_id": "443f20904ea263253d0530c60a09bc4f", "is_reserved": 0, "rental_uris": {"android": "https://dc.lft.to/lastmile_qr_scan", "ios": "https://dc.lft.to/lastmile_qr_scan"}, "lat": 38.930472}, {"type": "electric_scooter", "name": "15d4e3402a7336eea30fb6ba03b78eac", "fusion_lat": 0.0, "fusion_lon": 0.0, "lon": -77.01724866666666, "is_disabled": 0, "bike_id": "15d4e3402a7336eea30fb6ba03b78eac", "is_reserved": 0, "rental_uris": {"android": "https://dc.lft.to/lastmile_qr_scan", "ios": "https://dc.lft.to/lastmile_qr_scan"}, "lat": 38.892285666666666}, {"type": "electric_scooter", "name": "69fdc30bef663569e1faa65cd4d15757", "fusion_lat": 0.0, "fusion_lon": 0.0, "lon": -77.01381266666667, "is_disabled": 0, "bike_id": "69fdc30bef663569e1faa65cd4d15757", "is_reserved": 0, "rental_uris": {"android": "https://dc.lft.to/lastmile_qr_scan", "ios": "https://dc.lft.to/lastmile_qr_scan"}, "lat": 38.919509166666664}, {"type": "electric_scooter", "name": "e278ddd965e3dff2129739bef9e2bf0c", "fusion_lat": 0.0, "fusion_lon": 0.0, "lon": -77.03074416666666, "is_disabled": 0, "bike_id": "e278ddd965e3dff2129739bef9e2bf0c", "is_reserved": 0, "rental_uris": {"android": "https://dc.lft.to/lastmile_qr_scan", "ios": "https://dc.lft.to/lastmile_qr_scan"}, "lat": 38.898601}, {"type": "electric_scooter", "name": "9ebd8d0aef2ac25ed2037a4438d1f737", "fusion_lat": 0.0, "fusion_lon": 0.0, "lon": -77.02966633333334, "is_disabled": 0, "bike_id": "9ebd8d0aef2ac25ed2037a4438d1f737", "is_reserved": 0, "rental_uris": {"android": "https://dc.lft.to/lastmile_qr_scan", "ios": "https://dc.lft.to/lastmile_qr_scan"}, "lat": 38.898380833333334}, {"type": "electric_scooter", "name": "dd39dc736caab4598cb6825bb5d97f7e", "fusion_lat": 0.0, "fusion_lon": 0.0, "lon": -77.044975, "is_disabled": 0, "bike_id": "dd39dc736caab4598cb6825bb5d97f7e", "is_reserved": 0, "rental_uris": {"android": "https://dc.lft.to/lastmile_qr_scan", "ios": "https://dc.lft.to/lastmile_qr_scan"}, "lat": 38.91940133333333}, {"type": "electric_scooter", "name": "ec6f5e3ab760da332ac3ce3b23fa9b5b", "fusion_lat": 0.0, "fusion_lon": 0.0, "lon": -77.03226133333334, "is_disabled": 0, "bike_id": "ec6f5e3ab760da332ac3ce3b23fa9b5b", "is_reserved": 0, "rental_uris": {"android": "https://dc.lft.to/lastmile_qr_scan", "ios": "https://dc.lft.to/lastmile_qr_scan"}, "lat": 38.925506666666664}, {"type": "electric_scooter", "name": "827e7bfe7ffed6bb18d6ee5d73b95477", "fusion_lat": 0.0, "fusion_lon": 0.0, "lon": -77.020323, "is_disabled": 0, "bike_id": "827e7bfe7ffed6bb18d6ee5d73b95477", "is_reserved": 0, "rental_uris": {"android": "https://dc.lft.to/lastmile_qr_scan", "ios": "https://dc.lft.to/lastmile_qr_scan"}, "lat": 38.899924666666664}, {"type": "electric_scooter", "name": "e88c1766c125ffa06e2b36600932d18d", "fusion_lat": 0.0, "fusion_lon": 0.0, "lon": -77.01631883333333, "is_disabled": 0, "bike_id": "e88c1766c125ffa06e2b36600932d18d", "is_reserved": 0, "rental_uris": {"android": "https://dc.lft.to/lastmile_qr_scan", "ios": "https://dc.lft.to/lastmile_qr_scan"}, "lat": 38.90375}, {"type": "electric_scooter", "name": "45f3dddd6f3ca686f464cede4f7c32cc", "fusion_lat": 0.0, "fusion_lon": 0.0, "lon": -77.01755033333333, "is_disabled": 0, "bike_id": "45f3dddd6f3ca686f464cede4f7c32cc", "is_reserved": 0, "rental_uris": {"android": "https://dc.lft.to/lastmile_qr_scan", "ios": "https://dc.lft.to/lastmile_qr_scan"}, "lat": 38.876886}, {"type": "electric_bike", "name": "9570f9d989c16f8483704ecbd829e29b", "fusion_lat": 0.0, "fusion_lon": 0.0, "lon": -77.00771333333333, "is_disabled": 0, "bike_id": "9570f9d989c16f8483704ecbd829e29b", "is_reserved": 0, "rental_uris": {"android": "https://dc.lft.to/lastmile_qr_scan", "ios": "https://dc.lft.to/lastmile_qr_scan"}, "lat": 38.997852}, {"type": "electric_scooter", "name": "c716551d3bc1e3e39e1deb376d0d3478", "fusion_lat": 0.0, "fusion_lon": 0.0, "lon": -77.00323633333333, "is_disabled": 0, "bike_id": "c716551d3bc1e3e39e1deb376d0d3478", "is_reserved": 0, "rental_uris": {"android": "https://dc.lft.to/lastmile_qr_scan", "ios": "https://dc.lft.to/lastmile_qr_scan"}, "lat": 38.913423333333334}, {"type": "electric_scooter", "name": "faec0b03a2f3a57764e38b72a736e290", "fusion_lat": 0.0, "fusion_lon": 0.0, "lon": -77.00326283333334, "is_disabled": 0, "bike_id": "faec0b03a2f3a57764e38b72a736e290", "is_reserved": 0, "rental_uris": {"android": "https://dc.lft.to/lastmile_qr_scan", "ios": "https://dc.lft.to/lastmile_qr_scan"}, "lat": 38.8771415}, {"type": "electric_scooter", "name": "6813d58cc61418b3e64eee64e0f873e9", "fusion_lat": 0.0, "fusion_lon": 0.0, "lon": -77.04983983333334, "is_disabled": 0, "bike_id": "6813d58cc61418b3e64eee64e0f873e9", "is_reserved": 0, "rental_uris": {"android": "https://dc.lft.to/lastmile_qr_scan", "ios": "https://dc.lft.to/lastmile_qr_scan"}, "lat": 38.900764}, {"type": "electric_bike", "name": "08f85ff0b19ec33010503609d3d96f02", "fusion_lat": 0.0, "fusion_lon": 0.0, "lon": -76.945497, "is_disabled": 0, "bike_id": "08f85ff0b19ec33010503609d3d96f02", "is_reserved": 0, "rental_uris": {"android": "https://dc.lft.to/lastmile_qr_scan", "ios": "https://dc.lft.to/lastmile_qr_scan"}, "lat": 38.98308433333333}, {"type": "electric_bike", "name": "a7a09be98cc0d2d504c11c11053948d2", "fusion_lat": 0.0, "fusion_lon": 0.0, "lon": -76.95248783333334, "is_disabled": 0, "bike_id": "a7a09be98cc0d2d504c11c11053948d2", "is_reserved": 0, "rental_uris": {"android": "https://dc.lft.to/lastmile_qr_scan", "ios": "https://dc.lft.to/lastmile_qr_scan"}, "lat": 38.884649333333336}, {"type": "electric_scooter", "name": "9e5b09b0b7455188e11df4f1f2c062b3", "fusion_lat": 0.0, "fusion_lon": 0.0, "lon": -77.00205816666667, "is_disabled": 0, "bike_id": "9e5b09b0b7455188e11df4f1f2c062b3", "is_reserved": 0, "rental_uris": {"android": "https://dc.lft.to/lastmile_qr_scan", "ios": "https://dc.lft.to/lastmile_qr_scan"}, "lat": 38.9023815}, {"type": "electric_scooter", "name": "12683de4d67e1f475ae9ef2fb59b3061", "fusion_lat": 0.0, "fusion_lon": 0.0, "lon": -77.03456433333334, "is_disabled": 0, "bike_id": "12683de4d67e1f475ae9ef2fb59b3061", "is_reserved": 0, "rental_uris": {"android": "https://dc.lft.to/lastmile_qr_scan", "ios": "https://dc.lft.to/lastmile_qr_scan"}, "lat": 38.908390833333335}, {"type": "electric_scooter", "name": "de573fe6128c3088e5a00df9d6623e35", "fusion_lat": 0.0, "fusion_lon": 0.0, "lon": -77.09667383333333, "is_disabled": 0, "bike_id": "de573fe6128c3088e5a00df9d6623e35", "is_reserved": 0, "rental_uris": {"android": "https://dc.lft.to/lastmile_qr_scan", "ios": "https://dc.lft.to/lastmile_qr_scan"}, "lat": 38.91763383333333}, {"type": "electric_scooter", "name": "3390169488ace5a8787debdc04f7cadd", "fusion_lat": 0.0, "fusion_lon": 0.0, "lon": -77.02091883333334, "is_disabled": 0, "bike_id": "3390169488ace5a8787debdc04f7cadd", "is_reserved": 0, "rental_uris": {"android": "https://dc.lft.to/lastmile_qr_scan", "ios": "https://dc.lft.to/lastmile_qr_scan"}, "lat": 38.92717566666666}, {"type": "electric_scooter", "name": "c61e6664a121ee346cdb8ac747003d18", "fusion_lat": 0.0, "fusion_lon": 0.0, "lon": -77.04666833333333, "is_disabled": 0, "bike_id": "c61e6664a121ee346cdb8ac747003d18", "is_reserved": 0, "rental_uris": {"android": "https://dc.lft.to/lastmile_qr_scan", "ios": "https://dc.lft.to/lastmile_qr_scan"}, "lat": 38.90600283333333}, {"type": "electric_scooter", "name": "52b25bbd50f5e1ca27bf6d17719a31e7", "fusion_lat": 0.0, "fusion_lon": 0.0, "lon": -76.9621385, "is_disabled": 0, "bike_id": "52b25bbd50f5e1ca27bf6d17719a31e7", "is_reserved": 0, "rental_uris": {"android": "https://dc.lft.to/lastmile_qr_scan", "ios": "https://dc.lft.to/lastmile_qr_scan"}, "lat": 38.93233733333334}, {"type": "electric_scooter", "name": "8655579b41fc627612c2ea95f4482ce9", "fusion_lat": 0.0, "fusion_lon": 0.0, "lon": -77.02507133333333, "is_disabled": 0, "bike_id": "8655579b41fc627612c2ea95f4482ce9", "is_reserved": 0, "rental_uris": {"android": "https://dc.lft.to/lastmile_qr_scan", "ios": "https://dc.lft.to/lastmile_qr_scan"}, "lat": 38.92020266666667}, {"type": "electric_scooter", "name": "4ee26f4e3749d4b5e2ef95cc77c34c70", "fusion_lat": 0.0, "fusion_lon": 0.0, "lon": -77.0151115, "is_disabled": 0, "bike_id": "4ee26f4e3749d4b5e2ef95cc77c34c70", "is_reserved": 0, "rental_uris": {"android": "https://dc.lft.to/lastmile_qr_scan", "ios": "https://dc.lft.to/lastmile_qr_scan"}, "lat": 38.88733966666667}, {"type": "electric_bike", "name": "93683eead355e83ad23b1cca8b92cb6e", "fusion_lat": 0.0, "fusion_lon": 0.0, "lon": -76.98093166666666, "is_disabled": 0, "bike_id": "93683eead355e83ad23b1cca8b92cb6e", "is_reserved": 0, "rental_uris": {"android": "https://dc.lft.to/lastmile_qr_scan", "ios": "https://dc.lft.to/lastmile_qr_scan"}, "lat": 38.953551833333336}, {"type": "electric_scooter", "name": "bc70886eb52651f65858841113f9bdf9", "fusion_lat": 0.0, "fusion_lon": 0.0, "lon": -76.9861655, "is_disabled": 0, "bike_id": "bc70886eb52651f65858841113f9bdf9", "is_reserved": 0, "rental_uris": {"android": "https://dc.lft.to/lastmile_qr_scan", "ios": "https://dc.lft.to/lastmile_qr_scan"}, "lat": 38.938293333333334}, {"type": "electric_scooter", "name": "32249be2220cb749fd5815cfa756fb3a", "fusion_lat": 0.0, "fusion_lon": 0.0, "lon": -77.03890766666666, "is_disabled": 0, "bike_id": "32249be2220cb749fd5815cfa756fb3a", "is_reserved": 0, "rental_uris": {"android": "https://dc.lft.to/lastmile_qr_scan", "ios": "https://dc.lft.to/lastmile_qr_scan"}, "lat": 38.91852166666666}, {"type": "electric_scooter", "name": "06b83b21c6b516cc92009a06a5d1a50c", "fusion_lat": 0.0, "fusion_lon": 0.0, "lon": -77.03661133333334, "is_disabled": 0, "bike_id": "06b83b21c6b516cc92009a06a5d1a50c", "is_reserved": 0, "rental_uris": {"android": "https://dc.lft.to/lastmile_qr_scan", "ios": "https://dc.lft.to/lastmile_qr_scan"}, "lat": 38.93181283333333}, {"type": "electric_scooter", "name": "2814a8cac8956e833c22e880e088aa44", "fusion_lat": 0.0, "fusion_lon": 0.0, "lon": -77.03446116666667, "is_disabled": 0, "bike_id": "2814a8cac8956e833c22e880e088aa44", "is_reserved": 0, "rental_uris": {"android": "https://dc.lft.to/lastmile_qr_scan", "ios": "https://dc.lft.to/lastmile_qr_scan"}, "lat": 38.917931833333334}, {"type": "electric_scooter", "name": "ea7c73d58121cb3c3f3ae60a8932160f", "fusion_lat": 0.0, "fusion_lon": 0.0, "lon": -77.00773016666666, "is_disabled": 0, "bike_id": "ea7c73d58121cb3c3f3ae60a8932160f", "is_reserved": 0, "rental_uris": {"android": "https://dc.lft.to/lastmile_qr_scan", "ios": "https://dc.lft.to/lastmile_qr_scan"}, "lat": 38.90979516666667}, {"type": "electric_scooter", "name": "0372644926dcd6b1510155d6ac84c8fd", "fusion_lat": 0.0, "fusion_lon": 0.0, "lon": -77.04692233333333, "is_disabled": 0, "bike_id": "0372644926dcd6b1510155d6ac84c8fd", "is_reserved": 0, "rental_uris": {"android": "https://dc.lft.to/lastmile_qr_scan", "ios": "https://dc.lft.to/lastmile_qr_scan"}, "lat": 38.89741333333333}, {"type": "electric_scooter", "name": "481bae591f4c2f7837fcf71a31fd21bd", "fusion_lat": 0.0, "fusion_lon": 0.0, "lon": -77.04656216666666, "is_disabled": 0, "bike_id": "481bae591f4c2f7837fcf71a31fd21bd", "is_reserved": 0, "rental_uris": {"android": "https://dc.lft.to/lastmile_qr_scan", "ios": "https://dc.lft.to/lastmile_qr_scan"}, "lat": 38.89339616666667}, {"type": "electric_scooter", "name": "50bea84efa996e967cbe436dbc78ca6f", "fusion_lat": 0.0, "fusion_lon": 0.0, "lon": -77.01796933333334, "is_disabled": 0, "bike_id": "50bea84efa996e967cbe436dbc78ca6f", "is_reserved": 0, "rental_uris": {"android": "https://dc.lft.to/lastmile_qr_scan", "ios": "https://dc.lft.to/lastmile_qr_scan"}, "lat": 38.9194445}, {"type": "electric_scooter", "name": "feabb2ccc112b3a350a7ee7cb1949427", "fusion_lat": 0.0, "fusion_lon": 0.0, "lon": -77.0208305, "is_disabled": 0, "bike_id": "feabb2ccc112b3a350a7ee7cb1949427", "is_reserved": 0, "rental_uris": {"android": "https://dc.lft.to/lastmile_qr_scan", "ios": "https://dc.lft.to/lastmile_qr_scan"}, "lat": 38.93025133333333}, {"type": "electric_bike", "name": "503cae5f17ed382047bd5025d004a711", "fusion_lat": 0.0, "fusion_lon": 0.0, "lon": -76.97536283333334, "is_disabled": 0, "bike_id": "503cae5f17ed382047bd5025d004a711", "is_reserved": 0, "rental_uris": {"android": "https://dc.lft.to/lastmile_qr_scan", "ios": "https://dc.lft.to/lastmile_qr_scan"}, "lat": 38.9032705}, {"type": "electric_bike", "name": "a6045e493752e50847f7588a3ce2c52c", "fusion_lat": 0.0, "fusion_lon": 0.0, "lon": -77.00378233333333, "is_disabled": 0, "bike_id": "a6045e493752e50847f7588a3ce2c52c", "is_reserved": 0, "rental_uris": {"android": "https://dc.lft.to/lastmile_qr_scan", "ios": "https://dc.lft.to/lastmile_qr_scan"}, "lat": 38.836036166666666}, {"type": "electric_scooter", "name": "2cee45fc89ee5944f1f2957ec41290a0", "fusion_lat": 0.0, "fusion_lon": 0.0, "lon": -76.9903055, "is_disabled": 0, "bike_id": "2cee45fc89ee5944f1f2957ec41290a0", "is_reserved": 0, "rental_uris": {"android": "https://dc.lft.to/lastmile_qr_scan", "ios": "https://dc.lft.to/lastmile_qr_scan"}, "lat": 38.88874833333333}, {"type": "electric_scooter", "name": "f70e5c47f42aa10e8b8267a36ace539d", "fusion_lat": 0.0, "fusion_lon": 0.0, "lon": -77.00213233333334, "is_disabled": 0, "bike_id": "f70e5c47f42aa10e8b8267a36ace539d", "is_reserved": 0, "rental_uris": {"android": "https://dc.lft.to/lastmile_qr_scan", "ios": "https://dc.lft.to/lastmile_qr_scan"}, "lat": 38.91103366666667}, {"type": "electric_scooter", "name": "6cdb4a43e5ff3a54ba7c13b721af9f63", "fusion_lat": 0.0, "fusion_lon": 0.0, "lon": -77.049783, "is_disabled": 0, "bike_id": "6cdb4a43e5ff3a54ba7c13b721af9f63", "is_reserved": 0, "rental_uris": {"android": "https://dc.lft.to/lastmile_qr_scan", "ios": "https://dc.lft.to/lastmile_qr_scan"}, "lat": 38.9012625}, {"type": "electric_scooter", "name": "6b38dba86b9eb75e1208b747d486a419", "fusion_lat": 0.0, "fusion_lon": 0.0, "lon": -77.03507333333333, "is_disabled": 0, "bike_id": "6b38dba86b9eb75e1208b747d486a419", "is_reserved": 0, "rental_uris": {"android": "https://dc.lft.to/lastmile_qr_scan", "ios": "https://dc.lft.to/lastmile_qr_scan"}, "lat": 38.92156166666667}, {"type": "electric_scooter", "name": "5dd07537abcb468ede42c72c0c25f90e", "fusion_lat": 0.0, "fusion_lon": 0.0, "lon": -77.03728866666667, "is_disabled": 0, "bike_id": "5dd07537abcb468ede42c72c0c25f90e", "is_reserved": 0, "rental_uris": {"android": "https://dc.lft.to/lastmile_qr_scan", "ios": "https://dc.lft.to/lastmile_qr_scan"}, "lat": 38.9202645}, {"type": "electric_scooter", "name": "71f5eacb8f5d5fe3cb30d2048b1bac68", "fusion_lat": 0.0, "fusion_lon": 0.0, "lon": -76.9983545, "is_disabled": 0, "bike_id": "71f5eacb8f5d5fe3cb30d2048b1bac68", "is_reserved": 0, "rental_uris": {"android": "https://dc.lft.to/lastmile_qr_scan", "ios": "https://dc.lft.to/lastmile_qr_scan"}, "lat": 38.90069066666667}, {"type": "electric_scooter", "name": "542e4825271698fe5cbf33092db32374", "fusion_lat": 0.0, "fusion_lon": 0.0, "lon": -77.0344515, "is_disabled": 0, "bike_id": "542e4825271698fe5cbf33092db32374", "is_reserved": 0, "rental_uris": {"android": "https://dc.lft.to/lastmile_qr_scan", "ios": "https://dc.lft.to/lastmile_qr_scan"}, "lat": 38.91797183333333}, {"type": "electric_scooter", "name": "72b4d0d2922971fa517b9a2ddb42d16d", "fusion_lat": 0.0, "fusion_lon": 0.0, "lon": -77.0137315, "is_disabled": 0, "bike_id": "72b4d0d2922971fa517b9a2ddb42d16d", "is_reserved": 0, "rental_uris": {"android": "https://dc.lft.to/lastmile_qr_scan", "ios": "https://dc.lft.to/lastmile_qr_scan"}, "lat": 38.876092}, {"type": "electric_bike", "name": "7e51fd15700c2f51bbc728087ec5e3da", "fusion_lat": 0.0, "fusion_lon": 0.0, "lon": -77.02855483333333, "is_disabled": 0, "bike_id": "7e51fd15700c2f51bbc728087ec5e3da", "is_reserved": 0, "rental_uris": {"android": "https://dc.lft.to/lastmile_qr_scan", "ios": "https://dc.lft.to/lastmile_qr_scan"}, "lat": 38.93755916666667}, {"type": "electric_scooter", "name": "4550f89dc10cf3083327f2e65ea99620", "fusion_lat": 0.0, "fusion_lon": 0.0, "lon": -76.99352883333333, "is_disabled": 0, "bike_id": "4550f89dc10cf3083327f2e65ea99620", "is_reserved": 0, "rental_uris": {"android": "https://dc.lft.to/lastmile_qr_scan", "ios": "https://dc.lft.to/lastmile_qr_scan"}, "lat": 38.900073}, {"type": "electric_scooter", "name": "06b8252386799f2e096094632683e58f", "fusion_lat": 0.0, "fusion_lon": 0.0, "lon": -77.01838283333333, "is_disabled": 0, "bike_id": "06b8252386799f2e096094632683e58f", "is_reserved": 0, "rental_uris": {"android": "https://dc.lft.to/lastmile_qr_scan", "ios": "https://dc.lft.to/lastmile_qr_scan"}, "lat": 38.915034166666665}, {"type": "electric_scooter", "name": "4b42652b8a93bc3b5762aa95fec693c5", "fusion_lat": 0.0, "fusion_lon": 0.0, "lon": -77.036589, "is_disabled": 0, "bike_id": "4b42652b8a93bc3b5762aa95fec693c5", "is_reserved": 0, "rental_uris": {"android": "https://dc.lft.to/lastmile_qr_scan", "ios": "https://dc.lft.to/lastmile_qr_scan"}, "lat": 38.9228235}, {"type": "electric_scooter", "name": "531fec2c6d74273cb9e6e2f1f4f93e2f", "fusion_lat": 0.0, "fusion_lon": 0.0, "lon": -77.0283745, "is_disabled": 0, "bike_id": "531fec2c6d74273cb9e6e2f1f4f93e2f", "is_reserved": 0, "rental_uris": {"android": "https://dc.lft.to/lastmile_qr_scan", "ios": "https://dc.lft.to/lastmile_qr_scan"}, "lat": 38.89938883333333}, {"type": "electric_bike", "name": "13f92977cd3ad3bd206264c35b3229c3", "fusion_lat": 0.0, "fusion_lon": 0.0, "lon": -76.96319483333333, "is_disabled": 0, "bike_id": "13f92977cd3ad3bd206264c35b3229c3", "is_reserved": 0, "rental_uris": {"android": "https://dc.lft.to/lastmile_qr_scan", "ios": "https://dc.lft.to/lastmile_qr_scan"}, "lat": 38.938982833333334}, {"type": "electric_scooter", "name": "20e51eea42c7365082b20ede2767de02", "fusion_lat": 0.0, "fusion_lon": 0.0, "lon": -77.0364395, "is_disabled": 0, "bike_id": "20e51eea42c7365082b20ede2767de02", "is_reserved": 0, "rental_uris": {"android": "https://dc.lft.to/lastmile_qr_scan", "ios": "https://dc.lft.to/lastmile_qr_scan"}, "lat": 38.917349333333334}, {"type": "electric_scooter", "name": "392691e18c6192685664c0245367ddce", "fusion_lat": 0.0, "fusion_lon": 0.0, "lon": -76.9956375, "is_disabled": 0, "bike_id": "392691e18c6192685664c0245367ddce", "is_reserved": 0, "rental_uris": {"android": "https://dc.lft.to/lastmile_qr_scan", "ios": "https://dc.lft.to/lastmile_qr_scan"}, "lat": 38.90372833333333}, {"type": "electric_scooter", "name": "d0c90945054b7bab402273f82fb7ade6", "fusion_lat": 0.0, "fusion_lon": 0.0, "lon": -77.034702, "is_disabled": 0, "bike_id": "d0c90945054b7bab402273f82fb7ade6", "is_reserved": 0, "rental_uris": {"android": "https://dc.lft.to/lastmile_qr_scan", "ios": "https://dc.lft.to/lastmile_qr_scan"}, "lat": 38.917248666666666}, {"type": "electric_scooter", "name": "4fc60571e92af4e5b041b0692b9d99f2", "fusion_lat": 0.0, "fusion_lon": 0.0, "lon": -77.0487745, "is_disabled": 0, "bike_id": "4fc60571e92af4e5b041b0692b9d99f2", "is_reserved": 0, "rental_uris": {"android": "https://dc.lft.to/lastmile_qr_scan", "ios": "https://dc.lft.to/lastmile_qr_scan"}, "lat": 38.909123666666666}, {"type": "electric_scooter", "name": "4c1517c80158ed13b01967a9ecbe2439", "fusion_lat": 0.0, "fusion_lon": 0.0, "lon": -77.02225133333333, "is_disabled": 0, "bike_id": "4c1517c80158ed13b01967a9ecbe2439", "is_reserved": 0, "rental_uris": {"android": "https://dc.lft.to/lastmile_qr_scan", "ios": "https://dc.lft.to/lastmile_qr_scan"}, "lat": 38.91271}, {"type": "electric_scooter", "name": "913e0f2c2201160cd75a29ae212103c0", "fusion_lat": 0.0, "fusion_lon": 0.0, "lon": -77.04169933333333, "is_disabled": 0, "bike_id": "913e0f2c2201160cd75a29ae212103c0", "is_reserved": 0, "rental_uris": {"android": "https://dc.lft.to/lastmile_qr_scan", "ios": "https://dc.lft.to/lastmile_qr_scan"}, "lat": 38.920167}, {"type": "electric_scooter", "name": "66b7e14b23ad1991308afe2ef02d8801", "fusion_lat": 0.0, "fusion_lon": 0.0, "lon": -76.9990935, "is_disabled": 0, "bike_id": "66b7e14b23ad1991308afe2ef02d8801", "is_reserved": 0, "rental_uris": {"android": "https://dc.lft.to/lastmile_qr_scan", "ios": "https://dc.lft.to/lastmile_qr_scan"}, "lat": 38.937518}, {"type": "electric_scooter", "name": "43a2e3b65c6c38df7ab09872b80e2caa", "fusion_lat": 0.0, "fusion_lon": 0.0, "lon": -76.98364516666666, "is_disabled": 0, "bike_id": "43a2e3b65c6c38df7ab09872b80e2caa", "is_reserved": 0, "rental_uris": {"android": "https://dc.lft.to/lastmile_qr_scan", "ios": "https://dc.lft.to/lastmile_qr_scan"}, "lat": 38.887490666666665}, {"type": "electric_scooter", "name": "e5bead95e1fca3f51a7fc3bec7861dc4", "fusion_lat": 0.0, "fusion_lon": 0.0, "lon": -77.033799, "is_disabled": 0, "bike_id": "e5bead95e1fca3f51a7fc3bec7861dc4", "is_reserved": 0, "rental_uris": {"android": "https://dc.lft.to/lastmile_qr_scan", "ios": "https://dc.lft.to/lastmile_qr_scan"}, "lat": 38.901376}, {"type": "electric_scooter", "name": "f3c7e647dc93603ce42c6acd44d0a8a2", "fusion_lat": 0.0, "fusion_lon": 0.0, "lon": -77.02265016666666, "is_disabled": 0, "bike_id": "f3c7e647dc93603ce42c6acd44d0a8a2", "is_reserved": 0, "rental_uris": {"android": "https://dc.lft.to/lastmile_qr_scan", "ios": "https://dc.lft.to/lastmile_qr_scan"}, "lat": 38.89505916666667}, {"type": "electric_bike", "name": "c962bf7b2ca859ecfaab057d289b9951", "fusion_lat": 0.0, "fusion_lon": 0.0, "lon": -76.986906, "is_disabled": 0, "bike_id": "c962bf7b2ca859ecfaab057d289b9951", "is_reserved": 0, "rental_uris": {"android": "https://dc.lft.to/lastmile_qr_scan", "ios": "https://dc.lft.to/lastmile_qr_scan"}, "lat": 38.94476516666667}, {"type": "electric_scooter", "name": "6a3e0634c43dce154aa38cf66b32d8d9", "fusion_lat": 0.0, "fusion_lon": 0.0, "lon": -77.04868283333333, "is_disabled": 0, "bike_id": "6a3e0634c43dce154aa38cf66b32d8d9", "is_reserved": 0, "rental_uris": {"android": "https://dc.lft.to/lastmile_qr_scan", "ios": "https://dc.lft.to/lastmile_qr_scan"}, "lat": 38.911040166666666}, {"type": "electric_scooter", "name": "432ec8ec21f2f2d0daaa6da479742c16", "fusion_lat": 0.0, "fusion_lon": 0.0, "lon": -77.01753033333334, "is_disabled": 0, "bike_id": "432ec8ec21f2f2d0daaa6da479742c16", "is_reserved": 0, "rental_uris": {"android": "https://dc.lft.to/lastmile_qr_scan", "ios": "https://dc.lft.to/lastmile_qr_scan"}, "lat": 38.902634166666665}, {"type": "electric_scooter", "name": "ef463313cf57e82828fc7f65a99bd22b", "fusion_lat": 0.0, "fusion_lon": 0.0, "lon": -77.0231905, "is_disabled": 0, "bike_id": "ef463313cf57e82828fc7f65a99bd22b", "is_reserved": 0, "rental_uris": {"android": "https://dc.lft.to/lastmile_qr_scan", "ios": "https://dc.lft.to/lastmile_qr_scan"}, "lat": 38.93059016666667}, {"type": "electric_scooter", "name": "716b9c16b1898d3b96d7d7d303a5a270", "fusion_lat": 0.0, "fusion_lon": 0.0, "lon": -77.02688966666666, "is_disabled": 0, "bike_id": "716b9c16b1898d3b96d7d7d303a5a270", "is_reserved": 0, "rental_uris": {"android": "https://dc.lft.to/lastmile_qr_scan", "ios": "https://dc.lft.to/lastmile_qr_scan"}, "lat": 38.900707}, {"type": "electric_scooter", "name": "b2c7052a40dded5f2ad4d666e39fd52f", "fusion_lat": 0.0, "fusion_lon": 0.0, "lon": -77.03260933333334, "is_disabled": 0, "bike_id": "b2c7052a40dded5f2ad4d666e39fd52f", "is_reserved": 0, "rental_uris": {"android": "https://dc.lft.to/lastmile_qr_scan", "ios": "https://dc.lft.to/lastmile_qr_scan"}, "lat": 38.91402583333333}, {"type": "electric_bike", "name": "d2ce3b24a0c0a0533765784f08ad0616", "fusion_lat": 0.0, "fusion_lon": 0.0, "lon": -77.034988, "is_disabled": 0, "bike_id": "d2ce3b24a0c0a0533765784f08ad0616", "is_reserved": 0, "rental_uris": {"android": "https://dc.lft.to/lastmile_qr_scan", "ios": "https://dc.lft.to/lastmile_qr_scan"}, "lat": 38.931576166666666}, {"type": "electric_scooter", "name": "f2420811cfca222e273688fe8640b7bd", "fusion_lat": 0.0, "fusion_lon": 0.0, "lon": -77.04236, "is_disabled": 0, "bike_id": "f2420811cfca222e273688fe8640b7bd", "is_reserved": 0, "rental_uris": {"android": "https://dc.lft.to/lastmile_qr_scan", "ios": "https://dc.lft.to/lastmile_qr_scan"}, "lat": 38.911193}, {"type": "electric_scooter", "name": "4ccaec1ee13f7b428dee9095991259f1", "fusion_lat": 0.0, "fusion_lon": 0.0, "lon": -77.02554366666666, "is_disabled": 0, "bike_id": "4ccaec1ee13f7b428dee9095991259f1", "is_reserved": 0, "rental_uris": {"android": "https://dc.lft.to/lastmile_qr_scan", "ios": "https://dc.lft.to/lastmile_qr_scan"}, "lat": 38.88747166666667}, {"type": "electric_scooter", "name": "74d4152185758821d48435e41c97e435", "fusion_lat": 0.0, "fusion_lon": 0.0, "lon": -77.02940966666667, "is_disabled": 0, "bike_id": "74d4152185758821d48435e41c97e435", "is_reserved": 0, "rental_uris": {"android": "https://dc.lft.to/lastmile_qr_scan", "ios": "https://dc.lft.to/lastmile_qr_scan"}, "lat": 38.9054475}, {"type": "electric_scooter", "name": "7390396f9c9df892ab5600874b0bb59b", "fusion_lat": 0.0, "fusion_lon": 0.0, "lon": -77.02636216666667, "is_disabled": 0, "bike_id": "7390396f9c9df892ab5600874b0bb59b", "is_reserved": 0, "rental_uris": {"android": "https://dc.lft.to/lastmile_qr_scan", "ios": "https://dc.lft.to/lastmile_qr_scan"}, "lat": 38.90424983333333}, {"type": "electric_scooter", "name": "5a61438fc6fa7f1a6f4ac15238328e0e", "fusion_lat": 0.0, "fusion_lon": 0.0, "lon": -77.04230283333334, "is_disabled": 0, "bike_id": "5a61438fc6fa7f1a6f4ac15238328e0e", "is_reserved": 0, "rental_uris": {"android": "https://dc.lft.to/lastmile_qr_scan", "ios": "https://dc.lft.to/lastmile_qr_scan"}, "lat": 38.9217195}, {"type": "electric_scooter", "name": "d51eaff5936287b90b0b018a9e44031b", "fusion_lat": 0.0, "fusion_lon": 0.0, "lon": -77.01874416666666, "is_disabled": 0, "bike_id": "d51eaff5936287b90b0b018a9e44031b", "is_reserved": 0, "rental_uris": {"android": "https://dc.lft.to/lastmile_qr_scan", "ios": "https://dc.lft.to/lastmile_qr_scan"}, "lat": 38.914158666666665}, {"type": "electric_scooter", "name": "b7b761596f8041c8ad723940595a12a0", "fusion_lat": 0.0, "fusion_lon": 0.0, "lon": -77.04026016666667, "is_disabled": 0, "bike_id": "b7b761596f8041c8ad723940595a12a0", "is_reserved": 0, "rental_uris": {"android": "https://dc.lft.to/lastmile_qr_scan", "ios": "https://dc.lft.to/lastmile_qr_scan"}, "lat": 38.91804166666667}, {"type": "electric_scooter", "name": "c63520b4addb723d90109bfcca84a0f0", "fusion_lat": 0.0, "fusion_lon": 0.0, "lon": -77.06337183333333, "is_disabled": 0, "bike_id": "c63520b4addb723d90109bfcca84a0f0", "is_reserved": 0, "rental_uris": {"android": "https://dc.lft.to/lastmile_qr_scan", "ios": "https://dc.lft.to/lastmile_qr_scan"}, "lat": 38.92151333333333}, {"type": "electric_bike", "name": "3998b94b25ac7dba236b1c35eca83f36", "fusion_lat": 0.0, "fusion_lon": 0.0, "lon": -77.08981816666666, "is_disabled": 0, "bike_id": "3998b94b25ac7dba236b1c35eca83f36", "is_reserved": 0, "rental_uris": {"android": "https://dc.lft.to/lastmile_qr_scan", "ios": "https://dc.lft.to/lastmile_qr_scan"}, "lat": 38.911779333333335}, {"type": "electric_scooter", "name": "0516cbfdd69bb6709415f0a6983fd483", "fusion_lat": 0.0, "fusion_lon": 0.0, "lon": -77.02736233333333, "is_disabled": 0, "bike_id": "0516cbfdd69bb6709415f0a6983fd483", "is_reserved": 0, "rental_uris": {"android": "https://dc.lft.to/lastmile_qr_scan", "ios": "https://dc.lft.to/lastmile_qr_scan"}, "lat": 38.92482316666667}, {"type": "electric_scooter", "name": "8ae100cc65cb7321c57271749cdaeabf", "fusion_lat": 0.0, "fusion_lon": 0.0, "lon": -77.04177216666666, "is_disabled": 0, "bike_id": "8ae100cc65cb7321c57271749cdaeabf", "is_reserved": 0, "rental_uris": {"android": "https://dc.lft.to/lastmile_qr_scan", "ios": "https://dc.lft.to/lastmile_qr_scan"}, "lat": 38.918164}, {"type": "electric_scooter", "name": "45ad72dde3dd6232373388135df17f69", "fusion_lat": 0.0, "fusion_lon": 0.0, "lon": -77.02719866666666, "is_disabled": 0, "bike_id": "45ad72dde3dd6232373388135df17f69", "is_reserved": 0, "rental_uris": {"android": "https://dc.lft.to/lastmile_qr_scan", "ios": "https://dc.lft.to/lastmile_qr_scan"}, "lat": 38.916716}, {"type": "electric_scooter", "name": "84944925eb043c9926155a546ee159fe", "fusion_lat": 0.0, "fusion_lon": 0.0, "lon": -77.028223, "is_disabled": 0, "bike_id": "84944925eb043c9926155a546ee159fe", "is_reserved": 0, "rental_uris": {"android": "https://dc.lft.to/lastmile_qr_scan", "ios": "https://dc.lft.to/lastmile_qr_scan"}, "lat": 38.909363}, {"type": "electric_scooter", "name": "deef59d60db8d1ac0f7b7425ad66d1d0", "fusion_lat": 0.0, "fusion_lon": 0.0, "lon": -77.02798516666667, "is_disabled": 0, "bike_id": "deef59d60db8d1ac0f7b7425ad66d1d0", "is_reserved": 0, "rental_uris": {"android": "https://dc.lft.to/lastmile_qr_scan", "ios": "https://dc.lft.to/lastmile_qr_scan"}, "lat": 38.896527}, {"type": "electric_scooter", "name": "f0b013f49a374ead27a5aca50efee5dc", "fusion_lat": 0.0, "fusion_lon": 0.0, "lon": -76.99005183333334, "is_disabled": 0, "bike_id": "f0b013f49a374ead27a5aca50efee5dc", "is_reserved": 0, "rental_uris": {"android": "https://dc.lft.to/lastmile_qr_scan", "ios": "https://dc.lft.to/lastmile_qr_scan"}, "lat": 38.86434416666667}, {"type": "electric_scooter", "name": "75e9912eb33fa6ff74a947155123e1cb", "fusion_lat": 0.0, "fusion_lon": 0.0, "lon": -77.02158966666667, "is_disabled": 0, "bike_id": "75e9912eb33fa6ff74a947155123e1cb", "is_reserved": 0, "rental_uris": {"android": "https://dc.lft.to/lastmile_qr_scan", "ios": "https://dc.lft.to/lastmile_qr_scan"}, "lat": 38.9246075}, {"type": "electric_bike", "name": "4cf5810804ec9a8dc3a19056bf65a0d4", "fusion_lat": 0.0, "fusion_lon": 0.0, "lon": -77.129365, "is_disabled": 0, "bike_id": "4cf5810804ec9a8dc3a19056bf65a0d4", "is_reserved": 0, "rental_uris": {"android": "https://dc.lft.to/lastmile_qr_scan", "ios": "https://dc.lft.to/lastmile_qr_scan"}, "lat": 38.86574733333333}, {"type": "electric_scooter", "name": "0010af5b21d3aa8c9ee230a964fd6612", "fusion_lat": 0.0, "fusion_lon": 0.0, "lon": -77.02298616666667, "is_disabled": 0, "bike_id": "0010af5b21d3aa8c9ee230a964fd6612", "is_reserved": 0, "rental_uris": {"android": "https://dc.lft.to/lastmile_qr_scan", "ios": "https://dc.lft.to/lastmile_qr_scan"}, "lat": 38.920846166666664}, {"type": "electric_scooter", "name": "cfdac1133d75af9f1335c740b81bbc85", "fusion_lat": 0.0, "fusion_lon": 0.0, "lon": -77.00931416666667, "is_disabled": 0, "bike_id": "cfdac1133d75af9f1335c740b81bbc85", "is_reserved": 0, "rental_uris": {"android": "https://dc.lft.to/lastmile_qr_scan", "ios": "https://dc.lft.to/lastmile_qr_scan"}, "lat": 38.9213535}, {"type": "electric_scooter", "name": "37f51192de97c0b9b0da4fcd2263e54e", "fusion_lat": 0.0, "fusion_lon": 0.0, "lon": -77.0218225, "is_disabled": 0, "bike_id": "37f51192de97c0b9b0da4fcd2263e54e", "is_reserved": 0, "rental_uris": {"android": "https://dc.lft.to/lastmile_qr_scan", "ios": "https://dc.lft.to/lastmile_qr_scan"}, "lat": 38.91481516666666}, {"type": "electric_scooter", "name": "fd81021f2f4b9bdb5c6454040af7a1ba", "fusion_lat": 0.0, "fusion_lon": 0.0, "lon": -76.929713, "is_disabled": 0, "bike_id": "fd81021f2f4b9bdb5c6454040af7a1ba", "is_reserved": 0, "rental_uris": {"android": "https://dc.lft.to/lastmile_qr_scan", "ios": "https://dc.lft.to/lastmile_qr_scan"}, "lat": 38.896329333333334}, {"type": "electric_scooter", "name": "e943f612cf5e8e16e40e9f52349f5c6b", "fusion_lat": 0.0, "fusion_lon": 0.0, "lon": -77.00350666666667, "is_disabled": 0, "bike_id": "e943f612cf5e8e16e40e9f52349f5c6b", "is_reserved": 0, "rental_uris": {"android": "https://dc.lft.to/lastmile_qr_scan", "ios": "https://dc.lft.to/lastmile_qr_scan"}, "lat": 38.88636016666667}, {"type": "electric_scooter", "name": "e174d9edacc08741035e3751afce0af4", "fusion_lat": 0.0, "fusion_lon": 0.0, "lon": -77.0296435, "is_disabled": 0, "bike_id": "e174d9edacc08741035e3751afce0af4", "is_reserved": 0, "rental_uris": {"android": "https://dc.lft.to/lastmile_qr_scan", "ios": "https://dc.lft.to/lastmile_qr_scan"}, "lat": 38.923199333333336}, {"type": "electric_scooter", "name": "68855b0f5184d52a256bf925d85e1d9c", "fusion_lat": 0.0, "fusion_lon": 0.0, "lon": -77.01498683333334, "is_disabled": 0, "bike_id": "68855b0f5184d52a256bf925d85e1d9c", "is_reserved": 0, "rental_uris": {"android": "https://dc.lft.to/lastmile_qr_scan", "ios": "https://dc.lft.to/lastmile_qr_scan"}, "lat": 38.926689}, {"type": "electric_scooter", "name": "ed4d03dea7530d9273b5ff5bfa8cdb1c", "fusion_lat": 0.0, "fusion_lon": 0.0, "lon": -77.03447033333333, "is_disabled": 0, "bike_id": "ed4d03dea7530d9273b5ff5bfa8cdb1c", "is_reserved": 0, "rental_uris": {"android": "https://dc.lft.to/lastmile_qr_scan", "ios": "https://dc.lft.to/lastmile_qr_scan"}, "lat": 38.9075105}, {"type": "electric_scooter", "name": "44cd196b7ade13c948aa8d49b513d0a8", "fusion_lat": 0.0, "fusion_lon": 0.0, "lon": -77.0686655, "is_disabled": 0, "bike_id": "44cd196b7ade13c948aa8d49b513d0a8", "is_reserved": 0, "rental_uris": {"android": "https://dc.lft.to/lastmile_qr_scan", "ios": "https://dc.lft.to/lastmile_qr_scan"}, "lat": 38.95279033333333}, {"type": "electric_scooter", "name": "3beaba63f9bd3903e1b3a69ed0379233", "fusion_lat": 0.0, "fusion_lon": 0.0, "lon": -77.0417965, "is_disabled": 0, "bike_id": "3beaba63f9bd3903e1b3a69ed0379233", "is_reserved": 0, "rental_uris": {"android": "https://dc.lft.to/lastmile_qr_scan", "ios": "https://dc.lft.to/lastmile_qr_scan"}, "lat": 38.920268}, {"type": "electric_scooter", "name": "d6d48a60a8ad278b10d13da63ae8c281", "fusion_lat": 0.0, "fusion_lon": 0.0, "lon": -77.007613, "is_disabled": 0, "bike_id": "d6d48a60a8ad278b10d13da63ae8c281", "is_reserved": 0, "rental_uris": {"android": "https://dc.lft.to/lastmile_qr_scan", "ios": "https://dc.lft.to/lastmile_qr_scan"}, "lat": 38.90742483333333}, {"type": "electric_scooter", "name": "ae7066a47554250d1c8196a8c870b8f8", "fusion_lat": 0.0, "fusion_lon": 0.0, "lon": -77.005398, "is_disabled": 0, "bike_id": "ae7066a47554250d1c8196a8c870b8f8", "is_reserved": 0, "rental_uris": {"android": "https://dc.lft.to/lastmile_qr_scan", "ios": "https://dc.lft.to/lastmile_qr_scan"}, "lat": 38.90576183333334}, {"type": "electric_scooter", "name": "5e12ce1b09979406a0038df059eb1bca", "fusion_lat": 0.0, "fusion_lon": 0.0, "lon": -77.03128266666667, "is_disabled": 0, "bike_id": "5e12ce1b09979406a0038df059eb1bca", "is_reserved": 0, "rental_uris": {"android": "https://dc.lft.to/lastmile_qr_scan", "ios": "https://dc.lft.to/lastmile_qr_scan"}, "lat": 38.923712}, {"type": "electric_scooter", "name": "c9ee4310ba518249ebc70f7fcdc85c6a", "fusion_lat": 0.0, "fusion_lon": 0.0, "lon": -77.03888733333334, "is_disabled": 0, "bike_id": "c9ee4310ba518249ebc70f7fcdc85c6a", "is_reserved": 0, "rental_uris": {"android": "https://dc.lft.to/lastmile_qr_scan", "ios": "https://dc.lft.to/lastmile_qr_scan"}, "lat": 38.90137983333334}, {"type": "electric_scooter", "name": "4ade28777a0dfd668b43bdecb4f9bd5b", "fusion_lat": 0.0, "fusion_lon": 0.0, "lon": -77.02647, "is_disabled": 0, "bike_id": "4ade28777a0dfd668b43bdecb4f9bd5b", "is_reserved": 0, "rental_uris": {"android": "https://dc.lft.to/lastmile_qr_scan", "ios": "https://dc.lft.to/lastmile_qr_scan"}, "lat": 38.930997833333336}, {"type": "electric_scooter", "name": "06298e3ca42ff1fcac837fcef31f7fe7", "fusion_lat": 0.0, "fusion_lon": 0.0, "lon": -77.01864533333334, "is_disabled": 0, "bike_id": "06298e3ca42ff1fcac837fcef31f7fe7", "is_reserved": 0, "rental_uris": {"android": "https://dc.lft.to/lastmile_qr_scan", "ios": "https://dc.lft.to/lastmile_qr_scan"}, "lat": 38.95149116666666}, {"type": "electric_bike", "name": "170172c563196dd8ab611608d630a3f1", "fusion_lat": 0.0, "fusion_lon": 0.0, "lon": -77.03763216666667, "is_disabled": 0, "bike_id": "170172c563196dd8ab611608d630a3f1", "is_reserved": 0, "rental_uris": {"android": "https://dc.lft.to/lastmile_qr_scan", "ios": "https://dc.lft.to/lastmile_qr_scan"}, "lat": 38.939672}, {"type": "electric_scooter", "name": "0e05b45439ae2219a92c54c8ff5c8a5d", "fusion_lat": 0.0, "fusion_lon": 0.0, "lon": -77.0209725, "is_disabled": 0, "bike_id": "0e05b45439ae2219a92c54c8ff5c8a5d", "is_reserved": 0, "rental_uris": {"android": "https://dc.lft.to/lastmile_qr_scan", "ios": "https://dc.lft.to/lastmile_qr_scan"}, "lat": 38.916365666666664}, {"type": "electric_scooter", "name": "074113ece8632b9bf58758bfb6e5cd0d", "fusion_lat": 0.0, "fusion_lon": 0.0, "lon": -77.022918, "is_disabled": 0, "bike_id": "074113ece8632b9bf58758bfb6e5cd0d", "is_reserved": 0, "rental_uris": {"android": "https://dc.lft.to/lastmile_qr_scan", "ios": "https://dc.lft.to/lastmile_qr_scan"}, "lat": 38.91623116666667}, {"type": "electric_scooter", "name": "3f26752897b5eca068d55c12d919e953", "fusion_lat": 0.0, "fusion_lon": 0.0, "lon": -77.02577983333333, "is_disabled": 0, "bike_id": "3f26752897b5eca068d55c12d919e953", "is_reserved": 0, "rental_uris": {"android": "https://dc.lft.to/lastmile_qr_scan", "ios": "https://dc.lft.to/lastmile_qr_scan"}, "lat": 38.92524316666667}, {"type": "electric_bike", "name": "553702e55889fd6610122ac659ca162a", "fusion_lat": 0.0, "fusion_lon": 0.0, "lon": -77.04302616666666, "is_disabled": 0, "bike_id": "553702e55889fd6610122ac659ca162a", "is_reserved": 0, "rental_uris": {"android": "https://dc.lft.to/lastmile_qr_scan", "ios": "https://dc.lft.to/lastmile_qr_scan"}, "lat": 39.03424233333333}, {"type": "electric_scooter", "name": "7ad530d9f44292414e141cf4ebddcdfb", "fusion_lat": 0.0, "fusion_lon": 0.0, "lon": -77.01758916666667, "is_disabled": 0, "bike_id": "7ad530d9f44292414e141cf4ebddcdfb", "is_reserved": 0, "rental_uris": {"android": "https://dc.lft.to/lastmile_qr_scan", "ios": "https://dc.lft.to/lastmile_qr_scan"}, "lat": 38.87685783333333}, {"type": "electric_scooter", "name": "cc205b758780edd6f0946f7c6bd24ec9", "fusion_lat": 0.0, "fusion_lon": 0.0, "lon": -77.001488, "is_disabled": 0, "bike_id": "cc205b758780edd6f0946f7c6bd24ec9", "is_reserved": 0, "rental_uris": {"android": "https://dc.lft.to/lastmile_qr_scan", "ios": "https://dc.lft.to/lastmile_qr_scan"}, "lat": 38.919118166666664}, {"type": "electric_scooter", "name": "845d15a5fc827fa1ca0ce4f64785827a", "fusion_lat": 0.0, "fusion_lon": 0.0, "lon": -77.03647316666667, "is_disabled": 0, "bike_id": "845d15a5fc827fa1ca0ce4f64785827a", "is_reserved": 0, "rental_uris": {"android": "https://dc.lft.to/lastmile_qr_scan", "ios": "https://dc.lft.to/lastmile_qr_scan"}, "lat": 38.91251333333334}, {"type": "electric_scooter", "name": "5c1cb263f0fdcfdf4842b337f904ca90", "fusion_lat": 0.0, "fusion_lon": 0.0, "lon": -77.02186983333333, "is_disabled": 0, "bike_id": "5c1cb263f0fdcfdf4842b337f904ca90", "is_reserved": 0, "rental_uris": {"android": "https://dc.lft.to/lastmile_qr_scan", "ios": "https://dc.lft.to/lastmile_qr_scan"}, "lat": 38.91483566666667}, {"type": "electric_scooter", "name": "62905980155f4b3f0fe28c9a8d12e4d6", "fusion_lat": 0.0, "fusion_lon": 0.0, "lon": -77.022184, "is_disabled": 0, "bike_id": "62905980155f4b3f0fe28c9a8d12e4d6", "is_reserved": 0, "rental_uris": {"android": "https://dc.lft.to/lastmile_qr_scan", "ios": "https://dc.lft.to/lastmile_qr_scan"}, "lat": 38.89321783333333}, {"type": "electric_scooter", "name": "886726e87d0ff8122126b15ebbb5e8aa", "fusion_lat": 0.0, "fusion_lon": 0.0, "lon": -77.027164, "is_disabled": 0, "bike_id": "886726e87d0ff8122126b15ebbb5e8aa", "is_reserved": 0, "rental_uris": {"android": "https://dc.lft.to/lastmile_qr_scan", "ios": "https://dc.lft.to/lastmile_qr_scan"}, "lat": 38.90951183333333}, {"type": "electric_scooter", "name": "9c2fd555c623e389e9a6c5db0c1469d9", "fusion_lat": 0.0, "fusion_lon": 0.0, "lon": -77.04007866666667, "is_disabled": 0, "bike_id": "9c2fd555c623e389e9a6c5db0c1469d9", "is_reserved": 0, "rental_uris": {"android": "https://dc.lft.to/lastmile_qr_scan", "ios": "https://dc.lft.to/lastmile_qr_scan"}, "lat": 38.91689383333333}, {"type": "electric_scooter", "name": "9cefc1473603ea6a7c6f662ffe8ee742", "fusion_lat": 0.0, "fusion_lon": 0.0, "lon": -77.07455833333333, "is_disabled": 0, "bike_id": "9cefc1473603ea6a7c6f662ffe8ee742", "is_reserved": 0, "rental_uris": {"android": "https://dc.lft.to/lastmile_qr_scan", "ios": "https://dc.lft.to/lastmile_qr_scan"}, "lat": 38.937826}, {"type": "electric_scooter", "name": "959245efbb1429ad9abb45e75cf7d16b", "fusion_lat": 0.0, "fusion_lon": 0.0, "lon": -77.02199033333333, "is_disabled": 0, "bike_id": "959245efbb1429ad9abb45e75cf7d16b", "is_reserved": 0, "rental_uris": {"android": "https://dc.lft.to/lastmile_qr_scan", "ios": "https://dc.lft.to/lastmile_qr_scan"}, "lat": 38.91053933333333}, {"type": "electric_scooter", "name": "b354f7b0c695d26dc3cc427ac1d31819", "fusion_lat": 0.0, "fusion_lon": 0.0, "lon": -77.06078283333333, "is_disabled": 0, "bike_id": "b354f7b0c695d26dc3cc427ac1d31819", "is_reserved": 0, "rental_uris": {"android": "https://dc.lft.to/lastmile_qr_scan", "ios": "https://dc.lft.to/lastmile_qr_scan"}, "lat": 38.940457333333335}, {"type": "electric_scooter", "name": "20cc5f6bf55f7d93e8452772fe25d4f3", "fusion_lat": 0.0, "fusion_lon": 0.0, "lon": -77.07340183333334, "is_disabled": 0, "bike_id": "20cc5f6bf55f7d93e8452772fe25d4f3", "is_reserved": 0, "rental_uris": {"android": "https://dc.lft.to/lastmile_qr_scan", "ios": "https://dc.lft.to/lastmile_qr_scan"}, "lat": 38.96090683333333}, {"type": "electric_scooter", "name": "f0d3e814bac0234cf28aafb69279df03", "fusion_lat": 0.0, "fusion_lon": 0.0, "lon": -77.03861166666667, "is_disabled": 0, "bike_id": "f0d3e814bac0234cf28aafb69279df03", "is_reserved": 0, "rental_uris": {"android": "https://dc.lft.to/lastmile_qr_scan", "ios": "https://dc.lft.to/lastmile_qr_scan"}, "lat": 38.9155775}, {"type": "electric_bike", "name": "39c2444eef3f74ce905a0d99d48adabd", "fusion_lat": 0.0, "fusion_lon": 0.0, "lon": -76.99175766666667, "is_disabled": 0, "bike_id": "39c2444eef3f74ce905a0d99d48adabd", "is_reserved": 0, "rental_uris": {"android": "https://dc.lft.to/lastmile_qr_scan", "ios": "https://dc.lft.to/lastmile_qr_scan"}, "lat": 38.960794666666665}, {"type": "electric_scooter", "name": "3232ccdda0bbe2258a0ce398cefb9e23", "fusion_lat": 0.0, "fusion_lon": 0.0, "lon": -77.05374433333333, "is_disabled": 0, "bike_id": "3232ccdda0bbe2258a0ce398cefb9e23", "is_reserved": 0, "rental_uris": {"android": "https://dc.lft.to/lastmile_qr_scan", "ios": "https://dc.lft.to/lastmile_qr_scan"}, "lat": 38.903650999999996}, {"type": "electric_bike", "name": "5e5eb6238c3550ba15cc33d28ed2440a", "fusion_lat": 0.0, "fusion_lon": 0.0, "lon": -77.01694916666666, "is_disabled": 0, "bike_id": "5e5eb6238c3550ba15cc33d28ed2440a", "is_reserved": 0, "rental_uris": {"android": "https://dc.lft.to/lastmile_qr_scan", "ios": "https://dc.lft.to/lastmile_qr_scan"}, "lat": 38.881113666666664}, {"type": "electric_scooter", "name": "4818d6658a744767d85377bb8be58b10", "fusion_lat": 0.0, "fusion_lon": 0.0, "lon": -77.03299683333333, "is_disabled": 0, "bike_id": "4818d6658a744767d85377bb8be58b10", "is_reserved": 0, "rental_uris": {"android": "https://dc.lft.to/lastmile_qr_scan", "ios": "https://dc.lft.to/lastmile_qr_scan"}, "lat": 38.927563}, {"type": "electric_scooter", "name": "a6163475b686d386f0bcf5427c2e1ef1", "fusion_lat": 0.0, "fusion_lon": 0.0, "lon": -76.94931833333334, "is_disabled": 0, "bike_id": "a6163475b686d386f0bcf5427c2e1ef1", "is_reserved": 0, "rental_uris": {"android": "https://dc.lft.to/lastmile_qr_scan", "ios": "https://dc.lft.to/lastmile_qr_scan"}, "lat": 38.895317166666665}, {"type": "electric_bike", "name": "995a576a0a4f9e2417349a3b4ab473ee", "fusion_lat": 0.0, "fusion_lon": 0.0, "lon": -77.0013865, "is_disabled": 0, "bike_id": "995a576a0a4f9e2417349a3b4ab473ee", "is_reserved": 0, "rental_uris": {"android": "https://dc.lft.to/lastmile_qr_scan", "ios": "https://dc.lft.to/lastmile_qr_scan"}, "lat": 38.99499133333333}, {"type": "electric_scooter", "name": "f04ba1643d50e29355a3ce01ee32e89e", "fusion_lat": 0.0, "fusion_lon": 0.0, "lon": -77.02189033333333, "is_disabled": 0, "bike_id": "f04ba1643d50e29355a3ce01ee32e89e", "is_reserved": 0, "rental_uris": {"android": "https://dc.lft.to/lastmile_qr_scan", "ios": "https://dc.lft.to/lastmile_qr_scan"}, "lat": 38.905453333333334}, {"type": "electric_scooter", "name": "35b1588c12325827e082b3edbd70eb6a", "fusion_lat": 0.0, "fusion_lon": 0.0, "lon": -77.0312355, "is_disabled": 0, "bike_id": "35b1588c12325827e082b3edbd70eb6a", "is_reserved": 0, "rental_uris": {"android": "https://dc.lft.to/lastmile_qr_scan", "ios": "https://dc.lft.to/lastmile_qr_scan"}, "lat": 38.923055}, {"type": "electric_scooter", "name": "fb7fcbe2f3132b7adb04e06826b1eb27", "fusion_lat": 0.0, "fusion_lon": 0.0, "lon": -77.01750083333333, "is_disabled": 0, "bike_id": "fb7fcbe2f3132b7adb04e06826b1eb27", "is_reserved": 0, "rental_uris": {"android": "https://dc.lft.to/lastmile_qr_scan", "ios": "https://dc.lft.to/lastmile_qr_scan"}, "lat": 38.90261783333333}, {"type": "electric_scooter", "name": "4728859ec5dfdc007845d47d93b58349", "fusion_lat": 0.0, "fusion_lon": 0.0, "lon": -76.99793316666667, "is_disabled": 0, "bike_id": "4728859ec5dfdc007845d47d93b58349", "is_reserved": 0, "rental_uris": {"android": "https://dc.lft.to/lastmile_qr_scan", "ios": "https://dc.lft.to/lastmile_qr_scan"}, "lat": 38.87632716666667}, {"type": "electric_bike", "name": "289562f5afad5ee7a22ff28486945138", "fusion_lat": 0.0, "fusion_lon": 0.0, "lon": -76.95795166666667, "is_disabled": 0, "bike_id": "289562f5afad5ee7a22ff28486945138", "is_reserved": 0, "rental_uris": {"android": "https://dc.lft.to/lastmile_qr_scan", "ios": "https://dc.lft.to/lastmile_qr_scan"}, "lat": 38.98042933333333}, {"type": "electric_scooter", "name": "8fabb2129e1f1872533e2e9cd91904e0", "fusion_lat": 0.0, "fusion_lon": 0.0, "lon": -76.97568383333333, "is_disabled": 0, "bike_id": "8fabb2129e1f1872533e2e9cd91904e0", "is_reserved": 0, "rental_uris": {"android": "https://dc.lft.to/lastmile_qr_scan", "ios": "https://dc.lft.to/lastmile_qr_scan"}, "lat": 38.9442325}, {"type": "electric_scooter", "name": "9b93a932942d3b6d448576a5a5ba3ed6", "fusion_lat": 0.0, "fusion_lon": 0.0, "lon": -77.02156083333334, "is_disabled": 0, "bike_id": "9b93a932942d3b6d448576a5a5ba3ed6", "is_reserved": 0, "rental_uris": {"android": "https://dc.lft.to/lastmile_qr_scan", "ios": "https://dc.lft.to/lastmile_qr_scan"}, "lat": 38.94134783333333}, {"type": "electric_scooter", "name": "d0c1ce8d73f2d0c13b861e4989e27230", "fusion_lat": 0.0, "fusion_lon": 0.0, "lon": -77.07135716666667, "is_disabled": 0, "bike_id": "d0c1ce8d73f2d0c13b861e4989e27230", "is_reserved": 0, "rental_uris": {"android": "https://dc.lft.to/lastmile_qr_scan", "ios": "https://dc.lft.to/lastmile_qr_scan"}, "lat": 38.92621066666667}, {"type": "electric_scooter", "name": "cd5db6fcfa3b1934a0a6fcec9673b0bb", "fusion_lat": 0.0, "fusion_lon": 0.0, "lon": -77.001962, "is_disabled": 0, "bike_id": "cd5db6fcfa3b1934a0a6fcec9673b0bb", "is_reserved": 0, "rental_uris": {"android": "https://dc.lft.to/lastmile_qr_scan", "ios": "https://dc.lft.to/lastmile_qr_scan"}, "lat": 38.9003705}, {"type": "electric_scooter", "name": "01e99f9c77303ca13d960319c3320963", "fusion_lat": 0.0, "fusion_lon": 0.0, "lon": -77.01645616666667, "is_disabled": 0, "bike_id": "01e99f9c77303ca13d960319c3320963", "is_reserved": 0, "rental_uris": {"android": "https://dc.lft.to/lastmile_qr_scan", "ios": "https://dc.lft.to/lastmile_qr_scan"}, "lat": 38.9293815}, {"type": "electric_scooter", "name": "2002d461230311fa738f4c435cf11e06", "fusion_lat": 0.0, "fusion_lon": 0.0, "lon": -77.01638116666666, "is_disabled": 0, "bike_id": "2002d461230311fa738f4c435cf11e06", "is_reserved": 0, "rental_uris": {"android": "https://dc.lft.to/lastmile_qr_scan", "ios": "https://dc.lft.to/lastmile_qr_scan"}, "lat": 38.905583}, {"type": "electric_scooter", "name": "df289cb1875d6b5e33fbdcb610acafcc", "fusion_lat": 0.0, "fusion_lon": 0.0, "lon": -76.94651633333334, "is_disabled": 0, "bike_id": "df289cb1875d6b5e33fbdcb610acafcc", "is_reserved": 0, "rental_uris": {"android": "https://dc.lft.to/lastmile_qr_scan", "ios": "https://dc.lft.to/lastmile_qr_scan"}, "lat": 38.8982655}, {"type": "electric_scooter", "name": "7aefdb0455900b287fd734341fa1a45b", "fusion_lat": 0.0, "fusion_lon": 0.0, "lon": -77.03437066666666, "is_disabled": 0, "bike_id": "7aefdb0455900b287fd734341fa1a45b", "is_reserved": 0, "rental_uris": {"android": "https://dc.lft.to/lastmile_qr_scan", "ios": "https://dc.lft.to/lastmile_qr_scan"}, "lat": 38.91795283333333}, {"type": "electric_scooter", "name": "052f2bb4273ba436e85374a22aa0a743", "fusion_lat": 0.0, "fusion_lon": 0.0, "lon": -77.03187333333334, "is_disabled": 0, "bike_id": "052f2bb4273ba436e85374a22aa0a743", "is_reserved": 0, "rental_uris": {"android": "https://dc.lft.to/lastmile_qr_scan", "ios": "https://dc.lft.to/lastmile_qr_scan"}, "lat": 38.91822166666667}, {"type": "electric_scooter", "name": "a80c641f467177702490718e92bf4112", "fusion_lat": 0.0, "fusion_lon": 0.0, "lon": -77.017068, "is_disabled": 0, "bike_id": "a80c641f467177702490718e92bf4112", "is_reserved": 0, "rental_uris": {"android": "https://dc.lft.to/lastmile_qr_scan", "ios": "https://dc.lft.to/lastmile_qr_scan"}, "lat": 38.902280833333336}, {"type": "electric_scooter", "name": "26342fda459b355e458d49381847a980", "fusion_lat": 0.0, "fusion_lon": 0.0, "lon": -77.0181345, "is_disabled": 0, "bike_id": "26342fda459b355e458d49381847a980", "is_reserved": 0, "rental_uris": {"android": "https://dc.lft.to/lastmile_qr_scan", "ios": "https://dc.lft.to/lastmile_qr_scan"}, "lat": 38.9222605}, {"type": "electric_scooter", "name": "7f94f99fd66ff318a6a50b01ce6bc66d", "fusion_lat": 0.0, "fusion_lon": 0.0, "lon": -77.02178533333333, "is_disabled": 0, "bike_id": "7f94f99fd66ff318a6a50b01ce6bc66d", "is_reserved": 0, "rental_uris": {"android": "https://dc.lft.to/lastmile_qr_scan", "ios": "https://dc.lft.to/lastmile_qr_scan"}, "lat": 38.91997116666667}, {"type": "electric_scooter", "name": "1cb8f37589c50ca2ccfbf3e6edf4f544", "fusion_lat": 0.0, "fusion_lon": 0.0, "lon": -77.03582166666666, "is_disabled": 0, "bike_id": "1cb8f37589c50ca2ccfbf3e6edf4f544", "is_reserved": 0, "rental_uris": {"android": "https://dc.lft.to/lastmile_qr_scan", "ios": "https://dc.lft.to/lastmile_qr_scan"}, "lat": 38.92791366666667}, {"type": "electric_scooter", "name": "965fd30d161737e93549da11ca6e2833", "fusion_lat": 0.0, "fusion_lon": 0.0, "lon": -77.0154635, "is_disabled": 0, "bike_id": "965fd30d161737e93549da11ca6e2833", "is_reserved": 0, "rental_uris": {"android": "https://dc.lft.to/lastmile_qr_scan", "ios": "https://dc.lft.to/lastmile_qr_scan"}, "lat": 38.90259316666667}, {"type": "electric_scooter", "name": "59b05b70068f1f12529eccdaf483f2b1", "fusion_lat": 0.0, "fusion_lon": 0.0, "lon": -77.0184835, "is_disabled": 0, "bike_id": "59b05b70068f1f12529eccdaf483f2b1", "is_reserved": 0, "rental_uris": {"android": "https://dc.lft.to/lastmile_qr_scan", "ios": "https://dc.lft.to/lastmile_qr_scan"}, "lat": 38.899429833333336}, {"type": "electric_bike", "name": "0e9ead885afbd7bc6ef8d0ca71b889ed", "fusion_lat": 0.0, "fusion_lon": 0.0, "lon": -77.10719116666667, "is_disabled": 0, "bike_id": "0e9ead885afbd7bc6ef8d0ca71b889ed", "is_reserved": 0, "rental_uris": {"android": "https://dc.lft.to/lastmile_qr_scan", "ios": "https://dc.lft.to/lastmile_qr_scan"}, "lat": 38.85530966666666}, {"type": "electric_scooter", "name": "2aa9ab49ac900d670a9c12a363cbff53", "fusion_lat": 0.0, "fusion_lon": 0.0, "lon": -77.02142766666667, "is_disabled": 0, "bike_id": "2aa9ab49ac900d670a9c12a363cbff53", "is_reserved": 0, "rental_uris": {"android": "https://dc.lft.to/lastmile_qr_scan", "ios": "https://dc.lft.to/lastmile_qr_scan"}, "lat": 38.927437833333336}, {"type": "electric_scooter", "name": "b28589c0a049e25816ba9ccaa8d39ac3", "fusion_lat": 0.0, "fusion_lon": 0.0, "lon": -77.02358066666666, "is_disabled": 0, "bike_id": "b28589c0a049e25816ba9ccaa8d39ac3", "is_reserved": 0, "rental_uris": {"android": "https://dc.lft.to/lastmile_qr_scan", "ios": "https://dc.lft.to/lastmile_qr_scan"}, "lat": 38.920522166666665}, {"type": "electric_scooter", "name": "d67f0ab1db88b585880deb66758825c6", "fusion_lat": 0.0, "fusion_lon": 0.0, "lon": -76.983684, "is_disabled": 0, "bike_id": "d67f0ab1db88b585880deb66758825c6", "is_reserved": 0, "rental_uris": {"android": "https://dc.lft.to/lastmile_qr_scan", "ios": "https://dc.lft.to/lastmile_qr_scan"}, "lat": 38.922016666666664}, {"type": "electric_scooter", "name": "8428c36c83d7abcbc3a6a855a0a1276b", "fusion_lat": 0.0, "fusion_lon": 0.0, "lon": -77.03980066666666, "is_disabled": 0, "bike_id": "8428c36c83d7abcbc3a6a855a0a1276b", "is_reserved": 0, "rental_uris": {"android": "https://dc.lft.to/lastmile_qr_scan", "ios": "https://dc.lft.to/lastmile_qr_scan"}, "lat": 38.902846833333335}, {"type": "electric_scooter", "name": "e2158e679df82758f631cc2c8683f1f2", "fusion_lat": 0.0, "fusion_lon": 0.0, "lon": -76.92658, "is_disabled": 0, "bike_id": "e2158e679df82758f631cc2c8683f1f2", "is_reserved": 0, "rental_uris": {"android": "https://dc.lft.to/lastmile_qr_scan", "ios": "https://dc.lft.to/lastmile_qr_scan"}, "lat": 38.88252333333333}, {"type": "electric_scooter", "name": "52adf4631c1fcf3370eb8fd460ebe51e", "fusion_lat": 0.0, "fusion_lon": 0.0, "lon": -77.01952383333334, "is_disabled": 0, "bike_id": "52adf4631c1fcf3370eb8fd460ebe51e", "is_reserved": 0, "rental_uris": {"android": "https://dc.lft.to/lastmile_qr_scan", "ios": "https://dc.lft.to/lastmile_qr_scan"}, "lat": 38.93041216666667}, {"type": "electric_scooter", "name": "a1890568c3d75ee27bc806cb56506f7c", "fusion_lat": 0.0, "fusion_lon": 0.0, "lon": -77.04863983333334, "is_disabled": 0, "bike_id": "a1890568c3d75ee27bc806cb56506f7c", "is_reserved": 0, "rental_uris": {"android": "https://dc.lft.to/lastmile_qr_scan", "ios": "https://dc.lft.to/lastmile_qr_scan"}, "lat": 38.91271}, {"type": "electric_scooter", "name": "a6eeee7ffca2e0bfd0df1a604bdb8334", "fusion_lat": 0.0, "fusion_lon": 0.0, "lon": -77.02722516666667, "is_disabled": 0, "bike_id": "a6eeee7ffca2e0bfd0df1a604bdb8334", "is_reserved": 0, "rental_uris": {"android": "https://dc.lft.to/lastmile_qr_scan", "ios": "https://dc.lft.to/lastmile_qr_scan"}, "lat": 38.9339475}, {"type": "electric_scooter", "name": "42fc32cfe7fd7d23741610682be06760", "fusion_lat": 0.0, "fusion_lon": 0.0, "lon": -77.00561016666667, "is_disabled": 0, "bike_id": "42fc32cfe7fd7d23741610682be06760", "is_reserved": 0, "rental_uris": {"android": "https://dc.lft.to/lastmile_qr_scan", "ios": "https://dc.lft.to/lastmile_qr_scan"}, "lat": 38.875539833333335}, {"type": "electric_scooter", "name": "f53ebc8e80253fe785a17a7d28630bd5", "fusion_lat": 0.0, "fusion_lon": 0.0, "lon": -77.02416633333333, "is_disabled": 0, "bike_id": "f53ebc8e80253fe785a17a7d28630bd5", "is_reserved": 0, "rental_uris": {"android": "https://dc.lft.to/lastmile_qr_scan", "ios": "https://dc.lft.to/lastmile_qr_scan"}, "lat": 38.920357833333334}, {"type": "electric_scooter", "name": "ec6e33ca94650b70224a7e8e0a53a38e", "fusion_lat": 0.0, "fusion_lon": 0.0, "lon": -76.94890133333334, "is_disabled": 0, "bike_id": "ec6e33ca94650b70224a7e8e0a53a38e", "is_reserved": 0, "rental_uris": {"android": "https://dc.lft.to/lastmile_qr_scan", "ios": "https://dc.lft.to/lastmile_qr_scan"}, "lat": 38.895357}, {"type": "electric_scooter", "name": "3a587315ce2a7b6f3f89711cd09f7dee", "fusion_lat": 0.0, "fusion_lon": 0.0, "lon": -77.00242316666667, "is_disabled": 0, "bike_id": "3a587315ce2a7b6f3f89711cd09f7dee", "is_reserved": 0, "rental_uris": {"android": "https://dc.lft.to/lastmile_qr_scan", "ios": "https://dc.lft.to/lastmile_qr_scan"}, "lat": 38.900468000000004}, {"type": "electric_scooter", "name": "a2afcea9e436b04afd0bc7464f2c560e", "fusion_lat": 0.0, "fusion_lon": 0.0, "lon": -77.022703, "is_disabled": 0, "bike_id": "a2afcea9e436b04afd0bc7464f2c560e", "is_reserved": 0, "rental_uris": {"android": "https://dc.lft.to/lastmile_qr_scan", "ios": "https://dc.lft.to/lastmile_qr_scan"}, "lat": 38.924639}, {"type": "electric_scooter", "name": "b88939266a51abeacb38be160a014764", "fusion_lat": 0.0, "fusion_lon": 0.0, "lon": -77.034679, "is_disabled": 0, "bike_id": "b88939266a51abeacb38be160a014764", "is_reserved": 0, "rental_uris": {"android": "https://dc.lft.to/lastmile_qr_scan", "ios": "https://dc.lft.to/lastmile_qr_scan"}, "lat": 38.91183933333333}, {"type": "electric_scooter", "name": "1e03ae700ba5158f679d8eaef6d7fddb", "fusion_lat": 0.0, "fusion_lon": 0.0, "lon": -77.04524016666667, "is_disabled": 0, "bike_id": "1e03ae700ba5158f679d8eaef6d7fddb", "is_reserved": 0, "rental_uris": {"android": "https://dc.lft.to/lastmile_qr_scan", "ios": "https://dc.lft.to/lastmile_qr_scan"}, "lat": 38.91819066666667}, {"type": "electric_scooter", "name": "59df3ac77b3275ac46a8d7b7da628b30", "fusion_lat": 0.0, "fusion_lon": 0.0, "lon": -77.03262533333333, "is_disabled": 0, "bike_id": "59df3ac77b3275ac46a8d7b7da628b30", "is_reserved": 0, "rental_uris": {"android": "https://dc.lft.to/lastmile_qr_scan", "ios": "https://dc.lft.to/lastmile_qr_scan"}, "lat": 38.9373615}, {"type": "electric_scooter", "name": "093847e78dbbe494572bd21c1fa89f13", "fusion_lat": 0.0, "fusion_lon": 0.0, "lon": -77.0529575, "is_disabled": 0, "bike_id": "093847e78dbbe494572bd21c1fa89f13", "is_reserved": 0, "rental_uris": {"android": "https://dc.lft.to/lastmile_qr_scan", "ios": "https://dc.lft.to/lastmile_qr_scan"}, "lat": 38.902708}, {"type": "electric_scooter", "name": "5dc136c0e443b85f49ea9a748f141618", "fusion_lat": 0.0, "fusion_lon": 0.0, "lon": -77.02954383333334, "is_disabled": 0, "bike_id": "5dc136c0e443b85f49ea9a748f141618", "is_reserved": 0, "rental_uris": {"android": "https://dc.lft.to/lastmile_qr_scan", "ios": "https://dc.lft.to/lastmile_qr_scan"}, "lat": 38.9168365}, {"type": "electric_scooter", "name": "5bf6c9efc03478c417e5992dc3c40e20", "fusion_lat": 0.0, "fusion_lon": 0.0, "lon": -77.05968533333333, "is_disabled": 0, "bike_id": "5bf6c9efc03478c417e5992dc3c40e20", "is_reserved": 0, "rental_uris": {"android": "https://dc.lft.to/lastmile_qr_scan", "ios": "https://dc.lft.to/lastmile_qr_scan"}, "lat": 38.9283865}, {"type": "electric_bike", "name": "a0f0065d19d6de789fa2f719727474c7", "fusion_lat": 0.0, "fusion_lon": 0.0, "lon": -76.99913466666666, "is_disabled": 0, "bike_id": "a0f0065d19d6de789fa2f719727474c7", "is_reserved": 0, "rental_uris": {"android": "https://dc.lft.to/lastmile_qr_scan", "ios": "https://dc.lft.to/lastmile_qr_scan"}, "lat": 38.864455166666666}, {"type": "electric_scooter", "name": "9e8be6efa7d5955874ee5049a484b6b3", "fusion_lat": 0.0, "fusion_lon": 0.0, "lon": -77.031716, "is_disabled": 0, "bike_id": "9e8be6efa7d5955874ee5049a484b6b3", "is_reserved": 0, "rental_uris": {"android": "https://dc.lft.to/lastmile_qr_scan", "ios": "https://dc.lft.to/lastmile_qr_scan"}, "lat": 38.92866133333333}, {"type": "electric_scooter", "name": "2a0d67c0a7694ba52f2806f551df3e3e", "fusion_lat": 0.0, "fusion_lon": 0.0, "lon": -76.9338835, "is_disabled": 0, "bike_id": "2a0d67c0a7694ba52f2806f551df3e3e", "is_reserved": 0, "rental_uris": {"android": "https://dc.lft.to/lastmile_qr_scan", "ios": "https://dc.lft.to/lastmile_qr_scan"}, "lat": 38.899096}, {"type": "electric_scooter", "name": "17814cbbabd7098d4864fc52cc40e777", "fusion_lat": 0.0, "fusion_lon": 0.0, "lon": -77.02024683333333, "is_disabled": 0, "bike_id": "17814cbbabd7098d4864fc52cc40e777", "is_reserved": 0, "rental_uris": {"android": "https://dc.lft.to/lastmile_qr_scan", "ios": "https://dc.lft.to/lastmile_qr_scan"}, "lat": 38.93411166666667}, {"type": "electric_scooter", "name": "e7ad9be0d93b2ea597904360dab85d77", "fusion_lat": 0.0, "fusion_lon": 0.0, "lon": -77.03503416666666, "is_disabled": 0, "bike_id": "e7ad9be0d93b2ea597904360dab85d77", "is_reserved": 0, "rental_uris": {"android": "https://dc.lft.to/lastmile_qr_scan", "ios": "https://dc.lft.to/lastmile_qr_scan"}, "lat": 38.92342816666667}, {"type": "electric_bike", "name": "b3901b912c4e73893bfe9e88f3dc9250", "fusion_lat": 0.0, "fusion_lon": 0.0, "lon": -77.00416416666667, "is_disabled": 0, "bike_id": "b3901b912c4e73893bfe9e88f3dc9250", "is_reserved": 0, "rental_uris": {"android": "https://dc.lft.to/lastmile_qr_scan", "ios": "https://dc.lft.to/lastmile_qr_scan"}, "lat": 38.985254166666664}, {"type": "electric_scooter", "name": "cf45972d00ef63b1cdb3a7a746f0bf63", "fusion_lat": 0.0, "fusion_lon": 0.0, "lon": -77.03454916666666, "is_disabled": 0, "bike_id": "cf45972d00ef63b1cdb3a7a746f0bf63", "is_reserved": 0, "rental_uris": {"android": "https://dc.lft.to/lastmile_qr_scan", "ios": "https://dc.lft.to/lastmile_qr_scan"}, "lat": 38.907141333333335}, {"type": "electric_scooter", "name": "6eacb67d7813a258515d8e8965525ed0", "fusion_lat": 0.0, "fusion_lon": 0.0, "lon": -77.00382916666666, "is_disabled": 0, "bike_id": "6eacb67d7813a258515d8e8965525ed0", "is_reserved": 0, "rental_uris": {"android": "https://dc.lft.to/lastmile_qr_scan", "ios": "https://dc.lft.to/lastmile_qr_scan"}, "lat": 38.87933616666667}, {"type": "electric_scooter", "name": "69b65a8265885106daadf43d717ca5eb", "fusion_lat": 0.0, "fusion_lon": 0.0, "lon": -77.03259833333334, "is_disabled": 0, "bike_id": "69b65a8265885106daadf43d717ca5eb", "is_reserved": 0, "rental_uris": {"android": "https://dc.lft.to/lastmile_qr_scan", "ios": "https://dc.lft.to/lastmile_qr_scan"}, "lat": 38.93306483333333}, {"type": "electric_scooter", "name": "24ca31b7f118190e84a5b68b91b528e6", "fusion_lat": 0.0, "fusion_lon": 0.0, "lon": -77.01457716666667, "is_disabled": 0, "bike_id": "24ca31b7f118190e84a5b68b91b528e6", "is_reserved": 0, "rental_uris": {"android": "https://dc.lft.to/lastmile_qr_scan", "ios": "https://dc.lft.to/lastmile_qr_scan"}, "lat": 38.917763}, {"type": "electric_scooter", "name": "bbd1afa95c500cd2b92abbf4ff2f0a6b", "fusion_lat": 0.0, "fusion_lon": 0.0, "lon": -77.02731516666667, "is_disabled": 0, "bike_id": "bbd1afa95c500cd2b92abbf4ff2f0a6b", "is_reserved": 0, "rental_uris": {"android": "https://dc.lft.to/lastmile_qr_scan", "ios": "https://dc.lft.to/lastmile_qr_scan"}, "lat": 38.9237925}, {"type": "electric_scooter", "name": "cd7dd9cc64c2fe5c27ae07d8966ade78", "fusion_lat": 0.0, "fusion_lon": 0.0, "lon": -77.035336, "is_disabled": 0, "bike_id": "cd7dd9cc64c2fe5c27ae07d8966ade78", "is_reserved": 0, "rental_uris": {"android": "https://dc.lft.to/lastmile_qr_scan", "ios": "https://dc.lft.to/lastmile_qr_scan"}, "lat": 38.924682833333335}, {"type": "electric_scooter", "name": "8ef3be9e06ae3019d964ffccb11425e0", "fusion_lat": 0.0, "fusion_lon": 0.0, "lon": -77.03198216666667, "is_disabled": 0, "bike_id": "8ef3be9e06ae3019d964ffccb11425e0", "is_reserved": 0, "rental_uris": {"android": "https://dc.lft.to/lastmile_qr_scan", "ios": "https://dc.lft.to/lastmile_qr_scan"}, "lat": 38.884679}, {"type": "electric_scooter", "name": "db3d313854e8070c6c1e48792b8603d3", "fusion_lat": 0.0, "fusion_lon": 0.0, "lon": -77.02478566666667, "is_disabled": 0, "bike_id": "db3d313854e8070c6c1e48792b8603d3", "is_reserved": 0, "rental_uris": {"android": "https://dc.lft.to/lastmile_qr_scan", "ios": "https://dc.lft.to/lastmile_qr_scan"}, "lat": 38.93848666666667}, {"type": "electric_scooter", "name": "51119af86f3518ee336337456e924285", "fusion_lat": 0.0, "fusion_lon": 0.0, "lon": -77.04763416666667, "is_disabled": 0, "bike_id": "51119af86f3518ee336337456e924285", "is_reserved": 0, "rental_uris": {"android": "https://dc.lft.to/lastmile_qr_scan", "ios": "https://dc.lft.to/lastmile_qr_scan"}, "lat": 38.940973666666665}, {"type": "electric_bike", "name": "ddc8b1edc91e8e05e87af966a205834d", "fusion_lat": 0.0, "fusion_lon": 0.0, "lon": -76.90737716666666, "is_disabled": 0, "bike_id": "ddc8b1edc91e8e05e87af966a205834d", "is_reserved": 0, "rental_uris": {"android": "https://dc.lft.to/lastmile_qr_scan", "ios": "https://dc.lft.to/lastmile_qr_scan"}, "lat": 38.89621116666667}, {"type": "electric_scooter", "name": "db788c1f7b7b5f04a78cc4a3be7a9711", "fusion_lat": 0.0, "fusion_lon": 0.0, "lon": -77.03187683333333, "is_disabled": 0, "bike_id": "db788c1f7b7b5f04a78cc4a3be7a9711", "is_reserved": 0, "rental_uris": {"android": "https://dc.lft.to/lastmile_qr_scan", "ios": "https://dc.lft.to/lastmile_qr_scan"}, "lat": 38.91421866666666}, {"type": "electric_scooter", "name": "cb106e28365f17b160ebfb6977e42b04", "fusion_lat": 0.0, "fusion_lon": 0.0, "lon": -77.00737216666667, "is_disabled": 0, "bike_id": "cb106e28365f17b160ebfb6977e42b04", "is_reserved": 0, "rental_uris": {"android": "https://dc.lft.to/lastmile_qr_scan", "ios": "https://dc.lft.to/lastmile_qr_scan"}, "lat": 38.9252805}, {"type": "electric_scooter", "name": "cabfe4a83015e214bbb0e7694b4fd83b", "fusion_lat": 0.0, "fusion_lon": 0.0, "lon": -77.02059516666667, "is_disabled": 0, "bike_id": "cabfe4a83015e214bbb0e7694b4fd83b", "is_reserved": 0, "rental_uris": {"android": "https://dc.lft.to/lastmile_qr_scan", "ios": "https://dc.lft.to/lastmile_qr_scan"}, "lat": 38.908479166666666}, {"type": "electric_scooter", "name": "d7fb7c7619a63c2ea3a4fc06a5419217", "fusion_lat": 0.0, "fusion_lon": 0.0, "lon": -77.02804333333333, "is_disabled": 0, "bike_id": "d7fb7c7619a63c2ea3a4fc06a5419217", "is_reserved": 0, "rental_uris": {"android": "https://dc.lft.to/lastmile_qr_scan", "ios": "https://dc.lft.to/lastmile_qr_scan"}, "lat": 38.93081433333333}, {"type": "electric_scooter", "name": "0d3f3bd831cb74410f5b48a4d8846827", "fusion_lat": 0.0, "fusion_lon": 0.0, "lon": -77.00533016666667, "is_disabled": 0, "bike_id": "0d3f3bd831cb74410f5b48a4d8846827", "is_reserved": 0, "rental_uris": {"android": "https://dc.lft.to/lastmile_qr_scan", "ios": "https://dc.lft.to/lastmile_qr_scan"}, "lat": 38.874705166666665}, {"type": "electric_scooter", "name": "17e4782157825f21d8d472213e0d28af", "fusion_lat": 0.0, "fusion_lon": 0.0, "lon": -77.00824816666666, "is_disabled": 0, "bike_id": "17e4782157825f21d8d472213e0d28af", "is_reserved": 0, "rental_uris": {"android": "https://dc.lft.to/lastmile_qr_scan", "ios": "https://dc.lft.to/lastmile_qr_scan"}, "lat": 38.9137435},