{"data": {"bikes": [{"fusion_lat": 0.0, "name": "921a438318eceb2a05c8c8be680b2d92", "lon": -76.98967, "rental_uris": {"android": "https://dc.lft.to/lastmile_qr_scan", "ios": "https://dc.lft.to/lastmile_qr_scan"}, "fusion_lon": 0.0, "bike_id": "921a438318eceb2a05c8c8be680b2d92", "is_disabled": 0, "lat": 38.88764116666667, "is_reserved": 0, "type": "electric_scooter"}, {"fusion_lat": 0.0, "name": "2e26b7eea71ca6931f7493745ae470b1", "lon": -76.93173066666667, "rental_uris": {"android": "https://dc.lft.to/lastmile_qr_scan", "ios": "https://dc.lft.to/lastmile_qr_scan"}, "fusion_lon": 0.0, "bike_id": "2e26b7eea71ca6931f7493745ae470b1", "is_disabled": 0, "lat": 38.898816, "is_reserved": 0, "type": "electric_scooter"}, {"fusion_lat": 0.0, "name": "ec78398db73e2f6380d7c9efd39c85da", "lon": -77.02300966666667, "rental_uris": {"android": "https://dc.lft.to/lastmile_qr_scan", "ios": "https://dc.lft.to/lastmile_qr_scan"}, "fusion_lon": 0.0, "bike_id": "ec78398db73e2f6380d7c9efd39c85da", "is_disabled": 0, "lat": 38.940902333333334, "is_reserved": 0, "type": "electric_scooter"}, {"fusion_lat": 0.0, "name": "bfd640b62eba2e8d5e53735c912ace66", "lon": -76.933781, "rental_uris": {"android": "https://dc.lft.to/lastmile_qr_scan", "ios": "https://dc.lft.to/lastmile_qr_scan"}, "fusion_lon": 0.0, "bike_id": "bfd640b62eba2e8d5e53735c912ace66", "is_disabled": 0, "lat": 38.8991295, "is_reserved": 0, "type": "electric_scooter"}, {"fusion_lat": 0.0, "name": "d338a249379cf25a84d7b996b340c908", "lon": -77.034188, "rental_uris": {"android": "https://dc.lft.to/lastmile_qr_scan", "ios": "https://dc.lft.to/lastmile_qr_scan"}, "fusion_lon": 0.0, "bike_id": "d338a249379cf25a84d7b996b340c908", "is_disabled": 0, "lat": 38.932506833333335, "is_reserved": 0, "type": "electric_scooter"}, {"fusion_lat": 0.0, "name": "4589831b274be177d690e799f0eb769f", "lon": -76.97393883333334, "rental_uris": {"android": "https://dc.lft.to/lastmile_qr_scan", "ios": "https://dc.lft.to/lastmile_qr_scan"}, "fusion_lon": 0.0, "bike_id": "4589831b274be177d690e799f0eb769f", "is_disabled": 0, "lat": 38.905527, "is_reserved": 0, "type": "electric_scooter"}, {"fusion_lat": 0.0, "name": "9c04756d6632b5a84276f68177f96302", "lon": -77.04915216666667, "rental_uris": {"android": "https://dc.lft.to/lastmile_qr_scan", "ios": "https://dc.lft.to/lastmile_qr_scan"}, "fusion_lon": 0.0, "bike_id": "9c04756d6632b5a84276f68177f96302", "is_disabled": 0, "lat": 38.911742333333336, "is_reserved": 0, "type": "electric_scooter"}, {"fusion_lat": 0.0, "name": "995b155a00bfe665be3766429fef4a05", "lon": -77.0437115, "rental_uris": {"android": "https://dc.lft.to/lastmile_qr_scan", "ios": "https://dc.lft.to/lastmile_qr_scan"}, "fusion_lon": 0.0, "bike_id": "995b155a00bfe665be3766429fef4a05", "is_disabled": 0, "lat": 38.90716533333333, "is_reserved": 0, "type": "electric_scooter"}, {"fusion_lat": 0.0, "name": "257236bf0ec5af6e33dd3ec44e5ca6b3", "lon": -77.02983816666666, "rental_uris": {"android": "https://dc.lft.to/lastmile_qr_scan", "ios": "https://dc.lft.to/lastmile_qr_scan"}, "fusion_lon": 0.0, "bike_id": "257236bf0ec5af6e33dd3ec44e5ca6b3", "is_disabled": 0, "lat": 38.917067833333334, "is_reserved": 0, "type": "electric_scooter"}, {"fusion_lat": 0.0, "name": "8ec826936b9d5e157a2a75dd99792c91", "lon": -77.034503, "rental_uris": {"android": "https://dc.lft.to/lastmile_qr_scan", "ios": "https://dc.lft.to/lastmile_qr_scan"}, "fusion_lon": 0.0, "bike_id": "8ec826936b9d5e157a2a75dd99792c91", "is_disabled": 0, "lat": 38.91033133333333, "is_reserved": 0, "type": "electric_scooter"}, {"fusion_lat": 0.0, "name": "96220afef1960f3cdd6a90033fe82643", "lon": -77.18743033333334, "rental_uris": {"android": "https://dc.lft.to/lastmile_qr_scan", "ios": "https://dc.lft.to/lastmile_qr_scan"}, "fusion_lon": 0.0, "bike_id": "96220afef1960f3cdd6a90033fe82643", "is_disabled": 0, "lat": 38.893449333333336, "is_reserved": 0, "type": "electric_bike"}, {"fusion_lat": 0.0, "name": "aa2856c51ba9777bfc0bee099e1f9928", "lon": -77.0383845, "rental_uris": {"android": "https://dc.lft.to/lastmile_qr_scan", "ios": "https://dc.lft.to/lastmile_qr_scan"}, "fusion_lon": 0.0, "bike_id": "aa2856c51ba9777bfc0bee099e1f9928", "is_disabled": 0, "lat": 38.921652333333334, "is_reserved": 0, "type": "electric_scooter"}, {"fusion_lat": 0.0, "name": "91ac632b7e6b6077e1122b021f0d7cf7", "lon": -76.94635, "rental_uris": {"android": "https://dc.lft.to/lastmile_qr_scan", "ios": "https://dc.lft.to/lastmile_qr_scan"}, "fusion_lon": 0.0, "bike_id": "91ac632b7e6b6077e1122b021f0d7cf7", "is_disabled": 0, "lat": 38.89832083333334, "is_reserved": 0, "type": "electric_scooter"}, {"fusion_lat": 0.0, "name": "8decf56057c0f19dd37f1009c848783c", "lon": -77.00819983333334, "rental_uris": {"android": "https://dc.lft.to/lastmile_qr_scan", "ios": "https://dc.lft.to/lastmile_qr_scan"}, "fusion_lon": 0.0, "bike_id": "8decf56057c0f19dd37f1009c848783c", "is_disabled": 0, "lat": 38.8774515, "is_reserved": 0, "type": "electric_scooter"}, {"fusion_lat": 0.0, "name": "97324cf6ead55aab6951c5ccaf5d6c23", "lon": -77.05419583333334, "rental_uris": {"android": "https://dc.lft.to/lastmile_qr_scan", "ios": "https://dc.lft.to/lastmile_qr_scan"}, "fusion_lon": 0.0, "bike_id": "97324cf6ead55aab6951c5ccaf5d6c23", "is_disabled": 0, "lat": 38.92837033333333, "is_reserved": 0, "type": "electric_scooter"}, {"fusion_lat": 0.0, "name": "bbbe6051b593831649bb1ccbb032bf68", "lon": -77.020199, "rental_uris": {"android": "https://dc.lft.to/lastmile_qr_scan", "ios": "https://dc.lft.to/lastmile_qr_scan"}, "fusion_lon": 0.0, "bike_id": "bbbe6051b593831649bb1ccbb032bf68", "is_disabled": 0, "lat": 38.88755733333333, "is_reserved": 0, "type": "electric_scooter"}, {"fusion_lat": 0.0, "name": "c7a33716f4b63386b2c2eb69f48055e5", "lon": -77.03269133333333, "rental_uris": {"android": "https://dc.lft.to/lastmile_qr_scan", "ios": "https://dc.lft.to/lastmile_qr_scan"}, "fusion_lon": 0.0, "bike_id": "c7a33716f4b63386b2c2eb69f48055e5", "is_disabled": 0, "lat": 38.92900083333333, "is_reserved": 0, "type": "electric_scooter"}, {"fusion_lat": 0.0, "name": "2ff7f1f35f74051b24ebaef349598e97", "lon": -77.0249585, "rental_uris": {"android": "https://dc.lft.to/lastmile_qr_scan", "ios": "https://dc.lft.to/lastmile_qr_scan"}, "fusion_lon": 0.0, "bike_id": "2ff7f1f35f74051b24ebaef349598e97", "is_disabled": 0, "lat": 38.918038333333335, "is_reserved": 0, "type": "electric_scooter"}, {"fusion_lat": 0.0, "name": "a5677cc805e78e520f6968e98b0d95d7", "lon": -77.0319775, "rental_uris": {"android": "https://dc.lft.to/lastmile_qr_scan", "ios": "https://dc.lft.to/lastmile_qr_scan"}, "fusion_lon": 0.0, "bike_id": "a5677cc805e78e520f6968e98b0d95d7", "is_disabled": 0, "lat": 38.91333933333333, "is_reserved": 0, "type": "electric_scooter"}, {"fusion_lat": 0.0, "name": "da931672b4cbdd4c3d073cd248e15787", "lon": -77.0234015, "rental_uris": {"android": "https://dc.lft.to/lastmile_qr_scan", "ios": "https://dc.lft.to/lastmile_qr_scan"}, "fusion_lon": 0.0, "bike_id": "da931672b4cbdd4c3d073cd248e15787", "is_disabled": 0, "lat": 38.899901, "is_reserved": 0, "type": "electric_scooter"}, {"fusion_lat": 0.0, "name": "53d0f84c7c7cee292b2cea0ab4bc93ec", "lon": -76.99134683333334, "rental_uris": {"android": "https://dc.lft.to/lastmile_qr_scan", "ios": "https://dc.lft.to/lastmile_qr_scan"}, "fusion_lon": 0.0, "bike_id": "53d0f84c7c7cee292b2cea0ab4bc93ec", "is_disabled": 0, "lat": 38.8641535, "is_reserved": 0, "type": "electric_scooter"}, {"fusion_lat": 0.0, "name": "fbf86e69cb440e4c9efcb8a64337878b", "lon": -77.03964116666667, "rental_uris": {"android": "https://dc.lft.to/lastmile_qr_scan", "ios": "https://dc.lft.to/lastmile_qr_scan"}, "fusion_lon": 0.0, "bike_id": "fbf86e69cb440e4c9efcb8a64337878b", "is_disabled": 0, "lat": 38.900184833333334, "is_reserved": 0, "type": "electric_scooter"}, {"fusion_lat": 0.0, "name": "d378af03eb6ce604c06b81764aaf4a63", "lon": -77.0442385, "rental_uris": {"android": "https://dc.lft.to/lastmile_qr_scan", "ios": "https://dc.lft.to/lastmile_qr_scan"}, "fusion_lon": 0.0, "bike_id": "d378af03eb6ce604c06b81764aaf4a63", "is_disabled": 0, "lat": 38.905691833333336, "is_reserved": 0, "type": "electric_scooter"}, {"fusion_lat": 0.0, "name": "b95ca902839f8167412b6f8c3201f8f5", "lon": -77.031633, "rental_uris": {"android": "https://dc.lft.to/lastmile_qr_scan", "ios": "https://dc.lft.to/lastmile_qr_scan"}, "fusion_lon": 0.0, "bike_id": "b95ca902839f8167412b6f8c3201f8f5", "is_disabled": 0, "lat": 38.89215983333333, "is_reserved": 0, "type": "electric_scooter"}, {"fusion_lat": 0.0, "name": "1b28179bc7cd0f02dd20b21de3cefb72", "lon": -77.05095083333333, "rental_uris": {"android": "https://dc.lft.to/lastmile_qr_scan", "ios": "https://dc.lft.to/lastmile_qr_scan"}, "fusion_lon": 0.0, "bike_id": "1b28179bc7cd0f02dd20b21de3cefb72", "is_disabled": 0, "lat": 38.9051865, "is_reserved": 0, "type": "electric_scooter"}, {"fusion_lat": 0.0, "name": "82f15aafd62fd5b68242735fda009f75", "lon": -77.01610766666667, "rental_uris": {"android": "https://dc.lft.to/lastmile_qr_scan", "ios": "https://dc.lft.to/lastmile_qr_scan"}, "fusion_lon": 0.0, "bike_id": "82f15aafd62fd5b68242735fda009f75", "is_disabled": 0, "lat": 38.953223333333334, "is_reserved": 0, "type": "electric_scooter"}, {"fusion_lat": 0.0, "name": "1b1e69ccad840eee29a84d7631df59e0", "lon": -77.01960133333333, "rental_uris": {"android": "https://dc.lft.to/lastmile_qr_scan", "ios": "https://dc.lft.to/lastmile_qr_scan"}, "fusion_lon": 0.0, "bike_id": "1b1e69ccad840eee29a84d7631df59e0", "is_disabled": 0, "lat": 38.8784175, "is_reserved": 0, "type": "electric_scooter"}, {"fusion_lat": 0.0, "name": "a3c79ad680902aa2ec359309b3e3d276", "lon": -77.04527733333333, "rental_uris": {"android": "https://dc.lft.to/lastmile_qr_scan", "ios": "https://dc.lft.to/lastmile_qr_scan"}, "fusion_lon": 0.0, "bike_id": "a3c79ad680902aa2ec359309b3e3d276", "is_disabled": 0, "lat": 38.931861833333336, "is_reserved": 0, "type": "electric_scooter"}, {"fusion_lat": 0.0, "name": "8dca17a74c6c049dbde318fc9b9adf0a", "lon": -77.07897683333333, "rental_uris": {"android": "https://dc.lft.to/lastmile_qr_scan", "ios": "https://dc.lft.to/lastmile_qr_scan"}, "fusion_lon": 0.0, "bike_id": "8dca17a74c6c049dbde318fc9b9adf0a", "is_disabled": 0, "lat": 38.839274, "is_reserved": 0, "type": "electric_bike"}, {"fusion_lat": 0.0, "name": "543fab8f5b230725265436b9a05baaf7", "lon": -77.02836216666667, "rental_uris": {"android": "https://dc.lft.to/lastmile_qr_scan", "ios": "https://dc.lft.to/lastmile_qr_scan"}, "fusion_lon": 0.0, "bike_id": "543fab8f5b230725265436b9a05baaf7", "is_disabled": 0, "lat": 38.897134666666666, "is_reserved": 0, "type": "electric_scooter"}, {"fusion_lat": 0.0, "name": "926994c5ac32edce8ff25831571de72c", "lon": -77.019123, "rental_uris": {"android": "https://dc.lft.to/lastmile_qr_scan", "ios": "https://dc.lft.to/lastmile_qr_scan"}, "fusion_lon": 0.0, "bike_id": "926994c5ac32edce8ff25831571de72c", "is_disabled": 0, "lat": 38.92331566666667, "is_reserved": 0, "type": "electric_scooter"}, {"fusion_lat": 0.0, "name": "530f33a1c44be35212adfc8378f3138d", "lon": -77.02827983333333, "rental_uris": {"android": "https://dc.lft.to/lastmile_qr_scan", "ios": "https://dc.lft.to/lastmile_qr_scan"}, "fusion_lon": 0.0, "bike_id": "530f33a1c44be35212adfc8378f3138d", "is_disabled": 0, "lat": 38.887299, "is_reserved": 0, "type": "electric_scooter"}, {"fusion_lat": 0.0, "name": "f0aa225e8dfa90f9f6feafafe3ac9b82", "lon": -77.02456933333333, "rental_uris": {"android": "https://dc.lft.to/lastmile_qr_scan", "ios": "https://dc.lft.to/lastmile_qr_scan"}, "fusion_lon": 0.0, "bike_id": "f0aa225e8dfa90f9f6feafafe3ac9b82", "is_disabled": 0, "lat": 38.914017666666666, "is_reserved": 0, "type": "electric_scooter"}, {"fusion_lat": 0.0, "name": "b1c1edf049bace94a7660dc20c28ef6a", "lon": -77.0060005, "rental_uris": {"android": "https://dc.lft.to/lastmile_qr_scan", "ios": "https://dc.lft.to/lastmile_qr_scan"}, "fusion_lon": 0.0, "bike_id": "b1c1edf049bace94a7660dc20c28ef6a", "is_disabled": 0, "lat": 38.871787, "is_reserved": 0, "type": "electric_scooter"}, {"fusion_lat": 0.0, "name": "18ad1d76790d4d2c47847e6e944a6bd2", "lon": -77.03313583333333, "rental_uris": {"android": "https://dc.lft.to/lastmile_qr_scan", "ios": "https://dc.lft.to/lastmile_qr_scan"}, "fusion_lon": 0.0, "bike_id": "18ad1d76790d4d2c47847e6e944a6bd2", "is_disabled": 0, "lat": 38.9037195, "is_reserved": 0, "type": "electric_scooter"}, {"fusion_lat": 0.0, "name": "f102948584dc69d7173d5cfee7981506", "lon": -77.02605333333334, "rental_uris": {"android": "https://dc.lft.to/lastmile_qr_scan", "ios": "https://dc.lft.to/lastmile_qr_scan"}, "fusion_lon": 0.0, "bike_id": "f102948584dc69d7173d5cfee7981506", "is_disabled": 0, "lat": 38.91549583333333, "is_reserved": 0, "type": "electric_scooter"}, {"fusion_lat": 0.0, "name": "f748a2efbb28edcf032b0bb2dac744c5", "lon": -77.0512885, "rental_uris": {"android": "https://dc.lft.to/lastmile_qr_scan", "ios": "https://dc.lft.to/lastmile_qr_scan"}, "fusion_lon": 0.0, "bike_id": "f748a2efbb28edcf032b0bb2dac744c5", "is_disabled": 0, "lat": 38.923626166666665, "is_reserved": 0, "type": "electric_scooter"}, {"fusion_lat": 0.0, "name": "00648f158658fba73685a7cf76753867", "lon": -77.0088325, "rental_uris": {"android": "https://dc.lft.to/lastmile_qr_scan", "ios": "https://dc.lft.to/lastmile_qr_scan"}, "fusion_lon": 0.0, "bike_id": "00648f158658fba73685a7cf76753867", "is_disabled": 0, "lat": 38.96119083333333, "is_reserved": 0, "type": "electric_scooter"}, {"fusion_lat": 0.0, "name": "bbd359139171a6fc8217f61a83aba2b7", "lon": -77.0439335, "rental_uris": {"android": "https://dc.lft.to/lastmile_qr_scan", "ios": "https://dc.lft.to/lastmile_qr_scan"}, "fusion_lon": 0.0, "bike_id": "bbd359139171a6fc8217f61a83aba2b7", "is_disabled": 0, "lat": 38.9055355, "is_reserved": 0, "type": "electric_scooter"}, {"fusion_lat": 0.0, "name": "6c303dc9ec1b1060e6ee8d89f50b1af6", "lon": -76.9701685, "rental_uris": {"android": "https://dc.lft.to/lastmile_qr_scan", "ios": "https://dc.lft.to/lastmile_qr_scan"}, "fusion_lon": 0.0, "bike_id": "6c303dc9ec1b1060e6ee8d89f50b1af6", "is_disabled": 0, "lat": 38.87361833333333, "is_reserved": 0, "type": "electric_scooter"}, {"fusion_lat": 0.0, "name": "044555a12f2fe54f2a348336c8eb320f", "lon": -77.0260385, "rental_uris": {"android": "https://dc.lft.to/lastmile_qr_scan", "ios": "https://dc.lft.to/lastmile_qr_scan"}, "fusion_lon": 0.0, "bike_id": "044555a12f2fe54f2a348336c8eb320f", "is_disabled": 0, "lat": 38.9097225, "is_reserved": 0, "type": "electric_scooter"}, {"fusion_lat": 0.0, "name": "5dfe67e79ba65f91d15f57f6ec05ada7", "lon": -76.993989, "rental_uris": {"android": "https://dc.lft.to/lastmile_qr_scan", "ios": "https://dc.lft.to/lastmile_qr_scan"}, "fusion_lon": 0.0, "bike_id": "5dfe67e79ba65f91d15f57f6ec05ada7", "is_disabled": 0, "lat": 38.92156133333334, "is_reserved": 0, "type": "electric_scooter"}, {"fusion_lat": 0.0, "name": "62ed474136d67da29a644332133effa0", "lon": -77.0327875, "rental_uris": {"android": "https://dc.lft.to/lastmile_qr_scan", "ios": "https://dc.lft.to/lastmile_qr_scan"}, "fusion_lon": 0.0, "bike_id": "62ed474136d67da29a644332133effa0", "is_disabled": 0, "lat": 38.898426, "is_reserved": 0, "type": "electric_scooter"}, {"fusion_lat": 0.0, "name": "70adc255557847b13e0c38fb084bbc68", "lon": -77.04829733333334, "rental_uris": {"android": "https://dc.lft.to/lastmile_qr_scan", "ios": "https://dc.lft.to/lastmile_qr_scan"}, "fusion_lon": 0.0, "bike_id": "70adc255557847b13e0c38fb084bbc68", "is_disabled": 0, "lat": 38.918818, "is_reserved": 0, "type": "electric_scooter"}, {"fusion_lat": 0.0, "name": "b882e5a9c911c4f8a35cb2efe417afb8", "lon": -76.93320783333333, "rental_uris": {"android": "https://dc.lft.to/lastmile_qr_scan", "ios": "https://dc.lft.to/lastmile_qr_scan"}, "fusion_lon": 0.0, "bike_id": "b882e5a9c911c4f8a35cb2efe417afb8", "is_disabled": 0, "lat": 38.90049, "is_reserved": 0, "type": "electric_scooter"}, {"fusion_lat": 0.0, "name": "cbb797aa5a22cd69229347dd8f6d32b8", "lon": -77.0453915, "rental_uris": {"android": "https://dc.lft.to/lastmile_qr_scan", "ios": "https://dc.lft.to/lastmile_qr_scan"}, "fusion_lon": 0.0, "bike_id": "cbb797aa5a22cd69229347dd8f6d32b8", "is_disabled": 0, "lat": 38.907330333333334, "is_reserved": 0, "type": "electric_scooter"}, {"fusion_lat": 0.0, "name": "4c30f0407071f7cb89b8523dfdcb2361", "lon": -77.016142, "rental_uris": {"android": "https://dc.lft.to/lastmile_qr_scan", "ios": "https://dc.lft.to/lastmile_qr_scan"}, "fusion_lon": 0.0, "bike_id": "4c30f0407071f7cb89b8523dfdcb2361", "is_disabled": 0, "lat": 38.87702316666667, "is_reserved": 0, "type": "electric_scooter"}, {"fusion_lat": 0.0, "name": "3615479f4c3986ff55d8f7cc362a51e5", "lon": -76.98877233333333, "rental_uris": {"android": "https://dc.lft.to/lastmile_qr_scan", "ios": "https://dc.lft.to/lastmile_qr_scan"}, "fusion_lon": 0.0, "bike_id": "3615479f4c3986ff55d8f7cc362a51e5", "is_disabled": 0, "lat": 38.921842, "is_reserved": 0, "type": "electric_scooter"}, {"fusion_lat": 0.0, "name": "c78eb92fb6b9a31c7e3af2c0f5482049", "lon": -77.04504566666667, "rental_uris": {"android": "https://dc.lft.to/lastmile_qr_scan", "ios": "https://dc.lft.to/lastmile_qr_scan"}, "fusion_lon": 0.0, "bike_id": "c78eb92fb6b9a31c7e3af2c0f5482049", "is_disabled": 0, "lat": 38.911077, "is_reserved": 0, "type": "electric_scooter"}, {"fusion_lat": 0.0, "name": "3091abb2a5f60af75febcbf862e3a053", "lon": -77.02212183333333, "rental_uris": {"android": "https://dc.lft.to/lastmile_qr_scan", "ios": "https://dc.lft.to/lastmile_qr_scan"}, "fusion_lon": 0.0, "bike_id": "3091abb2a5f60af75febcbf862e3a053", "is_disabled": 0, "lat": 38.88736183333333, "is_reserved": 0, "type": "electric_scooter"}, {"fusion_lat": 0.0, "name": "3489f1ddd4e0522bd681bc57a1179903", "lon": -77.05496733333334, "rental_uris": {"android": "https://dc.lft.to/lastmile_qr_scan", "ios": "https://dc.lft.to/lastmile_qr_scan"}, "fusion_lon": 0.0, "bike_id": "3489f1ddd4e0522bd681bc57a1179903", "is_disabled": 0, "lat": 38.91517016666667, "is_reserved": 0, "type": "electric_scooter"}, {"fusion_lat": 0.0, "name": "71e89fc59ef7c83948d7b41a7bf4e7da", "lon": -77.051522, "rental_uris": {"android": "https://dc.lft.to/lastmile_qr_scan", "ios": "https://dc.lft.to/lastmile_qr_scan"}, "fusion_lon": 0.0, "bike_id": "71e89fc59ef7c83948d7b41a7bf4e7da", "is_disabled": 0, "lat": 38.92373666666667, "is_reserved": 0, "type": "electric_scooter"}, {"fusion_lat": 0.0, "name": "891e6722c8fbba18749bfa9bf0ae6b85", "lon": -77.0310835, "rental_uris": {"android": "https://dc.lft.to/lastmile_qr_scan", "ios": "https://dc.lft.to/lastmile_qr_scan"}, "fusion_lon": 0.0, "bike_id": "891e6722c8fbba18749bfa9bf0ae6b85", "is_disabled": 0, "lat": 38.932383, "is_reserved": 0, "type": "electric_scooter"}, {"fusion_lat": 0.0, "name": "2910a8245a43e455bef3f2b25b63fc42", "lon": -77.04368583333333, "rental_uris": {"android": "https://dc.lft.to/lastmile_qr_scan", "ios": "https://dc.lft.to/lastmile_qr_scan"}, "fusion_lon": 0.0, "bike_id": "2910a8245a43e455bef3f2b25b63fc42", "is_disabled": 0, "lat": 38.90441116666667, "is_reserved": 0, "type": "electric_scooter"}, {"fusion_lat": 0.0, "name": "ef9527385118f0a0daad29784af7ccf5", "lon": -77.07020283333334, "rental_uris": {"android": "https://dc.lft.to/lastmile_qr_scan", "ios": "https://dc.lft.to/lastmile_qr_scan"}, "fusion_lon": 0.0, "bike_id": "ef9527385118f0a0daad29784af7ccf5", "is_disabled": 0, "lat": 38.906728333333334, "is_reserved": 0, "type": "electric_scooter"}, {"fusion_lat": 0.0, "name": "31893f4f28e01e8227d044660f202a9d", "lon": -77.03078416666666, "rental_uris": {"android": "https://dc.lft.to/lastmile_qr_scan", "ios": "https://dc.lft.to/lastmile_qr_scan"}, "fusion_lon": 0.0, "bike_id": "31893f4f28e01e8227d044660f202a9d", "is_disabled": 0, "lat": 38.8971285, "is_reserved": 0, "type": "electric_scooter"}, {"fusion_lat": 0.0, "name": "4dd54f06f6ccb28366bef1a2f6836018", "lon": -76.99301933333334, "rental_uris": {"android": "https://dc.lft.to/lastmile_qr_scan", "ios": "https://dc.lft.to/lastmile_qr_scan"}, "fusion_lon": 0.0, "bike_id": "4dd54f06f6ccb28366bef1a2f6836018", "is_disabled": 0, "lat": 38.8998595, "is_reserved": 0, "type": "electric_scooter"}, {"fusion_lat": 0.0, "name": "136e970dbfa3a80a6031b8ace636cb1d", "lon": -76.93146683333333, "rental_uris": {"android": "https://dc.lft.to/lastmile_qr_scan", "ios": "https://dc.lft.to/lastmile_qr_scan"}, "fusion_lon": 0.0, "bike_id": "136e970dbfa3a80a6031b8ace636cb1d", "is_disabled": 0, "lat": 38.878400166666665, "is_reserved": 0, "type": "electric_scooter"}, {"fusion_lat": 0.0, "name": "6d4f17df2010f77f204f525c3d0ee4b1", "lon": -77.04123166666666, "rental_uris": {"android": "https://dc.lft.to/lastmile_qr_scan", "ios": "https://dc.lft.to/lastmile_qr_scan"}, "fusion_lon": 0.0, "bike_id": "6d4f17df2010f77f204f525c3d0ee4b1", "is_disabled": 0, "lat": 38.9170715, "is_reserved": 0, "type": "electric_scooter"}, {"fusion_lat": 0.0, "name": "e90e060b4150791ecbad12d84fd991e4", "lon": -77.07336366666667, "rental_uris": {"android": "https://dc.lft.to/lastmile_qr_scan", "ios": "https://dc.lft.to/lastmile_qr_scan"}, "fusion_lon": 0.0, "bike_id": "e90e060b4150791ecbad12d84fd991e4", "is_disabled": 0, "lat": 38.934816166666664, "is_reserved": 0, "type": "electric_scooter"}, {"fusion_lat": 0.0, "name": "998593648a5489d4a0a118d137fac14c", "lon": -76.93881566666667, "rental_uris": {"android": "https://dc.lft.to/lastmile_qr_scan", "ios": "https://dc.lft.to/lastmile_qr_scan"}, "fusion_lon": 0.0, "bike_id": "998593648a5489d4a0a118d137fac14c", "is_disabled": 0, "lat": 38.90076066666666, "is_reserved": 0, "type": "electric_scooter"}, {"fusion_lat": 0.0, "name": "1e15a1674626d0b39ef7b6c2e057d4b2", "lon": -77.0336825, "rental_uris": {"android": "https://dc.lft.to/lastmile_qr_scan", "ios": "https://dc.lft.to/lastmile_qr_scan"}, "fusion_lon": 0.0, "bike_id": "1e15a1674626d0b39ef7b6c2e057d4b2", "is_disabled": 0, "lat": 38.92819633333333, "is_reserved": 0, "type": "electric_scooter"}, {"fusion_lat": 0.0, "name": "ac9a7ec06e5184608f612595f8751dcf", "lon": -77.04933, "rental_uris": {"android": "https://dc.lft.to/lastmile_qr_scan", "ios": "https://dc.lft.to/lastmile_qr_scan"}, "fusion_lon": 0.0, "bike_id": "ac9a7ec06e5184608f612595f8751dcf", "is_disabled": 0, "lat": 38.8904965, "is_reserved": 0, "type": "electric_bike"}, {"fusion_lat": 0.0, "name": "904710e4fe430702500d5dc8056ba072", "lon": -77.0280825, "rental_uris": {"android": "https://dc.lft.to/lastmile_qr_scan", "ios": "https://dc.lft.to/lastmile_qr_scan"}, "fusion_lon": 0.0, "bike_id": "904710e4fe430702500d5dc8056ba072", "is_disabled": 0, "lat": 38.930822166666665, "is_reserved": 0, "type": "electric_scooter"}, {"fusion_lat": 0.0, "name": "04f8b931273df92df885cb3a7aa72627", "lon": -77.10713516666667, "rental_uris": {"android": "https://dc.lft.to/lastmile_qr_scan", "ios": "https://dc.lft.to/lastmile_qr_scan"}, "fusion_lon": 0.0, "bike_id": "04f8b931273df92df885cb3a7aa72627", "is_disabled": 0, "lat": 38.8753225, "is_reserved": 0, "type": "electric_bike"}, {"fusion_lat": 0.0, "name": "4176c8e59ba4770237836088fc46d608", "lon": -77.02956966666666, "rental_uris": {"android": "https://dc.lft.to/lastmile_qr_scan", "ios": "https://dc.lft.to/lastmile_qr_scan"}, "fusion_lon": 0.0, "bike_id": "4176c8e59ba4770237836088fc46d608", "is_disabled": 0, "lat": 38.91667283333334, "is_reserved": 0, "type": "electric_scooter"}, {"fusion_lat": 0.0, "name": "febc02c4419b7a75209b4cfb9f2f669c", "lon": -76.99486333333333, "rental_uris": {"android": "https://dc.lft.to/lastmile_qr_scan", "ios": "https://dc.lft.to/lastmile_qr_scan"}, "fusion_lon": 0.0, "bike_id": "febc02c4419b7a75209b4cfb9f2f669c", "is_disabled": 0, "lat": 38.886028833333334, "is_reserved": 0, "type": "electric_scooter"}, {"fusion_lat": 0.0, "name": "22ac500c13fd01cd3428c55fdda240f5", "lon": -77.03635216666666, "rental_uris": {"android": "https://dc.lft.to/lastmile_qr_scan", "ios": "https://dc.lft.to/lastmile_qr_scan"}, "fusion_lon": 0.0, "bike_id": "22ac500c13fd01cd3428c55fdda240f5", "is_disabled": 0, "lat": 38.92698683333333, "is_reserved": 0, "type": "electric_scooter"}, {"fusion_lat": 0.0, "name": "4fe16b5618a41f00f4230b4c96861ada", "lon": -77.02467183333333, "rental_uris": {"android": "https://dc.lft.to/lastmile_qr_scan", "ios": "https://dc.lft.to/lastmile_qr_scan"}, "fusion_lon": 0.0, "bike_id": "4fe16b5618a41f00f4230b4c96861ada", "is_disabled": 0, "lat": 38.887646833333335, "is_reserved": 0, "type": "electric_scooter"}, {"fusion_lat": 0.0, "name": "a8d5ecc52934d1f6456cbe17808d2c7d", "lon": -77.04306333333334, "rental_uris": {"android": "https://dc.lft.to/lastmile_qr_scan", "ios": "https://dc.lft.to/lastmile_qr_scan"}, "fusion_lon": 0.0, "bike_id": "a8d5ecc52934d1f6456cbe17808d2c7d", "is_disabled": 0, "lat": 38.892152333333335, "is_reserved": 0, "type": "electric_scooter"}, {"fusion_lat": 0.0, "name": "003d7812fc9fc6ab6d6e6bfbe428b352", "lon": -77.00228, "rental_uris": {"android": "https://dc.lft.to/lastmile_qr_scan", "ios": "https://dc.lft.to/lastmile_qr_scan"}, "fusion_lon": 0.0, "bike_id": "003d7812fc9fc6ab6d6e6bfbe428b352", "is_disabled": 0, "lat": 38.82374383333333, "is_reserved": 0, "type": "electric_bike"}, {"fusion_lat": 0.0, "name": "b399e1dcb665609ec965bbfef6acdd2f", "lon": -77.01613483333334, "rental_uris": {"android": "https://dc.lft.to/lastmile_qr_scan", "ios": "https://dc.lft.to/lastmile_qr_scan"}, "fusion_lon": 0.0, "bike_id": "b399e1dcb665609ec965bbfef6acdd2f", "is_disabled": 0, "lat": 38.8847625, "is_reserved": 0, "type": "electric_scooter"}, {"fusion_lat": 0.0, "name": "579da052816c690f31d720a53cdff940", "lon": -77.02243183333333, "rental_uris": {"android": "https://dc.lft.to/lastmile_qr_scan", "ios": "https://dc.lft.to/lastmile_qr_scan"}, "fusion_lon": 0.0, "bike_id": "579da052816c690f31d720a53cdff940", "is_disabled": 0, "lat": 38.9166575, "is_reserved": 0, "type": "electric_scooter"}, {"fusion_lat": 0.0, "name": "bcc096bbb6f8c234dc09450c769722f5", "lon": -77.00168966666666, "rental_uris": {"android": "https://dc.lft.to/lastmile_qr_scan", "ios": "https://dc.lft.to/lastmile_qr_scan"}, "fusion_lon": 0.0, "bike_id": "bcc096bbb6f8c234dc09450c769722f5", "is_disabled": 0, "lat": 38.902517, "is_reserved": 0, "type": "electric_scooter"}, {"fusion_lat": 0.0, "name": "838911d99ecddaef6c404f9fe64de68b", "lon": -77.0395715, "rental_uris": {"android": "https://dc.lft.to/lastmile_qr_scan", "ios": "https://dc.lft.to/lastmile_qr_scan"}, "fusion_lon": 0.0, "bike_id": "838911d99ecddaef6c404f9fe64de68b", "is_disabled": 0, "lat": 38.892456333333335, "is_reserved": 0, "type": "electric_scooter"}, {"fusion_lat": 0.0, "name": "200ac33ce1904c0ab499e8b438c9069e", "lon": -77.18122216666667, "rental_uris": {"android": "https://dc.lft.to/lastmile_qr_scan", "ios": "https://dc.lft.to/lastmile_qr_scan"}, "fusion_lon": 0.0, "bike_id": "200ac33ce1904c0ab499e8b438c9069e", "is_disabled": 0, "lat": 38.9322455, "is_reserved": 0, "type": "electric_bike"}, {"fusion_lat": 0.0, "name": "c70e087b8402f10fa183e0008522618e", "lon": -77.04876883333333, "rental_uris": {"android": "https://dc.lft.to/lastmile_qr_scan", "ios": "https://dc.lft.to/lastmile_qr_scan"}, "fusion_lon": 0.0, "bike_id": "c70e087b8402f10fa183e0008522618e", "is_disabled": 0, "lat": 38.8987405, "is_reserved": 0, "type": "electric_scooter"}, {"fusion_lat": 0.0, "name": "29e56c8f1748d482077eba5911b8acd8", "lon": -77.02154016666667, "rental_uris": {"android": "https://dc.lft.to/lastmile_qr_scan", "ios": "https://dc.lft.to/lastmile_qr_scan"}, "fusion_lon": 0.0, "bike_id": "29e56c8f1748d482077eba5911b8acd8", "is_disabled": 0, "lat": 38.8947945, "is_reserved": 0, "type": "electric_scooter"}, {"fusion_lat": 0.0, "name": "1b3dce0a11ff47937bf9c0fae18b0b3b", "lon": -77.02505, "rental_uris": {"android": "https://dc.lft.to/lastmile_qr_scan", "ios": "https://dc.lft.to/lastmile_qr_scan"}, "fusion_lon": 0.0, "bike_id": "1b3dce0a11ff47937bf9c0fae18b0b3b", "is_disabled": 0, "lat": 38.9148355, "is_reserved": 0, "type": "electric_scooter"}, {"fusion_lat": 0.0, "name": "b72becece68d5a223635a3caebcfca52", "lon": -77.03313033333333, "rental_uris": {"android": "https://dc.lft.to/lastmile_qr_scan", "ios": "https://dc.lft.to/lastmile_qr_scan"}, "fusion_lon": 0.0, "bike_id": "b72becece68d5a223635a3caebcfca52", "is_disabled": 0, "lat": 38.908346333333334, "is_reserved": 0, "type": "electric_scooter"}, {"fusion_lat": 0.0, "name": "a90a35c6c5586afb7930631a3de32296", "lon": -77.05950183333333, "rental_uris": {"android": "https://dc.lft.to/lastmile_qr_scan", "ios": "https://dc.lft.to/lastmile_qr_scan"}, "fusion_lon": 0.0, "bike_id": "a90a35c6c5586afb7930631a3de32296", "is_disabled": 0, "lat": 38.91836166666667, "is_reserved": 0, "type": "electric_scooter"}, {"fusion_lat": 0.0, "name": "d018cecb36d9872a62f79f891fdcaa27", "lon": -77.0432035, "rental_uris": {"android": "https://dc.lft.to/lastmile_qr_scan", "ios": "https://dc.lft.to/lastmile_qr_scan"}, "fusion_lon": 0.0, "bike_id": "d018cecb36d9872a62f79f891fdcaa27", "is_disabled": 0, "lat": 38.9261265, "is_reserved": 0, "type": "electric_scooter"}, {"fusion_lat": 0.0, "name": "60bdb9a6d0e6a874c3ba5dfba13040ad", "lon": -76.99386016666666, "rental_uris": {"android": "https://dc.lft.to/lastmile_qr_scan", "ios": "https://dc.lft.to/lastmile_qr_scan"}, "fusion_lon": 0.0, "bike_id": "60bdb9a6d0e6a874c3ba5dfba13040ad", "is_disabled": 0, "lat": 38.89890333333334, "is_reserved": 0, "type": "electric_scooter"}, {"fusion_lat": 0.0, "name": "ecc54aef5ce1b63792379f76847ea894", "lon": -77.03142016666666, "rental_uris": {"android": "https://dc.lft.to/lastmile_qr_scan", "ios": "https://dc.lft.to/lastmile_qr_scan"}, "fusion_lon": 0.0, "bike_id": "ecc54aef5ce1b63792379f76847ea894", "is_disabled": 0, "lat": 38.91370766666667, "is_reserved": 0, "type": "electric_scooter"}, {"fusion_lat": 0.0, "name": "0572bdda71038e5670df0e7f3e40e1e7", "lon": -77.02781233333333, "rental_uris": {"android": "https://dc.lft.to/lastmile_qr_scan", "ios": "https://dc.lft.to/lastmile_qr_scan"}, "fusion_lon": 0.0, "bike_id": "0572bdda71038e5670df0e7f3e40e1e7", "is_disabled": 0, "lat": 38.9562995, "is_reserved": 0, "type": "electric_scooter"}, {"fusion_lat": 0.0, "name": "3f00c415203486a8e716d2ed799c134a", "lon": -77.045006, "rental_uris": {"android": "https://dc.lft.to/lastmile_qr_scan", "ios": "https://dc.lft.to/lastmile_qr_scan"}, "fusion_lon": 0.0, "bike_id": "3f00c415203486a8e716d2ed799c134a", "is_disabled": 0, "lat": 38.91106633333333, "is_reserved": 0, "type": "electric_scooter"}, {"fusion_lat": 0.0, "name": "9588c6eba88f6f7bd8d0c881263a9230", "lon": -77.04236866666666, "rental_uris": {"android": "https://dc.lft.to/lastmile_qr_scan", "ios": "https://dc.lft.to/lastmile_qr_scan"}, "fusion_lon": 0.0, "bike_id": "9588c6eba88f6f7bd8d0c881263a9230", "is_disabled": 0, "lat": 38.901299333333334, "is_reserved": 0, "type": "electric_scooter"}, {"fusion_lat": 0.0, "name": "57560ac96a1c9a2441ad539b0b13566b", "lon": -77.02691516666667, "rental_uris": {"android": "https://dc.lft.to/lastmile_qr_scan", "ios": "https://dc.lft.to/lastmile_qr_scan"}, "fusion_lon": 0.0, "bike_id": "57560ac96a1c9a2441ad539b0b13566b", "is_disabled": 0, "lat": 38.91033683333333, "is_reserved": 0, "type": "electric_scooter"}, {"fusion_lat": 0.0, "name": "34bfba6b46bd4d4eb4b08e2b47af2a14", "lon": -77.01240566666667, "rental_uris": {"android": "https://dc.lft.to/lastmile_qr_scan", "ios": "https://dc.lft.to/lastmile_qr_scan"}, "fusion_lon": 0.0, "bike_id": "34bfba6b46bd4d4eb4b08e2b47af2a14", "is_disabled": 0, "lat": 38.88734016666667, "is_reserved": 0, "type": "electric_scooter"}, {"fusion_lat": 0.0, "name": "37a2839c4fe6a42372ee46c396c72633", "lon": -76.96772383333334, "rental_uris": {"android": "https://dc.lft.to/lastmile_qr_scan", "ios": "https://dc.lft.to/lastmile_qr_scan"}, "fusion_lon": 0.0, "bike_id": "37a2839c4fe6a42372ee46c396c72633", "is_disabled": 0, "lat": 38.87339266666667, "is_reserved": 0, "type": "electric_scooter"}, {"fusion_lat": 0.0, "name": "fcb50daa46c00a7ab9f846fc00161c74", "lon": -77.00281766666667, "rental_uris": {"android": "https://dc.lft.to/lastmile_qr_scan", "ios": "https://dc.lft.to/lastmile_qr_scan"}, "fusion_lon": 0.0, "bike_id": "fcb50daa46c00a7ab9f846fc00161c74", "is_disabled": 0, "lat": 38.95709083333333, "is_reserved": 0, "type": "electric_bike"}, {"fusion_lat": 0.0, "name": "972920dc5707ab5f95a2aba71d37970f", "lon": -77.04177833333334, "rental_uris": {"android": "https://dc.lft.to/lastmile_qr_scan", "ios": "https://dc.lft.to/lastmile_qr_scan"}, "fusion_lon": 0.0, "bike_id": "972920dc5707ab5f95a2aba71d37970f", "is_disabled": 0, "lat": 38.90502716666667, "is_reserved": 0, "type": "electric_scooter"}, {"fusion_lat": 0.0, "name": "3bd14a619c9bf16db3fc930a2e1c7956", "lon": -77.03689466666667, "rental_uris": {"android": "https://dc.lft.to/lastmile_qr_scan", "ios": "https://dc.lft.to/lastmile_qr_scan"}, "fusion_lon": 0.0, "bike_id": "3bd14a619c9bf16db3fc930a2e1c7956", "is_disabled": 0, "lat": 38.916723833333336, "is_reserved": 0, "type": "electric_scooter"}, {"fusion_lat": 0.0, "name": "19ebbd242375fe0a61b216dff66287ef", "lon": -77.02608916666667, "rental_uris": {"android": "https://dc.lft.to/lastmile_qr_scan", "ios": "https://dc.lft.to/lastmile_qr_scan"}, "fusion_lon": 0.0, "bike_id": "19ebbd242375fe0a61b216dff66287ef", "is_disabled": 0, "lat": 38.896509333333334, "is_reserved": 0, "type": "electric_scooter"}, {"fusion_lat": 0.0, "name": "cc21274fa00bc2b6a8d8d71869a40ead", "lon": -77.0242165, "rental_uris": {"android": "https://dc.lft.to/lastmile_qr_scan", "ios": "https://dc.lft.to/lastmile_qr_scan"}, "fusion_lon": 0.0, "bike_id": "cc21274fa00bc2b6a8d8d71869a40ead", "is_disabled": 0, "lat": 38.9265205, "is_reserved": 0, "type": "electric_scooter"}, {"fusion_lat": 0.0, "name": "8e34d9b981a8ce2249b60c2c016fd703", "lon": -76.97738733333334, "rental_uris": {"android": "https://dc.lft.to/lastmile_qr_scan", "ios": "https://dc.lft.to/lastmile_qr_scan"}, "fusion_lon": 0.0, "bike_id": "8e34d9b981a8ce2249b60c2c016fd703", "is_disabled": 0, "lat": 38.87139416666667, "is_reserved": 0, "type": "electric_scooter"}, {"fusion_lat": 0.0, "name": "5d3396b4ad30a40e65ae2c99df4d0b26", "lon": -77.06676466666667, "rental_uris": {"android": "https://dc.lft.to/lastmile_qr_scan", "ios": "https://dc.lft.to/lastmile_qr_scan"}, "fusion_lon": 0.0, "bike_id": "5d3396b4ad30a40e65ae2c99df4d0b26", "is_disabled": 0, "lat": 38.9501405, "is_reserved": 0, "type": "electric_scooter"}, {"fusion_lat": 0.0, "name": "1e0dbf18bc0a3f9d8fcfe299aab0c29b", "lon": -77.07003883333333, "rental_uris": {"android": "https://dc.lft.to/lastmile_qr_scan", "ios": "https://dc.lft.to/lastmile_qr_scan"}, "fusion_lon": 0.0, "bike_id": "1e0dbf18bc0a3f9d8fcfe299aab0c29b", "is_disabled": 0, "lat": 38.95557516666667, "is_reserved": 0, "type": "electric_scooter"}, {"fusion_lat": 0.0, "name": "26380bf9d3e60d558b88e5a5a33abd5f", "lon": -77.023323, "rental_uris": {"android": "https://dc.lft.to/lastmile_qr_scan", "ios": "https://dc.lft.to/lastmile_qr_scan"}, "fusion_lon": 0.0, "bike_id": "26380bf9d3e60d558b88e5a5a33abd5f", "is_disabled": 0, "lat": 38.91659633333333, "is_reserved": 0, "type": "electric_scooter"}, {"fusion_lat": 0.0, "name": "ac8ebb97ac3a8cca17dd30e263b94993", "lon": -77.051827, "rental_uris": {"android": "https://dc.lft.to/lastmile_qr_scan", "ios": "https://dc.lft.to/lastmile_qr_scan"}, "fusion_lon": 0.0, "bike_id": "ac8ebb97ac3a8cca17dd30e263b94993", "is_disabled": 0, "lat": 38.924213333333334, "is_reserved": 0, "type": "electric_scooter"}, {"fusion_lat": 0.0, "name": "d3bb7cc32412e258cc6eb669a1232173", "lon": -77.02721566666666, "rental_uris": {"android": "https://dc.lft.to/lastmile_qr_scan", "ios": "https://dc.lft.to/lastmile_qr_scan"}, "fusion_lon": 0.0, "bike_id": "d3bb7cc32412e258cc6eb669a1232173", "is_disabled": 0, "lat": 38.910765833333336, "is_reserved": 0, "type": "electric_scooter"}, {"fusion_lat": 0.0, "name": "e6508bcb7960e3d04f41201ff93950c5", "lon": -76.98366966666667, "rental_uris": {"android": "https://dc.lft.to/lastmile_qr_scan", "ios": "https://dc.lft.to/lastmile_qr_scan"}, "fusion_lon": 0.0, "bike_id": "e6508bcb7960e3d04f41201ff93950c5", "is_disabled": 0, "lat": 38.88958616666667, "is_reserved": 0, "type": "electric_scooter"}, {"fusion_lat": 0.0, "name": "359042b98381de5ec8488ea07b7f8997", "lon": -77.02326, "rental_uris": {"android": "https://dc.lft.to/lastmile_qr_scan", "ios": "https://dc.lft.to/lastmile_qr_scan"}, "fusion_lon": 0.0, "bike_id": "359042b98381de5ec8488ea07b7f8997", "is_disabled": 0, "lat": 38.897259, "is_reserved": 0, "type": "electric_scooter"}, {"fusion_lat": 0.0, "name": "18ac179cb26ed3209413afaa184f8be4", "lon": -77.03344933333334, "rental_uris": {"android": "https://dc.lft.to/lastmile_qr_scan", "ios": "https://dc.lft.to/lastmile_qr_scan"}, "fusion_lon": 0.0, "bike_id": "18ac179cb26ed3209413afaa184f8be4", "is_disabled": 0, "lat": 38.9026715, "is_reserved": 0, "type": "electric_scooter"}, {"fusion_lat": 0.0, "name": "2ba150f03f40640bff848d3947680132", "lon": -77.065871, "rental_uris": {"android": "https://dc.lft.to/lastmile_qr_scan", "ios": "https://dc.lft.to/lastmile_qr_scan"}, "fusion_lon": 0.0, "bike_id": "2ba150f03f40640bff848d3947680132", "is_disabled": 0, "lat": 38.91228, "is_reserved": 0, "type": "electric_scooter"}, {"fusion_lat": 0.0, "name": "ae1fb8602eec5ce307c63f0e055dd98c", "lon": -77.01507533333333, "rental_uris": {"android": "https://dc.lft.to/lastmile_qr_scan", "ios": "https://dc.lft.to/lastmile_qr_scan"}, "fusion_lon": 0.0, "bike_id": "ae1fb8602eec5ce307c63f0e055dd98c", "is_disabled": 0, "lat": 38.945307666666665, "is_reserved": 0, "type": "electric_scooter"}, {"fusion_lat": 0.0, "name": "2352ded50d3877164d55309cdab938a5", "lon": -77.00243566666667, "rental_uris": {"android": "https://dc.lft.to/lastmile_qr_scan", "ios": "https://dc.lft.to/lastmile_qr_scan"}, "fusion_lon": 0.0, "bike_id": "2352ded50d3877164d55309cdab938a5", "is_disabled": 0, "lat": 38.90362316666667, "is_reserved": 0, "type": "electric_scooter"}, {"fusion_lat": 0.0, "name": "558f4131cac56a4f7cb9534d851e6df7", "lon": -76.93173983333334, "rental_uris": {"android": "https://dc.lft.to/lastmile_qr_scan", "ios": "https://dc.lft.to/lastmile_qr_scan"}, "fusion_lon": 0.0, "bike_id": "558f4131cac56a4f7cb9534d851e6df7", "is_disabled": 0, "lat": 38.898817, "is_reserved": 0, "type": "electric_scooter"}, {"fusion_lat": 0.0, "name": "b4141b80eb945967a0c334a001479e21", "lon": -77.0515415, "rental_uris": {"android": "https://dc.lft.to/lastmile_qr_scan", "ios": "https://dc.lft.to/lastmile_qr_scan"}, "fusion_lon": 0.0, "bike_id": "b4141b80eb945967a0c334a001479e21", "is_disabled": 0, "lat": 38.90598883333333, "is_reserved": 0, "type": "electric_scooter"}, {"fusion_lat": 0.0, "name": "aaef89e2f6641f68987c83fe966f5451", "lon": -77.04460566666667, "rental_uris": {"android": "https://dc.lft.to/lastmile_qr_scan", "ios": "https://dc.lft.to/lastmile_qr_scan"}, "fusion_lon": 0.0, "bike_id": "aaef89e2f6641f68987c83fe966f5451", "is_disabled": 0, "lat": 38.923052166666665, "is_reserved": 0, "type": "electric_scooter"}, {"fusion_lat": 0.0, "name": "fc0ef25e0336916b77d394bd4e935e40", "lon": -77.00107583333333, "rental_uris": {"android": "https://dc.lft.to/lastmile_qr_scan", "ios": "https://dc.lft.to/lastmile_qr_scan"}, "fusion_lon": 0.0, "bike_id": "fc0ef25e0336916b77d394bd4e935e40", "is_disabled": 0, "lat": 38.87373816666667, "is_reserved": 0, "type": "electric_scooter"}, {"fusion_lat": 0.0, "name": "5e6a3e8df083612ae09e93ed650577b3", "lon": -76.9810745, "rental_uris": {"android": "https://dc.lft.to/lastmile_qr_scan", "ios": "https://dc.lft.to/lastmile_qr_scan"}, "fusion_lon": 0.0, "bike_id": "5e6a3e8df083612ae09e93ed650577b3", "is_disabled": 0, "lat": 38.877286166666664, "is_reserved": 0, "type": "electric_bike"}, {"fusion_lat": 0.0, "name": "e6a3e1b74516846d933b2cc74156c213", "lon": -77.03996616666667, "rental_uris": {"android": "https://dc.lft.to/lastmile_qr_scan", "ios": "https://dc.lft.to/lastmile_qr_scan"}, "fusion_lon": 0.0, "bike_id": "e6a3e1b74516846d933b2cc74156c213", "is_disabled": 0, "lat": 38.93423216666667, "is_reserved": 0, "type": "electric_scooter"}, {"fusion_lat": 0.0, "name": "d4cec50e9de8f01e92b39b34c7471711", "lon": -77.0176405, "rental_uris": {"android": "https://dc.lft.to/lastmile_qr_scan", "ios": "https://dc.lft.to/lastmile_qr_scan"}, "fusion_lon": 0.0, "bike_id": "d4cec50e9de8f01e92b39b34c7471711", "is_disabled": 0, "lat": 38.872261333333334, "is_reserved": 0, "type": "electric_scooter"}, {"fusion_lat": 0.0, "name": "62b1d2ff4f56934de4c0370b151d8bd7", "lon": -77.01820416666666, "rental_uris": {"android": "https://dc.lft.to/lastmile_qr_scan", "ios": "https://dc.lft.to/lastmile_qr_scan"}, "fusion_lon": 0.0, "bike_id": "62b1d2ff4f56934de4c0370b151d8bd7", "is_disabled": 0, "lat": 38.90074166666667, "is_reserved": 0, "type": "electric_scooter"}, {"fusion_lat": 0.0, "name": "9e994ead94d0d23f406351a7323f05d1", "lon": -77.00599366666667, "rental_uris": {"android": "https://dc.lft.to/lastmile_qr_scan", "ios": "https://dc.lft.to/lastmile_qr_scan"}, "fusion_lon": 0.0, "bike_id": "9e994ead94d0d23f406351a7323f05d1", "is_disabled": 0, "lat": 38.8718265, "is_reserved": 0, "type": "electric_scooter"}, {"fusion_lat": 0.0, "name": "b402f3e304c5532f5ef8ff953eb3f3ec", "lon": -77.0580885, "rental_uris": {"android": "https://dc.lft.to/lastmile_qr_scan", "ios": "https://dc.lft.to/lastmile_qr_scan"}, "fusion_lon": 0.0, "bike_id": "b402f3e304c5532f5ef8ff953eb3f3ec", "is_disabled": 0, "lat": 38.90491216666667, "is_reserved": 0, "type": "electric_scooter"}, {"fusion_lat": 0.0, "name": "e3269964722059eda936ee020f9e3836", "lon": -77.034257, "rental_uris": {"android": "https://dc.lft.to/lastmile_qr_scan", "ios": "https://dc.lft.to/lastmile_qr_scan"}, "fusion_lon": 0.0, "bike_id": "e3269964722059eda936ee020f9e3836", "is_disabled": 0, "lat": 38.90956883333333, "is_reserved": 0, "type": "electric_scooter"}, {"fusion_lat": 0.0, "name": "2915d81c3f8434d99e0464ccfe79267c", "lon": -77.0523835, "rental_uris": {"android": "https://dc.lft.to/lastmile_qr_scan", "ios": "https://dc.lft.to/lastmile_qr_scan"}, "fusion_lon": 0.0, "bike_id": "2915d81c3f8434d99e0464ccfe79267c", "is_disabled": 0, "lat": 38.925493333333335, "is_reserved": 0, "type": "electric_scooter"}, {"fusion_lat": 0.0, "name": "626f74db475c3aa84e23b0486e3b22ad", "lon": -76.984209, "rental_uris": {"android": "https://dc.lft.to/lastmile_qr_scan", "ios": "https://dc.lft.to/lastmile_qr_scan"}, "fusion_lon": 0.0, "bike_id": "626f74db475c3aa84e23b0486e3b22ad", "is_disabled": 0, "lat": 38.86062616666667, "is_reserved": 0, "type": "electric_scooter"}, {"fusion_lat": 0.0, "name": "4be41290ec86a8eebecfb7ab17efa2fe", "lon": -77.043014, "rental_uris": {"android": "https://dc.lft.to/lastmile_qr_scan", "ios": "https://dc.lft.to/lastmile_qr_scan"}, "fusion_lon": 0.0, "bike_id": "4be41290ec86a8eebecfb7ab17efa2fe", "is_disabled": 0, "lat": 38.9229495, "is_reserved": 0, "type": "electric_scooter"}, {"fusion_lat": 0.0, "name": "db1751944f2382b2517b33f7db37bda5", "lon": -77.009133, "rental_uris": {"android": "https://dc.lft.to/lastmile_qr_scan", "ios": "https://dc.lft.to/lastmile_qr_scan"}, "fusion_lon": 0.0, "bike_id": "db1751944f2382b2517b33f7db37bda5", "is_disabled": 0, "lat": 38.90983966666667, "is_reserved": 0, "type": "electric_scooter"}, {"fusion_lat": 0.0, "name": "885fabf6c4c65712b3a8510de3dec740", "lon": -77.16689633333333, "rental_uris": {"android": "https://dc.lft.to/lastmile_qr_scan", "ios": "https://dc.lft.to/lastmile_qr_scan"}, "fusion_lon": 0.0, "bike_id": "885fabf6c4c65712b3a8510de3dec740", "is_disabled": 0, "lat": 38.885626, "is_reserved": 0, "type": "electric_bike"}, {"fusion_lat": 0.0, "name": "c62cc9e6d2e3db4fb1fadf323fc1029e", "lon": -77.02181183333333, "rental_uris": {"android": "https://dc.lft.to/lastmile_qr_scan", "ios": "https://dc.lft.to/lastmile_qr_scan"}, "fusion_lon": 0.0, "bike_id": "c62cc9e6d2e3db4fb1fadf323fc1029e", "is_disabled": 0, "lat": 38.892197, "is_reserved": 0, "type": "electric_scooter"}, {"fusion_lat": 0.0, "name": "dcd007665b3694b3bff290d3463dd51f", "lon": -77.0318985, "rental_uris": {"android": "https://dc.lft.to/lastmile_qr_scan", "ios": "https://dc.lft.to/lastmile_qr_scan"}, "fusion_lon": 0.0, "bike_id": "dcd007665b3694b3bff290d3463dd51f", "is_disabled": 0, "lat": 38.892308, "is_reserved": 0, "type": "electric_scooter"}, {"fusion_lat": 0.0, "name": "f1b53eb909ff4be9a6559814b5075a84", "lon": -77.02613716666667, "rental_uris": {"android": "https://dc.lft.to/lastmile_qr_scan", "ios": "https://dc.lft.to/lastmile_qr_scan"}, "fusion_lon": 0.0, "bike_id": "f1b53eb909ff4be9a6559814b5075a84", "is_disabled": 0, "lat": 38.95185166666667, "is_reserved": 0, "type": "electric_scooter"}, {"fusion_lat": 0.0, "name": "470c6f7de7fbb45e477eaace6282731d", "lon": -77.029691, "rental_uris": {"android": "https://dc.lft.to/lastmile_qr_scan", "ios": "https://dc.lft.to/lastmile_qr_scan"}, "fusion_lon": 0.0, "bike_id": "470c6f7de7fbb45e477eaace6282731d", "is_disabled": 0, "lat": 38.91882716666667, "is_reserved": 0, "type": "electric_scooter"}, {"fusion_lat": 0.0, "name": "0dd035fe2c97a72cce62a5aa8f284cf5", "lon": -76.99294283333333, "rental_uris": {"android": "https://dc.lft.to/lastmile_qr_scan", "ios": "https://dc.lft.to/lastmile_qr_scan"}, "fusion_lon": 0.0, "bike_id": "0dd035fe2c97a72cce62a5aa8f284cf5", "is_disabled": 0, "lat": 38.8575195, "is_reserved": 0, "type": "electric_scooter"}, {"fusion_lat": 0.0, "name": "a7e97bc1f6625ced3d2a7df2f3f99139", "lon": -77.03392, "rental_uris": {"android": "https://dc.lft.to/lastmile_qr_scan", "ios": "https://dc.lft.to/lastmile_qr_scan"}, "fusion_lon": 0.0, "bike_id": "a7e97bc1f6625ced3d2a7df2f3f99139", "is_disabled": 0, "lat": 38.90546533333333, "is_reserved": 0, "type": "electric_scooter"}, {"fusion_lat": 0.0, "name": "d764d87bfaa49076f1c26308e8ba411c", "lon": -77.00596183333333, "rental_uris": {"android": "https://dc.lft.to/lastmile_qr_scan", "ios": "https://dc.lft.to/lastmile_qr_scan"}, "fusion_lon": 0.0, "bike_id": "d764d87bfaa49076f1c26308e8ba411c", "is_disabled": 0, "lat": 38.87527716666666, "is_reserved": 0, "type": "electric_scooter"}, {"fusion_lat": 0.0, "name": "19a7328169d861a92396dea8dcdb2297", "lon": -77.03217033333334, "rental_uris": {"android": "https://dc.lft.to/lastmile_qr_scan", "ios": "https://dc.lft.to/lastmile_qr_scan"}, "fusion_lon": 0.0, "bike_id": "19a7328169d861a92396dea8dcdb2297", "is_disabled": 0, "lat": 38.917865666666664, "is_reserved": 0, "type": "electric_scooter"}, {"fusion_lat": 0.0, "name": "7ac9ed1da93accba89f81fbed9a4213b", "lon": -77.03793083333333, "rental_uris": {"android": "https://dc.lft.to/lastmile_qr_scan", "ios": "https://dc.lft.to/lastmile_qr_scan"}, "fusion_lon": 0.0, "bike_id": "7ac9ed1da93accba89f81fbed9a4213b", "is_disabled": 0, "lat": 38.93041816666667, "is_reserved": 0, "type": "electric_scooter"}, {"fusion_lat": 0.0, "name": "73091c94d2a0028ccd56ca5ad88aa0b1", "lon": -77.03141133333334, "rental_uris": {"android": "https://dc.lft.to/lastmile_qr_scan", "ios": "https://dc.lft.to/lastmile_qr_scan"}, "fusion_lon": 0.0, "bike_id": "73091c94d2a0028ccd56ca5ad88aa0b1", "is_disabled": 0, "lat": 38.90628183333333, "is_reserved": 0, "type": "electric_scooter"}, {"fusion_lat": 0.0, "name": "b624d7e287c069390f7fad00e53f4ced", "lon": -77.042739, "rental_uris": {"android": "https://dc.lft.to/lastmile_qr_scan", "ios": "https://dc.lft.to/lastmile_qr_scan"}, "fusion_lon": 0.0, "bike_id": "b624d7e287c069390f7fad00e53f4ced", "is_disabled": 0, "lat": 38.9041395, "is_reserved": 0, "type": "electric_scooter"}, {"fusion_lat": 0.0, "name": "b3b29e8f868d8919b4107a4208f2dcff", "lon": -77.04343683333333, "rental_uris": {"android": "https://dc.lft.to/lastmile_qr_scan", "ios": "https://dc.lft.to/lastmile_qr_scan"}, "fusion_lon": 0.0, "bike_id": "b3b29e8f868d8919b4107a4208f2dcff", "is_disabled": 0, "lat": 38.91143816666667, "is_reserved": 0, "type": "electric_scooter"}, {"fusion_lat": 0.0, "name": "dbd326e566bd629af8bb4c3379111023", "lon": -77.05044883333333, "rental_uris": {"android": "https://dc.lft.to/lastmile_qr_scan", "ios": "https://dc.lft.to/lastmile_qr_scan"}, "fusion_lon": 0.0, "bike_id": "dbd326e566bd629af8bb4c3379111023", "is_disabled": 0, "lat": 38.90510916666667, "is_reserved": 0, "type": "electric_scooter"}, {"fusion_lat": 0.0, "name": "0c20af14f781605428b421113ce6faa2", "lon": -77.0446045, "rental_uris": {"android": "https://dc.lft.to/lastmile_qr_scan", "ios": "https://dc.lft.to/lastmile_qr_scan"}, "fusion_lon": 0.0, "bike_id": "0c20af14f781605428b421113ce6faa2", "is_disabled": 0, "lat": 38.90369866666666, "is_reserved": 0, "type": "electric_scooter"}, {"fusion_lat": 0.0, "name": "ed4a7c88adbf96233e40763a333faef3", "lon": -77.00133966666667, "rental_uris": {"android": "https://dc.lft.to/lastmile_qr_scan", "ios": "https://dc.lft.to/lastmile_qr_scan"}, "fusion_lon": 0.0, "bike_id": "ed4a7c88adbf96233e40763a333faef3", "is_disabled": 0, "lat": 38.9586915, "is_reserved": 0, "type": "electric_bike"}, {"fusion_lat": 0.0, "name": "b3b8d39bdb50b26dc98151e8fd8fe108", "lon": -77.0340045, "rental_uris": {"android": "https://dc.lft.to/lastmile_qr_scan", "ios": "https://dc.lft.to/lastmile_qr_scan"}, "fusion_lon": 0.0, "bike_id": "b3b8d39bdb50b26dc98151e8fd8fe108", "is_disabled": 0, "lat": 38.905433, "is_reserved": 0, "type": "electric_scooter"}, {"fusion_lat": 0.0, "name": "4b6acf60b5521bd0639ce26242ea3a26", "lon": -77.0334425, "rental_uris": {"android": "https://dc.lft.to/lastmile_qr_scan", "ios": "https://dc.lft.to/lastmile_qr_scan"}, "fusion_lon": 0.0, "bike_id": "4b6acf60b5521bd0639ce26242ea3a26", "is_disabled": 0, "lat": 38.897274, "is_reserved": 0, "type": "electric_scooter"}, {"fusion_lat": 0.0, "name": "19c5124501450a23153d690501b170ea", "lon": -77.03465366666667, "rental_uris": {"android": "https://dc.lft.to/lastmile_qr_scan", "ios": "https://dc.lft.to/lastmile_qr_scan"}, "fusion_lon": 0.0, "bike_id": "19c5124501450a23153d690501b170ea", "is_disabled": 0, "lat": 38.90241283333334, "is_reserved": 0, "type": "electric_scooter"}, {"fusion_lat": 0.0, "name": "7ee0c2a31412ab56ed4372169def1b11", "lon": -77.0456755, "rental_uris": {"android": "https://dc.lft.to/lastmile_qr_scan", "ios": "https://dc.lft.to/lastmile_qr_scan"}, "fusion_lon": 0.0, "bike_id": "7ee0c2a31412ab56ed4372169def1b11", "is_disabled": 0, "lat": 38.9133255, "is_reserved": 0, "type": "electric_scooter"}, {"fusion_lat": 0.0, "name": "ab0aa1c0f903e51f4f13a80c4afcefef", "lon": -77.04171466666666, "rental_uris": {"android": "https://dc.lft.to/lastmile_qr_scan", "ios": "https://dc.lft.to/lastmile_qr_scan"}, "fusion_lon": 0.0, "bike_id": "ab0aa1c0f903e51f4f13a80c4afcefef", "is_disabled": 0, "lat": 38.911787333333336, "is_reserved": 0, "type": "electric_scooter"}, {"fusion_lat": 0.0, "name": "a54f0f104232d8c8480fe34cf8f84e9e", "lon": -77.01514533333334, "rental_uris": {"android": "https://dc.lft.to/lastmile_qr_scan", "ios": "https://dc.lft.to/lastmile_qr_scan"}, "fusion_lon": 0.0, "bike_id": "a54f0f104232d8c8480fe34cf8f84e9e", "is_disabled": 0, "lat": 38.96772983333334, "is_reserved": 0, "type": "electric_scooter"}, {"fusion_lat": 0.0, "name": "a5bae638cf2c77467a5e2833257101ad", "lon": -77.007367, "rental_uris": {"android": "https://dc.lft.to/lastmile_qr_scan", "ios": "https://dc.lft.to/lastmile_qr_scan"}, "fusion_lon": 0.0, "bike_id": "a5bae638cf2c77467a5e2833257101ad", "is_disabled": 0, "lat": 38.90251933333333, "is_reserved": 0, "type": "electric_scooter"}, {"fusion_lat": 0.0, "name": "62216c8ed7bddf386ed69f0abc013354", "lon": -77.03438183333333, "rental_uris": {"android": "https://dc.lft.to/lastmile_qr_scan", "ios": "https://dc.lft.to/lastmile_qr_scan"}, "fusion_lon": 0.0, "bike_id": "62216c8ed7bddf386ed69f0abc013354", "is_disabled": 0, "lat": 38.919082333333336, "is_reserved": 0, "type": "electric_scooter"}, {"fusion_lat": 0.0, "name": "657874e4f3e277369e8ffce9be0acea3", "lon": -76.98047933333334, "rental_uris": {"android": "https://dc.lft.to/lastmile_qr_scan", "ios": "https://dc.lft.to/lastmile_qr_scan"}, "fusion_lon": 0.0, "bike_id": "657874e4f3e277369e8ffce9be0acea3", "is_disabled": 0, "lat": 38.90250833333333, "is_reserved": 0, "type": "electric_scooter"}, {"fusion_lat": 0.0, "name": "af04133c2fd1ac5f55005f528fa7db4a", "lon": -77.02724683333334, "rental_uris": {"android": "https://dc.lft.to/lastmile_qr_scan", "ios": "https://dc.lft.to/lastmile_qr_scan"}, "fusion_lon": 0.0, "bike_id": "af04133c2fd1ac5f55005f528fa7db4a", "is_disabled": 0, "lat": 38.94083, "is_reserved": 0, "type": "electric_scooter"}, {"fusion_lat": 0.0, "name": "7b0f998aab14d7157b29f6a0c07beb39", "lon": -77.06412066666667, "rental_uris": {"android": "https://dc.lft.to/lastmile_qr_scan", "ios": "https://dc.lft.to/lastmile_qr_scan"}, "fusion_lon": 0.0, "bike_id": "7b0f998aab14d7157b29f6a0c07beb39", "is_disabled": 0, "lat": 38.944929, "is_reserved": 0, "type": "electric_bike"}, {"fusion_lat": 0.0, "name": "2664fcba388c56e325d774f1eb83648e", "lon": -77.03687883333333, "rental_uris": {"android": "https://dc.lft.to/lastmile_qr_scan", "ios": "https://dc.lft.to/lastmile_qr_scan"}, "fusion_lon": 0.0, "bike_id": "2664fcba388c56e325d774f1eb83648e", "is_disabled": 0, "lat": 38.9167475, "is_reserved": 0, "type": "electric_scooter"}, {"fusion_lat": 0.0, "name": "93e29a8fb55f167ee2635329a04e438c", "lon": -77.027486, "rental_uris": {"android": "https://dc.lft.to/lastmile_qr_scan", "ios": "https://dc.lft.to/lastmile_qr_scan"}, "fusion_lon": 0.0, "bike_id": "93e29a8fb55f167ee2635329a04e438c", "is_disabled": 0, "lat": 38.941758, "is_reserved": 0, "type": "electric_scooter"}, {"fusion_lat": 0.0, "name": "b10749912ad3e551f0b594eea6cd60e6", "lon": -77.05315583333334, "rental_uris": {"android": "https://dc.lft.to/lastmile_qr_scan", "ios": "https://dc.lft.to/lastmile_qr_scan"}, "fusion_lon": 0.0, "bike_id": "b10749912ad3e551f0b594eea6cd60e6", "is_disabled": 0, "lat": 38.90430816666667, "is_reserved": 0, "type": "electric_scooter"}, {"fusion_lat": 0.0, "name": "94d864c8eedec33fc6230c7ba07162a9", "lon": -77.02226466666667, "rental_uris": {"android": "https://dc.lft.to/lastmile_qr_scan", "ios": "https://dc.lft.to/lastmile_qr_scan"}, "fusion_lon": 0.0, "bike_id": "94d864c8eedec33fc6230c7ba07162a9", "is_disabled": 0, "lat": 38.91252883333333, "is_reserved": 0, "type": "electric_scooter"}, {"fusion_lat": 0.0, "name": "b1092ef79aba76d7ee3e1f1e2089e0da", "lon": -77.0033355, "rental_uris": {"android": "https://dc.lft.to/lastmile_qr_scan", "ios": "https://dc.lft.to/lastmile_qr_scan"}, "fusion_lon": 0.0, "bike_id": "b1092ef79aba76d7ee3e1f1e2089e0da", "is_disabled": 0, "lat": 38.893523, "is_reserved": 0, "type": "electric_scooter"}, {"fusion_lat": 0.0, "name": "f285a100d3288e33e89aaacb959fc172", "lon": -77.0451675, "rental_uris": {"android": "https://dc.lft.to/lastmile_qr_scan", "ios": "https://dc.lft.to/lastmile_qr_scan"}, "fusion_lon": 0.0, "bike_id": "f285a100d3288e33e89aaacb959fc172", "is_disabled": 0, "lat": 38.919542166666666, "is_reserved": 0, "type": "electric_bike"}, {"fusion_lat": 0.0, "name": "fad2ce9c5b3426ce9e9348fc2a515b40", "lon": -77.02049083333333, "rental_uris": {"android": "https://dc.lft.to/lastmile_qr_scan", "ios": "https://dc.lft.to/lastmile_qr_scan"}, "fusion_lon": 0.0, "bike_id": "fad2ce9c5b3426ce9e9348fc2a515b40", "is_disabled": 0, "lat": 38.915543, "is_reserved": 0, "type": "electric_scooter"}, {"fusion_lat": 0.0, "name": "e5a0f47a17019e927a0f1951649ec201", "lon": -77.00601283333333, "rental_uris": {"android": "https://dc.lft.to/lastmile_qr_scan", "ios": "https://dc.lft.to/lastmile_qr_scan"}, "fusion_lon": 0.0, "bike_id": "e5a0f47a17019e927a0f1951649ec201", "is_disabled": 0, "lat": 38.871768333333335, "is_reserved": 0, "type": "electric_scooter"}, {"fusion_lat": 0.0, "name": "fdb89075d69fdb22a535ef42f93c901d", "lon": -77.03290833333334, "rental_uris": {"android": "https://dc.lft.to/lastmile_qr_scan", "ios": "https://dc.lft.to/lastmile_qr_scan"}, "fusion_lon": 0.0, "bike_id": "fdb89075d69fdb22a535ef42f93c901d", "is_disabled": 0, "lat": 38.930469, "is_reserved": 0, "type": "electric_scooter"}, {"fusion_lat": 0.0, "name": "3331f972cbe0613a729f8278c985cf37", "lon": -77.0881085, "rental_uris": {"android": "https://dc.lft.to/lastmile_qr_scan", "ios": "https://dc.lft.to/lastmile_qr_scan"}, "fusion_lon": 0.0, "bike_id": "3331f972cbe0613a729f8278c985cf37", "is_disabled": 0, "lat": 38.91173766666667, "is_reserved": 0, "type": "electric_bike"}, {"fusion_lat": 0.0, "name": "a898bd1c5cebd99c29c8eccbc8d5a175", "lon": -77.05129383333333, "rental_uris": {"android": "https://dc.lft.to/lastmile_qr_scan", "ios": "https://dc.lft.to/lastmile_qr_scan"}, "fusion_lon": 0.0, "bike_id": "a898bd1c5cebd99c29c8eccbc8d5a175", "is_disabled": 0, "lat": 38.9236325, "is_reserved": 0, "type": "electric_bike"}, {"fusion_lat": 0.0, "name": "605b061c733325e36df481a84fc85255", "lon": -77.02279066666667, "rental_uris": {"android": "https://dc.lft.to/lastmile_qr_scan", "ios": "https://dc.lft.to/lastmile_qr_scan"}, "fusion_lon": 0.0, "bike_id": "605b061c733325e36df481a84fc85255", "is_disabled": 0, "lat": 38.893642666666665, "is_reserved": 0, "type": "electric_scooter"}, {"fusion_lat": 0.0, "name": "de84e6fdc4f4d910b002f6e6d5256646", "lon": -77.01752516666667, "rental_uris": {"android": "https://dc.lft.to/lastmile_qr_scan", "ios": "https://dc.lft.to/lastmile_qr_scan"}, "fusion_lon": 0.0, "bike_id": "de84e6fdc4f4d910b002f6e6d5256646", "is_disabled": 0, "lat": 38.8801165, "is_reserved": 0, "type": "electric_scooter"}, {"fusion_lat": 0.0, "name": "350d90fa20f1909733abfb5cbf2a4b55", "lon": -76.97619133333333, "rental_uris": {"android": "https://dc.lft.to/lastmile_qr_scan", "ios": "https://dc.lft.to/lastmile_qr_scan"}, "fusion_lon": 0.0, "bike_id": "350d90fa20f1909733abfb5cbf2a4b55", "is_disabled": 0, "lat": 38.92648283333333, "is_reserved": 0, "type": "electric_scooter"}, {"fusion_lat": 0.0, "name": "d9fea7885280bf2656fce56c763402b8", "lon": -77.006798, "rental_uris": {"android": "https://dc.lft.to/lastmile_qr_scan", "ios": "https://dc.lft.to/lastmile_qr_scan"}, "fusion_lon": 0.0, "bike_id": "d9fea7885280bf2656fce56c763402b8", "is_disabled": 0, "lat": 38.834898833333334, "is_reserved": 0, "type": "electric_scooter"}, {"fusion_lat": 0.0, "name": "faf6c9b046f289046aa1a24e5dd09555", "lon": -77.01083383333334, "rental_uris": {"android": "https://dc.lft.to/lastmile_qr_scan", "ios": "https://dc.lft.to/lastmile_qr_scan"}, "fusion_lon": 0.0, "bike_id": "faf6c9b046f289046aa1a24e5dd09555", "is_disabled": 0, "lat": 38.894848333333336, "is_reserved": 0, "type": "electric_scooter"}, {"fusion_lat": 0.0, "name": "2f475ff2cad49322af03048b40b50eac", "lon": -76.99712666666667, "rental_uris": {"android": "https://dc.lft.to/lastmile_qr_scan", "ios": "https://dc.lft.to/lastmile_qr_scan"}, "fusion_lon": 0.0, "bike_id": "2f475ff2cad49322af03048b40b50eac", "is_disabled": 0, "lat": 38.884763, "is_reserved": 0, "type": "electric_scooter"}, {"fusion_lat": 0.0, "name": "7f8b4249ad5d015a27373247b23450cc", "lon": -77.03662883333334, "rental_uris": {"android": "https://dc.lft.to/lastmile_qr_scan", "ios": "https://dc.lft.to/lastmile_qr_scan"}, "fusion_lon": 0.0, "bike_id": "7f8b4249ad5d015a27373247b23450cc", "is_disabled": 0, "lat": 38.92112916666667, "is_reserved": 0, "type": "electric_scooter"}, {"fusion_lat": 0.0, "name": "030ca2efc38a968be0f4dac7fd902850", "lon": -77.0321255, "rental_uris": {"android": "https://dc.lft.to/lastmile_qr_scan", "ios": "https://dc.lft.to/lastmile_qr_scan"}, "fusion_lon": 0.0, "bike_id": "030ca2efc38a968be0f4dac7fd902850", "is_disabled": 0, "lat": 38.91616466666667, "is_reserved": 0, "type": "electric_scooter"}, {"fusion_lat": 0.0, "name": "a69d6c034879e0466221cea2d2658530", "lon": -77.04892666666667, "rental_uris": {"android": "https://dc.lft.to/lastmile_qr_scan", "ios": "https://dc.lft.to/lastmile_qr_scan"}, "fusion_lon": 0.0, "bike_id": "a69d6c034879e0466221cea2d2658530", "is_disabled": 0, "lat": 38.892236833333335, "is_reserved": 0, "type": "electric_scooter"}, {"fusion_lat": 0.0, "name": "856dc6d9feca8c45632d107cd41ac3dd", "lon": -77.02117583333333, "rental_uris": {"android": "https://dc.lft.to/lastmile_qr_scan", "ios": "https://dc.lft.to/lastmile_qr_scan"}, "fusion_lon": 0.0, "bike_id": "856dc6d9feca8c45632d107cd41ac3dd", "is_disabled": 0, "lat": 38.915499, "is_reserved": 0, "type": "electric_scooter"}, {"fusion_lat": 0.0, "name": "336eddd7fee4c63de0710d82ec60e14c", "lon": -77.03853766666667, "rental_uris": {"android": "https://dc.lft.to/lastmile_qr_scan", "ios": "https://dc.lft.to/lastmile_qr_scan"}, "fusion_lon": 0.0, "bike_id": "336eddd7fee4c63de0710d82ec60e14c", "is_disabled": 0, "lat": 38.913024, "is_reserved": 0, "type": "electric_scooter"}, {"fusion_lat": 0.0, "name": "016ea417f796264200a8c0977d53a39f", "lon": -77.0187375, "rental_uris": {"android": "https://dc.lft.to/lastmile_qr_scan", "ios": "https://dc.lft.to/lastmile_qr_scan"}, "fusion_lon": 0.0, "bike_id": "016ea417f796264200a8c0977d53a39f", "is_disabled": 0, "lat": 38.921364, "is_reserved": 0, "type": "electric_scooter"}, {"fusion_lat": 0.0, "name": "868dabe1448cd716dff6a6fd9a6c37ef", "lon": -77.07307816666666, "rental_uris": {"android": "https://dc.lft.to/lastmile_qr_scan", "ios": "https://dc.lft.to/lastmile_qr_scan"}, "fusion_lon": 0.0, "bike_id": "868dabe1448cd716dff6a6fd9a6c37ef", "is_disabled": 0, "lat": 38.90772533333333, "is_reserved": 0, "type": "electric_scooter"}, {"fusion_lat": 0.0, "name": "9c384df850ef085e48a2bcc979a8e715", "lon": -76.93754816666667, "rental_uris": {"android": "https://dc.lft.to/lastmile_qr_scan", "ios": "https://dc.lft.to/lastmile_qr_scan"}, "fusion_lon": 0.0, "bike_id": "9c384df850ef085e48a2bcc979a8e715", "is_disabled": 0, "lat": 38.8904175, "is_reserved": 0, "type": "electric_scooter"}, {"fusion_lat": 0.0, "name": "0ee5734528972a3c1ee2fc14a9406b78", "lon": -76.98352, "rental_uris": {"android": "https://dc.lft.to/lastmile_qr_scan", "ios": "https://dc.lft.to/lastmile_qr_scan"}, "fusion_lon": 0.0, "bike_id": "0ee5734528972a3c1ee2fc14a9406b78", "is_disabled": 0, "lat": 38.8871555, "is_reserved": 0, "type": "electric_scooter"}, {"fusion_lat": 0.0, "name": "d912a4cca42c623165794695a50b2850", "lon": -76.9894535, "rental_uris": {"android": "https://dc.lft.to/lastmile_qr_scan", "ios": "https://dc.lft.to/lastmile_qr_scan"}, "fusion_lon": 0.0, "bike_id": "d912a4cca42c623165794695a50b2850", "is_disabled": 0, "lat": 38.86696083333333, "is_reserved": 0, "type": "electric_bike"}, {"fusion_lat": 0.0, "name": "35a80a2e5af8f07b75c509c135a56506", "lon": -76.98346816666667, "rental_uris": {"android": "https://dc.lft.to/lastmile_qr_scan", "ios": "https://dc.lft.to/lastmile_qr_scan"}, "fusion_lon": 0.0, "bike_id": "35a80a2e5af8f07b75c509c135a56506", "is_disabled": 0, "lat": 38.849929333333336, "is_reserved": 0, "type": "electric_scooter"}, {"fusion_lat": 0.0, "name": "fe68b1f482a0a7cf34609bb8c4b6ac9d", "lon": -77.0269845, "rental_uris": {"android": "https://dc.lft.to/lastmile_qr_scan", "ios": "https://dc.lft.to/lastmile_qr_scan"}, "fusion_lon": 0.0, "bike_id": "fe68b1f482a0a7cf34609bb8c4b6ac9d", "is_disabled": 0, "lat": 38.90842283333333, "is_reserved": 0, "type": "electric_scooter"}, {"fusion_lat": 0.0, "name": "59a5143a219c2395a801ec32c381a3ec", "lon": -77.02489233333333, "rental_uris": {"android": "https://dc.lft.to/lastmile_qr_scan", "ios": "https://dc.lft.to/lastmile_qr_scan"}, "fusion_lon": 0.0, "bike_id": "59a5143a219c2395a801ec32c381a3ec", "is_disabled": 0, "lat": 38.927421, "is_reserved": 0, "type": "electric_scooter"}, {"fusion_lat": 0.0, "name": "3055afb88aaf0dc1eb36e5d51e24775d", "lon": -76.98710883333334, "rental_uris": {"android": "https://dc.lft.to/lastmile_qr_scan", "ios": "https://dc.lft.to/lastmile_qr_scan"}, "fusion_lon": 0.0, "bike_id": "3055afb88aaf0dc1eb36e5d51e24775d", "is_disabled": 0, "lat": 38.866994, "is_reserved": 0, "type": "electric_scooter"}, {"fusion_lat": 0.0, "name": "0b08907ebbae0896a2036fd83958d254", "lon": -77.043338, "rental_uris": {"android": "https://dc.lft.to/lastmile_qr_scan", "ios": "https://dc.lft.to/lastmile_qr_scan"}, "fusion_lon": 0.0, "bike_id": "0b08907ebbae0896a2036fd83958d254", "is_disabled": 0, "lat": 38.9088175, "is_reserved": 0, "type": "electric_scooter"}, {"fusion_lat": 0.0, "name": "bd3380421180d9d21fcc0b35bba5e258", "lon": -77.05133933333333, "rental_uris": {"android": "https://dc.lft.to/lastmile_qr_scan", "ios": "https://dc.lft.to/lastmile_qr_scan"}, "fusion_lon": 0.0, "bike_id": "bd3380421180d9d21fcc0b35bba5e258", "is_disabled": 0, "lat": 38.923584, "is_reserved": 0, "type": "electric_scooter"}, {"fusion_lat": 0.0, "name": "67fa1c6acd8d5e1a89353b2f479c46e3", "lon": -77.01406133333333, "rental_uris": {"android": "https://dc.lft.to/lastmile_qr_scan", "ios": "https://dc.lft.to/lastmile_qr_scan"}, "fusion_lon": 0.0, "bike_id": "67fa1c6acd8d5e1a89353b2f479c46e3", "is_disabled": 0, "lat": 38.92866766666667, "is_reserved": 0, "type": "electric_scooter"}, {"fusion_lat": 0.0, "name": "12ac5b14d095a450871c449024631dce", "lon": -77.0437575, "rental_uris": {"android": "https://dc.lft.to/lastmile_qr_scan", "ios": "https://dc.lft.to/lastmile_qr_scan"}, "fusion_lon": 0.0, "bike_id": "12ac5b14d095a450871c449024631dce", "is_disabled": 0, "lat": 38.892162, "is_reserved": 0, "type": "electric_scooter"}, {"fusion_lat": 0.0, "name": "3b2ce5789e08864b4b6adf0aafab8ac5", "lon": -76.95583883333333, "rental_uris": {"android": "https://dc.lft.to/lastmile_qr_scan", "ios": "https://dc.lft.to/lastmile_qr_scan"}, "fusion_lon": 0.0, "bike_id": "3b2ce5789e08864b4b6adf0aafab8ac5", "is_disabled": 0, "lat": 38.967284, "is_reserved": 0, "type": "electric_bike"}, {"fusion_lat": 0.0, "name": "87a9bffb9a37e73aa3621f661202a977", "lon": -76.98225166666667, "rental_uris": {"android": "https://dc.lft.to/lastmile_qr_scan", "ios": "https://dc.lft.to/lastmile_qr_scan"}, "fusion_lon": 0.0, "bike_id": "87a9bffb9a37e73aa3621f661202a977", "is_disabled": 0, "lat": 38.86897366666667, "is_reserved": 0, "type": "electric_scooter"}, {"fusion_lat": 0.0, "name": "87e90d8be7a629b37711ae61ebd25ca6", "lon": -77.043775, "rental_uris": {"android": "https://dc.lft.to/lastmile_qr_scan", "ios": "https://dc.lft.to/lastmile_qr_scan"}, "fusion_lon": 0.0, "bike_id": "87e90d8be7a629b37711ae61ebd25ca6", "is_disabled": 0, "lat": 38.89213733333333, "is_reserved": 0, "type": "electric_scooter"}, {"fusion_lat": 0.0, "name": "6f8386b515aa05aa0ef708394d777290", "lon": -77.01301116666667, "rental_uris": {"android": "https://dc.lft.to/lastmile_qr_scan", "ios": "https://dc.lft.to/lastmile_qr_scan"}, "fusion_lon": 0.0, "bike_id": "6f8386b515aa05aa0ef708394d777290", "is_disabled": 0, "lat": 38.930257833333336, "is_reserved": 0, "type": "electric_scooter"}, {"fusion_lat": 0.0, "name": "be421fd1dafac90d8b9add00d5ff96b6", "lon": -77.034401, "rental_uris": {"android": "https://dc.lft.to/lastmile_qr_scan", "ios": "https://dc.lft.to/lastmile_qr_scan"}, "fusion_lon": 0.0, "bike_id": "be421fd1dafac90d8b9add00d5ff96b6", "is_disabled": 0, "lat": 38.91798566666667, "is_reserved": 0, "type": "electric_scooter"}, {"fusion_lat": 0.0, "name": "6a0b9133a1faa6a60367cd41300be1c2", "lon": -77.04876833333333, "rental_uris": {"android": "https://dc.lft.to/lastmile_qr_scan", "ios": "https://dc.lft.to/lastmile_qr_scan"}, "fusion_lon": 0.0, "bike_id": "6a0b9133a1faa6a60367cd41300be1c2", "is_disabled": 0, "lat": 38.90715316666667, "is_reserved": 0, "type": "electric_scooter"}, {"fusion_lat": 0.0, "name": "99ef49923384e5d99d52e3d1624ce02d", "lon": -77.046734, "rental_uris": {"android": "https://dc.lft.to/lastmile_qr_scan", "ios": "https://dc.lft.to/lastmile_qr_scan"}, "fusion_lon": 0.0, "bike_id": "99ef49923384e5d99d52e3d1624ce02d", "is_disabled": 0, "lat": 38.89553866666667, "is_reserved": 0, "type": "electric_scooter"}, {"fusion_lat": 0.0, "name": "f0a570c12ca60aefb6c75f79435ad44d", "lon": -77.01978183333334, "rental_uris": {"android": "https://dc.lft.to/lastmile_qr_scan", "ios": "https://dc.lft.to/lastmile_qr_scan"}, "fusion_lon": 0.0, "bike_id": "f0a570c12ca60aefb6c75f79435ad44d", "is_disabled": 0, "lat": 38.9602785, "is_reserved": 0, "type": "electric_scooter"}, {"fusion_lat": 0.0, "name": "0b52c330cc5bc763d76f622a9f95513c", "lon": -76.949926, "rental_uris": {"android": "https://dc.lft.to/lastmile_qr_scan", "ios": "https://dc.lft.to/lastmile_qr_scan"}, "fusion_lon": 0.0, "bike_id": "0b52c330cc5bc763d76f622a9f95513c", "is_disabled": 0, "lat": 38.89372083333333, "is_reserved": 0, "type": "electric_scooter"}, {"fusion_lat": 0.0, "name": "36c799e66b210bccde5d289fb1fca4d8", "lon": -77.02155366666666, "rental_uris": {"android": "https://dc.lft.to/lastmile_qr_scan", "ios": "https://dc.lft.to/lastmile_qr_scan"}, "fusion_lon": 0.0, "bike_id": "36c799e66b210bccde5d289fb1fca4d8", "is_disabled": 0, "lat": 38.89489966666667, "is_reserved": 0, "type": "electric_scooter"}, {"fusion_lat": 0.0, "name": "7284eb9515933c7f74800997b66740d5", "lon": -77.03026783333334, "rental_uris": {"android": "https://dc.lft.to/lastmile_qr_scan", "ios": "https://dc.lft.to/lastmile_qr_scan"}, "fusion_lon": 0.0, "bike_id": "7284eb9515933c7f74800997b66740d5", "is_disabled": 0, "lat": 38.9118055, "is_reserved": 0, "type": "electric_scooter"}, {"fusion_lat": 0.0, "name": "2c80e4b13124176c246e3ab19c6ece94", "lon": -77.02226583333334, "rental_uris": {"android": "https://dc.lft.to/lastmile_qr_scan", "ios": "https://dc.lft.to/lastmile_qr_scan"}, "fusion_lon": 0.0, "bike_id": "2c80e4b13124176c246e3ab19c6ece94", "is_disabled": 0, "lat": 38.935474, "is_reserved": 0, "type": "electric_scooter"}, {"fusion_lat": 0.0, "name": "35b38d29ea6354b1831547227523fe86", "lon": -77.036506, "rental_uris": {"android": "https://dc.lft.to/lastmile_qr_scan", "ios": "https://dc.lft.to/lastmile_qr_scan"}, "fusion_lon": 0.0, "bike_id": "35b38d29ea6354b1831547227523fe86", "is_disabled": 0, "lat": 38.90269983333334, "is_reserved": 0, "type": "electric_scooter"}, {"fusion_lat": 0.0, "name": "3b7c120df7a7218dad458b174f79e11a", "lon": -77.03292416666666, "rental_uris": {"android": "https://dc.lft.to/lastmile_qr_scan", "ios": "https://dc.lft.to/lastmile_qr_scan"}, "fusion_lon": 0.0, "bike_id": "3b7c120df7a7218dad458b174f79e11a", "is_disabled": 0, "lat": 38.95623966666667, "is_reserved": 0, "type": "electric_scooter"}, {"fusion_lat": 0.0, "name": "c4b4a5f307275952599132881f88d938", "lon": -77.02579666666666, "rental_uris": {"android": "https://dc.lft.to/lastmile_qr_scan", "ios": "https://dc.lft.to/lastmile_qr_scan"}, "fusion_lon": 0.0, "bike_id": "c4b4a5f307275952599132881f88d938", "is_disabled": 0, "lat": 38.91488733333333, "is_reserved": 0, "type": "electric_scooter"}, {"fusion_lat": 0.0, "name": "8c026e0eb89f99c8deb1514f857fe933", "lon": -77.058661, "rental_uris": {"android": "https://dc.lft.to/lastmile_qr_scan", "ios": "https://dc.lft.to/lastmile_qr_scan"}, "fusion_lon": 0.0, "bike_id": "8c026e0eb89f99c8deb1514f857fe933", "is_disabled": 0, "lat": 38.9360385, "is_reserved": 0, "type": "electric_scooter"}, {"fusion_lat": 0.0, "name": "4e28289ee17f42e79d1821579fabc3da", "lon": -77.03098666666666, "rental_uris": {"android": "https://dc.lft.to/lastmile_qr_scan", "ios": "https://dc.lft.to/lastmile_qr_scan"}, "fusion_lon": 0.0, "bike_id": "4e28289ee17f42e79d1821579fabc3da", "is_disabled": 0, "lat": 38.933053, "is_reserved": 0, "type": "electric_scooter"}, {"fusion_lat": 0.0, "name": "f8e2af9928bdeb9827f053a3b6d19c19", "lon": -77.02358116666667, "rental_uris": {"android": "https://dc.lft.to/lastmile_qr_scan", "ios": "https://dc.lft.to/lastmile_qr_scan"}, "fusion_lon": 0.0, "bike_id": "f8e2af9928bdeb9827f053a3b6d19c19", "is_disabled": 0, "lat": 38.920528166666664, "is_reserved": 0, "type": "electric_scooter"}, {"fusion_lat": 0.0, "name": "58f0531e3c7315e1a66cab94df9d030e", "lon": -77.03776983333333, "rental_uris": {"android": "https://dc.lft.to/lastmile_qr_scan", "ios": "https://dc.lft.to/lastmile_qr_scan"}, "fusion_lon": 0.0, "bike_id": "58f0531e3c7315e1a66cab94df9d030e", "is_disabled": 0, "lat": 38.91687616666667, "is_reserved": 0, "type": "electric_scooter"}, {"fusion_lat": 0.0, "name": "04e213027299f626f931bbab570cbfb1", "lon": -77.04336833333333, "rental_uris": {"android": "https://dc.lft.to/lastmile_qr_scan", "ios": "https://dc.lft.to/lastmile_qr_scan"}, "fusion_lon": 0.0, "bike_id": "04e213027299f626f931bbab570cbfb1", "is_disabled": 0, "lat": 38.901114166666666, "is_reserved": 0, "type": "electric_scooter"}, {"fusion_lat": 0.0, "name": "21e1dfd780169b92dd59b809a51ad620", "lon": -76.99331433333333, "rental_uris": {"android": "https://dc.lft.to/lastmile_qr_scan", "ios": "https://dc.lft.to/lastmile_qr_scan"}, "fusion_lon": 0.0, "bike_id": "21e1dfd780169b92dd59b809a51ad620", "is_disabled": 0, "lat": 38.871436833333334, "is_reserved": 0, "type": "electric_scooter"}, {"fusion_lat": 0.0, "name": "88a13ef6d02fb046cd5df5c03dd9d38a", "lon": -77.081818, "rental_uris": {"android": "https://dc.lft.to/lastmile_qr_scan", "ios": "https://dc.lft.to/lastmile_qr_scan"}, "fusion_lon": 0.0, "bike_id": "88a13ef6d02fb046cd5df5c03dd9d38a", "is_disabled": 0, "lat": 38.935310333333334, "is_reserved": 0, "type": "electric_bike"}, {"fusion_lat": 0.0, "name": "97791dd85f0ef74862471edba06e1b34", "lon": -77.02788583333333, "rental_uris": {"android": "https://dc.lft.to/lastmile_qr_scan", "ios": "https://dc.lft.to/lastmile_qr_scan"}, "fusion_lon": 0.0, "bike_id": "97791dd85f0ef74862471edba06e1b34", "is_disabled": 0, "lat": 38.9308335, "is_reserved": 0, "type": "electric_scooter"}, {"fusion_lat": 0.0, "name": "6ba568643b6110f8bf0b8fa6eb74d29a", "lon": -77.05714583333334, "rental_uris": {"android": "https://dc.lft.to/lastmile_qr_scan", "ios": "https://dc.lft.to/lastmile_qr_scan"}, "fusion_lon": 0.0, "bike_id": "6ba568643b6110f8bf0b8fa6eb74d29a", "is_disabled": 0, "lat": 38.93336083333333, "is_reserved": 0, "type": "electric_scooter"}, {"fusion_lat": 0.0, "name": "006dd02bb1c5ffd31479aa26fbb4e5fc", "lon": -77.01968266666667, "rental_uris": {"android": "https://dc.lft.to/lastmile_qr_scan", "ios": "https://dc.lft.to/lastmile_qr_scan"}, "fusion_lon": 0.0, "bike_id": "006dd02bb1c5ffd31479aa26fbb4e5fc", "is_disabled": 0, "lat": 38.87845166666666, "is_reserved": 0, "type": "electric_scooter"}, {"fusion_lat": 0.0, "name": "f26a12dfc210838c209d820fd388903a", "lon": -77.02574616666666, "rental_uris": {"android": "https://dc.lft.to/lastmile_qr_scan", "ios": "https://dc.lft.to/lastmile_qr_scan"}, "fusion_lon": 0.0, "bike_id": "f26a12dfc210838c209d820fd388903a", "is_disabled": 0, "lat": 38.931878833333336, "is_reserved": 0, "type": "electric_scooter"}, {"fusion_lat": 0.0, "name": "557024f2f782655309147481bbe13401", "lon": -77.02196966666666, "rental_uris": {"android": "https://dc.lft.to/lastmile_qr_scan", "ios": "https://dc.lft.to/lastmile_qr_scan"}, "fusion_lon": 0.0, "bike_id": "557024f2f782655309147481bbe13401", "is_disabled": 0, "lat": 38.91121166666667, "is_reserved": 0, "type": "electric_scooter"}, {"fusion_lat": 0.0, "name": "e8324d4f4d89704ce0bf9de53cc13413", "lon": -77.01222966666667, "rental_uris": {"android": "https://dc.lft.to/lastmile_qr_scan", "ios": "https://dc.lft.to/lastmile_qr_scan"}, "fusion_lon": 0.0, "bike_id": "e8324d4f4d89704ce0bf9de53cc13413", "is_disabled": 0, "lat": 38.89769366666667, "is_reserved": 0, "type": "electric_scooter"}, {"fusion_lat": 0.0, "name": "4cc51b88d8f73cab553dacce48e1d4b7", "lon": -77.05047883333333, "rental_uris": {"android": "https://dc.lft.to/lastmile_qr_scan", "ios": "https://dc.lft.to/lastmile_qr_scan"}, "fusion_lon": 0.0, "bike_id": "4cc51b88d8f73cab553dacce48e1d4b7", "is_disabled": 0, "lat": 38.923615, "is_reserved": 0, "type": "electric_scooter"}, {"fusion_lat": 0.0, "name": "f288499b871b3c2b89d5ee3b538e4ca5", "lon": -77.04256533333333, "rental_uris": {"android": "https://dc.lft.to/lastmile_qr_scan", "ios": "https://dc.lft.to/lastmile_qr_scan"}, "fusion_lon": 0.0, "bike_id": "f288499b871b3c2b89d5ee3b538e4ca5", "is_disabled": 0, "lat": 38.92219216666667, "is_reserved": 0, "type": "electric_scooter"}, {"fusion_lat": 0.0, "name": "e7f468c36fdcce7e466f5185644c8aa6", "lon": -77.01947483333333, "rental_uris": {"android": "https://dc.lft.to/lastmile_qr_scan", "ios": "https://dc.lft.to/lastmile_qr_scan"}, "fusion_lon": 0.0, "bike_id": "e7f468c36fdcce7e466f5185644c8aa6", "is_disabled": 0, "lat": 38.8839835, "is_reserved": 0, "type": "electric_scooter"}, {"fusion_lat": 0.0, "name": "e5a825368249a767e0b9bd77927f8266", "lon": -77.018878, "rental_uris": {"android": "https://dc.lft.to/lastmile_qr_scan", "ios": "https://dc.lft.to/lastmile_qr_scan"}, "fusion_lon": 0.0, "bike_id": "e5a825368249a767e0b9bd77927f8266", "is_disabled": 0, "lat": 38.91454483333333, "is_reserved": 0, "type": "electric_scooter"}, {"fusion_lat": 0.0, "name": "a5a8706923d1c7851af6f654dba62a31", "lon": -76.9609245, "rental_uris": {"android": "https://dc.lft.to/lastmile_qr_scan", "ios": "https://dc.lft.to/lastmile_qr_scan"}, "fusion_lon": 0.0, "bike_id": "a5a8706923d1c7851af6f654dba62a31", "is_disabled": 0, "lat": 38.91851483333333, "is_reserved": 0, "type": "electric_bike"}, {"fusion_lat": 0.0, "name": "a9383ba5d24ae7c07975484fd378c84e", "lon": -77.04653216666667, "rental_uris": {"android": "https://dc.lft.to/lastmile_qr_scan", "ios": "https://dc.lft.to/lastmile_qr_scan"}, "fusion_lon": 0.0, "bike_id": "a9383ba5d24ae7c07975484fd378c84e", "is_disabled": 0, "lat": 38.90941133333333, "is_reserved": 0, "type": "electric_scooter"}, {"fusion_lat": 0.0, "name": "97b0de0393e5c3dfded105da98a577a2", "lon": -77.05574216666666, "rental_uris": {"android": "https://dc.lft.to/lastmile_qr_scan", "ios": "https://dc.lft.to/lastmile_qr_scan"}, "fusion_lon": 0.0, "bike_id": "97b0de0393e5c3dfded105da98a577a2", "is_disabled": 0, "lat": 38.897279, "is_reserved": 0, "type": "electric_scooter"}, {"fusion_lat": 0.0, "name": "32dd1e3e2b31c502e8fb2ee63ef08eec", "lon": -77.023958, "rental_uris": {"android": "https://dc.lft.to/lastmile_qr_scan", "ios": "https://dc.lft.to/lastmile_qr_scan"}, "fusion_lon": 0.0, "bike_id": "32dd1e3e2b31c502e8fb2ee63ef08eec", "is_disabled": 0, "lat": 38.91986266666667, "is_reserved": 0, "type": "electric_scooter"}, {"fusion_lat": 0.0, "name": "39be22ddeb8c9cbbb2fb2d8a4fe910dd", "lon": -76.9849765, "rental_uris": {"android": "https://dc.lft.to/lastmile_qr_scan", "ios": "https://dc.lft.to/lastmile_qr_scan"}, "fusion_lon": 0.0, "bike_id": "39be22ddeb8c9cbbb2fb2d8a4fe910dd", "is_disabled": 0, "lat": 38.90432233333333, "is_reserved": 0, "type": "electric_scooter"}, {"fusion_lat": 0.0, "name": "c87db399f8c18b17204275dcb1b46aee", "lon": -77.07226366666667, "rental_uris": {"android": "https://dc.lft.to/lastmile_qr_scan", "ios": "https://dc.lft.to/lastmile_qr_scan"}, "fusion_lon": 0.0, "bike_id": "c87db399f8c18b17204275dcb1b46aee", "is_disabled": 0, "lat": 38.96815133333333, "is_reserved": 0, "type": "electric_bike"}, {"fusion_lat": 0.0, "name": "decd3d9bb1b851f46bd7d2c08304560b", "lon": -77.02393583333334, "rental_uris": {"android": "https://dc.lft.to/lastmile_qr_scan", "ios": "https://dc.lft.to/lastmile_qr_scan"}, "fusion_lon": 0.0, "bike_id": "decd3d9bb1b851f46bd7d2c08304560b", "is_disabled": 0, "lat": 38.92071633333333, "is_reserved": 0, "type": "electric_scooter"}, {"fusion_lat": 0.0, "name": "b21950c31b8423d412fc6c584fe9ebab", "lon": -77.01061633333333, "rental_uris": {"android": "https://dc.lft.to/lastmile_qr_scan", "ios": "https://dc.lft.to/lastmile_qr_scan"}, "fusion_lon": 0.0, "bike_id": "b21950c31b8423d412fc6c584fe9ebab", "is_disabled": 0, "lat": 38.9126925, "is_reserved": 0, "type": "electric_scooter"}, {"fusion_lat": 0.0, "name": "5ba03d884e1e53571f947855d7178dc0", "lon": -77.02808333333333, "rental_uris": {"android": "https://dc.lft.to/lastmile_qr_scan", "ios": "https://dc.lft.to/lastmile_qr_scan"}, "fusion_lon": 0.0, "bike_id": "5ba03d884e1e53571f947855d7178dc0", "is_disabled": 0, "lat": 38.895686166666664, "is_reserved": 0, "type": "electric_scooter"}, {"fusion_lat": 0.0, "name": "b425f2542ba8d44e142154cb7bf39e3a", "lon": -77.01208866666667, "rental_uris": {"android": "https://dc.lft.to/lastmile_qr_scan", "ios": "https://dc.lft.to/lastmile_qr_scan"}, "fusion_lon": 0.0, "bike_id": "b425f2542ba8d44e142154cb7bf39e3a", "is_disabled": 0, "lat": 38.8708555, "is_reserved": 0, "type": "electric_bike"}, {"fusion_lat": 0.0, "name": "d93f35104d9f48db85da9110e6df84dc", "lon": -76.9822985, "rental_uris": {"android": "https://dc.lft.to/lastmile_qr_scan", "ios": "https://dc.lft.to/lastmile_qr_scan"}, "fusion_lon": 0.0, "bike_id": "d93f35104d9f48db85da9110e6df84dc", "is_disabled": 0, "lat": 38.91645033333333, "is_reserved": 0, "type": "electric_scooter"}, {"fusion_lat": 0.0, "name": "fd1c55fca1e45d22f7adf14da9dc83bc", "lon": -77.03609266666666, "rental_uris": {"android": "https://dc.lft.to/lastmile_qr_scan", "ios": "https://dc.lft.to/lastmile_qr_scan"}, "fusion_lon": 0.0, "bike_id": "fd1c55fca1e45d22f7adf14da9dc83bc", "is_disabled": 0, "lat": 38.928004, "is_reserved": 0, "type": "electric_scooter"}, {"fusion_lat": 0.0, "name": "a7064c40fbb8382bcac0bd9effe40284", "lon": -77.00586916666667, "rental_uris": {"android": "https://dc.lft.to/lastmile_qr_scan", "ios": "https://dc.lft.to/lastmile_qr_scan"}, "fusion_lon": 0.0, "bike_id": "a7064c40fbb8382bcac0bd9effe40284", "is_disabled": 0, "lat": 38.876289166666666, "is_reserved": 0, "type": "electric_scooter"}, {"fusion_lat": 0.0, "name": "ae73c04e9369e5ca582ee04eddd7d2eb", "lon": -77.019396, "rental_uris": {"android": "https://dc.lft.to/lastmile_qr_scan", "ios": "https://dc.lft.to/lastmile_qr_scan"}, "fusion_lon": 0.0, "bike_id": "ae73c04e9369e5ca582ee04eddd7d2eb", "is_disabled": 0, "lat": 38.92368783333333, "is_reserved": 0, "type": "electric_scooter"}, {"fusion_lat": 0.0, "name": "cdc41a07665b1fa60758d2bcd62338e0", "lon": -77.01770466666666, "rental_uris": {"android": "https://dc.lft.to/lastmile_qr_scan", "ios": "https://dc.lft.to/lastmile_qr_scan"}, "fusion_lon": 0.0, "bike_id": "cdc41a07665b1fa60758d2bcd62338e0", "is_disabled": 0, "lat": 38.8871, "is_reserved": 0, "type": "electric_scooter"}, {"fusion_lat": 0.0, "name": "7747a92c3bf985ffed214d187afd5685", "lon": -77.0354655, "rental_uris": {"android": "https://dc.lft.to/lastmile_qr_scan", "ios": "https://dc.lft.to/lastmile_qr_scan"}, "fusion_lon": 0.0, "bike_id": "7747a92c3bf985ffed214d187afd5685", "is_disabled": 0, "lat": 38.918549166666665, "is_reserved": 0, "type": "electric_scooter"}, {"fusion_lat": 0.0, "name": "7ca050d4d0938f01cf906c73f56f607f", "lon": -77.00911916666666, "rental_uris": {"android": "https://dc.lft.to/lastmile_qr_scan", "ios": "https://dc.lft.to/lastmile_qr_scan"}, "fusion_lon": 0.0, "bike_id": "7ca050d4d0938f01cf906c73f56f607f", "is_disabled": 0, "lat": 38.89886116666667, "is_reserved": 0, "type": "electric_scooter"}, {"fusion_lat": 0.0, "name": "2a474e6cbef415710c2f9173648841a8", "lon": -77.0436995, "rental_uris": {"android": "https://dc.lft.to/lastmile_qr_scan", "ios": "https://dc.lft.to/lastmile_qr_scan"}, "fusion_lon": 0.0, "bike_id": "2a474e6cbef415710c2f9173648841a8", "is_disabled": 0, "lat": 38.89849533333334, "is_reserved": 0, "type": "electric_scooter"}, {"fusion_lat": 0.0, "name": "55c0227f3cb3fa77c1d0ccc07c1a1779", "lon": -77.03809, "rental_uris": {"android": "https://dc.lft.to/lastmile_qr_scan", "ios": "https://dc.lft.to/lastmile_qr_scan"}, "fusion_lon": 0.0, "bike_id": "55c0227f3cb3fa77c1d0ccc07c1a1779", "is_disabled": 0, "lat": 38.923209, "is_reserved": 0, "type": "electric_scooter"}, {"fusion_lat": 0.0, "name": "a559096b5a1546709e776930d3408c8b", "lon": -77.02581716666667, "rental_uris": {"android": "https://dc.lft.to/lastmile_qr_scan", "ios": "https://dc.lft.to/lastmile_qr_scan"}, "fusion_lon": 0.0, "bike_id": "a559096b5a1546709e776930d3408c8b", "is_disabled": 0, "lat": 38.91478716666667, "is_reserved": 0, "type": "electric_scooter"}, {"fusion_lat": 0.0, "name": "514b64007819855b990e20762cb58d76", "lon": -77.014036, "rental_uris": {"android": "https://dc.lft.to/lastmile_qr_scan", "ios": "https://dc.lft.to/lastmile_qr_scan"}, "fusion_lon": 0.0, "bike_id": "514b64007819855b990e20762cb58d76", "is_disabled": 0, "lat": 38.928730333333334, "is_reserved": 0, "type": "electric_scooter"}, {"fusion_lat": 0.0, "name": "be4120852eb1aee2992a09e86b26f82d", "lon": -77.023277, "rental_uris": {"android": "https://dc.lft.to/lastmile_qr_scan", "ios": "https://dc.lft.to/lastmile_qr_scan"}, "fusion_lon": 0.0, "bike_id": "be4120852eb1aee2992a09e86b26f82d", "is_disabled": 0, "lat": 38.916659833333334, "is_reserved": 0, "type": "electric_scooter"}, {"fusion_lat": 0.0, "name": "878671823f00d62c61e8e55daee8ca12", "lon": -76.99695583333333, "rental_uris": {"android": "https://dc.lft.to/lastmile_qr_scan", "ios": "https://dc.lft.to/lastmile_qr_scan"}, "fusion_lon": 0.0, "bike_id": "878671823f00d62c61e8e55daee8ca12", "is_disabled": 0, "lat": 38.90829983333333, "is_reserved": 0, "type": "electric_scooter"}, {"fusion_lat": 0.0, "name": "a3fa4a7089d3dd009b2c486a70a8b8ce", "lon": -77.04032983333333, "rental_uris": {"android": "https://dc.lft.to/lastmile_qr_scan", "ios": "https://dc.lft.to/lastmile_qr_scan"}, "fusion_lon": 0.0, "bike_id": "a3fa4a7089d3dd009b2c486a70a8b8ce", "is_disabled": 0, "lat": 38.8999585, "is_reserved": 0, "type": "electric_scooter"}, {"fusion_lat": 0.0, "name": "afdecba60f6c9d97350dadb51dd98d67", "lon": -77.03003183333334, "rental_uris": {"android": "https://dc.lft.to/lastmile_qr_scan", "ios": "https://dc.lft.to/lastmile_qr_scan"}, "fusion_lon": 0.0, "bike_id": "afdecba60f6c9d97350dadb51dd98d67", "is_disabled": 0, "lat": 38.93973783333333, "is_reserved": 0, "type": "electric_scooter"}, {"fusion_lat": 0.0, "name": "8777e6136ba3358b5719639a58dcbe7b", "lon": -77.02044683333334, "rental_uris": {"android": "https://dc.lft.to/lastmile_qr_scan", "ios": "https://dc.lft.to/lastmile_qr_scan"}, "fusion_lon": 0.0, "bike_id": "8777e6136ba3358b5719639a58dcbe7b", "is_disabled": 0, "lat": 38.926841, "is_reserved": 0, "type": "electric_scooter"}, {"fusion_lat": 0.0, "name": "e75acef645147a26548674a5d4a9c065", "lon": -77.04336333333333, "rental_uris": {"android": "https://dc.lft.to/lastmile_qr_scan", "ios": "https://dc.lft.to/lastmile_qr_scan"}, "fusion_lon": 0.0, "bike_id": "e75acef645147a26548674a5d4a9c065", "is_disabled": 0, "lat": 38.892257666666666, "is_reserved": 0, "type": "electric_scooter"}, {"fusion_lat": 0.0, "name": "0435239e410eb8ae2b1b4f096569688a", "lon": -76.99132633333333, "rental_uris": {"android": "https://dc.lft.to/lastmile_qr_scan", "ios": "https://dc.lft.to/lastmile_qr_scan"}, "fusion_lon": 0.0, "bike_id": "0435239e410eb8ae2b1b4f096569688a", "is_disabled": 0, "lat": 38.8891615, "is_reserved": 0, "type": "electric_scooter"}, {"fusion_lat": 0.0, "name": "583ae0982dd610a8ebe3307cdce7e6ab", "lon": -77.01218383333334, "rental_uris": {"android": "https://dc.lft.to/lastmile_qr_scan", "ios": "https://dc.lft.to/lastmile_qr_scan"}, "fusion_lon": 0.0, "bike_id": "583ae0982dd610a8ebe3307cdce7e6ab", "is_disabled": 0, "lat": 38.89609816666667, "is_reserved": 0, "type": "electric_scooter"}, {"fusion_lat": 0.0, "name": "0ee8e7a94dd30a1827ae8b2e957b6bf5", "lon": -76.99148483333333, "rental_uris": {"android": "https://dc.lft.to/lastmile_qr_scan", "ios": "https://dc.lft.to/lastmile_qr_scan"}, "fusion_lon": 0.0, "bike_id": "0ee8e7a94dd30a1827ae8b2e957b6bf5", "is_disabled": 0, "lat": 38.85798916666667, "is_reserved": 0, "type": "electric_scooter"}, {"fusion_lat": 0.0, "name": "9eca18472819cb9a669cf644fc9be522", "lon": -77.05065833333333, "rental_uris": {"android": "https://dc.lft.to/lastmile_qr_scan", "ios": "https://dc.lft.to/lastmile_qr_scan"}, "fusion_lon": 0.0, "bike_id": "9eca18472819cb9a669cf644fc9be522", "is_disabled": 0, "lat": 38.92356733333333, "is_reserved": 0, "type": "electric_scooter"}, {"fusion_lat": 0.0, "name": "2ecfc6ad084f0412d41180fc7bd35cee", "lon": -77.04189066666666, "rental_uris": {"android": "https://dc.lft.to/lastmile_qr_scan", "ios": "https://dc.lft.to/lastmile_qr_scan"}, "fusion_lon": 0.0, "bike_id": "2ecfc6ad084f0412d41180fc7bd35cee", "is_disabled": 0, "lat": 38.91655, "is_reserved": 0, "type": "electric_scooter"}, {"fusion_lat": 0.0, "name": "3e14f6893bb23fe5449aad146984ef86", "lon": -77.05886983333333, "rental_uris": {"android": "https://dc.lft.to/lastmile_qr_scan", "ios": "https://dc.lft.to/lastmile_qr_scan"}, "fusion_lon": 0.0, "bike_id": "3e14f6893bb23fe5449aad146984ef86", "is_disabled": 0, "lat": 38.93603483333333, "is_reserved": 0, "type": "electric_scooter"}, {"fusion_lat": 0.0, "name": "714bf60d1df289d75e6e4f8e3ccac1fa", "lon": -77.03462933333333, "rental_uris": {"android": "https://dc.lft.to/lastmile_qr_scan", "ios": "https://dc.lft.to/lastmile_qr_scan"}, "fusion_lon": 0.0, "bike_id": "714bf60d1df289d75e6e4f8e3ccac1fa", "is_disabled": 0, "lat": 38.920586666666665, "is_reserved": 0, "type": "electric_scooter"}, {"fusion_lat": 0.0, "name": "000590865c1209096eb72b490132917d", "lon": -77.07720916666666, "rental_uris": {"android": "https://dc.lft.to/lastmile_qr_scan", "ios": "https://dc.lft.to/lastmile_qr_scan"}, "fusion_lon": 0.0, "bike_id": "000590865c1209096eb72b490132917d", "is_disabled": 0, "lat": 38.9312905, "is_reserved": 0, "type": "electric_bike"}, {"fusion_lat": 0.0, "name": "c1e9d5c2baffe8985de4ed4a740536cf", "lon": -77.04897983333333, "rental_uris": {"android": "https://dc.lft.to/lastmile_qr_scan", "ios": "https://dc.lft.to/lastmile_qr_scan"}, "fusion_lon": 0.0, "bike_id": "c1e9d5c2baffe8985de4ed4a740536cf", "is_disabled": 0, "lat": 38.915937166666666, "is_reserved": 0, "type": "electric_scooter"}, {"fusion_lat": 0.0, "name": "2a9f5f2c15abc06c13539f9ce8ef011c", "lon": -77.02627633333333, "rental_uris": {"android": "https://dc.lft.to/lastmile_qr_scan", "ios": "https://dc.lft.to/lastmile_qr_scan"}, "fusion_lon": 0.0, "bike_id": "2a9f5f2c15abc06c13539f9ce8ef011c", "is_disabled": 0, "lat": 38.881328833333335, "is_reserved": 0, "type": "electric_scooter"}, {"fusion_lat": 0.0, "name": "7838324155f6fd7cdc58d91f2c1feba9", "lon": -77.02697016666667, "rental_uris": {"android": "https://dc.lft.to/lastmile_qr_scan", "ios": "https://dc.lft.to/lastmile_qr_scan"}, "fusion_lon": 0.0, "bike_id": "7838324155f6fd7cdc58d91f2c1feba9", "is_disabled": 0, "lat": 38.918631833333336, "is_reserved": 0, "type": "electric_scooter"}, {"fusion_lat": 0.0, "name": "2edf1fc2e7c4d981e7ffcf749e55dca9", "lon": -76.97628483333334, "rental_uris": {"android": "https://dc.lft.to/lastmile_qr_scan", "ios": "https://dc.lft.to/lastmile_qr_scan"}, "fusion_lon": 0.0, "bike_id": "2edf1fc2e7c4d981e7ffcf749e55dca9", "is_disabled": 0, "lat": 38.905650333333334, "is_reserved": 0, "type": "electric_scooter"}, {"fusion_lat": 0.0, "name": "59c3118fadf27cacec9ad11d8e4fac62", "lon": -77.04667716666667, "rental_uris": {"android": "https://dc.lft.to/lastmile_qr_scan", "ios": "https://dc.lft.to/lastmile_qr_scan"}, "fusion_lon": 0.0, "bike_id": "59c3118fadf27cacec9ad11d8e4fac62", "is_disabled": 0, "lat": 38.911695, "is_reserved": 0, "type": "electric_scooter"}, {"fusion_lat": 0.0, "name": "d3505bfa8a9ba56a7c1c3f48cf3f3539", "lon": -77.00369483333333, "rental_uris": {"android": "https://dc.lft.to/lastmile_qr_scan", "ios": "https://dc.lft.to/lastmile_qr_scan"}, "fusion_lon": 0.0, "bike_id": "d3505bfa8a9ba56a7c1c3f48cf3f3539", "is_disabled": 0, "lat": 38.9110345, "is_reserved": 0, "type": "electric_scooter"}, {"fusion_lat": 0.0, "name": "c63f2db3872a00d4888551715b4bd0e5", "lon": -77.0244335, "rental_uris": {"android": "https://dc.lft.to/lastmile_qr_scan", "ios": "https://dc.lft.to/lastmile_qr_scan"}, "fusion_lon": 0.0, "bike_id": "c63f2db3872a00d4888551715b4bd0e5", "is_disabled": 0, "lat": 38.924949166666664, "is_reserved": 0, "type": "electric_scooter"}, {"fusion_lat": 0.0, "name": "d8144ee2def05b9a57b47477f10b6750", "lon": -77.04074516666667, "rental_uris": {"android": "https://dc.lft.to/lastmile_qr_scan", "ios": "https://dc.lft.to/lastmile_qr_scan"}, "fusion_lon": 0.0, "bike_id": "d8144ee2def05b9a57b47477f10b6750", "is_disabled": 0, "lat": 38.904748, "is_reserved": 0, "type": "electric_scooter"}, {"fusion_lat": 0.0, "name": "36b677e1ff3b92a72c4988f9cc97c665", "lon": -77.05727716666667, "rental_uris": {"android": "https://dc.lft.to/lastmile_qr_scan", "ios": "https://dc.lft.to/lastmile_qr_scan"}, "fusion_lon": 0.0, "bike_id": "36b677e1ff3b92a72c4988f9cc97c665", "is_disabled": 0, "lat": 38.93364583333333, "is_reserved": 0, "type": "electric_scooter"}, {"fusion_lat": 0.0, "name": "8fb6110eba8a6f06bb2c256982431fbb", "lon": -77.01612283333333, "rental_uris": {"android": "https://dc.lft.to/lastmile_qr_scan", "ios": "https://dc.lft.to/lastmile_qr_scan"}, "fusion_lon": 0.0, "bike_id": "8fb6110eba8a6f06bb2c256982431fbb", "is_disabled": 0, "lat": 38.88486783333333, "is_reserved": 0, "type": "electric_scooter"}, {"fusion_lat": 0.0, "name": "2e45ff30a48cee7faeef0d3663372bae", "lon": -76.93745333333334, "rental_uris": {"android": "https://dc.lft.to/lastmile_qr_scan", "ios": "https://dc.lft.to/lastmile_qr_scan"}, "fusion_lon": 0.0, "bike_id": "2e45ff30a48cee7faeef0d3663372bae", "is_disabled": 0, "lat": 38.89010483333333, "is_reserved": 0, "type": "electric_scooter"}, {"fusion_lat": 0.0, "name": "2eecf353209d80b220b8b4cf34b2aa15", "lon": -77.00917866666667, "rental_uris": {"android": "https://dc.lft.to/lastmile_qr_scan", "ios": "https://dc.lft.to/lastmile_qr_scan"}, "fusion_lon": 0.0, "bike_id": "2eecf353209d80b220b8b4cf34b2aa15", "is_disabled": 0, "lat": 38.82783633333333, "is_reserved": 0, "type": "electric_bike"}, {"fusion_lat": 0.0, "name": "42809756850448942e53b96da1bbe1f8", "lon": -77.020999, "rental_uris": {"android": "https://dc.lft.to/lastmile_qr_scan", "ios": "https://dc.lft.to/lastmile_qr_scan"}, "fusion_lon": 0.0, "bike_id": "42809756850448942e53b96da1bbe1f8", "is_disabled": 0, "lat": 38.927024, "is_reserved": 0, "type": "electric_scooter"}, {"fusion_lat": 0.0, "name": "17b2d742148925ea4bbcf99ed3bfded1", "lon": -77.04369966666667, "rental_uris": {"android": "https://dc.lft.to/lastmile_qr_scan", "ios": "https://dc.lft.to/lastmile_qr_scan"}, "fusion_lon": 0.0, "bike_id": "17b2d742148925ea4bbcf99ed3bfded1", "is_disabled": 0, "lat": 38.89231683333333, "is_reserved": 0, "type": "electric_scooter"}, {"fusion_lat": 0.0, "name": "690b950dd3d3c79175fc266835902bb6", "lon": -77.0316275, "rental_uris": {"android": "https://dc.lft.to/lastmile_qr_scan", "ios": "https://dc.lft.to/lastmile_qr_scan"}, "fusion_lon": 0.0, "bike_id": "690b950dd3d3c79175fc266835902bb6", "is_disabled": 0, "lat": 38.919080666666666, "is_reserved": 0, "type": "electric_scooter"}, {"fusion_lat": 0.0, "name": "489d7801760314feb85a6c382e4db372", "lon": -77.05048533333333, "rental_uris": {"android": "https://dc.lft.to/lastmile_qr_scan", "ios": "https://dc.lft.to/lastmile_qr_scan"}, "fusion_lon": 0.0, "bike_id": "489d7801760314feb85a6c382e4db372", "is_disabled": 0, "lat": 38.92355966666667, "is_reserved": 0, "type": "electric_scooter"}, {"fusion_lat": 0.0, "name": "d3979f26a1ab46e96e9beebb2432bffe", "lon": -77.02317866666667, "rental_uris": {"android": "https://dc.lft.to/lastmile_qr_scan", "ios": "https://dc.lft.to/lastmile_qr_scan"}, "fusion_lon": 0.0, "bike_id": "d3979f26a1ab46e96e9beebb2432bffe", "is_disabled": 0, "lat": 38.91832483333334, "is_reserved": 0, "type": "electric_scooter"}, {"fusion_lat": 0.0, "name": "f2749b3bf440f11eac9ee2caa60a2812", "lon": -77.04352616666667, "rental_uris": {"android": "https://dc.lft.to/lastmile_qr_scan", "ios": "https://dc.lft.to/lastmile_qr_scan"}, "fusion_lon": 0.0, "bike_id": "f2749b3bf440f11eac9ee2caa60a2812", "is_disabled": 0, "lat": 38.90803833333333, "is_reserved": 0, "type": "electric_scooter"}, {"fusion_lat": 0.0, "name": "283c5e1d5a6dfe23648c748f012fb4f9", "lon": -77.01219383333333, "rental_uris": {"android": "https://dc.lft.to/lastmile_qr_scan", "ios": "https://dc.lft.to/lastmile_qr_scan"}, "fusion_lon": 0.0, "bike_id": "283c5e1d5a6dfe23648c748f012fb4f9", "is_disabled": 0, "lat": 38.89772816666667, "is_reserved": 0, "type": "electric_scooter"}, {"fusion_lat": 0.0, "name": "6ea6a586c690284610ccfcb468f7389c", "lon": -77.0514085, "rental_uris": {"android": "https://dc.lft.to/lastmile_qr_scan", "ios": "https://dc.lft.to/lastmile_qr_scan"}, "fusion_lon": 0.0, "bike_id": "6ea6a586c690284610ccfcb468f7389c", "is_disabled": 0, "lat": 38.9057855, "is_reserved": 0, "type": "electric_scooter"}, {"fusion_lat": 0.0, "name": "3d776eb63ee680cdc9db8d9793430ca2", "lon": -77.047642, "rental_uris": {"android": "https://dc.lft.to/lastmile_qr_scan", "ios": "https://dc.lft.to/lastmile_qr_scan"}, "fusion_lon": 0.0, "bike_id": "3d776eb63ee680cdc9db8d9793430ca2", "is_disabled": 0, "lat": 38.90060916666667, "is_reserved": 0, "type": "electric_scooter"}, {"fusion_lat": 0.0, "name": "adf3232cb084e8b52246ddc03f2336f4", "lon": -77.0435535, "rental_uris": {"android": "https://dc.lft.to/lastmile_qr_scan", "ios": "https://dc.lft.to/lastmile_qr_scan"}, "fusion_lon": 0.0, "bike_id": "adf3232cb084e8b52246ddc03f2336f4", "is_disabled": 0, "lat": 38.92788516666667, "is_reserved": 0, "type": "electric_scooter"}, {"fusion_lat": 0.0, "name": "e7f01708fb079ac866c491158f346bf1", "lon": -77.049823, "rental_uris": {"android": "https://dc.lft.to/lastmile_qr_scan", "ios": "https://dc.lft.to/lastmile_qr_scan"}, "fusion_lon": 0.0, "bike_id": "e7f01708fb079ac866c491158f346bf1", "is_disabled": 0, "lat": 39.062901, "is_reserved": 0, "type": "electric_bike"}, {"fusion_lat": 0.0, "name": "a0c971e329aa7f03a542b9a66b34175c", "lon": -76.93382583333333, "rental_uris": {"android": "https://dc.lft.to/lastmile_qr_scan", "ios": "https://dc.lft.to/lastmile_qr_scan"}, "fusion_lon": 0.0, "bike_id": "a0c971e329aa7f03a542b9a66b34175c", "is_disabled": 0, "lat": 38.899142, "is_reserved": 0, "type": "electric_scooter"}, {"fusion_lat": 0.0, "name": "5ccc66c763872b64376037bb2ca637c9", "lon": -77.01272533333334, "rental_uris": {"android": "https://dc.lft.to/lastmile_qr_scan", "ios": "https://dc.lft.to/lastmile_qr_scan"}, "fusion_lon": 0.0, "bike_id": "5ccc66c763872b64376037bb2ca637c9", "is_disabled": 0, "lat": 38.89738333333333, "is_reserved": 0, "type": "electric_scooter"}, {"fusion_lat": 0.0, "name": "1f7031e5a04e21cd3840cb3f7fd2062a", "lon": -77.01767833333334, "rental_uris": {"android": "https://dc.lft.to/lastmile_qr_scan", "ios": "https://dc.lft.to/lastmile_qr_scan"}, "fusion_lon": 0.0, "bike_id": "1f7031e5a04e21cd3840cb3f7fd2062a", "is_disabled": 0, "lat": 38.8872625, "is_reserved": 0, "type": "electric_scooter"}, {"fusion_lat": 0.0, "name": "c9afccd7ccd842db8983f58cd3b88699", "lon": -77.04112333333333, "rental_uris": {"android": "https://dc.lft.to/lastmile_qr_scan", "ios": "https://dc.lft.to/lastmile_qr_scan"}, "fusion_lon": 0.0, "bike_id": "c9afccd7ccd842db8983f58cd3b88699", "is_disabled": 0, "lat": 38.92449383333334, "is_reserved": 0, "type": "electric_scooter"}, {"fusion_lat": 0.0, "name": "e8507b7971ee38ac1307e9ff54a52da7", "lon": -77.04753566666666, "rental_uris": {"android": "https://dc.lft.to/lastmile_qr_scan", "ios": "https://dc.lft.to/lastmile_qr_scan"}, "fusion_lon": 0.0, "bike_id": "e8507b7971ee38ac1307e9ff54a52da7", "is_disabled": 0, "lat": 38.9007675, "is_reserved": 0, "type": "electric_scooter"}, {"fusion_lat": 0.0, "name": "e03177a907c40d6a19f9c55f9ddf9f5f", "lon": -76.93382433333333, "rental_uris": {"android": "https://dc.lft.to/lastmile_qr_scan", "ios": "https://dc.lft.to/lastmile_qr_scan"}, "fusion_lon": 0.0, "bike_id": "e03177a907c40d6a19f9c55f9ddf9f5f", "is_disabled": 0, "lat": 38.899166, "is_reserved": 0, "type": "electric_scooter"}, {"fusion_lat": 0.0, "name": "cdaac5b53ab0003b4ce88708f424139c", "lon": -77.0233055, "rental_uris": {"android": "https://dc.lft.to/lastmile_qr_scan", "ios": "https://dc.lft.to/lastmile_qr_scan"}, "fusion_lon": 0.0, "bike_id": "cdaac5b53ab0003b4ce88708f424139c", "is_disabled": 0, "lat": 38.91660666666667, "is_reserved": 0, "type": "electric_scooter"}, {"fusion_lat": 0.0, "name": "5ce8b3640d3209ff4cb42bc1c2b7af8f", "lon": -76.97868066666666, "rental_uris": {"android": "https://dc.lft.to/lastmile_qr_scan", "ios": "https://dc.lft.to/lastmile_qr_scan"}, "fusion_lon": 0.0, "bike_id": "5ce8b3640d3209ff4cb42bc1c2b7af8f", "is_disabled": 0, "lat": 38.882988, "is_reserved": 0, "type": "electric_scooter"}, {"fusion_lat": 0.0, "name": "1bae14a1a19d81ed75c5423ae3ed6bbb", "lon": -77.03155916666667, "rental_uris": {"android": "https://dc.lft.to/lastmile_qr_scan", "ios": "https://dc.lft.to/lastmile_qr_scan"},