{"data": {"bikes": [{"name": "0f499d91b76266340b03b39e1345940a", "is_disabled": 0, "lat": 38.90970383333333, "rental_uris": {"ios": "https://dc.lft.to/lastmile_qr_scan", "android": "https://dc.lft.to/lastmile_qr_scan"}, "bike_id": "0f499d91b76266340b03b39e1345940a", "type": "electric_scooter", "lon": -77.05217316666666, "is_reserved": 0, "fusion_lat": 0.0, "fusion_lon": 0.0}, {"name": "d3a9ddcceee708bd2651b7145046db6b", "is_disabled": 0, "lat": 38.8838015, "rental_uris": {"ios": "https://dc.lft.to/lastmile_qr_scan", "android": "https://dc.lft.to/lastmile_qr_scan"}, "bike_id": "d3a9ddcceee708bd2651b7145046db6b", "type": "electric_scooter", "lon": -77.00522133333334, "is_reserved": 0, "fusion_lat": 0.0, "fusion_lon": 0.0}, {"name": "92dab406bd93d6bcb948da887a7e8bc7", "is_disabled": 0, "lat": 38.90591366666666, "rental_uris": {"ios": "https://dc.lft.to/lastmile_qr_scan", "android": "https://dc.lft.to/lastmile_qr_scan"}, "bike_id": "92dab406bd93d6bcb948da887a7e8bc7", "type": "electric_scooter", "lon": -77.07008333333333, "is_reserved": 0, "fusion_lat": 0.0, "fusion_lon": 0.0}, {"name": "9f6026cf54a2e3287a12e41143a2026d", "is_disabled": 0, "lat": 38.907699, "rental_uris": {"ios": "https://dc.lft.to/lastmile_qr_scan", "android": "https://dc.lft.to/lastmile_qr_scan"}, "bike_id": "9f6026cf54a2e3287a12e41143a2026d", "type": "electric_scooter", "lon": -77.03551566666667, "is_reserved": 0, "fusion_lat": 0.0, "fusion_lon": 0.0}, {"name": "dac3fa0bb2663b4e43c5379b7cb8cab3", "is_disabled": 0, "lat": 38.927168333333334, "rental_uris": {"ios": "https://dc.lft.to/lastmile_qr_scan", "android": "https://dc.lft.to/lastmile_qr_scan"}, "bike_id": "dac3fa0bb2663b4e43c5379b7cb8cab3", "type": "electric_scooter", "lon": -77.02085533333333, "is_reserved": 0, "fusion_lat": 0.0, "fusion_lon": 0.0}, {"name": "7c9b8e6a19f62624db27de655ddb214f", "is_disabled": 0, "lat": 38.928571166666664, "rental_uris": {"ios": "https://dc.lft.to/lastmile_qr_scan", "android": "https://dc.lft.to/lastmile_qr_scan"}, "bike_id": "7c9b8e6a19f62624db27de655ddb214f", "type": "electric_scooter", "lon": -77.03251566666667, "is_reserved": 0, "fusion_lat": 0.0, "fusion_lon": 0.0}, {"name": "3486832ec0f964cc7183df34da950172", "is_disabled": 0, "lat": 38.909262166666664, "rental_uris": {"ios": "https://dc.lft.to/lastmile_qr_scan", "android": "https://dc.lft.to/lastmile_qr_scan"}, "bike_id": "3486832ec0f964cc7183df34da950172", "type": "electric_scooter", "lon": -76.99949666666667, "is_reserved": 0, "fusion_lat": 0.0, "fusion_lon": 0.0}, {"name": "d7e6dbd25268c11cc6cf407cff9f66ef", "is_disabled": 0, "lat": 38.90217783333333, "rental_uris": {"ios": "https://dc.lft.to/lastmile_qr_scan", "android": "https://dc.lft.to/lastmile_qr_scan"}, "bike_id": "d7e6dbd25268c11cc6cf407cff9f66ef", "type": "electric_scooter", "lon": -77.01620116666666, "is_reserved": 0, "fusion_lat": 0.0, "fusion_lon": 0.0}, {"name": "dec58540afe52f2c77099eb1efed8e4d", "is_disabled": 0, "lat": 38.85201816666667, "rental_uris": {"ios": "https://dc.lft.to/lastmile_qr_scan", "android": "https://dc.lft.to/lastmile_qr_scan"}, "bike_id": "dec58540afe52f2c77099eb1efed8e4d", "type": "electric_bike", "lon": -76.96287583333333, "is_reserved": 0, "fusion_lat": 0.0, "fusion_lon": 0.0}, {"name": "e6a1ddc7a6d53313986087cc973be61e", "is_disabled": 0, "lat": 38.87658183333333, "rental_uris": {"ios": "https://dc.lft.to/lastmile_qr_scan", "android": "https://dc.lft.to/lastmile_qr_scan"}, "bike_id": "e6a1ddc7a6d53313986087cc973be61e", "type": "electric_scooter", "lon": -77.01735283333333, "is_reserved": 0, "fusion_lat": 0.0, "fusion_lon": 0.0}, {"name": "50b7fbebce7e0874f213bb9891f0e3c5", "is_disabled": 0, "lat": 38.916780833333334, "rental_uris": {"ios": "https://dc.lft.to/lastmile_qr_scan", "android": "https://dc.lft.to/lastmile_qr_scan"}, "bike_id": "50b7fbebce7e0874f213bb9891f0e3c5", "type": "electric_scooter", "lon": -77.0272075, "is_reserved": 0, "fusion_lat": 0.0, "fusion_lon": 0.0}, {"name": "568131510d231af34960b18336af61bd", "is_disabled": 0, "lat": 38.8874865, "rental_uris": {"ios": "https://dc.lft.to/lastmile_qr_scan", "android": "https://dc.lft.to/lastmile_qr_scan"}, "bike_id": "568131510d231af34960b18336af61bd", "type": "electric_scooter", "lon": -77.02128083333334, "is_reserved": 0, "fusion_lat": 0.0, "fusion_lon": 0.0}, {"name": "7d32c6e67e0e8438bb293089d2d3fdfa", "is_disabled": 0, "lat": 38.8442285, "rental_uris": {"ios": "https://dc.lft.to/lastmile_qr_scan", "android": "https://dc.lft.to/lastmile_qr_scan"}, "bike_id": "7d32c6e67e0e8438bb293089d2d3fdfa", "type": "electric_scooter", "lon": -76.99779433333333, "is_reserved": 0, "fusion_lat": 0.0, "fusion_lon": 0.0}, {"name": "cada6ed035ede4514f72f2f2709a75e0", "is_disabled": 0, "lat": 38.90558566666667, "rental_uris": {"ios": "https://dc.lft.to/lastmile_qr_scan", "android": "https://dc.lft.to/lastmile_qr_scan"}, "bike_id": "cada6ed035ede4514f72f2f2709a75e0", "type": "electric_scooter", "lon": -77.0571125, "is_reserved": 0, "fusion_lat": 0.0, "fusion_lon": 0.0}, {"name": "c58895a19f6f0a11eaa0fd170148a201", "is_disabled": 0, "lat": 38.8477375, "rental_uris": {"ios": "https://dc.lft.to/lastmile_qr_scan", "android": "https://dc.lft.to/lastmile_qr_scan"}, "bike_id": "c58895a19f6f0a11eaa0fd170148a201", "type": "electric_bike", "lon": -76.9662985, "is_reserved": 0, "fusion_lat": 0.0, "fusion_lon": 0.0}, {"name": "447391adcef86ca0d0c7fedc4e96a54c", "is_disabled": 0, "lat": 38.89949516666667, "rental_uris": {"ios": "https://dc.lft.to/lastmile_qr_scan", "android": "https://dc.lft.to/lastmile_qr_scan"}, "bike_id": "447391adcef86ca0d0c7fedc4e96a54c", "type": "electric_scooter", "lon": -77.050982, "is_reserved": 0, "fusion_lat": 0.0, "fusion_lon": 0.0}, {"name": "b6d21c5ecb4d557caf3d8425ef089518", "is_disabled": 0, "lat": 38.91698266666667, "rental_uris": {"ios": "https://dc.lft.to/lastmile_qr_scan", "android": "https://dc.lft.to/lastmile_qr_scan"}, "bike_id": "b6d21c5ecb4d557caf3d8425ef089518", "type": "electric_scooter", "lon": -77.02890716666667, "is_reserved": 0, "fusion_lat": 0.0, "fusion_lon": 0.0}, {"name": "f4f1518f3f2e880a87c3240d4d57ff17", "is_disabled": 0, "lat": 38.90955016666667, "rental_uris": {"ios": "https://dc.lft.to/lastmile_qr_scan", "android": "https://dc.lft.to/lastmile_qr_scan"}, "bike_id": "f4f1518f3f2e880a87c3240d4d57ff17", "type": "electric_scooter", "lon": -77.04644183333333, "is_reserved": 0, "fusion_lat": 0.0, "fusion_lon": 0.0}, {"name": "8a1a2c8ababfa481828acf98644b0b9d", "is_disabled": 0, "lat": 38.9127385, "rental_uris": {"ios": "https://dc.lft.to/lastmile_qr_scan", "android": "https://dc.lft.to/lastmile_qr_scan"}, "bike_id": "8a1a2c8ababfa481828acf98644b0b9d", "type": "electric_scooter", "lon": -77.0450785, "is_reserved": 0, "fusion_lat": 0.0, "fusion_lon": 0.0}, {"name": "39f36b1c3270019a7d512dc890b26935", "is_disabled": 0, "lat": 38.90747, "rental_uris": {"ios": "https://dc.lft.to/lastmile_qr_scan", "android": "https://dc.lft.to/lastmile_qr_scan"}, "bike_id": "39f36b1c3270019a7d512dc890b26935", "type": "electric_scooter", "lon": -77.02952966666666, "is_reserved": 0, "fusion_lat": 0.0, "fusion_lon": 0.0}, {"name": "032ac1eb61b6ca46061f418c6e5ef438", "is_disabled": 0, "lat": 38.9206595, "rental_uris": {"ios": "https://dc.lft.to/lastmile_qr_scan", "android": "https://dc.lft.to/lastmile_qr_scan"}, "bike_id": "032ac1eb61b6ca46061f418c6e5ef438", "type": "electric_scooter", "lon": -77.0320555, "is_reserved": 0, "fusion_lat": 0.0, "fusion_lon": 0.0}, {"name": "23b414220cec831d2d2c157a12947a90", "is_disabled": 0, "lat": 38.913846166666666, "rental_uris": {"ios": "https://dc.lft.to/lastmile_qr_scan", "android": "https://dc.lft.to/lastmile_qr_scan"}, "bike_id": "23b414220cec831d2d2c157a12947a90", "type": "electric_scooter", "lon": -77.0460475, "is_reserved": 0, "fusion_lat": 0.0, "fusion_lon": 0.0}, {"name": "3ec227c89677e38daea3cdb3c417d41a", "is_disabled": 0, "lat": 38.91996233333333, "rental_uris": {"ios": "https://dc.lft.to/lastmile_qr_scan", "android": "https://dc.lft.to/lastmile_qr_scan"}, "bike_id": "3ec227c89677e38daea3cdb3c417d41a", "type": "electric_scooter", "lon": -77.03221766666667, "is_reserved": 0, "fusion_lat": 0.0, "fusion_lon": 0.0}, {"name": "765b8fe9d9f0fa4dcb35af07e33d4c94", "is_disabled": 0, "lat": 38.93910183333333, "rental_uris": {"ios": "https://dc.lft.to/lastmile_qr_scan", "android": "https://dc.lft.to/lastmile_qr_scan"}, "bike_id": "765b8fe9d9f0fa4dcb35af07e33d4c94", "type": "electric_scooter", "lon": -77.02478083333334, "is_reserved": 0, "fusion_lat": 0.0, "fusion_lon": 0.0}, {"name": "13f5fe08fc6ebc8af474c4fddcf44294", "is_disabled": 0, "lat": 38.914416333333335, "rental_uris": {"ios": "https://dc.lft.to/lastmile_qr_scan", "android": "https://dc.lft.to/lastmile_qr_scan"}, "bike_id": "13f5fe08fc6ebc8af474c4fddcf44294", "type": "electric_scooter", "lon": -77.02206066666666, "is_reserved": 0, "fusion_lat": 0.0, "fusion_lon": 0.0}, {"name": "60a3dd1671a8959261f340cfa7ab17b7", "is_disabled": 0, "lat": 38.91714983333333, "rental_uris": {"ios": "https://dc.lft.to/lastmile_qr_scan", "android": "https://dc.lft.to/lastmile_qr_scan"}, "bike_id": "60a3dd1671a8959261f340cfa7ab17b7", "type": "electric_scooter", "lon": -76.97651716666667, "is_reserved": 0, "fusion_lat": 0.0, "fusion_lon": 0.0}, {"name": "89b97a20562cb82e67ea180294728fc6", "is_disabled": 0, "lat": 38.9039725, "rental_uris": {"ios": "https://dc.lft.to/lastmile_qr_scan", "android": "https://dc.lft.to/lastmile_qr_scan"}, "bike_id": "89b97a20562cb82e67ea180294728fc6", "type": "electric_scooter", "lon": -77.0601085, "is_reserved": 0, "fusion_lat": 0.0, "fusion_lon": 0.0}, {"name": "97a8e2142aaf222afc48e92311e99489", "is_disabled": 0, "lat": 38.9027115, "rental_uris": {"ios": "https://dc.lft.to/lastmile_qr_scan", "android": "https://dc.lft.to/lastmile_qr_scan"}, "bike_id": "97a8e2142aaf222afc48e92311e99489", "type": "electric_scooter", "lon": -76.92897716666667, "is_reserved": 0, "fusion_lat": 0.0, "fusion_lon": 0.0}, {"name": "77dafaec4ef1f7a54977bf7a102fcd09", "is_disabled": 0, "lat": 38.90047933333334, "rental_uris": {"ios": "https://dc.lft.to/lastmile_qr_scan", "android": "https://dc.lft.to/lastmile_qr_scan"}, "bike_id": "77dafaec4ef1f7a54977bf7a102fcd09", "type": "electric_scooter", "lon": -77.00205816666667, "is_reserved": 0, "fusion_lat": 0.0, "fusion_lon": 0.0}, {"name": "df1199a0f7f43d3f7390bf173149403c", "is_disabled": 0, "lat": 38.898356666666665, "rental_uris": {"ios": "https://dc.lft.to/lastmile_qr_scan", "android": "https://dc.lft.to/lastmile_qr_scan"}, "bike_id": "df1199a0f7f43d3f7390bf173149403c", "type": "electric_scooter", "lon": -77.02796283333333, "is_reserved": 0, "fusion_lat": 0.0, "fusion_lon": 0.0}, {"name": "985a62f9a98dac81b63074545edca270", "is_disabled": 0, "lat": 38.930802666666665, "rental_uris": {"ios": "https://dc.lft.to/lastmile_qr_scan", "android": "https://dc.lft.to/lastmile_qr_scan"}, "bike_id": "985a62f9a98dac81b63074545edca270", "type": "electric_scooter", "lon": -77.02790633333333, "is_reserved": 0, "fusion_lat": 0.0, "fusion_lon": 0.0}, {"name": "9144dcb69b662308d12da037b4c8587d", "is_disabled": 0, "lat": 38.930579333333334, "rental_uris": {"ios": "https://dc.lft.to/lastmile_qr_scan", "android": "https://dc.lft.to/lastmile_qr_scan"}, "bike_id": "9144dcb69b662308d12da037b4c8587d", "type": "electric_scooter", "lon": -77.01862933333334, "is_reserved": 0, "fusion_lat": 0.0, "fusion_lon": 0.0}, {"name": "3bfcbd1e3381691f4ef37026873a4d32", "is_disabled": 0, "lat": 38.887449, "rental_uris": {"ios": "https://dc.lft.to/lastmile_qr_scan", "android": "https://dc.lft.to/lastmile_qr_scan"}, "bike_id": "3bfcbd1e3381691f4ef37026873a4d32", "type": "electric_scooter", "lon": -77.02126633333333, "is_reserved": 0, "fusion_lat": 0.0, "fusion_lon": 0.0}, {"name": "5f2944491fb7b758a60c353a56251402", "is_disabled": 0, "lat": 38.912691333333335, "rental_uris": {"ios": "https://dc.lft.to/lastmile_qr_scan", "android": "https://dc.lft.to/lastmile_qr_scan"}, "bike_id": "5f2944491fb7b758a60c353a56251402", "type": "electric_scooter", "lon": -77.02228983333333, "is_reserved": 0, "fusion_lat": 0.0, "fusion_lon": 0.0}, {"name": "5c311c113b8d6ff096ee1ca3b3797bf8", "is_disabled": 0, "lat": 38.903683666666666, "rental_uris": {"ios": "https://dc.lft.to/lastmile_qr_scan", "android": "https://dc.lft.to/lastmile_qr_scan"}, "bike_id": "5c311c113b8d6ff096ee1ca3b3797bf8", "type": "electric_scooter", "lon": -77.04005566666666, "is_reserved": 0, "fusion_lat": 0.0, "fusion_lon": 0.0}, {"name": "66262d9bad5d32b666415ce90ef2ae6b", "is_disabled": 0, "lat": 38.923877, "rental_uris": {"ios": "https://dc.lft.to/lastmile_qr_scan", "android": "https://dc.lft.to/lastmile_qr_scan"}, "bike_id": "66262d9bad5d32b666415ce90ef2ae6b", "type": "electric_scooter", "lon": -77.02158966666667, "is_reserved": 0, "fusion_lat": 0.0, "fusion_lon": 0.0}, {"name": "8e4834590136901278170b41430c39db", "is_disabled": 0, "lat": 38.9012965, "rental_uris": {"ios": "https://dc.lft.to/lastmile_qr_scan", "android": "https://dc.lft.to/lastmile_qr_scan"}, "bike_id": "8e4834590136901278170b41430c39db", "type": "electric_scooter", "lon": -77.00210166666666, "is_reserved": 0, "fusion_lat": 0.0, "fusion_lon": 0.0}, {"name": "8123a42220529b1e4e210cfc28da68b5", "is_disabled": 0, "lat": 38.91994366666667, "rental_uris": {"ios": "https://dc.lft.to/lastmile_qr_scan", "android": "https://dc.lft.to/lastmile_qr_scan"}, "bike_id": "8123a42220529b1e4e210cfc28da68b5", "type": "electric_scooter", "lon": -77.02592183333333, "is_reserved": 0, "fusion_lat": 0.0, "fusion_lon": 0.0}, {"name": "ce1e942c747e6110cc965fc58f4c98a4", "is_disabled": 0, "lat": 38.90234816666667, "rental_uris": {"ios": "https://dc.lft.to/lastmile_qr_scan", "android": "https://dc.lft.to/lastmile_qr_scan"}, "bike_id": "ce1e942c747e6110cc965fc58f4c98a4", "type": "electric_scooter", "lon": -77.0343355, "is_reserved": 0, "fusion_lat": 0.0, "fusion_lon": 0.0}, {"name": "63a0726d0a3209093c2e48d752a784c4", "is_disabled": 0, "lat": 38.8799985, "rental_uris": {"ios": "https://dc.lft.to/lastmile_qr_scan", "android": "https://dc.lft.to/lastmile_qr_scan"}, "bike_id": "63a0726d0a3209093c2e48d752a784c4", "type": "electric_scooter", "lon": -77.01288733333334, "is_reserved": 0, "fusion_lat": 0.0, "fusion_lon": 0.0}, {"name": "73d687af2deff97fa95a5be1b24e37f9", "is_disabled": 0, "lat": 38.91125816666667, "rental_uris": {"ios": "https://dc.lft.to/lastmile_qr_scan", "android": "https://dc.lft.to/lastmile_qr_scan"}, "bike_id": "73d687af2deff97fa95a5be1b24e37f9", "type": "electric_scooter", "lon": -76.997569, "is_reserved": 0, "fusion_lat": 0.0, "fusion_lon": 0.0}, {"name": "bb13bc6ef8c6278faac8303fde5a159f", "is_disabled": 0, "lat": 38.914818333333336, "rental_uris": {"ios": "https://dc.lft.to/lastmile_qr_scan", "android": "https://dc.lft.to/lastmile_qr_scan"}, "bike_id": "bb13bc6ef8c6278faac8303fde5a159f", "type": "electric_scooter", "lon": -77.04607983333334, "is_reserved": 0, "fusion_lat": 0.0, "fusion_lon": 0.0}, {"name": "7a82a4089f7282d2d5f57312b74b4d61", "is_disabled": 0, "lat": 38.89529233333333, "rental_uris": {"ios": "https://dc.lft.to/lastmile_qr_scan", "android": "https://dc.lft.to/lastmile_qr_scan"}, "bike_id": "7a82a4089f7282d2d5f57312b74b4d61", "type": "electric_scooter", "lon": -76.93412666666667, "is_reserved": 0, "fusion_lat": 0.0, "fusion_lon": 0.0}, {"name": "93d923526acbfecb64ae0a0fdf93ac5c", "is_disabled": 0, "lat": 38.907376666666664, "rental_uris": {"ios": "https://dc.lft.to/lastmile_qr_scan", "android": "https://dc.lft.to/lastmile_qr_scan"}, "bike_id": "93d923526acbfecb64ae0a0fdf93ac5c", "type": "electric_scooter", "lon": -77.04336683333334, "is_reserved": 0, "fusion_lat": 0.0, "fusion_lon": 0.0}, {"name": "29b1881b2ae65783e1d9b9f23b538e7c", "is_disabled": 0, "lat": 38.916280666666665, "rental_uris": {"ios": "https://dc.lft.to/lastmile_qr_scan", "android": "https://dc.lft.to/lastmile_qr_scan"}, "bike_id": "29b1881b2ae65783e1d9b9f23b538e7c", "type": "electric_scooter", "lon": -77.023147, "is_reserved": 0, "fusion_lat": 0.0, "fusion_lon": 0.0}, {"name": "e34b91926c2b9e10c59d07883cc133dc", "is_disabled": 0, "lat": 38.9562355, "rental_uris": {"ios": "https://dc.lft.to/lastmile_qr_scan", "android": "https://dc.lft.to/lastmile_qr_scan"}, "bike_id": "e34b91926c2b9e10c59d07883cc133dc", "type": "electric_bike", "lon": -76.93901316666667, "is_reserved": 0, "fusion_lat": 0.0, "fusion_lon": 0.0}, {"name": "b4d98fae3bde3ca78d5203aa6956cde0", "is_disabled": 0, "lat": 38.90508283333333, "rental_uris": {"ios": "https://dc.lft.to/lastmile_qr_scan", "android": "https://dc.lft.to/lastmile_qr_scan"}, "bike_id": "b4d98fae3bde3ca78d5203aa6956cde0", "type": "electric_scooter", "lon": -77.06466316666666, "is_reserved": 0, "fusion_lat": 0.0, "fusion_lon": 0.0}, {"name": "c657102ddf19babb00a2973ed65a6b08", "is_disabled": 0, "lat": 38.895038166666666, "rental_uris": {"ios": "https://dc.lft.to/lastmile_qr_scan", "android": "https://dc.lft.to/lastmile_qr_scan"}, "bike_id": "c657102ddf19babb00a2973ed65a6b08", "type": "electric_scooter", "lon": -77.03955133333334, "is_reserved": 0, "fusion_lat": 0.0, "fusion_lon": 0.0}, {"name": "b10bab223db3afc57348778690f0f5ba", "is_disabled": 0, "lat": 38.871804166666664, "rental_uris": {"ios": "https://dc.lft.to/lastmile_qr_scan", "android": "https://dc.lft.to/lastmile_qr_scan"}, "bike_id": "b10bab223db3afc57348778690f0f5ba", "type": "electric_scooter", "lon": -77.00572, "is_reserved": 0, "fusion_lat": 0.0, "fusion_lon": 0.0}, {"name": "bd65bb9ce6cec08ef8f922886082fd06", "is_disabled": 0, "lat": 38.898981, "rental_uris": {"ios": "https://dc.lft.to/lastmile_qr_scan", "android": "https://dc.lft.to/lastmile_qr_scan"}, "bike_id": "bd65bb9ce6cec08ef8f922886082fd06", "type": "electric_scooter", "lon": -76.99389166666667, "is_reserved": 0, "fusion_lat": 0.0, "fusion_lon": 0.0}, {"name": "14d2a903086e960ddd88bfee1262ee2d", "is_disabled": 0, "lat": 38.93946433333333, "rental_uris": {"ios": "https://dc.lft.to/lastmile_qr_scan", "android": "https://dc.lft.to/lastmile_qr_scan"}, "bike_id": "14d2a903086e960ddd88bfee1262ee2d", "type": "electric_scooter", "lon": -77.02182866666666, "is_reserved": 0, "fusion_lat": 0.0, "fusion_lon": 0.0}, {"name": "c4976627ba915ee7e8b4163adaf38dfb", "is_disabled": 0, "lat": 38.898242333333336, "rental_uris": {"ios": "https://dc.lft.to/lastmile_qr_scan", "android": "https://dc.lft.to/lastmile_qr_scan"}, "bike_id": "c4976627ba915ee7e8b4163adaf38dfb", "type": "electric_scooter", "lon": -77.025816, "is_reserved": 0, "fusion_lat": 0.0, "fusion_lon": 0.0}, {"name": "61746079503613ba7dd04a62507f3c78", "is_disabled": 0, "lat": 38.9112455, "rental_uris": {"ios": "https://dc.lft.to/lastmile_qr_scan", "android": "https://dc.lft.to/lastmile_qr_scan"}, "bike_id": "61746079503613ba7dd04a62507f3c78", "type": "electric_scooter", "lon": -76.99749483333333, "is_reserved": 0, "fusion_lat": 0.0, "fusion_lon": 0.0}, {"name": "c4db0e50ba7ed21005a91880a0b4f082", "is_disabled": 0, "lat": 38.931317, "rental_uris": {"ios": "https://dc.lft.to/lastmile_qr_scan", "android": "https://dc.lft.to/lastmile_qr_scan"}, "bike_id": "c4db0e50ba7ed21005a91880a0b4f082", "type": "electric_scooter", "lon": -77.03853833333334, "is_reserved": 0, "fusion_lat": 0.0, "fusion_lon": 0.0}, {"name": "17410d392cdc42a1c658b1fbee1a22d1", "is_disabled": 0, "lat": 38.88315466666667, "rental_uris": {"ios": "https://dc.lft.to/lastmile_qr_scan", "android": "https://dc.lft.to/lastmile_qr_scan"}, "bike_id": "17410d392cdc42a1c658b1fbee1a22d1", "type": "electric_scooter", "lon": -77.01390416666666, "is_reserved": 0, "fusion_lat": 0.0, "fusion_lon": 0.0}, {"name": "631b8e0b5956859d39e3298a87758b7f", "is_disabled": 0, "lat": 38.904089, "rental_uris": {"ios": "https://dc.lft.to/lastmile_qr_scan", "android": "https://dc.lft.to/lastmile_qr_scan"}, "bike_id": "631b8e0b5956859d39e3298a87758b7f", "type": "electric_scooter", "lon": -77.062655, "is_reserved": 0, "fusion_lat": 0.0, "fusion_lon": 0.0}, {"name": "1164bff6045501907b9d34d0f7bca3d2", "is_disabled": 0, "lat": 38.930862833333336, "rental_uris": {"ios": "https://dc.lft.to/lastmile_qr_scan", "android": "https://dc.lft.to/lastmile_qr_scan"}, "bike_id": "1164bff6045501907b9d34d0f7bca3d2", "type": "electric_scooter", "lon": -77.0343395, "is_reserved": 0, "fusion_lat": 0.0, "fusion_lon": 0.0}, {"name": "7f83fbfae377abdd076a2020e2422bde", "is_disabled": 0, "lat": 38.902257, "rental_uris": {"ios": "https://dc.lft.to/lastmile_qr_scan", "android": "https://dc.lft.to/lastmile_qr_scan"}, "bike_id": "7f83fbfae377abdd076a2020e2422bde", "type": "electric_scooter", "lon": -77.01604933333333, "is_reserved": 0, "fusion_lat": 0.0, "fusion_lon": 0.0}, {"name": "a8a16fcfd5cf1d3ce18999c33862ec52", "is_disabled": 0, "lat": 38.90781233333333, "rental_uris": {"ios": "https://dc.lft.to/lastmile_qr_scan", "android": "https://dc.lft.to/lastmile_qr_scan"}, "bike_id": "a8a16fcfd5cf1d3ce18999c33862ec52", "type": "electric_scooter", "lon": -77.045108, "is_reserved": 0, "fusion_lat": 0.0, "fusion_lon": 0.0}, {"name": "888925e000901f139f47dd5200a89295", "is_disabled": 0, "lat": 38.89764516666666, "rental_uris": {"ios": "https://dc.lft.to/lastmile_qr_scan", "android": "https://dc.lft.to/lastmile_qr_scan"}, "bike_id": "888925e000901f139f47dd5200a89295", "type": "electric_scooter", "lon": -77.02202666666666, "is_reserved": 0, "fusion_lat": 0.0, "fusion_lon": 0.0}, {"name": "1c44d5f7be2c3ddcafa9ca16697dcd00", "is_disabled": 0, "lat": 38.923678, "rental_uris": {"ios": "https://dc.lft.to/lastmile_qr_scan", "android": "https://dc.lft.to/lastmile_qr_scan"}, "bike_id": "1c44d5f7be2c3ddcafa9ca16697dcd00", "type": "electric_scooter", "lon": -77.02117166666666, "is_reserved": 0, "fusion_lat": 0.0, "fusion_lon": 0.0}, {"name": "d39166cb45b10d2c2a0f7b5aed2d908d", "is_disabled": 0, "lat": 38.90036416666667, "rental_uris": {"ios": "https://dc.lft.to/lastmile_qr_scan", "android": "https://dc.lft.to/lastmile_qr_scan"}, "bike_id": "d39166cb45b10d2c2a0f7b5aed2d908d", "type": "electric_scooter", "lon": -77.00198016666667, "is_reserved": 0, "fusion_lat": 0.0, "fusion_lon": 0.0}, {"name": "819dbe8919abfc3ea14b4a0720d79a7f", "is_disabled": 0, "lat": 38.9100105, "rental_uris": {"ios": "https://dc.lft.to/lastmile_qr_scan", "android": "https://dc.lft.to/lastmile_qr_scan"}, "bike_id": "819dbe8919abfc3ea14b4a0720d79a7f", "type": "electric_scooter", "lon": -77.03469316666667, "is_reserved": 0, "fusion_lat": 0.0, "fusion_lon": 0.0}, {"name": "dfdc53fceb8f18f9cda8822e9f71ecf1", "is_disabled": 0, "lat": 38.871796833333335, "rental_uris": {"ios": "https://dc.lft.to/lastmile_qr_scan", "android": "https://dc.lft.to/lastmile_qr_scan"}, "bike_id": "dfdc53fceb8f18f9cda8822e9f71ecf1", "type": "electric_scooter", "lon": -77.00611266666667, "is_reserved": 0, "fusion_lat": 0.0, "fusion_lon": 0.0}, {"name": "b4537d02095a08ef11bc9643173c94e4", "is_disabled": 0, "lat": 38.90002783333333, "rental_uris": {"ios": "https://dc.lft.to/lastmile_qr_scan", "android": "https://dc.lft.to/lastmile_qr_scan"}, "bike_id": "b4537d02095a08ef11bc9643173c94e4", "type": "electric_scooter", "lon": -77.05420716666667, "is_reserved": 0, "fusion_lat": 0.0, "fusion_lon": 0.0}, {"name": "75a4a2cbee38c717aed9a1c5c5714dda", "is_disabled": 0, "lat": 38.916886, "rental_uris": {"ios": "https://dc.lft.to/lastmile_qr_scan", "android": "https://dc.lft.to/lastmile_qr_scan"}, "bike_id": "75a4a2cbee38c717aed9a1c5c5714dda", "type": "electric_scooter", "lon": -77.02384833333333, "is_reserved": 0, "fusion_lat": 0.0, "fusion_lon": 0.0}, {"name": "c74d3146e7cd8afc1de18d3cd05f19d2", "is_disabled": 0, "lat": 38.923017333333334, "rental_uris": {"ios": "https://dc.lft.to/lastmile_qr_scan", "android": "https://dc.lft.to/lastmile_qr_scan"}, "bike_id": "c74d3146e7cd8afc1de18d3cd05f19d2", "type": "electric_scooter", "lon": -77.02359833333334, "is_reserved": 0, "fusion_lat": 0.0, "fusion_lon": 0.0}, {"name": "728d1558fb38fb97bb6477f8adea43c1", "is_disabled": 0, "lat": 38.897232833333334, "rental_uris": {"ios": "https://dc.lft.to/lastmile_qr_scan", "android": "https://dc.lft.to/lastmile_qr_scan"}, "bike_id": "728d1558fb38fb97bb6477f8adea43c1", "type": "electric_scooter", "lon": -77.002103, "is_reserved": 0, "fusion_lat": 0.0, "fusion_lon": 0.0}, {"name": "73238eb0e56484d5fcd704e6c4d44b9d", "is_disabled": 0, "lat": 38.92343483333333, "rental_uris": {"ios": "https://dc.lft.to/lastmile_qr_scan", "android": "https://dc.lft.to/lastmile_qr_scan"}, "bike_id": "73238eb0e56484d5fcd704e6c4d44b9d", "type": "electric_scooter", "lon": -77.05178633333334, "is_reserved": 0, "fusion_lat": 0.0, "fusion_lon": 0.0}, {"name": "da1865af08f474cbe5b4c36e1c929628", "is_disabled": 0, "lat": 38.90631233333333, "rental_uris": {"ios": "https://dc.lft.to/lastmile_qr_scan", "android": "https://dc.lft.to/lastmile_qr_scan"}, "bike_id": "da1865af08f474cbe5b4c36e1c929628", "type": "electric_scooter", "lon": -77.025383, "is_reserved": 0, "fusion_lat": 0.0, "fusion_lon": 0.0}, {"name": "e439ce2cb5e26b1d920e2d76cfb70a3f", "is_disabled": 0, "lat": 38.901117166666666, "rental_uris": {"ios": "https://dc.lft.to/lastmile_qr_scan", "android": "https://dc.lft.to/lastmile_qr_scan"}, "bike_id": "e439ce2cb5e26b1d920e2d76cfb70a3f", "type": "electric_scooter", "lon": -77.03218266666667, "is_reserved": 0, "fusion_lat": 0.0, "fusion_lon": 0.0}, {"name": "ea88fef3c88e43fa16a311060a9059eb", "is_disabled": 0, "lat": 38.918042666666665, "rental_uris": {"ios": "https://dc.lft.to/lastmile_qr_scan", "android": "https://dc.lft.to/lastmile_qr_scan"}, "bike_id": "ea88fef3c88e43fa16a311060a9059eb", "type": "electric_scooter", "lon": -77.03436183333334, "is_reserved": 0, "fusion_lat": 0.0, "fusion_lon": 0.0}, {"name": "248a9fecc9881bed4a9a213c902d175f", "is_disabled": 0, "lat": 38.920632499999996, "rental_uris": {"ios": "https://dc.lft.to/lastmile_qr_scan", "android": "https://dc.lft.to/lastmile_qr_scan"}, "bike_id": "248a9fecc9881bed4a9a213c902d175f", "type": "electric_scooter", "lon": -77.04194333333334, "is_reserved": 0, "fusion_lat": 0.0, "fusion_lon": 0.0}, {"name": "ccadb54078667362220a5e6c25c0389b", "is_disabled": 0, "lat": 38.916104833333335, "rental_uris": {"ios": "https://dc.lft.to/lastmile_qr_scan", "android": "https://dc.lft.to/lastmile_qr_scan"}, "bike_id": "ccadb54078667362220a5e6c25c0389b", "type": "electric_scooter", "lon": -77.022992, "is_reserved": 0, "fusion_lat": 0.0, "fusion_lon": 0.0}, {"name": "c4a26afb02aa822b638c7d50a384d13a", "is_disabled": 0, "lat": 38.8981915, "rental_uris": {"ios": "https://dc.lft.to/lastmile_qr_scan", "android": "https://dc.lft.to/lastmile_qr_scan"}, "bike_id": "c4a26afb02aa822b638c7d50a384d13a", "type": "electric_bike", "lon": -77.02480333333334, "is_reserved": 0, "fusion_lat": 0.0, "fusion_lon": 0.0}, {"name": "054f517eabf627e6cfae28b082d158c7", "is_disabled": 0, "lat": 38.895445, "rental_uris": {"ios": "https://dc.lft.to/lastmile_qr_scan", "android": "https://dc.lft.to/lastmile_qr_scan"}, "bike_id": "054f517eabf627e6cfae28b082d158c7", "type": "electric_scooter", "lon": -76.98338883333334, "is_reserved": 0, "fusion_lat": 0.0, "fusion_lon": 0.0}, {"name": "3c970f8dc0bb9a99274bee177781b2a4", "is_disabled": 0, "lat": 38.887466833333335, "rental_uris": {"ios": "https://dc.lft.to/lastmile_qr_scan", "android": "https://dc.lft.to/lastmile_qr_scan"}, "bike_id": "3c970f8dc0bb9a99274bee177781b2a4", "type": "electric_scooter", "lon": -77.02780933333334, "is_reserved": 0, "fusion_lat": 0.0, "fusion_lon": 0.0}, {"name": "394d0421545759545015bf9988f44d82", "is_disabled": 0, "lat": 38.93453983333333, "rental_uris": {"ios": "https://dc.lft.to/lastmile_qr_scan", "android": "https://dc.lft.to/lastmile_qr_scan"}, "bike_id": "394d0421545759545015bf9988f44d82", "type": "electric_bike", "lon": -77.020986, "is_reserved": 0, "fusion_lat": 0.0, "fusion_lon": 0.0}, {"name": "2d7022aaaec6fa0a8930b4556f0dc6ae", "is_disabled": 0, "lat": 38.91464033333333, "rental_uris": {"ios": "https://dc.lft.to/lastmile_qr_scan", "android": "https://dc.lft.to/lastmile_qr_scan"}, "bike_id": "2d7022aaaec6fa0a8930b4556f0dc6ae", "type": "electric_scooter", "lon": -77.04561783333334, "is_reserved": 0, "fusion_lat": 0.0, "fusion_lon": 0.0}, {"name": "3ba1e8f298a59a647125022a465f0bcd", "is_disabled": 0, "lat": 38.98791283333333, "rental_uris": {"ios": "https://dc.lft.to/lastmile_qr_scan", "android": "https://dc.lft.to/lastmile_qr_scan"}, "bike_id": "3ba1e8f298a59a647125022a465f0bcd", "type": "electric_bike", "lon": -77.140994, "is_reserved": 0, "fusion_lat": 0.0, "fusion_lon": 0.0}, {"name": "e7ddc4cb268f40eb3c23e876f7dde3bf", "is_disabled": 0, "lat": 38.90216983333333, "rental_uris": {"ios": "https://dc.lft.to/lastmile_qr_scan", "android": "https://dc.lft.to/lastmile_qr_scan"}, "bike_id": "e7ddc4cb268f40eb3c23e876f7dde3bf", "type": "electric_bike", "lon": -77.04731983333333, "is_reserved": 0, "fusion_lat": 0.0, "fusion_lon": 0.0}, {"name": "f6ae52562f251795906054ca40d8ed6c", "is_disabled": 0, "lat": 38.873807666666664, "rental_uris": {"ios": "https://dc.lft.to/lastmile_qr_scan", "android": "https://dc.lft.to/lastmile_qr_scan"}, "bike_id": "f6ae52562f251795906054ca40d8ed6c", "type": "electric_scooter", "lon": -77.00127766666667, "is_reserved": 0, "fusion_lat": 0.0, "fusion_lon": 0.0}, {"name": "daa0837b93023c3fd613dc815ac48396", "is_disabled": 0, "lat": 38.91267716666667, "rental_uris": {"ios": "https://dc.lft.to/lastmile_qr_scan", "android": "https://dc.lft.to/lastmile_qr_scan"}, "bike_id": "daa0837b93023c3fd613dc815ac48396", "type": "electric_scooter", "lon": -77.038597, "is_reserved": 0, "fusion_lat": 0.0, "fusion_lon": 0.0}, {"name": "263b0d4f7d8f626933d77fe2c521bacc", "is_disabled": 0, "lat": 38.897473833333336, "rental_uris": {"ios": "https://dc.lft.to/lastmile_qr_scan", "android": "https://dc.lft.to/lastmile_qr_scan"}, "bike_id": "263b0d4f7d8f626933d77fe2c521bacc", "type": "electric_scooter", "lon": -77.0122285, "is_reserved": 0, "fusion_lat": 0.0, "fusion_lon": 0.0}, {"name": "a0421d72c79f8972979be0530022fa2a", "is_disabled": 0, "lat": 38.85356516666667, "rental_uris": {"ios": "https://dc.lft.to/lastmile_qr_scan", "android": "https://dc.lft.to/lastmile_qr_scan"}, "bike_id": "a0421d72c79f8972979be0530022fa2a", "type": "electric_bike", "lon": -77.13461766666667, "is_reserved": 0, "fusion_lat": 0.0, "fusion_lon": 0.0}, {"name": "6e46abf8a17737342a5f6ce21341fbfe", "is_disabled": 0, "lat": 38.912888833333334, "rental_uris": {"ios": "https://dc.lft.to/lastmile_qr_scan", "android": "https://dc.lft.to/lastmile_qr_scan"}, "bike_id": "6e46abf8a17737342a5f6ce21341fbfe", "type": "electric_scooter", "lon": -77.02385533333333, "is_reserved": 0, "fusion_lat": 0.0, "fusion_lon": 0.0}, {"name": "013f2b137567f9f8baad320955c0d073", "is_disabled": 0, "lat": 38.89728516666667, "rental_uris": {"ios": "https://dc.lft.to/lastmile_qr_scan", "android": "https://dc.lft.to/lastmile_qr_scan"}, "bike_id": "013f2b137567f9f8baad320955c0d073", "type": "electric_scooter", "lon": -77.02743766666667, "is_reserved": 0, "fusion_lat": 0.0, "fusion_lon": 0.0}, {"name": "2b0613b38f279dce593e7b33b425bc96", "is_disabled": 0, "lat": 38.91694366666667, "rental_uris": {"ios": "https://dc.lft.to/lastmile_qr_scan", "android": "https://dc.lft.to/lastmile_qr_scan"}, "bike_id": "2b0613b38f279dce593e7b33b425bc96", "type": "electric_scooter", "lon": -77.02288516666667, "is_reserved": 0, "fusion_lat": 0.0, "fusion_lon": 0.0}, {"name": "36f721fe449de3e1d55ba76bd6fe21eb", "is_disabled": 0, "lat": 38.88506366666667, "rental_uris": {"ios": "https://dc.lft.to/lastmile_qr_scan", "android": "https://dc.lft.to/lastmile_qr_scan"}, "bike_id": "36f721fe449de3e1d55ba76bd6fe21eb", "type": "electric_scooter", "lon": -76.97715966666667, "is_reserved": 0, "fusion_lat": 0.0, "fusion_lon": 0.0}, {"name": "51c7728bda4cc1135b637aa3dc226076", "is_disabled": 0, "lat": 38.91717366666666, "rental_uris": {"ios": "https://dc.lft.to/lastmile_qr_scan", "android": "https://dc.lft.to/lastmile_qr_scan"}, "bike_id": "51c7728bda4cc1135b637aa3dc226076", "type": "electric_scooter", "lon": -77.02804633333334, "is_reserved": 0, "fusion_lat": 0.0, "fusion_lon": 0.0}, {"name": "000ac26d040fc5e9f4a352cfedf99d5b", "is_disabled": 0, "lat": 38.92660216666667, "rental_uris": {"ios": "https://dc.lft.to/lastmile_qr_scan", "android": "https://dc.lft.to/lastmile_qr_scan"}, "bike_id": "000ac26d040fc5e9f4a352cfedf99d5b", "type": "electric_scooter", "lon": -77.0431295, "is_reserved": 0, "fusion_lat": 0.0, "fusion_lon": 0.0}, {"name": "d536d83e1ac467cb07b599929ea6ad62", "is_disabled": 0, "lat": 38.907272, "rental_uris": {"ios": "https://dc.lft.to/lastmile_qr_scan", "android": "https://dc.lft.to/lastmile_qr_scan"}, "bike_id": "d536d83e1ac467cb07b599929ea6ad62", "type": "electric_scooter", "lon": -77.032981, "is_reserved": 0, "fusion_lat": 0.0, "fusion_lon": 0.0}, {"name": "a6ccc5961649241274182264c2ec5fd0", "is_disabled": 0, "lat": 38.89854066666667, "rental_uris": {"ios": "https://dc.lft.to/lastmile_qr_scan", "android": "https://dc.lft.to/lastmile_qr_scan"}, "bike_id": "a6ccc5961649241274182264c2ec5fd0", "type": "electric_bike", "lon": -76.93190933333334, "is_reserved": 0, "fusion_lat": 0.0, "fusion_lon": 0.0}, {"name": "e224ece318e4a5294cae186454ccbc0c", "is_disabled": 0, "lat": 38.86990766666667, "rental_uris": {"ios": "https://dc.lft.to/lastmile_qr_scan", "android": "https://dc.lft.to/lastmile_qr_scan"}, "bike_id": "e224ece318e4a5294cae186454ccbc0c", "type": "electric_scooter", "lon": -76.97734583333333, "is_reserved": 0, "fusion_lat": 0.0, "fusion_lon": 0.0}, {"name": "5f906b4f7b3609a9776fa508cb7d8399", "is_disabled": 0, "lat": 38.90676833333333, "rental_uris": {"ios": "https://dc.lft.to/lastmile_qr_scan", "android": "https://dc.lft.to/lastmile_qr_scan"}, "bike_id": "5f906b4f7b3609a9776fa508cb7d8399", "type": "electric_scooter", "lon": -77.036299, "is_reserved": 0, "fusion_lat": 0.0, "fusion_lon": 0.0}, {"name": "1ae83db34002947087d83b04d307f21b", "is_disabled": 0, "lat": 38.89730333333333, "rental_uris": {"ios": "https://dc.lft.to/lastmile_qr_scan", "android": "https://dc.lft.to/lastmile_qr_scan"}, "bike_id": "1ae83db34002947087d83b04d307f21b", "type": "electric_scooter", "lon": -77.055248, "is_reserved": 0, "fusion_lat": 0.0, "fusion_lon": 0.0}, {"name": "a32294039c97f059e48822c8cf1af0c1", "is_disabled": 0, "lat": 38.84756383333333, "rental_uris": {"ios": "https://dc.lft.to/lastmile_qr_scan", "android": "https://dc.lft.to/lastmile_qr_scan"}, "bike_id": "a32294039c97f059e48822c8cf1af0c1", "type": "electric_scooter", "lon": -76.99502483333333, "is_reserved": 0, "fusion_lat": 0.0, "fusion_lon": 0.0}, {"name": "b4ac3b731176464e73c04bb4e4404b16", "is_disabled": 0, "lat": 38.91595733333333, "rental_uris": {"ios": "https://dc.lft.to/lastmile_qr_scan", "android": "https://dc.lft.to/lastmile_qr_scan"}, "bike_id": "b4ac3b731176464e73c04bb4e4404b16", "type": "electric_scooter", "lon": -76.99362283333333, "is_reserved": 0, "fusion_lat": 0.0, "fusion_lon": 0.0}, {"name": "7ff2586148168a4c0d97b3389e95ed4b", "is_disabled": 0, "lat": 38.954229833333336, "rental_uris": {"ios": "https://dc.lft.to/lastmile_qr_scan", "android": "https://dc.lft.to/lastmile_qr_scan"}, "bike_id": "7ff2586148168a4c0d97b3389e95ed4b", "type": "electric_scooter", "lon": -77.02762283333334, "is_reserved": 0, "fusion_lat": 0.0, "fusion_lon": 0.0}, {"name": "42c7fe8894c85061be0bb88282512dbf", "is_disabled": 0, "lat": 38.875369, "rental_uris": {"ios": "https://dc.lft.to/lastmile_qr_scan", "android": "https://dc.lft.to/lastmile_qr_scan"}, "bike_id": "42c7fe8894c85061be0bb88282512dbf", "type": "electric_scooter", "lon": -77.00063033333333, "is_reserved": 0, "fusion_lat": 0.0, "fusion_lon": 0.0}, {"name": "226f5ec994aac8276602664f53d34cef", "is_disabled": 0, "lat": 38.916837, "rental_uris": {"ios": "https://dc.lft.to/lastmile_qr_scan", "android": "https://dc.lft.to/lastmile_qr_scan"}, "bike_id": "226f5ec994aac8276602664f53d34cef", "type": "electric_scooter", "lon": -77.02971966666667, "is_reserved": 0, "fusion_lat": 0.0, "fusion_lon": 0.0}, {"name": "7f29fdbdfdb5857d505aeadca449e0d8", "is_disabled": 0, "lat": 38.90554933333333, "rental_uris": {"ios": "https://dc.lft.to/lastmile_qr_scan", "android": "https://dc.lft.to/lastmile_qr_scan"}, "bike_id": "7f29fdbdfdb5857d505aeadca449e0d8", "type": "electric_scooter", "lon": -77.06286083333333, "is_reserved": 0, "fusion_lat": 0.0, "fusion_lon": 0.0}, {"name": "bad0d2be91e9a972d760b2d79b75e760", "is_disabled": 0, "lat": 38.88729583333333, "rental_uris": {"ios": "https://dc.lft.to/lastmile_qr_scan", "android": "https://dc.lft.to/lastmile_qr_scan"}, "bike_id": "bad0d2be91e9a972d760b2d79b75e760", "type": "electric_scooter", "lon": -76.98357266666666, "is_reserved": 0, "fusion_lat": 0.0, "fusion_lon": 0.0}, {"name": "8ad1a203713e0bef8f88f0b0d4ee98d3", "is_disabled": 0, "lat": 38.9358905, "rental_uris": {"ios": "https://dc.lft.to/lastmile_qr_scan", "android": "https://dc.lft.to/lastmile_qr_scan"}, "bike_id": "8ad1a203713e0bef8f88f0b0d4ee98d3", "type": "electric_scooter", "lon": -77.03779116666666, "is_reserved": 0, "fusion_lat": 0.0, "fusion_lon": 0.0}, {"name": "0f9343da0ef3d98256890d6edb7cc23b", "is_disabled": 0, "lat": 38.90034566666667, "rental_uris": {"ios": "https://dc.lft.to/lastmile_qr_scan", "android": "https://dc.lft.to/lastmile_qr_scan"}, "bike_id": "0f9343da0ef3d98256890d6edb7cc23b", "type": "electric_scooter", "lon": -77.01210166666667, "is_reserved": 0, "fusion_lat": 0.0, "fusion_lon": 0.0}, {"name": "42ce5776078e6d0e5ad2563d4b57bd19", "is_disabled": 0, "lat": 38.90305716666667, "rental_uris": {"ios": "https://dc.lft.to/lastmile_qr_scan", "android": "https://dc.lft.to/lastmile_qr_scan"}, "bike_id": "42ce5776078e6d0e5ad2563d4b57bd19", "type": "electric_scooter", "lon": -77.01189583333333, "is_reserved": 0, "fusion_lat": 0.0, "fusion_lon": 0.0}, {"name": "28cda277ea9137ac235e8075af1e22e6", "is_disabled": 0, "lat": 38.90015916666667, "rental_uris": {"ios": "https://dc.lft.to/lastmile_qr_scan", "android": "https://dc.lft.to/lastmile_qr_scan"}, "bike_id": "28cda277ea9137ac235e8075af1e22e6", "type": "electric_scooter", "lon": -77.02428383333333, "is_reserved": 0, "fusion_lat": 0.0, "fusion_lon": 0.0}, {"name": "e08b6fc5c8c7683bc92441a843921314", "is_disabled": 0, "lat": 38.88739666666667, "rental_uris": {"ios": "https://dc.lft.to/lastmile_qr_scan", "android": "https://dc.lft.to/lastmile_qr_scan"}, "bike_id": "e08b6fc5c8c7683bc92441a843921314", "type": "electric_scooter", "lon": -77.00351166666667, "is_reserved": 0, "fusion_lat": 0.0, "fusion_lon": 0.0}, {"name": "6c5e0e2a65ff9e0e11980c4354f8c763", "is_disabled": 0, "lat": 38.91778016666667, "rental_uris": {"ios": "https://dc.lft.to/lastmile_qr_scan", "android": "https://dc.lft.to/lastmile_qr_scan"}, "bike_id": "6c5e0e2a65ff9e0e11980c4354f8c763", "type": "electric_scooter", "lon": -77.0241215, "is_reserved": 0, "fusion_lat": 0.0, "fusion_lon": 0.0}, {"name": "4498c5f12cfe5b278a78c7baa81cbdf7", "is_disabled": 0, "lat": 38.919233, "rental_uris": {"ios": "https://dc.lft.to/lastmile_qr_scan", "android": "https://dc.lft.to/lastmile_qr_scan"}, "bike_id": "4498c5f12cfe5b278a78c7baa81cbdf7", "type": "electric_scooter", "lon": -77.0266475, "is_reserved": 0, "fusion_lat": 0.0, "fusion_lon": 0.0}, {"name": "9bf960b2291f0e658a0a3d2b5116e950", "is_disabled": 0, "lat": 38.8721275, "rental_uris": {"ios": "https://dc.lft.to/lastmile_qr_scan", "android": "https://dc.lft.to/lastmile_qr_scan"}, "bike_id": "9bf960b2291f0e658a0a3d2b5116e950", "type": "electric_scooter", "lon": -77.005758, "is_reserved": 0, "fusion_lat": 0.0, "fusion_lon": 0.0}, {"name": "f1e4c1fa8a60e841ac12f88239bd2bcb", "is_disabled": 0, "lat": 38.883892833333334, "rental_uris": {"ios": "https://dc.lft.to/lastmile_qr_scan", "android": "https://dc.lft.to/lastmile_qr_scan"}, "bike_id": "f1e4c1fa8a60e841ac12f88239bd2bcb", "type": "electric_scooter", "lon": -76.9304425, "is_reserved": 0, "fusion_lat": 0.0, "fusion_lon": 0.0}, {"name": "b529cc1da675245802bc81b164b5434d", "is_disabled": 0, "lat": 38.8837805, "rental_uris": {"ios": "https://dc.lft.to/lastmile_qr_scan", "android": "https://dc.lft.to/lastmile_qr_scan"}, "bike_id": "b529cc1da675245802bc81b164b5434d", "type": "electric_scooter", "lon": -77.01359416666666, "is_reserved": 0, "fusion_lat": 0.0, "fusion_lon": 0.0}, {"name": "65efdd74f56df0dd34a998724d707481", "is_disabled": 0, "lat": 38.89711783333333, "rental_uris": {"ios": "https://dc.lft.to/lastmile_qr_scan", "android": "https://dc.lft.to/lastmile_qr_scan"}, "bike_id": "65efdd74f56df0dd34a998724d707481", "type": "electric_scooter", "lon": -77.02691933333334, "is_reserved": 0, "fusion_lat": 0.0, "fusion_lon": 0.0}, {"name": "6b145c0005b2af2dd65fc831ccda7f68", "is_disabled": 0, "lat": 38.8551155, "rental_uris": {"ios": "https://dc.lft.to/lastmile_qr_scan", "android": "https://dc.lft.to/lastmile_qr_scan"}, "bike_id": "6b145c0005b2af2dd65fc831ccda7f68", "type": "electric_bike", "lon": -76.98433616666667, "is_reserved": 0, "fusion_lat": 0.0, "fusion_lon": 0.0}, {"name": "4e41a5e4f0285e770efd7f875cb00499", "is_disabled": 0, "lat": 38.93762866666667, "rental_uris": {"ios": "https://dc.lft.to/lastmile_qr_scan", "android": "https://dc.lft.to/lastmile_qr_scan"}, "bike_id": "4e41a5e4f0285e770efd7f875cb00499", "type": "electric_bike", "lon": -76.99060266666666, "is_reserved": 0, "fusion_lat": 0.0, "fusion_lon": 0.0}, {"name": "a3787c9c6be1d38079adc89be4cb4285", "is_disabled": 0, "lat": 38.90069783333333, "rental_uris": {"ios": "https://dc.lft.to/lastmile_qr_scan", "android": "https://dc.lft.to/lastmile_qr_scan"}, "bike_id": "a3787c9c6be1d38079adc89be4cb4285", "type": "electric_scooter", "lon": -77.01614, "is_reserved": 0, "fusion_lat": 0.0, "fusion_lon": 0.0}, {"name": "d76357f48da550b6edf6f130a26433a8", "is_disabled": 0, "lat": 38.909728333333334, "rental_uris": {"ios": "https://dc.lft.to/lastmile_qr_scan", "android": "https://dc.lft.to/lastmile_qr_scan"}, "bike_id": "d76357f48da550b6edf6f130a26433a8", "type": "electric_scooter", "lon": -77.03207866666666, "is_reserved": 0, "fusion_lat": 0.0, "fusion_lon": 0.0}, {"name": "74067d5102670efaed9791506adedd36", "is_disabled": 0, "lat": 38.90270916666667, "rental_uris": {"ios": "https://dc.lft.to/lastmile_qr_scan", "android": "https://dc.lft.to/lastmile_qr_scan"}, "bike_id": "74067d5102670efaed9791506adedd36", "type": "electric_scooter", "lon": -77.05312383333333, "is_reserved": 0, "fusion_lat": 0.0, "fusion_lon": 0.0}, {"name": "e0cc5e13dbb6e6589dab51d3f428da25", "is_disabled": 0, "lat": 38.9024035, "rental_uris": {"ios": "https://dc.lft.to/lastmile_qr_scan", "android": "https://dc.lft.to/lastmile_qr_scan"}, "bike_id": "e0cc5e13dbb6e6589dab51d3f428da25", "type": "electric_scooter", "lon": -77.03443616666667, "is_reserved": 0, "fusion_lat": 0.0, "fusion_lon": 0.0}, {"name": "c12f62e99573137a39b60fbb039b8e0b", "is_disabled": 0, "lat": 38.914683833333335, "rental_uris": {"ios": "https://dc.lft.to/lastmile_qr_scan", "android": "https://dc.lft.to/lastmile_qr_scan"}, "bike_id": "c12f62e99573137a39b60fbb039b8e0b", "type": "electric_scooter", "lon": -77.03843016666667, "is_reserved": 0, "fusion_lat": 0.0, "fusion_lon": 0.0}, {"name": "7123b776a8c14706552116866475cb10", "is_disabled": 0, "lat": 38.941938666666665, "rental_uris": {"ios": "https://dc.lft.to/lastmile_qr_scan", "android": "https://dc.lft.to/lastmile_qr_scan"}, "bike_id": "7123b776a8c14706552116866475cb10", "type": "electric_scooter", "lon": -77.04111183333333, "is_reserved": 0, "fusion_lat": 0.0, "fusion_lon": 0.0}, {"name": "8a9c24c1c94e63e8fe3dca7552155525", "is_disabled": 0, "lat": 38.916071, "rental_uris": {"ios": "https://dc.lft.to/lastmile_qr_scan", "android": "https://dc.lft.to/lastmile_qr_scan"}, "bike_id": "8a9c24c1c94e63e8fe3dca7552155525", "type": "electric_scooter", "lon": -77.03216283333333, "is_reserved": 0, "fusion_lat": 0.0, "fusion_lon": 0.0}, {"name": "f8a7e3d9ba892815c12cbe585b43ca35", "is_disabled": 0, "lat": 38.9497515, "rental_uris": {"ios": "https://dc.lft.to/lastmile_qr_scan", "android": "https://dc.lft.to/lastmile_qr_scan"}, "bike_id": "f8a7e3d9ba892815c12cbe585b43ca35", "type": "electric_scooter", "lon": -77.02443516666666, "is_reserved": 0, "fusion_lat": 0.0, "fusion_lon": 0.0}, {"name": "8c7341f2ace8b81242ba532ad27e9482", "is_disabled": 0, "lat": 38.905717833333334, "rental_uris": {"ios": "https://dc.lft.to/lastmile_qr_scan", "android": "https://dc.lft.to/lastmile_qr_scan"}, "bike_id": "8c7341f2ace8b81242ba532ad27e9482", "type": "electric_scooter", "lon": -77.0220675, "is_reserved": 0, "fusion_lat": 0.0, "fusion_lon": 0.0}, {"name": "52b0521c0d552579cc4b0f356275762f", "is_disabled": 0, "lat": 38.919275999999996, "rental_uris": {"ios": "https://dc.lft.to/lastmile_qr_scan", "android": "https://dc.lft.to/lastmile_qr_scan"}, "bike_id": "52b0521c0d552579cc4b0f356275762f", "type": "electric_scooter", "lon": -77.03254383333334, "is_reserved": 0, "fusion_lat": 0.0, "fusion_lon": 0.0}, {"name": "2b0566c0ca78644111ebfffaf1f48f68", "is_disabled": 0, "lat": 38.89929, "rental_uris": {"ios": "https://dc.lft.to/lastmile_qr_scan", "android": "https://dc.lft.to/lastmile_qr_scan"}, "bike_id": "2b0566c0ca78644111ebfffaf1f48f68", "type": "electric_scooter", "lon": -77.01272966666667, "is_reserved": 0, "fusion_lat": 0.0, "fusion_lon": 0.0}, {"name": "2dd9358aea75a131f95df1f9fd0d7cc2", "is_disabled": 0, "lat": 38.9804635, "rental_uris": {"ios": "https://dc.lft.to/lastmile_qr_scan", "android": "https://dc.lft.to/lastmile_qr_scan"}, "bike_id": "2dd9358aea75a131f95df1f9fd0d7cc2", "type": "electric_bike", "lon": -76.957922, "is_reserved": 0, "fusion_lat": 0.0, "fusion_lon": 0.0}, {"name": "885777ce422634c382d96023694bc1ca", "is_disabled": 0, "lat": 38.924995, "rental_uris": {"ios": "https://dc.lft.to/lastmile_qr_scan", "android": "https://dc.lft.to/lastmile_qr_scan"}, "bike_id": "885777ce422634c382d96023694bc1ca", "type": "electric_scooter", "lon": -77.02401333333333, "is_reserved": 0, "fusion_lat": 0.0, "fusion_lon": 0.0}, {"name": "f5ad23c3ae2e25e66fcab41e79292f67", "is_disabled": 0, "lat": 38.91402516666667, "rental_uris": {"ios": "https://dc.lft.to/lastmile_qr_scan", "android": "https://dc.lft.to/lastmile_qr_scan"}, "bike_id": "f5ad23c3ae2e25e66fcab41e79292f67", "type": "electric_scooter", "lon": -77.03208, "is_reserved": 0, "fusion_lat": 0.0, "fusion_lon": 0.0}, {"name": "95a4beeb402bd67eb2d8b1277a3517d3", "is_disabled": 0, "lat": 38.89847366666667, "rental_uris": {"ios": "https://dc.lft.to/lastmile_qr_scan", "android": "https://dc.lft.to/lastmile_qr_scan"}, "bike_id": "95a4beeb402bd67eb2d8b1277a3517d3", "type": "electric_scooter", "lon": -77.02197783333334, "is_reserved": 0, "fusion_lat": 0.0, "fusion_lon": 0.0}, {"name": "c29a23d70682bb98aa7f0044074f93c5", "is_disabled": 0, "lat": 38.8955335, "rental_uris": {"ios": "https://dc.lft.to/lastmile_qr_scan", "android": "https://dc.lft.to/lastmile_qr_scan"}, "bike_id": "c29a23d70682bb98aa7f0044074f93c5", "type": "electric_scooter", "lon": -77.0091725, "is_reserved": 0, "fusion_lat": 0.0, "fusion_lon": 0.0}, {"name": "1f63c8c328523b59dc7eb880109e9864", "is_disabled": 0, "lat": 38.93847066666667, "rental_uris": {"ios": "https://dc.lft.to/lastmile_qr_scan", "android": "https://dc.lft.to/lastmile_qr_scan"}, "bike_id": "1f63c8c328523b59dc7eb880109e9864", "type": "electric_scooter", "lon": -77.02481566666667, "is_reserved": 0, "fusion_lat": 0.0, "fusion_lon": 0.0}, {"name": "45064a31fc56d33d8f8a344b2f85c75d", "is_disabled": 0, "lat": 38.866685, "rental_uris": {"ios": "https://dc.lft.to/lastmile_qr_scan", "android": "https://dc.lft.to/lastmile_qr_scan"}, "bike_id": "45064a31fc56d33d8f8a344b2f85c75d", "type": "electric_scooter", "lon": -76.9890115, "is_reserved": 0, "fusion_lat": 0.0, "fusion_lon": 0.0}, {"name": "0a8ff6f5374f27396c22bfd52643e9e6", "is_disabled": 0, "lat": 38.916917833333336, "rental_uris": {"ios": "https://dc.lft.to/lastmile_qr_scan", "android": "https://dc.lft.to/lastmile_qr_scan"}, "bike_id": "0a8ff6f5374f27396c22bfd52643e9e6", "type": "electric_scooter", "lon": -77.02956783333333, "is_reserved": 0, "fusion_lat": 0.0, "fusion_lon": 0.0}, {"name": "8e4367c6425a3d3882815d216bed17e2", "is_disabled": 0, "lat": 38.93183166666667, "rental_uris": {"ios": "https://dc.lft.to/lastmile_qr_scan", "android": "https://dc.lft.to/lastmile_qr_scan"}, "bike_id": "8e4367c6425a3d3882815d216bed17e2", "type": "electric_scooter", "lon": -77.0315405, "is_reserved": 0, "fusion_lat": 0.0, "fusion_lon": 0.0}, {"name": "0c8bac53e8df1715b9e25b301b3f17fb", "is_disabled": 0, "lat": 38.9206185, "rental_uris": {"ios": "https://dc.lft.to/lastmile_qr_scan", "android": "https://dc.lft.to/lastmile_qr_scan"}, "bike_id": "0c8bac53e8df1715b9e25b301b3f17fb", "type": "electric_scooter", "lon": -77.03806733333333, "is_reserved": 0, "fusion_lat": 0.0, "fusion_lon": 0.0}, {"name": "936c9653e1b1d0d044cf10e734493e40", "is_disabled": 0, "lat": 38.874551333333336, "rental_uris": {"ios": "https://dc.lft.to/lastmile_qr_scan", "android": "https://dc.lft.to/lastmile_qr_scan"}, "bike_id": "936c9653e1b1d0d044cf10e734493e40", "type": "electric_scooter", "lon": -77.00289933333333, "is_reserved": 0, "fusion_lat": 0.0, "fusion_lon": 0.0}, {"name": "478fd79ff8f45380bdbf8b71f387c4ab", "is_disabled": 0, "lat": 38.90954, "rental_uris": {"ios": "https://dc.lft.to/lastmile_qr_scan", "android": "https://dc.lft.to/lastmile_qr_scan"}, "bike_id": "478fd79ff8f45380bdbf8b71f387c4ab", "type": "electric_scooter", "lon": -77.027154, "is_reserved": 0, "fusion_lat": 0.0, "fusion_lon": 0.0}, {"name": "17a8094d2f860366767c91347bdd02b6", "is_disabled": 0, "lat": 38.91799316666667, "rental_uris": {"ios": "https://dc.lft.to/lastmile_qr_scan", "android": "https://dc.lft.to/lastmile_qr_scan"}, "bike_id": "17a8094d2f860366767c91347bdd02b6", "type": "electric_scooter", "lon": -77.0318725, "is_reserved": 0, "fusion_lat": 0.0, "fusion_lon": 0.0}, {"name": "2256bb0fbab407ccac6021e7ef93a81e", "is_disabled": 0, "lat": 38.876643666666666, "rental_uris": {"ios": "https://dc.lft.to/lastmile_qr_scan", "android": "https://dc.lft.to/lastmile_qr_scan"}, "bike_id": "2256bb0fbab407ccac6021e7ef93a81e", "type": "electric_scooter", "lon": -77.000815, "is_reserved": 0, "fusion_lat": 0.0, "fusion_lon": 0.0}, {"name": "9c3b06c0b8597a3c7b8749d7a55a2dc0", "is_disabled": 0, "lat": 38.86018116666666, "rental_uris": {"ios": "https://dc.lft.to/lastmile_qr_scan", "android": "https://dc.lft.to/lastmile_qr_scan"}, "bike_id": "9c3b06c0b8597a3c7b8749d7a55a2dc0", "type": "electric_bike", "lon": -77.12808866666667, "is_reserved": 0, "fusion_lat": 0.0, "fusion_lon": 0.0}, {"name": "2246f226ce4e0e16ac72faf61e091c8c", "is_disabled": 0, "lat": 38.91735466666667, "rental_uris": {"ios": "https://dc.lft.to/lastmile_qr_scan", "android": "https://dc.lft.to/lastmile_qr_scan"}, "bike_id": "2246f226ce4e0e16ac72faf61e091c8c", "type": "electric_scooter", "lon": -77.0190805, "is_reserved": 0, "fusion_lat": 0.0, "fusion_lon": 0.0}, {"name": "0e6f7e6ddcd8008dee0eea738998e9af", "is_disabled": 0, "lat": 38.906024333333335, "rental_uris": {"ios": "https://dc.lft.to/lastmile_qr_scan", "android": "https://dc.lft.to/lastmile_qr_scan"}, "bike_id": "0e6f7e6ddcd8008dee0eea738998e9af", "type": "electric_bike", "lon": -77.07623316666667, "is_reserved": 0, "fusion_lat": 0.0, "fusion_lon": 0.0}, {"name": "44fb71ffeecadbeebe60a4cd2df7d7d9", "is_disabled": 0, "lat": 38.916933, "rental_uris": {"ios": "https://dc.lft.to/lastmile_qr_scan", "android": "https://dc.lft.to/lastmile_qr_scan"}, "bike_id": "44fb71ffeecadbeebe60a4cd2df7d7d9", "type": "electric_scooter", "lon": -77.02645866666667, "is_reserved": 0, "fusion_lat": 0.0, "fusion_lon": 0.0}, {"name": "fc4111547e8ca8c04939903ac3448d66", "is_disabled": 0, "lat": 38.928641, "rental_uris": {"ios": "https://dc.lft.to/lastmile_qr_scan", "android": "https://dc.lft.to/lastmile_qr_scan"}, "bike_id": "fc4111547e8ca8c04939903ac3448d66", "type": "electric_scooter", "lon": -77.01403133333334, "is_reserved": 0, "fusion_lat": 0.0, "fusion_lon": 0.0}, {"name": "e60b064021f798ee83e39988dcd73389", "is_disabled": 0, "lat": 38.91484466666667, "rental_uris": {"ios": "https://dc.lft.to/lastmile_qr_scan", "android": "https://dc.lft.to/lastmile_qr_scan"}, "bike_id": "e60b064021f798ee83e39988dcd73389", "type": "electric_scooter", "lon": -77.0460735, "is_reserved": 0, "fusion_lat": 0.0, "fusion_lon": 0.0}, {"name": "3a46a7a771e23867efec80430e622f8d", "is_disabled": 0, "lat": 38.88735616666666, "rental_uris": {"ios": "https://dc.lft.to/lastmile_qr_scan", "android": "https://dc.lft.to/lastmile_qr_scan"}, "bike_id": "3a46a7a771e23867efec80430e622f8d", "type": "electric_scooter", "lon": -77.031796, "is_reserved": 0, "fusion_lat": 0.0, "fusion_lon": 0.0}, {"name": "aa2e467e90fba892e4f0b4af4bbb39b7", "is_disabled": 0, "lat": 38.91839316666667, "rental_uris": {"ios": "https://dc.lft.to/lastmile_qr_scan", "android": "https://dc.lft.to/lastmile_qr_scan"}, "bike_id": "aa2e467e90fba892e4f0b4af4bbb39b7", "type": "electric_scooter", "lon": -77.03206533333334, "is_reserved": 0, "fusion_lat": 0.0, "fusion_lon": 0.0}, {"name": "7fa60b404a8c1e0553f6a693be805b7c", "is_disabled": 0, "lat": 38.95404383333333, "rental_uris": {"ios": "https://dc.lft.to/lastmile_qr_scan", "android": "https://dc.lft.to/lastmile_qr_scan"}, "bike_id": "7fa60b404a8c1e0553f6a693be805b7c", "type": "electric_scooter", "lon": -77.02793683333333, "is_reserved": 0, "fusion_lat": 0.0, "fusion_lon": 0.0}, {"name": "9111063e7a2a9128308d46a176faef70", "is_disabled": 0, "lat": 38.930779333333334, "rental_uris": {"ios": "https://dc.lft.to/lastmile_qr_scan", "android": "https://dc.lft.to/lastmile_qr_scan"}, "bike_id": "9111063e7a2a9128308d46a176faef70", "type": "electric_scooter", "lon": -77.07760383333333, "is_reserved": 0, "fusion_lat": 0.0, "fusion_lon": 0.0}, {"name": "f4b7cf8c6447b09ac7474cb23aa38389", "is_disabled": 0, "lat": 38.91744083333333, "rental_uris": {"ios": "https://dc.lft.to/lastmile_qr_scan", "android": "https://dc.lft.to/lastmile_qr_scan"}, "bike_id": "f4b7cf8c6447b09ac7474cb23aa38389", "type": "electric_scooter", "lon": -77.04152616666667, "is_reserved": 0, "fusion_lat": 0.0, "fusion_lon": 0.0}, {"name": "7eab65c9fb2c49b1cc91bccd36ef79fc", "is_disabled": 0, "lat": 38.9073595, "rental_uris": {"ios": "https://dc.lft.to/lastmile_qr_scan", "android": "https://dc.lft.to/lastmile_qr_scan"}, "bike_id": "7eab65c9fb2c49b1cc91bccd36ef79fc", "type": "electric_scooter", "lon": -77.0433815, "is_reserved": 0, "fusion_lat": 0.0, "fusion_lon": 0.0}, {"name": "affd639e998256b3610307e100a5f928", "is_disabled": 0, "lat": 38.896580166666666, "rental_uris": {"ios": "https://dc.lft.to/lastmile_qr_scan", "android": "https://dc.lft.to/lastmile_qr_scan"}, "bike_id": "affd639e998256b3610307e100a5f928", "type": "electric_scooter", "lon": -77.02593583333334, "is_reserved": 0, "fusion_lat": 0.0, "fusion_lon": 0.0}, {"name": "5398185ffb33c4f2294fc9201823b3d7", "is_disabled": 0, "lat": 38.903796, "rental_uris": {"ios": "https://dc.lft.to/lastmile_qr_scan", "android": "https://dc.lft.to/lastmile_qr_scan"}, "bike_id": "5398185ffb33c4f2294fc9201823b3d7", "type": "electric_scooter", "lon": -77.04309133333334, "is_reserved": 0, "fusion_lat": 0.0, "fusion_lon": 0.0}, {"name": "92849a3b74d6cf25f81fde75aaec0480", "is_disabled": 0, "lat": 38.9238265, "rental_uris": {"ios": "https://dc.lft.to/lastmile_qr_scan", "android": "https://dc.lft.to/lastmile_qr_scan"}, "bike_id": "92849a3b74d6cf25f81fde75aaec0480", "type": "electric_scooter", "lon": -77.03538666666667, "is_reserved": 0, "fusion_lat": 0.0, "fusion_lon": 0.0}, {"name": "35ab13bcc76360990bd67e59ddfad46f", "is_disabled": 0, "lat": 38.87749516666667, "rental_uris": {"ios": "https://dc.lft.to/lastmile_qr_scan", "android": "https://dc.lft.to/lastmile_qr_scan"}, "bike_id": "35ab13bcc76360990bd67e59ddfad46f", "type": "electric_scooter", "lon": -77.0058775, "is_reserved": 0, "fusion_lat": 0.0, "fusion_lon": 0.0}, {"name": "58f3b8258b457a287dca0eeb4f12c636", "is_disabled": 0, "lat": 38.9215085, "rental_uris": {"ios": "https://dc.lft.to/lastmile_qr_scan", "android": "https://dc.lft.to/lastmile_qr_scan"}, "bike_id": "58f3b8258b457a287dca0eeb4f12c636", "type": "electric_scooter", "lon": -76.99374166666666, "is_reserved": 0, "fusion_lat": 0.0, "fusion_lon": 0.0}, {"name": "ba329acbc2cdcca7072a760e6106beae", "is_disabled": 0, "lat": 38.88928766666667, "rental_uris": {"ios": "https://dc.lft.to/lastmile_qr_scan", "android": "https://dc.lft.to/lastmile_qr_scan"}, "bike_id": "ba329acbc2cdcca7072a760e6106beae", "type": "electric_bike", "lon": -76.99177166666666, "is_reserved": 0, "fusion_lat": 0.0, "fusion_lon": 0.0}, {"name": "e63a7bc217311d2982430a85c82ef119", "is_disabled": 0, "lat": 38.898316, "rental_uris": {"ios": "https://dc.lft.to/lastmile_qr_scan", "android": "https://dc.lft.to/lastmile_qr_scan"}, "bike_id": "e63a7bc217311d2982430a85c82ef119", "type": "electric_scooter", "lon": -76.946323, "is_reserved": 0, "fusion_lat": 0.0, "fusion_lon": 0.0}, {"name": "70461232cdb717160aaa3e865e52d660", "is_disabled": 0, "lat": 38.9225365, "rental_uris": {"ios": "https://dc.lft.to/lastmile_qr_scan", "android": "https://dc.lft.to/lastmile_qr_scan"}, "bike_id": "70461232cdb717160aaa3e865e52d660", "type": "electric_scooter", "lon": -77.01952333333334, "is_reserved": 0, "fusion_lat": 0.0, "fusion_lon": 0.0}, {"name": "000af5fd5d2d082a1a53e5865e2bef1c", "is_disabled": 0, "lat": 38.9017955, "rental_uris": {"ios": "https://dc.lft.to/lastmile_qr_scan", "android": "https://dc.lft.to/lastmile_qr_scan"}, "bike_id": "000af5fd5d2d082a1a53e5865e2bef1c", "type": "electric_scooter", "lon": -77.02491, "is_reserved": 0, "fusion_lat": 0.0, "fusion_lon": 0.0}, {"name": "64e10351e4d252c1da15cbdc0e9d9e0b", "is_disabled": 0, "lat": 38.900655666666665, "rental_uris": {"ios": "https://dc.lft.to/lastmile_qr_scan", "android": "https://dc.lft.to/lastmile_qr_scan"}, "bike_id": "64e10351e4d252c1da15cbdc0e9d9e0b", "type": "electric_scooter", "lon": -76.93388683333333, "is_reserved": 0, "fusion_lat": 0.0, "fusion_lon": 0.0}, {"name": "f0f9a6a2b462dbc09b7636de8a81a4eb", "is_disabled": 0, "lat": 38.89727933333333, "rental_uris": {"ios": "https://dc.lft.to/lastmile_qr_scan", "android": "https://dc.lft.to/lastmile_qr_scan"}, "bike_id": "f0f9a6a2b462dbc09b7636de8a81a4eb", "type": "electric_scooter", "lon": -77.0274705, "is_reserved": 0, "fusion_lat": 0.0, "fusion_lon": 0.0}, {"name": "5fe8acdf881932072eb820e1fba8bb33", "is_disabled": 0, "lat": 38.919212333333334, "rental_uris": {"ios": "https://dc.lft.to/lastmile_qr_scan", "android": "https://dc.lft.to/lastmile_qr_scan"}, "bike_id": "5fe8acdf881932072eb820e1fba8bb33", "type": "electric_scooter", "lon": -77.0342185, "is_reserved": 0, "fusion_lat": 0.0, "fusion_lon": 0.0}, {"name": "b92e92dc146e3979e8da72c786355013", "is_disabled": 0, "lat": 38.905124, "rental_uris": {"ios": "https://dc.lft.to/lastmile_qr_scan", "android": "https://dc.lft.to/lastmile_qr_scan"}, "bike_id": "b92e92dc146e3979e8da72c786355013", "type": "electric_scooter", "lon": -77.04833316666667, "is_reserved": 0, "fusion_lat": 0.0, "fusion_lon": 0.0}, {"name": "741f780d5e8ebd0610a0a0434fd0f221", "is_disabled": 0, "lat": 38.902212166666665, "rental_uris": {"ios": "https://dc.lft.to/lastmile_qr_scan", "android": "https://dc.lft.to/lastmile_qr_scan"}, "bike_id": "741f780d5e8ebd0610a0a0434fd0f221", "type": "electric_scooter", "lon": -77.01600983333333, "is_reserved": 0, "fusion_lat": 0.0, "fusion_lon": 0.0}, {"name": "a79534f8c65945323888f6d5903c2e8c", "is_disabled": 0, "lat": 38.87647883333333, "rental_uris": {"ios": "https://dc.lft.to/lastmile_qr_scan", "android": "https://dc.lft.to/lastmile_qr_scan"}, "bike_id": "a79534f8c65945323888f6d5903c2e8c", "type": "electric_scooter", "lon": -77.00084766666667, "is_reserved": 0, "fusion_lat": 0.0, "fusion_lon": 0.0}, {"name": "8c7553cb44ff0658561802b731c3da0b", "is_disabled": 0, "lat": 38.9038645, "rental_uris": {"ios": "https://dc.lft.to/lastmile_qr_scan", "android": "https://dc.lft.to/lastmile_qr_scan"}, "bike_id": "8c7553cb44ff0658561802b731c3da0b", "type": "electric_scooter", "lon": -77.03188066666667, "is_reserved": 0, "fusion_lat": 0.0, "fusion_lon": 0.0}, {"name": "4bd24c3d394f3eaaf6d43949699a3200", "is_disabled": 0, "lat": 38.918103, "rental_uris": {"ios": "https://dc.lft.to/lastmile_qr_scan", "android": "https://dc.lft.to/lastmile_qr_scan"}, "bike_id": "4bd24c3d394f3eaaf6d43949699a3200", "type": "electric_scooter", "lon": -77.02499, "is_reserved": 0, "fusion_lat": 0.0, "fusion_lon": 0.0}, {"name": "8a6f6dac7bfdcdb0406178115921f7ec", "is_disabled": 0, "lat": 38.921504166666665, "rental_uris": {"ios": "https://dc.lft.to/lastmile_qr_scan", "android": "https://dc.lft.to/lastmile_qr_scan"}, "bike_id": "8a6f6dac7bfdcdb0406178115921f7ec", "type": "electric_scooter", "lon": -77.04363766666667, "is_reserved": 0, "fusion_lat": 0.0, "fusion_lon": 0.0}, {"name": "3589449a616ec6bfaa947461b54f9883", "is_disabled": 0, "lat": 38.92135283333333, "rental_uris": {"ios": "https://dc.lft.to/lastmile_qr_scan", "android": "https://dc.lft.to/lastmile_qr_scan"}, "bike_id": "3589449a616ec6bfaa947461b54f9883", "type": "electric_scooter", "lon": -77.003998, "is_reserved": 0, "fusion_lat": 0.0, "fusion_lon": 0.0}, {"name": "c34a3c37731e59dca3d3220afd3733b8", "is_disabled": 0, "lat": 38.901912, "rental_uris": {"ios": "https://dc.lft.to/lastmile_qr_scan", "android": "https://dc.lft.to/lastmile_qr_scan"}, "bike_id": "c34a3c37731e59dca3d3220afd3733b8", "type": "electric_scooter", "lon": -77.05063116666666, "is_reserved": 0, "fusion_lat": 0.0, "fusion_lon": 0.0}, {"name": "41bd0b29f6afe779e707570eb5f3ce68", "is_disabled": 0, "lat": 38.9180765, "rental_uris": {"ios": "https://dc.lft.to/lastmile_qr_scan", "android": "https://dc.lft.to/lastmile_qr_scan"}, "bike_id": "41bd0b29f6afe779e707570eb5f3ce68", "type": "electric_scooter", "lon": -77.02497783333334, "is_reserved": 0, "fusion_lat": 0.0, "fusion_lon": 0.0}, {"name": "d6b12d9b53dff59bdb76a4137a881064", "is_disabled": 0, "lat": 38.90443166666667, "rental_uris": {"ios": "https://dc.lft.to/lastmile_qr_scan", "android": "https://dc.lft.to/lastmile_qr_scan"}, "bike_id": "d6b12d9b53dff59bdb76a4137a881064", "type": "electric_scooter", "lon": -77.03203016666667, "is_reserved": 0, "fusion_lat": 0.0, "fusion_lon": 0.0}, {"name": "03f93c736290bf205e0e184de9cd0c48", "is_disabled": 0, "lat": 38.917037, "rental_uris": {"ios": "https://dc.lft.to/lastmile_qr_scan", "android": "https://dc.lft.to/lastmile_qr_scan"}, "bike_id": "03f93c736290bf205e0e184de9cd0c48", "type": "electric_scooter", "lon": -77.02854433333333, "is_reserved": 0, "fusion_lat": 0.0, "fusion_lon": 0.0}, {"name": "58f3bbc901b7f8e522cac64fb73938de", "is_disabled": 0, "lat": 38.89925083333333, "rental_uris": {"ios": "https://dc.lft.to/lastmile_qr_scan", "android": "https://dc.lft.to/lastmile_qr_scan"}, "bike_id": "58f3bbc901b7f8e522cac64fb73938de", "type": "electric_scooter", "lon": -77.039287, "is_reserved": 0, "fusion_lat": 0.0, "fusion_lon": 0.0}, {"name": "98e4db844975c72ce12875e296f464a4", "is_disabled": 0, "lat": 38.939867666666665, "rental_uris": {"ios": "https://dc.lft.to/lastmile_qr_scan", "android": "https://dc.lft.to/lastmile_qr_scan"}, "bike_id": "98e4db844975c72ce12875e296f464a4", "type": "electric_scooter", "lon": -77.02897616666667, "is_reserved": 0, "fusion_lat": 0.0, "fusion_lon": 0.0}, {"name": "53100cd1e29ae33a57e27c3bbbfb0368", "is_disabled": 0, "lat": 38.93586716666667, "rental_uris": {"ios": "https://dc.lft.to/lastmile_qr_scan", "android": "https://dc.lft.to/lastmile_qr_scan"}, "bike_id": "53100cd1e29ae33a57e27c3bbbfb0368", "type": "electric_scooter", "lon": -77.02848133333333, "is_reserved": 0, "fusion_lat": 0.0, "fusion_lon": 0.0}, {"name": "eddca14691f124188596c838407e4350", "is_disabled": 0, "lat": 38.902068666666665, "rental_uris": {"ios": "https://dc.lft.to/lastmile_qr_scan", "android": "https://dc.lft.to/lastmile_qr_scan"}, "bike_id": "eddca14691f124188596c838407e4350", "type": "electric_scooter", "lon": -77.02223683333334, "is_reserved": 0, "fusion_lat": 0.0, "fusion_lon": 0.0}, {"name": "47b4ac53c5a3fdef72460955fb387959", "is_disabled": 0, "lat": 38.911197666666666, "rental_uris": {"ios": "https://dc.lft.to/lastmile_qr_scan", "android": "https://dc.lft.to/lastmile_qr_scan"}, "bike_id": "47b4ac53c5a3fdef72460955fb387959", "type": "electric_scooter", "lon": -77.04461716666667, "is_reserved": 0, "fusion_lat": 0.0, "fusion_lon": 0.0}, {"name": "9ac5f8d9280fd88a343c9c8af17a5cc4", "is_disabled": 0, "lat": 38.874818, "rental_uris": {"ios": "https://dc.lft.to/lastmile_qr_scan", "android": "https://dc.lft.to/lastmile_qr_scan"}, "bike_id": "9ac5f8d9280fd88a343c9c8af17a5cc4", "type": "electric_scooter", "lon": -77.00594916666667, "is_reserved": 0, "fusion_lat": 0.0, "fusion_lon": 0.0}, {"name": "ab7667f4fe5feac58cbadb3905d8213a", "is_disabled": 0, "lat": 38.887314333333336, "rental_uris": {"ios": "https://dc.lft.to/lastmile_qr_scan", "android": "https://dc.lft.to/lastmile_qr_scan"}, "bike_id": "ab7667f4fe5feac58cbadb3905d8213a", "type": "electric_scooter", "lon": -77.03180316666666, "is_reserved": 0, "fusion_lat": 0.0, "fusion_lon": 0.0}, {"name": "dd39780fb96146e978d1673141a4715c", "is_disabled": 0, "lat": 38.9234225, "rental_uris": {"ios": "https://dc.lft.to/lastmile_qr_scan", "android": "https://dc.lft.to/lastmile_qr_scan"}, "bike_id": "dd39780fb96146e978d1673141a4715c", "type": "electric_scooter", "lon": -77.05170116666666, "is_reserved": 0, "fusion_lat": 0.0, "fusion_lon": 0.0}, {"name": "3490f2ee364f2211e1cf3567493643bd", "is_disabled": 0, "lat": 38.88773, "rental_uris": {"ios": "https://dc.lft.to/lastmile_qr_scan", "android": "https://dc.lft.to/lastmile_qr_scan"}, "bike_id": "3490f2ee364f2211e1cf3567493643bd", "type": "electric_scooter", "lon": -76.9916065, "is_reserved": 0, "fusion_lat": 0.0, "fusion_lon": 0.0}, {"name": "97444b52c8e427ee334aa8899c437c00", "is_disabled": 0, "lat": 38.978818, "rental_uris": {"ios": "https://dc.lft.to/lastmile_qr_scan", "android": "https://dc.lft.to/lastmile_qr_scan"}, "bike_id": "97444b52c8e427ee334aa8899c437c00", "type": "electric_bike", "lon": -77.0602985, "is_reserved": 0, "fusion_lat": 0.0, "fusion_lon": 0.0}, {"name": "bae3acd2f65fec948474a8abfbdac2f9", "is_disabled": 0, "lat": 38.877652, "rental_uris": {"ios": "https://dc.lft.to/lastmile_qr_scan", "android": "https://dc.lft.to/lastmile_qr_scan"}, "bike_id": "bae3acd2f65fec948474a8abfbdac2f9", "type": "electric_bike", "lon": -77.0105375, "is_reserved": 0, "fusion_lat": 0.0, "fusion_lon": 0.0}, {"name": "4199b16aca44d1f8b7c8cc517808dd7a", "is_disabled": 0, "lat": 38.895444166666664, "rental_uris": {"ios": "https://dc.lft.to/lastmile_qr_scan", "android": "https://dc.lft.to/lastmile_qr_scan"}, "bike_id": "4199b16aca44d1f8b7c8cc517808dd7a", "type": "electric_scooter", "lon": -76.98334933333334, "is_reserved": 0, "fusion_lat": 0.0, "fusion_lon": 0.0}, {"name": "36e7b1bc0cd5b0e79606ad531ba14a14", "is_disabled": 0, "lat": 38.909631166666664, "rental_uris": {"ios": "https://dc.lft.to/lastmile_qr_scan", "android": "https://dc.lft.to/lastmile_qr_scan"}, "bike_id": "36e7b1bc0cd5b0e79606ad531ba14a14", "type": "electric_scooter", "lon": -77.04492983333333, "is_reserved": 0, "fusion_lat": 0.0, "fusion_lon": 0.0}, {"name": "adf89fbd970ce82006ed8ee33b1fd766", "is_disabled": 0, "lat": 38.89820066666667, "rental_uris": {"ios": "https://dc.lft.to/lastmile_qr_scan", "android": "https://dc.lft.to/lastmile_qr_scan"}, "bike_id": "adf89fbd970ce82006ed8ee33b1fd766", "type": "electric_scooter", "lon": -77.04606333333334, "is_reserved": 0, "fusion_lat": 0.0, "fusion_lon": 0.0}, {"name": "7aa27b202e93f3239fa3b0eabfdd9d46", "is_disabled": 0, "lat": 38.88821016666667, "rental_uris": {"ios": "https://dc.lft.to/lastmile_qr_scan", "android": "https://dc.lft.to/lastmile_qr_scan"}, "bike_id": "7aa27b202e93f3239fa3b0eabfdd9d46", "type": "electric_scooter", "lon": -76.97717833333333, "is_reserved": 0, "fusion_lat": 0.0, "fusion_lon": 0.0}, {"name": "2ae6d279a101a60038ccf66283adff4b", "is_disabled": 0, "lat": 38.91987116666667, "rental_uris": {"ios": "https://dc.lft.to/lastmile_qr_scan", "android": "https://dc.lft.to/lastmile_qr_scan"}, "bike_id": "2ae6d279a101a60038ccf66283adff4b", "type": "electric_scooter", "lon": -77.04186466666667, "is_reserved": 0, "fusion_lat": 0.0, "fusion_lon": 0.0}, {"name": "221a8f87964e43f9551445a3220e0201", "is_disabled": 0, "lat": 38.9008175, "rental_uris": {"ios": "https://dc.lft.to/lastmile_qr_scan", "android": "https://dc.lft.to/lastmile_qr_scan"}, "bike_id": "221a8f87964e43f9551445a3220e0201", "type": "electric_scooter", "lon": -77.01388116666666, "is_reserved": 0, "fusion_lat": 0.0, "fusion_lon": 0.0}, {"name": "7242879c794aeaaa716213999bc999bb", "is_disabled": 0, "lat": 38.91258883333333, "rental_uris": {"ios": "https://dc.lft.to/lastmile_qr_scan", "android": "https://dc.lft.to/lastmile_qr_scan"}, "bike_id": "7242879c794aeaaa716213999bc999bb", "type": "electric_scooter", "lon": -77.0315485, "is_reserved": 0, "fusion_lat": 0.0, "fusion_lon": 0.0}, {"name": "e603845ccfd6bec133b41675b8186ea1", "is_disabled": 0, "lat": 38.925208, "rental_uris": {"ios": "https://dc.lft.to/lastmile_qr_scan", "android": "https://dc.lft.to/lastmile_qr_scan"}, "bike_id": "e603845ccfd6bec133b41675b8186ea1", "type": "electric_scooter", "lon": -77.07706683333333, "is_reserved": 0, "fusion_lat": 0.0, "fusion_lon": 0.0}, {"name": "8b419e3c2269c146bc8e727805192b5b", "is_disabled": 0, "lat": 38.8882365, "rental_uris": {"ios": "https://dc.lft.to/lastmile_qr_scan", "android": "https://dc.lft.to/lastmile_qr_scan"}, "bike_id": "8b419e3c2269c146bc8e727805192b5b", "type": "electric_scooter", "lon": -76.97719183333334, "is_reserved": 0, "fusion_lat": 0.0, "fusion_lon": 0.0}, {"name": "381d8977f5cc58d915aeb72fb805dfe2", "is_disabled": 0, "lat": 38.906942, "rental_uris": {"ios": "https://dc.lft.to/lastmile_qr_scan", "android": "https://dc.lft.to/lastmile_qr_scan"}, "bike_id": "381d8977f5cc58d915aeb72fb805dfe2", "type": "electric_scooter", "lon": -77.0359955, "is_reserved": 0, "fusion_lat": 0.0, "fusion_lon": 0.0}, {"name": "2e7f3cd87658e5194fbdfa386aee2780", "is_disabled": 0, "lat": 38.955983, "rental_uris": {"ios": "https://dc.lft.to/lastmile_qr_scan", "android": "https://dc.lft.to/lastmile_qr_scan"}, "bike_id": "2e7f3cd87658e5194fbdfa386aee2780", "type": "electric_bike", "lon": -77.01010333333333, "is_reserved": 0, "fusion_lat": 0.0, "fusion_lon": 0.0}, {"name": "cd8c8e49dfd1fd60c12873b2cc1d90d8", "is_disabled": 0, "lat": 38.8988925, "rental_uris": {"ios": "https://dc.lft.to/lastmile_qr_scan", "android": "https://dc.lft.to/lastmile_qr_scan"}, "bike_id": "cd8c8e49dfd1fd60c12873b2cc1d90d8", "type": "electric_scooter", "lon": -76.99359533333333, "is_reserved": 0, "fusion_lat": 0.0, "fusion_lon": 0.0}, {"name": "1c8fe44b7eb9926cfe94d7305110fd6f", "is_disabled": 0, "lat": 38.924392833333336, "rental_uris": {"ios": "https://dc.lft.to/lastmile_qr_scan", "android": "https://dc.lft.to/lastmile_qr_scan"}, "bike_id": "1c8fe44b7eb9926cfe94d7305110fd6f", "type": "electric_scooter", "lon": -77.0520675, "is_reserved": 0, "fusion_lat": 0.0, "fusion_lon": 0.0}, {"name": "155be773123e2585594b896b1a680a6d", "is_disabled": 0, "lat": 38.945103, "rental_uris": {"ios": "https://dc.lft.to/lastmile_qr_scan", "android": "https://dc.lft.to/lastmile_qr_scan"}, "bike_id": "155be773123e2585594b896b1a680a6d", "type": "electric_bike", "lon": -77.006771, "is_reserved": 0, "fusion_lat": 0.0, "fusion_lon": 0.0}, {"name": "810ea834811546087895d677b126d849", "is_disabled": 0, "lat": 38.885009333333336, "rental_uris": {"ios": "https://dc.lft.to/lastmile_qr_scan", "android": "https://dc.lft.to/lastmile_qr_scan"}, "bike_id": "810ea834811546087895d677b126d849", "type": "electric_scooter", "lon": -77.01490983333333, "is_reserved": 0, "fusion_lat": 0.0, "fusion_lon": 0.0}, {"name": "25f02d1da3b1f23805227e2e916ee79e", "is_disabled": 0, "lat": 38.911540333333335, "rental_uris": {"ios": "https://dc.lft.to/lastmile_qr_scan", "android": "https://dc.lft.to/lastmile_qr_scan"}, "bike_id": "25f02d1da3b1f23805227e2e916ee79e", "type": "electric_scooter", "lon": -77.08753616666667, "is_reserved": 0, "fusion_lat": 0.0, "fusion_lon": 0.0}, {"name": "a228de78d786119bf2d11dcecc95fe7f", "is_disabled": 0, "lat": 38.88774983333333, "rental_uris": {"ios": "https://dc.lft.to/lastmile_qr_scan", "android": "https://dc.lft.to/lastmile_qr_scan"}, "bike_id": "a228de78d786119bf2d11dcecc95fe7f", "type": "electric_scooter", "lon": -76.991621, "is_reserved": 0, "fusion_lat": 0.0, "fusion_lon": 0.0}, {"name": "3118f06e1dcf587416a66461426db876", "is_disabled": 0, "lat": 38.90468166666667, "rental_uris": {"ios": "https://dc.lft.to/lastmile_qr_scan", "android": "https://dc.lft.to/lastmile_qr_scan"}, "bike_id": "3118f06e1dcf587416a66461426db876", "type": "electric_scooter", "lon": -77.0282175, "is_reserved": 0, "fusion_lat": 0.0, "fusion_lon": 0.0}, {"name": "d5d177bd74ee5dd903440da0ecf10256", "is_disabled": 0, "lat": 38.92261033333333, "rental_uris": {"ios": "https://dc.lft.to/lastmile_qr_scan", "android": "https://dc.lft.to/lastmile_qr_scan"}, "bike_id": "d5d177bd74ee5dd903440da0ecf10256", "type": "electric_scooter", "lon": -77.019502, "is_reserved": 0, "fusion_lat": 0.0, "fusion_lon": 0.0}, {"name": "01af81c9dedae8386d5d6531cf7b33b1", "is_disabled": 0, "lat": 38.920694166666664, "rental_uris": {"ios": "https://dc.lft.to/lastmile_qr_scan", "android": "https://dc.lft.to/lastmile_qr_scan"}, "bike_id": "01af81c9dedae8386d5d6531cf7b33b1", "type": "electric_scooter", "lon": -77.04377633333333, "is_reserved": 0, "fusion_lat": 0.0, "fusion_lon": 0.0}, {"name": "71b57c20617661ace6c3c481366fb7c9", "is_disabled": 0, "lat": 38.92659366666667, "rental_uris": {"ios": "https://dc.lft.to/lastmile_qr_scan", "android": "https://dc.lft.to/lastmile_qr_scan"}, "bike_id": "71b57c20617661ace6c3c481366fb7c9", "type": "electric_scooter", "lon": -77.03023933333333, "is_reserved": 0, "fusion_lat": 0.0, "fusion_lon": 0.0}, {"name": "ea7c5f262b50da430d642b35a2c0f6d5", "is_disabled": 0, "lat": 38.91704633333333, "rental_uris": {"ios": "https://dc.lft.to/lastmile_qr_scan", "android": "https://dc.lft.to/lastmile_qr_scan"}, "bike_id": "ea7c5f262b50da430d642b35a2c0f6d5", "type": "electric_scooter", "lon": -77.04275016666666, "is_reserved": 0, "fusion_lat": 0.0, "fusion_lon": 0.0}, {"name": "e110a079db43964ad9af5bbd912d0294", "is_disabled": 0, "lat": 38.92532716666667, "rental_uris": {"ios": "https://dc.lft.to/lastmile_qr_scan", "android": "https://dc.lft.to/lastmile_qr_scan"}, "bike_id": "e110a079db43964ad9af5bbd912d0294", "type": "electric_scooter", "lon": -77.05250516666666, "is_reserved": 0, "fusion_lat": 0.0, "fusion_lon": 0.0}, {"name": "fc680c6ac11c6886c9834524869199d0", "is_disabled": 0, "lat": 38.86002883333333, "rental_uris": {"ios": "https://dc.lft.to/lastmile_qr_scan", "android": "https://dc.lft.to/lastmile_qr_scan"}, "bike_id": "fc680c6ac11c6886c9834524869199d0", "type": "electric_scooter", "lon": -76.985177, "is_reserved": 0, "fusion_lat": 0.0, "fusion_lon": 0.0}, {"name": "8bc99e08fd068066d2acf4a638f82eed", "is_disabled": 0, "lat": 38.91640066666667, "rental_uris": {"ios": "https://dc.lft.to/lastmile_qr_scan", "android": "https://dc.lft.to/lastmile_qr_scan"}, "bike_id": "8bc99e08fd068066d2acf4a638f82eed", "type": "electric_scooter", "lon": -77.04005433333333, "is_reserved": 0, "fusion_lat": 0.0, "fusion_lon": 0.0}, {"name": "9fa235a3864107b82d02642e4cd22fbd", "is_disabled": 0, "lat": 38.895742, "rental_uris": {"ios": "https://dc.lft.to/lastmile_qr_scan", "android": "https://dc.lft.to/lastmile_qr_scan"}, "bike_id": "9fa235a3864107b82d02642e4cd22fbd", "type": "electric_scooter", "lon": -76.983215, "is_reserved": 0, "fusion_lat": 0.0, "fusion_lon": 0.0}, {"name": "789273251d4d5e206368c9125caa95ce", "is_disabled": 0, "lat": 38.959338, "rental_uris": {"ios": "https://dc.lft.to/lastmile_qr_scan", "android": "https://dc.lft.to/lastmile_qr_scan"}, "bike_id": "789273251d4d5e206368c9125caa95ce", "type": "electric_bike", "lon": -76.92836933333334, "is_reserved": 0, "fusion_lat": 0.0, "fusion_lon": 0.0}, {"name": "c166dcaf65bf0a62e169fd3da648b72a", "is_disabled": 0, "lat": 38.90406683333333, "rental_uris": {"ios": "https://dc.lft.to/lastmile_qr_scan", "android": "https://dc.lft.to/lastmile_qr_scan"}, "bike_id": "c166dcaf65bf0a62e169fd3da648b72a", "type": "electric_scooter", "lon": -77.001989, "is_reserved": 0, "fusion_lat": 0.0, "fusion_lon": 0.0}, {"name": "4c08e68a198155c2763ae98242f4338e", "is_disabled": 0, "lat": 38.923674166666665, "rental_uris": {"ios": "https://dc.lft.to/lastmile_qr_scan", "android": "https://dc.lft.to/lastmile_qr_scan"}, "bike_id": "4c08e68a198155c2763ae98242f4338e", "type": "electric_scooter", "lon": -77.02809633333334, "is_reserved": 0, "fusion_lat": 0.0, "fusion_lon": 0.0}, {"name": "5e7dba01429e60f33e987328bd4d246f", "is_disabled": 0, "lat": 38.8624205, "rental_uris": {"ios": "https://dc.lft.to/lastmile_qr_scan", "android": "https://dc.lft.to/lastmile_qr_scan"}, "bike_id": "5e7dba01429e60f33e987328bd4d246f", "type": "electric_scooter", "lon": -76.99494733333333, "is_reserved": 0, "fusion_lat": 0.0, "fusion_lon": 0.0}, {"name": "1772e763de107cef715734b56c0f13e1", "is_disabled": 0, "lat": 38.941135833333334, "rental_uris": {"ios": "https://dc.lft.to/lastmile_qr_scan", "android": "https://dc.lft.to/lastmile_qr_scan"}, "bike_id": "1772e763de107cef715734b56c0f13e1", "type": "electric_scooter", "lon": -77.0004905, "is_reserved": 0, "fusion_lat": 0.0, "fusion_lon": 0.0}, {"name": "c6975978650c0d61c9fb99b4892c3022", "is_disabled": 0, "lat": 38.902106833333335, "rental_uris": {"ios": "https://dc.lft.to/lastmile_qr_scan", "android": "https://dc.lft.to/lastmile_qr_scan"}, "bike_id": "c6975978650c0d61c9fb99b4892c3022", "type": "electric_scooter", "lon": -77.0236455, "is_reserved": 0, "fusion_lat": 0.0, "fusion_lon": 0.0}, {"name": "ceab0ca1086dbf594feef1600b03cfd3", "is_disabled": 0, "lat": 38.8900735, "rental_uris": {"ios": "https://dc.lft.to/lastmile_qr_scan", "android": "https://dc.lft.to/lastmile_qr_scan"}, "bike_id": "ceab0ca1086dbf594feef1600b03cfd3", "type": "electric_scooter", "lon": -76.93745333333334, "is_reserved": 0, "fusion_lat": 0.0, "fusion_lon": 0.0}, {"name": "a30b2005ed9ea51b2ed044bb1ab52c5c", "is_disabled": 0, "lat": 38.917988333333334, "rental_uris": {"ios": "https://dc.lft.to/lastmile_qr_scan", "android": "https://dc.lft.to/lastmile_qr_scan"}, "bike_id": "a30b2005ed9ea51b2ed044bb1ab52c5c", "type": "electric_scooter", "lon": -77.04175766666667, "is_reserved": 0, "fusion_lat": 0.0, "fusion_lon": 0.0}, {"name": "21c0f90a875121d7b1dc71cf3de5eeb2", "is_disabled": 0, "lat": 38.914051666666666, "rental_uris": {"ios": "https://dc.lft.to/lastmile_qr_scan", "android": "https://dc.lft.to/lastmile_qr_scan"}, "bike_id": "21c0f90a875121d7b1dc71cf3de5eeb2", "type": "electric_scooter", "lon": -77.03160733333333, "is_reserved": 0, "fusion_lat": 0.0, "fusion_lon": 0.0}, {"name": "e5ae4b4bd79c7ead73deb786d31f7bba", "is_disabled": 0, "lat": 38.93773733333333, "rental_uris": {"ios": "https://dc.lft.to/lastmile_qr_scan", "android": "https://dc.lft.to/lastmile_qr_scan"}, "bike_id": "e5ae4b4bd79c7ead73deb786d31f7bba", "type": "electric_bike", "lon": -77.019124, "is_reserved": 0, "fusion_lat": 0.0, "fusion_lon": 0.0}, {"name": "51eb92de7e32f0bb926867e5a85bcced", "is_disabled": 0, "lat": 38.926732333333334, "rental_uris": {"ios": "https://dc.lft.to/lastmile_qr_scan", "android": "https://dc.lft.to/lastmile_qr_scan"}, "bike_id": "51eb92de7e32f0bb926867e5a85bcced", "type": "electric_scooter", "lon": -77.03048816666667, "is_reserved": 0, "fusion_lat": 0.0, "fusion_lon": 0.0}, {"name": "1dd0e4fcb103a87e92b2575ab15c0884", "is_disabled": 0, "lat": 38.90074383333334, "rental_uris": {"ios": "https://dc.lft.to/lastmile_qr_scan", "android": "https://dc.lft.to/lastmile_qr_scan"}, "bike_id": "1dd0e4fcb103a87e92b2575ab15c0884", "type": "electric_scooter", "lon": -77.0476435, "is_reserved": 0, "fusion_lat": 0.0, "fusion_lon": 0.0}, {"name": "dbbf64815dd68159678097b50ae75bed", "is_disabled": 0, "lat": 38.91993216666667, "rental_uris": {"ios": "https://dc.lft.to/lastmile_qr_scan", "android": "https://dc.lft.to/lastmile_qr_scan"}, "bike_id": "dbbf64815dd68159678097b50ae75bed", "type": "electric_scooter", "lon": -77.047614, "is_reserved": 0, "fusion_lat": 0.0, "fusion_lon": 0.0}, {"name": "45a0e50110ded7dacae7f0ea2740d4fa", "is_disabled": 0, "lat": 38.905245, "rental_uris": {"ios": "https://dc.lft.to/lastmile_qr_scan", "android": "https://dc.lft.to/lastmile_qr_scan"}, "bike_id": "45a0e50110ded7dacae7f0ea2740d4fa", "type": "electric_bike", "lon": -77.04154833333334, "is_reserved": 0, "fusion_lat": 0.0, "fusion_lon": 0.0}, {"name": "57df5c5d3bbe2a0ff63d60729e57b4ec", "is_disabled": 0, "lat": 38.863511333333335, "rental_uris": {"ios": "https://dc.lft.to/lastmile_qr_scan", "android": "https://dc.lft.to/lastmile_qr_scan"}, "bike_id": "57df5c5d3bbe2a0ff63d60729e57b4ec", "type": "electric_bike", "lon": -77.0772265, "is_reserved": 0, "fusion_lat": 0.0, "fusion_lon": 0.0}, {"name": "6bff5405cf9888fba39aa00ca8b15e40", "is_disabled": 0, "lat": 38.9375885, "rental_uris": {"ios": "https://dc.lft.to/lastmile_qr_scan", "android": "https://dc.lft.to/lastmile_qr_scan"}, "bike_id": "6bff5405cf9888fba39aa00ca8b15e40", "type": "electric_bike", "lon": -76.9582485, "is_reserved": 0, "fusion_lat": 0.0, "fusion_lon": 0.0}, {"name": "8b71c78ba8758c9d98f243290ad98213", "is_disabled": 0, "lat": 38.905059333333334, "rental_uris": {"ios": "https://dc.lft.to/lastmile_qr_scan", "android": "https://dc.lft.to/lastmile_qr_scan"}, "bike_id": "8b71c78ba8758c9d98f243290ad98213", "type": "electric_scooter", "lon": -77.06548516666666, "is_reserved": 0, "fusion_lat": 0.0, "fusion_lon": 0.0}, {"name": "30963a29f582fd197db94fce52748ca0", "is_disabled": 0, "lat": 38.9077925, "rental_uris": {"ios": "https://dc.lft.to/lastmile_qr_scan", "android": "https://dc.lft.to/lastmile_qr_scan"}, "bike_id": "30963a29f582fd197db94fce52748ca0", "type": "electric_scooter", "lon": -76.9971885, "is_reserved": 0, "fusion_lat": 0.0, "fusion_lon": 0.0}, {"name": "ba0d731783067ec955444add9f0e83f0", "is_disabled": 0, "lat": 38.891894666666666, "rental_uris": {"ios": "https://dc.lft.to/lastmile_qr_scan", "android": "https://dc.lft.to/lastmile_qr_scan"}, "bike_id": "ba0d731783067ec955444add9f0e83f0", "type": "electric_scooter", "lon": -76.99839833333333, "is_reserved": 0, "fusion_lat": 0.0, "fusion_lon": 0.0}, {"name": "e2cd65a143b75d7d4950e56839819bab", "is_disabled": 0, "lat": 38.94498, "rental_uris": {"ios": "https://dc.lft.to/lastmile_qr_scan", "android": "https://dc.lft.to/lastmile_qr_scan"}, "bike_id": "e2cd65a143b75d7d4950e56839819bab", "type": "electric_bike", "lon": -77.00682216666667, "is_reserved": 0, "fusion_lat": 0.0, "fusion_lon": 0.0}, {"name": "aa9fc0d95a9baa07cabb11391e6e62bf", "is_disabled": 0, "lat": 38.900839500000004, "rental_uris": {"ios": "https://dc.lft.to/lastmile_qr_scan", "android": "https://dc.lft.to/lastmile_qr_scan"}, "bike_id": "aa9fc0d95a9baa07cabb11391e6e62bf", "type": "electric_scooter", "lon": -77.04921533333334, "is_reserved": 0, "fusion_lat": 0.0, "fusion_lon": 0.0}, {"name": "d4f82ad7120d5fe61d843981166cd15e", "is_disabled": 0, "lat": 38.886546, "rental_uris": {"ios": "https://dc.lft.to/lastmile_qr_scan", "android": "https://dc.lft.to/lastmile_qr_scan"}, "bike_id": "d4f82ad7120d5fe61d843981166cd15e", "type": "electric_scooter", "lon": -77.001993, "is_reserved": 0, "fusion_lat": 0.0, "fusion_lon": 0.0}, {"name": "4e857693e12af7f26923e6d4ec190c52", "is_disabled": 0, "lat": 38.887661, "rental_uris": {"ios": "https://dc.lft.to/lastmile_qr_scan", "android": "https://dc.lft.to/lastmile_qr_scan"}, "bike_id": "4e857693e12af7f26923e6d4ec190c52", "type": "electric_scooter", "lon": -77.02947616666667, "is_reserved": 0, "fusion_lat": 0.0, "fusion_lon": 0.0}, {"name": "2b87bb846b0ee746e4f69116f7ded5c4", "is_disabled": 0, "lat": 38.913476833333334, "rental_uris": {"ios": "https://dc.lft.to/lastmile_qr_scan", "android": "https://dc.lft.to/lastmile_qr_scan"}, "bike_id": "2b87bb846b0ee746e4f69116f7ded5c4", "type": "electric_bike", "lon": -76.9889655, "is_reserved": 0, "fusion_lat": 0.0, "fusion_lon": 0.0}, {"name": "57e854a20489e029ac7d8acad5209cf9", "is_disabled": 0, "lat": 38.87376316666667, "rental_uris": {"ios": "https://dc.lft.to/lastmile_qr_scan", "android": "https://dc.lft.to/lastmile_qr_scan"}, "bike_id": "57e854a20489e029ac7d8acad5209cf9", "type": "electric_scooter", "lon": -77.00063333333334, "is_reserved": 0, "fusion_lat": 0.0, "fusion_lon": 0.0}, {"name": "6245d889268301fd8e640d82cad6c6fd", "is_disabled": 0, "lat": 38.90948266666667, "rental_uris": {"ios": "https://dc.lft.to/lastmile_qr_scan", "android": "https://dc.lft.to/lastmile_qr_scan"}, "bike_id": "6245d889268301fd8e640d82cad6c6fd", "type": "electric_scooter", "lon": -77.03194833333333, "is_reserved": 0, "fusion_lat": 0.0, "fusion_lon": 0.0}, {"name": "96895265e5950d7cfd2e060a89db91dc", "is_disabled": 0, "lat": 38.9026065, "rental_uris": {"ios": "https://dc.lft.to/lastmile_qr_scan", "android": "https://dc.lft.to/lastmile_qr_scan"}, "bike_id": "96895265e5950d7cfd2e060a89db91dc", "type": "electric_scooter", "lon": -77.0032475, "is_reserved": 0, "fusion_lat": 0.0, "fusion_lon": 0.0}, {"name": "2ea4474ec3d321dbafcab250c1e4c512", "is_disabled": 0, "lat": 38.920416333333336, "rental_uris": {"ios": "https://dc.lft.to/lastmile_qr_scan", "android": "https://dc.lft.to/lastmile_qr_scan"}, "bike_id": "2ea4474ec3d321dbafcab250c1e4c512", "type": "electric_scooter", "lon": -77.0167705, "is_reserved": 0, "fusion_lat": 0.0, "fusion_lon": 0.0}, {"name": "5ac7731ea753a52fd5e2cc64d3dd9562", "is_disabled": 0, "lat": 38.909502, "rental_uris": {"ios": "https://dc.lft.to/lastmile_qr_scan", "android": "https://dc.lft.to/lastmile_qr_scan"}, "bike_id": "5ac7731ea753a52fd5e2cc64d3dd9562", "type": "electric_scooter", "lon": -77.03182683333333, "is_reserved": 0, "fusion_lat": 0.0, "fusion_lon": 0.0}, {"name": "6a99d6ddc94c55c42128f9c563ecc8c1", "is_disabled": 0, "lat": 38.91714416666667, "rental_uris": {"ios": "https://dc.lft.to/lastmile_qr_scan", "android": "https://dc.lft.to/lastmile_qr_scan"}, "bike_id": "6a99d6ddc94c55c42128f9c563ecc8c1", "type": "electric_scooter", "lon": -77.02393533333333, "is_reserved": 0, "fusion_lat": 0.0, "fusion_lon": 0.0}, {"name": "e8ef1017e609748b0233c31a96c107fc", "is_disabled": 0, "lat": 38.926385, "rental_uris": {"ios": "https://dc.lft.to/lastmile_qr_scan", "android": "https://dc.lft.to/lastmile_qr_scan"}, "bike_id": "e8ef1017e609748b0233c31a96c107fc", "type": "electric_scooter", "lon": -77.033982, "is_reserved": 0, "fusion_lat": 0.0, "fusion_lon": 0.0}, {"name": "6b5e64f7eec44cadd0c11e3c568b2d22", "is_disabled": 0, "lat": 38.92032916666667, "rental_uris": {"ios": "https://dc.lft.to/lastmile_qr_scan", "android": "https://dc.lft.to/lastmile_qr_scan"}, "bike_id": "6b5e64f7eec44cadd0c11e3c568b2d22", "type": "electric_scooter", "lon": -77.07142116666667, "is_reserved": 0, "fusion_lat": 0.0, "fusion_lon": 0.0}, {"name": "8291c1d9a43be46a73056211f488b491", "is_disabled": 0, "lat": 38.89900566666667, "rental_uris": {"ios": "https://dc.lft.to/lastmile_qr_scan", "android": "https://dc.lft.to/lastmile_qr_scan"}, "bike_id": "8291c1d9a43be46a73056211f488b491", "type": "electric_scooter", "lon": -77.04901883333334, "is_reserved": 0, "fusion_lat": 0.0, "fusion_lon": 0.0}, {"name": "78961ecaa42bd6a0a7bfa882f6feb7b8", "is_disabled": 0, "lat": 38.9425335, "rental_uris": {"ios": "https://dc.lft.to/lastmile_qr_scan", "android": "https://dc.lft.to/lastmile_qr_scan"}, "bike_id": "78961ecaa42bd6a0a7bfa882f6feb7b8", "type": "electric_scooter", "lon": -77.03629166666667, "is_reserved": 0, "fusion_lat": 0.0, "fusion_lon": 0.0}, {"name": "132ba067581996f61416c0aada01a39a", "is_disabled": 0, "lat": 38.93716516666667, "rental_uris": {"ios": "https://dc.lft.to/lastmile_qr_scan", "android": "https://dc.lft.to/lastmile_qr_scan"}, "bike_id": "132ba067581996f61416c0aada01a39a", "type": "electric_scooter", "lon": -77.02445933333334, "is_reserved": 0, "fusion_lat": 0.0, "fusion_lon": 0.0}, {"name": "5f418e865ac5257921c08a18c83798dc", "is_disabled": 0, "lat": 38.86667516666667, "rental_uris": {"ios": "https://dc.lft.to/lastmile_qr_scan", "android": "https://dc.lft.to/lastmile_qr_scan"}, "bike_id": "5f418e865ac5257921c08a18c83798dc", "type": "electric_scooter", "lon": -76.9890455, "is_reserved": 0, "fusion_lat": 0.0, "fusion_lon": 0.0}, {"name": "cdf44a69a42494f660059ba53aa623fc", "is_disabled": 0, "lat": 38.90812116666667, "rental_uris": {"ios": "https://dc.lft.to/lastmile_qr_scan", "android": "https://dc.lft.to/lastmile_qr_scan"}, "bike_id": "cdf44a69a42494f660059ba53aa623fc", "type": "electric_scooter", "lon": -77.0419305, "is_reserved": 0, "fusion_lat": 0.0, "fusion_lon": 0.0}, {"name": "525c84a8acf8ef62a93c386fe50b96aa", "is_disabled": 0, "lat": 38.89222083333333, "rental_uris": {"ios": "https://dc.lft.to/lastmile_qr_scan", "android": "https://dc.lft.to/lastmile_qr_scan"}, "bike_id": "525c84a8acf8ef62a93c386fe50b96aa", "type": "electric_scooter", "lon": -77.043284, "is_reserved": 0, "fusion_lat": 0.0, "fusion_lon": 0.0}, {"name": "955a5d869d328f861d132af095e2dbc3", "is_disabled": 0, "lat": 38.929378, "rental_uris": {"ios": "https://dc.lft.to/lastmile_qr_scan", "android": "https://dc.lft.to/lastmile_qr_scan"}, "bike_id": "955a5d869d328f861d132af095e2dbc3", "type": "electric_scooter", "lon": -77.03263016666666, "is_reserved": 0, "fusion_lat": 0.0, "fusion_lon": 0.0}, {"name": "67e5a8c08c7283a89807d068db12b45d", "is_disabled": 0, "lat": 38.9086915, "rental_uris": {"ios": "https://dc.lft.to/lastmile_qr_scan", "android": "https://dc.lft.to/lastmile_qr_scan"}, "bike_id": "67e5a8c08c7283a89807d068db12b45d", "type": "electric_scooter", "lon": -77.023527, "is_reserved": 0, "fusion_lat": 0.0, "fusion_lon": 0.0}, {"name": "042fe526217ef37aa57de4cc492e3ccb", "is_disabled": 0, "lat": 38.92139483333333, "rental_uris": {"ios": "https://dc.lft.to/lastmile_qr_scan", "android": "https://dc.lft.to/lastmile_qr_scan"}, "bike_id": "042fe526217ef37aa57de4cc492e3ccb", "type": "electric_scooter", "lon": -77.01926516666667, "is_reserved": 0, "fusion_lat": 0.0, "fusion_lon": 0.0}, {"name": "4b87fb25078e62119f9f6d8c106ecb71", "is_disabled": 0, "lat": 38.891772, "rental_uris": {"ios": "https://dc.lft.to/lastmile_qr_scan", "android": "https://dc.lft.to/lastmile_qr_scan"}, "bike_id": "4b87fb25078e62119f9f6d8c106ecb71", "type": "electric_scooter", "lon": -76.9265165, "is_reserved": 0, "fusion_lat": 0.0, "fusion_lon": 0.0}, {"name": "37f05171b23e7e141402721b1509ff0b", "is_disabled": 0, "lat": 38.92604466666667, "rental_uris": {"ios": "https://dc.lft.to/lastmile_qr_scan", "android": "https://dc.lft.to/lastmile_qr_scan"}, "bike_id": "37f05171b23e7e141402721b1509ff0b", "type": "electric_scooter", "lon": -77.02157716666666, "is_reserved": 0, "fusion_lat": 0.0, "fusion_lon": 0.0}, {"name": "f18114c347daaa54729fe4b072fe3996", "is_disabled": 0, "lat": 38.90016133333334, "rental_uris": {"ios": "https://dc.lft.to/lastmile_qr_scan", "android": "https://dc.lft.to/lastmile_qr_scan"}, "bike_id": "f18114c347daaa54729fe4b072fe3996", "type": "electric_scooter", "lon": -77.044869, "is_reserved": 0, "fusion_lat": 0.0, "fusion_lon": 0.0}, {"name": "0107fc9a9f7a88719623395ece849dc0", "is_disabled": 0, "lat": 38.927952166666664, "rental_uris": {"ios": "https://dc.lft.to/lastmile_qr_scan", "android": "https://dc.lft.to/lastmile_qr_scan"}, "bike_id": "0107fc9a9f7a88719623395ece849dc0", "type": "electric_scooter", "lon": -77.02111033333334, "is_reserved": 0, "fusion_lat": 0.0, "fusion_lon": 0.0}, {"name": "fd714d0fd5728e7a1398aced97153431", "is_disabled": 0, "lat": 38.90118616666667, "rental_uris": {"ios": "https://dc.lft.to/lastmile_qr_scan", "android": "https://dc.lft.to/lastmile_qr_scan"}, "bike_id": "fd714d0fd5728e7a1398aced97153431", "type": "electric_scooter", "lon": -77.02607783333333, "is_reserved": 0, "fusion_lat": 0.0, "fusion_lon": 0.0}, {"name": "42d6ca7c67a6310244c4668eb1a8a575", "is_disabled": 0, "lat": 38.9214955, "rental_uris": {"ios": "https://dc.lft.to/lastmile_qr_scan", "android": "https://dc.lft.to/lastmile_qr_scan"}, "bike_id": "42d6ca7c67a6310244c4668eb1a8a575", "type": "electric_scooter", "lon": -76.993547, "is_reserved": 0, "fusion_lat": 0.0, "fusion_lon": 0.0}, {"name": "3aea650ecc672fa8d466dc888fb13959", "is_disabled": 0, "lat": 38.92768733333333, "rental_uris": {"ios": "https://dc.lft.to/lastmile_qr_scan", "android": "https://dc.lft.to/lastmile_qr_scan"}, "bike_id": "3aea650ecc672fa8d466dc888fb13959", "type": "electric_scooter", "lon": -77.05261633333333, "is_reserved": 0, "fusion_lat": 0.0, "fusion_lon": 0.0}, {"name": "20f0b079e1aa957bde1a625bece323f4", "is_disabled": 0, "lat": 38.927901166666665, "rental_uris": {"ios": "https://dc.lft.to/lastmile_qr_scan", "android": "https://dc.lft.to/lastmile_qr_scan"}, "bike_id": "20f0b079e1aa957bde1a625bece323f4", "type": "electric_scooter", "lon": -77.05317316666667, "is_reserved": 0, "fusion_lat": 0.0, "fusion_lon": 0.0}, {"name": "952927c430bf19292986bf2f5adddc1b", "is_disabled": 0, "lat": 38.9247445, "rental_uris": {"ios": "https://dc.lft.to/lastmile_qr_scan", "android": "https://dc.lft.to/lastmile_qr_scan"}, "bike_id": "952927c430bf19292986bf2f5adddc1b", "type": "electric_scooter", "lon": -77.0227065, "is_reserved": 0, "fusion_lat": 0.0, "fusion_lon": 0.0}, {"name": "8bae54b29884a8924b6fb6e49accab89", "is_disabled": 0, "lat": 38.90366066666667, "rental_uris": {"ios": "https://dc.lft.to/lastmile_qr_scan", "android": "https://dc.lft.to/lastmile_qr_scan"}, "bike_id": "8bae54b29884a8924b6fb6e49accab89", "type": "electric_scooter", "lon": -77.03930433333333, "is_reserved": 0, "fusion_lat": 0.0, "fusion_lon": 0.0}, {"name": "7a0845794b4745238336ef6ef154c718", "is_disabled": 0, "lat": 38.92522266666667, "rental_uris": {"ios": "https://dc.lft.to/lastmile_qr_scan", "android": "https://dc.lft.to/lastmile_qr_scan"}, "bike_id": "7a0845794b4745238336ef6ef154c718", "type": "electric_scooter", "lon": -77.05038733333333, "is_reserved": 0, "fusion_lat": 0.0, "fusion_lon": 0.0}, {"name": "fe6ae110138d38f7cfadcb530c204d62", "is_disabled": 0, "lat": 38.90328816666667, "rental_uris": {"ios": "https://dc.lft.to/lastmile_qr_scan", "android": "https://dc.lft.to/lastmile_qr_scan"}, "bike_id": "fe6ae110138d38f7cfadcb530c204d62", "type": "electric_scooter", "lon": -77.005804, "is_reserved": 0, "fusion_lat": 0.0, "fusion_lon": 0.0}, {"name": "c34e3d5d899f1d27a6fa67457a895063", "is_disabled": 0, "lat": 38.92678266666667, "rental_uris": {"ios": "https://dc.lft.to/lastmile_qr_scan", "android": "https://dc.lft.to/lastmile_qr_scan"}, "bike_id": "c34e3d5d899f1d27a6fa67457a895063", "type": "electric_scooter", "lon": -77.02572916666666, "is_reserved": 0, "fusion_lat": 0.0, "fusion_lon": 0.0}, {"name": "96e93151bb5d883e6bfb75e1a202cc35", "is_disabled": 0, "lat": 38.92462166666667, "rental_uris": {"ios": "https://dc.lft.to/lastmile_qr_scan", "android": "https://dc.lft.to/lastmile_qr_scan"}, "bike_id": "96e93151bb5d883e6bfb75e1a202cc35", "type": "electric_scooter", "lon": -77.039519, "is_reserved": 0, "fusion_lat": 0.0, "fusion_lon": 0.0}, {"name": "a2c121d297acd4c248c93d7c1fc0814d", "is_disabled": 0, "lat": 38.908469833333335, "rental_uris": {"ios": "https://dc.lft.to/lastmile_qr_scan", "android": "https://dc.lft.to/lastmile_qr_scan"}, "bike_id": "a2c121d297acd4c248c93d7c1fc0814d", "type": "electric_scooter", "lon": -77.06347883333333, "is_reserved": 0, "fusion_lat": 0.0, "fusion_lon": 0.0}, {"name": "49df5b43991919bfc6368bea6dda21d1", "is_disabled": 0, "lat": 38.95488183333333, "rental_uris": {"ios": "https://dc.lft.to/lastmile_qr_scan", "android": "https://dc.lft.to/lastmile_qr_scan"}, "bike_id": "49df5b43991919bfc6368bea6dda21d1", "type": "electric_bike", "lon": -77.026686, "is_reserved": 0, "fusion_lat": 0.0, "fusion_lon": 0.0}, {"name": "d66ed83e243dbf9d66651484dd63662e", "is_disabled": 0, "lat": 38.8866485, "rental_uris": {"ios": "https://dc.lft.to/lastmile_qr_scan", "android": "https://dc.lft.to/lastmile_qr_scan"}, "bike_id": "d66ed83e243dbf9d66651484dd63662e", "type": "electric_scooter", "lon": -77.01984633333333, "is_reserved": 0, "fusion_lat": 0.0, "fusion_lon": 0.0}, {"name": "c389b0b99a7b369c35a558db6d2b8925", "is_disabled": 0, "lat": 38.932601, "rental_uris": {"ios": "https://dc.lft.to/lastmile_qr_scan", "android": "https://dc.lft.to/lastmile_qr_scan"}, "bike_id": "c389b0b99a7b369c35a558db6d2b8925", "type": "electric_scooter", "lon": -76.9889925, "is_reserved": 0, "fusion_lat": 0.0, "fusion_lon": 0.0}, {"name": "4acb9ac79fcb2e7ccc198256e6d75724", "is_disabled": 0, "lat": 38.89032266666667, "rental_uris": {"ios": "https://dc.lft.to/lastmile_qr_scan", "android": "https://dc.lft.to/lastmile_qr_scan"}, "bike_id": "4acb9ac79fcb2e7ccc198256e6d75724", "type": "electric_scooter", "lon": -76.9374725, "is_reserved": 0, "fusion_lat": 0.0, "fusion_lon": 0.0}, {"name": "c1902058ed82553fa709b14b684439e7", "is_disabled": 0, "lat": 38.927581833333335, "rental_uris": {"ios": "https://dc.lft.to/lastmile_qr_scan", "android": "https://dc.lft.to/lastmile_qr_scan"}, "bike_id": "c1902058ed82553fa709b14b684439e7", "type": "electric_scooter", "lon": -77.03280816666667, "is_reserved": 0, "fusion_lat": 0.0, "fusion_lon": 0.0}, {"name": "3f000b9bd0323a3e5243f994647b8d24", "is_disabled": 0, "lat": 38.7998435, "rental_uris": {"ios": "https://dc.lft.to/lastmile_qr_scan", "android": "https://dc.lft.to/lastmile_qr_scan"}, "bike_id": "3f000b9bd0323a3e5243f994647b8d24", "type": "electric_bike", "lon": -77.12980716666667, "is_reserved": 0, "fusion_lat": 0.0, "fusion_lon": 0.0}, {"name": "5ec14d2ffcbad67b32790134fb93587b", "is_disabled": 0, "lat": 38.863359333333335, "rental_uris": {"ios": "https://dc.lft.to/lastmile_qr_scan", "android": "https://dc.lft.to/lastmile_qr_scan"}, "bike_id": "5ec14d2ffcbad67b32790134fb93587b", "type": "electric_bike", "lon": -76.98720583333333, "is_reserved": 0, "fusion_lat": 0.0, "fusion_lon": 0.0}, {"name": "f17f26abc4767c4ec4fefc8e091e875e", "is_disabled": 0, "lat": 38.917359, "rental_uris": {"ios": "https://dc.lft.to/lastmile_qr_scan", "android": "https://dc.lft.to/lastmile_qr_scan"}, "bike_id": "f17f26abc4767c4ec4fefc8e091e875e", "type": "electric_scooter", "lon": -77.04182766666666, "is_reserved": 0, "fusion_lat": 0.0, "fusion_lon": 0.0}, {"name": "f68459f5103dc1df4a148ce7f12a80b1", "is_disabled": 0, "lat": 38.909136333333336, "rental_uris": {"ios": "https://dc.lft.to/lastmile_qr_scan", "android": "https://dc.lft.to/lastmile_qr_scan"}, "bike_id": "f68459f5103dc1df4a148ce7f12a80b1", "type": "electric_scooter", "lon": -77.064352, "is_reserved": 0, "fusion_lat": 0.0, "fusion_lon": 0.0}, {"name": "67576def8c6e14e8b845c692b2c57bfd", "is_disabled": 0, "lat": 38.908122166666665, "rental_uris": {"ios": "https://dc.lft.to/lastmile_qr_scan", "android": "https://dc.lft.to/lastmile_qr_scan"}, "bike_id": "67576def8c6e14e8b845c692b2c57bfd", "type": "electric_scooter", "lon": -77.03857466666666, "is_reserved": 0, "fusion_lat": 0.0, "fusion_lon": 0.0}, {"name": "58ca81e5d3b1bde59254ea426f8e148d", "is_disabled": 0, "lat": 38.87211283333333, "rental_uris": {"ios": "https://dc.lft.to/lastmile_qr_scan", "android": "https://dc.lft.to/lastmile_qr_scan"}, "bike_id": "58ca81e5d3b1bde59254ea426f8e148d", "type": "electric_scooter", "lon": -77.016754, "is_reserved": 0, "fusion_lat": 0.0, "fusion_lon": 0.0}, {"name": "a4c362530b333330a8bc1010ffa50f91", "is_disabled": 0, "lat": 38.8985395, "rental_uris": {"ios": "https://dc.lft.to/lastmile_qr_scan", "android": "https://dc.lft.to/lastmile_qr_scan"}, "bike_id": "a4c362530b333330a8bc1010ffa50f91", "type": "electric_scooter", "lon": -77.02968383333334, "is_reserved": 0, "fusion_lat": 0.0, "fusion_lon": 0.0}, {"name": "7ee3eaacd701f0a176c1d4b4d6cdf297", "is_disabled": 0, "lat": 38.956278833333336, "rental_uris": {"ios": "https://dc.lft.to/lastmile_qr_scan", "android": "https://dc.lft.to/lastmile_qr_scan"}, "bike_id": "7ee3eaacd701f0a176c1d4b4d6cdf297", "type": "electric_scooter", "lon": -77.02835383333333, "is_reserved": 0, "fusion_lat": 0.0, "fusion_lon": 0.0},