{"data": {"bikes": [{"lat": 38.9045405, "is_disabled": 0, "type": "electric_scooter", "lon": -76.994591, "bike_id": "3aca2d4b0cdf526acbaa2fda5e4ce0c9", "fusion_lat": 0.0, "name": "3aca2d4b0cdf526acbaa2fda5e4ce0c9", "is_reserved": 0, "rental_uris": {"android": "https://dc.lft.to/lastmile_qr_scan", "ios": "https://dc.lft.to/lastmile_qr_scan"}, "fusion_lon": 0.0}, {"lat": 38.90966433333333, "is_disabled": 0, "type": "electric_scooter", "lon": -77.03373383333333, "bike_id": "218e6f8257bfef67a5ecc5ab2d1b00ea", "fusion_lat": 0.0, "name": "218e6f8257bfef67a5ecc5ab2d1b00ea", "is_reserved": 0, "rental_uris": {"android": "https://dc.lft.to/lastmile_qr_scan", "ios": "https://dc.lft.to/lastmile_qr_scan"}, "fusion_lon": 0.0}, {"lat": 38.913361333333334, "is_disabled": 0, "type": "electric_scooter", "lon": -77.04050983333333, "bike_id": "7bb294add8b54302e978010d8760643f", "fusion_lat": 0.0, "name": "7bb294add8b54302e978010d8760643f", "is_reserved": 0, "rental_uris": {"android": "https://dc.lft.to/lastmile_qr_scan", "ios": "https://dc.lft.to/lastmile_qr_scan"}, "fusion_lon": 0.0}, {"lat": 38.923347166666666, "is_disabled": 0, "type": "electric_scooter", "lon": -77.0434785, "bike_id": "c3171200198f6c4a9e09be1d72e3fd05", "fusion_lat": 0.0, "name": "c3171200198f6c4a9e09be1d72e3fd05", "is_reserved": 0, "rental_uris": {"android": "https://dc.lft.to/lastmile_qr_scan", "ios": "https://dc.lft.to/lastmile_qr_scan"}, "fusion_lon": 0.0}, {"lat": 38.87790416666667, "is_disabled": 0, "type": "electric_bike", "lon": -77.02324266666666, "bike_id": "c7a0d634f06d5c3d2aa45f937195ab92", "fusion_lat": 0.0, "name": "c7a0d634f06d5c3d2aa45f937195ab92", "is_reserved": 0, "rental_uris": {"android": "https://dc.lft.to/lastmile_qr_scan", "ios": "https://dc.lft.to/lastmile_qr_scan"}, "fusion_lon": 0.0}, {"lat": 38.92079183333333, "is_disabled": 0, "type": "electric_scooter", "lon": -77.02417433333333, "bike_id": "173a957295aacbdb9cee7505a668534f", "fusion_lat": 0.0, "name": "173a957295aacbdb9cee7505a668534f", "is_reserved": 0, "rental_uris": {"android": "https://dc.lft.to/lastmile_qr_scan", "ios": "https://dc.lft.to/lastmile_qr_scan"}, "fusion_lon": 0.0}, {"lat": 38.897634, "is_disabled": 0, "type": "electric_scooter", "lon": -77.02953533333333, "bike_id": "6fb922ae663b75d5531fa8538019237d", "fusion_lat": 0.0, "name": "6fb922ae663b75d5531fa8538019237d", "is_reserved": 0, "rental_uris": {"android": "https://dc.lft.to/lastmile_qr_scan", "ios": "https://dc.lft.to/lastmile_qr_scan"}, "fusion_lon": 0.0}, {"lat": 38.91993683333333, "is_disabled": 0, "type": "electric_scooter", "lon": -77.0397015, "bike_id": "c7d2d6b07029db36bed426dbdefff3b9", "fusion_lat": 0.0, "name": "c7d2d6b07029db36bed426dbdefff3b9", "is_reserved": 0, "rental_uris": {"android": "https://dc.lft.to/lastmile_qr_scan", "ios": "https://dc.lft.to/lastmile_qr_scan"}, "fusion_lon": 0.0}, {"lat": 38.89607133333333, "is_disabled": 0, "type": "electric_scooter", "lon": -77.013323, "bike_id": "6bb6d0cd8b8ab71e29f3fd02856f0ca7", "fusion_lat": 0.0, "name": "6bb6d0cd8b8ab71e29f3fd02856f0ca7", "is_reserved": 0, "rental_uris": {"android": "https://dc.lft.to/lastmile_qr_scan", "ios": "https://dc.lft.to/lastmile_qr_scan"}, "fusion_lon": 0.0}, {"lat": 38.931163, "is_disabled": 0, "type": "electric_scooter", "lon": -77.03811866666666, "bike_id": "25b00da1dc73d300bb39419af46e7a8d", "fusion_lat": 0.0, "name": "25b00da1dc73d300bb39419af46e7a8d", "is_reserved": 0, "rental_uris": {"android": "https://dc.lft.to/lastmile_qr_scan", "ios": "https://dc.lft.to/lastmile_qr_scan"}, "fusion_lon": 0.0}, {"lat": 38.9035895, "is_disabled": 0, "type": "electric_scooter", "lon": -77.02923333333334, "bike_id": "38afe1530bb4d553539e12de4200f8f1", "fusion_lat": 0.0, "name": "38afe1530bb4d553539e12de4200f8f1", "is_reserved": 0, "rental_uris": {"android": "https://dc.lft.to/lastmile_qr_scan", "ios": "https://dc.lft.to/lastmile_qr_scan"}, "fusion_lon": 0.0}, {"lat": 38.91868483333333, "is_disabled": 0, "type": "electric_scooter", "lon": -77.04028416666667, "bike_id": "c411f2c869d94e9af36a4a21a442437b", "fusion_lat": 0.0, "name": "c411f2c869d94e9af36a4a21a442437b", "is_reserved": 0, "rental_uris": {"android": "https://dc.lft.to/lastmile_qr_scan", "ios": "https://dc.lft.to/lastmile_qr_scan"}, "fusion_lon": 0.0}, {"lat": 38.89960033333333, "is_disabled": 0, "type": "electric_scooter", "lon": -77.0519995, "bike_id": "4755a41071b584c7d873ed550ebd8e35", "fusion_lat": 0.0, "name": "4755a41071b584c7d873ed550ebd8e35", "is_reserved": 0, "rental_uris": {"android": "https://dc.lft.to/lastmile_qr_scan", "ios": "https://dc.lft.to/lastmile_qr_scan"}, "fusion_lon": 0.0}, {"lat": 38.92109583333333, "is_disabled": 0, "type": "electric_scooter", "lon": -77.046909, "bike_id": "88f8ce3cea9fcd8c439394a96d87d443", "fusion_lat": 0.0, "name": "88f8ce3cea9fcd8c439394a96d87d443", "is_reserved": 0, "rental_uris": {"android": "https://dc.lft.to/lastmile_qr_scan", "ios": "https://dc.lft.to/lastmile_qr_scan"}, "fusion_lon": 0.0}, {"lat": 38.876931666666664, "is_disabled": 0, "type": "electric_scooter", "lon": -77.0175085, "bike_id": "4f44e9d061bd25f493677f9010fbaf3d", "fusion_lat": 0.0, "name": "4f44e9d061bd25f493677f9010fbaf3d", "is_reserved": 0, "rental_uris": {"android": "https://dc.lft.to/lastmile_qr_scan", "ios": "https://dc.lft.to/lastmile_qr_scan"}, "fusion_lon": 0.0}, {"lat": 38.933854, "is_disabled": 0, "type": "electric_scooter", "lon": -76.9950915, "bike_id": "f6d4d5ef20ee37d2954f37c75c54a266", "fusion_lat": 0.0, "name": "f6d4d5ef20ee37d2954f37c75c54a266", "is_reserved": 0, "rental_uris": {"android": "https://dc.lft.to/lastmile_qr_scan", "ios": "https://dc.lft.to/lastmile_qr_scan"}, "fusion_lon": 0.0}, {"lat": 38.91759483333333, "is_disabled": 0, "type": "electric_scooter", "lon": -77.03992983333333, "bike_id": "15805db78a8a5ba6e53fb69d1336752d", "fusion_lat": 0.0, "name": "15805db78a8a5ba6e53fb69d1336752d", "is_reserved": 0, "rental_uris": {"android": "https://dc.lft.to/lastmile_qr_scan", "ios": "https://dc.lft.to/lastmile_qr_scan"}, "fusion_lon": 0.0}, {"lat": 38.933217666666664, "is_disabled": 0, "type": "electric_scooter", "lon": -77.044005, "bike_id": "aaa54302cd503465ae62e41474232aef", "fusion_lat": 0.0, "name": "aaa54302cd503465ae62e41474232aef", "is_reserved": 0, "rental_uris": {"android": "https://dc.lft.to/lastmile_qr_scan", "ios": "https://dc.lft.to/lastmile_qr_scan"}, "fusion_lon": 0.0}, {"lat": 38.91878583333333, "is_disabled": 0, "type": "electric_scooter", "lon": -77.03573733333333, "bike_id": "1418305a3cb580f7034530151e4707fc", "fusion_lat": 0.0, "name": "1418305a3cb580f7034530151e4707fc", "is_reserved": 0, "rental_uris": {"android": "https://dc.lft.to/lastmile_qr_scan", "ios": "https://dc.lft.to/lastmile_qr_scan"}, "fusion_lon": 0.0}, {"lat": 38.90037983333333, "is_disabled": 0, "type": "electric_scooter", "lon": -77.02187366666666, "bike_id": "8c605c6166afdf5cf5d91dc84e5cd94d", "fusion_lat": 0.0, "name": "8c605c6166afdf5cf5d91dc84e5cd94d", "is_reserved": 0, "rental_uris": {"android": "https://dc.lft.to/lastmile_qr_scan", "ios": "https://dc.lft.to/lastmile_qr_scan"}, "fusion_lon": 0.0}, {"lat": 38.8022805, "is_disabled": 0, "type": "electric_bike", "lon": -77.07914966666667, "bike_id": "7f36a364a666b585baccb2c28e91204e", "fusion_lat": 0.0, "name": "7f36a364a666b585baccb2c28e91204e", "is_reserved": 0, "rental_uris": {"android": "https://dc.lft.to/lastmile_qr_scan", "ios": "https://dc.lft.to/lastmile_qr_scan"}, "fusion_lon": 0.0}, {"lat": 38.916383833333335, "is_disabled": 0, "type": "electric_scooter", "lon": -77.02696083333333, "bike_id": "033f3b1cf97c58b8762ca487257923f7", "fusion_lat": 0.0, "name": "033f3b1cf97c58b8762ca487257923f7", "is_reserved": 0, "rental_uris": {"android": "https://dc.lft.to/lastmile_qr_scan", "ios": "https://dc.lft.to/lastmile_qr_scan"}, "fusion_lon": 0.0}, {"lat": 38.9186905, "is_disabled": 0, "type": "electric_scooter", "lon": -77.04055533333333, "bike_id": "b8f607d62dbde7566d0c58c78a7f26cc", "fusion_lat": 0.0, "name": "b8f607d62dbde7566d0c58c78a7f26cc", "is_reserved": 0, "rental_uris": {"android": "https://dc.lft.to/lastmile_qr_scan", "ios": "https://dc.lft.to/lastmile_qr_scan"}, "fusion_lon": 0.0}, {"lat": 38.94426166666667, "is_disabled": 0, "type": "electric_scooter", "lon": -77.06306083333334, "bike_id": "5d53e2b15982e055cb6b0767fe59cff1", "fusion_lat": 0.0, "name": "5d53e2b15982e055cb6b0767fe59cff1", "is_reserved": 0, "rental_uris": {"android": "https://dc.lft.to/lastmile_qr_scan", "ios": "https://dc.lft.to/lastmile_qr_scan"}, "fusion_lon": 0.0}, {"lat": 38.905807833333334, "is_disabled": 0, "type": "electric_scooter", "lon": -77.04307066666667, "bike_id": "96448f42867b89c23e0a39a213490a7e", "fusion_lat": 0.0, "name": "96448f42867b89c23e0a39a213490a7e", "is_reserved": 0, "rental_uris": {"android": "https://dc.lft.to/lastmile_qr_scan", "ios": "https://dc.lft.to/lastmile_qr_scan"}, "fusion_lon": 0.0}, {"lat": 38.910009, "is_disabled": 0, "type": "electric_scooter", "lon": -77.04003033333333, "bike_id": "2c8bdf91f4eaae45a1d772a7b55786b2", "fusion_lat": 0.0, "name": "2c8bdf91f4eaae45a1d772a7b55786b2", "is_reserved": 0, "rental_uris": {"android": "https://dc.lft.to/lastmile_qr_scan", "ios": "https://dc.lft.to/lastmile_qr_scan"}, "fusion_lon": 0.0}, {"lat": 38.93683816666667, "is_disabled": 0, "type": "electric_scooter", "lon": -77.024172, "bike_id": "1e5155329f4c75bba5e74e90e1e89a7c", "fusion_lat": 0.0, "name": "1e5155329f4c75bba5e74e90e1e89a7c", "is_reserved": 0, "rental_uris": {"android": "https://dc.lft.to/lastmile_qr_scan", "ios": "https://dc.lft.to/lastmile_qr_scan"}, "fusion_lon": 0.0}, {"lat": 38.909505333333335, "is_disabled": 0, "type": "electric_scooter", "lon": -77.04663433333333, "bike_id": "ffc836940d489b8b76c770cd6ef4a23b", "fusion_lat": 0.0, "name": "ffc836940d489b8b76c770cd6ef4a23b", "is_reserved": 0, "rental_uris": {"android": "https://dc.lft.to/lastmile_qr_scan", "ios": "https://dc.lft.to/lastmile_qr_scan"}, "fusion_lon": 0.0}, {"lat": 38.90012383333333, "is_disabled": 0, "type": "electric_scooter", "lon": -77.03298883333333, "bike_id": "26a2890159f80f6d8c8f9ebc2a519590", "fusion_lat": 0.0, "name": "26a2890159f80f6d8c8f9ebc2a519590", "is_reserved": 0, "rental_uris": {"android": "https://dc.lft.to/lastmile_qr_scan", "ios": "https://dc.lft.to/lastmile_qr_scan"}, "fusion_lon": 0.0}, {"lat": 38.9038055, "is_disabled": 0, "type": "electric_scooter", "lon": -77.00878683333333, "bike_id": "9e123ba83c5b241ad4de2f3e5acd7961", "fusion_lat": 0.0, "name": "9e123ba83c5b241ad4de2f3e5acd7961", "is_reserved": 0, "rental_uris": {"android": "https://dc.lft.to/lastmile_qr_scan", "ios": "https://dc.lft.to/lastmile_qr_scan"}, "fusion_lon": 0.0}, {"lat": 38.94497716666667, "is_disabled": 0, "type": "electric_bike", "lon": -77.00679516666666, "bike_id": "5cf5cc17af95fe8a1f5c3bc8e24f4230", "fusion_lat": 0.0, "name": "5cf5cc17af95fe8a1f5c3bc8e24f4230", "is_reserved": 0, "rental_uris": {"android": "https://dc.lft.to/lastmile_qr_scan", "ios": "https://dc.lft.to/lastmile_qr_scan"}, "fusion_lon": 0.0}, {"lat": 38.90842516666667, "is_disabled": 0, "type": "electric_scooter", "lon": -77.0010585, "bike_id": "a277c5c31189d04b623872141c3fc00f", "fusion_lat": 0.0, "name": "a277c5c31189d04b623872141c3fc00f", "is_reserved": 0, "rental_uris": {"android": "https://dc.lft.to/lastmile_qr_scan", "ios": "https://dc.lft.to/lastmile_qr_scan"}, "fusion_lon": 0.0}, {"lat": 38.94134, "is_disabled": 0, "type": "electric_scooter", "lon": -77.07617966666666, "bike_id": "8067e35af0b9b698e8a6cc1d3438accb", "fusion_lat": 0.0, "name": "8067e35af0b9b698e8a6cc1d3438accb", "is_reserved": 0, "rental_uris": {"android": "https://dc.lft.to/lastmile_qr_scan", "ios": "https://dc.lft.to/lastmile_qr_scan"}, "fusion_lon": 0.0}, {"lat": 38.90378533333333, "is_disabled": 0, "type": "electric_scooter", "lon": -77.00882233333333, "bike_id": "8ba4d6e3e2e5a3908a28a3b34db896e5", "fusion_lat": 0.0, "name": "8ba4d6e3e2e5a3908a28a3b34db896e5", "is_reserved": 0, "rental_uris": {"android": "https://dc.lft.to/lastmile_qr_scan", "ios": "https://dc.lft.to/lastmile_qr_scan"}, "fusion_lon": 0.0}, {"lat": 38.886944166666666, "is_disabled": 0, "type": "electric_scooter", "lon": -76.993811, "bike_id": "0db7f03862af9551c369b762c1dc1c32", "fusion_lat": 0.0, "name": "0db7f03862af9551c369b762c1dc1c32", "is_reserved": 0, "rental_uris": {"android": "https://dc.lft.to/lastmile_qr_scan", "ios": "https://dc.lft.to/lastmile_qr_scan"}, "fusion_lon": 0.0}, {"lat": 38.9105535, "is_disabled": 0, "type": "electric_scooter", "lon": -77.00819366666667, "bike_id": "f3959a16db79566819ba528a23cfa74b", "fusion_lat": 0.0, "name": "f3959a16db79566819ba528a23cfa74b", "is_reserved": 0, "rental_uris": {"android": "https://dc.lft.to/lastmile_qr_scan", "ios": "https://dc.lft.to/lastmile_qr_scan"}, "fusion_lon": 0.0}, {"lat": 38.966231, "is_disabled": 0, "type": "electric_bike", "lon": -76.9766405, "bike_id": "a5ae60a7e288ce9c28c1dac6ad6184af", "fusion_lat": 0.0, "name": "a5ae60a7e288ce9c28c1dac6ad6184af", "is_reserved": 0, "rental_uris": {"android": "https://dc.lft.to/lastmile_qr_scan", "ios": "https://dc.lft.to/lastmile_qr_scan"}, "fusion_lon": 0.0}, {"lat": 38.871455, "is_disabled": 0, "type": "electric_bike", "lon": -76.93666216666666, "bike_id": "37980f4481d720c911cb091d4ae6c2b7", "fusion_lat": 0.0, "name": "37980f4481d720c911cb091d4ae6c2b7", "is_reserved": 0, "rental_uris": {"android": "https://dc.lft.to/lastmile_qr_scan", "ios": "https://dc.lft.to/lastmile_qr_scan"}, "fusion_lon": 0.0}, {"lat": 38.93414283333333, "is_disabled": 0, "type": "electric_scooter", "lon": -77.020382, "bike_id": "e326db4a4289e6ff30e152626747f77f", "fusion_lat": 0.0, "name": "e326db4a4289e6ff30e152626747f77f", "is_reserved": 0, "rental_uris": {"android": "https://dc.lft.to/lastmile_qr_scan", "ios": "https://dc.lft.to/lastmile_qr_scan"}, "fusion_lon": 0.0}, {"lat": 38.8948025, "is_disabled": 0, "type": "electric_scooter", "lon": -77.05622166666667, "bike_id": "97515f0757bd58a6ac3f5674db910b73", "fusion_lat": 0.0, "name": "97515f0757bd58a6ac3f5674db910b73", "is_reserved": 0, "rental_uris": {"android": "https://dc.lft.to/lastmile_qr_scan", "ios": "https://dc.lft.to/lastmile_qr_scan"}, "fusion_lon": 0.0}, {"lat": 38.93580266666667, "is_disabled": 0, "type": "electric_bike", "lon": -77.10682083333333, "bike_id": "a0dc9cf15a59384134b0cab5d0de1659", "fusion_lat": 0.0, "name": "a0dc9cf15a59384134b0cab5d0de1659", "is_reserved": 0, "rental_uris": {"android": "https://dc.lft.to/lastmile_qr_scan", "ios": "https://dc.lft.to/lastmile_qr_scan"}, "fusion_lon": 0.0}, {"lat": 38.919824166666665, "is_disabled": 0, "type": "electric_scooter", "lon": -77.04176633333333, "bike_id": "3a2c9f571dd039028c38571e077198ee", "fusion_lat": 0.0, "name": "3a2c9f571dd039028c38571e077198ee", "is_reserved": 0, "rental_uris": {"android": "https://dc.lft.to/lastmile_qr_scan", "ios": "https://dc.lft.to/lastmile_qr_scan"}, "fusion_lon": 0.0}, {"lat": 38.92991266666667, "is_disabled": 0, "type": "electric_scooter", "lon": -77.03241433333334, "bike_id": "d4175ad4aac2856676b80b017557ca22", "fusion_lat": 0.0, "name": "d4175ad4aac2856676b80b017557ca22", "is_reserved": 0, "rental_uris": {"android": "https://dc.lft.to/lastmile_qr_scan", "ios": "https://dc.lft.to/lastmile_qr_scan"}, "fusion_lon": 0.0}, {"lat": 38.8946495, "is_disabled": 0, "type": "electric_bike", "lon": -77.00948433333333, "bike_id": "60f5d3fa0c2361961626dcffb36877d9", "fusion_lat": 0.0, "name": "60f5d3fa0c2361961626dcffb36877d9", "is_reserved": 0, "rental_uris": {"android": "https://dc.lft.to/lastmile_qr_scan", "ios": "https://dc.lft.to/lastmile_qr_scan"}, "fusion_lon": 0.0}, {"lat": 38.90292266666667, "is_disabled": 0, "type": "electric_scooter", "lon": -77.04683816666666, "bike_id": "d27f06d6aa87322c8bd09463ff937f91", "fusion_lat": 0.0, "name": "d27f06d6aa87322c8bd09463ff937f91", "is_reserved": 0, "rental_uris": {"android": "https://dc.lft.to/lastmile_qr_scan", "ios": "https://dc.lft.to/lastmile_qr_scan"}, "fusion_lon": 0.0}, {"lat": 38.941747166666666, "is_disabled": 0, "type": "electric_scooter", "lon": -77.03279183333333, "bike_id": "6f5f2ba523c8cec5566ca68e6924f2cb", "fusion_lat": 0.0, "name": "6f5f2ba523c8cec5566ca68e6924f2cb", "is_reserved": 0, "rental_uris": {"android": "https://dc.lft.to/lastmile_qr_scan", "ios": "https://dc.lft.to/lastmile_qr_scan"}, "fusion_lon": 0.0}, {"lat": 38.941568333333336, "is_disabled": 0, "type": "electric_scooter", "lon": -77.03285466666667, "bike_id": "3314cde42065c44cb40df8d6ae235626", "fusion_lat": 0.0, "name": "3314cde42065c44cb40df8d6ae235626", "is_reserved": 0, "rental_uris": {"android": "https://dc.lft.to/lastmile_qr_scan", "ios": "https://dc.lft.to/lastmile_qr_scan"}, "fusion_lon": 0.0}, {"lat": 38.873387666666666, "is_disabled": 0, "type": "electric_scooter", "lon": -76.991621, "bike_id": "c93e7d9a85002e920c7df48027d086ec", "fusion_lat": 0.0, "name": "c93e7d9a85002e920c7df48027d086ec", "is_reserved": 0, "rental_uris": {"android": "https://dc.lft.to/lastmile_qr_scan", "ios": "https://dc.lft.to/lastmile_qr_scan"}, "fusion_lon": 0.0}, {"lat": 38.905903333333335, "is_disabled": 0, "type": "electric_scooter", "lon": -77.021944, "bike_id": "a8332b9f110744d82d33f0b7395c604d", "fusion_lat": 0.0, "name": "a8332b9f110744d82d33f0b7395c604d", "is_reserved": 0, "rental_uris": {"android": "https://dc.lft.to/lastmile_qr_scan", "ios": "https://dc.lft.to/lastmile_qr_scan"}, "fusion_lon": 0.0}, {"lat": 38.950816, "is_disabled": 0, "type": "electric_scooter", "lon": -77.06648583333333, "bike_id": "71fd83b270fc8935f2a34364c803e3e4", "fusion_lat": 0.0, "name": "71fd83b270fc8935f2a34364c803e3e4", "is_reserved": 0, "rental_uris": {"android": "https://dc.lft.to/lastmile_qr_scan", "ios": "https://dc.lft.to/lastmile_qr_scan"}, "fusion_lon": 0.0}, {"lat": 38.87630433333333, "is_disabled": 0, "type": "electric_scooter", "lon": -76.96525066666666, "bike_id": "61a4e183ad0dd25f280b48229edca8d8", "fusion_lat": 0.0, "name": "61a4e183ad0dd25f280b48229edca8d8", "is_reserved": 0, "rental_uris": {"android": "https://dc.lft.to/lastmile_qr_scan", "ios": "https://dc.lft.to/lastmile_qr_scan"}, "fusion_lon": 0.0}, {"lat": 38.84292633333333, "is_disabled": 0, "type": "electric_scooter", "lon": -76.99947083333333, "bike_id": "4f913c878cc87673f320f807688bffaf", "fusion_lat": 0.0, "name": "4f913c878cc87673f320f807688bffaf", "is_reserved": 0, "rental_uris": {"android": "https://dc.lft.to/lastmile_qr_scan", "ios": "https://dc.lft.to/lastmile_qr_scan"}, "fusion_lon": 0.0}, {"lat": 38.8949525, "is_disabled": 0, "type": "electric_scooter", "lon": -77.0238205, "bike_id": "108703b4b66a9f8b91841e3624751fc7", "fusion_lat": 0.0, "name": "108703b4b66a9f8b91841e3624751fc7", "is_reserved": 0, "rental_uris": {"android": "https://dc.lft.to/lastmile_qr_scan", "ios": "https://dc.lft.to/lastmile_qr_scan"}, "fusion_lon": 0.0}, {"lat": 38.900345, "is_disabled": 0, "type": "electric_scooter", "lon": -77.04409983333333, "bike_id": "892025d5e75162ecdbf0e2fc46ef7ee3", "fusion_lat": 0.0, "name": "892025d5e75162ecdbf0e2fc46ef7ee3", "is_reserved": 0, "rental_uris": {"android": "https://dc.lft.to/lastmile_qr_scan", "ios": "https://dc.lft.to/lastmile_qr_scan"}, "fusion_lon": 0.0}, {"lat": 38.902816, "is_disabled": 0, "type": "electric_scooter", "lon": -77.0344265, "bike_id": "b2502556258878741e947486d8fdf68c", "fusion_lat": 0.0, "name": "b2502556258878741e947486d8fdf68c", "is_reserved": 0, "rental_uris": {"android": "https://dc.lft.to/lastmile_qr_scan", "ios": "https://dc.lft.to/lastmile_qr_scan"}, "fusion_lon": 0.0}, {"lat": 38.9001735, "is_disabled": 0, "type": "electric_scooter", "lon": -76.98808433333333, "bike_id": "9dc2369029232a4591683ed16b4b9891", "fusion_lat": 0.0, "name": "9dc2369029232a4591683ed16b4b9891", "is_reserved": 0, "rental_uris": {"android": "https://dc.lft.to/lastmile_qr_scan", "ios": "https://dc.lft.to/lastmile_qr_scan"}, "fusion_lon": 0.0}, {"lat": 38.907320666666664, "is_disabled": 0, "type": "electric_scooter", "lon": -77.0478135, "bike_id": "fc91169cd9ddd943601e30db6efd0982", "fusion_lat": 0.0, "name": "fc91169cd9ddd943601e30db6efd0982", "is_reserved": 0, "rental_uris": {"android": "https://dc.lft.to/lastmile_qr_scan", "ios": "https://dc.lft.to/lastmile_qr_scan"}, "fusion_lon": 0.0}, {"lat": 38.9197345, "is_disabled": 0, "type": "electric_scooter", "lon": -77.02381233333334, "bike_id": "8a55873ebd4a3100cbaeece6616b9822", "fusion_lat": 0.0, "name": "8a55873ebd4a3100cbaeece6616b9822", "is_reserved": 0, "rental_uris": {"android": "https://dc.lft.to/lastmile_qr_scan", "ios": "https://dc.lft.to/lastmile_qr_scan"}, "fusion_lon": 0.0}, {"lat": 38.901538333333335, "is_disabled": 0, "type": "electric_scooter", "lon": -77.0256295, "bike_id": "ce366ab7131a815a08056e5f4f718ed9", "fusion_lat": 0.0, "name": "ce366ab7131a815a08056e5f4f718ed9", "is_reserved": 0, "rental_uris": {"android": "https://dc.lft.to/lastmile_qr_scan", "ios": "https://dc.lft.to/lastmile_qr_scan"}, "fusion_lon": 0.0}, {"lat": 38.8105115, "is_disabled": 0, "type": "electric_bike", "lon": -77.08510633333333, "bike_id": "117425e3fd845cd2e918ce829a4854c8", "fusion_lat": 0.0, "name": "117425e3fd845cd2e918ce829a4854c8", "is_reserved": 0, "rental_uris": {"android": "https://dc.lft.to/lastmile_qr_scan", "ios": "https://dc.lft.to/lastmile_qr_scan"}, "fusion_lon": 0.0}, {"lat": 38.91558466666667, "is_disabled": 0, "type": "electric_scooter", "lon": -77.00973716666667, "bike_id": "5df6f4217fc782990f4de20ec79103c5", "fusion_lat": 0.0, "name": "5df6f4217fc782990f4de20ec79103c5", "is_reserved": 0, "rental_uris": {"android": "https://dc.lft.to/lastmile_qr_scan", "ios": "https://dc.lft.to/lastmile_qr_scan"}, "fusion_lon": 0.0}, {"lat": 38.8543455, "is_disabled": 0, "type": "electric_bike", "lon": -76.90973383333333, "bike_id": "2c13ea0e044194836dd736b827d294bc", "fusion_lat": 0.0, "name": "2c13ea0e044194836dd736b827d294bc", "is_reserved": 0, "rental_uris": {"android": "https://dc.lft.to/lastmile_qr_scan", "ios": "https://dc.lft.to/lastmile_qr_scan"}, "fusion_lon": 0.0}, {"lat": 38.94595533333333, "is_disabled": 0, "type": "electric_scooter", "lon": -77.07033266666667, "bike_id": "b4540ab4cc07bbf14cc8f33b05a48f26", "fusion_lat": 0.0, "name": "b4540ab4cc07bbf14cc8f33b05a48f26", "is_reserved": 0, "rental_uris": {"android": "https://dc.lft.to/lastmile_qr_scan", "ios": "https://dc.lft.to/lastmile_qr_scan"}, "fusion_lon": 0.0}, {"lat": 38.90777116666667, "is_disabled": 0, "type": "electric_scooter", "lon": -77.03855166666666, "bike_id": "a76aaf0104a0a36717a8f31e7827646a", "fusion_lat": 0.0, "name": "a76aaf0104a0a36717a8f31e7827646a", "is_reserved": 0, "rental_uris": {"android": "https://dc.lft.to/lastmile_qr_scan", "ios": "https://dc.lft.to/lastmile_qr_scan"}, "fusion_lon": 0.0}, {"lat": 38.9238915, "is_disabled": 0, "type": "electric_scooter", "lon": -77.02760066666667, "bike_id": "f57aa08bc3c9ae3a91bdaa51cc4452d9", "fusion_lat": 0.0, "name": "f57aa08bc3c9ae3a91bdaa51cc4452d9", "is_reserved": 0, "rental_uris": {"android": "https://dc.lft.to/lastmile_qr_scan", "ios": "https://dc.lft.to/lastmile_qr_scan"}, "fusion_lon": 0.0}, {"lat": 38.91568266666667, "is_disabled": 0, "type": "electric_scooter", "lon": -77.01168133333333, "bike_id": "4184501e4078a22c04d86cb3cb22ebb3", "fusion_lat": 0.0, "name": "4184501e4078a22c04d86cb3cb22ebb3", "is_reserved": 0, "rental_uris": {"android": "https://dc.lft.to/lastmile_qr_scan", "ios": "https://dc.lft.to/lastmile_qr_scan"}, "fusion_lon": 0.0}, {"lat": 38.904918, "is_disabled": 0, "type": "electric_scooter", "lon": -76.995414, "bike_id": "83d5ce3c2feaca97906600b5a110f540", "fusion_lat": 0.0, "name": "83d5ce3c2feaca97906600b5a110f540", "is_reserved": 0, "rental_uris": {"android": "https://dc.lft.to/lastmile_qr_scan", "ios": "https://dc.lft.to/lastmile_qr_scan"}, "fusion_lon": 0.0}, {"lat": 38.921095, "is_disabled": 0, "type": "electric_scooter", "lon": -77.04200383333334, "bike_id": "758f8c79115b6f0289f6378bc1648aa2", "fusion_lat": 0.0, "name": "758f8c79115b6f0289f6378bc1648aa2", "is_reserved": 0, "rental_uris": {"android": "https://dc.lft.to/lastmile_qr_scan", "ios": "https://dc.lft.to/lastmile_qr_scan"}, "fusion_lon": 0.0}, {"lat": 38.893654833333336, "is_disabled": 0, "type": "electric_scooter", "lon": -76.991101, "bike_id": "1c199fffd27c402eb5acd01bf876311d", "fusion_lat": 0.0, "name": "1c199fffd27c402eb5acd01bf876311d", "is_reserved": 0, "rental_uris": {"android": "https://dc.lft.to/lastmile_qr_scan", "ios": "https://dc.lft.to/lastmile_qr_scan"}, "fusion_lon": 0.0}, {"lat": 38.844321666666666, "is_disabled": 0, "type": "electric_scooter", "lon": -76.9981275, "bike_id": "4f142c97a30e2f113dc393558d51d0fb", "fusion_lat": 0.0, "name": "4f142c97a30e2f113dc393558d51d0fb", "is_reserved": 0, "rental_uris": {"android": "https://dc.lft.to/lastmile_qr_scan", "ios": "https://dc.lft.to/lastmile_qr_scan"}, "fusion_lon": 0.0}, {"lat": 38.930838, "is_disabled": 0, "type": "electric_scooter", "lon": -77.02793783333334, "bike_id": "7841f2ba31a8a680b559285c99ea0c8f", "fusion_lat": 0.0, "name": "7841f2ba31a8a680b559285c99ea0c8f", "is_reserved": 0, "rental_uris": {"android": "https://dc.lft.to/lastmile_qr_scan", "ios": "https://dc.lft.to/lastmile_qr_scan"}, "fusion_lon": 0.0}, {"lat": 38.8978985, "is_disabled": 0, "type": "electric_scooter", "lon": -77.01840416666667, "bike_id": "ee95d864a246732440dbc7d2acf812fc", "fusion_lat": 0.0, "name": "ee95d864a246732440dbc7d2acf812fc", "is_reserved": 0, "rental_uris": {"android": "https://dc.lft.to/lastmile_qr_scan", "ios": "https://dc.lft.to/lastmile_qr_scan"}, "fusion_lon": 0.0}, {"lat": 39.02430666666667, "is_disabled": 0, "type": "electric_bike", "lon": -77.13097116666667, "bike_id": "2f00745e3f0db59a273c9d1a917f03ec", "fusion_lat": 0.0, "name": "2f00745e3f0db59a273c9d1a917f03ec", "is_reserved": 0, "rental_uris": {"android": "https://dc.lft.to/lastmile_qr_scan", "ios": "https://dc.lft.to/lastmile_qr_scan"}, "fusion_lon": 0.0}, {"lat": 38.9981745, "is_disabled": 0, "type": "electric_bike", "lon": -76.88375183333333, "bike_id": "cfc36bc97f3a7dff773cfb586adb3488", "fusion_lat": 0.0, "name": "cfc36bc97f3a7dff773cfb586adb3488", "is_reserved": 0, "rental_uris": {"android": "https://dc.lft.to/lastmile_qr_scan", "ios": "https://dc.lft.to/lastmile_qr_scan"}, "fusion_lon": 0.0}, {"lat": 38.951583666666664, "is_disabled": 0, "type": "electric_scooter", "lon": -77.0677015, "bike_id": "b0181051be83c9bb7328c6be844d261f", "fusion_lat": 0.0, "name": "b0181051be83c9bb7328c6be844d261f", "is_reserved": 0, "rental_uris": {"android": "https://dc.lft.to/lastmile_qr_scan", "ios": "https://dc.lft.to/lastmile_qr_scan"}, "fusion_lon": 0.0}, {"lat": 38.9170825, "is_disabled": 0, "type": "electric_scooter", "lon": -77.038674, "bike_id": "2e51944858f6c81f7f63e8720a3c35be", "fusion_lat": 0.0, "name": "2e51944858f6c81f7f63e8720a3c35be", "is_reserved": 0, "rental_uris": {"android": "https://dc.lft.to/lastmile_qr_scan", "ios": "https://dc.lft.to/lastmile_qr_scan"}, "fusion_lon": 0.0}, {"lat": 38.89589616666667, "is_disabled": 0, "type": "electric_scooter", "lon": -77.02283383333334, "bike_id": "54ec83a5830b728ad26b866b73181ccf", "fusion_lat": 0.0, "name": "54ec83a5830b728ad26b866b73181ccf", "is_reserved": 0, "rental_uris": {"android": "https://dc.lft.to/lastmile_qr_scan", "ios": "https://dc.lft.to/lastmile_qr_scan"}, "fusion_lon": 0.0}, {"lat": 39.030417, "is_disabled": 0, "type": "electric_bike", "lon": -77.094832, "bike_id": "0767eb0514155b6e3240ba7fd65da6fc", "fusion_lat": 0.0, "name": "0767eb0514155b6e3240ba7fd65da6fc", "is_reserved": 0, "rental_uris": {"android": "https://dc.lft.to/lastmile_qr_scan", "ios": "https://dc.lft.to/lastmile_qr_scan"}, "fusion_lon": 0.0}, {"lat": 38.920619333333335, "is_disabled": 0, "type": "electric_scooter", "lon": -77.0235115, "bike_id": "2d988ac2702537c588adb34f41c6369c", "fusion_lat": 0.0, "name": "2d988ac2702537c588adb34f41c6369c", "is_reserved": 0, "rental_uris": {"android": "https://dc.lft.to/lastmile_qr_scan", "ios": "https://dc.lft.to/lastmile_qr_scan"}, "fusion_lon": 0.0}, {"lat": 38.90149916666667, "is_disabled": 0, "type": "electric_scooter", "lon": -77.0287325, "bike_id": "4fefea80e39ef5154817e3cfa1e48d29", "fusion_lat": 0.0, "name": "4fefea80e39ef5154817e3cfa1e48d29", "is_reserved": 0, "rental_uris": {"android": "https://dc.lft.to/lastmile_qr_scan", "ios": "https://dc.lft.to/lastmile_qr_scan"}, "fusion_lon": 0.0}, {"lat": 38.915955833333335, "is_disabled": 0, "type": "electric_scooter", "lon": -77.04026666666667, "bike_id": "021b8850aff4f33fa4139e6daee016f8", "fusion_lat": 0.0, "name": "021b8850aff4f33fa4139e6daee016f8", "is_reserved": 0, "rental_uris": {"android": "https://dc.lft.to/lastmile_qr_scan", "ios": "https://dc.lft.to/lastmile_qr_scan"}, "fusion_lon": 0.0}, {"lat": 38.87402083333333, "is_disabled": 0, "type": "electric_bike", "lon": -77.0004815, "bike_id": "099bf9d5d27cb87732b764cac3a323dd", "fusion_lat": 0.0, "name": "099bf9d5d27cb87732b764cac3a323dd", "is_reserved": 0, "rental_uris": {"android": "https://dc.lft.to/lastmile_qr_scan", "ios": "https://dc.lft.to/lastmile_qr_scan"}, "fusion_lon": 0.0}, {"lat": 38.918626, "is_disabled": 0, "type": "electric_scooter", "lon": -77.04603733333333, "bike_id": "5b0e326ce08e1f49c474641518d9772e", "fusion_lat": 0.0, "name": "5b0e326ce08e1f49c474641518d9772e", "is_reserved": 0, "rental_uris": {"android": "https://dc.lft.to/lastmile_qr_scan", "ios": "https://dc.lft.to/lastmile_qr_scan"}, "fusion_lon": 0.0}, {"lat": 38.9132775, "is_disabled": 0, "type": "electric_scooter", "lon": -77.03261983333333, "bike_id": "4035b300f7dec18d25ccc6937833359f", "fusion_lat": 0.0, "name": "4035b300f7dec18d25ccc6937833359f", "is_reserved": 0, "rental_uris": {"android": "https://dc.lft.to/lastmile_qr_scan", "ios": "https://dc.lft.to/lastmile_qr_scan"}, "fusion_lon": 0.0}, {"lat": 38.920646833333336, "is_disabled": 0, "type": "electric_scooter", "lon": -77.0434015, "bike_id": "a4440bcb1506d0e730ba09b66ac74131", "fusion_lat": 0.0, "name": "a4440bcb1506d0e730ba09b66ac74131", "is_reserved": 0, "rental_uris": {"android": "https://dc.lft.to/lastmile_qr_scan", "ios": "https://dc.lft.to/lastmile_qr_scan"}, "fusion_lon": 0.0}, {"lat": 38.961559333333334, "is_disabled": 0, "type": "electric_scooter", "lon": -77.027862, "bike_id": "fae855b4cf7330b256eca0235912b765", "fusion_lat": 0.0, "name": "fae855b4cf7330b256eca0235912b765", "is_reserved": 0, "rental_uris": {"android": "https://dc.lft.to/lastmile_qr_scan", "ios": "https://dc.lft.to/lastmile_qr_scan"}, "fusion_lon": 0.0}, {"lat": 38.911204, "is_disabled": 0, "type": "electric_scooter", "lon": -77.04456683333333, "bike_id": "2b8d9ac9531193bcec9361e74edabe34", "fusion_lat": 0.0, "name": "2b8d9ac9531193bcec9361e74edabe34", "is_reserved": 0, "rental_uris": {"android": "https://dc.lft.to/lastmile_qr_scan", "ios": "https://dc.lft.to/lastmile_qr_scan"}, "fusion_lon": 0.0}, {"lat": 38.91489383333333, "is_disabled": 0, "type": "electric_scooter", "lon": -77.0326705, "bike_id": "d7e66aa5f306e9a98c199aea7b32c57f", "fusion_lat": 0.0, "name": "d7e66aa5f306e9a98c199aea7b32c57f", "is_reserved": 0, "rental_uris": {"android": "https://dc.lft.to/lastmile_qr_scan", "ios": "https://dc.lft.to/lastmile_qr_scan"}, "fusion_lon": 0.0}, {"lat": 38.927427, "is_disabled": 0, "type": "electric_scooter", "lon": -77.02263083333334, "bike_id": "31fc981bd5e06654225292dd8ffcb4ad", "fusion_lat": 0.0, "name": "31fc981bd5e06654225292dd8ffcb4ad", "is_reserved": 0, "rental_uris": {"android": "https://dc.lft.to/lastmile_qr_scan", "ios": "https://dc.lft.to/lastmile_qr_scan"}, "fusion_lon": 0.0}, {"lat": 38.898869833333336, "is_disabled": 0, "type": "electric_scooter", "lon": -77.0238175, "bike_id": "f65df896a9e3e31a18816e11f9c029ac", "fusion_lat": 0.0, "name": "f65df896a9e3e31a18816e11f9c029ac", "is_reserved": 0, "rental_uris": {"android": "https://dc.lft.to/lastmile_qr_scan", "ios": "https://dc.lft.to/lastmile_qr_scan"}, "fusion_lon": 0.0}, {"lat": 38.917102166666666, "is_disabled": 0, "type": "electric_scooter", "lon": -77.03233666666667, "bike_id": "cff38b0abbecb5ddeb69c75cf692e0ec", "fusion_lat": 0.0, "name": "cff38b0abbecb5ddeb69c75cf692e0ec", "is_reserved": 0, "rental_uris": {"android": "https://dc.lft.to/lastmile_qr_scan", "ios": "https://dc.lft.to/lastmile_qr_scan"}, "fusion_lon": 0.0}, {"lat": 38.90364066666667, "is_disabled": 0, "type": "electric_scooter", "lon": -77.0602505, "bike_id": "54a54436c38a979e1f32695966ccc495", "fusion_lat": 0.0, "name": "54a54436c38a979e1f32695966ccc495", "is_reserved": 0, "rental_uris": {"android": "https://dc.lft.to/lastmile_qr_scan", "ios": "https://dc.lft.to/lastmile_qr_scan"}, "fusion_lon": 0.0}, {"lat": 38.87991866666667, "is_disabled": 0, "type": "electric_scooter", "lon": -77.02258316666666, "bike_id": "2fcf709d2cf3582886d53f4642345b71", "fusion_lat": 0.0, "name": "2fcf709d2cf3582886d53f4642345b71", "is_reserved": 0, "rental_uris": {"android": "https://dc.lft.to/lastmile_qr_scan", "ios": "https://dc.lft.to/lastmile_qr_scan"}, "fusion_lon": 0.0}, {"lat": 38.95954483333333, "is_disabled": 0, "type": "electric_bike", "lon": -77.10089466666666, "bike_id": "99288b2b6accc010e47b7a7040d21d2c", "fusion_lat": 0.0, "name": "99288b2b6accc010e47b7a7040d21d2c", "is_reserved": 0, "rental_uris": {"android": "https://dc.lft.to/lastmile_qr_scan", "ios": "https://dc.lft.to/lastmile_qr_scan"}, "fusion_lon": 0.0}, {"lat": 38.896881666666665, "is_disabled": 0, "type": "electric_scooter", "lon": -76.935335, "bike_id": "b1c91b04c46bfb1769855973b4ef36ef", "fusion_lat": 0.0, "name": "b1c91b04c46bfb1769855973b4ef36ef", "is_reserved": 0, "rental_uris": {"android": "https://dc.lft.to/lastmile_qr_scan", "ios": "https://dc.lft.to/lastmile_qr_scan"}, "fusion_lon": 0.0}, {"lat": 38.917123833333335, "is_disabled": 0, "type": "electric_scooter", "lon": -77.0386795, "bike_id": "56051b202415c4d515702cd7d05b2feb", "fusion_lat": 0.0, "name": "56051b202415c4d515702cd7d05b2feb", "is_reserved": 0, "rental_uris": {"android": "https://dc.lft.to/lastmile_qr_scan", "ios": "https://dc.lft.to/lastmile_qr_scan"}, "fusion_lon": 0.0}, {"lat": 38.91555, "is_disabled": 0, "type": "electric_scooter", "lon": -77.024271, "bike_id": "2c05a8be913d4936a31667e767c30fe3", "fusion_lat": 0.0, "name": "2c05a8be913d4936a31667e767c30fe3", "is_reserved": 0, "rental_uris": {"android": "https://dc.lft.to/lastmile_qr_scan", "ios": "https://dc.lft.to/lastmile_qr_scan"}, "fusion_lon": 0.0}, {"lat": 38.9587895, "is_disabled": 0, "type": "electric_scooter", "lon": -77.02731616666667, "bike_id": "9be8439642e39b87f49507c16fe5cc0d", "fusion_lat": 0.0, "name": "9be8439642e39b87f49507c16fe5cc0d", "is_reserved": 0, "rental_uris": {"android": "https://dc.lft.to/lastmile_qr_scan", "ios": "https://dc.lft.to/lastmile_qr_scan"}, "fusion_lon": 0.0}, {"lat": 38.89918266666667, "is_disabled": 0, "type": "electric_scooter", "lon": -76.93382283333334, "bike_id": "db6ff88a9f568faeb853a602b1d94c57", "fusion_lat": 0.0, "name": "db6ff88a9f568faeb853a602b1d94c57", "is_reserved": 0, "rental_uris": {"android": "https://dc.lft.to/lastmile_qr_scan", "ios": "https://dc.lft.to/lastmile_qr_scan"}, "fusion_lon": 0.0}, {"lat": 38.876479333333336, "is_disabled": 0, "type": "electric_scooter", "lon": -77.00588483333334, "bike_id": "394576541abaf1a8c23bd5c2c674bede", "fusion_lat": 0.0, "name": "394576541abaf1a8c23bd5c2c674bede", "is_reserved": 0, "rental_uris": {"android": "https://dc.lft.to/lastmile_qr_scan", "ios": "https://dc.lft.to/lastmile_qr_scan"}, "fusion_lon": 0.0}, {"lat": 38.912683333333334, "is_disabled": 0, "type": "electric_scooter", "lon": -77.01308566666667, "bike_id": "44aaf4426b303b88d1119696f19250ce", "fusion_lat": 0.0, "name": "44aaf4426b303b88d1119696f19250ce", "is_reserved": 0, "rental_uris": {"android": "https://dc.lft.to/lastmile_qr_scan", "ios": "https://dc.lft.to/lastmile_qr_scan"}, "fusion_lon": 0.0}, {"lat": 38.8634915, "is_disabled": 0, "type": "electric_scooter", "lon": -76.98997083333333, "bike_id": "4aced2039509c5da9b355102ede00c81", "fusion_lat": 0.0, "name": "4aced2039509c5da9b355102ede00c81", "is_reserved": 0, "rental_uris": {"android": "https://dc.lft.to/lastmile_qr_scan", "ios": "https://dc.lft.to/lastmile_qr_scan"}, "fusion_lon": 0.0}, {"lat": 38.92683533333334, "is_disabled": 0, "type": "electric_scooter", "lon": -77.050953, "bike_id": "e7672bbfb7306eec465802796e48a04d", "fusion_lat": 0.0, "name": "e7672bbfb7306eec465802796e48a04d", "is_reserved": 0, "rental_uris": {"android": "https://dc.lft.to/lastmile_qr_scan", "ios": "https://dc.lft.to/lastmile_qr_scan"}, "fusion_lon": 0.0}, {"lat": 38.955612333333335, "is_disabled": 0, "type": "electric_bike", "lon": -76.93539983333334, "bike_id": "aeaf5ddd1b19e1e8ee0c79302b614ac8", "fusion_lat": 0.0, "name": "aeaf5ddd1b19e1e8ee0c79302b614ac8", "is_reserved": 0, "rental_uris": {"android": "https://dc.lft.to/lastmile_qr_scan", "ios": "https://dc.lft.to/lastmile_qr_scan"}, "fusion_lon": 0.0}, {"lat": 38.842917666666665, "is_disabled": 0, "type": "electric_scooter", "lon": -76.999474, "bike_id": "ad5f1e5afcee2f4b2bdb1029ee402454", "fusion_lat": 0.0, "name": "ad5f1e5afcee2f4b2bdb1029ee402454", "is_reserved": 0, "rental_uris": {"android": "https://dc.lft.to/lastmile_qr_scan", "ios": "https://dc.lft.to/lastmile_qr_scan"}, "fusion_lon": 0.0}, {"lat": 38.90964566666667, "is_disabled": 0, "type": "electric_scooter", "lon": -77.04773116666667, "bike_id": "3771084efbc0884d2345b766c5343ff4", "fusion_lat": 0.0, "name": "3771084efbc0884d2345b766c5343ff4", "is_reserved": 0, "rental_uris": {"android": "https://dc.lft.to/lastmile_qr_scan", "ios": "https://dc.lft.to/lastmile_qr_scan"}, "fusion_lon": 0.0}, {"lat": 38.9244645, "is_disabled": 0, "type": "electric_scooter", "lon": -77.02029866666666, "bike_id": "480a69b7d265ca572c22e5b15cec3e7a", "fusion_lat": 0.0, "name": "480a69b7d265ca572c22e5b15cec3e7a", "is_reserved": 0, "rental_uris": {"android": "https://dc.lft.to/lastmile_qr_scan", "ios": "https://dc.lft.to/lastmile_qr_scan"}, "fusion_lon": 0.0}, {"lat": 38.9430805, "is_disabled": 0, "type": "electric_scooter", "lon": -77.05928716666666, "bike_id": "865f83e665acddd328d66df433866bbc", "fusion_lat": 0.0, "name": "865f83e665acddd328d66df433866bbc", "is_reserved": 0, "rental_uris": {"android": "https://dc.lft.to/lastmile_qr_scan", "ios": "https://dc.lft.to/lastmile_qr_scan"}, "fusion_lon": 0.0}, {"lat": 38.901379, "is_disabled": 0, "type": "electric_scooter", "lon": -77.04432983333334, "bike_id": "554a2f81abd893c964a517ed8f285f63", "fusion_lat": 0.0, "name": "554a2f81abd893c964a517ed8f285f63", "is_reserved": 0, "rental_uris": {"android": "https://dc.lft.to/lastmile_qr_scan", "ios": "https://dc.lft.to/lastmile_qr_scan"}, "fusion_lon": 0.0}, {"lat": 38.92786683333333, "is_disabled": 0, "type": "electric_bike", "lon": -76.97219266666667, "bike_id": "c55941bf8fbda26ff9ec4899c70d5f36", "fusion_lat": 0.0, "name": "c55941bf8fbda26ff9ec4899c70d5f36", "is_reserved": 0, "rental_uris": {"android": "https://dc.lft.to/lastmile_qr_scan", "ios": "https://dc.lft.to/lastmile_qr_scan"}, "fusion_lon": 0.0}, {"lat": 38.978415166666665, "is_disabled": 0, "type": "electric_bike", "lon": -77.02641283333334, "bike_id": "de52f53dd26635bd18382b79ba2122d5", "fusion_lat": 0.0, "name": "de52f53dd26635bd18382b79ba2122d5", "is_reserved": 0, "rental_uris": {"android": "https://dc.lft.to/lastmile_qr_scan", "ios": "https://dc.lft.to/lastmile_qr_scan"}, "fusion_lon": 0.0}, {"lat": 38.899795166666664, "is_disabled": 0, "type": "electric_scooter", "lon": -77.0216785, "bike_id": "17afd768c96e93d7543fe325507b5faa", "fusion_lat": 0.0, "name": "17afd768c96e93d7543fe325507b5faa", "is_reserved": 0, "rental_uris": {"android": "https://dc.lft.to/lastmile_qr_scan", "ios": "https://dc.lft.to/lastmile_qr_scan"}, "fusion_lon": 0.0}, {"lat": 38.92365266666667, "is_disabled": 0, "type": "electric_scooter", "lon": -77.04032016666666, "bike_id": "c0a021b8bd111ade24de9f0d719e408b", "fusion_lat": 0.0, "name": "c0a021b8bd111ade24de9f0d719e408b", "is_reserved": 0, "rental_uris": {"android": "https://dc.lft.to/lastmile_qr_scan", "ios": "https://dc.lft.to/lastmile_qr_scan"}, "fusion_lon": 0.0}, {"lat": 38.855101166666664, "is_disabled": 0, "type": "electric_bike", "lon": -77.12043783333333, "bike_id": "4902e793838665ecdf5509e0f64f9087", "fusion_lat": 0.0, "name": "4902e793838665ecdf5509e0f64f9087", "is_reserved": 0, "rental_uris": {"android": "https://dc.lft.to/lastmile_qr_scan", "ios": "https://dc.lft.to/lastmile_qr_scan"}, "fusion_lon": 0.0}, {"lat": 38.860938833333336, "is_disabled": 0, "type": "electric_scooter", "lon": -76.98373516666666, "bike_id": "6d2d3e9f1833e9f6778836ee040f6c8d", "fusion_lat": 0.0, "name": "6d2d3e9f1833e9f6778836ee040f6c8d", "is_reserved": 0, "rental_uris": {"android": "https://dc.lft.to/lastmile_qr_scan", "ios": "https://dc.lft.to/lastmile_qr_scan"}, "fusion_lon": 0.0}, {"lat": 38.9126025, "is_disabled": 0, "type": "electric_scooter", "lon": -77.03238716666667, "bike_id": "43843c0be42f9bc2da2b4936dfce1e96", "fusion_lat": 0.0, "name": "43843c0be42f9bc2da2b4936dfce1e96", "is_reserved": 0, "rental_uris": {"android": "https://dc.lft.to/lastmile_qr_scan", "ios": "https://dc.lft.to/lastmile_qr_scan"}, "fusion_lon": 0.0}, {"lat": 38.86382783333333, "is_disabled": 0, "type": "electric_scooter", "lon": -76.99252716666666, "bike_id": "16c07856a8ac82f6a459beae38635b10", "fusion_lat": 0.0, "name": "16c07856a8ac82f6a459beae38635b10", "is_reserved": 0, "rental_uris": {"android": "https://dc.lft.to/lastmile_qr_scan", "ios": "https://dc.lft.to/lastmile_qr_scan"}, "fusion_lon": 0.0}, {"lat": 38.86622033333333, "is_disabled": 0, "type": "electric_scooter", "lon": -76.98664583333333, "bike_id": "8c1ff6f0d99268e03e005b5bc055b30e", "fusion_lat": 0.0, "name": "8c1ff6f0d99268e03e005b5bc055b30e", "is_reserved": 0, "rental_uris": {"android": "https://dc.lft.to/lastmile_qr_scan", "ios": "https://dc.lft.to/lastmile_qr_scan"}, "fusion_lon": 0.0}, {"lat": 38.902809500000004, "is_disabled": 0, "type": "electric_scooter", "lon": -77.04701716666666, "bike_id": "e8723b04a9a100af57df90e0f40ed6bc", "fusion_lat": 0.0, "name": "e8723b04a9a100af57df90e0f40ed6bc", "is_reserved": 0, "rental_uris": {"android": "https://dc.lft.to/lastmile_qr_scan", "ios": "https://dc.lft.to/lastmile_qr_scan"}, "fusion_lon": 0.0}, {"lat": 38.8005485, "is_disabled": 0, "type": "electric_bike", "lon": -77.07117816666667, "bike_id": "d138db2f54c939830fd3a269da564e6b", "fusion_lat": 0.0, "name": "d138db2f54c939830fd3a269da564e6b", "is_reserved": 0, "rental_uris": {"android": "https://dc.lft.to/lastmile_qr_scan", "ios": "https://dc.lft.to/lastmile_qr_scan"}, "fusion_lon": 0.0}, {"lat": 38.884913166666664, "is_disabled": 0, "type": "electric_scooter", "lon": -77.00712766666666, "bike_id": "79127e98b8f91417c643fd50ce3921df", "fusion_lat": 0.0, "name": "79127e98b8f91417c643fd50ce3921df", "is_reserved": 0, "rental_uris": {"android": "https://dc.lft.to/lastmile_qr_scan", "ios": "https://dc.lft.to/lastmile_qr_scan"}, "fusion_lon": 0.0}, {"lat": 38.8868765, "is_disabled": 0, "type": "electric_scooter", "lon": -77.01297783333334, "bike_id": "c66849e20f026083f47b4d5d3d8bd2a2", "fusion_lat": 0.0, "name": "c66849e20f026083f47b4d5d3d8bd2a2", "is_reserved": 0, "rental_uris": {"android": "https://dc.lft.to/lastmile_qr_scan", "ios": "https://dc.lft.to/lastmile_qr_scan"}, "fusion_lon": 0.0}, {"lat": 38.90302916666667, "is_disabled": 0, "type": "electric_scooter", "lon": -77.02150066666667, "bike_id": "7a38d65f96b655a51ed1d8b13ad325d9", "fusion_lat": 0.0, "name": "7a38d65f96b655a51ed1d8b13ad325d9", "is_reserved": 0, "rental_uris": {"android": "https://dc.lft.to/lastmile_qr_scan", "ios": "https://dc.lft.to/lastmile_qr_scan"}, "fusion_lon": 0.0}, {"lat": 38.914151333333336, "is_disabled": 0, "type": "electric_scooter", "lon": -77.0317325, "bike_id": "95b7d421a5551461676287b030c71824", "fusion_lat": 0.0, "name": "95b7d421a5551461676287b030c71824", "is_reserved": 0, "rental_uris": {"android": "https://dc.lft.to/lastmile_qr_scan", "ios": "https://dc.lft.to/lastmile_qr_scan"}, "fusion_lon": 0.0}, {"lat": 38.917617, "is_disabled": 0, "type": "electric_scooter", "lon": -77.03882766666666, "bike_id": "3c504932ebc5581763174352ba975b48", "fusion_lat": 0.0, "name": "3c504932ebc5581763174352ba975b48", "is_reserved": 0, "rental_uris": {"android": "https://dc.lft.to/lastmile_qr_scan", "ios": "https://dc.lft.to/lastmile_qr_scan"}, "fusion_lon": 0.0}, {"lat": 38.922834333333334, "is_disabled": 0, "type": "electric_scooter", "lon": -77.0320345, "bike_id": "81289f8c6a897fd2d02e79c3744adc0d", "fusion_lat": 0.0, "name": "81289f8c6a897fd2d02e79c3744adc0d", "is_reserved": 0, "rental_uris": {"android": "https://dc.lft.to/lastmile_qr_scan", "ios": "https://dc.lft.to/lastmile_qr_scan"}, "fusion_lon": 0.0}, {"lat": 38.915650666666664, "is_disabled": 0, "type": "electric_scooter", "lon": -77.01165916666666, "bike_id": "b1312bba51c51bf4a260388efcce6ca2", "fusion_lat": 0.0, "name": "b1312bba51c51bf4a260388efcce6ca2", "is_reserved": 0, "rental_uris": {"android": "https://dc.lft.to/lastmile_qr_scan", "ios": "https://dc.lft.to/lastmile_qr_scan"}, "fusion_lon": 0.0}, {"lat": 38.917085166666666, "is_disabled": 0, "type": "electric_scooter", "lon": -77.032107, "bike_id": "6f345be21064523a8e9153b31ba5b0b6", "fusion_lat": 0.0, "name": "6f345be21064523a8e9153b31ba5b0b6", "is_reserved": 0, "rental_uris": {"android": "https://dc.lft.to/lastmile_qr_scan", "ios": "https://dc.lft.to/lastmile_qr_scan"}, "fusion_lon": 0.0}, {"lat": 38.907717, "is_disabled": 0, "type": "electric_scooter", "lon": -77.03191083333333, "bike_id": "9404ba28c3feb1e2d363faa6ac949cb1", "fusion_lat": 0.0, "name": "9404ba28c3feb1e2d363faa6ac949cb1", "is_reserved": 0, "rental_uris": {"android": "https://dc.lft.to/lastmile_qr_scan", "ios": "https://dc.lft.to/lastmile_qr_scan"}, "fusion_lon": 0.0}, {"lat": 38.924730333333336, "is_disabled": 0, "type": "electric_scooter", "lon": -77.03373633333334, "bike_id": "327a3cecf7f6aa47eba5a8f6edb45e5e", "fusion_lat": 0.0, "name": "327a3cecf7f6aa47eba5a8f6edb45e5e", "is_reserved": 0, "rental_uris": {"android": "https://dc.lft.to/lastmile_qr_scan", "ios": "https://dc.lft.to/lastmile_qr_scan"}, "fusion_lon": 0.0}, {"lat": 38.896078, "is_disabled": 0, "type": "electric_scooter", "lon": -76.9551635, "bike_id": "c0e81e2596bdfccaeb81c288aa802d3d", "fusion_lat": 0.0, "name": "c0e81e2596bdfccaeb81c288aa802d3d", "is_reserved": 0, "rental_uris": {"android": "https://dc.lft.to/lastmile_qr_scan", "ios": "https://dc.lft.to/lastmile_qr_scan"}, "fusion_lon": 0.0}, {"lat": 38.92572633333333, "is_disabled": 0, "type": "electric_scooter", "lon": -77.02838083333333, "bike_id": "6cef8552276587f03c96c7bfc7e42be9", "fusion_lat": 0.0, "name": "6cef8552276587f03c96c7bfc7e42be9", "is_reserved": 0, "rental_uris": {"android": "https://dc.lft.to/lastmile_qr_scan", "ios": "https://dc.lft.to/lastmile_qr_scan"}, "fusion_lon": 0.0}, {"lat": 38.933395, "is_disabled": 0, "type": "electric_scooter", "lon": -76.9930235, "bike_id": "03e1b5e6245cb4d243f4580928b4daf3", "fusion_lat": 0.0, "name": "03e1b5e6245cb4d243f4580928b4daf3", "is_reserved": 0, "rental_uris": {"android": "https://dc.lft.to/lastmile_qr_scan", "ios": "https://dc.lft.to/lastmile_qr_scan"}, "fusion_lon": 0.0}, {"lat": 38.884804, "is_disabled": 0, "type": "electric_scooter", "lon": -76.94527316666667, "bike_id": "8493a4b1e8b2ed0f83d7f1fec54666b0", "fusion_lat": 0.0, "name": "8493a4b1e8b2ed0f83d7f1fec54666b0", "is_reserved": 0, "rental_uris": {"android": "https://dc.lft.to/lastmile_qr_scan", "ios": "https://dc.lft.to/lastmile_qr_scan"}, "fusion_lon": 0.0}, {"lat": 38.93196983333333, "is_disabled": 0, "type": "electric_scooter", "lon": -77.02354983333333, "bike_id": "60e65308f8d5b4cef981bcc9ecf38edb", "fusion_lat": 0.0, "name": "60e65308f8d5b4cef981bcc9ecf38edb", "is_reserved": 0, "rental_uris": {"android": "https://dc.lft.to/lastmile_qr_scan", "ios": "https://dc.lft.to/lastmile_qr_scan"}, "fusion_lon": 0.0}, {"lat": 38.95407, "is_disabled": 0, "type": "electric_scooter", "lon": -77.0274845, "bike_id": "6c04b34ca44fce482768d541bf424efa", "fusion_lat": 0.0, "name": "6c04b34ca44fce482768d541bf424efa", "is_reserved": 0, "rental_uris": {"android": "https://dc.lft.to/lastmile_qr_scan", "ios": "https://dc.lft.to/lastmile_qr_scan"}, "fusion_lon": 0.0}, {"lat": 38.917085666666665, "is_disabled": 0, "type": "electric_scooter", "lon": -77.0350125, "bike_id": "5aa14261144af9ab2a30ddbfd7aa1401", "fusion_lat": 0.0, "name": "5aa14261144af9ab2a30ddbfd7aa1401", "is_reserved": 0, "rental_uris": {"android": "https://dc.lft.to/lastmile_qr_scan", "ios": "https://dc.lft.to/lastmile_qr_scan"}, "fusion_lon": 0.0}, {"lat": 38.91667483333333, "is_disabled": 0, "type": "electric_scooter", "lon": -77.03209716666667, "bike_id": "0346342e1256ac18f431b872de90c498", "fusion_lat": 0.0, "name": "0346342e1256ac18f431b872de90c498", "is_reserved": 0, "rental_uris": {"android": "https://dc.lft.to/lastmile_qr_scan", "ios": "https://dc.lft.to/lastmile_qr_scan"}, "fusion_lon": 0.0}, {"lat": 38.9287185, "is_disabled": 0, "type": "electric_scooter", "lon": -77.03220966666666, "bike_id": "1c8f0433bf68c01361907b8da2914d57", "fusion_lat": 0.0, "name": "1c8f0433bf68c01361907b8da2914d57", "is_reserved": 0, "rental_uris": {"android": "https://dc.lft.to/lastmile_qr_scan", "ios": "https://dc.lft.to/lastmile_qr_scan"}, "fusion_lon": 0.0}, {"lat": 38.93035616666667, "is_disabled": 0, "type": "electric_scooter", "lon": -77.026384, "bike_id": "9430b8b2231e81c9cbc93b09e6b24b35", "fusion_lat": 0.0, "name": "9430b8b2231e81c9cbc93b09e6b24b35", "is_reserved": 0, "rental_uris": {"android": "https://dc.lft.to/lastmile_qr_scan", "ios": "https://dc.lft.to/lastmile_qr_scan"}, "fusion_lon": 0.0}, {"lat": 38.907827, "is_disabled": 0, "type": "electric_scooter", "lon": -77.0640195, "bike_id": "b9ecb2ede6152477b02cd47ed2b8246f", "fusion_lat": 0.0, "name": "b9ecb2ede6152477b02cd47ed2b8246f", "is_reserved": 0, "rental_uris": {"android": "https://dc.lft.to/lastmile_qr_scan", "ios": "https://dc.lft.to/lastmile_qr_scan"}, "fusion_lon": 0.0}, {"lat": 38.90961516666667, "is_disabled": 0, "type": "electric_scooter", "lon": -77.04044833333333, "bike_id": "c4a1a96097fb9c6042c4e002e64f475f", "fusion_lat": 0.0, "name": "c4a1a96097fb9c6042c4e002e64f475f", "is_reserved": 0, "rental_uris": {"android": "https://dc.lft.to/lastmile_qr_scan", "ios": "https://dc.lft.to/lastmile_qr_scan"}, "fusion_lon": 0.0}, {"lat": 38.8026905, "is_disabled": 0, "type": "electric_bike", "lon": -77.0811325, "bike_id": "333f32bd9d4e99bdad54ab6ea314a32a", "fusion_lat": 0.0, "name": "333f32bd9d4e99bdad54ab6ea314a32a", "is_reserved": 0, "rental_uris": {"android": "https://dc.lft.to/lastmile_qr_scan", "ios": "https://dc.lft.to/lastmile_qr_scan"}, "fusion_lon": 0.0}, {"lat": 38.87065466666667, "is_disabled": 0, "type": "electric_scooter", "lon": -77.00837416666667, "bike_id": "5c44286e827e7cf79c3c1d2488c20e83", "fusion_lat": 0.0, "name": "5c44286e827e7cf79c3c1d2488c20e83", "is_reserved": 0, "rental_uris": {"android": "https://dc.lft.to/lastmile_qr_scan", "ios": "https://dc.lft.to/lastmile_qr_scan"}, "fusion_lon": 0.0}, {"lat": 38.90150716666667, "is_disabled": 0, "type": "electric_scooter", "lon": -77.0484205, "bike_id": "175f32ad0c382e470350ac938cb8b11e", "fusion_lat": 0.0, "name": "175f32ad0c382e470350ac938cb8b11e", "is_reserved": 0, "rental_uris": {"android": "https://dc.lft.to/lastmile_qr_scan", "ios": "https://dc.lft.to/lastmile_qr_scan"}, "fusion_lon": 0.0}, {"lat": 38.917098, "is_disabled": 0, "type": "electric_scooter", "lon": -77.001144, "bike_id": "8142213750bd6fcd28a110c30f15ffc0", "fusion_lat": 0.0, "name": "8142213750bd6fcd28a110c30f15ffc0", "is_reserved": 0, "rental_uris": {"android": "https://dc.lft.to/lastmile_qr_scan", "ios": "https://dc.lft.to/lastmile_qr_scan"}, "fusion_lon": 0.0}, {"lat": 38.862109, "is_disabled": 0, "type": "electric_bike", "lon": -76.99778333333333, "bike_id": "70d4102208beb6374736c89d55195b83", "fusion_lat": 0.0, "name": "70d4102208beb6374736c89d55195b83", "is_reserved": 0, "rental_uris": {"android": "https://dc.lft.to/lastmile_qr_scan", "ios": "https://dc.lft.to/lastmile_qr_scan"}, "fusion_lon": 0.0}, {"lat": 38.918132166666666, "is_disabled": 0, "type": "electric_scooter", "lon": -77.0254815, "bike_id": "6c69d41d056ab4b351b2566d9f81a217", "fusion_lat": 0.0, "name": "6c69d41d056ab4b351b2566d9f81a217", "is_reserved": 0, "rental_uris": {"android": "https://dc.lft.to/lastmile_qr_scan", "ios": "https://dc.lft.to/lastmile_qr_scan"}, "fusion_lon": 0.0}, {"lat": 38.88889016666667, "is_disabled": 0, "type": "electric_scooter", "lon": -76.93152716666667, "bike_id": "5571f666f2dfa63a92cec29ab9ab972d", "fusion_lat": 0.0, "name": "5571f666f2dfa63a92cec29ab9ab972d", "is_reserved": 0, "rental_uris": {"android": "https://dc.lft.to/lastmile_qr_scan", "ios": "https://dc.lft.to/lastmile_qr_scan"}, "fusion_lon": 0.0}, {"lat": 38.9201315, "is_disabled": 0, "type": "electric_scooter", "lon": -77.02500983333333, "bike_id": "0651c15162117eff9e2dee49c18e755a", "fusion_lat": 0.0, "name": "0651c15162117eff9e2dee49c18e755a", "is_reserved": 0, "rental_uris": {"android": "https://dc.lft.to/lastmile_qr_scan", "ios": "https://dc.lft.to/lastmile_qr_scan"}, "fusion_lon": 0.0}, {"lat": 38.931764333333334, "is_disabled": 0, "type": "electric_scooter", "lon": -77.02814533333333, "bike_id": "8fe590f61a98a14435e772e3b9acdb26", "fusion_lat": 0.0, "name": "8fe590f61a98a14435e772e3b9acdb26", "is_reserved": 0, "rental_uris": {"android": "https://dc.lft.to/lastmile_qr_scan", "ios": "https://dc.lft.to/lastmile_qr_scan"}, "fusion_lon": 0.0}, {"lat": 38.96153566666667, "is_disabled": 0, "type": "electric_scooter", "lon": -77.0278695, "bike_id": "139dd58617d1d48ac98ecdb078acdd12", "fusion_lat": 0.0, "name": "139dd58617d1d48ac98ecdb078acdd12", "is_reserved": 0, "rental_uris": {"android": "https://dc.lft.to/lastmile_qr_scan", "ios": "https://dc.lft.to/lastmile_qr_scan"}, "fusion_lon": 0.0}, {"lat": 38.8841815, "is_disabled": 0, "type": "electric_bike", "lon": -76.95404983333333, "bike_id": "5965d689d2f134d2c0afde80234a1c69", "fusion_lat": 0.0, "name": "5965d689d2f134d2c0afde80234a1c69", "is_reserved": 0, "rental_uris": {"android": "https://dc.lft.to/lastmile_qr_scan", "ios": "https://dc.lft.to/lastmile_qr_scan"}, "fusion_lon": 0.0}, {"lat": 38.9022345, "is_disabled": 0, "type": "electric_scooter", "lon": -77.02886316666667, "bike_id": "5fd0ad28e8cb3622c450c6ebe9b16bdf", "fusion_lat": 0.0, "name": "5fd0ad28e8cb3622c450c6ebe9b16bdf", "is_reserved": 0, "rental_uris": {"android": "https://dc.lft.to/lastmile_qr_scan", "ios": "https://dc.lft.to/lastmile_qr_scan"}, "fusion_lon": 0.0}, {"lat": 38.90928066666667, "is_disabled": 0, "type": "electric_scooter", "lon": -77.0319965, "bike_id": "7f3031669291213ec65821343e4a45c1", "fusion_lat": 0.0, "name": "7f3031669291213ec65821343e4a45c1", "is_reserved": 0, "rental_uris": {"android": "https://dc.lft.to/lastmile_qr_scan", "ios": "https://dc.lft.to/lastmile_qr_scan"}, "fusion_lon": 0.0}, {"lat": 38.9111885, "is_disabled": 0, "type": "electric_scooter", "lon": -77.03249783333334, "bike_id": "4e78246d3008dc62199caea483be80a1", "fusion_lat": 0.0, "name": "4e78246d3008dc62199caea483be80a1", "is_reserved": 0, "rental_uris": {"android": "https://dc.lft.to/lastmile_qr_scan", "ios": "https://dc.lft.to/lastmile_qr_scan"}, "fusion_lon": 0.0}, {"lat": 38.92470933333333, "is_disabled": 0, "type": "electric_scooter", "lon": -77.028386, "bike_id": "a515b49801cb9b8e09628bfec5fb3401", "fusion_lat": 0.0, "name": "a515b49801cb9b8e09628bfec5fb3401", "is_reserved": 0, "rental_uris": {"android": "https://dc.lft.to/lastmile_qr_scan", "ios": "https://dc.lft.to/lastmile_qr_scan"}, "fusion_lon": 0.0}, {"lat": 38.898175333333334, "is_disabled": 0, "type": "electric_scooter", "lon": -76.99689216666667, "bike_id": "141115da834d68fbca3b379db6647932", "fusion_lat": 0.0, "name": "141115da834d68fbca3b379db6647932", "is_reserved": 0, "rental_uris": {"android": "https://dc.lft.to/lastmile_qr_scan", "ios": "https://dc.lft.to/lastmile_qr_scan"}, "fusion_lon": 0.0}, {"lat": 39.056367333333334, "is_disabled": 0, "type": "electric_bike", "lon": -77.12524483333333, "bike_id": "257b03be9ca1a367ea07c22eabb541ed", "fusion_lat": 0.0, "name": "257b03be9ca1a367ea07c22eabb541ed", "is_reserved": 0, "rental_uris": {"android": "https://dc.lft.to/lastmile_qr_scan", "ios": "https://dc.lft.to/lastmile_qr_scan"}, "fusion_lon": 0.0}, {"lat": 38.92290333333333, "is_disabled": 0, "type": "electric_scooter", "lon": -77.04252933333333, "bike_id": "a214cbb9ade0a651ff1fb4f987c12014", "fusion_lat": 0.0, "name": "a214cbb9ade0a651ff1fb4f987c12014", "is_reserved": 0, "rental_uris": {"android": "https://dc.lft.to/lastmile_qr_scan", "ios": "https://dc.lft.to/lastmile_qr_scan"}, "fusion_lon": 0.0}, {"lat": 38.9224305, "is_disabled": 0, "type": "electric_scooter", "lon": -77.04264766666667, "bike_id": "b8fa7fafe685522af55a5e647436d6fd", "fusion_lat": 0.0, "name": "b8fa7fafe685522af55a5e647436d6fd", "is_reserved": 0, "rental_uris": {"android": "https://dc.lft.to/lastmile_qr_scan", "ios": "https://dc.lft.to/lastmile_qr_scan"}, "fusion_lon": 0.0}, {"lat": 38.8623205, "is_disabled": 0, "type": "electric_scooter", "lon": -76.99549233333333, "bike_id": "fe42b0edcf7ae2722ec062c003a872e6", "fusion_lat": 0.0, "name": "fe42b0edcf7ae2722ec062c003a872e6", "is_reserved": 0, "rental_uris": {"android": "https://dc.lft.to/lastmile_qr_scan", "ios": "https://dc.lft.to/lastmile_qr_scan"}, "fusion_lon": 0.0}, {"lat": 38.93554783333333, "is_disabled": 0, "type": "electric_scooter", "lon": -77.05865233333333, "bike_id": "daa75f59f5289b65f8f2d2c111669791", "fusion_lat": 0.0, "name": "daa75f59f5289b65f8f2d2c111669791", "is_reserved": 0, "rental_uris": {"android": "https://dc.lft.to/lastmile_qr_scan", "ios": "https://dc.lft.to/lastmile_qr_scan"}, "fusion_lon": 0.0}, {"lat": 38.898335, "is_disabled": 0, "type": "electric_scooter", "lon": -77.04002866666667, "bike_id": "e2f7811e704623efc52c83e879b7863d", "fusion_lat": 0.0, "name": "e2f7811e704623efc52c83e879b7863d", "is_reserved": 0, "rental_uris": {"android": "https://dc.lft.to/lastmile_qr_scan", "ios": "https://dc.lft.to/lastmile_qr_scan"}, "fusion_lon": 0.0}, {"lat": 38.918337, "is_disabled": 0, "type": "electric_scooter", "lon": -77.02306133333333, "bike_id": "5d76521f7cee8d82ec3b63e364a652ca", "fusion_lat": 0.0, "name": "5d76521f7cee8d82ec3b63e364a652ca", "is_reserved": 0, "rental_uris": {"android": "https://dc.lft.to/lastmile_qr_scan", "ios": "https://dc.lft.to/lastmile_qr_scan"}, "fusion_lon": 0.0}, {"lat": 38.960969666666664, "is_disabled": 0, "type": "electric_scooter", "lon": -77.08286083333333, "bike_id": "8b2d2960f573e67edd05798518e32330", "fusion_lat": 0.0, "name": "8b2d2960f573e67edd05798518e32330", "is_reserved": 0, "rental_uris": {"android": "https://dc.lft.to/lastmile_qr_scan", "ios": "https://dc.lft.to/lastmile_qr_scan"}, "fusion_lon": 0.0}, {"lat": 38.89228466666667, "is_disabled": 0, "type": "electric_scooter", "lon": -77.02790783333333, "bike_id": "af129fa25f7fc3b17b76930b6866a317", "fusion_lat": 0.0, "name": "af129fa25f7fc3b17b76930b6866a317", "is_reserved": 0, "rental_uris": {"android": "https://dc.lft.to/lastmile_qr_scan", "ios": "https://dc.lft.to/lastmile_qr_scan"}, "fusion_lon": 0.0}, {"lat": 38.917019333333336, "is_disabled": 0, "type": "electric_scooter", "lon": -77.03477283333334, "bike_id": "ebad6859eb5c7a62fddf0b0cb80aa67d", "fusion_lat": 0.0, "name": "ebad6859eb5c7a62fddf0b0cb80aa67d", "is_reserved": 0, "rental_uris": {"android": "https://dc.lft.to/lastmile_qr_scan", "ios": "https://dc.lft.to/lastmile_qr_scan"}, "fusion_lon": 0.0}, {"lat": 38.9000235, "is_disabled": 0, "type": "electric_scooter", "lon": -76.99855816666667, "bike_id": "4c89d2f136f8a723c543b508e7a4ee3c", "fusion_lat": 0.0, "name": "4c89d2f136f8a723c543b508e7a4ee3c", "is_reserved": 0, "rental_uris": {"android": "https://dc.lft.to/lastmile_qr_scan", "ios": "https://dc.lft.to/lastmile_qr_scan"}, "fusion_lon": 0.0}, {"lat": 39.015933, "is_disabled": 0, "type": "electric_bike", "lon": -77.044226, "bike_id": "9ee1d120fa6afefccd0ac7f1537770dd", "fusion_lat": 0.0, "name": "9ee1d120fa6afefccd0ac7f1537770dd", "is_reserved": 0, "rental_uris": {"android": "https://dc.lft.to/lastmile_qr_scan", "ios": "https://dc.lft.to/lastmile_qr_scan"}, "fusion_lon": 0.0}, {"lat": 38.8912495, "is_disabled": 0, "type": "electric_scooter", "lon": -76.94090183333333, "bike_id": "b74ae6df09046021fdf10546bf1230b6", "fusion_lat": 0.0, "name": "b74ae6df09046021fdf10546bf1230b6", "is_reserved": 0, "rental_uris": {"android": "https://dc.lft.to/lastmile_qr_scan", "ios": "https://dc.lft.to/lastmile_qr_scan"}, "fusion_lon": 0.0}, {"lat": 38.93300116666666, "is_disabled": 0, "type": "electric_scooter", "lon": -77.04532716666667, "bike_id": "326ae40c70e501fce7bc5ef6ca16aa86", "fusion_lat": 0.0, "name": "326ae40c70e501fce7bc5ef6ca16aa86", "is_reserved": 0, "rental_uris": {"android": "https://dc.lft.to/lastmile_qr_scan", "ios": "https://dc.lft.to/lastmile_qr_scan"}, "fusion_lon": 0.0}, {"lat": 38.88091716666667, "is_disabled": 0, "type": "electric_scooter", "lon": -76.99254483333333, "bike_id": "80ce95e712eef8ecdc2e726215353e8e", "fusion_lat": 0.0, "name": "80ce95e712eef8ecdc2e726215353e8e", "is_reserved": 0, "rental_uris": {"android": "https://dc.lft.to/lastmile_qr_scan", "ios": "https://dc.lft.to/lastmile_qr_scan"}, "fusion_lon": 0.0}, {"lat": 38.984316666666665, "is_disabled": 0, "type": "electric_scooter", "lon": -77.02676266666667, "bike_id": "a0aa53eef044e21f8314765dff71eae5", "fusion_lat": 0.0, "name": "a0aa53eef044e21f8314765dff71eae5", "is_reserved": 0, "rental_uris": {"android": "https://dc.lft.to/lastmile_qr_scan", "ios": "https://dc.lft.to/lastmile_qr_scan"}, "fusion_lon": 0.0}, {"lat": 38.88797516666666, "is_disabled": 0, "type": "electric_scooter", "lon": -76.93355933333333, "bike_id": "d2cdac08a26a9bb7f82abc9a06624ad7", "fusion_lat": 0.0, "name": "d2cdac08a26a9bb7f82abc9a06624ad7", "is_reserved": 0, "rental_uris": {"android": "https://dc.lft.to/lastmile_qr_scan", "ios": "https://dc.lft.to/lastmile_qr_scan"}, "fusion_lon": 0.0}, {"lat": 38.91697383333333, "is_disabled": 0, "type": "electric_scooter", "lon": -77.02177666666667, "bike_id": "61956fc1a51cf3f1bbf2e4b1ab33ea50", "fusion_lat": 0.0, "name": "61956fc1a51cf3f1bbf2e4b1ab33ea50", "is_reserved": 0, "rental_uris": {"android": "https://dc.lft.to/lastmile_qr_scan", "ios": "https://dc.lft.to/lastmile_qr_scan"}, "fusion_lon": 0.0}, {"lat": 38.890029166666665, "is_disabled": 0, "type": "electric_scooter", "lon": -77.04899983333334, "bike_id": "5572e9c9378b43daf9608180802f26b3", "fusion_lat": 0.0, "name": "5572e9c9378b43daf9608180802f26b3", "is_reserved": 0, "rental_uris": {"android": "https://dc.lft.to/lastmile_qr_scan", "ios": "https://dc.lft.to/lastmile_qr_scan"}, "fusion_lon": 0.0}, {"lat": 38.91362783333334, "is_disabled": 0, "type": "electric_scooter", "lon": -77.03447, "bike_id": "5378520bc3a5c22fab2f87587ba434b7", "fusion_lat": 0.0, "name": "5378520bc3a5c22fab2f87587ba434b7", "is_reserved": 0, "rental_uris": {"android": "https://dc.lft.to/lastmile_qr_scan", "ios": "https://dc.lft.to/lastmile_qr_scan"}, "fusion_lon": 0.0}, {"lat": 38.915653166666665, "is_disabled": 0, "type": "electric_scooter", "lon": -77.01043416666667, "bike_id": "58d2ce09cc22c2644ddfb2f12b62888e", "fusion_lat": 0.0, "name": "58d2ce09cc22c2644ddfb2f12b62888e", "is_reserved": 0, "rental_uris": {"android": "https://dc.lft.to/lastmile_qr_scan", "ios": "https://dc.lft.to/lastmile_qr_scan"}, "fusion_lon": 0.0}, {"lat": 38.923922166666664, "is_disabled": 0, "type": "electric_bike", "lon": -77.04079716666666, "bike_id": "91e988e00c60f2d203dd88b4ffb45c67", "fusion_lat": 0.0, "name": "91e988e00c60f2d203dd88b4ffb45c67", "is_reserved": 0, "rental_uris": {"android": "https://dc.lft.to/lastmile_qr_scan", "ios": "https://dc.lft.to/lastmile_qr_scan"}, "fusion_lon": 0.0}, {"lat": 38.909674833333334, "is_disabled": 0, "type": "electric_bike", "lon": -77.08826083333334, "bike_id": "84c92f7c386096024b6ef98cd09d0e86", "fusion_lat": 0.0, "name": "84c92f7c386096024b6ef98cd09d0e86", "is_reserved": 0, "rental_uris": {"android": "https://dc.lft.to/lastmile_qr_scan", "ios": "https://dc.lft.to/lastmile_qr_scan"}, "fusion_lon": 0.0}, {"lat": 38.82786083333333, "is_disabled": 0, "type": "electric_bike", "lon": -77.00913666666666, "bike_id": "b1f74b70359e5a1d7479e099f605955d", "fusion_lat": 0.0, "name": "b1f74b70359e5a1d7479e099f605955d", "is_reserved": 0, "rental_uris": {"android": "https://dc.lft.to/lastmile_qr_scan", "ios": "https://dc.lft.to/lastmile_qr_scan"}, "fusion_lon": 0.0}, {"lat": 38.909768, "is_disabled": 0, "type": "electric_bike", "lon": -76.98515816666666, "bike_id": "b4ea1fcd69a841cd7e082ebcee753ada", "fusion_lat": 0.0, "name": "b4ea1fcd69a841cd7e082ebcee753ada", "is_reserved": 0, "rental_uris": {"android": "https://dc.lft.to/lastmile_qr_scan", "ios": "https://dc.lft.to/lastmile_qr_scan"}, "fusion_lon": 0.0}, {"lat": 38.925299, "is_disabled": 0, "type": "electric_scooter", "lon": -77.0442235, "bike_id": "d79bbd3b96e4c238651bab124d5f3936", "fusion_lat": 0.0, "name": "d79bbd3b96e4c238651bab124d5f3936", "is_reserved": 0, "rental_uris": {"android": "https://dc.lft.to/lastmile_qr_scan", "ios": "https://dc.lft.to/lastmile_qr_scan"}, "fusion_lon": 0.0}, {"lat": 38.971949, "is_disabled": 0, "type": "electric_bike", "lon": -77.02717133333333, "bike_id": "3662bbdc5cc63bfe1446b2563dcdf7c3", "fusion_lat": 0.0, "name": "3662bbdc5cc63bfe1446b2563dcdf7c3", "is_reserved": 0, "rental_uris": {"android": "https://dc.lft.to/lastmile_qr_scan", "ios": "https://dc.lft.to/lastmile_qr_scan"}, "fusion_lon": 0.0}, {"lat": 38.901042333333336, "is_disabled": 0, "type": "electric_scooter", "lon": -77.05904466666667, "bike_id": "ef5ac8081fdd6bda9c5292e3a83d76de", "fusion_lat": 0.0, "name": "ef5ac8081fdd6bda9c5292e3a83d76de", "is_reserved": 0, "rental_uris": {"android": "https://dc.lft.to/lastmile_qr_scan", "ios": "https://dc.lft.to/lastmile_qr_scan"}, "fusion_lon": 0.0}, {"lat": 38.909672666666665, "is_disabled": 0, "type": "electric_scooter", "lon": -77.0092245, "bike_id": "41d1e2d251211a8f4f397abd7f0adbff", "fusion_lat": 0.0, "name": "41d1e2d251211a8f4f397abd7f0adbff", "is_reserved": 0, "rental_uris": {"android": "https://dc.lft.to/lastmile_qr_scan", "ios": "https://dc.lft.to/lastmile_qr_scan"}, "fusion_lon": 0.0}, {"lat": 38.922448, "is_disabled": 0, "type": "electric_scooter", "lon": -77.04267366666667, "bike_id": "cd76344283d9fc0fbf6c0f88ca7fe393", "fusion_lat": 0.0, "name": "cd76344283d9fc0fbf6c0f88ca7fe393", "is_reserved": 0, "rental_uris": {"android": "https://dc.lft.to/lastmile_qr_scan", "ios": "https://dc.lft.to/lastmile_qr_scan"}, "fusion_lon": 0.0}, {"lat": 38.908060166666665, "is_disabled": 0, "type": "electric_scooter", "lon": -77.04336166666667, "bike_id": "1d0b616cee05e5b7400bb984e761db32", "fusion_lat": 0.0, "name": "1d0b616cee05e5b7400bb984e761db32", "is_reserved": 0, "rental_uris": {"android": "https://dc.lft.to/lastmile_qr_scan", "ios": "https://dc.lft.to/lastmile_qr_scan"}, "fusion_lon": 0.0}, {"lat": 38.9054825, "is_disabled": 0, "type": "electric_scooter", "lon": -77.03391, "bike_id": "dbfe23278af0168547724d4d9350ce34", "fusion_lat": 0.0, "name": "dbfe23278af0168547724d4d9350ce34", "is_reserved": 0, "rental_uris": {"android": "https://dc.lft.to/lastmile_qr_scan", "ios": "https://dc.lft.to/lastmile_qr_scan"}, "fusion_lon": 0.0}, {"lat": 38.9081115, "is_disabled": 0, "type": "electric_scooter", "lon": -77.04345666666667, "bike_id": "a7ef53e834eb199bd868657a084e6970", "fusion_lat": 0.0, "name": "a7ef53e834eb199bd868657a084e6970", "is_reserved": 0, "rental_uris": {"android": "https://dc.lft.to/lastmile_qr_scan", "ios": "https://dc.lft.to/lastmile_qr_scan"}, "fusion_lon": 0.0}, {"lat": 38.8934665, "is_disabled": 0, "type": "electric_scooter", "lon": -76.94932616666667, "bike_id": "c6051499a6f49fef6b9b902c1f0a08b5", "fusion_lat": 0.0, "name": "c6051499a6f49fef6b9b902c1f0a08b5", "is_reserved": 0, "rental_uris": {"android": "https://dc.lft.to/lastmile_qr_scan", "ios": "https://dc.lft.to/lastmile_qr_scan"}, "fusion_lon": 0.0}, {"lat": 38.91962733333333, "is_disabled": 0, "type": "electric_bike", "lon": -76.97266266666666, "bike_id": "5d191595fe72be3c356d892b9e45f129", "fusion_lat": 0.0, "name": "5d191595fe72be3c356d892b9e45f129", "is_reserved": 0, "rental_uris": {"android": "https://dc.lft.to/lastmile_qr_scan", "ios": "https://dc.lft.to/lastmile_qr_scan"}, "fusion_lon": 0.0}, {"lat": 38.956162166666665, "is_disabled": 0, "type": "electric_scooter", "lon": -77.0278035, "bike_id": "e34e11f52984cecf64afc4eded5cc841", "fusion_lat": 0.0, "name": "e34e11f52984cecf64afc4eded5cc841", "is_reserved": 0, "rental_uris": {"android": "https://dc.lft.to/lastmile_qr_scan", "ios": "https://dc.lft.to/lastmile_qr_scan"}, "fusion_lon": 0.0}, {"lat": 38.89778533333333, "is_disabled": 0, "type": "electric_scooter", "lon": -77.04365266666667, "bike_id": "dffb2f03757124c45172e2a36370529b", "fusion_lat": 0.0, "name": "dffb2f03757124c45172e2a36370529b", "is_reserved": 0, "rental_uris": {"android": "https://dc.lft.to/lastmile_qr_scan", "ios": "https://dc.lft.to/lastmile_qr_scan"}, "fusion_lon": 0.0}, {"lat": 38.90215466666667, "is_disabled": 0, "type": "electric_scooter", "lon": -76.9458905, "bike_id": "d3df2ed30d55f20013a7811cca36a67c", "fusion_lat": 0.0, "name": "d3df2ed30d55f20013a7811cca36a67c", "is_reserved": 0, "rental_uris": {"android": "https://dc.lft.to/lastmile_qr_scan", "ios": "https://dc.lft.to/lastmile_qr_scan"}, "fusion_lon": 0.0}, {"lat": 38.933733, "is_disabled": 0, "type": "electric_scooter", "lon": -77.037928, "bike_id": "1112a72272e3534de759b4f0e5857473", "fusion_lat": 0.0, "name": "1112a72272e3534de759b4f0e5857473", "is_reserved": 0, "rental_uris": {"android": "https://dc.lft.to/lastmile_qr_scan", "ios": "https://dc.lft.to/lastmile_qr_scan"}, "fusion_lon": 0.0}, {"lat": 38.930097, "is_disabled": 0, "type": "electric_bike", "lon": -77.21649516666666, "bike_id": "1d99f5fb1766eb9bf7af0bb42f7b26b9", "fusion_lat": 0.0, "name": "1d99f5fb1766eb9bf7af0bb42f7b26b9", "is_reserved": 0, "rental_uris": {"android": "https://dc.lft.to/lastmile_qr_scan", "ios": "https://dc.lft.to/lastmile_qr_scan"}, "fusion_lon": 0.0}, {"lat": 38.95769666666666, "is_disabled": 0, "type": "electric_bike", "lon": -77.01157016666667, "bike_id": "dde7268b55b423dcaecb0da6faf963a1", "fusion_lat": 0.0, "name": "dde7268b55b423dcaecb0da6faf963a1", "is_reserved": 0, "rental_uris": {"android": "https://dc.lft.to/lastmile_qr_scan", "ios": "https://dc.lft.to/lastmile_qr_scan"}, "fusion_lon": 0.0}, {"lat": 38.962769333333334, "is_disabled": 0, "type": "electric_bike", "lon": -77.03252633333334, "bike_id": "84e32fecd9d9201b6d625aacb328d740", "fusion_lat": 0.0, "name": "84e32fecd9d9201b6d625aacb328d740", "is_reserved": 0, "rental_uris": {"android": "https://dc.lft.to/lastmile_qr_scan", "ios": "https://dc.lft.to/lastmile_qr_scan"}, "fusion_lon": 0.0}, {"lat": 38.89552616666667, "is_disabled": 0, "type": "electric_scooter", "lon": -77.003635, "bike_id": "2826b7b94d25b6eb3e7ab69d82666a24", "fusion_lat": 0.0, "name": "2826b7b94d25b6eb3e7ab69d82666a24", "is_reserved": 0, "rental_uris": {"android": "https://dc.lft.to/lastmile_qr_scan", "ios": "https://dc.lft.to/lastmile_qr_scan"}, "fusion_lon": 0.0}, {"lat": 38.8826025, "is_disabled": 0, "type": "electric_scooter", "lon": -76.98822833333334, "bike_id": "bbb869eb0de24deefd92582a0269a7fe", "fusion_lat": 0.0, "name": "bbb869eb0de24deefd92582a0269a7fe", "is_reserved": 0, "rental_uris": {"android": "https://dc.lft.to/lastmile_qr_scan", "ios": "https://dc.lft.to/lastmile_qr_scan"}, "fusion_lon": 0.0}, {"lat": 38.9424355, "is_disabled": 0, "type": "electric_scooter", "lon": -77.035797, "bike_id": "6ac2673dcac557e17dcd682b1ad10c75", "fusion_lat": 0.0, "name": "6ac2673dcac557e17dcd682b1ad10c75", "is_reserved": 0, "rental_uris": {"android": "https://dc.lft.to/lastmile_qr_scan", "ios": "https://dc.lft.to/lastmile_qr_scan"}, "fusion_lon": 0.0}, {"lat": 38.929851, "is_disabled": 0, "type": "electric_scooter", "lon": -77.0383365, "bike_id": "d8a37c4a88b2690e8a6b5a73c17e1039", "fusion_lat": 0.0, "name": "d8a37c4a88b2690e8a6b5a73c17e1039", "is_reserved": 0, "rental_uris": {"android": "https://dc.lft.to/lastmile_qr_scan", "ios": "https://dc.lft.to/lastmile_qr_scan"}, "fusion_lon": 0.0}, {"lat": 38.91708366666667, "is_disabled": 0, "type": "electric_scooter", "lon": -77.04032, "bike_id": "f9ed018224ebab26c873e4a824e7555b", "fusion_lat": 0.0, "name": "f9ed018224ebab26c873e4a824e7555b", "is_reserved": 0, "rental_uris": {"android": "https://dc.lft.to/lastmile_qr_scan", "ios": "https://dc.lft.to/lastmile_qr_scan"}, "fusion_lon": 0.0}, {"lat": 38.8949835, "is_disabled": 0, "type": "electric_scooter", "lon": -77.002165, "bike_id": "c465928310e601177011802e40360886", "fusion_lat": 0.0, "name": "c465928310e601177011802e40360886", "is_reserved": 0, "rental_uris": {"android": "https://dc.lft.to/lastmile_qr_scan", "ios": "https://dc.lft.to/lastmile_qr_scan"}, "fusion_lon": 0.0}, {"lat": 38.905133, "is_disabled": 0, "type": "electric_scooter", "lon": -77.04498316666667, "bike_id": "32cb2b71f693131252bf594620748f45", "fusion_lat": 0.0, "name": "32cb2b71f693131252bf594620748f45", "is_reserved": 0, "rental_uris": {"android": "https://dc.lft.to/lastmile_qr_scan", "ios": "https://dc.lft.to/lastmile_qr_scan"}, "fusion_lon": 0.0}, {"lat": 38.91982683333333, "is_disabled": 0, "type": "electric_scooter", "lon": -77.02494416666667, "bike_id": "498e4a28904a591477bfaff6e761737e", "fusion_lat": 0.0, "name": "498e4a28904a591477bfaff6e761737e", "is_reserved": 0, "rental_uris": {"android": "https://dc.lft.to/lastmile_qr_scan", "ios": "https://dc.lft.to/lastmile_qr_scan"}, "fusion_lon": 0.0}, {"lat": 38.915410666666666, "is_disabled": 0, "type": "electric_scooter", "lon": -77.02948833333333, "bike_id": "8c3fa1b3da37663f9b36ad61cb25b557", "fusion_lat": 0.0, "name": "8c3fa1b3da37663f9b36ad61cb25b557", "is_reserved": 0, "rental_uris": {"android": "https://dc.lft.to/lastmile_qr_scan", "ios": "https://dc.lft.to/lastmile_qr_scan"}, "fusion_lon": 0.0}, {"lat": 38.914048, "is_disabled": 0, "type": "electric_scooter", "lon": -77.03189066666667, "bike_id": "e5f310d132f031f9180b540d9a9658de", "fusion_lat": 0.0, "name": "e5f310d132f031f9180b540d9a9658de", "is_reserved": 0, "rental_uris": {"android": "https://dc.lft.to/lastmile_qr_scan", "ios": "https://dc.lft.to/lastmile_qr_scan"}, "fusion_lon": 0.0}, {"lat": 38.90416483333333, "is_disabled": 0, "type": "electric_scooter", "lon": -77.02404816666666, "bike_id": "e24a7b7bf548cdb7aac0b68908695762", "fusion_lat": 0.0, "name": "e24a7b7bf548cdb7aac0b68908695762", "is_reserved": 0, "rental_uris": {"android": "https://dc.lft.to/lastmile_qr_scan", "ios": "https://dc.lft.to/lastmile_qr_scan"}, "fusion_lon": 0.0}, {"lat": 38.9010425, "is_disabled": 0, "type": "electric_scooter", "lon": -77.01808333333334, "bike_id": "26c4ffcef399f16502447fdaad8b26d2", "fusion_lat": 0.0, "name": "26c4ffcef399f16502447fdaad8b26d2", "is_reserved": 0, "rental_uris": {"android": "https://dc.lft.to/lastmile_qr_scan", "ios": "https://dc.lft.to/lastmile_qr_scan"}, "fusion_lon": 0.0}, {"lat": 38.92586716666667, "is_disabled": 0, "type": "electric_scooter", "lon": -77.05762333333334, "bike_id": "280b6f25fe1732a8e253ced3052737d3", "fusion_lat": 0.0, "name": "280b6f25fe1732a8e253ced3052737d3", "is_reserved": 0, "rental_uris": {"android": "https://dc.lft.to/lastmile_qr_scan", "ios": "https://dc.lft.to/lastmile_qr_scan"}, "fusion_lon": 0.0}, {"lat": 38.9290285, "is_disabled": 0, "type": "electric_scooter", "lon": -77.07447316666666, "bike_id": "34ea57331a0bf45b9eb83c591e59705c", "fusion_lat": 0.0, "name": "34ea57331a0bf45b9eb83c591e59705c", "is_reserved": 0, "rental_uris": {"android": "https://dc.lft.to/lastmile_qr_scan", "ios": "https://dc.lft.to/lastmile_qr_scan"}, "fusion_lon": 0.0}, {"lat": 38.92879633333333, "is_disabled": 0, "type": "electric_scooter", "lon": -77.02711866666667, "bike_id": "e8b313cbfef36fd6125d4e63554e9518", "fusion_lat": 0.0, "name": "e8b313cbfef36fd6125d4e63554e9518", "is_reserved": 0, "rental_uris": {"android": "https://dc.lft.to/lastmile_qr_scan", "ios": "https://dc.lft.to/lastmile_qr_scan"}, "fusion_lon": 0.0}, {"lat": 38.92120083333333, "is_disabled": 0, "type": "electric_scooter", "lon": -77.03664116666667, "bike_id": "b9212599a3ffcd04c948eac8d7989283", "fusion_lat": 0.0, "name": "b9212599a3ffcd04c948eac8d7989283", "is_reserved": 0, "rental_uris": {"android": "https://dc.lft.to/lastmile_qr_scan", "ios": "https://dc.lft.to/lastmile_qr_scan"}, "fusion_lon": 0.0}, {"lat": 38.9259005, "is_disabled": 0, "type": "electric_scooter", "lon": -77.022715, "bike_id": "bc9287da70cd2e04995729aa4f9d8417", "fusion_lat": 0.0, "name": "bc9287da70cd2e04995729aa4f9d8417", "is_reserved": 0, "rental_uris": {"android": "https://dc.lft.to/lastmile_qr_scan", "ios": "https://dc.lft.to/lastmile_qr_scan"}, "fusion_lon": 0.0}, {"lat": 38.91122883333333, "is_disabled": 0, "type": "electric_scooter", "lon": -77.04081083333334, "bike_id": "7ce8de2754d8ff5469f73e8ce2a8fb27", "fusion_lat": 0.0, "name": "7ce8de2754d8ff5469f73e8ce2a8fb27", "is_reserved": 0, "rental_uris": {"android": "https://dc.lft.to/lastmile_qr_scan", "ios": "https://dc.lft.to/lastmile_qr_scan"}, "fusion_lon": 0.0}, {"lat": 38.96116283333333, "is_disabled": 0, "type": "electric_scooter", "lon": -77.02810683333334, "bike_id": "30ed00e523686bbe5da2b6672c935003", "fusion_lat": 0.0, "name": "30ed00e523686bbe5da2b6672c935003", "is_reserved": 0, "rental_uris": {"android": "https://dc.lft.to/lastmile_qr_scan", "ios": "https://dc.lft.to/lastmile_qr_scan"}, "fusion_lon": 0.0}, {"lat": 38.938258, "is_disabled": 0, "type": "electric_scooter", "lon": -77.06033916666667, "bike_id": "53e3f6ec55ee7aeac2384e8812a2ad2c", "fusion_lat": 0.0, "name": "53e3f6ec55ee7aeac2384e8812a2ad2c", "is_reserved": 0, "rental_uris": {"android": "https://dc.lft.to/lastmile_qr_scan", "ios": "https://dc.lft.to/lastmile_qr_scan"}, "fusion_lon": 0.0}, {"lat": 38.9129545, "is_disabled": 0, "type": "electric_scooter", "lon": -77.04529266666667, "bike_id": "467e77bfe8170ce6c6e34891f638988d", "fusion_lat": 0.0, "name": "467e77bfe8170ce6c6e34891f638988d", "is_reserved": 0, "rental_uris": {"android": "https://dc.lft.to/lastmile_qr_scan", "ios": "https://dc.lft.to/lastmile_qr_scan"}, "fusion_lon": 0.0}, {"lat": 38.96928616666667, "is_disabled": 0, "type": "electric_bike", "lon": -77.02622833333334, "bike_id": "883152414bae335ce039cedf414b21dc", "fusion_lat": 0.0, "name": "883152414bae335ce039cedf414b21dc", "is_reserved": 0, "rental_uris": {"android": "https://dc.lft.to/lastmile_qr_scan", "ios": "https://dc.lft.to/lastmile_qr_scan"}, "fusion_lon": 0.0}, {"lat": 38.904573666666664, "is_disabled": 0, "type": "electric_scooter", "lon": -76.99456866666667, "bike_id": "2660d73db4fe3fddb37f4c15e7a5960c", "fusion_lat": 0.0, "name": "2660d73db4fe3fddb37f4c15e7a5960c", "is_reserved": 0, "rental_uris": {"android": "https://dc.lft.to/lastmile_qr_scan", "ios": "https://dc.lft.to/lastmile_qr_scan"}, "fusion_lon": 0.0}, {"lat": 38.92066583333333, "is_disabled": 0, "type": "electric_scooter", "lon": -77.02501816666667, "bike_id": "7fe6ca937cc49f4fa210dce20581eec9", "fusion_lat": 0.0, "name": "7fe6ca937cc49f4fa210dce20581eec9", "is_reserved": 0, "rental_uris": {"android": "https://dc.lft.to/lastmile_qr_scan", "ios": "https://dc.lft.to/lastmile_qr_scan"}, "fusion_lon": 0.0}, {"lat": 38.966039, "is_disabled": 0, "type": "electric_bike", "lon": -76.983342, "bike_id": "16c514af040db6f14c201a8fdf7f32fd", "fusion_lat": 0.0, "name": "16c514af040db6f14c201a8fdf7f32fd", "is_reserved": 0, "rental_uris": {"android": "https://dc.lft.to/lastmile_qr_scan", "ios": "https://dc.lft.to/lastmile_qr_scan"}, "fusion_lon": 0.0}, {"lat": 38.91709516666667, "is_disabled": 0, "type": "electric_scooter", "lon": -77.0347265, "bike_id": "9479e876abec09e29b295fc8c9afc65f", "fusion_lat": 0.0, "name": "9479e876abec09e29b295fc8c9afc65f", "is_reserved": 0, "rental_uris": {"android": "https://dc.lft.to/lastmile_qr_scan", "ios": "https://dc.lft.to/lastmile_qr_scan"}, "fusion_lon": 0.0}, {"lat": 38.898406, "is_disabled": 0, "type": "electric_scooter", "lon": -76.93100233333334, "bike_id": "46aed6ac712166d98139c48558c3565e", "fusion_lat": 0.0, "name": "46aed6ac712166d98139c48558c3565e", "is_reserved": 0, "rental_uris": {"android": "https://dc.lft.to/lastmile_qr_scan", "ios": "https://dc.lft.to/lastmile_qr_scan"}, "fusion_lon": 0.0}, {"lat": 38.91614283333333, "is_disabled": 0, "type": "electric_bike", "lon": -77.02135866666667, "bike_id": "361a912b4925d6f3b4a838bd29417bed", "fusion_lat": 0.0, "name": "361a912b4925d6f3b4a838bd29417bed", "is_reserved": 0, "rental_uris": {"android": "https://dc.lft.to/lastmile_qr_scan", "ios": "https://dc.lft.to/lastmile_qr_scan"}, "fusion_lon": 0.0}, {"lat": 38.8924425, "is_disabled": 0, "type": "electric_scooter", "lon": -77.04891883333333, "bike_id": "d3ea6706f76c347ed87f8c6f520a460c", "fusion_lat": 0.0, "name": "d3ea6706f76c347ed87f8c6f520a460c", "is_reserved": 0, "rental_uris": {"android": "https://dc.lft.to/lastmile_qr_scan", "ios": "https://dc.lft.to/lastmile_qr_scan"}, "fusion_lon": 0.0}, {"lat": 38.93090566666667, "is_disabled": 0, "type": "electric_scooter", "lon": -77.025517, "bike_id": "6b1b27e65f32bbfe6c75fdca17908bb1", "fusion_lat": 0.0, "name": "6b1b27e65f32bbfe6c75fdca17908bb1", "is_reserved": 0, "rental_uris": {"android": "https://dc.lft.to/lastmile_qr_scan", "ios": "https://dc.lft.to/lastmile_qr_scan"}, "fusion_lon": 0.0}, {"lat": 38.890449833333335, "is_disabled": 0, "type": "electric_scooter", "lon": -76.94072483333333, "bike_id": "7519d531cc5e0dde616114cddb8cabf4", "fusion_lat": 0.0, "name": "7519d531cc5e0dde616114cddb8cabf4", "is_reserved": 0, "rental_uris": {"android": "https://dc.lft.to/lastmile_qr_scan", "ios": "https://dc.lft.to/lastmile_qr_scan"}, "fusion_lon": 0.0}, {"lat": 38.917931833333334, "is_disabled": 0, "type": "electric_scooter", "lon": -77.04447, "bike_id": "477661eec096239e7ecc2053bdab5605", "fusion_lat": 0.0, "name": "477661eec096239e7ecc2053bdab5605", "is_reserved": 0, "rental_uris": {"android": "https://dc.lft.to/lastmile_qr_scan", "ios": "https://dc.lft.to/lastmile_qr_scan"}, "fusion_lon": 0.0}, {"lat": 38.902777666666665, "is_disabled": 0, "type": "electric_scooter", "lon": -77.03652666666666, "bike_id": "b50f7ece636d79787f48af697e347ff0", "fusion_lat": 0.0, "name": "b50f7ece636d79787f48af697e347ff0", "is_reserved": 0, "rental_uris": {"android": "https://dc.lft.to/lastmile_qr_scan", "ios": "https://dc.lft.to/lastmile_qr_scan"}, "fusion_lon": 0.0}, {"lat": 38.921153833333335, "is_disabled": 0, "type": "electric_bike", "lon": -76.98575033333333, "bike_id": "c4bd708a3ba4d9f5935c3e5f21fd8469", "fusion_lat": 0.0, "name": "c4bd708a3ba4d9f5935c3e5f21fd8469", "is_reserved": 0, "rental_uris": {"android": "https://dc.lft.to/lastmile_qr_scan", "ios": "https://dc.lft.to/lastmile_qr_scan"}, "fusion_lon": 0.0}, {"lat": 38.8584625, "is_disabled": 0, "type": "electric_bike", "lon": -77.0975225, "bike_id": "7aabbbae8b7ec481fe5701f7c113fb62", "fusion_lat": 0.0, "name": "7aabbbae8b7ec481fe5701f7c113fb62", "is_reserved": 0, "rental_uris": {"android": "https://dc.lft.to/lastmile_qr_scan", "ios": "https://dc.lft.to/lastmile_qr_scan"}, "fusion_lon": 0.0}, {"lat": 38.91789966666666, "is_disabled": 0, "type": "electric_scooter", "lon": -77.032072, "bike_id": "ed2e1950970103580953dced0a4f11a0", "fusion_lat": 0.0, "name": "ed2e1950970103580953dced0a4f11a0", "is_reserved": 0, "rental_uris": {"android": "https://dc.lft.to/lastmile_qr_scan", "ios": "https://dc.lft.to/lastmile_qr_scan"}, "fusion_lon": 0.0}, {"lat": 38.929164666666665, "is_disabled": 0, "type": "electric_scooter", "lon": -77.031899, "bike_id": "5792b42a368daf77c00f015e93672964", "fusion_lat": 0.0, "name": "5792b42a368daf77c00f015e93672964", "is_reserved": 0, "rental_uris": {"android": "https://dc.lft.to/lastmile_qr_scan", "ios": "https://dc.lft.to/lastmile_qr_scan"}, "fusion_lon": 0.0}, {"lat": 38.95886433333333, "is_disabled": 0, "type": "electric_bike", "lon": -76.9247675, "bike_id": "fdbac586a8eff89a788689835af44e21", "fusion_lat": 0.0, "name": "fdbac586a8eff89a788689835af44e21", "is_reserved": 0, "rental_uris": {"android": "https://dc.lft.to/lastmile_qr_scan", "ios": "https://dc.lft.to/lastmile_qr_scan"}, "fusion_lon": 0.0}, {"lat": 38.94039866666667, "is_disabled": 0, "type": "electric_bike", "lon": -77.05162533333333, "bike_id": "bb6baf2bbe57f3b5a326f2811c2afd0b", "fusion_lat": 0.0, "name": "bb6baf2bbe57f3b5a326f2811c2afd0b", "is_reserved": 0, "rental_uris": {"android": "https://dc.lft.to/lastmile_qr_scan", "ios": "https://dc.lft.to/lastmile_qr_scan"}, "fusion_lon": 0.0}, {"lat": 38.9206755, "is_disabled": 0, "type": "electric_scooter", "lon": -77.025007, "bike_id": "5eba4ed1511794bd4f2080126fac925e", "fusion_lat": 0.0, "name": "5eba4ed1511794bd4f2080126fac925e", "is_reserved": 0, "rental_uris": {"android": "https://dc.lft.to/lastmile_qr_scan", "ios": "https://dc.lft.to/lastmile_qr_scan"}, "fusion_lon": 0.0}, {"lat": 38.87457666666667, "is_disabled": 0, "type": "electric_scooter", "lon": -77.00542966666667, "bike_id": "273823dc57681600a6bc81a49050143f", "fusion_lat": 0.0, "name": "273823dc57681600a6bc81a49050143f", "is_reserved": 0, "rental_uris": {"android": "https://dc.lft.to/lastmile_qr_scan", "ios": "https://dc.lft.to/lastmile_qr_scan"}, "fusion_lon": 0.0}, {"lat": 38.884324666666664, "is_disabled": 0, "type": "electric_scooter", "lon": -76.9575485, "bike_id": "e2ec0e6c0fcada55c4352fcb51618d61", "fusion_lat": 0.0, "name": "e2ec0e6c0fcada55c4352fcb51618d61", "is_reserved": 0, "rental_uris": {"android": "https://dc.lft.to/lastmile_qr_scan", "ios": "https://dc.lft.to/lastmile_qr_scan"}, "fusion_lon": 0.0}, {"lat": 38.907336666666666, "is_disabled": 0, "type": "electric_scooter", "lon": -77.02368466666667, "bike_id": "79c38c183fbb1846a513a05550ed8372", "fusion_lat": 0.0, "name": "79c38c183fbb1846a513a05550ed8372", "is_reserved": 0, "rental_uris": {"android": "https://dc.lft.to/lastmile_qr_scan", "ios": "https://dc.lft.to/lastmile_qr_scan"}, "fusion_lon": 0.0}, {"lat": 38.90657316666667, "is_disabled": 0, "type": "electric_scooter", "lon": -77.048632, "bike_id": "1ec4ec3fe6840336ab84859a2d09fcb4", "fusion_lat": 0.0, "name": "1ec4ec3fe6840336ab84859a2d09fcb4", "is_reserved": 0, "rental_uris": {"android": "https://dc.lft.to/lastmile_qr_scan", "ios": "https://dc.lft.to/lastmile_qr_scan"}, "fusion_lon": 0.0}, {"lat": 38.84814016666667, "is_disabled": 0, "type": "electric_bike", "lon": -77.07897433333333, "bike_id": "6876c67c004e7b4773ef1473f332f342", "fusion_lat": 0.0, "name": "6876c67c004e7b4773ef1473f332f342", "is_reserved": 0, "rental_uris": {"android": "https://dc.lft.to/lastmile_qr_scan", "ios": "https://dc.lft.to/lastmile_qr_scan"}, "fusion_lon": 0.0}, {"lat": 38.90372766666667, "is_disabled": 0, "type": "electric_scooter", "lon": -77.03870983333333, "bike_id": "d6b952327de9e8bf21531d40d4f3d7b8", "fusion_lat": 0.0, "name": "d6b952327de9e8bf21531d40d4f3d7b8", "is_reserved": 0, "rental_uris": {"android": "https://dc.lft.to/lastmile_qr_scan", "ios": "https://dc.lft.to/lastmile_qr_scan"}, "fusion_lon": 0.0}, {"lat": 38.897582166666666, "is_disabled": 0, "type": "electric_scooter", "lon": -76.94182983333333, "bike_id": "3d9fd23ee07dcb10c984edb563cbfa4a", "fusion_lat": 0.0, "name": "3d9fd23ee07dcb10c984edb563cbfa4a", "is_reserved": 0, "rental_uris": {"android": "https://dc.lft.to/lastmile_qr_scan", "ios": "https://dc.lft.to/lastmile_qr_scan"}, "fusion_lon": 0.0}, {"lat": 38.905293, "is_disabled": 0, "type": "electric_scooter", "lon": -77.0614335, "bike_id": "f721522b99d473d0fb2fed1a17f42e48", "fusion_lat": 0.0, "name": "f721522b99d473d0fb2fed1a17f42e48", "is_reserved": 0, "rental_uris": {"android": "https://dc.lft.to/lastmile_qr_scan", "ios": "https://dc.lft.to/lastmile_qr_scan"}, "fusion_lon": 0.0}, {"lat": 38.8552175, "is_disabled": 0, "type": "electric_bike", "lon": -76.98410333333334, "bike_id": "9a45e573c174dac51fa44d727e0dbee0", "fusion_lat": 0.0, "name": "9a45e573c174dac51fa44d727e0dbee0", "is_reserved": 0, "rental_uris": {"android": "https://dc.lft.to/lastmile_qr_scan", "ios": "https://dc.lft.to/lastmile_qr_scan"}, "fusion_lon": 0.0}, {"lat": 38.902416833333334, "is_disabled": 0, "type": "electric_scooter", "lon": -77.0269125, "bike_id": "b0fc95487111df61e6057aa9f33fcbbb", "fusion_lat": 0.0, "name": "b0fc95487111df61e6057aa9f33fcbbb", "is_reserved": 0, "rental_uris": {"android": "https://dc.lft.to/lastmile_qr_scan", "ios": "https://dc.lft.to/lastmile_qr_scan"}, "fusion_lon": 0.0}, {"lat": 38.9369905, "is_disabled": 0, "type": "electric_scooter", "lon": -77.03256733333333, "bike_id": "8cb22d7e49741322f338ca18b1333c74", "fusion_lat": 0.0, "name": "8cb22d7e49741322f338ca18b1333c74", "is_reserved": 0, "rental_uris": {"android": "https://dc.lft.to/lastmile_qr_scan", "ios": "https://dc.lft.to/lastmile_qr_scan"}, "fusion_lon": 0.0}, {"lat": 38.915647166666666, "is_disabled": 0, "type": "electric_scooter", "lon": -77.03246833333333, "bike_id": "a6cd35223c06aad96e0ceddd76db1e6a", "fusion_lat": 0.0, "name": "a6cd35223c06aad96e0ceddd76db1e6a", "is_reserved": 0, "rental_uris": {"android": "https://dc.lft.to/lastmile_qr_scan", "ios": "https://dc.lft.to/lastmile_qr_scan"}, "fusion_lon": 0.0}, {"lat": 38.909683333333334, "is_disabled": 0, "type": "electric_scooter", "lon": -77.03293983333333, "bike_id": "4f2ada41cbef2fd42cb1d185ae6b5d74", "fusion_lat": 0.0, "name": "4f2ada41cbef2fd42cb1d185ae6b5d74", "is_reserved": 0, "rental_uris": {"android": "https://dc.lft.to/lastmile_qr_scan", "ios": "https://dc.lft.to/lastmile_qr_scan"}, "fusion_lon": 0.0}, {"lat": 38.9019595, "is_disabled": 0, "type": "electric_scooter", "lon": -77.02421033333333, "bike_id": "a708dd01b20eab624a270917759e70e7", "fusion_lat": 0.0, "name": "a708dd01b20eab624a270917759e70e7", "is_reserved": 0, "rental_uris": {"android": "https://dc.lft.to/lastmile_qr_scan", "ios": "https://dc.lft.to/lastmile_qr_scan"}, "fusion_lon": 0.0}, {"lat": 38.92026516666667, "is_disabled": 0, "type": "electric_scooter", "lon": -77.038607, "bike_id": "5ccaf5b11a95c6efe6e815ec1ae9dfd8", "fusion_lat": 0.0, "name": "5ccaf5b11a95c6efe6e815ec1ae9dfd8", "is_reserved": 0, "rental_uris": {"android": "https://dc.lft.to/lastmile_qr_scan", "ios": "https://dc.lft.to/lastmile_qr_scan"}, "fusion_lon": 0.0}, {"lat": 38.920483833333336, "is_disabled": 0, "type": "electric_scooter", "lon": -77.041966, "bike_id": "956b0f62ec8b1aa67f8b173b1b1f1aa6", "fusion_lat": 0.0, "name": "956b0f62ec8b1aa67f8b173b1b1f1aa6", "is_reserved": 0, "rental_uris": {"android": "https://dc.lft.to/lastmile_qr_scan", "ios": "https://dc.lft.to/lastmile_qr_scan"}, "fusion_lon": 0.0}, {"lat": 38.90032683333333, "is_disabled": 0, "type": "electric_scooter", "lon": -77.001995, "bike_id": "e8ed67bc19035a7372d35b7429244e2a", "fusion_lat": 0.0, "name": "e8ed67bc19035a7372d35b7429244e2a", "is_reserved": 0, "rental_uris": {"android": "https://dc.lft.to/lastmile_qr_scan", "ios": "https://dc.lft.to/lastmile_qr_scan"}, "fusion_lon": 0.0}, {"lat": 38.9077795, "is_disabled": 0, "type": "electric_scooter", "lon": -77.03857933333333, "bike_id": "b5c175078c63336d36deec25d360d096", "fusion_lat": 0.0, "name": "b5c175078c63336d36deec25d360d096", "is_reserved": 0, "rental_uris": {"android": "https://dc.lft.to/lastmile_qr_scan", "ios": "https://dc.lft.to/lastmile_qr_scan"}, "fusion_lon": 0.0}, {"lat": 38.903860333333334, "is_disabled": 0, "type": "electric_scooter", "lon": -77.017661, "bike_id": "29b32f8a84c7c2e567a8ea7eb016424e", "fusion_lat": 0.0, "name": "29b32f8a84c7c2e567a8ea7eb016424e", "is_reserved": 0, "rental_uris": {"android": "https://dc.lft.to/lastmile_qr_scan", "ios": "https://dc.lft.to/lastmile_qr_scan"}, "fusion_lon": 0.0}, {"lat": 38.920908, "is_disabled": 0, "type": "electric_scooter", "lon": -77.04201466666666, "bike_id": "5ee2a6bd89dc30d7befff08d3e56a96b", "fusion_lat": 0.0, "name": "5ee2a6bd89dc30d7befff08d3e56a96b", "is_reserved": 0, "rental_uris": {"android": "https://dc.lft.to/lastmile_qr_scan", "ios": "https://dc.lft.to/lastmile_qr_scan"}, "fusion_lon": 0.0}, {"lat": 38.9218895, "is_disabled": 0, "type": "electric_scooter", "lon": -77.04711483333334, "bike_id": "133886acdf26892f4824d5de4a73c682", "fusion_lat": 0.0, "name": "133886acdf26892f4824d5de4a73c682", "is_reserved": 0, "rental_uris": {"android": "https://dc.lft.to/lastmile_qr_scan", "ios": "https://dc.lft.to/lastmile_qr_scan"}, "fusion_lon": 0.0}, {"lat": 38.954016833333334, "is_disabled": 0, "type": "electric_scooter", "lon": -77.02746216666667, "bike_id": "a81880188c155e36164e9fe1a4c1c2fa", "fusion_lat": 0.0, "name": "a81880188c155e36164e9fe1a4c1c2fa", "is_reserved": 0, "rental_uris": {"android": "https://dc.lft.to/lastmile_qr_scan", "ios": "https://dc.lft.to/lastmile_qr_scan"}, "fusion_lon": 0.0}, {"lat": 38.928618166666666, "is_disabled": 0, "type": "electric_scooter", "lon": -77.03433633333333, "bike_id": "59cd958721a08e40bce3ff5f77d232b6", "fusion_lat": 0.0, "name": "59cd958721a08e40bce3ff5f77d232b6", "is_reserved": 0, "rental_uris": {"android": "https://dc.lft.to/lastmile_qr_scan", "ios": "https://dc.lft.to/lastmile_qr_scan"}, "fusion_lon": 0.0}, {"lat": 38.925984166666666, "is_disabled": 0, "type": "electric_scooter", "lon": -77.0569295, "bike_id": "4a729f49ae4245a50ae9679944437c14", "fusion_lat": 0.0, "name": "4a729f49ae4245a50ae9679944437c14", "is_reserved": 0, "rental_uris": {"android": "https://dc.lft.to/lastmile_qr_scan", "ios": "https://dc.lft.to/lastmile_qr_scan"}, "fusion_lon": 0.0}, {"lat": 38.9026605, "is_disabled": 0, "type": "electric_scooter", "lon": -77.01791383333334, "bike_id": "679581b253f362808e1345d4b9fdfba4", "fusion_lat": 0.0, "name": "679581b253f362808e1345d4b9fdfba4", "is_reserved": 0, "rental_uris": {"android": "https://dc.lft.to/lastmile_qr_scan", "ios": "https://dc.lft.to/lastmile_qr_scan"}, "fusion_lon": 0.0}, {"lat": 38.897489666666665, "is_disabled": 0, "type": "electric_scooter", "lon": -77.01858883333334, "bike_id": "74bfce6d936f38cdfc0665de56d78556", "fusion_lat": 0.0, "name": "74bfce6d936f38cdfc0665de56d78556", "is_reserved": 0, "rental_uris": {"android": "https://dc.lft.to/lastmile_qr_scan", "ios": "https://dc.lft.to/lastmile_qr_scan"}, "fusion_lon": 0.0}, {"lat": 38.932363333333335, "is_disabled": 0, "type": "electric_scooter", "lon": -77.03261166666667, "bike_id": "589c46de2fe061695b16bc1b2361b89b", "fusion_lat": 0.0, "name": "589c46de2fe061695b16bc1b2361b89b", "is_reserved": 0, "rental_uris": {"android": "https://dc.lft.to/lastmile_qr_scan", "ios": "https://dc.lft.to/lastmile_qr_scan"}, "fusion_lon": 0.0}, {"lat": 38.933409166666664, "is_disabled": 0, "type": "electric_scooter", "lon": -76.99303333333333, "bike_id": "48a773336df2bfeea42a5dcdf0ff054b", "fusion_lat": 0.0, "name": "48a773336df2bfeea42a5dcdf0ff054b", "is_reserved": 0, "rental_uris": {"android": "https://dc.lft.to/lastmile_qr_scan", "ios": "https://dc.lft.to/lastmile_qr_scan"}, "fusion_lon": 0.0}, {"lat": 38.91885766666667, "is_disabled": 0, "type": "electric_scooter", "lon": -77.02449833333333, "bike_id": "3ef9529b0476435193dc3f843e7b1d3f", "fusion_lat": 0.0, "name": "3ef9529b0476435193dc3f843e7b1d3f", "is_reserved": 0, "rental_uris": {"android": "https://dc.lft.to/lastmile_qr_scan", "ios": "https://dc.lft.to/lastmile_qr_scan"}, "fusion_lon": 0.0}, {"lat": 38.915605, "is_disabled": 0, "type": "electric_scooter", "lon": -77.020464, "bike_id": "912f497eb9448f08710e7c0b2fe56e9d", "fusion_lat": 0.0, "name": "912f497eb9448f08710e7c0b2fe56e9d", "is_reserved": 0, "rental_uris": {"android": "https://dc.lft.to/lastmile_qr_scan", "ios": "https://dc.lft.to/lastmile_qr_scan"}, "fusion_lon": 0.0}, {"lat": 38.92538966666667, "is_disabled": 0, "type": "electric_scooter", "lon": -77.052451, "bike_id": "41a05a7525532dda89378bbf985ef74b", "fusion_lat": 0.0, "name": "41a05a7525532dda89378bbf985ef74b", "is_reserved": 0, "rental_uris": {"android": "https://dc.lft.to/lastmile_qr_scan", "ios": "https://dc.lft.to/lastmile_qr_scan"}, "fusion_lon": 0.0}, {"lat": 38.91668766666667, "is_disabled": 0, "type": "electric_scooter", "lon": -77.04377583333333, "bike_id": "dfb7ee5de1bdfad497ac943dd2572f6e", "fusion_lat": 0.0, "name": "dfb7ee5de1bdfad497ac943dd2572f6e", "is_reserved": 0, "rental_uris": {"android": "https://dc.lft.to/lastmile_qr_scan", "ios": "https://dc.lft.to/lastmile_qr_scan"}, "fusion_lon": 0.0}, {"lat": 38.929712333333335, "is_disabled": 0, "type": "electric_scooter", "lon": -77.02788083333333, "bike_id": "da1889a956582e8a2b40c9381d74e77a", "fusion_lat": 0.0, "name": "da1889a956582e8a2b40c9381d74e77a", "is_reserved": 0, "rental_uris": {"android": "https://dc.lft.to/lastmile_qr_scan", "ios": "https://dc.lft.to/lastmile_qr_scan"}, "fusion_lon": 0.0}, {"lat": 38.93960833333333, "is_disabled": 0, "type": "electric_scooter", "lon": -77.02750666666667, "bike_id": "917394db41ab3c73f411dcdad1c40b98", "fusion_lat": 0.0, "name": "917394db41ab3c73f411dcdad1c40b98", "is_reserved": 0, "rental_uris": {"android": "https://dc.lft.to/lastmile_qr_scan", "ios": "https://dc.lft.to/lastmile_qr_scan"}, "fusion_lon": 0.0}, {"lat": 38.900568166666666, "is_disabled": 0, "type": "electric_scooter", "lon": -77.02592216666666, "bike_id": "764586da65845fcc08d60dbd265f3bd0", "fusion_lat": 0.0, "name": "764586da65845fcc08d60dbd265f3bd0", "is_reserved": 0, "rental_uris": {"android": "https://dc.lft.to/lastmile_qr_scan", "ios": "https://dc.lft.to/lastmile_qr_scan"}, "fusion_lon": 0.0}, {"lat": 38.89853866666667, "is_disabled": 0, "type": "electric_scooter", "lon": -77.02915566666667, "bike_id": "e68062d0d68957f91815ecaa6f86e1dc", "fusion_lat": 0.0, "name": "e68062d0d68957f91815ecaa6f86e1dc", "is_reserved": 0, "rental_uris": {"android": "https://dc.lft.to/lastmile_qr_scan", "ios": "https://dc.lft.to/lastmile_qr_scan"}, "fusion_lon": 0.0}, {"lat": 38.927559, "is_disabled": 0, "type": "electric_scooter", "lon": -77.005907, "bike_id": "1110866edb8475471faa786b143cc76f", "fusion_lat": 0.0, "name": "1110866edb8475471faa786b143cc76f", "is_reserved": 0, "rental_uris": {"android": "https://dc.lft.to/lastmile_qr_scan", "ios": "https://dc.lft.to/lastmile_qr_scan"}, "fusion_lon": 0.0}, {"lat": 38.884928333333335, "is_disabled": 0, "type": "electric_scooter", "lon": -77.00722166666667, "bike_id": "a59e0ce363236c60355b8c6c315ef837", "fusion_lat": 0.0, "name": "a59e0ce363236c60355b8c6c315ef837", "is_reserved": 0, "rental_uris": {"android": "https://dc.lft.to/lastmile_qr_scan", "ios": "https://dc.lft.to/lastmile_qr_scan"}, "fusion_lon": 0.0}, {"lat": 38.906879333333336, "is_disabled": 0, "type": "electric_scooter", "lon": -77.03524966666667, "bike_id": "5dc15107a91596832a03bca38c5462cc", "fusion_lat": 0.0, "name": "5dc15107a91596832a03bca38c5462cc", "is_reserved": 0, "rental_uris": {"android": "https://dc.lft.to/lastmile_qr_scan", "ios": "https://dc.lft.to/lastmile_qr_scan"}, "fusion_lon": 0.0}, {"lat": 38.9001095, "is_disabled": 0, "type": "electric_scooter", "lon": -76.92233416666667, "bike_id": "cb9ecc66da3cea199b859f182468019d", "fusion_lat": 0.0, "name": "cb9ecc66da3cea199b859f182468019d", "is_reserved": 0, "rental_uris": {"android": "https://dc.lft.to/lastmile_qr_scan", "ios": "https://dc.lft.to/lastmile_qr_scan"}, "fusion_lon": 0.0}, {"lat": 38.92342433333334, "is_disabled": 0, "type": "electric_scooter", "lon": -77.0517185, "bike_id": "146638aaf737e815158127c062d01509", "fusion_lat": 0.0, "name": "146638aaf737e815158127c062d01509", "is_reserved": 0, "rental_uris": {"android": "https://dc.lft.to/lastmile_qr_scan", "ios": "https://dc.lft.to/lastmile_qr_scan"}, "fusion_lon": 0.0}, {"lat": 38.93134166666667, "is_disabled": 0, "type": "electric_scooter", "lon": -77.02149816666666, "bike_id": "18635ff3ed58d69534e1ecd0749de0a7", "fusion_lat": 0.0, "name": "18635ff3ed58d69534e1ecd0749de0a7", "is_reserved": 0, "rental_uris": {"android": "https://dc.lft.to/lastmile_qr_scan", "ios": "https://dc.lft.to/lastmile_qr_scan"}, "fusion_lon": 0.0},