{"data": {"bikes": [{"bike_id": "2f7a3cac5febc5ce05e6279129c25bbb", "is_reserved": 0, "fusion_lon": 0.0, "lat": 38.915547833333335, "is_disabled": 0, "name": "2f7a3cac5febc5ce05e6279129c25bbb", "fusion_lat": 0.0, "rental_uris": {"ios": "https://dc.lft.to/lastmile_qr_scan", "android": "https://dc.lft.to/lastmile_qr_scan"}, "lon": -77.01413016666666, "type": "electric_scooter"}, {"bike_id": "0172e8cf5990f5bc3c260d767c549b4d", "is_reserved": 0, "fusion_lon": 0.0, "lat": 38.869237166666665, "is_disabled": 0, "name": "0172e8cf5990f5bc3c260d767c549b4d", "fusion_lat": 0.0, "rental_uris": {"ios": "https://dc.lft.to/lastmile_qr_scan", "android": "https://dc.lft.to/lastmile_qr_scan"}, "lon": -76.983063, "type": "electric_scooter"}, {"bike_id": "f715aca1ef896fd1a9e028086ba97a9f", "is_reserved": 0, "fusion_lon": 0.0, "lat": 38.903999, "is_disabled": 0, "name": "f715aca1ef896fd1a9e028086ba97a9f", "fusion_lat": 0.0, "rental_uris": {"ios": "https://dc.lft.to/lastmile_qr_scan", "android": "https://dc.lft.to/lastmile_qr_scan"}, "lon": -77.036257, "type": "electric_scooter"}, {"bike_id": "9a7f9ad5112868cffe336b0ea856d3e8", "is_reserved": 0, "fusion_lon": 0.0, "lat": 38.88874716666667, "is_disabled": 0, "name": "9a7f9ad5112868cffe336b0ea856d3e8", "fusion_lat": 0.0, "rental_uris": {"ios": "https://dc.lft.to/lastmile_qr_scan", "android": "https://dc.lft.to/lastmile_qr_scan"}, "lon": -76.99039616666667, "type": "electric_scooter"}, {"bike_id": "987679e293fbd72e488b4d1a2dcdcccb", "is_reserved": 0, "fusion_lon": 0.0, "lat": 38.87213066666666, "is_disabled": 0, "name": "987679e293fbd72e488b4d1a2dcdcccb", "fusion_lat": 0.0, "rental_uris": {"ios": "https://dc.lft.to/lastmile_qr_scan", "android": "https://dc.lft.to/lastmile_qr_scan"}, "lon": -77.00573633333333, "type": "electric_scooter"}, {"bike_id": "6f98788db4e4404226180cc6c1405474", "is_reserved": 0, "fusion_lon": 0.0, "lat": 38.91773516666667, "is_disabled": 0, "name": "6f98788db4e4404226180cc6c1405474", "fusion_lat": 0.0, "rental_uris": {"ios": "https://dc.lft.to/lastmile_qr_scan", "android": "https://dc.lft.to/lastmile_qr_scan"}, "lon": -77.04056083333333, "type": "electric_scooter"}, {"bike_id": "4bae380364f54e66f8b65a5dd0506928", "is_reserved": 0, "fusion_lon": 0.0, "lat": 38.89295933333333, "is_disabled": 0, "name": "4bae380364f54e66f8b65a5dd0506928", "fusion_lat": 0.0, "rental_uris": {"ios": "https://dc.lft.to/lastmile_qr_scan", "android": "https://dc.lft.to/lastmile_qr_scan"}, "lon": -77.01232583333334, "type": "electric_scooter"}, {"bike_id": "e4c37f2d6718afbeb78ac0f2120c3951", "is_reserved": 0, "fusion_lon": 0.0, "lat": 38.921205, "is_disabled": 0, "name": "e4c37f2d6718afbeb78ac0f2120c3951", "fusion_lat": 0.0, "rental_uris": {"ios": "https://dc.lft.to/lastmile_qr_scan", "android": "https://dc.lft.to/lastmile_qr_scan"}, "lon": -77.04590433333334, "type": "electric_scooter"}, {"bike_id": "6388a539ebcd3b42fd6ec9626feecf0d", "is_reserved": 0, "fusion_lon": 0.0, "lat": 38.84425183333333, "is_disabled": 0, "name": "6388a539ebcd3b42fd6ec9626feecf0d", "fusion_lat": 0.0, "rental_uris": {"ios": "https://dc.lft.to/lastmile_qr_scan", "android": "https://dc.lft.to/lastmile_qr_scan"}, "lon": -76.99780666666666, "type": "electric_scooter"}, {"bike_id": "f7d84359276d05997f291f75358ed431", "is_reserved": 0, "fusion_lon": 0.0, "lat": 38.917849333333336, "is_disabled": 0, "name": "f7d84359276d05997f291f75358ed431", "fusion_lat": 0.0, "rental_uris": {"ios": "https://dc.lft.to/lastmile_qr_scan", "android": "https://dc.lft.to/lastmile_qr_scan"}, "lon": -77.02692383333333, "type": "electric_scooter"}, {"bike_id": "3ff4947999201c620ca05802bc0f85a7", "is_reserved": 0, "fusion_lon": 0.0, "lat": 38.95923916666667, "is_disabled": 0, "name": "3ff4947999201c620ca05802bc0f85a7", "fusion_lat": 0.0, "rental_uris": {"ios": "https://dc.lft.to/lastmile_qr_scan", "android": "https://dc.lft.to/lastmile_qr_scan"}, "lon": -77.03326416666667, "type": "electric_scooter"}, {"bike_id": "e35309486c263719124b50d051b999d0", "is_reserved": 0, "fusion_lon": 0.0, "lat": 38.90803616666667, "is_disabled": 0, "name": "e35309486c263719124b50d051b999d0", "fusion_lat": 0.0, "rental_uris": {"ios": "https://dc.lft.to/lastmile_qr_scan", "android": "https://dc.lft.to/lastmile_qr_scan"}, "lon": -77.0344155, "type": "electric_scooter"}, {"bike_id": "16547e36fda729b53725be30deff68d8", "is_reserved": 0, "fusion_lon": 0.0, "lat": 38.865623666666664, "is_disabled": 0, "name": "16547e36fda729b53725be30deff68d8", "fusion_lat": 0.0, "rental_uris": {"ios": "https://dc.lft.to/lastmile_qr_scan", "android": "https://dc.lft.to/lastmile_qr_scan"}, "lon": -76.98949566666667, "type": "electric_scooter"}, {"bike_id": "a93eb732d255c15aed589287df6eece4", "is_reserved": 0, "fusion_lon": 0.0, "lat": 38.90389666666667, "is_disabled": 0, "name": "a93eb732d255c15aed589287df6eece4", "fusion_lat": 0.0, "rental_uris": {"ios": "https://dc.lft.to/lastmile_qr_scan", "android": "https://dc.lft.to/lastmile_qr_scan"}, "lon": -77.04378333333334, "type": "electric_scooter"}, {"bike_id": "a1594e991b6233468c665d4ba406c87e", "is_reserved": 0, "fusion_lon": 0.0, "lat": 38.916785833333336, "is_disabled": 0, "name": "a1594e991b6233468c665d4ba406c87e", "fusion_lat": 0.0, "rental_uris": {"ios": "https://dc.lft.to/lastmile_qr_scan", "android": "https://dc.lft.to/lastmile_qr_scan"}, "lon": -77.02948583333334, "type": "electric_scooter"}, {"bike_id": "3d5b31d5af68ea832c52d4ee02297571", "is_reserved": 0, "fusion_lon": 0.0, "lat": 38.903464, "is_disabled": 0, "name": "3d5b31d5af68ea832c52d4ee02297571", "fusion_lat": 0.0, "rental_uris": {"ios": "https://dc.lft.to/lastmile_qr_scan", "android": "https://dc.lft.to/lastmile_qr_scan"}, "lon": -77.03827966666667, "type": "electric_scooter"}, {"bike_id": "fe88e319df89c39bd8ab87272c51afbd", "is_reserved": 0, "fusion_lon": 0.0, "lat": 38.88504983333333, "is_disabled": 0, "name": "fe88e319df89c39bd8ab87272c51afbd", "fusion_lat": 0.0, "rental_uris": {"ios": "https://dc.lft.to/lastmile_qr_scan", "android": "https://dc.lft.to/lastmile_qr_scan"}, "lon": -77.0056885, "type": "electric_scooter"}, {"bike_id": "52a1b37d464377cda6c4416857a41ec5", "is_reserved": 0, "fusion_lon": 0.0, "lat": 38.92135366666667, "is_disabled": 0, "name": "52a1b37d464377cda6c4416857a41ec5", "fusion_lat": 0.0, "rental_uris": {"ios": "https://dc.lft.to/lastmile_qr_scan", "android": "https://dc.lft.to/lastmile_qr_scan"}, "lon": -77.0412865, "type": "electric_scooter"}, {"bike_id": "aa9be7b701e53a2703322e917c68677b", "is_reserved": 0, "fusion_lon": 0.0, "lat": 38.917329333333335, "is_disabled": 0, "name": "aa9be7b701e53a2703322e917c68677b", "fusion_lat": 0.0, "rental_uris": {"ios": "https://dc.lft.to/lastmile_qr_scan", "android": "https://dc.lft.to/lastmile_qr_scan"}, "lon": -77.00796283333334, "type": "electric_scooter"}, {"bike_id": "ee43d19812b524551d0fd01063437d4a", "is_reserved": 0, "fusion_lon": 0.0, "lat": 38.911669333333336, "is_disabled": 0, "name": "ee43d19812b524551d0fd01063437d4a", "fusion_lat": 0.0, "rental_uris": {"ios": "https://dc.lft.to/lastmile_qr_scan", "android": "https://dc.lft.to/lastmile_qr_scan"}, "lon": -77.00282533333333, "type": "electric_bike"}, {"bike_id": "998a37bb291322da8e49beacdfe82a40", "is_reserved": 0, "fusion_lon": 0.0, "lat": 38.922401666666666, "is_disabled": 0, "name": "998a37bb291322da8e49beacdfe82a40", "fusion_lat": 0.0, "rental_uris": {"ios": "https://dc.lft.to/lastmile_qr_scan", "android": "https://dc.lft.to/lastmile_qr_scan"}, "lon": -77.03088466666667, "type": "electric_scooter"}, {"bike_id": "56e48a061e26b835b63604a461eb6598", "is_reserved": 0, "fusion_lon": 0.0, "lat": 38.923714, "is_disabled": 0, "name": "56e48a061e26b835b63604a461eb6598", "fusion_lat": 0.0, "rental_uris": {"ios": "https://dc.lft.to/lastmile_qr_scan", "android": "https://dc.lft.to/lastmile_qr_scan"}, "lon": -77.05176366666667, "type": "electric_scooter"}, {"bike_id": "b967c1ed1a1a25758837bc421298b6e6", "is_reserved": 0, "fusion_lon": 0.0, "lat": 38.90784933333333, "is_disabled": 0, "name": "b967c1ed1a1a25758837bc421298b6e6", "fusion_lat": 0.0, "rental_uris": {"ios": "https://dc.lft.to/lastmile_qr_scan", "android": "https://dc.lft.to/lastmile_qr_scan"}, "lon": -77.038624, "type": "electric_scooter"}, {"bike_id": "1dc7fa356409188176e170084ee0092a", "is_reserved": 0, "fusion_lon": 0.0, "lat": 38.877319666666665, "is_disabled": 0, "name": "1dc7fa356409188176e170084ee0092a", "fusion_lat": 0.0, "rental_uris": {"ios": "https://dc.lft.to/lastmile_qr_scan", "android": "https://dc.lft.to/lastmile_qr_scan"}, "lon": -77.11848716666667, "type": "electric_bike"}, {"bike_id": "08b9e68eb1339d80bcf960c4e0d6c09e", "is_reserved": 0, "fusion_lon": 0.0, "lat": 38.902789, "is_disabled": 0, "name": "08b9e68eb1339d80bcf960c4e0d6c09e", "fusion_lat": 0.0, "rental_uris": {"ios": "https://dc.lft.to/lastmile_qr_scan", "android": "https://dc.lft.to/lastmile_qr_scan"}, "lon": -77.0392945, "type": "electric_scooter"}, {"bike_id": "296019a95695bd75bcbe77b68fb59f16", "is_reserved": 0, "fusion_lon": 0.0, "lat": 38.88398816666667, "is_disabled": 0, "name": "296019a95695bd75bcbe77b68fb59f16", "fusion_lat": 0.0, "rental_uris": {"ios": "https://dc.lft.to/lastmile_qr_scan", "android": "https://dc.lft.to/lastmile_qr_scan"}, "lon": -77.01774, "type": "electric_scooter"}, {"bike_id": "85260eebdcdb23b9fa432f8e05b88779", "is_reserved": 0, "fusion_lon": 0.0, "lat": 38.88348083333333, "is_disabled": 0, "name": "85260eebdcdb23b9fa432f8e05b88779", "fusion_lat": 0.0, "rental_uris": {"ios": "https://dc.lft.to/lastmile_qr_scan", "android": "https://dc.lft.to/lastmile_qr_scan"}, "lon": -76.98545833333333, "type": "electric_scooter"}, {"bike_id": "cded426f8f3b094702d4548fa1531944", "is_reserved": 0, "fusion_lon": 0.0, "lat": 38.928586833333334, "is_disabled": 0, "name": "cded426f8f3b094702d4548fa1531944", "fusion_lat": 0.0, "rental_uris": {"ios": "https://dc.lft.to/lastmile_qr_scan", "android": "https://dc.lft.to/lastmile_qr_scan"}, "lon": -77.03292566666667, "type": "electric_scooter"}, {"bike_id": "6880fa70af8e5d03109747d573958c89", "is_reserved": 0, "fusion_lon": 0.0, "lat": 38.902937666666666, "is_disabled": 0, "name": "6880fa70af8e5d03109747d573958c89", "fusion_lat": 0.0, "rental_uris": {"ios": "https://dc.lft.to/lastmile_qr_scan", "android": "https://dc.lft.to/lastmile_qr_scan"}, "lon": -77.034442, "type": "electric_scooter"}, {"bike_id": "be5c85dcc829b0c05550e8c58e01ae59", "is_reserved": 0, "fusion_lon": 0.0, "lat": 38.93279833333333, "is_disabled": 0, "name": "be5c85dcc829b0c05550e8c58e01ae59", "fusion_lat": 0.0, "rental_uris": {"ios": "https://dc.lft.to/lastmile_qr_scan", "android": "https://dc.lft.to/lastmile_qr_scan"}, "lon": -77.03643233333334, "type": "electric_scooter"}, {"bike_id": "a6309c72f602800a39f9a3563c2fcf4e", "is_reserved": 0, "fusion_lon": 0.0, "lat": 38.912633666666665, "is_disabled": 0, "name": "a6309c72f602800a39f9a3563c2fcf4e", "fusion_lat": 0.0, "rental_uris": {"ios": "https://dc.lft.to/lastmile_qr_scan", "android": "https://dc.lft.to/lastmile_qr_scan"}, "lon": -77.0362115, "type": "electric_scooter"}, {"bike_id": "e94dfae6df41666e6062c295f77bcc2a", "is_reserved": 0, "fusion_lon": 0.0, "lat": 38.909729, "is_disabled": 0, "name": "e94dfae6df41666e6062c295f77bcc2a", "fusion_lat": 0.0, "rental_uris": {"ios": "https://dc.lft.to/lastmile_qr_scan", "android": "https://dc.lft.to/lastmile_qr_scan"}, "lon": -77.038666, "type": "electric_scooter"}, {"bike_id": "ab6f176bcac65fff3f71297bd5ff8412", "is_reserved": 0, "fusion_lon": 0.0, "lat": 38.87923816666667, "is_disabled": 0, "name": "ab6f176bcac65fff3f71297bd5ff8412", "fusion_lat": 0.0, "rental_uris": {"ios": "https://dc.lft.to/lastmile_qr_scan", "android": "https://dc.lft.to/lastmile_qr_scan"}, "lon": -77.0134915, "type": "electric_scooter"}, {"bike_id": "7e10740dc364b7d827cefbf17deca7c4", "is_reserved": 0, "fusion_lon": 0.0, "lat": 38.895149, "is_disabled": 0, "name": "7e10740dc364b7d827cefbf17deca7c4", "fusion_lat": 0.0, "rental_uris": {"ios": "https://dc.lft.to/lastmile_qr_scan", "android": "https://dc.lft.to/lastmile_qr_scan"}, "lon": -77.04850083333334, "type": "electric_scooter"}, {"bike_id": "39d5de4d95939c0487564885592659f5", "is_reserved": 0, "fusion_lon": 0.0, "lat": 38.86203233333333, "is_disabled": 0, "name": "39d5de4d95939c0487564885592659f5", "fusion_lat": 0.0, "rental_uris": {"ios": "https://dc.lft.to/lastmile_qr_scan", "android": "https://dc.lft.to/lastmile_qr_scan"}, "lon": -76.99463866666666, "type": "electric_scooter"}, {"bike_id": "c4235c8ef1d131d3ff8596013c5a556b", "is_reserved": 0, "fusion_lon": 0.0, "lat": 38.8886085, "is_disabled": 0, "name": "c4235c8ef1d131d3ff8596013c5a556b", "fusion_lat": 0.0, "rental_uris": {"ios": "https://dc.lft.to/lastmile_qr_scan", "android": "https://dc.lft.to/lastmile_qr_scan"}, "lon": -76.99478133333334, "type": "electric_bike"}, {"bike_id": "2bae663417deac810594cdd502da78d0", "is_reserved": 0, "fusion_lon": 0.0, "lat": 38.89955283333333, "is_disabled": 0, "name": "2bae663417deac810594cdd502da78d0", "fusion_lat": 0.0, "rental_uris": {"ios": "https://dc.lft.to/lastmile_qr_scan", "android": "https://dc.lft.to/lastmile_qr_scan"}, "lon": -76.97551833333333, "type": "electric_scooter"}, {"bike_id": "4848e227bdd6c9c717b32e1eeee29e3c", "is_reserved": 0, "fusion_lon": 0.0, "lat": 38.9000255, "is_disabled": 0, "name": "4848e227bdd6c9c717b32e1eeee29e3c", "fusion_lat": 0.0, "rental_uris": {"ios": "https://dc.lft.to/lastmile_qr_scan", "android": "https://dc.lft.to/lastmile_qr_scan"}, "lon": -77.052405, "type": "electric_scooter"}, {"bike_id": "bfc0df9edaeec21fb14c9bf6917a70a0", "is_reserved": 0, "fusion_lon": 0.0, "lat": 38.9110265, "is_disabled": 0, "name": "bfc0df9edaeec21fb14c9bf6917a70a0", "fusion_lat": 0.0, "rental_uris": {"ios": "https://dc.lft.to/lastmile_qr_scan", "android": "https://dc.lft.to/lastmile_qr_scan"}, "lon": -77.04833833333333, "type": "electric_scooter"}, {"bike_id": "9b6b6e0dd4101f848791189dbad6632c", "is_reserved": 0, "fusion_lon": 0.0, "lat": 38.90032383333333, "is_disabled": 0, "name": "9b6b6e0dd4101f848791189dbad6632c", "fusion_lat": 0.0, "rental_uris": {"ios": "https://dc.lft.to/lastmile_qr_scan", "android": "https://dc.lft.to/lastmile_qr_scan"}, "lon": -76.99546483333333, "type": "electric_scooter"}, {"bike_id": "c02af44c77a4ec16217bdbc2dc6dcd85", "is_reserved": 0, "fusion_lon": 0.0, "lat": 38.89484616666667, "is_disabled": 0, "name": "c02af44c77a4ec16217bdbc2dc6dcd85", "fusion_lat": 0.0, "rental_uris": {"ios": "https://dc.lft.to/lastmile_qr_scan", "android": "https://dc.lft.to/lastmile_qr_scan"}, "lon": -76.94873733333333, "type": "electric_scooter"}, {"bike_id": "37da5fbbd89b32935cebe226c01208af", "is_reserved": 0, "fusion_lon": 0.0, "lat": 38.89225283333333, "is_disabled": 0, "name": "37da5fbbd89b32935cebe226c01208af", "fusion_lat": 0.0, "rental_uris": {"ios": "https://dc.lft.to/lastmile_qr_scan", "android": "https://dc.lft.to/lastmile_qr_scan"}, "lon": -77.04374633333333, "type": "electric_scooter"}, {"bike_id": "6407c6ce22d58ebe38096ef20fe5731e", "is_reserved": 0, "fusion_lon": 0.0, "lat": 38.8982755, "is_disabled": 0, "name": "6407c6ce22d58ebe38096ef20fe5731e", "fusion_lat": 0.0, "rental_uris": {"ios": "https://dc.lft.to/lastmile_qr_scan", "android": "https://dc.lft.to/lastmile_qr_scan"}, "lon": -76.98045616666667, "type": "electric_scooter"}, {"bike_id": "e8eb347ea06ba9b83a0051dc6c0b6503", "is_reserved": 0, "fusion_lon": 0.0, "lat": 38.88130733333333, "is_disabled": 0, "name": "e8eb347ea06ba9b83a0051dc6c0b6503", "fusion_lat": 0.0, "rental_uris": {"ios": "https://dc.lft.to/lastmile_qr_scan", "android": "https://dc.lft.to/lastmile_qr_scan"}, "lon": -77.01705866666667, "type": "electric_bike"}, {"bike_id": "6b70334343b8e38b8270f0e5d7dd63ef", "is_reserved": 0, "fusion_lon": 0.0, "lat": 38.90670466666667, "is_disabled": 0, "name": "6b70334343b8e38b8270f0e5d7dd63ef", "fusion_lat": 0.0, "rental_uris": {"ios": "https://dc.lft.to/lastmile_qr_scan", "android": "https://dc.lft.to/lastmile_qr_scan"}, "lon": -76.98786783333334, "type": "electric_scooter"}, {"bike_id": "66d08dc396846de6bacfeaf9a2c30e5c", "is_reserved": 0, "fusion_lon": 0.0, "lat": 38.9027345, "is_disabled": 0, "name": "66d08dc396846de6bacfeaf9a2c30e5c", "fusion_lat": 0.0, "rental_uris": {"ios": "https://dc.lft.to/lastmile_qr_scan", "android": "https://dc.lft.to/lastmile_qr_scan"}, "lon": -77.03263683333333, "type": "electric_scooter"}, {"bike_id": "a8fc98f1a00d72415563553d47d1a5e2", "is_reserved": 0, "fusion_lon": 0.0, "lat": 38.95882966666667, "is_disabled": 0, "name": "a8fc98f1a00d72415563553d47d1a5e2", "fusion_lat": 0.0, "rental_uris": {"ios": "https://dc.lft.to/lastmile_qr_scan", "android": "https://dc.lft.to/lastmile_qr_scan"}, "lon": -76.92483133333333, "type": "electric_bike"}, {"bike_id": "d4ffbe8640c89b5f4f8404276f3e3c79", "is_reserved": 0, "fusion_lon": 0.0, "lat": 38.92569733333333, "is_disabled": 0, "name": "d4ffbe8640c89b5f4f8404276f3e3c79", "fusion_lat": 0.0, "rental_uris": {"ios": "https://dc.lft.to/lastmile_qr_scan", "android": "https://dc.lft.to/lastmile_qr_scan"}, "lon": -77.03102166666666, "type": "electric_scooter"}, {"bike_id": "6b8afa2db748de62f3026e2691bd7b36", "is_reserved": 0, "fusion_lon": 0.0, "lat": 38.919128666666666, "is_disabled": 0, "name": "6b8afa2db748de62f3026e2691bd7b36", "fusion_lat": 0.0, "rental_uris": {"ios": "https://dc.lft.to/lastmile_qr_scan", "android": "https://dc.lft.to/lastmile_qr_scan"}, "lon": -77.032024, "type": "electric_scooter"}, {"bike_id": "36cfdfc160a24de2d129c200e332ec7b", "is_reserved": 0, "fusion_lon": 0.0, "lat": 38.918415, "is_disabled": 0, "name": "36cfdfc160a24de2d129c200e332ec7b", "fusion_lat": 0.0, "rental_uris": {"ios": "https://dc.lft.to/lastmile_qr_scan", "android": "https://dc.lft.to/lastmile_qr_scan"}, "lon": -77.0228765, "type": "electric_scooter"}, {"bike_id": "1862008005d900ef0834d62af3ddc3a3", "is_reserved": 0, "fusion_lon": 0.0, "lat": 38.87549816666667, "is_disabled": 0, "name": "1862008005d900ef0834d62af3ddc3a3", "fusion_lat": 0.0, "rental_uris": {"ios": "https://dc.lft.to/lastmile_qr_scan", "android": "https://dc.lft.to/lastmile_qr_scan"}, "lon": -76.964905, "type": "electric_scooter"}, {"bike_id": "22701644425cafb5540324b4a9dde28f", "is_reserved": 0, "fusion_lon": 0.0, "lat": 38.9103705, "is_disabled": 0, "name": "22701644425cafb5540324b4a9dde28f", "fusion_lat": 0.0, "rental_uris": {"ios": "https://dc.lft.to/lastmile_qr_scan", "android": "https://dc.lft.to/lastmile_qr_scan"}, "lon": -77.04388133333333, "type": "electric_scooter"}, {"bike_id": "bdea9699c5c04d6ce54bf1b9d5c5152b", "is_reserved": 0, "fusion_lon": 0.0, "lat": 38.90479883333333, "is_disabled": 0, "name": "bdea9699c5c04d6ce54bf1b9d5c5152b", "fusion_lat": 0.0, "rental_uris": {"ios": "https://dc.lft.to/lastmile_qr_scan", "android": "https://dc.lft.to/lastmile_qr_scan"}, "lon": -77.04865333333333, "type": "electric_scooter"}, {"bike_id": "1cc20cbcb950bb9e6ef3af6c13f84945", "is_reserved": 0, "fusion_lon": 0.0, "lat": 38.922634333333335, "is_disabled": 0, "name": "1cc20cbcb950bb9e6ef3af6c13f84945", "fusion_lat": 0.0, "rental_uris": {"ios": "https://dc.lft.to/lastmile_qr_scan", "android": "https://dc.lft.to/lastmile_qr_scan"}, "lon": -77.0183295, "type": "electric_scooter"}, {"bike_id": "72b4dfe21f0d42c94c84e62e35125769", "is_reserved": 0, "fusion_lon": 0.0, "lat": 38.898444833333336, "is_disabled": 0, "name": "72b4dfe21f0d42c94c84e62e35125769", "fusion_lat": 0.0, "rental_uris": {"ios": "https://dc.lft.to/lastmile_qr_scan", "android": "https://dc.lft.to/lastmile_qr_scan"}, "lon": -77.03336066666667, "type": "electric_scooter"}, {"bike_id": "4047990764cd24c59e238678b9553a81", "is_reserved": 0, "fusion_lon": 0.0, "lat": 38.9192905, "is_disabled": 0, "name": "4047990764cd24c59e238678b9553a81", "fusion_lat": 0.0, "rental_uris": {"ios": "https://dc.lft.to/lastmile_qr_scan", "android": "https://dc.lft.to/lastmile_qr_scan"}, "lon": -77.03182666666666, "type": "electric_scooter"}, {"bike_id": "afa6457dac626f5efd82ef99608d3d8d", "is_reserved": 0, "fusion_lon": 0.0, "lat": 38.842972, "is_disabled": 0, "name": "afa6457dac626f5efd82ef99608d3d8d", "fusion_lat": 0.0, "rental_uris": {"ios": "https://dc.lft.to/lastmile_qr_scan", "android": "https://dc.lft.to/lastmile_qr_scan"}, "lon": -76.99950366666667, "type": "electric_scooter"}, {"bike_id": "470d02a12eefb82fe041ce12c46f12f3", "is_reserved": 0, "fusion_lon": 0.0, "lat": 38.87838266666667, "is_disabled": 0, "name": "470d02a12eefb82fe041ce12c46f12f3", "fusion_lat": 0.0, "rental_uris": {"ios": "https://dc.lft.to/lastmile_qr_scan", "android": "https://dc.lft.to/lastmile_qr_scan"}, "lon": -76.99037083333333, "type": "electric_scooter"}, {"bike_id": "2d1e5d996923535bba80666eecd50341", "is_reserved": 0, "fusion_lon": 0.0, "lat": 38.9417535, "is_disabled": 0, "name": "2d1e5d996923535bba80666eecd50341", "fusion_lat": 0.0, "rental_uris": {"ios": "https://dc.lft.to/lastmile_qr_scan", "android": "https://dc.lft.to/lastmile_qr_scan"}, "lon": -77.025051, "type": "electric_scooter"}, {"bike_id": "0cc750ca82d159c7faa32de48fcb34f0", "is_reserved": 0, "fusion_lon": 0.0, "lat": 38.905717, "is_disabled": 0, "name": "0cc750ca82d159c7faa32de48fcb34f0", "fusion_lat": 0.0, "rental_uris": {"ios": "https://dc.lft.to/lastmile_qr_scan", "android": "https://dc.lft.to/lastmile_qr_scan"}, "lon": -77.022056, "type": "electric_scooter"}, {"bike_id": "eef55e51ffee6be27ed7b31551220176", "is_reserved": 0, "fusion_lon": 0.0, "lat": 38.90775083333333, "is_disabled": 0, "name": "eef55e51ffee6be27ed7b31551220176", "fusion_lat": 0.0, "rental_uris": {"ios": "https://dc.lft.to/lastmile_qr_scan", "android": "https://dc.lft.to/lastmile_qr_scan"}, "lon": -77.06925433333333, "type": "electric_scooter"}, {"bike_id": "4fba685c5ccb33e21f861bade3a4f3d0", "is_reserved": 0, "fusion_lon": 0.0, "lat": 38.87629483333333, "is_disabled": 0, "name": "4fba685c5ccb33e21f861bade3a4f3d0", "fusion_lat": 0.0, "rental_uris": {"ios": "https://dc.lft.to/lastmile_qr_scan", "android": "https://dc.lft.to/lastmile_qr_scan"}, "lon": -76.9652795, "type": "electric_scooter"}, {"bike_id": "54bb38c37dd2cb7246da29d34d3fa1dc", "is_reserved": 0, "fusion_lon": 0.0, "lat": 38.904523833333336, "is_disabled": 0, "name": "54bb38c37dd2cb7246da29d34d3fa1dc", "fusion_lat": 0.0, "rental_uris": {"ios": "https://dc.lft.to/lastmile_qr_scan", "android": "https://dc.lft.to/lastmile_qr_scan"}, "lon": -76.9962575, "type": "electric_scooter"}, {"bike_id": "c39c1d57ab9f78f1193b4c1125460e2e", "is_reserved": 0, "fusion_lon": 0.0, "lat": 38.9162865, "is_disabled": 0, "name": "c39c1d57ab9f78f1193b4c1125460e2e", "fusion_lat": 0.0, "rental_uris": {"ios": "https://dc.lft.to/lastmile_qr_scan", "android": "https://dc.lft.to/lastmile_qr_scan"}, "lon": -77.03166983333334, "type": "electric_scooter"}, {"bike_id": "35eedc1aa2da34a1368df66e64d16f3b", "is_reserved": 0, "fusion_lon": 0.0, "lat": 38.903015, "is_disabled": 0, "name": "35eedc1aa2da34a1368df66e64d16f3b", "fusion_lat": 0.0, "rental_uris": {"ios": "https://dc.lft.to/lastmile_qr_scan", "android": "https://dc.lft.to/lastmile_qr_scan"}, "lon": -76.998637, "type": "electric_scooter"}, {"bike_id": "4f8929fc0d525e7598825394727d7953", "is_reserved": 0, "fusion_lon": 0.0, "lat": 38.94176616666667, "is_disabled": 0, "name": "4f8929fc0d525e7598825394727d7953", "fusion_lat": 0.0, "rental_uris": {"ios": "https://dc.lft.to/lastmile_qr_scan", "android": "https://dc.lft.to/lastmile_qr_scan"}, "lon": -77.04134783333333, "type": "electric_scooter"}, {"bike_id": "c4f8800cb43b80ee2321909f0c12a295", "is_reserved": 0, "fusion_lon": 0.0, "lat": 38.92898783333333, "is_disabled": 0, "name": "c4f8800cb43b80ee2321909f0c12a295", "fusion_lat": 0.0, "rental_uris": {"ios": "https://dc.lft.to/lastmile_qr_scan", "android": "https://dc.lft.to/lastmile_qr_scan"}, "lon": -77.05457783333334, "type": "electric_scooter"}, {"bike_id": "d81af4074dfe10befe719d5c36683ad3", "is_reserved": 0, "fusion_lon": 0.0, "lat": 38.903759666666666, "is_disabled": 0, "name": "d81af4074dfe10befe719d5c36683ad3", "fusion_lat": 0.0, "rental_uris": {"ios": "https://dc.lft.to/lastmile_qr_scan", "android": "https://dc.lft.to/lastmile_qr_scan"}, "lon": -77.01106066666667, "type": "electric_scooter"}, {"bike_id": "393c0fdbbbf29cfac402192bba27816a", "is_reserved": 0, "fusion_lon": 0.0, "lat": 38.89878616666667, "is_disabled": 0, "name": "393c0fdbbbf29cfac402192bba27816a", "fusion_lat": 0.0, "rental_uris": {"ios": "https://dc.lft.to/lastmile_qr_scan", "android": "https://dc.lft.to/lastmile_qr_scan"}, "lon": -76.931599, "type": "electric_scooter"}, {"bike_id": "3b0af15816d73d6a2407d2c4daebf52f", "is_reserved": 0, "fusion_lon": 0.0, "lat": 38.95731516666667, "is_disabled": 0, "name": "3b0af15816d73d6a2407d2c4daebf52f", "fusion_lat": 0.0, "rental_uris": {"ios": "https://dc.lft.to/lastmile_qr_scan", "android": "https://dc.lft.to/lastmile_qr_scan"}, "lon": -76.980189, "type": "electric_bike"}, {"bike_id": "3b8f7779758234f0c7949baacaaa846b", "is_reserved": 0, "fusion_lon": 0.0, "lat": 38.921439, "is_disabled": 0, "name": "3b8f7779758234f0c7949baacaaa846b", "fusion_lat": 0.0, "rental_uris": {"ios": "https://dc.lft.to/lastmile_qr_scan", "android": "https://dc.lft.to/lastmile_qr_scan"}, "lon": -77.03490166666667, "type": "electric_scooter"}, {"bike_id": "487bdf99f34ecc4932c4447f4832121b", "is_reserved": 0, "fusion_lon": 0.0, "lat": 38.906733833333334, "is_disabled": 0, "name": "487bdf99f34ecc4932c4447f4832121b", "fusion_lat": 0.0, "rental_uris": {"ios": "https://dc.lft.to/lastmile_qr_scan", "android": "https://dc.lft.to/lastmile_qr_scan"}, "lon": -77.0626705, "type": "electric_bike"}, {"bike_id": "9964afb432fa929e08620d5829a515d6", "is_reserved": 0, "fusion_lon": 0.0, "lat": 38.90564033333333, "is_disabled": 0, "name": "9964afb432fa929e08620d5829a515d6", "fusion_lat": 0.0, "rental_uris": {"ios": "https://dc.lft.to/lastmile_qr_scan", "android": "https://dc.lft.to/lastmile_qr_scan"}, "lon": -77.00586066666666, "type": "electric_scooter"}, {"bike_id": "5bb403aacb25115de2ba01e427694f1d", "is_reserved": 0, "fusion_lon": 0.0, "lat": 38.90339383333333, "is_disabled": 0, "name": "5bb403aacb25115de2ba01e427694f1d", "fusion_lat": 0.0, "rental_uris": {"ios": "https://dc.lft.to/lastmile_qr_scan", "android": "https://dc.lft.to/lastmile_qr_scan"}, "lon": -77.06657833333334, "type": "electric_scooter"}, {"bike_id": "c105a2204416321aa7845c25872fe10e", "is_reserved": 0, "fusion_lon": 0.0, "lat": 38.863875666666665, "is_disabled": 0, "name": "c105a2204416321aa7845c25872fe10e", "fusion_lat": 0.0, "rental_uris": {"ios": "https://dc.lft.to/lastmile_qr_scan", "android": "https://dc.lft.to/lastmile_qr_scan"}, "lon": -76.98990516666667, "type": "electric_bike"}, {"bike_id": "24f3d8bca2fefee3543be997c5d7c8ad", "is_reserved": 0, "fusion_lon": 0.0, "lat": 38.99819633333333, "is_disabled": 0, "name": "24f3d8bca2fefee3543be997c5d7c8ad", "fusion_lat": 0.0, "rental_uris": {"ios": "https://dc.lft.to/lastmile_qr_scan", "android": "https://dc.lft.to/lastmile_qr_scan"}, "lon": -76.8837295, "type": "electric_bike"}, {"bike_id": "ca7dae5dc29f9321de4926239bd36933", "is_reserved": 0, "fusion_lon": 0.0, "lat": 38.916867833333335, "is_disabled": 0, "name": "ca7dae5dc29f9321de4926239bd36933", "fusion_lat": 0.0, "rental_uris": {"ios": "https://dc.lft.to/lastmile_qr_scan", "android": "https://dc.lft.to/lastmile_qr_scan"}, "lon": -77.0121835, "type": "electric_scooter"}, {"bike_id": "decf955deb9eb8ab3559fa770003ada0", "is_reserved": 0, "fusion_lon": 0.0, "lat": 38.8070865, "is_disabled": 0, "name": "decf955deb9eb8ab3559fa770003ada0", "fusion_lat": 0.0, "rental_uris": {"ios": "https://dc.lft.to/lastmile_qr_scan", "android": "https://dc.lft.to/lastmile_qr_scan"}, "lon": -77.06170733333333, "type": "electric_bike"}, {"bike_id": "649981b120bcfccca296dd918c0bc8bb", "is_reserved": 0, "fusion_lon": 0.0, "lat": 38.90732333333333, "is_disabled": 0, "name": "649981b120bcfccca296dd918c0bc8bb", "fusion_lat": 0.0, "rental_uris": {"ios": "https://dc.lft.to/lastmile_qr_scan", "android": "https://dc.lft.to/lastmile_qr_scan"}, "lon": -77.03452283333333, "type": "electric_scooter"}, {"bike_id": "0b7bc10cf20c38cb007873e2fa4764ae", "is_reserved": 0, "fusion_lon": 0.0, "lat": 38.948353833333336, "is_disabled": 0, "name": "0b7bc10cf20c38cb007873e2fa4764ae", "fusion_lat": 0.0, "rental_uris": {"ios": "https://dc.lft.to/lastmile_qr_scan", "android": "https://dc.lft.to/lastmile_qr_scan"}, "lon": -77.03900116666667, "type": "electric_bike"}, {"bike_id": "f7f0704dc64ac0da0858d6bdb7d047e9", "is_reserved": 0, "fusion_lon": 0.0, "lat": 38.91215533333333, "is_disabled": 0, "name": "f7f0704dc64ac0da0858d6bdb7d047e9", "fusion_lat": 0.0, "rental_uris": {"ios": "https://dc.lft.to/lastmile_qr_scan", "android": "https://dc.lft.to/lastmile_qr_scan"}, "lon": -77.075992, "type": "electric_scooter"}, {"bike_id": "96d233255e17c257cfee68a779f8b6ee", "is_reserved": 0, "fusion_lon": 0.0, "lat": 38.89471283333334, "is_disabled": 0, "name": "96d233255e17c257cfee68a779f8b6ee", "fusion_lat": 0.0, "rental_uris": {"ios": "https://dc.lft.to/lastmile_qr_scan", "android": "https://dc.lft.to/lastmile_qr_scan"}, "lon": -77.03054616666667, "type": "electric_scooter"}, {"bike_id": "061c507c1974864882c3b9bd38a52de9", "is_reserved": 0, "fusion_lon": 0.0, "lat": 38.8750775, "is_disabled": 0, "name": "061c507c1974864882c3b9bd38a52de9", "fusion_lat": 0.0, "rental_uris": {"ios": "https://dc.lft.to/lastmile_qr_scan", "android": "https://dc.lft.to/lastmile_qr_scan"}, "lon": -77.00246866666667, "type": "electric_scooter"}, {"bike_id": "ee2feb9abc05f1950a6a0cf72be12907", "is_reserved": 0, "fusion_lon": 0.0, "lat": 38.92218416666667, "is_disabled": 0, "name": "ee2feb9abc05f1950a6a0cf72be12907", "fusion_lat": 0.0, "rental_uris": {"ios": "https://dc.lft.to/lastmile_qr_scan", "android": "https://dc.lft.to/lastmile_qr_scan"}, "lon": -77.04259116666667, "type": "electric_scooter"}, {"bike_id": "bd9afa906278ba62055b9bc2941b6dc4", "is_reserved": 0, "fusion_lon": 0.0, "lat": 38.89223066666667, "is_disabled": 0, "name": "bd9afa906278ba62055b9bc2941b6dc4", "fusion_lat": 0.0, "rental_uris": {"ios": "https://dc.lft.to/lastmile_qr_scan", "android": "https://dc.lft.to/lastmile_qr_scan"}, "lon": -77.03163416666666, "type": "electric_scooter"}, {"bike_id": "571e77982f78f5d330792af6e5638c77", "is_reserved": 0, "fusion_lon": 0.0, "lat": 38.9003995, "is_disabled": 0, "name": "571e77982f78f5d330792af6e5638c77", "fusion_lat": 0.0, "rental_uris": {"ios": "https://dc.lft.to/lastmile_qr_scan", "android": "https://dc.lft.to/lastmile_qr_scan"}, "lon": -77.00537266666667, "type": "electric_scooter"}, {"bike_id": "31d2bf86c4e0dc847c007d7f77d13067", "is_reserved": 0, "fusion_lon": 0.0, "lat": 38.909709666666664, "is_disabled": 0, "name": "31d2bf86c4e0dc847c007d7f77d13067", "fusion_lat": 0.0, "rental_uris": {"ios": "https://dc.lft.to/lastmile_qr_scan", "android": "https://dc.lft.to/lastmile_qr_scan"}, "lon": -77.04877766666667, "type": "electric_scooter"}, {"bike_id": "bc2881cee26efecb44de0ed2741036cd", "is_reserved": 0, "fusion_lon": 0.0, "lat": 38.884316, "is_disabled": 0, "name": "bc2881cee26efecb44de0ed2741036cd", "fusion_lat": 0.0, "rental_uris": {"ios": "https://dc.lft.to/lastmile_qr_scan", "android": "https://dc.lft.to/lastmile_qr_scan"}, "lon": -76.9575955, "type": "electric_scooter"}, {"bike_id": "3e119557973eee5e0db4c3c75f71e584", "is_reserved": 0, "fusion_lon": 0.0, "lat": 38.931480666666666, "is_disabled": 0, "name": "3e119557973eee5e0db4c3c75f71e584", "fusion_lat": 0.0, "rental_uris": {"ios": "https://dc.lft.to/lastmile_qr_scan", "android": "https://dc.lft.to/lastmile_qr_scan"}, "lon": -77.05710366666666, "type": "electric_scooter"}, {"bike_id": "1eb59524fb5f02a54be104093faacc82", "is_reserved": 0, "fusion_lon": 0.0, "lat": 38.912165, "is_disabled": 0, "name": "1eb59524fb5f02a54be104093faacc82", "fusion_lat": 0.0, "rental_uris": {"ios": "https://dc.lft.to/lastmile_qr_scan", "android": "https://dc.lft.to/lastmile_qr_scan"}, "lon": -77.028036, "type": "electric_scooter"}, {"bike_id": "04cf4687003c3c7a399566fbdb9ebedc", "is_reserved": 0, "fusion_lon": 0.0, "lat": 38.89831916666667, "is_disabled": 0, "name": "04cf4687003c3c7a399566fbdb9ebedc", "fusion_lat": 0.0, "rental_uris": {"ios": "https://dc.lft.to/lastmile_qr_scan", "android": "https://dc.lft.to/lastmile_qr_scan"}, "lon": -76.9463485, "type": "electric_scooter"}, {"bike_id": "01b3b9c2cf8e9fbd3a68566cd778399b", "is_reserved": 0, "fusion_lon": 0.0, "lat": 38.9177405, "is_disabled": 0, "name": "01b3b9c2cf8e9fbd3a68566cd778399b", "fusion_lat": 0.0, "rental_uris": {"ios": "https://dc.lft.to/lastmile_qr_scan", "android": "https://dc.lft.to/lastmile_qr_scan"}, "lon": -77.0149325, "type": "electric_scooter"}, {"bike_id": "7603e572228f4d7a745319377e6c220b", "is_reserved": 0, "fusion_lon": 0.0, "lat": 38.89909433333333, "is_disabled": 0, "name": "7603e572228f4d7a745319377e6c220b", "fusion_lat": 0.0, "rental_uris": {"ios": "https://dc.lft.to/lastmile_qr_scan", "android": "https://dc.lft.to/lastmile_qr_scan"}, "lon": -77.0391205, "type": "electric_scooter"}, {"bike_id": "6df848bcc7442b0a5b3c4b78a11f1bee", "is_reserved": 0, "fusion_lon": 0.0, "lat": 38.866626, "is_disabled": 0, "name": "6df848bcc7442b0a5b3c4b78a11f1bee", "fusion_lat": 0.0, "rental_uris": {"ios": "https://dc.lft.to/lastmile_qr_scan", "android": "https://dc.lft.to/lastmile_qr_scan"}, "lon": -76.989042, "type": "electric_scooter"}, {"bike_id": "660b0ec6916f05ca519172807553e928", "is_reserved": 0, "fusion_lon": 0.0, "lat": 38.931175333333336, "is_disabled": 0, "name": "660b0ec6916f05ca519172807553e928", "fusion_lat": 0.0, "rental_uris": {"ios": "https://dc.lft.to/lastmile_qr_scan", "android": "https://dc.lft.to/lastmile_qr_scan"}, "lon": -77.02132216666666, "type": "electric_scooter"}, {"bike_id": "57286e4996ae5adbf7d4075997ad2f04", "is_reserved": 0, "fusion_lon": 0.0, "lat": 38.91875783333333, "is_disabled": 0, "name": "57286e4996ae5adbf7d4075997ad2f04", "fusion_lat": 0.0, "rental_uris": {"ios": "https://dc.lft.to/lastmile_qr_scan", "android": "https://dc.lft.to/lastmile_qr_scan"}, "lon": -77.04457233333333, "type": "electric_scooter"}, {"bike_id": "76045b9815b26ac59e1f5bab0274a448", "is_reserved": 0, "fusion_lon": 0.0, "lat": 38.96495816666667, "is_disabled": 0, "name": "76045b9815b26ac59e1f5bab0274a448", "fusion_lat": 0.0, "rental_uris": {"ios": "https://dc.lft.to/lastmile_qr_scan", "android": "https://dc.lft.to/lastmile_qr_scan"}, "lon": -77.0649295, "type": "electric_bike"}, {"bike_id": "73ed6db99f0573fe841f78ea8605f333", "is_reserved": 0, "fusion_lon": 0.0, "lat": 38.92314416666667, "is_disabled": 0, "name": "73ed6db99f0573fe841f78ea8605f333", "fusion_lat": 0.0, "rental_uris": {"ios": "https://dc.lft.to/lastmile_qr_scan", "android": "https://dc.lft.to/lastmile_qr_scan"}, "lon": -77.03661383333333, "type": "electric_scooter"}, {"bike_id": "8d0820a044f1d9300694477eed178661", "is_reserved": 0, "fusion_lon": 0.0, "lat": 38.8906185, "is_disabled": 0, "name": "8d0820a044f1d9300694477eed178661", "fusion_lat": 0.0, "rental_uris": {"ios": "https://dc.lft.to/lastmile_qr_scan", "android": "https://dc.lft.to/lastmile_qr_scan"}, "lon": -77.02304166666667, "type": "electric_scooter"}, {"bike_id": "ca057f3c9ce2874e46b38f5a92d96d3a", "is_reserved": 0, "fusion_lon": 0.0, "lat": 38.88492016666667, "is_disabled": 0, "name": "ca057f3c9ce2874e46b38f5a92d96d3a", "fusion_lat": 0.0, "rental_uris": {"ios": "https://dc.lft.to/lastmile_qr_scan", "android": "https://dc.lft.to/lastmile_qr_scan"}, "lon": -77.03477283333334, "type": "electric_scooter"}, {"bike_id": "f1f81982d4d88a9605381331beb8cfe7", "is_reserved": 0, "fusion_lon": 0.0, "lat": 38.90454416666667, "is_disabled": 0, "name": "f1f81982d4d88a9605381331beb8cfe7", "fusion_lat": 0.0, "rental_uris": {"ios": "https://dc.lft.to/lastmile_qr_scan", "android": "https://dc.lft.to/lastmile_qr_scan"}, "lon": -77.05323383333334, "type": "electric_scooter"}, {"bike_id": "4ff9f079f59cfeb7c6c693a9bf668456", "is_reserved": 0, "fusion_lon": 0.0, "lat": 38.91034783333333, "is_disabled": 0, "name": "4ff9f079f59cfeb7c6c693a9bf668456", "fusion_lat": 0.0, "rental_uris": {"ios": "https://dc.lft.to/lastmile_qr_scan", "android": "https://dc.lft.to/lastmile_qr_scan"}, "lon": -77.0439025, "type": "electric_scooter"}, {"bike_id": "e3411d21dcbcec93318f24d460560d7e", "is_reserved": 0, "fusion_lon": 0.0, "lat": 38.9236335, "is_disabled": 0, "name": "e3411d21dcbcec93318f24d460560d7e", "fusion_lat": 0.0, "rental_uris": {"ios": "https://dc.lft.to/lastmile_qr_scan", "android": "https://dc.lft.to/lastmile_qr_scan"}, "lon": -77.050306, "type": "electric_scooter"}, {"bike_id": "91352a4751f1c3f75d0d0a068909cf70", "is_reserved": 0, "fusion_lon": 0.0, "lat": 38.88767216666667, "is_disabled": 0, "name": "91352a4751f1c3f75d0d0a068909cf70", "fusion_lat": 0.0, "rental_uris": {"ios": "https://dc.lft.to/lastmile_qr_scan", "android": "https://dc.lft.to/lastmile_qr_scan"}, "lon": -76.98053566666667, "type": "electric_scooter"}, {"bike_id": "55c6616fff2da6498d3516af977b8a3f", "is_reserved": 0, "fusion_lon": 0.0, "lat": 38.907851666666666, "is_disabled": 0, "name": "55c6616fff2da6498d3516af977b8a3f", "fusion_lat": 0.0, "rental_uris": {"ios": "https://dc.lft.to/lastmile_qr_scan", "android": "https://dc.lft.to/lastmile_qr_scan"}, "lon": -77.04276533333334, "type": "electric_scooter"}, {"bike_id": "15818ab12ed9df1a6219d6c598af1bd2", "is_reserved": 0, "fusion_lon": 0.0, "lat": 38.87339683333333, "is_disabled": 0, "name": "15818ab12ed9df1a6219d6c598af1bd2", "fusion_lat": 0.0, "rental_uris": {"ios": "https://dc.lft.to/lastmile_qr_scan", "android": "https://dc.lft.to/lastmile_qr_scan"}, "lon": -77.1062, "type": "electric_bike"}, {"bike_id": "3a54f0ef0b81bb79b79585566786971a", "is_reserved": 0, "fusion_lon": 0.0, "lat": 38.935040666666666, "is_disabled": 0, "name": "3a54f0ef0b81bb79b79585566786971a", "fusion_lat": 0.0, "rental_uris": {"ios": "https://dc.lft.to/lastmile_qr_scan", "android": "https://dc.lft.to/lastmile_qr_scan"}, "lon": -77.02002666666667, "type": "electric_scooter"}, {"bike_id": "d1a5954983af49cc486d96ed25570c1e", "is_reserved": 0, "fusion_lon": 0.0, "lat": 38.92264983333333, "is_disabled": 0, "name": "d1a5954983af49cc486d96ed25570c1e", "fusion_lat": 0.0, "rental_uris": {"ios": "https://dc.lft.to/lastmile_qr_scan", "android": "https://dc.lft.to/lastmile_qr_scan"}, "lon": -76.97425366666667, "type": "electric_bike"}, {"bike_id": "6b275c3be2e495d64c0b0cf8a0d44c26", "is_reserved": 0, "fusion_lon": 0.0, "lat": 38.9436635, "is_disabled": 0, "name": "6b275c3be2e495d64c0b0cf8a0d44c26", "fusion_lat": 0.0, "rental_uris": {"ios": "https://dc.lft.to/lastmile_qr_scan", "android": "https://dc.lft.to/lastmile_qr_scan"}, "lon": -77.0218145, "type": "electric_scooter"}, {"bike_id": "42224a531ac4995ccc6102dcfd4ddc4d", "is_reserved": 0, "fusion_lon": 0.0, "lat": 38.9404085, "is_disabled": 0, "name": "42224a531ac4995ccc6102dcfd4ddc4d", "fusion_lat": 0.0, "rental_uris": {"ios": "https://dc.lft.to/lastmile_qr_scan", "android": "https://dc.lft.to/lastmile_qr_scan"}, "lon": -77.0290695, "type": "electric_scooter"}, {"bike_id": "74a4f2e1f612bab89575454e4741969e", "is_reserved": 0, "fusion_lon": 0.0, "lat": 38.895533666666665, "is_disabled": 0, "name": "74a4f2e1f612bab89575454e4741969e", "fusion_lat": 0.0, "rental_uris": {"ios": "https://dc.lft.to/lastmile_qr_scan", "android": "https://dc.lft.to/lastmile_qr_scan"}, "lon": -77.0092125, "type": "electric_scooter"}, {"bike_id": "0438b05949043a3d45c2e4be8d356b1f", "is_reserved": 0, "fusion_lon": 0.0, "lat": 38.91276716666667, "is_disabled": 0, "name": "0438b05949043a3d45c2e4be8d356b1f", "fusion_lat": 0.0, "rental_uris": {"ios": "https://dc.lft.to/lastmile_qr_scan", "android": "https://dc.lft.to/lastmile_qr_scan"}, "lon": -77.01357116666667, "type": "electric_scooter"}, {"bike_id": "977cf8a4c557fc274a60f5dce308d16a", "is_reserved": 0, "fusion_lon": 0.0, "lat": 38.919328166666666, "is_disabled": 0, "name": "977cf8a4c557fc274a60f5dce308d16a", "fusion_lat": 0.0, "rental_uris": {"ios": "https://dc.lft.to/lastmile_qr_scan", "android": "https://dc.lft.to/lastmile_qr_scan"}, "lon": -77.04502883333333, "type": "electric_scooter"}, {"bike_id": "26ce07582910f420cf1144cf0afa634c", "is_reserved": 0, "fusion_lon": 0.0, "lat": 38.90596883333333, "is_disabled": 0, "name": "26ce07582910f420cf1144cf0afa634c", "fusion_lat": 0.0, "rental_uris": {"ios": "https://dc.lft.to/lastmile_qr_scan", "android": "https://dc.lft.to/lastmile_qr_scan"}, "lon": -77.04174266666666, "type": "electric_scooter"}, {"bike_id": "877669489594bd41797366c61bc0085e", "is_reserved": 0, "fusion_lon": 0.0, "lat": 38.90096316666666, "is_disabled": 0, "name": "877669489594bd41797366c61bc0085e", "fusion_lat": 0.0, "rental_uris": {"ios": "https://dc.lft.to/lastmile_qr_scan", "android": "https://dc.lft.to/lastmile_qr_scan"}, "lon": -76.97470333333334, "type": "electric_scooter"}, {"bike_id": "75d13d7ebc4dcea41081586e091b7112", "is_reserved": 0, "fusion_lon": 0.0, "lat": 38.909586, "is_disabled": 0, "name": "75d13d7ebc4dcea41081586e091b7112", "fusion_lat": 0.0, "rental_uris": {"ios": "https://dc.lft.to/lastmile_qr_scan", "android": "https://dc.lft.to/lastmile_qr_scan"}, "lon": -77.02556066666666, "type": "electric_scooter"}, {"bike_id": "46cfd044e24cd4024debe8e82bac9c64", "is_reserved": 0, "fusion_lon": 0.0, "lat": 38.8926455, "is_disabled": 0, "name": "46cfd044e24cd4024debe8e82bac9c64", "fusion_lat": 0.0, "rental_uris": {"ios": "https://dc.lft.to/lastmile_qr_scan", "android": "https://dc.lft.to/lastmile_qr_scan"}, "lon": -77.02204883333333, "type": "electric_bike"}, {"bike_id": "15242b532bff8f3e5f208dfe5ba6e561", "is_reserved": 0, "fusion_lon": 0.0, "lat": 38.8972875, "is_disabled": 0, "name": "15242b532bff8f3e5f208dfe5ba6e561", "fusion_lat": 0.0, "rental_uris": {"ios": "https://dc.lft.to/lastmile_qr_scan", "android": "https://dc.lft.to/lastmile_qr_scan"}, "lon": -77.04341516666666, "type": "electric_scooter"}, {"bike_id": "f887dd60c86c9596da81a128e817ea29", "is_reserved": 0, "fusion_lon": 0.0, "lat": 38.90714366666667, "is_disabled": 0, "name": "f887dd60c86c9596da81a128e817ea29", "fusion_lat": 0.0, "rental_uris": {"ios": "https://dc.lft.to/lastmile_qr_scan", "android": "https://dc.lft.to/lastmile_qr_scan"}, "lon": -77.03215066666667, "type": "electric_scooter"}, {"bike_id": "c14d2038403f2eda965b2351a649c3b4", "is_reserved": 0, "fusion_lon": 0.0, "lat": 38.91553316666667, "is_disabled": 0, "name": "c14d2038403f2eda965b2351a649c3b4", "fusion_lat": 0.0, "rental_uris": {"ios": "https://dc.lft.to/lastmile_qr_scan", "android": "https://dc.lft.to/lastmile_qr_scan"}, "lon": -77.0385105, "type": "electric_scooter"}, {"bike_id": "718ae3d019fd5b1ab2ecc168ce2dbf53", "is_reserved": 0, "fusion_lon": 0.0, "lat": 38.900040833333335, "is_disabled": 0, "name": "718ae3d019fd5b1ab2ecc168ce2dbf53", "fusion_lat": 0.0, "rental_uris": {"ios": "https://dc.lft.to/lastmile_qr_scan", "android": "https://dc.lft.to/lastmile_qr_scan"}, "lon": -77.04023516666666, "type": "electric_scooter"}, {"bike_id": "e4647e89baba73fd0955e1297dd554e7", "is_reserved": 0, "fusion_lon": 0.0, "lat": 38.912735166666664, "is_disabled": 0, "name": "e4647e89baba73fd0955e1297dd554e7", "fusion_lat": 0.0, "rental_uris": {"ios": "https://dc.lft.to/lastmile_qr_scan", "android": "https://dc.lft.to/lastmile_qr_scan"}, "lon": -77.0269505, "type": "electric_scooter"}, {"bike_id": "fbaed2bd7f7118af779219102bbe6a32", "is_reserved": 0, "fusion_lon": 0.0, "lat": 38.86425216666667, "is_disabled": 0, "name": "fbaed2bd7f7118af779219102bbe6a32", "fusion_lat": 0.0, "rental_uris": {"ios": "https://dc.lft.to/lastmile_qr_scan", "android": "https://dc.lft.to/lastmile_qr_scan"}, "lon": -76.98581566666667, "type": "electric_scooter"}, {"bike_id": "7fa1855bfdc1ba663f27810a5b929281", "is_reserved": 0, "fusion_lon": 0.0, "lat": 38.91577133333333, "is_disabled": 0, "name": "7fa1855bfdc1ba663f27810a5b929281", "fusion_lat": 0.0, "rental_uris": {"ios": "https://dc.lft.to/lastmile_qr_scan", "android": "https://dc.lft.to/lastmile_qr_scan"}, "lon": -77.012376, "type": "electric_scooter"}, {"bike_id": "8c42b60e33705125fe2447b876d4d3b0", "is_reserved": 0, "fusion_lon": 0.0, "lat": 38.907774, "is_disabled": 0, "name": "8c42b60e33705125fe2447b876d4d3b0", "fusion_lat": 0.0, "rental_uris": {"ios": "https://dc.lft.to/lastmile_qr_scan", "android": "https://dc.lft.to/lastmile_qr_scan"}, "lon": -77.038226, "type": "electric_scooter"}, {"bike_id": "7cb70bf50a102b9683dd3015c553919d", "is_reserved": 0, "fusion_lon": 0.0, "lat": 38.82262733333334, "is_disabled": 0, "name": "7cb70bf50a102b9683dd3015c553919d", "fusion_lat": 0.0, "rental_uris": {"ios": "https://dc.lft.to/lastmile_qr_scan", "android": "https://dc.lft.to/lastmile_qr_scan"}, "lon": -77.005541, "type": "electric_bike"}, {"bike_id": "97c667fad697bb47e6e6a356334f8177", "is_reserved": 0, "fusion_lon": 0.0, "lat": 38.907249, "is_disabled": 0, "name": "97c667fad697bb47e6e6a356334f8177", "fusion_lat": 0.0, "rental_uris": {"ios": "https://dc.lft.to/lastmile_qr_scan", "android": "https://dc.lft.to/lastmile_qr_scan"}, "lon": -77.0323765, "type": "electric_scooter"}, {"bike_id": "fc7fa8e6b83a0e43bc36923a61e17778", "is_reserved": 0, "fusion_lon": 0.0, "lat": 38.893649333333336, "is_disabled": 0, "name": "fc7fa8e6b83a0e43bc36923a61e17778", "fusion_lat": 0.0, "rental_uris": {"ios": "https://dc.lft.to/lastmile_qr_scan", "android": "https://dc.lft.to/lastmile_qr_scan"}, "lon": -77.02830633333333, "type": "electric_scooter"}, {"bike_id": "8047ada39c5d8f7aeb80d3eb3b232dda", "is_reserved": 0, "fusion_lon": 0.0, "lat": 38.93078933333334, "is_disabled": 0, "name": "8047ada39c5d8f7aeb80d3eb3b232dda", "fusion_lat": 0.0, "rental_uris": {"ios": "https://dc.lft.to/lastmile_qr_scan", "android": "https://dc.lft.to/lastmile_qr_scan"}, "lon": -77.0342405, "type": "electric_scooter"}, {"bike_id": "58c59934485e511e4d6baa957030b666", "is_reserved": 0, "fusion_lon": 0.0, "lat": 38.9078425, "is_disabled": 0, "name": "58c59934485e511e4d6baa957030b666", "fusion_lat": 0.0, "rental_uris": {"ios": "https://dc.lft.to/lastmile_qr_scan", "android": "https://dc.lft.to/lastmile_qr_scan"}, "lon": -77.03860033333333, "type": "electric_scooter"}, {"bike_id": "bcfb87fa60ff0094448429486d890c1a", "is_reserved": 0, "fusion_lon": 0.0, "lat": 38.92672733333333, "is_disabled": 0, "name": "bcfb87fa60ff0094448429486d890c1a", "fusion_lat": 0.0, "rental_uris": {"ios": "https://dc.lft.to/lastmile_qr_scan", "android": "https://dc.lft.to/lastmile_qr_scan"}, "lon": -77.03729833333334, "type": "electric_scooter"}, {"bike_id": "2829f513127ea67fc6bc3c0e59508922", "is_reserved": 0, "fusion_lon": 0.0, "lat": 38.89452883333333, "is_disabled": 0, "name": "2829f513127ea67fc6bc3c0e59508922", "fusion_lat": 0.0, "rental_uris": {"ios": "https://dc.lft.to/lastmile_qr_scan", "android": "https://dc.lft.to/lastmile_qr_scan"}, "lon": -76.970384, "type": "electric_bike"}, {"bike_id": "1296cab1d416aa0496c2675aee5ee494", "is_reserved": 0, "fusion_lon": 0.0, "lat": 38.914962833333334, "is_disabled": 0, "name": "1296cab1d416aa0496c2675aee5ee494", "fusion_lat": 0.0, "rental_uris": {"ios": "https://dc.lft.to/lastmile_qr_scan", "android": "https://dc.lft.to/lastmile_qr_scan"}, "lon": -76.98349266666666, "type": "electric_scooter"}, {"bike_id": "aa029fb44b2fc7cfe63d5f9591e42cd6", "is_reserved": 0, "fusion_lon": 0.0, "lat": 38.91841766666667, "is_disabled": 0, "name": "aa029fb44b2fc7cfe63d5f9591e42cd6", "fusion_lat": 0.0, "rental_uris": {"ios": "https://dc.lft.to/lastmile_qr_scan", "android": "https://dc.lft.to/lastmile_qr_scan"}, "lon": -77.02604216666667, "type": "electric_scooter"}, {"bike_id": "84df3f777309c41279ff90b1bc70d50e", "is_reserved": 0, "fusion_lon": 0.0, "lat": 38.8904055, "is_disabled": 0, "name": "84df3f777309c41279ff90b1bc70d50e", "fusion_lat": 0.0, "rental_uris": {"ios": "https://dc.lft.to/lastmile_qr_scan", "android": "https://dc.lft.to/lastmile_qr_scan"}, "lon": -76.93755633333333, "type": "electric_scooter"}, {"bike_id": "8597df04773762d45fcfe755ed7d0056", "is_reserved": 0, "fusion_lon": 0.0, "lat": 38.91394783333333, "is_disabled": 0, "name": "8597df04773762d45fcfe755ed7d0056", "fusion_lat": 0.0, "rental_uris": {"ios": "https://dc.lft.to/lastmile_qr_scan", "android": "https://dc.lft.to/lastmile_qr_scan"}, "lon": -77.04599766666666, "type": "electric_scooter"}, {"bike_id": "09168966278a3c4ddd6770c86e1ba0ed", "is_reserved": 0, "fusion_lon": 0.0, "lat": 38.93365583333333, "is_disabled": 0, "name": "09168966278a3c4ddd6770c86e1ba0ed", "fusion_lat": 0.0, "rental_uris": {"ios": "https://dc.lft.to/lastmile_qr_scan", "android": "https://dc.lft.to/lastmile_qr_scan"}, "lon": -77.05726983333334, "type": "electric_scooter"}, {"bike_id": "1bf09aa5e4509d5c1f2357300a4cd9ab", "is_reserved": 0, "fusion_lon": 0.0, "lat": 38.8859225, "is_disabled": 0, "name": "1bf09aa5e4509d5c1f2357300a4cd9ab", "fusion_lat": 0.0, "rental_uris": {"ios": "https://dc.lft.to/lastmile_qr_scan", "android": "https://dc.lft.to/lastmile_qr_scan"}, "lon": -77.01762916666667, "type": "electric_scooter"}, {"bike_id": "226431079bbe9380e818923680da95cd", "is_reserved": 0, "fusion_lon": 0.0, "lat": 38.91039816666667, "is_disabled": 0, "name": "226431079bbe9380e818923680da95cd", "fusion_lat": 0.0, "rental_uris": {"ios": "https://dc.lft.to/lastmile_qr_scan", "android": "https://dc.lft.to/lastmile_qr_scan"}, "lon": -77.03582066666667, "type": "electric_scooter"}, {"bike_id": "4c985d3645cc6eafaba92c5f5f4f10aa", "is_reserved": 0, "fusion_lon": 0.0, "lat": 38.827271333333336, "is_disabled": 0, "name": "4c985d3645cc6eafaba92c5f5f4f10aa", "fusion_lat": 0.0, "rental_uris": {"ios": "https://dc.lft.to/lastmile_qr_scan", "android": "https://dc.lft.to/lastmile_qr_scan"}, "lon": -77.00863883333334, "type": "electric_bike"}, {"bike_id": "9cb8ffc71d3cb2059bb83448ccc8562e", "is_reserved": 0, "fusion_lon": 0.0, "lat": 38.9000175, "is_disabled": 0, "name": "9cb8ffc71d3cb2059bb83448ccc8562e", "fusion_lat": 0.0, "rental_uris": {"ios": "https://dc.lft.to/lastmile_qr_scan", "android": "https://dc.lft.to/lastmile_qr_scan"}, "lon": -77.055555, "type": "electric_scooter"}, {"bike_id": "6eeffa4dbde8ffd3ea96e6998a0a43aa", "is_reserved": 0, "fusion_lon": 0.0, "lat": 38.88020433333333, "is_disabled": 0, "name": "6eeffa4dbde8ffd3ea96e6998a0a43aa", "fusion_lat": 0.0, "rental_uris": {"ios": "https://dc.lft.to/lastmile_qr_scan", "android": "https://dc.lft.to/lastmile_qr_scan"}, "lon": -76.93134183333333, "type": "electric_scooter"}, {"bike_id": "a1932ee5aa217a9cdccd9bbe57ca5b0c", "is_reserved": 0, "fusion_lon": 0.0, "lat": 38.927986, "is_disabled": 0, "name": "a1932ee5aa217a9cdccd9bbe57ca5b0c", "fusion_lat": 0.0, "rental_uris": {"ios": "https://dc.lft.to/lastmile_qr_scan", "android": "https://dc.lft.to/lastmile_qr_scan"}, "lon": -77.05347033333334, "type": "electric_scooter"}, {"bike_id": "2e661cb6b7517146c719afd6e1fc1874", "is_reserved": 0, "fusion_lon": 0.0, "lat": 38.90569766666667, "is_disabled": 0, "name": "2e661cb6b7517146c719afd6e1fc1874", "fusion_lat": 0.0, "rental_uris": {"ios": "https://dc.lft.to/lastmile_qr_scan", "android": "https://dc.lft.to/lastmile_qr_scan"}, "lon": -77.03442616666666, "type": "electric_scooter"}, {"bike_id": "6ee630c66b6eb16a28f8c600e769ee77", "is_reserved": 0, "fusion_lon": 0.0, "lat": 38.908083, "is_disabled": 0, "name": "6ee630c66b6eb16a28f8c600e769ee77", "fusion_lat": 0.0, "rental_uris": {"ios": "https://dc.lft.to/lastmile_qr_scan", "android": "https://dc.lft.to/lastmile_qr_scan"}, "lon": -77.0346655, "type": "electric_scooter"}, {"bike_id": "7488d4ad2e60dab38ec9d5fddf236a22", "is_reserved": 0, "fusion_lon": 0.0, "lat": 38.884970833333334, "is_disabled": 0, "name": "7488d4ad2e60dab38ec9d5fddf236a22", "fusion_lat": 0.0, "rental_uris": {"ios": "https://dc.lft.to/lastmile_qr_scan", "android": "https://dc.lft.to/lastmile_qr_scan"}, "lon": -77.0072975, "type": "electric_scooter"}, {"bike_id": "588e8501f466301d2ecacd05bf3a456d", "is_reserved": 0, "fusion_lon": 0.0, "lat": 38.892283666666664, "is_disabled": 0, "name": "588e8501f466301d2ecacd05bf3a456d", "fusion_lat": 0.0, "rental_uris": {"ios": "https://dc.lft.to/lastmile_qr_scan", "android": "https://dc.lft.to/lastmile_qr_scan"}, "lon": -77.02209866666666, "type": "electric_scooter"}, {"bike_id": "1531062018316086eabe713fa145d6f5", "is_reserved": 0, "fusion_lon": 0.0, "lat": 38.9086175, "is_disabled": 0, "name": "1531062018316086eabe713fa145d6f5", "fusion_lat": 0.0, "rental_uris": {"ios": "https://dc.lft.to/lastmile_qr_scan", "android": "https://dc.lft.to/lastmile_qr_scan"}, "lon": -77.02731016666667, "type": "electric_scooter"}, {"bike_id": "a8f7b6141532cf3525a20fa8a730bee4", "is_reserved": 0, "fusion_lon": 0.0, "lat": 38.89704916666667, "is_disabled": 0, "name": "a8f7b6141532cf3525a20fa8a730bee4", "fusion_lat": 0.0, "rental_uris": {"ios": "https://dc.lft.to/lastmile_qr_scan", "android": "https://dc.lft.to/lastmile_qr_scan"}, "lon": -76.9177065, "type": "electric_scooter"}, {"bike_id": "2f4e93dae513b480e413bc9bee7c7d8a", "is_reserved": 0, "fusion_lon": 0.0, "lat": 38.92106366666667, "is_disabled": 0, "name": "2f4e93dae513b480e413bc9bee7c7d8a", "fusion_lat": 0.0, "rental_uris": {"ios": "https://dc.lft.to/lastmile_qr_scan", "android": "https://dc.lft.to/lastmile_qr_scan"}, "lon": -77.04574216666667, "type": "electric_scooter"}, {"bike_id": "fa899b1eefe80c9c05745fbe5ce1a89f", "is_reserved": 0, "fusion_lon": 0.0, "lat": 38.924131, "is_disabled": 0, "name": "fa899b1eefe80c9c05745fbe5ce1a89f", "fusion_lat": 0.0, "rental_uris": {"ios": "https://dc.lft.to/lastmile_qr_scan", "android": "https://dc.lft.to/lastmile_qr_scan"}, "lon": -77.0195295, "type": "electric_scooter"}, {"bike_id": "4c26302635b38ab02acce139c15126d9", "is_reserved": 0, "fusion_lon": 0.0, "lat": 38.923635166666664, "is_disabled": 0, "name": "4c26302635b38ab02acce139c15126d9", "fusion_lat": 0.0, "rental_uris": {"ios": "https://dc.lft.to/lastmile_qr_scan", "android": "https://dc.lft.to/lastmile_qr_scan"}, "lon": -77.0503345, "type": "electric_scooter"}, {"bike_id": "77ca8f1b4d7b0da09d7c37119e7d965e", "is_reserved": 0, "fusion_lon": 0.0, "lat": 38.89623433333333, "is_disabled": 0, "name": "77ca8f1b4d7b0da09d7c37119e7d965e", "fusion_lat": 0.0, "rental_uris": {"ios": "https://dc.lft.to/lastmile_qr_scan", "android": "https://dc.lft.to/lastmile_qr_scan"}, "lon": -77.0323475, "type": "electric_scooter"}, {"bike_id": "cc4541591a50676bb4f3fa8f80fe02f4", "is_reserved": 0, "fusion_lon": 0.0, "lat": 38.92086116666667, "is_disabled": 0, "name": "cc4541591a50676bb4f3fa8f80fe02f4", "fusion_lat": 0.0, "rental_uris": {"ios": "https://dc.lft.to/lastmile_qr_scan", "android": "https://dc.lft.to/lastmile_qr_scan"}, "lon": -77.03165533333333, "type": "electric_scooter"}, {"bike_id": "fb2500624e5bab9feab00604d6002255", "is_reserved": 0, "fusion_lon": 0.0, "lat": 38.95268133333333, "is_disabled": 0, "name": "fb2500624e5bab9feab00604d6002255", "fusion_lat": 0.0, "rental_uris": {"ios": "https://dc.lft.to/lastmile_qr_scan", "android": "https://dc.lft.to/lastmile_qr_scan"}, "lon": -77.06975866666667, "type": "electric_bike"}, {"bike_id": "3b2ab53e3012ef5d26483c4e23d8d7b0", "is_reserved": 0, "fusion_lon": 0.0, "lat": 38.92247, "is_disabled": 0, "name": "3b2ab53e3012ef5d26483c4e23d8d7b0", "fusion_lat": 0.0, "rental_uris": {"ios": "https://dc.lft.to/lastmile_qr_scan", "android": "https://dc.lft.to/lastmile_qr_scan"}, "lon": -77.018287, "type": "electric_scooter"}, {"bike_id": "45483372fd898e5f4f65e41ce5e82d80", "is_reserved": 0, "fusion_lon": 0.0, "lat": 38.9309605, "is_disabled": 0, "name": "45483372fd898e5f4f65e41ce5e82d80", "fusion_lat": 0.0, "rental_uris": {"ios": "https://dc.lft.to/lastmile_qr_scan", "android": "https://dc.lft.to/lastmile_qr_scan"}, "lon": -77.02512866666666, "type": "electric_scooter"}, {"bike_id": "d449ab8973d52eaced6a747feda3f6ae", "is_reserved": 0, "fusion_lon": 0.0, "lat": 38.89009216666667, "is_disabled": 0, "name": "d449ab8973d52eaced6a747feda3f6ae", "fusion_lat": 0.0, "rental_uris": {"ios": "https://dc.lft.to/lastmile_qr_scan", "android": "https://dc.lft.to/lastmile_qr_scan"}, "lon": -76.937462, "type": "electric_scooter"}, {"bike_id": "6f6c5854ed3f6e65f3b3ef16de1f0dd5", "is_reserved": 0, "fusion_lon": 0.0, "lat": 38.900333833333335, "is_disabled": 0, "name": "6f6c5854ed3f6e65f3b3ef16de1f0dd5", "fusion_lat": 0.0, "rental_uris": {"ios": "https://dc.lft.to/lastmile_qr_scan", "android": "https://dc.lft.to/lastmile_qr_scan"}, "lon": -77.0466535, "type": "electric_scooter"}, {"bike_id": "da87d16083d9ba3dda83ee2d063d3760", "is_reserved": 0, "fusion_lon": 0.0, "lat": 38.904089666666664, "is_disabled": 0, "name": "da87d16083d9ba3dda83ee2d063d3760", "fusion_lat": 0.0, "rental_uris": {"ios": "https://dc.lft.to/lastmile_qr_scan", "android": "https://dc.lft.to/lastmile_qr_scan"}, "lon": -77.04347, "type": "electric_scooter"}, {"bike_id": "cdc6c26f51789ca876b940dfbdd121d8", "is_reserved": 0, "fusion_lon": 0.0, "lat": 38.905695, "is_disabled": 0, "name": "cdc6c26f51789ca876b940dfbdd121d8", "fusion_lat": 0.0, "rental_uris": {"ios": "https://dc.lft.to/lastmile_qr_scan", "android": "https://dc.lft.to/lastmile_qr_scan"}, "lon": -77.00266533333334, "type": "electric_scooter"}, {"bike_id": "fe65c4ab5b9e26d3e2a1dd31e7562aaa", "is_reserved": 0, "fusion_lon": 0.0, "lat": 38.866065, "is_disabled": 0, "name": "fe65c4ab5b9e26d3e2a1dd31e7562aaa", "fusion_lat": 0.0, "rental_uris": {"ios": "https://dc.lft.to/lastmile_qr_scan", "android": "https://dc.lft.to/lastmile_qr_scan"}, "lon": -76.98919283333333, "type": "electric_scooter"}, {"bike_id": "35321ef33a2ad31184f25237d47066d2", "is_reserved": 0, "fusion_lon": 0.0, "lat": 38.905721666666665, "is_disabled": 0, "name": "35321ef33a2ad31184f25237d47066d2", "fusion_lat": 0.0, "rental_uris": {"ios": "https://dc.lft.to/lastmile_qr_scan", "android": "https://dc.lft.to/lastmile_qr_scan"}, "lon": -77.02176083333333, "type": "electric_scooter"}, {"bike_id": "3e07dab68b10908bd4c6d9756c23bb1d", "is_reserved": 0, "fusion_lon": 0.0, "lat": 38.923665666666665, "is_disabled": 0, "name": "3e07dab68b10908bd4c6d9756c23bb1d", "fusion_lat": 0.0, "rental_uris": {"ios": "https://dc.lft.to/lastmile_qr_scan", "android": "https://dc.lft.to/lastmile_qr_scan"}, "lon": -77.05028616666667, "type": "electric_scooter"}, {"bike_id": "4faae75b287c8c156e089f74f928719c", "is_reserved": 0, "fusion_lon": 0.0, "lat": 38.907311666666665, "is_disabled": 0, "name": "4faae75b287c8c156e089f74f928719c", "fusion_lat": 0.0, "rental_uris": {"ios": "https://dc.lft.to/lastmile_qr_scan", "android": "https://dc.lft.to/lastmile_qr_scan"}, "lon": -77.04239983333333, "type": "electric_scooter"}, {"bike_id": "4838671918ff0d634f3a97ed5017abd1", "is_reserved": 0, "fusion_lon": 0.0, "lat": 38.89222983333333, "is_disabled": 0, "name": "4838671918ff0d634f3a97ed5017abd1", "fusion_lat": 0.0, "rental_uris": {"ios": "https://dc.lft.to/lastmile_qr_scan", "android": "https://dc.lft.to/lastmile_qr_scan"}, "lon": -77.03169616666666, "type": "electric_scooter"}, {"bike_id": "6723f2214e21a55f18a8d6bc5d42a51e", "is_reserved": 0, "fusion_lon": 0.0, "lat": 38.901366, "is_disabled": 0, "name": "6723f2214e21a55f18a8d6bc5d42a51e", "fusion_lat": 0.0, "rental_uris": {"ios": "https://dc.lft.to/lastmile_qr_scan", "android": "https://dc.lft.to/lastmile_qr_scan"}, "lon": -77.0448705, "type": "electric_scooter"}, {"bike_id": "ec2e7af6ae7fcdfb745f929cb607fa98", "is_reserved": 0, "fusion_lon": 0.0, "lat": 38.8515705, "is_disabled": 0, "name": "ec2e7af6ae7fcdfb745f929cb607fa98", "fusion_lat": 0.0, "rental_uris": {"ios": "https://dc.lft.to/lastmile_qr_scan", "android": "https://dc.lft.to/lastmile_qr_scan"}, "lon": -77.1288025, "type": "electric_bike"}, {"bike_id": "5378a0bf9616b2c9604981704d9f9a65", "is_reserved": 0, "fusion_lon": 0.0, "lat": 38.894731, "is_disabled": 0, "name": "5378a0bf9616b2c9604981704d9f9a65", "fusion_lat": 0.0, "rental_uris": {"ios": "https://dc.lft.to/lastmile_qr_scan", "android": "https://dc.lft.to/lastmile_qr_scan"}, "lon": -76.98404116666667, "type": "electric_scooter"}, {"bike_id": "8ba62bf6c883dc55a14e3e2b5fced0ad", "is_reserved": 0, "fusion_lon": 0.0, "lat": 38.89616733333333, "is_disabled": 0, "name": "8ba62bf6c883dc55a14e3e2b5fced0ad", "fusion_lat": 0.0, "rental_uris": {"ios": "https://dc.lft.to/lastmile_qr_scan", "android": "https://dc.lft.to/lastmile_qr_scan"}, "lon": -76.98124583333333, "type": "electric_scooter"}, {"bike_id": "a2e419941b95cec48aee943d2ffba932", "is_reserved": 0, "fusion_lon": 0.0, "lat": 38.900561, "is_disabled": 0, "name": "a2e419941b95cec48aee943d2ffba932", "fusion_lat": 0.0, "rental_uris": {"ios": "https://dc.lft.to/lastmile_qr_scan", "android": "https://dc.lft.to/lastmile_qr_scan"}, "lon": -77.050159, "type": "electric_scooter"}, {"bike_id": "6ed66cd5869e4b30c9b83288e5273269", "is_reserved": 0, "fusion_lon": 0.0, "lat": 38.878986, "is_disabled": 0, "name": "6ed66cd5869e4b30c9b83288e5273269", "fusion_lat": 0.0, "rental_uris": {"ios": "https://dc.lft.to/lastmile_qr_scan", "android": "https://dc.lft.to/lastmile_qr_scan"}, "lon": -77.00683333333333, "type": "electric_scooter"}, {"bike_id": "05dc0191e723f2429593497e9964cdbd", "is_reserved": 0, "fusion_lon": 0.0, "lat": 38.87934666666666, "is_disabled": 0, "name": "05dc0191e723f2429593497e9964cdbd", "fusion_lat": 0.0, "rental_uris": {"ios": "https://dc.lft.to/lastmile_qr_scan", "android": "https://dc.lft.to/lastmile_qr_scan"}, "lon": -77.00397566666666, "type": "electric_scooter"}, {"bike_id": "0c7cb8b38ca29df495a3ead102c5306a", "is_reserved": 0, "fusion_lon": 0.0, "lat": 38.91713983333333, "is_disabled": 0, "name": "0c7cb8b38ca29df495a3ead102c5306a", "fusion_lat": 0.0, "rental_uris": {"ios": "https://dc.lft.to/lastmile_qr_scan", "android": "https://dc.lft.to/lastmile_qr_scan"}, "lon": -77.0348175, "type": "electric_scooter"}, {"bike_id": "e13f0ca39af231d6b7d8a65949fb41ce", "is_reserved": 0, "fusion_lon": 0.0, "lat": 38.897306666666665, "is_disabled": 0, "name": "e13f0ca39af231d6b7d8a65949fb41ce", "fusion_lat": 0.0, "rental_uris": {"ios": "https://dc.lft.to/lastmile_qr_scan", "android": "https://dc.lft.to/lastmile_qr_scan"}, "lon": -76.92587666666667, "type": "electric_scooter"}, {"bike_id": "999929bad7c3907e9fa01893067f1da1", "is_reserved": 0, "fusion_lon": 0.0, "lat": 38.9573165, "is_disabled": 0, "name": "999929bad7c3907e9fa01893067f1da1", "fusion_lat": 0.0, "rental_uris": {"ios": "https://dc.lft.to/lastmile_qr_scan", "android": "https://dc.lft.to/lastmile_qr_scan"}, "lon": -77.02403633333333, "type": "electric_scooter"}, {"bike_id": "49f0ac9ee5e3e1a9c0a80f4e58bbb833", "is_reserved": 0, "fusion_lon": 0.0, "lat": 38.902345, "is_disabled": 0, "name": "49f0ac9ee5e3e1a9c0a80f4e58bbb833", "fusion_lat": 0.0, "rental_uris": {"ios": "https://dc.lft.to/lastmile_qr_scan", "android": "https://dc.lft.to/lastmile_qr_scan"}, "lon": -77.01719416666667, "type": "electric_scooter"}, {"bike_id": "0edfe6fa7922988930c6a7dd9fa0890c", "is_reserved": 0, "fusion_lon": 0.0, "lat": 38.86571466666667, "is_disabled": 0, "name": "0edfe6fa7922988930c6a7dd9fa0890c", "fusion_lat": 0.0, "rental_uris": {"ios": "https://dc.lft.to/lastmile_qr_scan", "android": "https://dc.lft.to/lastmile_qr_scan"}, "lon": -76.989488, "type": "electric_scooter"}, {"bike_id": "5c94f4869cd96f6e43b2710f03ea1be5", "is_reserved": 0, "fusion_lon": 0.0, "lat": 38.903256666666664, "is_disabled": 0, "name": "5c94f4869cd96f6e43b2710f03ea1be5", "fusion_lat": 0.0, "rental_uris": {"ios": "https://dc.lft.to/lastmile_qr_scan", "android": "https://dc.lft.to/lastmile_qr_scan"}, "lon": -77.03817533333333, "type": "electric_scooter"}, {"bike_id": "bfe9b36751cc50fbfd7308b74a417894", "is_reserved": 0, "fusion_lon": 0.0, "lat": 38.9000905, "is_disabled": 0, "name": "bfe9b36751cc50fbfd7308b74a417894", "fusion_lat": 0.0, "rental_uris": {"ios": "https://dc.lft.to/lastmile_qr_scan", "android": "https://dc.lft.to/lastmile_qr_scan"}, "lon": -77.04655833333334, "type": "electric_scooter"}, {"bike_id": "66d9ac685650401500e532d9e8480c78", "is_reserved": 0, "fusion_lon": 0.0, "lat": 38.88395583333333, "is_disabled": 0, "name": "66d9ac685650401500e532d9e8480c78", "fusion_lat": 0.0, "rental_uris": {"ios": "https://dc.lft.to/lastmile_qr_scan", "android": "https://dc.lft.to/lastmile_qr_scan"}, "lon": -76.93047516666667, "type": "electric_scooter"}, {"bike_id": "5a128daeee7ebccc3124eb6c2374ed7f", "is_reserved": 0, "fusion_lon": 0.0, "lat": 38.933278666666666, "is_disabled": 0, "name": "5a128daeee7ebccc3124eb6c2374ed7f", "fusion_lat": 0.0, "rental_uris": {"ios": "https://dc.lft.to/lastmile_qr_scan", "android": "https://dc.lft.to/lastmile_qr_scan"}, "lon": -77.03274183333333, "type": "electric_scooter"}, {"bike_id": "bd454bb3352f5b39bf9e078db72a29f6", "is_reserved": 0, "fusion_lon": 0.0, "lat": 38.932493, "is_disabled": 0, "name": "bd454bb3352f5b39bf9e078db72a29f6", "fusion_lat": 0.0, "rental_uris": {"ios": "https://dc.lft.to/lastmile_qr_scan", "android": "https://dc.lft.to/lastmile_qr_scan"}, "lon": -77.03288716666667, "type": "electric_scooter"}, {"bike_id": "7190f7b8913b0e2037ff8442b0bf81f0", "is_reserved": 0, "fusion_lon": 0.0, "lat": 38.8442575, "is_disabled": 0, "name": "7190f7b8913b0e2037ff8442b0bf81f0", "fusion_lat": 0.0, "rental_uris": {"ios": "https://dc.lft.to/lastmile_qr_scan", "android": "https://dc.lft.to/lastmile_qr_scan"}, "lon": -76.99781333333334, "type": "electric_scooter"}, {"bike_id": "7bb87fab40e75296b4f6c42ce329d4e9", "is_reserved": 0, "fusion_lon": 0.0, "lat": 38.90675433333333, "is_disabled": 0, "name": "7bb87fab40e75296b4f6c42ce329d4e9", "fusion_lat": 0.0, "rental_uris": {"ios": "https://dc.lft.to/lastmile_qr_scan", "android": "https://dc.lft.to/lastmile_qr_scan"}, "lon": -77.03517633333334, "type": "electric_scooter"}, {"bike_id": "2307632025ed2153d621800603895645", "is_reserved": 0, "fusion_lon": 0.0, "lat": 38.9148, "is_disabled": 0, "name": "2307632025ed2153d621800603895645", "fusion_lat": 0.0, "rental_uris": {"ios": "https://dc.lft.to/lastmile_qr_scan", "android": "https://dc.lft.to/lastmile_qr_scan"}, "lon": -77.012732, "type": "electric_scooter"}, {"bike_id": "a09068b85653586c24562f49f7f28c2a", "is_reserved": 0, "fusion_lon": 0.0, "lat": 38.861806666666666, "is_disabled": 0, "name": "a09068b85653586c24562f49f7f28c2a", "fusion_lat": 0.0, "rental_uris": {"ios": "https://dc.lft.to/lastmile_qr_scan", "android": "https://dc.lft.to/lastmile_qr_scan"}, "lon": -76.96915266666667, "type": "electric_scooter"}, {"bike_id": "cafc974f02f1ae167cac621a9e2b6545", "is_reserved": 0, "fusion_lon": 0.0, "lat": 38.900298, "is_disabled": 0, "name": "cafc974f02f1ae167cac621a9e2b6545", "fusion_lat": 0.0, "rental_uris": {"ios": "https://dc.lft.to/lastmile_qr_scan", "android": "https://dc.lft.to/lastmile_qr_scan"}, "lon": -77.01208983333333, "type": "electric_scooter"}, {"bike_id": "e4ee0684c1e0a63e03acee3391a24cff", "is_reserved": 0, "fusion_lon": 0.0, "lat": 38.91705433333333, "is_disabled": 0, "name": "e4ee0684c1e0a63e03acee3391a24cff", "fusion_lat": 0.0, "rental_uris": {"ios": "https://dc.lft.to/lastmile_qr_scan", "android": "https://dc.lft.to/lastmile_qr_scan"}, "lon": -77.02236883333333, "type": "electric_scooter"}, {"bike_id": "8d850b4ac8dba363fbd94545ade5742d", "is_reserved": 0, "fusion_lon": 0.0, "lat": 38.865625, "is_disabled": 0, "name": "8d850b4ac8dba363fbd94545ade5742d", "fusion_lat": 0.0, "rental_uris": {"ios": "https://dc.lft.to/lastmile_qr_scan", "android": "https://dc.lft.to/lastmile_qr_scan"}, "lon": -76.9895235, "type": "electric_scooter"}, {"bike_id": "ec158b1ece6ec9da9d358abf6c2e2899", "is_reserved": 0, "fusion_lon": 0.0, "lat": 38.882375333333336, "is_disabled": 0, "name": "ec158b1ece6ec9da9d358abf6c2e2899", "fusion_lat": 0.0, "rental_uris": {"ios": "https://dc.lft.to/lastmile_qr_scan", "android": "https://dc.lft.to/lastmile_qr_scan"}, "lon": -76.99010383333334, "type": "electric_scooter"}, {"bike_id": "9d177cdb0ed45e0e023074c090da1474", "is_reserved": 0, "fusion_lon": 0.0, "lat": 38.8982335, "is_disabled": 0, "name": "9d177cdb0ed45e0e023074c090da1474", "fusion_lat": 0.0, "rental_uris": {"ios": "https://dc.lft.to/lastmile_qr_scan", "android": "https://dc.lft.to/lastmile_qr_scan"}, "lon": -77.0334455, "type": "electric_scooter"}, {"bike_id": "294ff8f6ac7f7716aca515d50b962f76", "is_reserved": 0, "fusion_lon": 0.0, "lat": 38.918033, "is_disabled": 0, "name": "294ff8f6ac7f7716aca515d50b962f76", "fusion_lat": 0.0, "rental_uris": {"ios": "https://dc.lft.to/lastmile_qr_scan", "android": "https://dc.lft.to/lastmile_qr_scan"}, "lon": -77.03443733333333, "type": "electric_scooter"}, {"bike_id": "1d161f5dbde51725e968392c6d2fa152", "is_reserved": 0, "fusion_lon": 0.0, "lat": 38.90744566666667, "is_disabled": 0, "name": "1d161f5dbde51725e968392c6d2fa152", "fusion_lat": 0.0, "rental_uris": {"ios": "https://dc.lft.to/lastmile_qr_scan", "android": "https://dc.lft.to/lastmile_qr_scan"}, "lon": -77.034715, "type": "electric_scooter"}, {"bike_id": "4113a1bb74751bcbaad48960cabbc6dd", "is_reserved": 0, "fusion_lon": 0.0, "lat": 38.90130033333333, "is_disabled": 0, "name": "4113a1bb74751bcbaad48960cabbc6dd", "fusion_lat": 0.0, "rental_uris": {"ios": "https://dc.lft.to/lastmile_qr_scan", "android": "https://dc.lft.to/lastmile_qr_scan"}, "lon": -77.01967533333334, "type": "electric_scooter"}, {"bike_id": "a251d6b201b803d56efec2bcd04ecebd", "is_reserved": 0, "fusion_lon": 0.0, "lat": 38.9125365, "is_disabled": 0, "name": "a251d6b201b803d56efec2bcd04ecebd", "fusion_lat": 0.0, "rental_uris": {"ios": "https://dc.lft.to/lastmile_qr_scan", "android": "https://dc.lft.to/lastmile_qr_scan"}, "lon": -77.0144385, "type": "electric_scooter"}, {"bike_id": "d3b1bbf233b99fa6a22a53cb14d1a163", "is_reserved": 0, "fusion_lon": 0.0, "lat": 38.933364166666664, "is_disabled": 0, "name": "d3b1bbf233b99fa6a22a53cb14d1a163", "fusion_lat": 0.0, "rental_uris": {"ios": "https://dc.lft.to/lastmile_qr_scan", "android": "https://dc.lft.to/lastmile_qr_scan"}, "lon": -77.032857, "type": "electric_scooter"}, {"bike_id": "87b2be0c07eb35cc0d77cff1b837172c", "is_reserved": 0, "fusion_lon": 0.0, "lat": 38.9061405, "is_disabled": 0, "name": "87b2be0c07eb35cc0d77cff1b837172c", "fusion_lat": 0.0, "rental_uris": {"ios": "https://dc.lft.to/lastmile_qr_scan", "android": "https://dc.lft.to/lastmile_qr_scan"}, "lon": -77.06301266666667, "type": "electric_scooter"}, {"bike_id": "21280964046fc2cc2858b667895c34c8", "is_reserved": 0, "fusion_lon": 0.0, "lat": 38.898323, "is_disabled": 0, "name": "21280964046fc2cc2858b667895c34c8", "fusion_lat": 0.0, "rental_uris": {"ios": "https://dc.lft.to/lastmile_qr_scan", "android": "https://dc.lft.to/lastmile_qr_scan"}, "lon": -76.946339, "type": "electric_scooter"}, {"bike_id": "6177f6f4932cbcadaf0c9687c53a14bd", "is_reserved": 0, "fusion_lon": 0.0, "lat": 38.97325766666667, "is_disabled": 0, "name": "6177f6f4932cbcadaf0c9687c53a14bd", "fusion_lat": 0.0, "rental_uris": {"ios": "https://dc.lft.to/lastmile_qr_scan", "android": "https://dc.lft.to/lastmile_qr_scan"}, "lon": -77.021501, "type": "electric_bike"}, {"bike_id": "c80fb72e4c966c593ce0fd7c749fa7a0", "is_reserved": 0, "fusion_lon": 0.0, "lat": 38.91993166666666, "is_disabled": 0, "name": "c80fb72e4c966c593ce0fd7c749fa7a0", "fusion_lat": 0.0, "rental_uris": {"ios": "https://dc.lft.to/lastmile_qr_scan", "android": "https://dc.lft.to/lastmile_qr_scan"}, "lon": -77.07115816666666, "type": "electric_bike"}, {"bike_id": "3dd8a7e9f3c2ae98d428605a556891e0", "is_reserved": 0, "fusion_lon": 0.0, "lat": 38.94552733333333, "is_disabled": 0, "name": "3dd8a7e9f3c2ae98d428605a556891e0", "fusion_lat": 0.0, "rental_uris": {"ios": "https://dc.lft.to/lastmile_qr_scan", "android": "https://dc.lft.to/lastmile_qr_scan"}, "lon": -76.89538666666667, "type": "electric_bike"}, {"bike_id": "705804e11531045e838615433aa03095", "is_reserved": 0, "fusion_lon": 0.0, "lat": 38.914275, "is_disabled": 0, "name": "705804e11531045e838615433aa03095", "fusion_lat": 0.0, "rental_uris": {"ios": "https://dc.lft.to/lastmile_qr_scan", "android": "https://dc.lft.to/lastmile_qr_scan"}, "lon": -77.04501083333334, "type": "electric_scooter"}, {"bike_id": "f69b8e864e3a82aa80288fb03ad37c16", "is_reserved": 0, "fusion_lon": 0.0, "lat": 38.892196, "is_disabled": 0, "name": "f69b8e864e3a82aa80288fb03ad37c16", "fusion_lat": 0.0, "rental_uris": {"ios": "https://dc.lft.to/lastmile_qr_scan", "android": "https://dc.lft.to/lastmile_qr_scan"}, "lon": -77.02443866666667, "type": "electric_scooter"}, {"bike_id": "af62f79631183a873efb113fcc7f4f56", "is_reserved": 0, "fusion_lon": 0.0, "lat": 38.90615483333333, "is_disabled": 0, "name": "af62f79631183a873efb113fcc7f4f56", "fusion_lat": 0.0, "rental_uris": {"ios": "https://dc.lft.to/lastmile_qr_scan", "android": "https://dc.lft.to/lastmile_qr_scan"}, "lon": -77.074899, "type": "electric_scooter"}, {"bike_id": "f5a6a7d1639569bce10d136020973174", "is_reserved": 0, "fusion_lon": 0.0, "lat": 39.0388415, "is_disabled": 0, "name": "f5a6a7d1639569bce10d136020973174", "fusion_lat": 0.0, "rental_uris": {"ios": "https://dc.lft.to/lastmile_qr_scan", "android": "https://dc.lft.to/lastmile_qr_scan"}, "lon": -76.99041583333333, "type": "electric_bike"}, {"bike_id": "c1560ce1a3c4f96ebc1079b92f8c3f1f", "is_reserved": 0, "fusion_lon": 0.0, "lat": 38.901093333333336, "is_disabled": 0, "name": "c1560ce1a3c4f96ebc1079b92f8c3f1f", "fusion_lat": 0.0, "rental_uris": {"ios": "https://dc.lft.to/lastmile_qr_scan", "android": "https://dc.lft.to/lastmile_qr_scan"}, "lon": -77.04314033333333, "type": "electric_scooter"}, {"bike_id": "c698105f24ad42e3b0a5f6da685c0f38", "is_reserved": 0, "fusion_lon": 0.0, "lat": 38.90959816666667, "is_disabled": 0, "name": "c698105f24ad42e3b0a5f6da685c0f38", "fusion_lat": 0.0, "rental_uris": {"ios": "https://dc.lft.to/lastmile_qr_scan", "android": "https://dc.lft.to/lastmile_qr_scan"}, "lon": -77.0487145, "type": "electric_scooter"}, {"bike_id": "124eb90f001752df347bf55ca47a2a02", "is_reserved": 0, "fusion_lon": 0.0, "lat": 38.8581015, "is_disabled": 0, "name": "124eb90f001752df347bf55ca47a2a02", "fusion_lat": 0.0, "rental_uris": {"ios": "https://dc.lft.to/lastmile_qr_scan", "android": "https://dc.lft.to/lastmile_qr_scan"}, "lon": -76.9865365, "type": "electric_scooter"}, {"bike_id": "355273fcb56867d4f45518c4577de264", "is_reserved": 0, "fusion_lon": 0.0, "lat": 38.90586783333333, "is_disabled": 0, "name": "355273fcb56867d4f45518c4577de264", "fusion_lat": 0.0, "rental_uris": {"ios": "https://dc.lft.to/lastmile_qr_scan", "android": "https://dc.lft.to/lastmile_qr_scan"}, "lon": -77.046716, "type": "electric_scooter"}, {"bike_id": "0873fadcb28c87a198d7608f0e913615", "is_reserved": 0, "fusion_lon": 0.0, "lat": 38.896755, "is_disabled": 0, "name": "0873fadcb28c87a198d7608f0e913615", "fusion_lat": 0.0, "rental_uris": {"ios": "https://dc.lft.to/lastmile_qr_scan", "android": "https://dc.lft.to/lastmile_qr_scan"}, "lon": -77.02925983333333, "type": "electric_scooter"}, {"bike_id": "fa3a85924fe79f2e84c4f6c46fac3b3d", "is_reserved": 0, "fusion_lon": 0.0, "lat": 38.923125666666664, "is_disabled": 0, "name": "fa3a85924fe79f2e84c4f6c46fac3b3d", "fusion_lat": 0.0, "rental_uris": {"ios": "https://dc.lft.to/lastmile_qr_scan", "android": "https://dc.lft.to/lastmile_qr_scan"}, "lon": -77.03860866666666, "type": "electric_scooter"}, {"bike_id": "a9628fef20552d452400f68bd317861d", "is_reserved": 0, "fusion_lon": 0.0, "lat": 38.923375166666666, "is_disabled": 0, "name": "a9628fef20552d452400f68bd317861d", "fusion_lat": 0.0, "rental_uris": {"ios": "https://dc.lft.to/lastmile_qr_scan", "android": "https://dc.lft.to/lastmile_qr_scan"}, "lon": -77.01904333333333, "type": "electric_scooter"}, {"bike_id": "fcb191cce3837ba23da1ab3ae34ebea8", "is_reserved": 0, "fusion_lon": 0.0, "lat": 38.905058, "is_disabled": 0, "name": "fcb191cce3837ba23da1ab3ae34ebea8", "fusion_lat": 0.0, "rental_uris": {"ios": "https://dc.lft.to/lastmile_qr_scan", "android": "https://dc.lft.to/lastmile_qr_scan"}, "lon": -77.06384633333333, "type": "electric_scooter"}, {"bike_id": "daf421a1ecbe493dac8235442add55df", "is_reserved": 0, "fusion_lon": 0.0, "lat": 38.9285735, "is_disabled": 0, "name": "daf421a1ecbe493dac8235442add55df", "fusion_lat": 0.0, "rental_uris": {"ios": "https://dc.lft.to/lastmile_qr_scan", "android": "https://dc.lft.to/lastmile_qr_scan"}, "lon": -77.03266916666666, "type": "electric_scooter"}, {"bike_id": "1edb804bfe5e3e7b33bbeccbfc7b1255", "is_reserved": 0, "fusion_lon": 0.0, "lat": 38.90218133333333, "is_disabled": 0, "name": "1edb804bfe5e3e7b33bbeccbfc7b1255", "fusion_lat": 0.0, "rental_uris": {"ios": "https://dc.lft.to/lastmile_qr_scan", "android": "https://dc.lft.to/lastmile_qr_scan"}, "lon": -77.02383283333333, "type": "electric_scooter"}, {"bike_id": "dd5448e47b7cf70c64e874fc8e64c877", "is_reserved": 0, "fusion_lon": 0.0, "lat": 38.876659833333335, "is_disabled": 0, "name": "dd5448e47b7cf70c64e874fc8e64c877", "fusion_lat": 0.0, "rental_uris": {"ios": "https://dc.lft.to/lastmile_qr_scan", "android": "https://dc.lft.to/lastmile_qr_scan"}, "lon": -77.00072, "type": "electric_scooter"}, {"bike_id": "3c244c73682c30cdcdb152f609f8e0fa", "is_reserved": 0, "fusion_lon": 0.0, "lat": 38.910116, "is_disabled": 0, "name": "3c244c73682c30cdcdb152f609f8e0fa", "fusion_lat": 0.0, "rental_uris": {"ios": "https://dc.lft.to/lastmile_qr_scan", "android": "https://dc.lft.to/lastmile_qr_scan"}, "lon": -76.9938955, "type": "electric_scooter"}, {"bike_id": "15250e9451faffb397e27b6d29b214f5", "is_reserved": 0, "fusion_lon": 0.0, "lat": 38.92365616666667, "is_disabled": 0, "name": "15250e9451faffb397e27b6d29b214f5", "fusion_lat": 0.0, "rental_uris": {"ios": "https://dc.lft.to/lastmile_qr_scan", "android": "https://dc.lft.to/lastmile_qr_scan"}, "lon": -77.05136616666667, "type": "electric_scooter"}, {"bike_id": "3f1031e2ac749f2a49253a3023bc456e", "is_reserved": 0, "fusion_lon": 0.0, "lat": 38.92054983333333, "is_disabled": 0, "name": "3f1031e2ac749f2a49253a3023bc456e", "fusion_lat": 0.0, "rental_uris": {"ios": "https://dc.lft.to/lastmile_qr_scan", "android": "https://dc.lft.to/lastmile_qr_scan"}, "lon": -77.03394533333334, "type": "electric_scooter"}, {"bike_id": "ed9916065e3e69b091277e755420e290", "is_reserved": 0, "fusion_lon": 0.0, "lat": 38.905884666666665, "is_disabled": 0, "name": "ed9916065e3e69b091277e755420e290", "fusion_lat": 0.0, "rental_uris": {"ios": "https://dc.lft.to/lastmile_qr_scan", "android": "https://dc.lft.to/lastmile_qr_scan"}, "lon": -77.06517933333333, "type": "electric_scooter"}, {"bike_id": "92c121559254e0cfd47a5f7cbabdd130", "is_reserved": 0, "fusion_lon": 0.0, "lat": 38.905727166666665, "is_disabled": 0, "name": "92c121559254e0cfd47a5f7cbabdd130", "fusion_lat": 0.0, "rental_uris": {"ios": "https://dc.lft.to/lastmile_qr_scan", "android": "https://dc.lft.to/lastmile_qr_scan"}, "lon": -77.03630133333333, "type": "electric_scooter"}, {"bike_id": "98e82f1ea35097d9c52f1d56d1f82237", "is_reserved": 0, "fusion_lon": 0.0, "lat": 38.903854833333334, "is_disabled": 0, "name": "98e82f1ea35097d9c52f1d56d1f82237", "fusion_lat": 0.0, "rental_uris": {"ios": "https://dc.lft.to/lastmile_qr_scan", "android": "https://dc.lft.to/lastmile_qr_scan"}, "lon": -77.02983633333334, "type": "electric_scooter"}, {"bike_id": "301027723579088345f463bf3bd0e712", "is_reserved": 0, "fusion_lon": 0.0, "lat": 38.909618, "is_disabled": 0, "name": "301027723579088345f463bf3bd0e712", "fusion_lat": 0.0, "rental_uris": {"ios": "https://dc.lft.to/lastmile_qr_scan", "android": "https://dc.lft.to/lastmile_qr_scan"}, "lon": -77.03457883333333, "type": "electric_scooter"}, {"bike_id": "f0382d78fd5836f3765f65fc780a9f2a", "is_reserved": 0, "fusion_lon": 0.0, "lat": 38.92659883333334, "is_disabled": 0, "name": "f0382d78fd5836f3765f65fc780a9f2a", "fusion_lat": 0.0, "rental_uris": {"ios": "https://dc.lft.to/lastmile_qr_scan", "android": "https://dc.lft.to/lastmile_qr_scan"}, "lon": -77.037285, "type": "electric_scooter"}, {"bike_id": "f3b2fdff9f10fbd33fb89a3134e7c433", "is_reserved": 0, "fusion_lon": 0.0, "lat": 38.90796733333333, "is_disabled": 0, "name": "f3b2fdff9f10fbd33fb89a3134e7c433", "fusion_lat": 0.0, "rental_uris": {"ios": "https://dc.lft.to/lastmile_qr_scan", "android": "https://dc.lft.to/lastmile_qr_scan"}, "lon": -77.00025133333334, "type": "electric_scooter"}, {"bike_id": "351740c0e8820e93d003564868c06f58", "is_reserved": 0, "fusion_lon": 0.0, "lat": 38.90123533333333, "is_disabled": 0, "name": "351740c0e8820e93d003564868c06f58", "fusion_lat": 0.0, "rental_uris": {"ios": "https://dc.lft.to/lastmile_qr_scan", "android": "https://dc.lft.to/lastmile_qr_scan"}, "lon": -77.04977666666667, "type": "electric_scooter"}, {"bike_id": "2738873a991124a0b0235f0c626b4b86", "is_reserved": 0, "fusion_lon": 0.0, "lat": 38.91751566666667, "is_disabled": 0, "name": "2738873a991124a0b0235f0c626b4b86", "fusion_lat": 0.0, "rental_uris": {"ios": "https://dc.lft.to/lastmile_qr_scan", "android": "https://dc.lft.to/lastmile_qr_scan"}, "lon": -76.989788, "type": "electric_bike"}, {"bike_id": "fd17c106ded5b011738e470fa2149d5b", "is_reserved": 0, "fusion_lon": 0.0, "lat": 38.914136, "is_disabled": 0, "name": "fd17c106ded5b011738e470fa2149d5b", "fusion_lat": 0.0, "rental_uris": {"ios": "https://dc.lft.to/lastmile_qr_scan", "android": "https://dc.lft.to/lastmile_qr_scan"}, "lon": -77.02680533333333, "type": "electric_scooter"}, {"bike_id": "c20520dca95688c86b718a84e83f37ab", "is_reserved": 0, "fusion_lon": 0.0, "lat": 38.91561216666667, "is_disabled": 0, "name": "c20520dca95688c86b718a84e83f37ab", "fusion_lat": 0.0, "rental_uris": {"ios": "https://dc.lft.to/lastmile_qr_scan", "android": "https://dc.lft.to/lastmile_qr_scan"}, "lon": -77.03936166666666, "type": "electric_scooter"}, {"bike_id": "5d1e194a67e1f833edd91c9543b00fd1", "is_reserved": 0, "fusion_lon": 0.0, "lat": 38.88527966666667, "is_disabled": 0, "name": "5d1e194a67e1f833edd91c9543b00fd1", "fusion_lat": 0.0, "rental_uris": {"ios": "https://dc.lft.to/lastmile_qr_scan", "android": "https://dc.lft.to/lastmile_qr_scan"}, "lon": -77.00582166666666, "type": "electric_scooter"}, {"bike_id": "443df24c530621e68caf2414b20b1c25", "is_reserved": 0, "fusion_lon": 0.0, "lat": 38.904668, "is_disabled": 0, "name": "443df24c530621e68caf2414b20b1c25", "fusion_lat": 0.0, "rental_uris": {"ios": "https://dc.lft.to/lastmile_qr_scan", "android": "https://dc.lft.to/lastmile_qr_scan"}, "lon": -77.029417, "type": "electric_scooter"}, {"bike_id": "64b05f617f0987cc421888152b978202", "is_reserved": 0, "fusion_lon": 0.0, "lat": 38.868286833333336, "is_disabled": 0, "name": "64b05f617f0987cc421888152b978202", "fusion_lat": 0.0, "rental_uris": {"ios": "https://dc.lft.to/lastmile_qr_scan", "android": "https://dc.lft.to/lastmile_qr_scan"}, "lon": -76.98617933333334, "type": "electric_scooter"}, {"bike_id": "2ccc29eb8ee1cee5f5dcb05f628501ec", "is_reserved": 0, "fusion_lon": 0.0, "lat": 38.907032666666666, "is_disabled": 0, "name": "2ccc29eb8ee1cee5f5dcb05f628501ec", "fusion_lat": 0.0, "rental_uris": {"ios": "https://dc.lft.to/lastmile_qr_scan", "android": "https://dc.lft.to/lastmile_qr_scan"}, "lon": -76.9870345, "type": "electric_scooter"}, {"bike_id": "ccc9fad1f7978312f6104c9c9e960c9b", "is_reserved": 0, "fusion_lon": 0.0, "lat": 38.9046905, "is_disabled": 0, "name": "ccc9fad1f7978312f6104c9c9e960c9b", "fusion_lat": 0.0, "rental_uris": {"ios": "https://dc.lft.to/lastmile_qr_scan", "android": "https://dc.lft.to/lastmile_qr_scan"}, "lon": -77.03985083333333, "type": "electric_scooter"}, {"bike_id": "de72c5281378e32f8c4a3e3e6bc0d0e0", "is_reserved": 0, "fusion_lon": 0.0, "lat": 38.892305666666665, "is_disabled": 0, "name": "de72c5281378e32f8c4a3e3e6bc0d0e0", "fusion_lat": 0.0, "rental_uris": {"ios": "https://dc.lft.to/lastmile_qr_scan", "android": "https://dc.lft.to/lastmile_qr_scan"}, "lon": -77.02177066666667, "type": "electric_scooter"}, {"bike_id": "764b1166eaf52e51780ba08640450b80", "is_reserved": 0, "fusion_lon": 0.0, "lat": 38.9169205, "is_disabled": 0, "name": "764b1166eaf52e51780ba08640450b80", "fusion_lat": 0.0, "rental_uris": {"ios": "https://dc.lft.to/lastmile_qr_scan", "android": "https://dc.lft.to/lastmile_qr_scan"}, "lon": -77.02597283333333, "type": "electric_scooter"}, {"bike_id": "37eed9066801b0ab742c840dfd891bf6", "is_reserved": 0, "fusion_lon": 0.0, "lat": 38.9370055, "is_disabled": 0, "name": "37eed9066801b0ab742c840dfd891bf6", "fusion_lat": 0.0, "rental_uris": {"ios": "https://dc.lft.to/lastmile_qr_scan", "android": "https://dc.lft.to/lastmile_qr_scan"}, "lon": -77.0241565, "type": "electric_scooter"}, {"bike_id": "94a6fc991c27064ff0962e376728c585", "is_reserved": 0, "fusion_lon": 0.0, "lat": 38.924871, "is_disabled": 0, "name": "94a6fc991c27064ff0962e376728c585", "fusion_lat": 0.0, "rental_uris": {"ios": "https://dc.lft.to/lastmile_qr_scan", "android": "https://dc.lft.to/lastmile_qr_scan"}, "lon": -77.03494616666667, "type": "electric_scooter"}, {"bike_id": "1c11c90ebc1ca7178da41aa15eefa3c9", "is_reserved": 0, "fusion_lon": 0.0, "lat": 38.927114333333336, "is_disabled": 0, "name": "1c11c90ebc1ca7178da41aa15eefa3c9", "fusion_lat": 0.0, "rental_uris": {"ios": "https://dc.lft.to/lastmile_qr_scan", "android": "https://dc.lft.to/lastmile_qr_scan"}, "lon": -77.0410075, "type": "electric_scooter"}, {"bike_id": "91411531dbad42c9e199932e9e4a8138", "is_reserved": 0, "fusion_lon": 0.0, "lat": 38.9091415, "is_disabled": 0, "name": "91411531dbad42c9e199932e9e4a8138", "fusion_lat": 0.0, "rental_uris": {"ios": "https://dc.lft.to/lastmile_qr_scan", "android": "https://dc.lft.to/lastmile_qr_scan"}, "lon": -77.03842416666667, "type": "electric_scooter"}, {"bike_id": "1964a161e93ab1da59c83fc3e8e2bf0d", "is_reserved": 0, "fusion_lon": 0.0, "lat": 38.93671633333334, "is_disabled": 0, "name": "1964a161e93ab1da59c83fc3e8e2bf0d", "fusion_lat": 0.0, "rental_uris": {"ios": "https://dc.lft.to/lastmile_qr_scan", "android": "https://dc.lft.to/lastmile_qr_scan"}, "lon": -76.9522425, "type": "electric_bike"}, {"bike_id": "825bc7781aca0d5f74961c387565bf08", "is_reserved": 0, "fusion_lon": 0.0, "lat": 38.899995, "is_disabled": 0, "name": "825bc7781aca0d5f74961c387565bf08", "fusion_lat": 0.0, "rental_uris": {"ios": "https://dc.lft.to/lastmile_qr_scan", "android": "https://dc.lft.to/lastmile_qr_scan"}, "lon": -76.9976615, "type": "electric_scooter"}, {"bike_id": "d5b1d704fd88ca14893c8470ea190e12", "is_reserved": 0, "fusion_lon": 0.0, "lat": 38.928768166666664, "is_disabled": 0, "name": "d5b1d704fd88ca14893c8470ea190e12", "fusion_lat": 0.0, "rental_uris": {"ios": "https://dc.lft.to/lastmile_qr_scan", "android": "https://dc.lft.to/lastmile_qr_scan"}, "lon": -77.04053283333333, "type": "electric_scooter"}, {"bike_id": "76885d8bee647bcfd8257a54b93f5878", "is_reserved": 0, "fusion_lon": 0.0, "lat": 38.86505483333333, "is_disabled": 0, "name": "76885d8bee647bcfd8257a54b93f5878", "fusion_lat": 0.0, "rental_uris": {"ios": "https://dc.lft.to/lastmile_qr_scan", "android": "https://dc.lft.to/lastmile_qr_scan"}, "lon": -76.98980333333333, "type": "electric_scooter"}, {"bike_id": "f64d8f49b0ee3e7930da13a1628a4253", "is_reserved": 0, "fusion_lon": 0.0, "lat": 38.9115295, "is_disabled": 0, "name": "f64d8f49b0ee3e7930da13a1628a4253", "fusion_lat": 0.0, "rental_uris": {"ios": "https://dc.lft.to/lastmile_qr_scan", "android": "https://dc.lft.to/lastmile_qr_scan"}, "lon": -77.04177183333333, "type": "electric_scooter"}, {"bike_id": "141b4ed4fc76f7c579516dc69ad37e6d", "is_reserved": 0, "fusion_lon": 0.0, "lat": 38.906642, "is_disabled": 0, "name": "141b4ed4fc76f7c579516dc69ad37e6d", "fusion_lat": 0.0, "rental_uris": {"ios": "https://dc.lft.to/lastmile_qr_scan", "android": "https://dc.lft.to/lastmile_qr_scan"}, "lon": -77.03817816666667, "type": "electric_scooter"}, {"bike_id": "cebc520fadffb37eda58241eb9d77731", "is_reserved": 0, "fusion_lon": 0.0, "lat": 38.88406116666667, "is_disabled": 0, "name": "cebc520fadffb37eda58241eb9d77731", "fusion_lat": 0.0, "rental_uris": {"ios": "https://dc.lft.to/lastmile_qr_scan", "android": "https://dc.lft.to/lastmile_qr_scan"}, "lon": -76.96057666666667, "type": "electric_bike"}, {"bike_id": "4ed8477709d67b17d48039dcd42892ae", "is_reserved": 0, "fusion_lon": 0.0, "lat": 38.919541, "is_disabled": 0, "name": "4ed8477709d67b17d48039dcd42892ae", "fusion_lat": 0.0, "rental_uris": {"ios": "https://dc.lft.to/lastmile_qr_scan", "android": "https://dc.lft.to/lastmile_qr_scan"}, "lon": -76.97878366666667, "type": "electric_bike"}, {"bike_id": "3813cee03e646eb9569a2d064b1a2b37", "is_reserved": 0, "fusion_lon": 0.0, "lat": 38.90455983333333, "is_disabled": 0, "name": "3813cee03e646eb9569a2d064b1a2b37", "fusion_lat": 0.0, "rental_uris": {"ios": "https://dc.lft.to/lastmile_qr_scan", "android": "https://dc.lft.to/lastmile_qr_scan"}, "lon": -77.05320466666667, "type": "electric_scooter"}, {"bike_id": "7949b3cef06c78b8e8fc7fa049aa67a9", "is_reserved": 0, "fusion_lon": 0.0, "lat": 38.87191833333333, "is_disabled": 0, "name": "7949b3cef06c78b8e8fc7fa049aa67a9", "fusion_lat": 0.0, "rental_uris": {"ios": "https://dc.lft.to/lastmile_qr_scan", "android": "https://dc.lft.to/lastmile_qr_scan"}, "lon": -77.01378116666666, "type": "electric_scooter"}, {"bike_id": "8312a417985dff7b7846478711bacb61", "is_reserved": 0, "fusion_lon": 0.0, "lat": 38.86011716666667, "is_disabled": 0, "name": "8312a417985dff7b7846478711bacb61", "fusion_lat": 0.0, "rental_uris": {"ios": "https://dc.lft.to/lastmile_qr_scan", "android": "https://dc.lft.to/lastmile_qr_scan"}, "lon": -77.057719, "type": "electric_bike"}, {"bike_id": "278e657a5192c57810213945caef5726", "is_reserved": 0, "fusion_lon": 0.0, "lat": 38.93253966666666, "is_disabled": 0, "name": "278e657a5192c57810213945caef5726", "fusion_lat": 0.0, "rental_uris": {"ios": "https://dc.lft.to/lastmile_qr_scan", "android": "https://dc.lft.to/lastmile_qr_scan"}, "lon": -77.03280033333333, "type": "electric_scooter"}, {"bike_id": "26b1fb28ef1a31efc0328dda22d713a6", "is_reserved": 0, "fusion_lon": 0.0, "lat": 38.905379833333335, "is_disabled": 0, "name": "26b1fb28ef1a31efc0328dda22d713a6", "fusion_lat": 0.0, "rental_uris": {"ios": "https://dc.lft.to/lastmile_qr_scan", "android": "https://dc.lft.to/lastmile_qr_scan"}, "lon": -77.05132933333333, "type": "electric_scooter"}, {"bike_id": "5ed1ca3cd191f127bde915a83036af96", "is_reserved": 0, "fusion_lon": 0.0, "lat": 38.90079183333334, "is_disabled": 0, "name": "5ed1ca3cd191f127bde915a83036af96", "fusion_lat": 0.0, "rental_uris": {"ios": "https://dc.lft.to/lastmile_qr_scan", "android": "https://dc.lft.to/lastmile_qr_scan"}, "lon": -76.938716, "type": "electric_scooter"}, {"bike_id": "618381a0fc251a71f3eea8efb953d241", "is_reserved": 0, "fusion_lon": 0.0, "lat": 38.919606333333334, "is_disabled": 0, "name": "618381a0fc251a71f3eea8efb953d241", "fusion_lat": 0.0, "rental_uris": {"ios": "https://dc.lft.to/lastmile_qr_scan", "android": "https://dc.lft.to/lastmile_qr_scan"}, "lon": -77.03182566666666, "type": "electric_scooter"}, {"bike_id": "20d8ce889da0e1379ae830e78079e6b1", "is_reserved": 0, "fusion_lon": 0.0, "lat": 38.89729833333333, "is_disabled": 0, "name": "20d8ce889da0e1379ae830e78079e6b1", "fusion_lat": 0.0, "rental_uris": {"ios": "https://dc.lft.to/lastmile_qr_scan", "android": "https://dc.lft.to/lastmile_qr_scan"}, "lon": -77.05572183333334, "type": "electric_scooter"}, {"bike_id": "3145daa3539019cda87d00fec0947dc1", "is_reserved": 0, "fusion_lon": 0.0, "lat": 38.903796166666666, "is_disabled": 0, "name": "3145daa3539019cda87d00fec0947dc1", "fusion_lat": 0.0, "rental_uris": {"ios": "https://dc.lft.to/lastmile_qr_scan", "android": "https://dc.lft.to/lastmile_qr_scan"}, "lon": -77.04487683333333, "type": "electric_scooter"}, {"bike_id": "f0327beb8e1f32ab7e9508db4d41ea45", "is_reserved": 0, "fusion_lon": 0.0, "lat": 38.888483666666666, "is_disabled": 0, "name": "f0327beb8e1f32ab7e9508db4d41ea45", "fusion_lat": 0.0, "rental_uris": {"ios": "https://dc.lft.to/lastmile_qr_scan", "android": "https://dc.lft.to/lastmile_qr_scan"}, "lon": -76.9268605, "type": "electric_scooter"}, {"bike_id": "268387811a0a129904c31752023d33ae", "is_reserved": 0, "fusion_lon": 0.0, "lat": 38.949704, "is_disabled": 0, "name": "268387811a0a129904c31752023d33ae", "fusion_lat": 0.0, "rental_uris": {"ios": "https://dc.lft.to/lastmile_qr_scan", "android": "https://dc.lft.to/lastmile_qr_scan"}, "lon": -76.97286783333334, "type": "electric_bike"}, {"bike_id": "81464b8b5b2845760aa3b10f7ae85ca0", "is_reserved": 0, "fusion_lon": 0.0, "lat": 38.90377616666667, "is_disabled": 0, "name": "81464b8b5b2845760aa3b10f7ae85ca0", "fusion_lat": 0.0, "rental_uris": {"ios": "https://dc.lft.to/lastmile_qr_scan", "android": "https://dc.lft.to/lastmile_qr_scan"}, "lon": -76.9957035, "type": "electric_scooter"}, {"bike_id": "fb20a4c24dce54553797a9639f564e10", "is_reserved": 0, "fusion_lon": 0.0, "lat": 38.8874715, "is_disabled": 0, "name": "fb20a4c24dce54553797a9639f564e10", "fusion_lat": 0.0, "rental_uris": {"ios": "https://dc.lft.to/lastmile_qr_scan", "android": "https://dc.lft.to/lastmile_qr_scan"}, "lon": -77.03153633333334, "type": "electric_scooter"}, {"bike_id": "f15dd2c021f6110037ac54c209dd95b6", "is_reserved": 0, "fusion_lon": 0.0, "lat": 38.94806033333333, "is_disabled": 0, "name": "f15dd2c021f6110037ac54c209dd95b6", "fusion_lat": 0.0, "rental_uris": {"ios": "https://dc.lft.to/lastmile_qr_scan", "android": "https://dc.lft.to/lastmile_qr_scan"}, "lon": -77.07912333333333, "type": "electric_scooter"}, {"bike_id": "fd40ea184524f04bf1817f1629260ea3", "is_reserved": 0, "fusion_lon": 0.0, "lat": 38.866175, "is_disabled": 0, "name": "fd40ea184524f04bf1817f1629260ea3", "fusion_lat": 0.0, "rental_uris": {"ios": "https://dc.lft.to/lastmile_qr_scan", "android": "https://dc.lft.to/lastmile_qr_scan"}, "lon": -76.9456845, "type": "electric_bike"}, {"bike_id": "f6a813a3aef006211ad1f8f72e70e1bb", "is_reserved": 0, "fusion_lon": 0.0, "lat": 38.91554516666667, "is_disabled": 0, "name": "f6a813a3aef006211ad1f8f72e70e1bb", "fusion_lat": 0.0, "rental_uris": {"ios": "https://dc.lft.to/lastmile_qr_scan", "android": "https://dc.lft.to/lastmile_qr_scan"}, "lon": -77.03864566666667, "type": "electric_scooter"}, {"bike_id": "a1adc48d71bd0f93b563cfceebe74d38", "is_reserved": 0, "fusion_lon": 0.0, "lat": 38.928570666666666, "is_disabled": 0, "name": "a1adc48d71bd0f93b563cfceebe74d38", "fusion_lat": 0.0, "rental_uris": {"ios": "https://dc.lft.to/lastmile_qr_scan", "android": "https://dc.lft.to/lastmile_qr_scan"}, "lon": -77.22199483333333, "type": "electric_bike"}, {"bike_id": "59290972a75f80df8b67aa94a05b0b58", "is_reserved": 0, "fusion_lon": 0.0, "lat": 39.088572166666665, "is_disabled": 0, "name": "59290972a75f80df8b67aa94a05b0b58", "fusion_lat": 0.0, "rental_uris": {"ios": "https://dc.lft.to/lastmile_qr_scan", "android": "https://dc.lft.to/lastmile_qr_scan"}, "lon": -77.1783725, "type": "electric_bike"}, {"bike_id": "21fe23df6ad50e5a09dd60598c7f2a94", "is_reserved": 0, "fusion_lon": 0.0, "lat": 38.9574585, "is_disabled": 0, "name": "21fe23df6ad50e5a09dd60598c7f2a94", "fusion_lat": 0.0, "rental_uris": {"ios": "https://dc.lft.to/lastmile_qr_scan", "android": "https://dc.lft.to/lastmile_qr_scan"}, "lon": -77.02415366666666, "type": "electric_scooter"}, {"bike_id": "18136712fd923ef22120a074a95a1d47", "is_reserved": 0, "fusion_lon": 0.0, "lat": 38.90944416666667, "is_disabled": 0, "name": "18136712fd923ef22120a074a95a1d47", "fusion_lat": 0.0, "rental_uris": {"ios": "https://dc.lft.to/lastmile_qr_scan", "android": "https://dc.lft.to/lastmile_qr_scan"}, "lon": -77.0487785, "type": "electric_scooter"}, {"bike_id": "ce8a273be576a1a6ac61a04307ff8435", "is_reserved": 0, "fusion_lon": 0.0, "lat": 38.92431583333333, "is_disabled": 0, "name": "ce8a273be576a1a6ac61a04307ff8435", "fusion_lat": 0.0, "rental_uris": {"ios": "https://dc.lft.to/lastmile_qr_scan", "android": "https://dc.lft.to/lastmile_qr_scan"}, "lon": -76.99154566666667, "type": "electric_bike"}, {"bike_id": "d0823add0b1fa9b6b262cb6a4f11d3cf", "is_reserved": 0, "fusion_lon": 0.0, "lat": 38.9533795, "is_disabled": 0, "name": "d0823add0b1fa9b6b262cb6a4f11d3cf", "fusion_lat": 0.0, "rental_uris": {"ios": "https://dc.lft.to/lastmile_qr_scan", "android": "https://dc.lft.to/lastmile_qr_scan"}, "lon": -77.0095955, "type": "electric_bike"}, {"bike_id": "af19601cc612db4349a8d64cfbc01d39", "is_reserved": 0, "fusion_lon": 0.0, "lat": 38.906570333333335, "is_disabled": 0, "name": "af19601cc612db4349a8d64cfbc01d39", "fusion_lat": 0.0, "rental_uris": {"ios": "https://dc.lft.to/lastmile_qr_scan", "android": "https://dc.lft.to/lastmile_qr_scan"}, "lon": -77.038167, "type": "electric_scooter"}, {"bike_id": "4cf2c5d2a0795ba4b836d7895b2dbf47", "is_reserved": 0, "fusion_lon": 0.0, "lat": 38.923634166666666, "is_disabled": 0, "name": "4cf2c5d2a0795ba4b836d7895b2dbf47", "fusion_lat": 0.0, "rental_uris": {"ios": "https://dc.lft.to/lastmile_qr_scan", "android": "https://dc.lft.to/lastmile_qr_scan"}, "lon": -77.04395066666666, "type": "electric_scooter"}, {"bike_id": "2911b6d64760fecec59bb45f4abfa0e3", "is_reserved": 0, "fusion_lon": 0.0, "lat": 38.905719166666664, "is_disabled": 0, "name": "2911b6d64760fecec59bb45f4abfa0e3", "fusion_lat": 0.0, "rental_uris": {"ios": "https://dc.lft.to/lastmile_qr_scan", "android": "https://dc.lft.to/lastmile_qr_scan"}, "lon": -77.0217505, "type": "electric_scooter"}, {"bike_id": "78119593b2371f6c028239fb86b65dea", "is_reserved": 0, "fusion_lon": 0.0, "lat": 38.917053833333334, "is_disabled": 0, "name": "78119593b2371f6c028239fb86b65dea", "fusion_lat": 0.0, "rental_uris": {"ios": "https://dc.lft.to/lastmile_qr_scan", "android": "https://dc.lft.to/lastmile_qr_scan"}, "lon": -77.02305866666667, "type": "electric_scooter"}, {"bike_id": "7b96f94f8da763343db0b1cf44fef8eb", "is_reserved": 0, "fusion_lon": 0.0, "lat": 38.95654666666667, "is_disabled": 0, "name": "7b96f94f8da763343db0b1cf44fef8eb", "fusion_lat": 0.0, "rental_uris": {"ios": "https://dc.lft.to/lastmile_qr_scan", "android": "https://dc.lft.to/lastmile_qr_scan"}, "lon": -77.0329205, "type": "electric_scooter"}, {"bike_id": "6945de6caab5b6c431c4d371743dc591", "is_reserved": 0, "fusion_lon": 0.0, "lat": 38.88741616666667, "is_disabled": 0, "name": "6945de6caab5b6c431c4d371743dc591", "fusion_lat": 0.0, "rental_uris": {"ios": "https://dc.lft.to/lastmile_qr_scan", "android": "https://dc.lft.to/lastmile_qr_scan"}, "lon": -77.02265066666666, "type": "electric_bike"}, {"bike_id": "1a36fd74c73b654a4c212c2ac4d9fe7a", "is_reserved": 0, "fusion_lon": 0.0, "lat": 38.865058, "is_disabled": 0, "name": "1a36fd74c73b654a4c212c2ac4d9fe7a", "fusion_lat": 0.0, "rental_uris": {"ios": "https://dc.lft.to/lastmile_qr_scan", "android": "https://dc.lft.to/lastmile_qr_scan"}, "lon": -76.98978916666667, "type": "electric_scooter"}, {"bike_id": "b079abf9442817ae149f1bf4f2e4ce91", "is_reserved": 0, "fusion_lon": 0.0, "lat": 38.925804666666664, "is_disabled": 0, "name": "b079abf9442817ae149f1bf4f2e4ce91", "fusion_lat": 0.0, "rental_uris": {"ios": "https://dc.lft.to/lastmile_qr_scan", "android": "https://dc.lft.to/lastmile_qr_scan"}, "lon": -77.00474266666667, "type": "electric_scooter"}, {"bike_id": "059f1fd2579c9aabb3e28d8dd6e1444a", "is_reserved": 0, "fusion_lon": 0.0, "lat": 38.92635283333333, "is_disabled": 0, "name": "059f1fd2579c9aabb3e28d8dd6e1444a", "fusion_lat": 0.0, "rental_uris": {"ios": "https://dc.lft.to/lastmile_qr_scan", "android": "https://dc.lft.to/lastmile_qr_scan"}, "lon": -77.037915, "type": "electric_scooter"}, {"bike_id": "472a09ec718be0487cf4327da5043670", "is_reserved": 0, "fusion_lon": 0.0, "lat": 38.9358595, "is_disabled": 0, "name": "472a09ec718be0487cf4327da5043670", "fusion_lat": 0.0, "rental_uris": {"ios": "https://dc.lft.to/lastmile_qr_scan", "android": "https://dc.lft.to/lastmile_qr_scan"}, "lon": -77.02766533333333, "type": "electric_scooter"}, {"bike_id": "b20da5bcf6bcda4758779f698822c5c5", "is_reserved": 0, "fusion_lon": 0.0, "lat": 38.89339733333333, "is_disabled": 0, "name": "b20da5bcf6bcda4758779f698822c5c5", "fusion_lat": 0.0, "rental_uris": {"ios": "https://dc.lft.to/lastmile_qr_scan", "android": "https://dc.lft.to/lastmile_qr_scan"}, "lon": -76.98458833333333, "type": "electric_scooter"},