{"data": {"bikes": [{"is_reserved": 0, "fusion_lon": 0.0, "fusion_lat": 0.0, "name": "70333b35883a04f4eecde2c088f85d71", "type": "electric_scooter", "is_disabled": 0, "lat": 38.93369333333333, "rental_uris": {"android": "https://dc.lft.to/lastmile_qr_scan", "ios": "https://dc.lft.to/lastmile_qr_scan"}, "bike_id": "70333b35883a04f4eecde2c088f85d71", "lon": -77.05731533333334}, {"is_reserved": 0, "fusion_lon": 0.0, "fusion_lat": 0.0, "name": "9cf804199d56ba9a6515c93a04a3c847", "type": "electric_scooter", "is_disabled": 0, "lat": 38.892352, "rental_uris": {"android": "https://dc.lft.to/lastmile_qr_scan", "ios": "https://dc.lft.to/lastmile_qr_scan"}, "bike_id": "9cf804199d56ba9a6515c93a04a3c847", "lon": -77.0334915}, {"is_reserved": 0, "fusion_lon": 0.0, "fusion_lat": 0.0, "name": "86b123b09e77814fa23193d026433e18", "type": "electric_scooter", "is_disabled": 0, "lat": 38.88081866666667, "rental_uris": {"android": "https://dc.lft.to/lastmile_qr_scan", "ios": "https://dc.lft.to/lastmile_qr_scan"}, "bike_id": "86b123b09e77814fa23193d026433e18", "lon": -76.99840433333334}, {"is_reserved": 0, "fusion_lon": 0.0, "fusion_lat": 0.0, "name": "69f554a8dedc378f304e3db77089ee93", "type": "electric_scooter", "is_disabled": 0, "lat": 38.87436016666667, "rental_uris": {"android": "https://dc.lft.to/lastmile_qr_scan", "ios": "https://dc.lft.to/lastmile_qr_scan"}, "bike_id": "69f554a8dedc378f304e3db77089ee93", "lon": -77.0005015}, {"is_reserved": 0, "fusion_lon": 0.0, "fusion_lat": 0.0, "name": "9704869a87a248a12202139d16aefa38", "type": "electric_scooter", "is_disabled": 0, "lat": 38.874625, "rental_uris": {"android": "https://dc.lft.to/lastmile_qr_scan", "ios": "https://dc.lft.to/lastmile_qr_scan"}, "bike_id": "9704869a87a248a12202139d16aefa38", "lon": -77.018972}, {"is_reserved": 0, "fusion_lon": 0.0, "fusion_lat": 0.0, "name": "254ba8ddb465359e056a35295f106f88", "type": "electric_bike", "is_disabled": 0, "lat": 38.818375833333334, "rental_uris": {"android": "https://dc.lft.to/lastmile_qr_scan", "ios": "https://dc.lft.to/lastmile_qr_scan"}, "bike_id": "254ba8ddb465359e056a35295f106f88", "lon": -77.10570366666667}, {"is_reserved": 0, "fusion_lon": 0.0, "fusion_lat": 0.0, "name": "d471cc00d2290fb42a31b474f454d6d9", "type": "electric_bike", "is_disabled": 0, "lat": 38.884038833333335, "rental_uris": {"android": "https://dc.lft.to/lastmile_qr_scan", "ios": "https://dc.lft.to/lastmile_qr_scan"}, "bike_id": "d471cc00d2290fb42a31b474f454d6d9", "lon": -77.03035233333334}, {"is_reserved": 0, "fusion_lon": 0.0, "fusion_lat": 0.0, "name": "dc502d368a4f2040d7206a1900f367a6", "type": "electric_scooter", "is_disabled": 0, "lat": 38.91996616666667, "rental_uris": {"android": "https://dc.lft.to/lastmile_qr_scan", "ios": "https://dc.lft.to/lastmile_qr_scan"}, "bike_id": "dc502d368a4f2040d7206a1900f367a6", "lon": -77.02182783333333}, {"is_reserved": 0, "fusion_lon": 0.0, "fusion_lat": 0.0, "name": "fed76db639ebd59c5bc09ca44e679f1d", "type": "electric_scooter", "is_disabled": 0, "lat": 38.87632633333333, "rental_uris": {"android": "https://dc.lft.to/lastmile_qr_scan", "ios": "https://dc.lft.to/lastmile_qr_scan"}, "bike_id": "fed76db639ebd59c5bc09ca44e679f1d", "lon": -77.01257216666667}, {"is_reserved": 0, "fusion_lon": 0.0, "fusion_lat": 0.0, "name": "59b44b29f6459322c46426c3990055e8", "type": "electric_scooter", "is_disabled": 0, "lat": 38.91415116666667, "rental_uris": {"android": "https://dc.lft.to/lastmile_qr_scan", "ios": "https://dc.lft.to/lastmile_qr_scan"}, "bike_id": "59b44b29f6459322c46426c3990055e8", "lon": -77.04915433333333}, {"is_reserved": 0, "fusion_lon": 0.0, "fusion_lat": 0.0, "name": "0d7c21fa0153e23e62e7dcf6c8e5fa13", "type": "electric_scooter", "is_disabled": 0, "lat": 38.9000125, "rental_uris": {"android": "https://dc.lft.to/lastmile_qr_scan", "ios": "https://dc.lft.to/lastmile_qr_scan"}, "bike_id": "0d7c21fa0153e23e62e7dcf6c8e5fa13", "lon": -76.9913975}, {"is_reserved": 0, "fusion_lon": 0.0, "fusion_lat": 0.0, "name": "312321354527a486369e17c5b7d8eb84", "type": "electric_scooter", "is_disabled": 0, "lat": 38.95272633333333, "rental_uris": {"android": "https://dc.lft.to/lastmile_qr_scan", "ios": "https://dc.lft.to/lastmile_qr_scan"}, "bike_id": "312321354527a486369e17c5b7d8eb84", "lon": -77.0697285}, {"is_reserved": 0, "fusion_lon": 0.0, "fusion_lat": 0.0, "name": "fb136814032cfacd48632633c2165033", "type": "electric_scooter", "is_disabled": 0, "lat": 38.86007633333333, "rental_uris": {"android": "https://dc.lft.to/lastmile_qr_scan", "ios": "https://dc.lft.to/lastmile_qr_scan"}, "bike_id": "fb136814032cfacd48632633c2165033", "lon": -76.9851645}, {"is_reserved": 0, "fusion_lon": 0.0, "fusion_lat": 0.0, "name": "3e6dc9b0f7653bf5f1fc560091535686", "type": "electric_scooter", "is_disabled": 0, "lat": 38.9061735, "rental_uris": {"android": "https://dc.lft.to/lastmile_qr_scan", "ios": "https://dc.lft.to/lastmile_qr_scan"}, "bike_id": "3e6dc9b0f7653bf5f1fc560091535686", "lon": -76.98686033333334}, {"is_reserved": 0, "fusion_lon": 0.0, "fusion_lat": 0.0, "name": "4c807dd70c58cff1557e11c4b0145d4b", "type": "electric_scooter", "is_disabled": 0, "lat": 38.91049866666667, "rental_uris": {"android": "https://dc.lft.to/lastmile_qr_scan", "ios": "https://dc.lft.to/lastmile_qr_scan"}, "bike_id": "4c807dd70c58cff1557e11c4b0145d4b", "lon": -77.0648575}, {"is_reserved": 0, "fusion_lon": 0.0, "fusion_lat": 0.0, "name": "59b4a2f1bd972ecbe64c83e630e732a1", "type": "electric_scooter", "is_disabled": 0, "lat": 38.91020366666667, "rental_uris": {"android": "https://dc.lft.to/lastmile_qr_scan", "ios": "https://dc.lft.to/lastmile_qr_scan"}, "bike_id": "59b4a2f1bd972ecbe64c83e630e732a1", "lon": -77.03464616666666}, {"is_reserved": 0, "fusion_lon": 0.0, "fusion_lat": 0.0, "name": "954f6287818ce5ff66a11fb9f434350e", "type": "electric_scooter", "is_disabled": 0, "lat": 38.90826216666667, "rental_uris": {"android": "https://dc.lft.to/lastmile_qr_scan", "ios": "https://dc.lft.to/lastmile_qr_scan"}, "bike_id": "954f6287818ce5ff66a11fb9f434350e", "lon": -77.07431166666667}, {"is_reserved": 0, "fusion_lon": 0.0, "fusion_lat": 0.0, "name": "c7edf6c4d98d36166869504a778b53aa", "type": "electric_scooter", "is_disabled": 0, "lat": 38.95065233333333, "rental_uris": {"android": "https://dc.lft.to/lastmile_qr_scan", "ios": "https://dc.lft.to/lastmile_qr_scan"}, "bike_id": "c7edf6c4d98d36166869504a778b53aa", "lon": -76.99565383333334}, {"is_reserved": 0, "fusion_lon": 0.0, "fusion_lat": 0.0, "name": "393dc2098edf4bb69e2b32de249ce0ff", "type": "electric_scooter", "is_disabled": 0, "lat": 38.915639666666664, "rental_uris": {"android": "https://dc.lft.to/lastmile_qr_scan", "ios": "https://dc.lft.to/lastmile_qr_scan"}, "bike_id": "393dc2098edf4bb69e2b32de249ce0ff", "lon": -77.03351283333333}, {"is_reserved": 0, "fusion_lon": 0.0, "fusion_lat": 0.0, "name": "e7fd32a90b576f106ec71a499ac3618e", "type": "electric_scooter", "is_disabled": 0, "lat": 38.91573116666667, "rental_uris": {"android": "https://dc.lft.to/lastmile_qr_scan", "ios": "https://dc.lft.to/lastmile_qr_scan"}, "bike_id": "e7fd32a90b576f106ec71a499ac3618e", "lon": -77.03181083333334}, {"is_reserved": 0, "fusion_lon": 0.0, "fusion_lat": 0.0, "name": "188e61f9d7567bbe8e48185e9b70b091", "type": "electric_bike", "is_disabled": 0, "lat": 38.95307833333333, "rental_uris": {"android": "https://dc.lft.to/lastmile_qr_scan", "ios": "https://dc.lft.to/lastmile_qr_scan"}, "bike_id": "188e61f9d7567bbe8e48185e9b70b091", "lon": -77.023752}, {"is_reserved": 0, "fusion_lon": 0.0, "fusion_lat": 0.0, "name": "19bda17e573b1b18fa32d5f4baed32e1", "type": "electric_scooter", "is_disabled": 0, "lat": 38.881344666666664, "rental_uris": {"android": "https://dc.lft.to/lastmile_qr_scan", "ios": "https://dc.lft.to/lastmile_qr_scan"}, "bike_id": "19bda17e573b1b18fa32d5f4baed32e1", "lon": -77.016673}, {"is_reserved": 0, "fusion_lon": 0.0, "fusion_lat": 0.0, "name": "3b62f998706f97b6c8a2b0176eb481e2", "type": "electric_scooter", "is_disabled": 0, "lat": 38.89608916666667, "rental_uris": {"android": "https://dc.lft.to/lastmile_qr_scan", "ios": "https://dc.lft.to/lastmile_qr_scan"}, "bike_id": "3b62f998706f97b6c8a2b0176eb481e2", "lon": -77.04597866666667}, {"is_reserved": 0, "fusion_lon": 0.0, "fusion_lat": 0.0, "name": "d613816fb77e07d2f7a0b863c169899a", "type": "electric_scooter", "is_disabled": 0, "lat": 38.89609866666667, "rental_uris": {"android": "https://dc.lft.to/lastmile_qr_scan", "ios": "https://dc.lft.to/lastmile_qr_scan"}, "bike_id": "d613816fb77e07d2f7a0b863c169899a", "lon": -77.04978933333334}, {"is_reserved": 0, "fusion_lon": 0.0, "fusion_lat": 0.0, "name": "132c8ba60457e614664ff56bfb3786d6", "type": "electric_scooter", "is_disabled": 0, "lat": 38.88529583333333, "rental_uris": {"android": "https://dc.lft.to/lastmile_qr_scan", "ios": "https://dc.lft.to/lastmile_qr_scan"}, "bike_id": "132c8ba60457e614664ff56bfb3786d6", "lon": -76.98055533333333}, {"is_reserved": 0, "fusion_lon": 0.0, "fusion_lat": 0.0, "name": "8ec2207835bd5269c732feef1581d41d", "type": "electric_scooter", "is_disabled": 0, "lat": 38.9429965, "rental_uris": {"android": "https://dc.lft.to/lastmile_qr_scan", "ios": "https://dc.lft.to/lastmile_qr_scan"}, "bike_id": "8ec2207835bd5269c732feef1581d41d", "lon": -77.06298616666666}, {"is_reserved": 0, "fusion_lon": 0.0, "fusion_lat": 0.0, "name": "4f8014ac37c4205ab130b08351680161", "type": "electric_scooter", "is_disabled": 0, "lat": 38.895325, "rental_uris": {"android": "https://dc.lft.to/lastmile_qr_scan", "ios": "https://dc.lft.to/lastmile_qr_scan"}, "bike_id": "4f8014ac37c4205ab130b08351680161", "lon": -77.028626}, {"is_reserved": 0, "fusion_lon": 0.0, "fusion_lat": 0.0, "name": "9f65be7b5b2152c22515e5d0a5041305", "type": "electric_scooter", "is_disabled": 0, "lat": 38.90990433333333, "rental_uris": {"android": "https://dc.lft.to/lastmile_qr_scan", "ios": "https://dc.lft.to/lastmile_qr_scan"}, "bike_id": "9f65be7b5b2152c22515e5d0a5041305", "lon": -77.033861}, {"is_reserved": 0, "fusion_lon": 0.0, "fusion_lat": 0.0, "name": "1b752ee391be953f558901823b895f80", "type": "electric_bike", "is_disabled": 0, "lat": 38.96618133333333, "rental_uris": {"android": "https://dc.lft.to/lastmile_qr_scan", "ios": "https://dc.lft.to/lastmile_qr_scan"}, "bike_id": "1b752ee391be953f558901823b895f80", "lon": -77.03429066666666}, {"is_reserved": 0, "fusion_lon": 0.0, "fusion_lat": 0.0, "name": "baeef54086a1b14374cf9c4bbd1f66fb", "type": "electric_scooter", "is_disabled": 0, "lat": 38.899185333333335, "rental_uris": {"android": "https://dc.lft.to/lastmile_qr_scan", "ios": "https://dc.lft.to/lastmile_qr_scan"}, "bike_id": "baeef54086a1b14374cf9c4bbd1f66fb", "lon": -76.93380716666667}, {"is_reserved": 0, "fusion_lon": 0.0, "fusion_lat": 0.0, "name": "2df6134da0780b557f318bcce322dd26", "type": "electric_bike", "is_disabled": 0, "lat": 38.854126, "rental_uris": {"android": "https://dc.lft.to/lastmile_qr_scan", "ios": "https://dc.lft.to/lastmile_qr_scan"}, "bike_id": "2df6134da0780b557f318bcce322dd26", "lon": -77.120806}, {"is_reserved": 0, "fusion_lon": 0.0, "fusion_lat": 0.0, "name": "bb437c51f8aa67e7ae187e237c55aab0", "type": "electric_bike", "is_disabled": 0, "lat": 38.893465166666665, "rental_uris": {"android": "https://dc.lft.to/lastmile_qr_scan", "ios": "https://dc.lft.to/lastmile_qr_scan"}, "bike_id": "bb437c51f8aa67e7ae187e237c55aab0", "lon": -77.18740366666667}, {"is_reserved": 0, "fusion_lon": 0.0, "fusion_lat": 0.0, "name": "c27fcc1dbd0ba178b14bfbda0e1ecb1a", "type": "electric_scooter", "is_disabled": 0, "lat": 38.899911333333336, "rental_uris": {"android": "https://dc.lft.to/lastmile_qr_scan", "ios": "https://dc.lft.to/lastmile_qr_scan"}, "bike_id": "c27fcc1dbd0ba178b14bfbda0e1ecb1a", "lon": -77.0218665}, {"is_reserved": 0, "fusion_lon": 0.0, "fusion_lat": 0.0, "name": "977ac0682ed952c0ac9ec9174685b0e8", "type": "electric_scooter", "is_disabled": 0, "lat": 38.895473333333335, "rental_uris": {"android": "https://dc.lft.to/lastmile_qr_scan", "ios": "https://dc.lft.to/lastmile_qr_scan"}, "bike_id": "977ac0682ed952c0ac9ec9174685b0e8", "lon": -77.02861433333334}, {"is_reserved": 0, "fusion_lon": 0.0, "fusion_lat": 0.0, "name": "3a7d3b72aefd870771bb1fd8dcde30d6", "type": "electric_scooter", "is_disabled": 0, "lat": 38.90258383333333, "rental_uris": {"android": "https://dc.lft.to/lastmile_qr_scan", "ios": "https://dc.lft.to/lastmile_qr_scan"}, "bike_id": "3a7d3b72aefd870771bb1fd8dcde30d6", "lon": -77.002275}, {"is_reserved": 0, "fusion_lon": 0.0, "fusion_lat": 0.0, "name": "7d13f855734baa2954c33e865d009b4b", "type": "electric_scooter", "is_disabled": 0, "lat": 38.892374333333336, "rental_uris": {"android": "https://dc.lft.to/lastmile_qr_scan", "ios": "https://dc.lft.to/lastmile_qr_scan"}, "bike_id": "7d13f855734baa2954c33e865d009b4b", "lon": -77.0416315}, {"is_reserved": 0, "fusion_lon": 0.0, "fusion_lat": 0.0, "name": "f10d70390c7f98417a7565d15c2dad83", "type": "electric_scooter", "is_disabled": 0, "lat": 38.9173175, "rental_uris": {"android": "https://dc.lft.to/lastmile_qr_scan", "ios": "https://dc.lft.to/lastmile_qr_scan"}, "bike_id": "f10d70390c7f98417a7565d15c2dad83", "lon": -77.068462}, {"is_reserved": 0, "fusion_lon": 0.0, "fusion_lat": 0.0, "name": "0de2fef06e024cc8800516ba53e6669a", "type": "electric_scooter", "is_disabled": 0, "lat": 38.9049505, "rental_uris": {"android": "https://dc.lft.to/lastmile_qr_scan", "ios": "https://dc.lft.to/lastmile_qr_scan"}, "bike_id": "0de2fef06e024cc8800516ba53e6669a", "lon": -76.97922633333333}, {"is_reserved": 0, "fusion_lon": 0.0, "fusion_lat": 0.0, "name": "8afe041896bc983c90213db094b87f77", "type": "electric_scooter", "is_disabled": 0, "lat": 38.920753166666664, "rental_uris": {"android": "https://dc.lft.to/lastmile_qr_scan", "ios": "https://dc.lft.to/lastmile_qr_scan"}, "bike_id": "8afe041896bc983c90213db094b87f77", "lon": -77.0418805}, {"is_reserved": 0, "fusion_lon": 0.0, "fusion_lat": 0.0, "name": "b34100a1148fbcab3d32269e565e9278", "type": "electric_scooter", "is_disabled": 0, "lat": 38.92165466666667, "rental_uris": {"android": "https://dc.lft.to/lastmile_qr_scan", "ios": "https://dc.lft.to/lastmile_qr_scan"}, "bike_id": "b34100a1148fbcab3d32269e565e9278", "lon": -77.04353033333334}, {"is_reserved": 0, "fusion_lon": 0.0, "fusion_lat": 0.0, "name": "07e92c493e13359c4aae0d414c1dd2e3", "type": "electric_scooter", "is_disabled": 0, "lat": 38.8955225, "rental_uris": {"android": "https://dc.lft.to/lastmile_qr_scan", "ios": "https://dc.lft.to/lastmile_qr_scan"}, "bike_id": "07e92c493e13359c4aae0d414c1dd2e3", "lon": -76.948744}, {"is_reserved": 0, "fusion_lon": 0.0, "fusion_lat": 0.0, "name": "63a5261ab18bff0bef5e21cf54031703", "type": "electric_scooter", "is_disabled": 0, "lat": 38.908754, "rental_uris": {"android": "https://dc.lft.to/lastmile_qr_scan", "ios": "https://dc.lft.to/lastmile_qr_scan"}, "bike_id": "63a5261ab18bff0bef5e21cf54031703", "lon": -77.03217883333333}, {"is_reserved": 0, "fusion_lon": 0.0, "fusion_lat": 0.0, "name": "26ae34ece079440a9d1a23b0786b4c4a", "type": "electric_scooter", "is_disabled": 0, "lat": 38.922545166666666, "rental_uris": {"android": "https://dc.lft.to/lastmile_qr_scan", "ios": "https://dc.lft.to/lastmile_qr_scan"}, "bike_id": "26ae34ece079440a9d1a23b0786b4c4a", "lon": -77.04259}, {"is_reserved": 0, "fusion_lon": 0.0, "fusion_lat": 0.0, "name": "0a1685e8b57de69fd88f0e04d4fde4e9", "type": "electric_scooter", "is_disabled": 0, "lat": 38.95203983333333, "rental_uris": {"android": "https://dc.lft.to/lastmile_qr_scan", "ios": "https://dc.lft.to/lastmile_qr_scan"}, "bike_id": "0a1685e8b57de69fd88f0e04d4fde4e9", "lon": -77.0273735}, {"is_reserved": 0, "fusion_lon": 0.0, "fusion_lat": 0.0, "name": "87106ac2fc50ee6ed23ecc52cdc5c754", "type": "electric_scooter", "is_disabled": 0, "lat": 38.864185166666665, "rental_uris": {"android": "https://dc.lft.to/lastmile_qr_scan", "ios": "https://dc.lft.to/lastmile_qr_scan"}, "bike_id": "87106ac2fc50ee6ed23ecc52cdc5c754", "lon": -76.991342}, {"is_reserved": 0, "fusion_lon": 0.0, "fusion_lat": 0.0, "name": "0bc52ab0c2404856271224d5a03e2ae6", "type": "electric_bike", "is_disabled": 0, "lat": 38.952124, "rental_uris": {"android": "https://dc.lft.to/lastmile_qr_scan", "ios": "https://dc.lft.to/lastmile_qr_scan"}, "bike_id": "0bc52ab0c2404856271224d5a03e2ae6", "lon": -77.06848066666667}, {"is_reserved": 0, "fusion_lon": 0.0, "fusion_lat": 0.0, "name": "451596fd24f4eda357b34c0fae529a46", "type": "electric_bike", "is_disabled": 0, "lat": 38.911014, "rental_uris": {"android": "https://dc.lft.to/lastmile_qr_scan", "ios": "https://dc.lft.to/lastmile_qr_scan"}, "bike_id": "451596fd24f4eda357b34c0fae529a46", "lon": -76.99714233333333}, {"is_reserved": 0, "fusion_lon": 0.0, "fusion_lat": 0.0, "name": "48f9f596733ac595175ed582e6f37594", "type": "electric_scooter", "is_disabled": 0, "lat": 38.924859166666664, "rental_uris": {"android": "https://dc.lft.to/lastmile_qr_scan", "ios": "https://dc.lft.to/lastmile_qr_scan"}, "bike_id": "48f9f596733ac595175ed582e6f37594", "lon": -77.02129133333334}, {"is_reserved": 0, "fusion_lon": 0.0, "fusion_lat": 0.0, "name": "3b2b9fa194ea40b607fbd8f292c02d34", "type": "electric_scooter", "is_disabled": 0, "lat": 38.88735333333333, "rental_uris": {"android": "https://dc.lft.to/lastmile_qr_scan", "ios": "https://dc.lft.to/lastmile_qr_scan"}, "bike_id": "3b2b9fa194ea40b607fbd8f292c02d34", "lon": -77.02581283333333}, {"is_reserved": 0, "fusion_lon": 0.0, "fusion_lat": 0.0, "name": "61c6509919482c5846c19776981e7200", "type": "electric_scooter", "is_disabled": 0, "lat": 38.90407316666667, "rental_uris": {"android": "https://dc.lft.to/lastmile_qr_scan", "ios": "https://dc.lft.to/lastmile_qr_scan"}, "bike_id": "61c6509919482c5846c19776981e7200", "lon": -76.9732915}, {"is_reserved": 0, "fusion_lon": 0.0, "fusion_lat": 0.0, "name": "fe1a9fe429f244f537e7d9e0ae9800aa", "type": "electric_scooter", "is_disabled": 0, "lat": 38.9129005, "rental_uris": {"android": "https://dc.lft.to/lastmile_qr_scan", "ios": "https://dc.lft.to/lastmile_qr_scan"}, "bike_id": "fe1a9fe429f244f537e7d9e0ae9800aa", "lon": -77.03211416666667}, {"is_reserved": 0, "fusion_lon": 0.0, "fusion_lat": 0.0, "name": "485fe8588abd29b7f80063b804ad7aad", "type": "electric_scooter", "is_disabled": 0, "lat": 38.894768, "rental_uris": {"android": "https://dc.lft.to/lastmile_qr_scan", "ios": "https://dc.lft.to/lastmile_qr_scan"}, "bike_id": "485fe8588abd29b7f80063b804ad7aad", "lon": -77.02318483333333}, {"is_reserved": 0, "fusion_lon": 0.0, "fusion_lat": 0.0, "name": "1e53d4e62420dcefa347d824feb289a0", "type": "electric_scooter", "is_disabled": 0, "lat": 38.91836766666667, "rental_uris": {"android": "https://dc.lft.to/lastmile_qr_scan", "ios": "https://dc.lft.to/lastmile_qr_scan"}, "bike_id": "1e53d4e62420dcefa347d824feb289a0", "lon": -77.05950016666667}, {"is_reserved": 0, "fusion_lon": 0.0, "fusion_lat": 0.0, "name": "0b3014a89a597f48ba51fc3714ff7b02", "type": "electric_scooter", "is_disabled": 0, "lat": 38.889623, "rental_uris": {"android": "https://dc.lft.to/lastmile_qr_scan", "ios": "https://dc.lft.to/lastmile_qr_scan"}, "bike_id": "0b3014a89a597f48ba51fc3714ff7b02", "lon": -76.937058}, {"is_reserved": 0, "fusion_lon": 0.0, "fusion_lat": 0.0, "name": "71f858c558b926994a81b3fb34adab10", "type": "electric_scooter", "is_disabled": 0, "lat": 38.892281, "rental_uris": {"android": "https://dc.lft.to/lastmile_qr_scan", "ios": "https://dc.lft.to/lastmile_qr_scan"}, "bike_id": "71f858c558b926994a81b3fb34adab10", "lon": -77.03155066666666}, {"is_reserved": 0, "fusion_lon": 0.0, "fusion_lat": 0.0, "name": "74a68519a305583231cb492de6206d2d", "type": "electric_bike", "is_disabled": 0, "lat": 38.88244383333333, "rental_uris": {"android": "https://dc.lft.to/lastmile_qr_scan", "ios": "https://dc.lft.to/lastmile_qr_scan"}, "bike_id": "74a68519a305583231cb492de6206d2d", "lon": -76.9626145}, {"is_reserved": 0, "fusion_lon": 0.0, "fusion_lat": 0.0, "name": "af2a26972acf17d5c7eff423022873c3", "type": "electric_scooter", "is_disabled": 0, "lat": 38.86698416666667, "rental_uris": {"android": "https://dc.lft.to/lastmile_qr_scan", "ios": "https://dc.lft.to/lastmile_qr_scan"}, "bike_id": "af2a26972acf17d5c7eff423022873c3", "lon": -76.985925}, {"is_reserved": 0, "fusion_lon": 0.0, "fusion_lat": 0.0, "name": "b626f54fdec1ac6b510407c452b9da9c", "type": "electric_scooter", "is_disabled": 0, "lat": 38.8982145, "rental_uris": {"android": "https://dc.lft.to/lastmile_qr_scan", "ios": "https://dc.lft.to/lastmile_qr_scan"}, "bike_id": "b626f54fdec1ac6b510407c452b9da9c", "lon": -77.04651016666666}, {"is_reserved": 0, "fusion_lon": 0.0, "fusion_lat": 0.0, "name": "68f1de43f8ea1b212a2083e210e48433", "type": "electric_scooter", "is_disabled": 0, "lat": 38.9056425, "rental_uris": {"android": "https://dc.lft.to/lastmile_qr_scan", "ios": "https://dc.lft.to/lastmile_qr_scan"}, "bike_id": "68f1de43f8ea1b212a2083e210e48433", "lon": -77.0347635}, {"is_reserved": 0, "fusion_lon": 0.0, "fusion_lat": 0.0, "name": "a1a84c4437a20aa876da264881a991fe", "type": "electric_scooter", "is_disabled": 0, "lat": 38.887307, "rental_uris": {"android": "https://dc.lft.to/lastmile_qr_scan", "ios": "https://dc.lft.to/lastmile_qr_scan"}, "bike_id": "a1a84c4437a20aa876da264881a991fe", "lon": -77.0282825}, {"is_reserved": 0, "fusion_lon": 0.0, "fusion_lat": 0.0, "name": "56bfff161bf1a9344ae5144ded74f0f7", "type": "electric_scooter", "is_disabled": 0, "lat": 38.900327833333336, "rental_uris": {"android": "https://dc.lft.to/lastmile_qr_scan", "ios": "https://dc.lft.to/lastmile_qr_scan"}, "bike_id": "56bfff161bf1a9344ae5144ded74f0f7", "lon": -77.0438035}, {"is_reserved": 0, "fusion_lon": 0.0, "fusion_lat": 0.0, "name": "984ca27e630a00e8cdffabebf68e1d4f", "type": "electric_scooter", "is_disabled": 0, "lat": 38.89223416666667, "rental_uris": {"android": "https://dc.lft.to/lastmile_qr_scan", "ios": "https://dc.lft.to/lastmile_qr_scan"}, "bike_id": "984ca27e630a00e8cdffabebf68e1d4f", "lon": -77.033736}, {"is_reserved": 0, "fusion_lon": 0.0, "fusion_lat": 0.0, "name": "a5059e204eeb13d0fdf5db9c44bf41c0", "type": "electric_scooter", "is_disabled": 0, "lat": 38.928131666666665, "rental_uris": {"android": "https://dc.lft.to/lastmile_qr_scan", "ios": "https://dc.lft.to/lastmile_qr_scan"}, "bike_id": "a5059e204eeb13d0fdf5db9c44bf41c0", "lon": -77.01411183333333}, {"is_reserved": 0, "fusion_lon": 0.0, "fusion_lat": 0.0, "name": "cc54ae0a11040a4f9adc9d9a3d87dcf2", "type": "electric_scooter", "is_disabled": 0, "lat": 38.898520833333336, "rental_uris": {"android": "https://dc.lft.to/lastmile_qr_scan", "ios": "https://dc.lft.to/lastmile_qr_scan"}, "bike_id": "cc54ae0a11040a4f9adc9d9a3d87dcf2", "lon": -76.9817985}, {"is_reserved": 0, "fusion_lon": 0.0, "fusion_lat": 0.0, "name": "f368a734a2114619742f272e9f12d1dd", "type": "electric_bike", "is_disabled": 0, "lat": 38.85324683333333, "rental_uris": {"android": "https://dc.lft.to/lastmile_qr_scan", "ios": "https://dc.lft.to/lastmile_qr_scan"}, "bike_id": "f368a734a2114619742f272e9f12d1dd", "lon": -76.98017066666667}, {"is_reserved": 0, "fusion_lon": 0.0, "fusion_lat": 0.0, "name": "811e9c4c7b27d8c741163a02990e1d5a", "type": "electric_scooter", "is_disabled": 0, "lat": 38.88308333333333, "rental_uris": {"android": "https://dc.lft.to/lastmile_qr_scan", "ios": "https://dc.lft.to/lastmile_qr_scan"}, "bike_id": "811e9c4c7b27d8c741163a02990e1d5a", "lon": -77.01669766666667}, {"is_reserved": 0, "fusion_lon": 0.0, "fusion_lat": 0.0, "name": "fa8f65e4fddaa36699d0027ed7e3c378", "type": "electric_scooter", "is_disabled": 0, "lat": 38.94305683333333, "rental_uris": {"android": "https://dc.lft.to/lastmile_qr_scan", "ios": "https://dc.lft.to/lastmile_qr_scan"}, "bike_id": "fa8f65e4fddaa36699d0027ed7e3c378", "lon": -77.05935183333334}, {"is_reserved": 0, "fusion_lon": 0.0, "fusion_lat": 0.0, "name": "558823c4bb6fbd4cc0e1eaba0820307c", "type": "electric_scooter", "is_disabled": 0, "lat": 38.91080316666667, "rental_uris": {"android": "https://dc.lft.to/lastmile_qr_scan", "ios": "https://dc.lft.to/lastmile_qr_scan"}, "bike_id": "558823c4bb6fbd4cc0e1eaba0820307c", "lon": -77.06546733333333}, {"is_reserved": 0, "fusion_lon": 0.0, "fusion_lat": 0.0, "name": "d99e542744ec53a58d94067cf880fc4a", "type": "electric_scooter", "is_disabled": 0, "lat": 38.88181766666666, "rental_uris": {"android": "https://dc.lft.to/lastmile_qr_scan", "ios": "https://dc.lft.to/lastmile_qr_scan"}, "bike_id": "d99e542744ec53a58d94067cf880fc4a", "lon": -77.03577366666667}, {"is_reserved": 0, "fusion_lon": 0.0, "fusion_lat": 0.0, "name": "1dd008f1f2196a7d2a118495975c24fc", "type": "electric_scooter", "is_disabled": 0, "lat": 38.9001605, "rental_uris": {"android": "https://dc.lft.to/lastmile_qr_scan", "ios": "https://dc.lft.to/lastmile_qr_scan"}, "bike_id": "1dd008f1f2196a7d2a118495975c24fc", "lon": -77.03351483333333}, {"is_reserved": 0, "fusion_lon": 0.0, "fusion_lat": 0.0, "name": "ef5007db736b27e393e0319ef4363de4", "type": "electric_bike", "is_disabled": 0, "lat": 38.941741, "rental_uris": {"android": "https://dc.lft.to/lastmile_qr_scan", "ios": "https://dc.lft.to/lastmile_qr_scan"}, "bike_id": "ef5007db736b27e393e0319ef4363de4", "lon": -76.99259316666667}, {"is_reserved": 0, "fusion_lon": 0.0, "fusion_lat": 0.0, "name": "243b804a2b9ada142e3d4db645708f88", "type": "electric_scooter", "is_disabled": 0, "lat": 38.8953755, "rental_uris": {"android": "https://dc.lft.to/lastmile_qr_scan", "ios": "https://dc.lft.to/lastmile_qr_scan"}, "bike_id": "243b804a2b9ada142e3d4db645708f88", "lon": -77.0326}, {"is_reserved": 0, "fusion_lon": 0.0, "fusion_lat": 0.0, "name": "d69fbd90588e3ad47604f75780428455", "type": "electric_scooter", "is_disabled": 0, "lat": 38.92168566666667, "rental_uris": {"android": "https://dc.lft.to/lastmile_qr_scan", "ios": "https://dc.lft.to/lastmile_qr_scan"}, "bike_id": "d69fbd90588e3ad47604f75780428455", "lon": -77.04223966666666}, {"is_reserved": 0, "fusion_lon": 0.0, "fusion_lat": 0.0, "name": "9766928fac47633944bc40a087680d0c", "type": "electric_bike", "is_disabled": 0, "lat": 38.8075265, "rental_uris": {"android": "https://dc.lft.to/lastmile_qr_scan", "ios": "https://dc.lft.to/lastmile_qr_scan"}, "bike_id": "9766928fac47633944bc40a087680d0c", "lon": -77.094535}, {"is_reserved": 0, "fusion_lon": 0.0, "fusion_lat": 0.0, "name": "991f49c6543a0b868035470f8c75fd57", "type": "electric_scooter", "is_disabled": 0, "lat": 38.900628, "rental_uris": {"android": "https://dc.lft.to/lastmile_qr_scan", "ios": "https://dc.lft.to/lastmile_qr_scan"}, "bike_id": "991f49c6543a0b868035470f8c75fd57", "lon": -77.0129545}, {"is_reserved": 0, "fusion_lon": 0.0, "fusion_lat": 0.0, "name": "cfbb2076ca81da2390df09cdad1b19d9", "type": "electric_scooter", "is_disabled": 0, "lat": 38.88619766666667, "rental_uris": {"android": "https://dc.lft.to/lastmile_qr_scan", "ios": "https://dc.lft.to/lastmile_qr_scan"}, "bike_id": "cfbb2076ca81da2390df09cdad1b19d9", "lon": -76.95580083333333}, {"is_reserved": 0, "fusion_lon": 0.0, "fusion_lat": 0.0, "name": "0d55e48ed84315ee8ecf6d905bd27e95", "type": "electric_scooter", "is_disabled": 0, "lat": 38.876337, "rental_uris": {"android": "https://dc.lft.to/lastmile_qr_scan", "ios": "https://dc.lft.to/lastmile_qr_scan"}, "bike_id": "0d55e48ed84315ee8ecf6d905bd27e95", "lon": -77.0056155}, {"is_reserved": 0, "fusion_lon": 0.0, "fusion_lat": 0.0, "name": "2783a2d580245e3e952c4eaa63f4dbe5", "type": "electric_scooter", "is_disabled": 0, "lat": 38.893531333333335, "rental_uris": {"android": "https://dc.lft.to/lastmile_qr_scan", "ios": "https://dc.lft.to/lastmile_qr_scan"}, "bike_id": "2783a2d580245e3e952c4eaa63f4dbe5", "lon": -77.00333166666667}, {"is_reserved": 0, "fusion_lon": 0.0, "fusion_lat": 0.0, "name": "d52fd9c33238e2cedd0e7d3fab686abf", "type": "electric_scooter", "is_disabled": 0, "lat": 38.96726533333333, "rental_uris": {"android": "https://dc.lft.to/lastmile_qr_scan", "ios": "https://dc.lft.to/lastmile_qr_scan"}, "bike_id": "d52fd9c33238e2cedd0e7d3fab686abf", "lon": -77.01859133333333}, {"is_reserved": 0, "fusion_lon": 0.0, "fusion_lat": 0.0, "name": "6e1bd01bd7741a24ce1ee73e58b1d602", "type": "electric_scooter", "is_disabled": 0, "lat": 38.893454166666665, "rental_uris": {"android": "https://dc.lft.to/lastmile_qr_scan", "ios": "https://dc.lft.to/lastmile_qr_scan"}, "bike_id": "6e1bd01bd7741a24ce1ee73e58b1d602", "lon": -77.01724516666667}, {"is_reserved": 0, "fusion_lon": 0.0, "fusion_lat": 0.0, "name": "bb057cf0ef56b58d47ed966749706632", "type": "electric_scooter", "is_disabled": 0, "lat": 38.906508333333335, "rental_uris": {"android": "https://dc.lft.to/lastmile_qr_scan", "ios": "https://dc.lft.to/lastmile_qr_scan"}, "bike_id": "bb057cf0ef56b58d47ed966749706632", "lon": -77.04808966666667}, {"is_reserved": 0, "fusion_lon": 0.0, "fusion_lat": 0.0, "name": "f9f62952365b4b828959b187e4d4d4a2", "type": "electric_scooter", "is_disabled": 0, "lat": 38.911196, "rental_uris": {"android": "https://dc.lft.to/lastmile_qr_scan", "ios": "https://dc.lft.to/lastmile_qr_scan"}, "bike_id": "f9f62952365b4b828959b187e4d4d4a2", "lon": -77.03150683333334}, {"is_reserved": 0, "fusion_lon": 0.0, "fusion_lat": 0.0, "name": "def85205fe5220e03a5f68bb3752e68d", "type": "electric_bike", "is_disabled": 0, "lat": 38.854849, "rental_uris": {"android": "https://dc.lft.to/lastmile_qr_scan", "ios": "https://dc.lft.to/lastmile_qr_scan"}, "bike_id": "def85205fe5220e03a5f68bb3752e68d", "lon": -77.1160575}, {"is_reserved": 0, "fusion_lon": 0.0, "fusion_lat": 0.0, "name": "54b08759caa10f6d7e25725d21aafd22", "type": "electric_scooter", "is_disabled": 0, "lat": 38.937468333333335, "rental_uris": {"android": "https://dc.lft.to/lastmile_qr_scan", "ios": "https://dc.lft.to/lastmile_qr_scan"}, "bike_id": "54b08759caa10f6d7e25725d21aafd22", "lon": -77.03618966666667}, {"is_reserved": 0, "fusion_lon": 0.0, "fusion_lat": 0.0, "name": "4dade4164a446b04786b82d94b011915", "type": "electric_bike", "is_disabled": 0, "lat": 38.878696, "rental_uris": {"android": "https://dc.lft.to/lastmile_qr_scan", "ios": "https://dc.lft.to/lastmile_qr_scan"}, "bike_id": "4dade4164a446b04786b82d94b011915", "lon": -76.99017133333334}, {"is_reserved": 0, "fusion_lon": 0.0, "fusion_lat": 0.0, "name": "d6b9c129aa02adf4a4dc301ee4e4fc01", "type": "electric_scooter", "is_disabled": 0, "lat": 38.92487116666667, "rental_uris": {"android": "https://dc.lft.to/lastmile_qr_scan", "ios": "https://dc.lft.to/lastmile_qr_scan"}, "bike_id": "d6b9c129aa02adf4a4dc301ee4e4fc01", "lon": -77.02139133333333}, {"is_reserved": 0, "fusion_lon": 0.0, "fusion_lat": 0.0, "name": "70000637147ddccd9a17988682921133", "type": "electric_scooter", "is_disabled": 0, "lat": 38.9031575, "rental_uris": {"android": "https://dc.lft.to/lastmile_qr_scan", "ios": "https://dc.lft.to/lastmile_qr_scan"}, "bike_id": "70000637147ddccd9a17988682921133", "lon": -77.04666533333334}, {"is_reserved": 0, "fusion_lon": 0.0, "fusion_lat": 0.0, "name": "0d6ff5918c31eadbe8cd534b6987e3d2", "type": "electric_scooter", "is_disabled": 0, "lat": 38.89294533333333, "rental_uris": {"android": "https://dc.lft.to/lastmile_qr_scan", "ios": "https://dc.lft.to/lastmile_qr_scan"}, "bike_id": "0d6ff5918c31eadbe8cd534b6987e3d2", "lon": -76.99824166666667}, {"is_reserved": 0, "fusion_lon": 0.0, "fusion_lat": 0.0, "name": "7db42988c13317c37724882c9e77cd93", "type": "electric_scooter", "is_disabled": 0, "lat": 38.897898833333336, "rental_uris": {"android": "https://dc.lft.to/lastmile_qr_scan", "ios": "https://dc.lft.to/lastmile_qr_scan"}, "bike_id": "7db42988c13317c37724882c9e77cd93", "lon": -77.02478866666667}, {"is_reserved": 0, "fusion_lon": 0.0, "fusion_lat": 0.0, "name": "c9b826b70c4e6f6b3973d4f6204e2c64", "type": "electric_scooter", "is_disabled": 0, "lat": 38.8942795, "rental_uris": {"android": "https://dc.lft.to/lastmile_qr_scan", "ios": "https://dc.lft.to/lastmile_qr_scan"}, "bike_id": "c9b826b70c4e6f6b3973d4f6204e2c64", "lon": -76.94879266666666}, {"is_reserved": 0, "fusion_lon": 0.0, "fusion_lat": 0.0, "name": "c7d8523a88b8b94cff6860acad5a754d", "type": "electric_scooter", "is_disabled": 0, "lat": 38.93240433333333, "rental_uris": {"android": "https://dc.lft.to/lastmile_qr_scan", "ios": "https://dc.lft.to/lastmile_qr_scan"}, "bike_id": "c7d8523a88b8b94cff6860acad5a754d", "lon": -77.02847}, {"is_reserved": 0, "fusion_lon": 0.0, "fusion_lat": 0.0, "name": "000d2f9aafe9ec9fea35827e90549e2b", "type": "electric_scooter", "is_disabled": 0, "lat": 38.94453016666667, "rental_uris": {"android": "https://dc.lft.to/lastmile_qr_scan", "ios": "https://dc.lft.to/lastmile_qr_scan"}, "bike_id": "000d2f9aafe9ec9fea35827e90549e2b", "lon": -77.06031366666667}, {"is_reserved": 0, "fusion_lon": 0.0, "fusion_lat": 0.0, "name": "ecd40efada16606d77a79f03adf84ce7", "type": "electric_scooter", "is_disabled": 0, "lat": 38.9073215, "rental_uris": {"android": "https://dc.lft.to/lastmile_qr_scan", "ios": "https://dc.lft.to/lastmile_qr_scan"}, "bike_id": "ecd40efada16606d77a79f03adf84ce7", "lon": -77.034494}, {"is_reserved": 0, "fusion_lon": 0.0, "fusion_lat": 0.0, "name": "5cb6125383eac28066da851f20bfd9be", "type": "electric_scooter", "is_disabled": 0, "lat": 38.9113005, "rental_uris": {"android": "https://dc.lft.to/lastmile_qr_scan", "ios": "https://dc.lft.to/lastmile_qr_scan"}, "bike_id": "5cb6125383eac28066da851f20bfd9be", "lon": -77.036601}, {"is_reserved": 0, "fusion_lon": 0.0, "fusion_lat": 0.0, "name": "a46feb818d0f1fc83fb520c5985f789b", "type": "electric_scooter", "is_disabled": 0, "lat": 38.91823566666667, "rental_uris": {"android": "https://dc.lft.to/lastmile_qr_scan", "ios": "https://dc.lft.to/lastmile_qr_scan"}, "bike_id": "a46feb818d0f1fc83fb520c5985f789b", "lon": -77.0326545}, {"is_reserved": 0, "fusion_lon": 0.0, "fusion_lat": 0.0, "name": "3194cdf7108c48cae9286b1c9938f1af", "type": "electric_scooter", "is_disabled": 0, "lat": 38.8861355, "rental_uris": {"android": "https://dc.lft.to/lastmile_qr_scan", "ios": "https://dc.lft.to/lastmile_qr_scan"}, "bike_id": "3194cdf7108c48cae9286b1c9938f1af", "lon": -76.95584566666666}, {"is_reserved": 0, "fusion_lon": 0.0, "fusion_lat": 0.0, "name": "89098b30e5cbc1fa87631b0d1586a6aa", "type": "electric_scooter", "is_disabled": 0, "lat": 38.8935895, "rental_uris": {"android": "https://dc.lft.to/lastmile_qr_scan", "ios": "https://dc.lft.to/lastmile_qr_scan"}, "bike_id": "89098b30e5cbc1fa87631b0d1586a6aa", "lon": -77.05490066666667}, {"is_reserved": 0, "fusion_lon": 0.0, "fusion_lat": 0.0, "name": "f45c757d94bbd8f601b2819a08c4c0ce", "type": "electric_scooter", "is_disabled": 0, "lat": 38.88472566666667, "rental_uris": {"android": "https://dc.lft.to/lastmile_qr_scan", "ios": "https://dc.lft.to/lastmile_qr_scan"}, "bike_id": "f45c757d94bbd8f601b2819a08c4c0ce", "lon": -77.0265585}, {"is_reserved": 0, "fusion_lon": 0.0, "fusion_lat": 0.0, "name": "4c9bf3fad8c40b261feb3c26341f917e", "type": "electric_scooter", "is_disabled": 0, "lat": 38.9012735, "rental_uris": {"android": "https://dc.lft.to/lastmile_qr_scan", "ios": "https://dc.lft.to/lastmile_qr_scan"}, "bike_id": "4c9bf3fad8c40b261feb3c26341f917e", "lon": -77.00252416666666}, {"is_reserved": 0, "fusion_lon": 0.0, "fusion_lat": 0.0, "name": "1029c49494eeb20a2301dabb843626a9", "type": "electric_scooter", "is_disabled": 0, "lat": 38.896579, "rental_uris": {"android": "https://dc.lft.to/lastmile_qr_scan", "ios": "https://dc.lft.to/lastmile_qr_scan"}, "bike_id": "1029c49494eeb20a2301dabb843626a9", "lon": -77.05024233333333}, {"is_reserved": 0, "fusion_lon": 0.0, "fusion_lat": 0.0, "name": "01cc481abc033ee3938c2acd34381f86", "type": "electric_scooter", "is_disabled": 0, "lat": 38.92706916666667, "rental_uris": {"android": "https://dc.lft.to/lastmile_qr_scan", "ios": "https://dc.lft.to/lastmile_qr_scan"}, "bike_id": "01cc481abc033ee3938c2acd34381f86", "lon": -77.02395}, {"is_reserved": 0, "fusion_lon": 0.0, "fusion_lat": 0.0, "name": "c368be9cba813258701b076ae268f72e", "type": "electric_scooter", "is_disabled": 0, "lat": 38.90521916666667, "rental_uris": {"android": "https://dc.lft.to/lastmile_qr_scan", "ios": "https://dc.lft.to/lastmile_qr_scan"}, "bike_id": "c368be9cba813258701b076ae268f72e", "lon": -77.06187316666667}, {"is_reserved": 0, "fusion_lon": 0.0, "fusion_lat": 0.0, "name": "f1d7a5a5e6e686b983a3e136ba96cb3a", "type": "electric_scooter", "is_disabled": 0, "lat": 38.89219933333333, "rental_uris": {"android": "https://dc.lft.to/lastmile_qr_scan", "ios": "https://dc.lft.to/lastmile_qr_scan"}, "bike_id": "f1d7a5a5e6e686b983a3e136ba96cb3a", "lon": -77.032039}, {"is_reserved": 0, "fusion_lon": 0.0, "fusion_lat": 0.0, "name": "a899661c5d3d07c05bb6655ed0e4860c", "type": "electric_scooter", "is_disabled": 0, "lat": 38.91412166666667, "rental_uris": {"android": "https://dc.lft.to/lastmile_qr_scan", "ios": "https://dc.lft.to/lastmile_qr_scan"}, "bike_id": "a899661c5d3d07c05bb6655ed0e4860c", "lon": -77.041649}, {"is_reserved": 0, "fusion_lon": 0.0, "fusion_lat": 0.0, "name": "51e048db7d8816d7660d0e1ec6eee672", "type": "electric_scooter", "is_disabled": 0, "lat": 38.88438766666667, "rental_uris": {"android": "https://dc.lft.to/lastmile_qr_scan", "ios": "https://dc.lft.to/lastmile_qr_scan"}, "bike_id": "51e048db7d8816d7660d0e1ec6eee672", "lon": -77.02590666666667}, {"is_reserved": 0, "fusion_lon": 0.0, "fusion_lat": 0.0, "name": "97ce896b4d933ded5c3c84235f057592", "type": "electric_scooter", "is_disabled": 0, "lat": 38.900210666666666, "rental_uris": {"android": "https://dc.lft.to/lastmile_qr_scan", "ios": "https://dc.lft.to/lastmile_qr_scan"}, "bike_id": "97ce896b4d933ded5c3c84235f057592", "lon": -76.98437783333333}, {"is_reserved": 0, "fusion_lon": 0.0, "fusion_lat": 0.0, "name": "3aa763e4bbb558f7ab0ed203f57153f1", "type": "electric_scooter", "is_disabled": 0, "lat": 38.8973745, "rental_uris": {"android": "https://dc.lft.to/lastmile_qr_scan", "ios": "https://dc.lft.to/lastmile_qr_scan"}, "bike_id": "3aa763e4bbb558f7ab0ed203f57153f1", "lon": -77.03349566666667}, {"is_reserved": 0, "fusion_lon": 0.0, "fusion_lat": 0.0, "name": "32545effeb6e194dffc1f3b70dc793cc", "type": "electric_scooter", "is_disabled": 0, "lat": 38.92405883333333, "rental_uris": {"android": "https://dc.lft.to/lastmile_qr_scan", "ios": "https://dc.lft.to/lastmile_qr_scan"}, "bike_id": "32545effeb6e194dffc1f3b70dc793cc", "lon": -77.020219}, {"is_reserved": 0, "fusion_lon": 0.0, "fusion_lat": 0.0, "name": "17442610a5785fa2294392e4fc5cf7f9", "type": "electric_scooter", "is_disabled": 0, "lat": 38.892238, "rental_uris": {"android": "https://dc.lft.to/lastmile_qr_scan", "ios": "https://dc.lft.to/lastmile_qr_scan"}, "bike_id": "17442610a5785fa2294392e4fc5cf7f9", "lon": -77.03970783333334}, {"is_reserved": 0, "fusion_lon": 0.0, "fusion_lat": 0.0, "name": "09081ff828cd6856c53b414ca8c5526f", "type": "electric_scooter", "is_disabled": 0, "lat": 38.91177016666666, "rental_uris": {"android": "https://dc.lft.to/lastmile_qr_scan", "ios": "https://dc.lft.to/lastmile_qr_scan"}, "bike_id": "09081ff828cd6856c53b414ca8c5526f", "lon": -77.0020035}, {"is_reserved": 0, "fusion_lon": 0.0, "fusion_lat": 0.0, "name": "f1043f1d44ffa50eaf3785637ad5b2b4", "type": "electric_scooter", "is_disabled": 0, "lat": 38.906245166666665, "rental_uris": {"android": "https://dc.lft.to/lastmile_qr_scan", "ios": "https://dc.lft.to/lastmile_qr_scan"}, "bike_id": "f1043f1d44ffa50eaf3785637ad5b2b4", "lon": -77.02534916666667}, {"is_reserved": 0, "fusion_lon": 0.0, "fusion_lat": 0.0, "name": "a719acbd656a8fbbff98842534d974f0", "type": "electric_scooter", "is_disabled": 0, "lat": 38.910718, "rental_uris": {"android": "https://dc.lft.to/lastmile_qr_scan", "ios": "https://dc.lft.to/lastmile_qr_scan"}, "bike_id": "a719acbd656a8fbbff98842534d974f0", "lon": -77.03184783333333}, {"is_reserved": 0, "fusion_lon": 0.0, "fusion_lat": 0.0, "name": "d3fd555c12bf107a17e4f02bcddceb24", "type": "electric_bike", "is_disabled": 0, "lat": 38.96772433333334, "rental_uris": {"android": "https://dc.lft.to/lastmile_qr_scan", "ios": "https://dc.lft.to/lastmile_qr_scan"}, "bike_id": "d3fd555c12bf107a17e4f02bcddceb24", "lon": -77.000373}, {"is_reserved": 0, "fusion_lon": 0.0, "fusion_lat": 0.0, "name": "093342e67e5254c35e91f3df7fc479ed", "type": "electric_scooter", "is_disabled": 0, "lat": 38.89219883333333, "rental_uris": {"android": "https://dc.lft.to/lastmile_qr_scan", "ios": "https://dc.lft.to/lastmile_qr_scan"}, "bike_id": "093342e67e5254c35e91f3df7fc479ed", "lon": -76.99260133333334}, {"is_reserved": 0, "fusion_lon": 0.0, "fusion_lat": 0.0, "name": "465c4965877e2b8717afa3c1a1a43741", "type": "electric_scooter", "is_disabled": 0, "lat": 38.91441016666667, "rental_uris": {"android": "https://dc.lft.to/lastmile_qr_scan", "ios": "https://dc.lft.to/lastmile_qr_scan"}, "bike_id": "465c4965877e2b8717afa3c1a1a43741", "lon": -77.00458383333333}, {"is_reserved": 0, "fusion_lon": 0.0, "fusion_lat": 0.0, "name": "5499e2ad866e4827534dd1bf083979c0", "type": "electric_scooter", "is_disabled": 0, "lat": 38.904894, "rental_uris": {"android": "https://dc.lft.to/lastmile_qr_scan", "ios": "https://dc.lft.to/lastmile_qr_scan"}, "bike_id": "5499e2ad866e4827534dd1bf083979c0", "lon": -76.98232666666667}, {"is_reserved": 0, "fusion_lon": 0.0, "fusion_lat": 0.0, "name": "cd7589594a84bab964de00a34cfbcb06", "type": "electric_scooter", "is_disabled": 0, "lat": 38.917995166666664, "rental_uris": {"android": "https://dc.lft.to/lastmile_qr_scan", "ios": "https://dc.lft.to/lastmile_qr_scan"}, "bike_id": "cd7589594a84bab964de00a34cfbcb06", "lon": -77.03448483333334}, {"is_reserved": 0, "fusion_lon": 0.0, "fusion_lat": 0.0, "name": "381f47031314666d9560e31817cd9663", "type": "electric_scooter", "is_disabled": 0, "lat": 38.918398333333336, "rental_uris": {"android": "https://dc.lft.to/lastmile_qr_scan", "ios": "https://dc.lft.to/lastmile_qr_scan"}, "bike_id": "381f47031314666d9560e31817cd9663", "lon": -77.04038016666667}, {"is_reserved": 0, "fusion_lon": 0.0, "fusion_lat": 0.0, "name": "4f11f2fd8e86bfd240736b85257d3229", "type": "electric_scooter", "is_disabled": 0, "lat": 38.911163, "rental_uris": {"android": "https://dc.lft.to/lastmile_qr_scan", "ios": "https://dc.lft.to/lastmile_qr_scan"}, "bike_id": "4f11f2fd8e86bfd240736b85257d3229", "lon": -77.06923683333333}, {"is_reserved": 0, "fusion_lon": 0.0, "fusion_lat": 0.0, "name": "ec8aae96abbd17ee07c3abdc6df875c9", "type": "electric_scooter", "is_disabled": 0, "lat": 38.9221455, "rental_uris": {"android": "https://dc.lft.to/lastmile_qr_scan", "ios": "https://dc.lft.to/lastmile_qr_scan"}, "bike_id": "ec8aae96abbd17ee07c3abdc6df875c9", "lon": -77.04330266666666}, {"is_reserved": 0, "fusion_lon": 0.0, "fusion_lat": 0.0, "name": "2a0c01e9d3756d40b2f9e6e1e19885fe", "type": "electric_bike", "is_disabled": 0, "lat": 38.911272, "rental_uris": {"android": "https://dc.lft.to/lastmile_qr_scan", "ios": "https://dc.lft.to/lastmile_qr_scan"}, "bike_id": "2a0c01e9d3756d40b2f9e6e1e19885fe", "lon": -77.08615483333334}, {"is_reserved": 0, "fusion_lon": 0.0, "fusion_lat": 0.0, "name": "1ed3104925d4359e8016ee79248eadb3", "type": "electric_scooter", "is_disabled": 0, "lat": 38.902702833333336, "rental_uris": {"android": "https://dc.lft.to/lastmile_qr_scan", "ios": "https://dc.lft.to/lastmile_qr_scan"}, "bike_id": "1ed3104925d4359e8016ee79248eadb3", "lon": -77.04510416666666}, {"is_reserved": 0, "fusion_lon": 0.0, "fusion_lat": 0.0, "name": "eeecebc85e99c33f5f2aa8a3ad719349", "type": "electric_scooter", "is_disabled": 0, "lat": 38.88363583333334, "rental_uris": {"android": "https://dc.lft.to/lastmile_qr_scan", "ios": "https://dc.lft.to/lastmile_qr_scan"}, "bike_id": "eeecebc85e99c33f5f2aa8a3ad719349", "lon": -76.94154916666666}, {"is_reserved": 0, "fusion_lon": 0.0, "fusion_lat": 0.0, "name": "7e5b80694690ee241e388bb8eccb422d", "type": "electric_scooter", "is_disabled": 0, "lat": 38.919932333333335, "rental_uris": {"android": "https://dc.lft.to/lastmile_qr_scan", "ios": "https://dc.lft.to/lastmile_qr_scan"}, "bike_id": "7e5b80694690ee241e388bb8eccb422d", "lon": -77.01778283333333}, {"is_reserved": 0, "fusion_lon": 0.0, "fusion_lat": 0.0, "name": "a3f61bfcf48ee515ac857b3db6dcaeaa", "type": "electric_scooter", "is_disabled": 0, "lat": 38.93534, "rental_uris": {"android": "https://dc.lft.to/lastmile_qr_scan", "ios": "https://dc.lft.to/lastmile_qr_scan"}, "bike_id": "a3f61bfcf48ee515ac857b3db6dcaeaa", "lon": -77.03471266666666}, {"is_reserved": 0, "fusion_lon": 0.0, "fusion_lat": 0.0, "name": "e6107d871b62aab3716dd65b93d11946", "type": "electric_scooter", "is_disabled": 0, "lat": 38.8985495, "rental_uris": {"android": "https://dc.lft.to/lastmile_qr_scan", "ios": "https://dc.lft.to/lastmile_qr_scan"}, "bike_id": "e6107d871b62aab3716dd65b93d11946", "lon": -77.048815}, {"is_reserved": 0, "fusion_lon": 0.0, "fusion_lat": 0.0, "name": "00f7b070781738e7f2a53460921ac2e3", "type": "electric_scooter", "is_disabled": 0, "lat": 38.92269483333333, "rental_uris": {"android": "https://dc.lft.to/lastmile_qr_scan", "ios": "https://dc.lft.to/lastmile_qr_scan"}, "bike_id": "00f7b070781738e7f2a53460921ac2e3", "lon": -77.032607}, {"is_reserved": 0, "fusion_lon": 0.0, "fusion_lat": 0.0, "name": "d08a3edf41e8af551e5c5a56998c50e0", "type": "electric_scooter", "is_disabled": 0, "lat": 38.9204005, "rental_uris": {"android": "https://dc.lft.to/lastmile_qr_scan", "ios": "https://dc.lft.to/lastmile_qr_scan"}, "bike_id": "d08a3edf41e8af551e5c5a56998c50e0", "lon": -77.017331}, {"is_reserved": 0, "fusion_lon": 0.0, "fusion_lat": 0.0, "name": "7cc81e7f8d994931c3227a3099537dac", "type": "electric_bike", "is_disabled": 0, "lat": 38.938976333333336, "rental_uris": {"android": "https://dc.lft.to/lastmile_qr_scan", "ios": "https://dc.lft.to/lastmile_qr_scan"}, "bike_id": "7cc81e7f8d994931c3227a3099537dac", "lon": -77.01689816666666}, {"is_reserved": 0, "fusion_lon": 0.0, "fusion_lat": 0.0, "name": "f275fd562e3a75120698915eb0160389", "type": "electric_scooter", "is_disabled": 0, "lat": 38.907113333333335, "rental_uris": {"android": "https://dc.lft.to/lastmile_qr_scan", "ios": "https://dc.lft.to/lastmile_qr_scan"}, "bike_id": "f275fd562e3a75120698915eb0160389", "lon": -76.99822766666666}, {"is_reserved": 0, "fusion_lon": 0.0, "fusion_lat": 0.0, "name": "cc1077ff7fc64d201a8c1dba56b58bf9", "type": "electric_scooter", "is_disabled": 0, "lat": 38.91194133333333, "rental_uris": {"android": "https://dc.lft.to/lastmile_qr_scan", "ios": "https://dc.lft.to/lastmile_qr_scan"}, "bike_id": "cc1077ff7fc64d201a8c1dba56b58bf9", "lon": -77.00455566666666}, {"is_reserved": 0, "fusion_lon": 0.0, "fusion_lat": 0.0, "name": "ba0525acb19a501cf48a27a900b809c8", "type": "electric_scooter", "is_disabled": 0, "lat": 38.9034335, "rental_uris": {"android": "https://dc.lft.to/lastmile_qr_scan", "ios": "https://dc.lft.to/lastmile_qr_scan"}, "bike_id": "ba0525acb19a501cf48a27a900b809c8", "lon": -77.033472}, {"is_reserved": 0, "fusion_lon": 0.0, "fusion_lat": 0.0, "name": "cf7e5a6ce23c39108449795e20cbaeca", "type": "electric_scooter", "is_disabled": 0, "lat": 38.90817466666667, "rental_uris": {"android": "https://dc.lft.to/lastmile_qr_scan", "ios": "https://dc.lft.to/lastmile_qr_scan"}, "bike_id": "cf7e5a6ce23c39108449795e20cbaeca", "lon": -77.03895183333333}, {"is_reserved": 0, "fusion_lon": 0.0, "fusion_lat": 0.0, "name": "245a5fe9e345f71b553779dcade7cdc5", "type": "electric_scooter", "is_disabled": 0, "lat": 38.927698666666664, "rental_uris": {"android": "https://dc.lft.to/lastmile_qr_scan", "ios": "https://dc.lft.to/lastmile_qr_scan"}, "bike_id": "245a5fe9e345f71b553779dcade7cdc5", "lon": -77.020665}, {"is_reserved": 0, "fusion_lon": 0.0, "fusion_lat": 0.0, "name": "b901879c7a4af270f79fd4ccd98ac1d8", "type": "electric_scooter", "is_disabled": 0, "lat": 38.902532, "rental_uris": {"android": "https://dc.lft.to/lastmile_qr_scan", "ios": "https://dc.lft.to/lastmile_qr_scan"}, "bike_id": "b901879c7a4af270f79fd4ccd98ac1d8", "lon": -77.06115616666666}, {"is_reserved": 0, "fusion_lon": 0.0, "fusion_lat": 0.0, "name": "bb1b3c8277c3bc803ac016a1e9305836", "type": "electric_scooter", "is_disabled": 0, "lat": 38.84430166666667, "rental_uris": {"android": "https://dc.lft.to/lastmile_qr_scan", "ios": "https://dc.lft.to/lastmile_qr_scan"}, "bike_id": "bb1b3c8277c3bc803ac016a1e9305836", "lon": -76.9981475}, {"is_reserved": 0, "fusion_lon": 0.0, "fusion_lat": 0.0, "name": "a2b4080c744bfacec851f83612456f66", "type": "electric_scooter", "is_disabled": 0, "lat": 38.911041, "rental_uris": {"android": "https://dc.lft.to/lastmile_qr_scan", "ios": "https://dc.lft.to/lastmile_qr_scan"}, "bike_id": "a2b4080c744bfacec851f83612456f66", "lon": -77.0466725}, {"is_reserved": 0, "fusion_lon": 0.0, "fusion_lat": 0.0, "name": "0804a78b7feb51b00b1e4002eefee165", "type": "electric_scooter", "is_disabled": 0, "lat": 38.948386166666666, "rental_uris": {"android": "https://dc.lft.to/lastmile_qr_scan", "ios": "https://dc.lft.to/lastmile_qr_scan"}, "bike_id": "0804a78b7feb51b00b1e4002eefee165", "lon": -77.02543033333333}, {"is_reserved": 0, "fusion_lon": 0.0, "fusion_lat": 0.0, "name": "ddf1caf504f58b456b76872404ae374a", "type": "electric_bike", "is_disabled": 0, "lat": 38.8343425, "rental_uris": {"android": "https://dc.lft.to/lastmile_qr_scan", "ios": "https://dc.lft.to/lastmile_qr_scan"}, "bike_id": "ddf1caf504f58b456b76872404ae374a", "lon": -77.1035275}, {"is_reserved": 0, "fusion_lon": 0.0, "fusion_lat": 0.0, "name": "eb8af638f2b8d8039564e140fb67cda6", "type": "electric_scooter", "is_disabled": 0, "lat": 38.949570666666666, "rental_uris": {"android": "https://dc.lft.to/lastmile_qr_scan", "ios": "https://dc.lft.to/lastmile_qr_scan"}, "bike_id": "eb8af638f2b8d8039564e140fb67cda6", "lon": -77.027229}, {"is_reserved": 0, "fusion_lon": 0.0, "fusion_lat": 0.0, "name": "b5e0ae3d7087f225e3665c5663d87f4c", "type": "electric_scooter", "is_disabled": 0, "lat": 38.90726566666667, "rental_uris": {"android": "https://dc.lft.to/lastmile_qr_scan", "ios": "https://dc.lft.to/lastmile_qr_scan"}, "bike_id": "b5e0ae3d7087f225e3665c5663d87f4c", "lon": -77.07421266666667}, {"is_reserved": 0, "fusion_lon": 0.0, "fusion_lat": 0.0, "name": "b750c8b14b9c0bba3a7a26445401d5f7", "type": "electric_scooter", "is_disabled": 0, "lat": 38.95662566666667, "rental_uris": {"android": "https://dc.lft.to/lastmile_qr_scan", "ios": "https://dc.lft.to/lastmile_qr_scan"}, "bike_id": "b750c8b14b9c0bba3a7a26445401d5f7", "lon": -77.01041}, {"is_reserved": 0, "fusion_lon": 0.0, "fusion_lat": 0.0, "name": "770d254c983f3abca72f235ee3fbf17c", "type": "electric_scooter", "is_disabled": 0, "lat": 38.9136405, "rental_uris": {"android": "https://dc.lft.to/lastmile_qr_scan", "ios": "https://dc.lft.to/lastmile_qr_scan"}, "bike_id": "770d254c983f3abca72f235ee3fbf17c", "lon": -77.0295195}, {"is_reserved": 0, "fusion_lon": 0.0, "fusion_lat": 0.0, "name": "f5d3ce56fc02bded8cb4291c0d155936", "type": "electric_scooter", "is_disabled": 0, "lat": 38.908773, "rental_uris": {"android": "https://dc.lft.to/lastmile_qr_scan", "ios": "https://dc.lft.to/lastmile_qr_scan"}, "bike_id": "f5d3ce56fc02bded8cb4291c0d155936", "lon": -77.0716705}, {"is_reserved": 0, "fusion_lon": 0.0, "fusion_lat": 0.0, "name": "223ed3c460681f351c0e96f5b7d5b8bc", "type": "electric_scooter", "is_disabled": 0, "lat": 38.91708033333333, "rental_uris": {"android": "https://dc.lft.to/lastmile_qr_scan", "ios": "https://dc.lft.to/lastmile_qr_scan"}, "bike_id": "223ed3c460681f351c0e96f5b7d5b8bc", "lon": -77.0365935}, {"is_reserved": 0, "fusion_lon": 0.0, "fusion_lat": 0.0, "name": "fed608b7dbb98dc82e88ddcae742877f", "type": "electric_scooter", "is_disabled": 0, "lat": 38.938886333333336, "rental_uris": {"android": "https://dc.lft.to/lastmile_qr_scan", "ios": "https://dc.lft.to/lastmile_qr_scan"}, "bike_id": "fed608b7dbb98dc82e88ddcae742877f", "lon": -77.03324}, {"is_reserved": 0, "fusion_lon": 0.0, "fusion_lat": 0.0, "name": "ccac15bd6c02bbb619d5087dfa4d4d11", "type": "electric_bike", "is_disabled": 0, "lat": 38.913808, "rental_uris": {"android": "https://dc.lft.to/lastmile_qr_scan", "ios": "https://dc.lft.to/lastmile_qr_scan"}, "bike_id": "ccac15bd6c02bbb619d5087dfa4d4d11", "lon": -77.08923766666666}, {"is_reserved": 0, "fusion_lon": 0.0, "fusion_lat": 0.0, "name": "407449bd2f0f824f3e0114c908d27062", "type": "electric_scooter", "is_disabled": 0, "lat": 38.8796595, "rental_uris": {"android": "https://dc.lft.to/lastmile_qr_scan", "ios": "https://dc.lft.to/lastmile_qr_scan"}, "bike_id": "407449bd2f0f824f3e0114c908d27062", "lon": -77.013786}, {"is_reserved": 0, "fusion_lon": 0.0, "fusion_lat": 0.0, "name": "d750633119f2a881a0492c0aeba67d27", "type": "electric_scooter", "is_disabled": 0, "lat": 38.907228833333335, "rental_uris": {"android": "https://dc.lft.to/lastmile_qr_scan", "ios": "https://dc.lft.to/lastmile_qr_scan"}, "bike_id": "d750633119f2a881a0492c0aeba67d27", "lon": -77.00341}, {"is_reserved": 0, "fusion_lon": 0.0, "fusion_lat": 0.0, "name": "62cf5586549247a624c316a5c6e6d6d2", "type": "electric_scooter", "is_disabled": 0, "lat": 38.924868833333335, "rental_uris": {"android": "https://dc.lft.to/lastmile_qr_scan", "ios": "https://dc.lft.to/lastmile_qr_scan"}, "bike_id": "62cf5586549247a624c316a5c6e6d6d2", "lon": -77.02692266666666}, {"is_reserved": 0, "fusion_lon": 0.0, "fusion_lat": 0.0, "name": "2978c512e8dfa0f162f1b6b96d8c228d", "type": "electric_scooter", "is_disabled": 0, "lat": 38.9303915, "rental_uris": {"android": "https://dc.lft.to/lastmile_qr_scan", "ios": "https://dc.lft.to/lastmile_qr_scan"}, "bike_id": "2978c512e8dfa0f162f1b6b96d8c228d", "lon": -77.01224183333333}, {"is_reserved": 0, "fusion_lon": 0.0, "fusion_lat": 0.0, "name": "44ea265d84d86d869039940bc36637cc", "type": "electric_bike", "is_disabled": 0, "lat": 38.96904516666667, "rental_uris": {"android": "https://dc.lft.to/lastmile_qr_scan", "ios": "https://dc.lft.to/lastmile_qr_scan"}, "bike_id": "44ea265d84d86d869039940bc36637cc", "lon": -76.99495183333333}, {"is_reserved": 0, "fusion_lon": 0.0, "fusion_lat": 0.0, "name": "e30281cea000fded9b7fef74999e6646", "type": "electric_scooter", "is_disabled": 0, "lat": 38.91819916666667, "rental_uris": {"android": "https://dc.lft.to/lastmile_qr_scan", "ios": "https://dc.lft.to/lastmile_qr_scan"}, "bike_id": "e30281cea000fded9b7fef74999e6646", "lon": -77.0242085}, {"is_reserved": 0, "fusion_lon": 0.0, "fusion_lat": 0.0, "name": "2a4b62900609a59dab081f2a42db6cfd", "type": "electric_scooter", "is_disabled": 0, "lat": 38.914864, "rental_uris": {"android": "https://dc.lft.to/lastmile_qr_scan", "ios": "https://dc.lft.to/lastmile_qr_scan"}, "bike_id": "2a4b62900609a59dab081f2a42db6cfd", "lon": -77.021936}, {"is_reserved": 0, "fusion_lon": 0.0, "fusion_lat": 0.0, "name": "f16e0149e5e0f5ad451ffa5a99906611", "type": "electric_scooter", "is_disabled": 0, "lat": 38.91815116666667, "rental_uris": {"android": "https://dc.lft.to/lastmile_qr_scan", "ios": "https://dc.lft.to/lastmile_qr_scan"}, "bike_id": "f16e0149e5e0f5ad451ffa5a99906611", "lon": -77.08949566666666}, {"is_reserved": 0, "fusion_lon": 0.0, "fusion_lat": 0.0, "name": "95f76bc1fcee28f4aac81fc3f91df247", "type": "electric_scooter", "is_disabled": 0, "lat": 38.90867383333333, "rental_uris": {"android": "https://dc.lft.to/lastmile_qr_scan", "ios": "https://dc.lft.to/lastmile_qr_scan"}, "bike_id": "95f76bc1fcee28f4aac81fc3f91df247", "lon": -77.0858905}, {"is_reserved": 0, "fusion_lon": 0.0, "fusion_lat": 0.0, "name": "87899b79b68603dc575598bbbbfcd374", "type": "electric_scooter", "is_disabled": 0, "lat": 38.92876416666667, "rental_uris": {"android": "https://dc.lft.to/lastmile_qr_scan", "ios": "https://dc.lft.to/lastmile_qr_scan"}, "bike_id": "87899b79b68603dc575598bbbbfcd374", "lon": -77.03643866666667}, {"is_reserved": 0, "fusion_lon": 0.0, "fusion_lat": 0.0, "name": "10046fcf68500f40df9e9bca9a8b765a", "type": "electric_scooter", "is_disabled": 0, "lat": 38.93607266666667, "rental_uris": {"android": "https://dc.lft.to/lastmile_qr_scan", "ios": "https://dc.lft.to/lastmile_qr_scan"}, "bike_id": "10046fcf68500f40df9e9bca9a8b765a", "lon": -77.038086}, {"is_reserved": 0, "fusion_lon": 0.0, "fusion_lat": 0.0, "name": "86c806d4a674cf9b119e88bae4e72eb2", "type": "electric_bike", "is_disabled": 0, "lat": 38.96323266666667, "rental_uris": {"android": "https://dc.lft.to/lastmile_qr_scan", "ios": "https://dc.lft.to/lastmile_qr_scan"}, "bike_id": "86c806d4a674cf9b119e88bae4e72eb2", "lon": -76.973636}, {"is_reserved": 0, "fusion_lon": 0.0, "fusion_lat": 0.0, "name": "7dbd86365464777bf71d90c93f2442e5", "type": "electric_scooter", "is_disabled": 0, "lat": 38.8873735, "rental_uris": {"android": "https://dc.lft.to/lastmile_qr_scan", "ios": "https://dc.lft.to/lastmile_qr_scan"}, "bike_id": "7dbd86365464777bf71d90c93f2442e5", "lon": -77.02213483333334}, {"is_reserved": 0, "fusion_lon": 0.0, "fusion_lat": 0.0, "name": "64158d6bc53fe665190aab7a24cfbf50", "type": "electric_scooter", "is_disabled": 0, "lat": 38.912883, "rental_uris": {"android": "https://dc.lft.to/lastmile_qr_scan", "ios": "https://dc.lft.to/lastmile_qr_scan"}, "bike_id": "64158d6bc53fe665190aab7a24cfbf50", "lon": -77.02388216666667}, {"is_reserved": 0, "fusion_lon": 0.0, "fusion_lat": 0.0, "name": "b14bcd43d225eff4c7a1f7c787062be0", "type": "electric_scooter", "is_disabled": 0, "lat": 38.916197833333335, "rental_uris": {"android": "https://dc.lft.to/lastmile_qr_scan", "ios": "https://dc.lft.to/lastmile_qr_scan"}, "bike_id": "b14bcd43d225eff4c7a1f7c787062be0", "lon": -77.031538}, {"is_reserved": 0, "fusion_lon": 0.0, "fusion_lat": 0.0, "name": "56a7604d2de8a7a7b376379f6aa51739", "type": "electric_scooter", "is_disabled": 0, "lat": 38.92429933333333, "rental_uris": {"android": "https://dc.lft.to/lastmile_qr_scan", "ios": "https://dc.lft.to/lastmile_qr_scan"}, "bike_id": "56a7604d2de8a7a7b376379f6aa51739", "lon": -77.051757}, {"is_reserved": 0, "fusion_lon": 0.0, "fusion_lat": 0.0, "name": "5530dfc14345549a51990524781c9779", "type": "electric_bike", "is_disabled": 0, "lat": 38.862628, "rental_uris": {"android": "https://dc.lft.to/lastmile_qr_scan", "ios": "https://dc.lft.to/lastmile_qr_scan"}, "bike_id": "5530dfc14345549a51990524781c9779", "lon": -76.98351966666667}, {"is_reserved": 0, "fusion_lon": 0.0, "fusion_lat": 0.0, "name": "185192aef90c398d4abb73ec5a360b2c", "type": "electric_scooter", "is_disabled": 0, "lat": 38.91709616666667, "rental_uris": {"android": "https://dc.lft.to/lastmile_qr_scan", "ios": "https://dc.lft.to/lastmile_qr_scan"}, "bike_id": "185192aef90c398d4abb73ec5a360b2c", "lon": -77.036626}, {"is_reserved": 0, "fusion_lon": 0.0, "fusion_lat": 0.0, "name": "7cc8c6de07b905d9e8af7db0157eee3a", "type": "electric_scooter", "is_disabled": 0, "lat": 38.904096333333335, "rental_uris": {"android": "https://dc.lft.to/lastmile_qr_scan", "ios": "https://dc.lft.to/lastmile_qr_scan"}, "bike_id": "7cc8c6de07b905d9e8af7db0157eee3a", "lon": -76.9733145}, {"is_reserved": 0, "fusion_lon": 0.0, "fusion_lat": 0.0, "name": "3382d6a27771b4da1c65b72ff9f382b5", "type": "electric_scooter", "is_disabled": 0, "lat": 38.87645066666666, "rental_uris": {"android": "https://dc.lft.to/lastmile_qr_scan", "ios": "https://dc.lft.to/lastmile_qr_scan"}, "bike_id": "3382d6a27771b4da1c65b72ff9f382b5", "lon": -77.00450116666667}, {"is_reserved": 0, "fusion_lon": 0.0, "fusion_lat": 0.0, "name": "6540de1d33b3edc0c90d74696fb99f83", "type": "electric_bike", "is_disabled": 0, "lat": 39.05048383333333, "rental_uris": {"android": "https://dc.lft.to/lastmile_qr_scan", "ios": "https://dc.lft.to/lastmile_qr_scan"}, "bike_id": "6540de1d33b3edc0c90d74696fb99f83", "lon": -77.051508}, {"is_reserved": 0, "fusion_lon": 0.0, "fusion_lat": 0.0, "name": "0f43d19496a3dcf5760d4e4fcf1d848f", "type": "electric_scooter", "is_disabled": 0, "lat": 38.910989666666666, "rental_uris": {"android": "https://dc.lft.to/lastmile_qr_scan", "ios": "https://dc.lft.to/lastmile_qr_scan"}, "bike_id": "0f43d19496a3dcf5760d4e4fcf1d848f", "lon": -77.0280075}, {"is_reserved": 0, "fusion_lon": 0.0, "fusion_lat": 0.0, "name": "c8a2bc37e988b8263d265486613cc047", "type": "electric_scooter", "is_disabled": 0, "lat": 38.902111166666664, "rental_uris": {"android": "https://dc.lft.to/lastmile_qr_scan", "ios": "https://dc.lft.to/lastmile_qr_scan"}, "bike_id": "c8a2bc37e988b8263d265486613cc047", "lon": -77.0480095}, {"is_reserved": 0, "fusion_lon": 0.0, "fusion_lat": 0.0, "name": "d42e6df4d60ba805216e7348e1c0e22c", "type": "electric_scooter", "is_disabled": 0, "lat": 38.88564133333333, "rental_uris": {"android": "https://dc.lft.to/lastmile_qr_scan", "ios": "https://dc.lft.to/lastmile_qr_scan"}, "bike_id": "d42e6df4d60ba805216e7348e1c0e22c", "lon": -76.99787533333334}, {"is_reserved": 0, "fusion_lon": 0.0, "fusion_lat": 0.0, "name": "877b78222ba8600047293ff58a692aca", "type": "electric_scooter", "is_disabled": 0, "lat": 38.91753, "rental_uris": {"android": "https://dc.lft.to/lastmile_qr_scan", "ios": "https://dc.lft.to/lastmile_qr_scan"}, "bike_id": "877b78222ba8600047293ff58a692aca", "lon": -77.03188733333333}, {"is_reserved": 0, "fusion_lon": 0.0, "fusion_lat": 0.0, "name": "81d9bda23576924b8a9566ecb133d98c", "type": "electric_scooter", "is_disabled": 0, "lat": 38.912944, "rental_uris": {"android": "https://dc.lft.to/lastmile_qr_scan", "ios": "https://dc.lft.to/lastmile_qr_scan"}, "bike_id": "81d9bda23576924b8a9566ecb133d98c", "lon": -77.04555283333333}, {"is_reserved": 0, "fusion_lon": 0.0, "fusion_lat": 0.0, "name": "6f59c1128ef4a0953d159ded78f10067", "type": "electric_scooter", "is_disabled": 0, "lat": 38.93358, "rental_uris": {"android": "https://dc.lft.to/lastmile_qr_scan", "ios": "https://dc.lft.to/lastmile_qr_scan"}, "bike_id": "6f59c1128ef4a0953d159ded78f10067", "lon": -77.05728016666667}, {"is_reserved": 0, "fusion_lon": 0.0, "fusion_lat": 0.0, "name": "1e7f3d9afdb515d5e10ff9a50c92d50e", "type": "electric_bike", "is_disabled": 0, "lat": 38.83235416666667, "rental_uris": {"android": "https://dc.lft.to/lastmile_qr_scan", "ios": "https://dc.lft.to/lastmile_qr_scan"}, "bike_id": "1e7f3d9afdb515d5e10ff9a50c92d50e", "lon": -76.9461985}, {"is_reserved": 0, "fusion_lon": 0.0, "fusion_lat": 0.0, "name": "e0a20bcd2fe394225f3f76f26d4d0722", "type": "electric_scooter", "is_disabled": 0, "lat": 38.90164716666666, "rental_uris": {"android": "https://dc.lft.to/lastmile_qr_scan", "ios": "https://dc.lft.to/lastmile_qr_scan"}, "bike_id": "e0a20bcd2fe394225f3f76f26d4d0722", "lon": -77.02296516666667}, {"is_reserved": 0, "fusion_lon": 0.0, "fusion_lat": 0.0, "name": "c25e10073f1a095c65f6472515244a4b", "type": "electric_bike", "is_disabled": 0, "lat": 38.916911666666664, "rental_uris": {"android": "https://dc.lft.to/lastmile_qr_scan", "ios": "https://dc.lft.to/lastmile_qr_scan"}, "bike_id": "c25e10073f1a095c65f6472515244a4b", "lon": -77.03141466666666}, {"is_reserved": 0, "fusion_lon": 0.0, "fusion_lat": 0.0, "name": "521554653ad2f84ae2d1c70f211180bc", "type": "electric_scooter", "is_disabled": 0, "lat": 38.9317425, "rental_uris": {"android": "https://dc.lft.to/lastmile_qr_scan", "ios": "https://dc.lft.to/lastmile_qr_scan"}, "bike_id": "521554653ad2f84ae2d1c70f211180bc", "lon": -77.02815783333334}, {"is_reserved": 0, "fusion_lon": 0.0, "fusion_lat": 0.0, "name": "48bd73d28eb83580ca1f35ae06fe0436", "type": "electric_scooter", "is_disabled": 0, "lat": 38.91981616666666, "rental_uris": {"android": "https://dc.lft.to/lastmile_qr_scan", "ios": "https://dc.lft.to/lastmile_qr_scan"}, "bike_id": "48bd73d28eb83580ca1f35ae06fe0436", "lon": -77.02208533333334}, {"is_reserved": 0, "fusion_lon": 0.0, "fusion_lat": 0.0, "name": "3ffec8226e1c076ff2e4cd20cf138c29", "type": "electric_scooter", "is_disabled": 0, "lat": 38.87313533333333, "rental_uris": {"android": "https://dc.lft.to/lastmile_qr_scan", "ios": "https://dc.lft.to/lastmile_qr_scan"}, "bike_id": "3ffec8226e1c076ff2e4cd20cf138c29", "lon": -77.00590983333333}, {"is_reserved": 0, "fusion_lon": 0.0, "fusion_lat": 0.0, "name": "a98b897400b1c587f0cb298264f7f253", "type": "electric_scooter", "is_disabled": 0, "lat": 38.90198216666667, "rental_uris": {"android": "https://dc.lft.to/lastmile_qr_scan", "ios": "https://dc.lft.to/lastmile_qr_scan"}, "bike_id": "a98b897400b1c587f0cb298264f7f253", "lon": -77.02084083333334}, {"is_reserved": 0, "fusion_lon": 0.0, "fusion_lat": 0.0, "name": "3c317f81d876eb681d0532dfa918e81f", "type": "electric_scooter", "is_disabled": 0, "lat": 38.9209565, "rental_uris": {"android": "https://dc.lft.to/lastmile_qr_scan", "ios": "https://dc.lft.to/lastmile_qr_scan"}, "bike_id": "3c317f81d876eb681d0532dfa918e81f", "lon": -77.004272}, {"is_reserved": 0, "fusion_lon": 0.0, "fusion_lat": 0.0, "name": "f12714a8e9553b79332b02ef43d81d67", "type": "electric_scooter", "is_disabled": 0, "lat": 38.911867, "rental_uris": {"android": "https://dc.lft.to/lastmile_qr_scan", "ios": "https://dc.lft.to/lastmile_qr_scan"}, "bike_id": "f12714a8e9553b79332b02ef43d81d67", "lon": -77.00970883333333}, {"is_reserved": 0, "fusion_lon": 0.0, "fusion_lat": 0.0, "name": "0d89d1921cad4bf379279d44a3997e58", "type": "electric_scooter", "is_disabled": 0, "lat": 38.922666666666665, "rental_uris": {"android": "https://dc.lft.to/lastmile_qr_scan", "ios": "https://dc.lft.to/lastmile_qr_scan"}, "bike_id": "0d89d1921cad4bf379279d44a3997e58", "lon": -77.03219583333333}, {"is_reserved": 0, "fusion_lon": 0.0, "fusion_lat": 0.0, "name": "00cf67b5df527dff0b921c647656d589", "type": "electric_scooter", "is_disabled": 0, "lat": 38.88813433333333, "rental_uris": {"android": "https://dc.lft.to/lastmile_qr_scan", "ios": "https://dc.lft.to/lastmile_qr_scan"}, "bike_id": "00cf67b5df527dff0b921c647656d589", "lon": -76.93345383333333}, {"is_reserved": 0, "fusion_lon": 0.0, "fusion_lat": 0.0, "name": "a4cc0e17c81136894b81979331dd447f", "type": "electric_scooter", "is_disabled": 0, "lat": 38.932721666666666, "rental_uris": {"android": "https://dc.lft.to/lastmile_qr_scan", "ios": "https://dc.lft.to/lastmile_qr_scan"}, "bike_id": "a4cc0e17c81136894b81979331dd447f", "lon": -77.028532}, {"is_reserved": 0, "fusion_lon": 0.0, "fusion_lat": 0.0, "name": "ecf1d999fcbb16ed6d0173e3dc170c58", "type": "electric_scooter", "is_disabled": 0, "lat": 38.9204975, "rental_uris": {"android": "https://dc.lft.to/lastmile_qr_scan", "ios": "https://dc.lft.to/lastmile_qr_scan"}, "bike_id": "ecf1d999fcbb16ed6d0173e3dc170c58", "lon": -76.96363716666667}, {"is_reserved": 0, "fusion_lon": 0.0, "fusion_lat": 0.0, "name": "2a6465ecc1721d5ba6815f59b1c58ebf", "type": "electric_bike", "is_disabled": 0, "lat": 38.9253585, "rental_uris": {"android": "https://dc.lft.to/lastmile_qr_scan", "ios": "https://dc.lft.to/lastmile_qr_scan"}, "bike_id": "2a6465ecc1721d5ba6815f59b1c58ebf", "lon": -77.00113366666666}, {"is_reserved": 0, "fusion_lon": 0.0, "fusion_lat": 0.0, "name": "91078df94eb08bff114dc903e27be10b", "type": "electric_scooter", "is_disabled": 0, "lat": 38.910623666666666, "rental_uris": {"android": "https://dc.lft.to/lastmile_qr_scan", "ios": "https://dc.lft.to/lastmile_qr_scan"}, "bike_id": "91078df94eb08bff114dc903e27be10b", "lon": -77.044815}, {"is_reserved": 0, "fusion_lon": 0.0, "fusion_lat": 0.0, "name": "73b465df76fb95d983d4551d1faa30d5", "type": "electric_scooter", "is_disabled": 0, "lat": 38.904550666666665, "rental_uris": {"android": "https://dc.lft.to/lastmile_qr_scan", "ios": "https://dc.lft.to/lastmile_qr_scan"}, "bike_id": "73b465df76fb95d983d4551d1faa30d5", "lon": -77.03799216666667}, {"is_reserved": 0, "fusion_lon": 0.0, "fusion_lat": 0.0, "name": "567f693b4e6069c202f761588e1fcacf", "type": "electric_scooter", "is_disabled": 0, "lat": 38.8666125, "rental_uris": {"android": "https://dc.lft.to/lastmile_qr_scan", "ios": "https://dc.lft.to/lastmile_qr_scan"}, "bike_id": "567f693b4e6069c202f761588e1fcacf", "lon": -76.98884833333334}, {"is_reserved": 0, "fusion_lon": 0.0, "fusion_lat": 0.0, "name": "4bd611c50f505ee500f40f73593f248a", "type": "electric_scooter", "is_disabled": 0, "lat": 38.91932083333333, "rental_uris": {"android": "https://dc.lft.to/lastmile_qr_scan", "ios": "https://dc.lft.to/lastmile_qr_scan"}, "bike_id": "4bd611c50f505ee500f40f73593f248a", "lon": -77.0250265}, {"is_reserved": 0, "fusion_lon": 0.0, "fusion_lat": 0.0, "name": "cfe3367987a6912ffbbb771d66174359", "type": "electric_scooter", "is_disabled": 0, "lat": 38.91836966666666, "rental_uris": {"android": "https://dc.lft.to/lastmile_qr_scan", "ios": "https://dc.lft.to/lastmile_qr_scan"}, "bike_id": "cfe3367987a6912ffbbb771d66174359", "lon": -76.96550333333333}, {"is_reserved": 0, "fusion_lon": 0.0, "fusion_lat": 0.0, "name": "39b2fdbdf488dae2d45ae4f011225ac2", "type": "electric_scooter", "is_disabled": 0, "lat": 38.871446, "rental_uris": {"android": "https://dc.lft.to/lastmile_qr_scan", "ios": "https://dc.lft.to/lastmile_qr_scan"}, "bike_id": "39b2fdbdf488dae2d45ae4f011225ac2", "lon": -77.0070475}, {"is_reserved": 0, "fusion_lon": 0.0, "fusion_lat": 0.0, "name": "1f57643efda0854a0884d55998cc491e", "type": "electric_scooter", "is_disabled": 0, "lat": 38.90800816666667, "rental_uris": {"android": "https://dc.lft.to/lastmile_qr_scan", "ios": "https://dc.lft.to/lastmile_qr_scan"}, "bike_id": "1f57643efda0854a0884d55998cc491e", "lon": -76.98735733333334}, {"is_reserved": 0, "fusion_lon": 0.0, "fusion_lat": 0.0, "name": "dff0cab0a96b505c1027f14aeb52adbd", "type": "electric_scooter", "is_disabled": 0, "lat": 38.9280395, "rental_uris": {"android": "https://dc.lft.to/lastmile_qr_scan", "ios": "https://dc.lft.to/lastmile_qr_scan"}, "bike_id": "dff0cab0a96b505c1027f14aeb52adbd", "lon": -77.01402266666666}, {"is_reserved": 0, "fusion_lon": 0.0, "fusion_lat": 0.0, "name": "82945d2ded10feb08847f9514acb11fc", "type": "electric_scooter", "is_disabled": 0, "lat": 38.90350883333333, "rental_uris": {"android": "https://dc.lft.to/lastmile_qr_scan", "ios": "https://dc.lft.to/lastmile_qr_scan"}, "bike_id": "82945d2ded10feb08847f9514acb11fc", "lon": -77.046739}, {"is_reserved": 0, "fusion_lon": 0.0, "fusion_lat": 0.0, "name": "ac4e316a04b2ccbfe109a77d2ffb1058", "type": "electric_scooter", "is_disabled": 0, "lat": 38.9141975, "rental_uris": {"android": "https://dc.lft.to/lastmile_qr_scan", "ios": "https://dc.lft.to/lastmile_qr_scan"}, "bike_id": "ac4e316a04b2ccbfe109a77d2ffb1058", "lon": -77.0281235}, {"is_reserved": 0, "fusion_lon": 0.0, "fusion_lat": 0.0, "name": "6af656e7a811c8cfdeff7d84b63348ad", "type": "electric_scooter", "is_disabled": 0, "lat": 38.898812, "rental_uris": {"android": "https://dc.lft.to/lastmile_qr_scan", "ios": "https://dc.lft.to/lastmile_qr_scan"}, "bike_id": "6af656e7a811c8cfdeff7d84b63348ad", "lon": -77.05301116666666}, {"is_reserved": 0, "fusion_lon": 0.0, "fusion_lat": 0.0, "name": "44fe13044ecd3284cdbfc2e3994a3fb3", "type": "electric_scooter", "is_disabled": 0, "lat": 38.91552866666667, "rental_uris": {"android": "https://dc.lft.to/lastmile_qr_scan", "ios": "https://dc.lft.to/lastmile_qr_scan"}, "bike_id": "44fe13044ecd3284cdbfc2e3994a3fb3", "lon": -77.05322516666666}, {"is_reserved": 0, "fusion_lon": 0.0, "fusion_lat": 0.0, "name": "81a90025e0b15b7798a7541334c8e02b", "type": "electric_scooter", "is_disabled": 0, "lat": 38.90705916666667, "rental_uris": {"android": "https://dc.lft.to/lastmile_qr_scan", "ios": "https://dc.lft.to/lastmile_qr_scan"}, "bike_id": "81a90025e0b15b7798a7541334c8e02b", "lon": -77.03191383333333}, {"is_reserved": 0, "fusion_lon": 0.0, "fusion_lat": 0.0, "name": "f3f3b93d38a56c7983e194dedbb7fe75", "type": "electric_scooter", "is_disabled": 0, "lat": 38.89223716666667, "rental_uris": {"android": "https://dc.lft.to/lastmile_qr_scan", "ios": "https://dc.lft.to/lastmile_qr_scan"}, "bike_id": "f3f3b93d38a56c7983e194dedbb7fe75", "lon": -77.0433595}, {"is_reserved": 0, "fusion_lon": 0.0, "fusion_lat": 0.0, "name": "48786a0e46556a42d6bd1657f0157e01", "type": "electric_scooter", "is_disabled": 0, "lat": 38.87649833333333, "rental_uris": {"android": "https://dc.lft.to/lastmile_qr_scan", "ios": "https://dc.lft.to/lastmile_qr_scan"}, "bike_id": "48786a0e46556a42d6bd1657f0157e01", "lon": -77.00577616666666}, {"is_reserved": 0, "fusion_lon": 0.0, "fusion_lat": 0.0, "name": "c4a65d4bf862f54855bada4155c22a47", "type": "electric_scooter", "is_disabled": 0, "lat": 38.892291, "rental_uris": {"android": "https://dc.lft.to/lastmile_qr_scan", "ios": "https://dc.lft.to/lastmile_qr_scan"}, "bike_id": "c4a65d4bf862f54855bada4155c22a47", "lon": -77.02376866666667}, {"is_reserved": 0, "fusion_lon": 0.0, "fusion_lat": 0.0, "name": "db6481b17b903d2794928373eb76f7dd", "type": "electric_scooter", "is_disabled": 0, "lat": 38.90728983333333, "rental_uris": {"android": "https://dc.lft.to/lastmile_qr_scan", "ios": "https://dc.lft.to/lastmile_qr_scan"}, "bike_id": "db6481b17b903d2794928373eb76f7dd", "lon": -76.93229516666666}, {"is_reserved": 0, "fusion_lon": 0.0, "fusion_lat": 0.0, "name": "549b0da9cd99a02b8ecfdf73a2c826a3", "type": "electric_bike", "is_disabled": 0, "lat": 38.973931, "rental_uris": {"android": "https://dc.lft.to/lastmile_qr_scan", "ios": "https://dc.lft.to/lastmile_qr_scan"}, "bike_id": "549b0da9cd99a02b8ecfdf73a2c826a3", "lon": -77.06449016666667}, {"is_reserved": 0, "fusion_lon": 0.0, "fusion_lat": 0.0, "name": "4d938b948b8d50eb6e2d485b701cbcfd", "type": "electric_bike", "is_disabled": 0, "lat": 38.91126633333333, "rental_uris": {"android": "https://dc.lft.to/lastmile_qr_scan", "ios": "https://dc.lft.to/lastmile_qr_scan"}, "bike_id": "4d938b948b8d50eb6e2d485b701cbcfd", "lon": -77.065771}, {"is_reserved": 0, "fusion_lon": 0.0, "fusion_lat": 0.0, "name": "5a5cab5122d16289a613abf9794b3460", "type": "electric_scooter", "is_disabled": 0, "lat": 38.91474483333333, "rental_uris": {"android": "https://dc.lft.to/lastmile_qr_scan", "ios": "https://dc.lft.to/lastmile_qr_scan"}, "bike_id": "5a5cab5122d16289a613abf9794b3460", "lon": -77.02579416666667}, {"is_reserved": 0, "fusion_lon": 0.0, "fusion_lat": 0.0, "name": "e3583087869a975fc387722a8e56047b", "type": "electric_scooter", "is_disabled": 0, "lat": 38.86666966666667, "rental_uris": {"android": "https://dc.lft.to/lastmile_qr_scan", "ios": "https://dc.lft.to/lastmile_qr_scan"}, "bike_id": "e3583087869a975fc387722a8e56047b", "lon": -76.98518}, {"is_reserved": 0, "fusion_lon": 0.0, "fusion_lat": 0.0, "name": "52abce155fc99b687d5a954f04984d8d", "type": "electric_scooter", "is_disabled": 0, "lat": 38.902455833333335, "rental_uris": {"android": "https://dc.lft.to/lastmile_qr_scan", "ios": "https://dc.lft.to/lastmile_qr_scan"}, "bike_id": "52abce155fc99b687d5a954f04984d8d", "lon": -77.0427205}, {"is_reserved": 0, "fusion_lon": 0.0, "fusion_lat": 0.0, "name": "f1c1a6266667d6dff68f6e6912bfc45e", "type": "electric_scooter", "is_disabled": 0, "lat": 38.912642166666664, "rental_uris": {"android": "https://dc.lft.to/lastmile_qr_scan", "ios": "https://dc.lft.to/lastmile_qr_scan"}, "bike_id": "f1c1a6266667d6dff68f6e6912bfc45e", "lon": -77.0176485}, {"is_reserved": 0, "fusion_lon": 0.0, "fusion_lat": 0.0, "name": "103af78a1a5be7fbe17c100c140ac5e0", "type": "electric_scooter", "is_disabled": 0, "lat": 38.897323166666666, "rental_uris": {"android": "https://dc.lft.to/lastmile_qr_scan", "ios": "https://dc.lft.to/lastmile_qr_scan"}, "bike_id": "103af78a1a5be7fbe17c100c140ac5e0", "lon": -77.0557245}, {"is_reserved": 0, "fusion_lon": 0.0, "fusion_lat": 0.0, "name": "0581b01a654a561e5d3e475b57a5d95f", "type": "electric_scooter", "is_disabled": 0, "lat": 38.903871333333335, "rental_uris": {"android": "https://dc.lft.to/lastmile_qr_scan", "ios": "https://dc.lft.to/lastmile_qr_scan"}, "bike_id": "0581b01a654a561e5d3e475b57a5d95f", "lon": -77.02994266666667}, {"is_reserved": 0, "fusion_lon": 0.0, "fusion_lat": 0.0, "name": "3a8f5d37143af9e78a81b116aa4ffdf6", "type": "electric_bike", "is_disabled": 0, "lat": 38.89614366666667, "rental_uris": {"android": "https://dc.lft.to/lastmile_qr_scan", "ios": "https://dc.lft.to/lastmile_qr_scan"}, "bike_id": "3a8f5d37143af9e78a81b116aa4ffdf6", "lon": -76.90741433333334}, {"is_reserved": 0, "fusion_lon": 0.0, "fusion_lat": 0.0, "name": "7a799db8f5424b7966fe77c3ed4b178c", "type": "electric_scooter", "is_disabled": 0, "lat": 38.897257833333335, "rental_uris": {"android": "https://dc.lft.to/lastmile_qr_scan", "ios": "https://dc.lft.to/lastmile_qr_scan"}, "bike_id": "7a799db8f5424b7966fe77c3ed4b178c", "lon": -77.03339133333333}, {"is_reserved": 0, "fusion_lon": 0.0, "fusion_lat": 0.0, "name": "188ae3027611408f05f1649be81789e1", "type": "electric_scooter", "is_disabled": 0, "lat": 38.90503666666667, "rental_uris": {"android": "https://dc.lft.to/lastmile_qr_scan", "ios": "https://dc.lft.to/lastmile_qr_scan"}, "bike_id": "188ae3027611408f05f1649be81789e1", "lon": -76.9744655}, {"is_reserved": 0, "fusion_lon": 0.0, "fusion_lat": 0.0, "name": "f07a7eb5a45f0761b1ffda1b697f4940", "type": "electric_scooter", "is_disabled": 0, "lat": 38.918414166666665, "rental_uris": {"android": "https://dc.lft.to/lastmile_qr_scan", "ios": "https://dc.lft.to/lastmile_qr_scan"}, "bike_id": "f07a7eb5a45f0761b1ffda1b697f4940", "lon": -76.96552083333333}, {"is_reserved": 0, "fusion_lon": 0.0, "fusion_lat": 0.0, "name": "eef01c93576619f25729918abcba787c", "type": "electric_scooter", "is_disabled": 0, "lat": 38.924811, "rental_uris": {"android": "https://dc.lft.to/lastmile_qr_scan", "ios": "https://dc.lft.to/lastmile_qr_scan"}, "bike_id": "eef01c93576619f25729918abcba787c", "lon": -77.02230266666666}, {"is_reserved": 0, "fusion_lon": 0.0, "fusion_lat": 0.0, "name": "3e76fd617c8ca8fb778ec566ca5a55aa", "type": "electric_scooter", "is_disabled": 0, "lat": 38.91816583333333, "rental_uris": {"android": "https://dc.lft.to/lastmile_qr_scan", "ios": "https://dc.lft.to/lastmile_qr_scan"}, "bike_id": "3e76fd617c8ca8fb778ec566ca5a55aa", "lon": -77.03460816666667}, {"is_reserved": 0, "fusion_lon": 0.0, "fusion_lat": 0.0, "name": "0fa8426712607d0b8004d1fb900f9a84", "type": "electric_scooter", "is_disabled": 0, "lat": 38.899644, "rental_uris": {"android": "https://dc.lft.to/lastmile_qr_scan", "ios": "https://dc.lft.to/lastmile_qr_scan"}, "bike_id": "0fa8426712607d0b8004d1fb900f9a84", "lon": -77.025753}, {"is_reserved": 0, "fusion_lon": 0.0, "fusion_lat": 0.0, "name": "3041fad0f6f40783a5e75a264d27aa78", "type": "electric_scooter", "is_disabled": 0, "lat": 38.937124833333336, "rental_uris": {"android": "https://dc.lft.to/lastmile_qr_scan", "ios": "https://dc.lft.to/lastmile_qr_scan"}, "bike_id": "3041fad0f6f40783a5e75a264d27aa78", "lon": -77.02936316666667}, {"is_reserved": 0, "fusion_lon": 0.0, "fusion_lat": 0.0, "name": "6a4930330e51071c640eaa647c364f81", "type": "electric_scooter", "is_disabled": 0, "lat": 38.86060116666667, "rental_uris": {"android": "https://dc.lft.to/lastmile_qr_scan", "ios": "https://dc.lft.to/lastmile_qr_scan"}, "bike_id": "6a4930330e51071c640eaa647c364f81", "lon": -76.985077}, {"is_reserved": 0, "fusion_lon": 0.0, "fusion_lat": 0.0, "name": "abadd974ee22eb928107f09d447c7bd7", "type": "electric_scooter", "is_disabled": 0, "lat": 38.9222125, "rental_uris": {"android": "https://dc.lft.to/lastmile_qr_scan", "ios": "https://dc.lft.to/lastmile_qr_scan"}, "bike_id": "abadd974ee22eb928107f09d447c7bd7", "lon": -77.043355}, {"is_reserved": 0, "fusion_lon": 0.0, "fusion_lat": 0.0, "name": "becb85c104f041a0f9aab58b3eb6386d", "type": "electric_scooter", "is_disabled": 0, "lat": 38.89649283333333, "rental_uris": {"android": "https://dc.lft.to/lastmile_qr_scan", "ios": "https://dc.lft.to/lastmile_qr_scan"}, "bike_id": "becb85c104f041a0f9aab58b3eb6386d", "lon": -77.03333333333333}, {"is_reserved": 0, "fusion_lon": 0.0, "fusion_lat": 0.0, "name": "906330414d72e1a91859e769e77c0ab1", "type": "electric_scooter", "is_disabled": 0, "lat": 38.89214533333333, "rental_uris": {"android": "https://dc.lft.to/lastmile_qr_scan", "ios": "https://dc.lft.to/lastmile_qr_scan"}, "bike_id": "906330414d72e1a91859e769e77c0ab1", "lon": -77.02015883333333}, {"is_reserved": 0, "fusion_lon": 0.0, "fusion_lat": 0.0, "name": "f608dd9591532f54acbd8fcd41c5bf10", "type": "electric_scooter", "is_disabled": 0, "lat": 38.88371716666666, "rental_uris": {"android": "https://dc.lft.to/lastmile_qr_scan", "ios": "https://dc.lft.to/lastmile_qr_scan"}, "bike_id": "f608dd9591532f54acbd8fcd41c5bf10", "lon": -77.02637333333334}, {"is_reserved": 0, "fusion_lon": 0.0, "fusion_lat": 0.0, "name": "29f6d73ef224248448436fa68ed6ea52", "type": "electric_scooter", "is_disabled": 0, "lat": 38.89601866666667, "rental_uris": {"android": "https://dc.lft.to/lastmile_qr_scan", "ios": "https://dc.lft.to/lastmile_qr_scan"}, "bike_id": "29f6d73ef224248448436fa68ed6ea52", "lon": -76.99969583333333}, {"is_reserved": 0, "fusion_lon": 0.0, "fusion_lat": 0.0, "name": "d52332ab85deb202c4139ed4000e1364", "type": "electric_bike", "is_disabled": 0, "lat": 38.938331833333336, "rental_uris": {"android": "https://dc.lft.to/lastmile_qr_scan", "ios": "https://dc.lft.to/lastmile_qr_scan"}, "bike_id": "d52332ab85deb202c4139ed4000e1364", "lon": -76.99481166666666}, {"is_reserved": 0, "fusion_lon": 0.0, "fusion_lat": 0.0, "name": "e6a5713bb5f0005fc73529b7dd95f313", "type": "electric_scooter", "is_disabled": 0, "lat": 38.93285683333333, "rental_uris": {"android": "https://dc.lft.to/lastmile_qr_scan", "ios": "https://dc.lft.to/lastmile_qr_scan"}, "bike_id": "e6a5713bb5f0005fc73529b7dd95f313", "lon": -77.023077}, {"is_reserved": 0, "fusion_lon": 0.0, "fusion_lat": 0.0, "name": "e51f7631126101d103ed6e872781a8d2", "type": "electric_scooter", "is_disabled": 0, "lat": 38.923656333333334, "rental_uris": {"android": "https://dc.lft.to/lastmile_qr_scan", "ios": "https://dc.lft.to/lastmile_qr_scan"}, "bike_id": "e51f7631126101d103ed6e872781a8d2", "lon": -77.01917366666666}, {"is_reserved": 0, "fusion_lon": 0.0, "fusion_lat": 0.0, "name": "aa8849c9eb7c8851b654ac7669b56782", "type": "electric_scooter", "is_disabled": 0, "lat": 38.9119065, "rental_uris": {"android": "https://dc.lft.to/lastmile_qr_scan", "ios": "https://dc.lft.to/lastmile_qr_scan"}, "bike_id": "aa8849c9eb7c8851b654ac7669b56782", "lon": -77.00493316666666}, {"is_reserved": 0, "fusion_lon": 0.0, "fusion_lat": 0.0, "name": "83c31afc747e2932b7f6ea36ca13d2d8", "type": "electric_scooter", "is_disabled": 0, "lat": 38.87774133333333, "rental_uris": {"android": "https://dc.lft.to/lastmile_qr_scan", "ios": "https://dc.lft.to/lastmile_qr_scan"}, "bike_id": "83c31afc747e2932b7f6ea36ca13d2d8", "lon": -76.99502933333333}, {"is_reserved": 0, "fusion_lon": 0.0, "fusion_lat": 0.0, "name": "81c85726f489efd23fa60d3df268b57f", "type": "electric_scooter", "is_disabled": 0, "lat": 38.90028933333333, "rental_uris": {"android": "https://dc.lft.to/lastmile_qr_scan", "ios": "https://dc.lft.to/lastmile_qr_scan"}, "bike_id": "81c85726f489efd23fa60d3df268b57f", "lon": -77.0320115}, {"is_reserved": 0, "fusion_lon": 0.0, "fusion_lat": 0.0, "name": "98b0de9664c79fb9b42077c29201e3d9", "type": "electric_scooter", "is_disabled": 0, "lat": 38.911795166666664, "rental_uris": {"android": "https://dc.lft.to/lastmile_qr_scan", "ios": "https://dc.lft.to/lastmile_qr_scan"}, "bike_id": "98b0de9664c79fb9b42077c29201e3d9", "lon": -77.0349265}, {"is_reserved": 0, "fusion_lon": 0.0, "fusion_lat": 0.0, "name": "de3992603dd4af8d333fe30e89dc5279", "type": "electric_scooter", "is_disabled": 0, "lat": 38.91676733333333, "rental_uris": {"android": "https://dc.lft.to/lastmile_qr_scan", "ios": "https://dc.lft.to/lastmile_qr_scan"}, "bike_id": "de3992603dd4af8d333fe30e89dc5279", "lon": -77.0289815}, {"is_reserved": 0, "fusion_lon": 0.0, "fusion_lat": 0.0, "name": "c5d2cf247baf3ec9610c7c63ffaeb551", "type": "electric_scooter", "is_disabled": 0, "lat": 38.908219833333334, "rental_uris": {"android": "https://dc.lft.to/lastmile_qr_scan", "ios": "https://dc.lft.to/lastmile_qr_scan"}, "bike_id": "c5d2cf247baf3ec9610c7c63ffaeb551", "lon": -77.03914583333334}, {"is_reserved": 0, "fusion_lon": 0.0, "fusion_lat": 0.0, "name": "62bec129c832b0a40c5bf53affdcd22a", "type": "electric_scooter", "is_disabled": 0, "lat": 38.92436583333333, "rental_uris": {"android": "https://dc.lft.to/lastmile_qr_scan", "ios": "https://dc.lft.to/lastmile_qr_scan"}, "bike_id": "62bec129c832b0a40c5bf53affdcd22a", "lon": -77.04025216666666}, {"is_reserved": 0, "fusion_lon": 0.0, "fusion_lat": 0.0, "name": "8a4c5620e63e6556cd4cc01fbf6814d2", "type": "electric_scooter", "is_disabled": 0, "lat": 38.9073335, "rental_uris": {"android": "https://dc.lft.to/lastmile_qr_scan", "ios": "https://dc.lft.to/lastmile_qr_scan"}, "bike_id": "8a4c5620e63e6556cd4cc01fbf6814d2", "lon": -76.98697366666667}, {"is_reserved": 0, "fusion_lon": 0.0, "fusion_lat": 0.0, "name": "620435835db048c408dcc83a748f5ef9", "type": "electric_scooter", "is_disabled": 0, "lat": 38.899097166666664, "rental_uris": {"android": "https://dc.lft.to/lastmile_qr_scan", "ios": "https://dc.lft.to/lastmile_qr_scan"}, "bike_id": "620435835db048c408dcc83a748f5ef9", "lon": -77.0329195}, {"is_reserved": 0, "fusion_lon": 0.0, "fusion_lat": 0.0, "name": "630de88a2a536b9293aef11fbb2dcdf0", "type": "electric_scooter", "is_disabled": 0, "lat": 38.90035233333333, "rental_uris": {"android": "https://dc.lft.to/lastmile_qr_scan", "ios": "https://dc.lft.to/lastmile_qr_scan"}, "bike_id": "630de88a2a536b9293aef11fbb2dcdf0", "lon": -77.01233566666667}, {"is_reserved": 0, "fusion_lon": 0.0, "fusion_lat": 0.0, "name": "d41bbbd340caadb9b196b9c8257c8a5d", "type": "electric_scooter", "is_disabled": 0, "lat": 38.90507216666666, "rental_uris": {"android": "https://dc.lft.to/lastmile_qr_scan", "ios": "https://dc.lft.to/lastmile_qr_scan"}, "bike_id": "d41bbbd340caadb9b196b9c8257c8a5d", "lon": -76.9960695}, {"is_reserved": 0, "fusion_lon": 0.0, "fusion_lat": 0.0, "name": "0c2b515a74163d925f615ca107e04110", "type": "electric_bike", "is_disabled": 0, "lat": 39.043098, "rental_uris": {"android": "https://dc.lft.to/lastmile_qr_scan", "ios": "https://dc.lft.to/lastmile_qr_scan"}, "bike_id": "0c2b515a74163d925f615ca107e04110", "lon": -77.0516115}, {"is_reserved": 0, "fusion_lon": 0.0, "fusion_lat": 0.0, "name": "2e70e6c518a21fbe3afd296ca1738a91", "type": "electric_scooter", "is_disabled": 0, "lat": 38.952297333333334, "rental_uris": {"android": "https://dc.lft.to/lastmile_qr_scan", "ios": "https://dc.lft.to/lastmile_qr_scan"}, "bike_id": "2e70e6c518a21fbe3afd296ca1738a91", "lon": -77.01430216666667}, {"is_reserved": 0, "fusion_lon": 0.0, "fusion_lat": 0.0, "name": "e9dba8fbb407f1996b46cfc0dd8e15e8", "type": "electric_scooter", "is_disabled": 0, "lat": 38.887161, "rental_uris": {"android": "https://dc.lft.to/lastmile_qr_scan", "ios": "https://dc.lft.to/lastmile_qr_scan"}, "bike_id": "e9dba8fbb407f1996b46cfc0dd8e15e8", "lon": -77.02184966666667}, {"is_reserved": 0, "fusion_lon": 0.0, "fusion_lat": 0.0, "name": "d93a33df33310d0cc1c8418628724ea6", "type": "electric_bike", "is_disabled": 0, "lat": 38.897803833333334, "rental_uris": {"android": "https://dc.lft.to/lastmile_qr_scan", "ios": "https://dc.lft.to/lastmile_qr_scan"}, "bike_id": "d93a33df33310d0cc1c8418628724ea6", "lon": -77.00593016666667}, {"is_reserved": 0, "fusion_lon": 0.0, "fusion_lat": 0.0, "name": "cf7760deecefd3fb36266c3bf872b6b8", "type": "electric_scooter", "is_disabled": 0, "lat": 38.920223666666665, "rental_uris": {"android": "https://dc.lft.to/lastmile_qr_scan", "ios": "https://dc.lft.to/lastmile_qr_scan"}, "bike_id": "cf7760deecefd3fb36266c3bf872b6b8", "lon": -77.01807733333334}, {"is_reserved": 0, "fusion_lon": 0.0, "fusion_lat": 0.0, "name": "6e1baf8775a90df58e60e041fd160f52", "type": "electric_scooter", "is_disabled": 0, "lat": 38.930164166666664, "rental_uris": {"android": "https://dc.lft.to/lastmile_qr_scan", "ios": "https://dc.lft.to/lastmile_qr_scan"}, "bike_id": "6e1baf8775a90df58e60e041fd160f52", "lon": -77.012982}, {"is_reserved": 0, "fusion_lon": 0.0, "fusion_lat": 0.0, "name": "3024f426623c9b31385753f50cc56196", "type": "electric_scooter", "is_disabled": 0, "lat": 38.91103783333333, "rental_uris": {"android": "https://dc.lft.to/lastmile_qr_scan", "ios": "https://dc.lft.to/lastmile_qr_scan"}, "bike_id": "3024f426623c9b31385753f50cc56196", "lon": -77.07352083333333}, {"is_reserved": 0, "fusion_lon": 0.0, "fusion_lat": 0.0, "name": "f17dfdfe2329a66273951e8cd94e9c73", "type": "electric_scooter", "is_disabled": 0, "lat": 38.91112733333333, "rental_uris": {"android": "https://dc.lft.to/lastmile_qr_scan", "ios": "https://dc.lft.to/lastmile_qr_scan"}, "bike_id": "f17dfdfe2329a66273951e8cd94e9c73", "lon": -77.038689}, {"is_reserved": 0, "fusion_lon": 0.0, "fusion_lat": 0.0, "name": "8faf86377a7aca172f871c298d4cae64", "type": "electric_scooter", "is_disabled": 0, "lat": 38.887273, "rental_uris": {"android": "https://dc.lft.to/lastmile_qr_scan", "ios": "https://dc.lft.to/lastmile_qr_scan"}, "bike_id": "8faf86377a7aca172f871c298d4cae64", "lon": -77.02186833333333}, {"is_reserved": 0, "fusion_lon": 0.0, "fusion_lat": 0.0, "name": "aaf1c65fbaaf98db367d9350d83fc15e", "type": "electric_scooter", "is_disabled": 0, "lat": 38.922721333333335, "rental_uris": {"android": "https://dc.lft.to/lastmile_qr_scan", "ios": "https://dc.lft.to/lastmile_qr_scan"}, "bike_id": "aaf1c65fbaaf98db367d9350d83fc15e", "lon": -77.042382}, {"is_reserved": 0, "fusion_lon": 0.0, "fusion_lat": 0.0, "name": "a6e3ea8089a605b53e518119b1d25b5d", "type": "electric_scooter", "is_disabled": 0, "lat": 38.91811383333334, "rental_uris": {"android": "https://dc.lft.to/lastmile_qr_scan", "ios": "https://dc.lft.to/lastmile_qr_scan"}, "bike_id": "a6e3ea8089a605b53e518119b1d25b5d", "lon": -77.035646}, {"is_reserved": 0, "fusion_lon": 0.0, "fusion_lat": 0.0, "name": "99cd07830177cdcbcf856effdc7f5580", "type": "electric_scooter", "is_disabled": 0, "lat": 38.909577166666665, "rental_uris": {"android": "https://dc.lft.to/lastmile_qr_scan", "ios": "https://dc.lft.to/lastmile_qr_scan"}, "bike_id": "99cd07830177cdcbcf856effdc7f5580", "lon": -77.045747}, {"is_reserved": 0, "fusion_lon": 0.0, "fusion_lat": 0.0, "name": "7d2114523e95c3c487c2d71b8cc2ef5a", "type": "electric_scooter", "is_disabled": 0, "lat": 38.91703066666667, "rental_uris": {"android": "https://dc.lft.to/lastmile_qr_scan", "ios": "https://dc.lft.to/lastmile_qr_scan"}, "bike_id": "7d2114523e95c3c487c2d71b8cc2ef5a", "lon": -77.0260385}, {"is_reserved": 0, "fusion_lon": 0.0, "fusion_lat": 0.0, "name": "14de1d4be2e76103e4d1a71fff192403", "type": "electric_scooter", "is_disabled": 0, "lat": 38.90950566666667, "rental_uris": {"android": "https://dc.lft.to/lastmile_qr_scan", "ios": "https://dc.lft.to/lastmile_qr_scan"}, "bike_id": "14de1d4be2e76103e4d1a71fff192403", "lon": -77.03206566666667}, {"is_reserved": 0, "fusion_lon": 0.0, "fusion_lat": 0.0, "name": "ead9a30a0ca5f3a7eedfaf70eec944fc", "type": "electric_scooter", "is_disabled": 0, "lat": 38.8949065, "rental_uris": {"android": "https://dc.lft.to/lastmile_qr_scan", "ios": "https://dc.lft.to/lastmile_qr_scan"}, "bike_id": "ead9a30a0ca5f3a7eedfaf70eec944fc", "lon": -77.00206616666667}, {"is_reserved": 0, "fusion_lon": 0.0, "fusion_lat": 0.0, "name": "067fdedd4e9086fc840eddebebb241ef", "type": "electric_scooter", "is_disabled": 0, "lat": 38.915985666666664, "rental_uris": {"android": "https://dc.lft.to/lastmile_qr_scan", "ios": "https://dc.lft.to/lastmile_qr_scan"}, "bike_id": "067fdedd4e9086fc840eddebebb241ef", "lon": -77.03208483333333}, {"is_reserved": 0, "fusion_lon": 0.0, "fusion_lat": 0.0, "name": "5d322562ecd9a53acfd71fd511e55701", "type": "electric_scooter", "is_disabled": 0, "lat": 38.89218866666667, "rental_uris": {"android": "https://dc.lft.to/lastmile_qr_scan", "ios": "https://dc.lft.to/lastmile_qr_scan"}, "bike_id": "5d322562ecd9a53acfd71fd511e55701", "lon": -77.04503083333333}, {"is_reserved": 0, "fusion_lon": 0.0, "fusion_lat": 0.0, "name": "14dc75abe5f770e243566cb46ccbaf48", "type": "electric_scooter", "is_disabled": 0, "lat": 38.91788733333333, "rental_uris": {"android": "https://dc.lft.to/lastmile_qr_scan", "ios": "https://dc.lft.to/lastmile_qr_scan"}, "bike_id": "14dc75abe5f770e243566cb46ccbaf48", "lon": -77.0415055}, {"is_reserved": 0, "fusion_lon": 0.0, "fusion_lat": 0.0, "name": "dc393e843f2246f5d3fcbfb326ce103d", "type": "electric_scooter", "is_disabled": 0, "lat": 38.919847833333336, "rental_uris": {"android": "https://dc.lft.to/lastmile_qr_scan", "ios": "https://dc.lft.to/lastmile_qr_scan"}, "bike_id": "dc393e843f2246f5d3fcbfb326ce103d", "lon": -77.03325216666667}, {"is_reserved": 0, "fusion_lon": 0.0, "fusion_lat": 0.0, "name": "6638bc41a841b5402f6a947c8a1461e9", "type": "electric_scooter", "is_disabled": 0, "lat": 38.908952666666664, "rental_uris": {"android": "https://dc.lft.to/lastmile_qr_scan", "ios": "https://dc.lft.to/lastmile_qr_scan"}, "bike_id": "6638bc41a841b5402f6a947c8a1461e9", "lon": -77.0441045}, {"is_reserved": 0, "fusion_lon": 0.0, "fusion_lat": 0.0, "name": "4508ae0fa3cedb9ea0331e09dc66231a", "type": "electric_scooter", "is_disabled": 0, "lat": 38.8923975, "rental_uris": {"android": "https://dc.lft.to/lastmile_qr_scan", "ios": "https://dc.lft.to/lastmile_qr_scan"}, "bike_id": "4508ae0fa3cedb9ea0331e09dc66231a", "lon": -77.03182433333333}, {"is_reserved": 0, "fusion_lon": 0.0, "fusion_lat": 0.0, "name": "4759d99bf14fef67b14a1748aa79fff5", "type": "electric_scooter", "is_disabled": 0, "lat": 38.929199833333335, "rental_uris": {"android": "https://dc.lft.to/lastmile_qr_scan", "ios": "https://dc.lft.to/lastmile_qr_scan"}, "bike_id": "4759d99bf14fef67b14a1748aa79fff5", "lon": -77.0233585}, {"is_reserved": 0, "fusion_lon": 0.0, "fusion_lat": 0.0, "name": "67ac7f49b14e2d32e1a230d41a153604", "type": "electric_scooter", "is_disabled": 0, "lat": 38.94199866666666, "rental_uris": {"android": "https://dc.lft.to/lastmile_qr_scan", "ios": "https://dc.lft.to/lastmile_qr_scan"}, "bike_id": "67ac7f49b14e2d32e1a230d41a153604", "lon": -77.0251175}, {"is_reserved": 0, "fusion_lon": 0.0, "fusion_lat": 0.0, "name": "099c592c5a4ceb832b00bdf85c8dffb8", "type": "electric_scooter", "is_disabled": 0, "lat": 38.9079405, "rental_uris": {"android": "https://dc.lft.to/lastmile_qr_scan", "ios": "https://dc.lft.to/lastmile_qr_scan"}, "bike_id": "099c592c5a4ceb832b00bdf85c8dffb8", "lon": -77.03186133333334}, {"is_reserved": 0, "fusion_lon": 0.0, "fusion_lat": 0.0, "name": "b73718ad7d164d7c4dee0e6ae9ecd801", "type": "electric_scooter", "is_disabled": 0, "lat": 38.9232845, "rental_uris": {"android": "https://dc.lft.to/lastmile_qr_scan", "ios": "https://dc.lft.to/lastmile_qr_scan"}, "bike_id": "b73718ad7d164d7c4dee0e6ae9ecd801", "lon": -77.019595}, {"is_reserved": 0, "fusion_lon": 0.0, "fusion_lat": 0.0, "name": "1372384796f019776348cbc3f87cc2af", "type": "electric_scooter", "is_disabled": 0, "lat": 38.92263583333333, "rental_uris": {"android": "https://dc.lft.to/lastmile_qr_scan", "ios": "https://dc.lft.to/lastmile_qr_scan"}, "bike_id": "1372384796f019776348cbc3f87cc2af", "lon": -77.02247033333333}, {"is_reserved": 0, "fusion_lon": 0.0, "fusion_lat": 0.0, "name": "74373df1a0f92e6d4cf038c7ab3ff91c", "type": "electric_scooter", "is_disabled": 0, "lat": 38.907234833333334, "rental_uris": {"android": "https://dc.lft.to/lastmile_qr_scan", "ios": "https://dc.lft.to/lastmile_qr_scan"}, "bike_id": "74373df1a0f92e6d4cf038c7ab3ff91c", "lon": -77.04074283333334}, {"is_reserved": 0, "fusion_lon": 0.0, "fusion_lat": 0.0, "name": "2e5254c1ca984a9b365fe7da241e9386", "type": "electric_scooter", "is_disabled": 0, "lat": 38.91181233333333, "rental_uris": {"android": "https://dc.lft.to/lastmile_qr_scan", "ios": "https://dc.lft.to/lastmile_qr_scan"}, "bike_id": "2e5254c1ca984a9b365fe7da241e9386", "lon": -77.04349783333333}, {"is_reserved": 0, "fusion_lon": 0.0, "fusion_lat": 0.0, "name": "5ba6db7bf43460cc8e7374da50a3f011", "type": "electric_scooter", "is_disabled": 0, "lat": 38.8850685, "rental_uris": {"android": "https://dc.lft.to/lastmile_qr_scan", "ios": "https://dc.lft.to/lastmile_qr_scan"}, "bike_id": "5ba6db7bf43460cc8e7374da50a3f011", "lon": -77.0202245}, {"is_reserved": 0, "fusion_lon": 0.0, "fusion_lat": 0.0, "name": "7dbffb8a5399171c8b0a547836b779ac", "type": "electric_scooter", "is_disabled": 0, "lat": 38.9243175, "rental_uris": {"android": "https://dc.lft.to/lastmile_qr_scan", "ios": "https://dc.lft.to/lastmile_qr_scan"}, "bike_id": "7dbffb8a5399171c8b0a547836b779ac", "lon": -77.00058}, {"is_reserved": 0, "fusion_lon": 0.0, "fusion_lat": 0.0, "name": "01e931a79d03c5d5e34beb1491d1865e", "type": "electric_scooter", "is_disabled": 0, "lat": 38.931414, "rental_uris": {"android": "https://dc.lft.to/lastmile_qr_scan", "ios": "https://dc.lft.to/lastmile_qr_scan"}, "bike_id": "01e931a79d03c5d5e34beb1491d1865e", "lon": -77.04395483333333}, {"is_reserved": 0, "fusion_lon": 0.0, "fusion_lat": 0.0, "name": "8879f63928df3b813b330ebd6bf48d32", "type": "electric_bike", "is_disabled": 0, "lat": 38.903149, "rental_uris": {"android": "https://dc.lft.to/lastmile_qr_scan", "ios": "https://dc.lft.to/lastmile_qr_scan"}, "bike_id": "8879f63928df3b813b330ebd6bf48d32", "lon": -76.91215116666666}, {"is_reserved": 0, "fusion_lon": 0.0, "fusion_lat": 0.0, "name": "5c89445ffd386f41f004a60cda024846", "type": "electric_scooter", "is_disabled": 0, "lat": 38.864656833333335, "rental_uris": {"android": "https://dc.lft.to/lastmile_qr_scan", "ios": "https://dc.lft.to/lastmile_qr_scan"}, "bike_id": "5c89445ffd386f41f004a60cda024846", "lon": -76.9774155}, {"is_reserved": 0, "fusion_lon": 0.0, "fusion_lat": 0.0, "name": "d93df8821a32d887a1f31a41cd99e2b6", "type": "electric_scooter", "is_disabled": 0, "lat": 38.885079, "rental_uris": {"android": "https://dc.lft.to/lastmile_qr_scan", "ios": "https://dc.lft.to/lastmile_qr_scan"}, "bike_id": "d93df8821a32d887a1f31a41cd99e2b6", "lon": -76.9975355}, {"is_reserved": 0, "fusion_lon": 0.0, "fusion_lat": 0.0, "name": "6a2716ada9f3af94709bc7cf8d6cb1aa", "type": "electric_scooter", "is_disabled": 0, "lat": 38.94073916666667, "rental_uris": {"android": "https://dc.lft.to/lastmile_qr_scan", "ios": "https://dc.lft.to/lastmile_qr_scan"}, "bike_id": "6a2716ada9f3af94709bc7cf8d6cb1aa", "lon": -77.0314435}, {"is_reserved": 0, "fusion_lon": 0.0, "fusion_lat": 0.0, "name": "4daa35905ec032c125b27f22804211ec", "type": "electric_bike", "is_disabled": 0, "lat": 38.8393855, "rental_uris": {"android": "https://dc.lft.to/lastmile_qr_scan", "ios": "https://dc.lft.to/lastmile_qr_scan"}, "bike_id": "4daa35905ec032c125b27f22804211ec", "lon": -77.07895366666666}, {"is_reserved": 0, "fusion_lon": 0.0, "fusion_lat": 0.0, "name": "9be94a2894c8ce996cd5d2eda766472d", "type": "electric_scooter", "is_disabled": 0, "lat": 38.884051666666664, "rental_uris": {"android": "https://dc.lft.to/lastmile_qr_scan", "ios": "https://dc.lft.to/lastmile_qr_scan"}, "bike_id": "9be94a2894c8ce996cd5d2eda766472d", "lon": -76.95379533333333}, {"is_reserved": 0, "fusion_lon": 0.0, "fusion_lat": 0.0, "name": "3e880cd84f3bf2e980df481a4b58f352", "type": "electric_scooter", "is_disabled": 0, "lat": 38.91812866666667, "rental_uris": {"android": "https://dc.lft.to/lastmile_qr_scan", "ios": "https://dc.lft.to/lastmile_qr_scan"}, "bike_id": "3e880cd84f3bf2e980df481a4b58f352", "lon": -77.03563233333334}, {"is_reserved": 0, "fusion_lon": 0.0, "fusion_lat": 0.0, "name": "ba336fb12725016adfed135c546ce683", "type": "electric_scooter", "is_disabled": 0, "lat": 38.91686216666667, "rental_uris": {"android": "https://dc.lft.to/lastmile_qr_scan", "ios": "https://dc.lft.to/lastmile_qr_scan"}, "bike_id": "ba336fb12725016adfed135c546ce683", "lon": -77.037694}, {"is_reserved": 0, "fusion_lon": 0.0, "fusion_lat": 0.0, "name": "0f37ec9626e614279247f843d0b785e3", "type": "electric_scooter", "is_disabled": 0, "lat": 38.9118555, "rental_uris": {"android": "https://dc.lft.to/lastmile_qr_scan", "ios": "https://dc.lft.to/lastmile_qr_scan"}, "bike_id": "0f37ec9626e614279247f843d0b785e3", "lon": -77.06082833333333}, {"is_reserved": 0, "fusion_lon": 0.0, "fusion_lat": 0.0, "name": "5c1819a986a2c9c5ee3eea0fd5bc406e", "type": "electric_scooter", "is_disabled": 0, "lat": 38.95727983333333, "rental_uris": {"android": "https://dc.lft.to/lastmile_qr_scan", "ios": "https://dc.lft.to/lastmile_qr_scan"}, "bike_id": "5c1819a986a2c9c5ee3eea0fd5bc406e", "lon": -77.02402683333334}, {"is_reserved": 0, "fusion_lon": 0.0, "fusion_lat": 0.0, "name": "6f77a381c246adaa6c05d93e26446915", "type": "electric_scooter", "is_disabled": 0, "lat": 38.86702666666667, "rental_uris": {"android": "https://dc.lft.to/lastmile_qr_scan", "ios": "https://dc.lft.to/lastmile_qr_scan"}, "bike_id": "6f77a381c246adaa6c05d93e26446915", "lon": -76.98714},