{"data": {"bikes": [{"fusion_lon": 0.0, "bike_id": "e25ceb5ffb017696e80b6b56d90e19a7", "is_disabled": 0, "is_reserved": 0, "lat": 38.92331883333333, "name": "e25ceb5ffb017696e80b6b56d90e19a7", "rental_uris": {"ios": "https://dc.lft.to/lastmile_qr_scan", "android": "https://dc.lft.to/lastmile_qr_scan"}, "type": "electric_scooter", "fusion_lat": 0.0, "lon": -77.008922}, {"fusion_lon": 0.0, "bike_id": "f2ebe9df888fb43b33738323561f07d0", "is_disabled": 0, "is_reserved": 0, "lat": 38.903787333333334, "name": "f2ebe9df888fb43b33738323561f07d0", "rental_uris": {"ios": "https://dc.lft.to/lastmile_qr_scan", "android": "https://dc.lft.to/lastmile_qr_scan"}, "type": "electric_scooter", "fusion_lat": 0.0, "lon": -77.050281}, {"fusion_lon": 0.0, "bike_id": "11f25927ef4ef299e348831137d7e3ff", "is_disabled": 0, "is_reserved": 0, "lat": 38.917056333333335, "name": "11f25927ef4ef299e348831137d7e3ff", "rental_uris": {"ios": "https://dc.lft.to/lastmile_qr_scan", "android": "https://dc.lft.to/lastmile_qr_scan"}, "type": "electric_scooter", "fusion_lat": 0.0, "lon": -77.02716733333334}, {"fusion_lon": 0.0, "bike_id": "653c6351d65c135479b4d86f5cc33fdf", "is_disabled": 0, "is_reserved": 0, "lat": 38.9170015, "name": "653c6351d65c135479b4d86f5cc33fdf", "rental_uris": {"ios": "https://dc.lft.to/lastmile_qr_scan", "android": "https://dc.lft.to/lastmile_qr_scan"}, "type": "electric_scooter", "fusion_lat": 0.0, "lon": -77.0272135}, {"fusion_lon": 0.0, "bike_id": "52bf551964581de3dace4e35e78991b3", "is_disabled": 0, "is_reserved": 0, "lat": 38.914127666666666, "name": "52bf551964581de3dace4e35e78991b3", "rental_uris": {"ios": "https://dc.lft.to/lastmile_qr_scan", "android": "https://dc.lft.to/lastmile_qr_scan"}, "type": "electric_scooter", "fusion_lat": 0.0, "lon": -77.00832983333333}, {"fusion_lon": 0.0, "bike_id": "5cba72be3e22aceb5f2da32fbbdb646d", "is_disabled": 0, "is_reserved": 0, "lat": 38.887276, "name": "5cba72be3e22aceb5f2da32fbbdb646d", "rental_uris": {"ios": "https://dc.lft.to/lastmile_qr_scan", "android": "https://dc.lft.to/lastmile_qr_scan"}, "type": "electric_scooter", "fusion_lat": 0.0, "lon": -76.9837715}, {"fusion_lon": 0.0, "bike_id": "82886cf85ac55960e660b0e1114644a4", "is_disabled": 0, "is_reserved": 0, "lat": 38.9217085, "name": "82886cf85ac55960e660b0e1114644a4", "rental_uris": {"ios": "https://dc.lft.to/lastmile_qr_scan", "android": "https://dc.lft.to/lastmile_qr_scan"}, "type": "electric_scooter", "fusion_lat": 0.0, "lon": -77.02111383333333}, {"fusion_lon": 0.0, "bike_id": "198e95318a39f7a83fbcdb18ee38d993", "is_disabled": 0, "is_reserved": 0, "lat": 38.893382, "name": "198e95318a39f7a83fbcdb18ee38d993", "rental_uris": {"ios": "https://dc.lft.to/lastmile_qr_scan", "android": "https://dc.lft.to/lastmile_qr_scan"}, "type": "electric_scooter", "fusion_lat": 0.0, "lon": -77.03375383333334}, {"fusion_lon": 0.0, "bike_id": "c95c7ce19bee5450270348e6f06b5b2f", "is_disabled": 0, "is_reserved": 0, "lat": 38.9199535, "name": "c95c7ce19bee5450270348e6f06b5b2f", "rental_uris": {"ios": "https://dc.lft.to/lastmile_qr_scan", "android": "https://dc.lft.to/lastmile_qr_scan"}, "type": "electric_scooter", "fusion_lat": 0.0, "lon": -77.03245283333334}, {"fusion_lon": 0.0, "bike_id": "cb2e59e00a3d1ca60e648a142d6aee6b", "is_disabled": 0, "is_reserved": 0, "lat": 38.90806283333333, "name": "cb2e59e00a3d1ca60e648a142d6aee6b", "rental_uris": {"ios": "https://dc.lft.to/lastmile_qr_scan", "android": "https://dc.lft.to/lastmile_qr_scan"}, "type": "electric_scooter", "fusion_lat": 0.0, "lon": -77.00012966666667}, {"fusion_lon": 0.0, "bike_id": "ff2ddc6479352727946467fcf5b60ce4", "is_disabled": 0, "is_reserved": 0, "lat": 38.920803166666666, "name": "ff2ddc6479352727946467fcf5b60ce4", "rental_uris": {"ios": "https://dc.lft.to/lastmile_qr_scan", "android": "https://dc.lft.to/lastmile_qr_scan"}, "type": "electric_scooter", "fusion_lat": 0.0, "lon": -77.03889216666667}, {"fusion_lon": 0.0, "bike_id": "e2254b80c52e61f684165ec9c69af9c3", "is_disabled": 0, "is_reserved": 0, "lat": 38.919505666666666, "name": "e2254b80c52e61f684165ec9c69af9c3", "rental_uris": {"ios": "https://dc.lft.to/lastmile_qr_scan", "android": "https://dc.lft.to/lastmile_qr_scan"}, "type": "electric_scooter", "fusion_lat": 0.0, "lon": -77.01391233333334}, {"fusion_lon": 0.0, "bike_id": "fc120f20637f48efef5f41c95a84f7e7", "is_disabled": 0, "is_reserved": 0, "lat": 38.9096785, "name": "fc120f20637f48efef5f41c95a84f7e7", "rental_uris": {"ios": "https://dc.lft.to/lastmile_qr_scan", "android": "https://dc.lft.to/lastmile_qr_scan"}, "type": "electric_scooter", "fusion_lat": 0.0, "lon": -77.0321005}, {"fusion_lon": 0.0, "bike_id": "457bca20754cc267b9e1dcb402a3390f", "is_disabled": 0, "is_reserved": 0, "lat": 38.9271675, "name": "457bca20754cc267b9e1dcb402a3390f", "rental_uris": {"ios": "https://dc.lft.to/lastmile_qr_scan", "android": "https://dc.lft.to/lastmile_qr_scan"}, "type": "electric_scooter", "fusion_lat": 0.0, "lon": -77.06000066666667}, {"fusion_lon": 0.0, "bike_id": "6cd66eebd3ba66e202c2156f15389467", "is_disabled": 0, "is_reserved": 0, "lat": 38.925381333333334, "name": "6cd66eebd3ba66e202c2156f15389467", "rental_uris": {"ios": "https://dc.lft.to/lastmile_qr_scan", "android": "https://dc.lft.to/lastmile_qr_scan"}, "type": "electric_bike", "fusion_lat": 0.0, "lon": -77.07318566666666}, {"fusion_lon": 0.0, "bike_id": "a1f9beeda47f548a832f4399e15a57da", "is_disabled": 0, "is_reserved": 0, "lat": 38.90395616666667, "name": "a1f9beeda47f548a832f4399e15a57da", "rental_uris": {"ios": "https://dc.lft.to/lastmile_qr_scan", "android": "https://dc.lft.to/lastmile_qr_scan"}, "type": "electric_scooter", "fusion_lat": 0.0, "lon": -77.02061733333333}, {"fusion_lon": 0.0, "bike_id": "d1292719f8a85e644b3ed93b4a9a6f1c", "is_disabled": 0, "is_reserved": 0, "lat": 38.966327666666665, "name": "d1292719f8a85e644b3ed93b4a9a6f1c", "rental_uris": {"ios": "https://dc.lft.to/lastmile_qr_scan", "android": "https://dc.lft.to/lastmile_qr_scan"}, "type": "electric_scooter", "fusion_lat": 0.0, "lon": -77.02752516666666}, {"fusion_lon": 0.0, "bike_id": "b5ebd27026d5149d86f3fbeec443d708", "is_disabled": 0, "is_reserved": 0, "lat": 38.90562083333333, "name": "b5ebd27026d5149d86f3fbeec443d708", "rental_uris": {"ios": "https://dc.lft.to/lastmile_qr_scan", "android": "https://dc.lft.to/lastmile_qr_scan"}, "type": "electric_scooter", "fusion_lat": 0.0, "lon": -77.04335116666667}, {"fusion_lon": 0.0, "bike_id": "73c21f4afa597aa13590319d70281082", "is_disabled": 0, "is_reserved": 0, "lat": 38.89783833333333, "name": "73c21f4afa597aa13590319d70281082", "rental_uris": {"ios": "https://dc.lft.to/lastmile_qr_scan", "android": "https://dc.lft.to/lastmile_qr_scan"}, "type": "electric_scooter", "fusion_lat": 0.0, "lon": -77.04983966666667}, {"fusion_lon": 0.0, "bike_id": "00b8013c4a9af8275d118194df99892d", "is_disabled": 0, "is_reserved": 0, "lat": 38.90280466666667, "name": "00b8013c4a9af8275d118194df99892d", "rental_uris": {"ios": "https://dc.lft.to/lastmile_qr_scan", "android": "https://dc.lft.to/lastmile_qr_scan"}, "type": "electric_scooter", "fusion_lat": 0.0, "lon": -77.02276416666666}, {"fusion_lon": 0.0, "bike_id": "92d0bfed4f89e27754667ddb3edb17c5", "is_disabled": 0, "is_reserved": 0, "lat": 38.90731066666667, "name": "92d0bfed4f89e27754667ddb3edb17c5", "rental_uris": {"ios": "https://dc.lft.to/lastmile_qr_scan", "android": "https://dc.lft.to/lastmile_qr_scan"}, "type": "electric_scooter", "fusion_lat": 0.0, "lon": -77.045623}, {"fusion_lon": 0.0, "bike_id": "4a0ee5debbd17383636c6c89b1523678", "is_disabled": 0, "is_reserved": 0, "lat": 38.96694383333333, "name": "4a0ee5debbd17383636c6c89b1523678", "rental_uris": {"ios": "https://dc.lft.to/lastmile_qr_scan", "android": "https://dc.lft.to/lastmile_qr_scan"}, "type": "electric_bike", "fusion_lat": 0.0, "lon": -77.02279283333333}, {"fusion_lon": 0.0, "bike_id": "8b9af5287a40d0e00fa380341496e109", "is_disabled": 0, "is_reserved": 0, "lat": 38.92153233333333, "name": "8b9af5287a40d0e00fa380341496e109", "rental_uris": {"ios": "https://dc.lft.to/lastmile_qr_scan", "android": "https://dc.lft.to/lastmile_qr_scan"}, "type": "electric_scooter", "fusion_lat": 0.0, "lon": -77.03438916666667}, {"fusion_lon": 0.0, "bike_id": "8df217a1e08a9acdbdb9e5efa0b43bd5", "is_disabled": 0, "is_reserved": 0, "lat": 38.925362666666665, "name": "8df217a1e08a9acdbdb9e5efa0b43bd5", "rental_uris": {"ios": "https://dc.lft.to/lastmile_qr_scan", "android": "https://dc.lft.to/lastmile_qr_scan"}, "type": "electric_scooter", "fusion_lat": 0.0, "lon": -77.0426035}, {"fusion_lon": 0.0, "bike_id": "5923fab24917bba5535105e41e33b2cb", "is_disabled": 0, "is_reserved": 0, "lat": 38.905764833333336, "name": "5923fab24917bba5535105e41e33b2cb", "rental_uris": {"ios": "https://dc.lft.to/lastmile_qr_scan", "android": "https://dc.lft.to/lastmile_qr_scan"}, "type": "electric_scooter", "fusion_lat": 0.0, "lon": -77.0220365}, {"fusion_lon": 0.0, "bike_id": "5f5e19e596976fca00a3dc63d8ad8f6a", "is_disabled": 0, "is_reserved": 0, "lat": 38.830663333333334, "name": "5f5e19e596976fca00a3dc63d8ad8f6a", "rental_uris": {"ios": "https://dc.lft.to/lastmile_qr_scan", "android": "https://dc.lft.to/lastmile_qr_scan"}, "type": "electric_bike", "fusion_lat": 0.0, "lon": -77.04077866666667}, {"fusion_lon": 0.0, "bike_id": "2469af98dbb14063f44087c8d2abfe94", "is_disabled": 0, "is_reserved": 0, "lat": 38.921467166666666, "name": "2469af98dbb14063f44087c8d2abfe94", "rental_uris": {"ios": "https://dc.lft.to/lastmile_qr_scan", "android": "https://dc.lft.to/lastmile_qr_scan"}, "type": "electric_scooter", "fusion_lat": 0.0, "lon": -77.03865516666667}, {"fusion_lon": 0.0, "bike_id": "12b84e893bedc4227ed8bc46e6cc5e87", "is_disabled": 0, "is_reserved": 0, "lat": 38.8986775, "name": "12b84e893bedc4227ed8bc46e6cc5e87", "rental_uris": {"ios": "https://dc.lft.to/lastmile_qr_scan", "android": "https://dc.lft.to/lastmile_qr_scan"}, "type": "electric_scooter", "fusion_lat": 0.0, "lon": -76.946386}, {"fusion_lon": 0.0, "bike_id": "53e723fab10c782c69bd24cb81a8bd1c", "is_disabled": 0, "is_reserved": 0, "lat": 38.92576016666667, "name": "53e723fab10c782c69bd24cb81a8bd1c", "rental_uris": {"ios": "https://dc.lft.to/lastmile_qr_scan", "android": "https://dc.lft.to/lastmile_qr_scan"}, "type": "electric_scooter", "fusion_lat": 0.0, "lon": -77.0288315}, {"fusion_lon": 0.0, "bike_id": "2155c7f5d0538125a693437e80197212", "is_disabled": 0, "is_reserved": 0, "lat": 38.870711, "name": "2155c7f5d0538125a693437e80197212", "rental_uris": {"ios": "https://dc.lft.to/lastmile_qr_scan", "android": "https://dc.lft.to/lastmile_qr_scan"}, "type": "electric_scooter", "fusion_lat": 0.0, "lon": -76.979402}, {"fusion_lon": 0.0, "bike_id": "94ca0fee21c5888e6f5ffd268a955b00", "is_disabled": 0, "is_reserved": 0, "lat": 38.934822833333335, "name": "94ca0fee21c5888e6f5ffd268a955b00", "rental_uris": {"ios": "https://dc.lft.to/lastmile_qr_scan", "android": "https://dc.lft.to/lastmile_qr_scan"}, "type": "electric_scooter", "fusion_lat": 0.0, "lon": -77.05792533333333}, {"fusion_lon": 0.0, "bike_id": "119111254307a9e10b767cfc1f631be2", "is_disabled": 0, "is_reserved": 0, "lat": 38.875119166666664, "name": "119111254307a9e10b767cfc1f631be2", "rental_uris": {"ios": "https://dc.lft.to/lastmile_qr_scan", "android": "https://dc.lft.to/lastmile_qr_scan"}, "type": "electric_scooter", "fusion_lat": 0.0, "lon": -76.97658433333334}, {"fusion_lon": 0.0, "bike_id": "f3d9db64ac3a3dbf59bfb2934a221e4a", "is_disabled": 0, "is_reserved": 0, "lat": 38.905006666666665, "name": "f3d9db64ac3a3dbf59bfb2934a221e4a", "rental_uris": {"ios": "https://dc.lft.to/lastmile_qr_scan", "android": "https://dc.lft.to/lastmile_qr_scan"}, "type": "electric_scooter", "fusion_lat": 0.0, "lon": -77.02950333333334}, {"fusion_lon": 0.0, "bike_id": "f4e9bf8eba98de6f52a745079b835206", "is_disabled": 0, "is_reserved": 0, "lat": 38.91348, "name": "f4e9bf8eba98de6f52a745079b835206", "rental_uris": {"ios": "https://dc.lft.to/lastmile_qr_scan", "android": "https://dc.lft.to/lastmile_qr_scan"}, "type": "electric_scooter", "fusion_lat": 0.0, "lon": -77.03808316666667}, {"fusion_lon": 0.0, "bike_id": "6b275bae3745c58e08ec62928a60a171", "is_disabled": 0, "is_reserved": 0, "lat": 38.93090566666667, "name": "6b275bae3745c58e08ec62928a60a171", "rental_uris": {"ios": "https://dc.lft.to/lastmile_qr_scan", "android": "https://dc.lft.to/lastmile_qr_scan"}, "type": "electric_scooter", "fusion_lat": 0.0, "lon": -77.03442166666666}, {"fusion_lon": 0.0, "bike_id": "f6489bf28f82ee147af4f6b14e49b6f7", "is_disabled": 0, "is_reserved": 0, "lat": 38.88602866666667, "name": "f6489bf28f82ee147af4f6b14e49b6f7", "rental_uris": {"ios": "https://dc.lft.to/lastmile_qr_scan", "android": "https://dc.lft.to/lastmile_qr_scan"}, "type": "electric_scooter", "fusion_lat": 0.0, "lon": -76.925062}, {"fusion_lon": 0.0, "bike_id": "f6a306bed004bee71d8e431281eafdfa", "is_disabled": 0, "is_reserved": 0, "lat": 38.90544216666667, "name": "f6a306bed004bee71d8e431281eafdfa", "rental_uris": {"ios": "https://dc.lft.to/lastmile_qr_scan", "android": "https://dc.lft.to/lastmile_qr_scan"}, "type": "electric_scooter", "fusion_lat": 0.0, "lon": -77.03469866666667}, {"fusion_lon": 0.0, "bike_id": "516abbaf7b2856fcd24c1a6da58c92bc", "is_disabled": 0, "is_reserved": 0, "lat": 38.900661166666666, "name": "516abbaf7b2856fcd24c1a6da58c92bc", "rental_uris": {"ios": "https://dc.lft.to/lastmile_qr_scan", "android": "https://dc.lft.to/lastmile_qr_scan"}, "type": "electric_scooter", "fusion_lat": 0.0, "lon": -76.99346416666667}, {"fusion_lon": 0.0, "bike_id": "a656c5ebfeb930b46051877df30608bc", "is_disabled": 0, "is_reserved": 0, "lat": 38.90377, "name": "a656c5ebfeb930b46051877df30608bc", "rental_uris": {"ios": "https://dc.lft.to/lastmile_qr_scan", "android": "https://dc.lft.to/lastmile_qr_scan"}, "type": "electric_scooter", "fusion_lat": 0.0, "lon": -77.02006216666666}, {"fusion_lon": 0.0, "bike_id": "5c9271cf4d982b7ed872783db7054c0f", "is_disabled": 0, "is_reserved": 0, "lat": 38.935325666666664, "name": "5c9271cf4d982b7ed872783db7054c0f", "rental_uris": {"ios": "https://dc.lft.to/lastmile_qr_scan", "android": "https://dc.lft.to/lastmile_qr_scan"}, "type": "electric_scooter", "fusion_lat": 0.0, "lon": -77.023509}, {"fusion_lon": 0.0, "bike_id": "5daad870f865c17ffe48c8b7b271dc8a", "is_disabled": 0, "is_reserved": 0, "lat": 38.89393783333333, "name": "5daad870f865c17ffe48c8b7b271dc8a", "rental_uris": {"ios": "https://dc.lft.to/lastmile_qr_scan", "android": "https://dc.lft.to/lastmile_qr_scan"}, "type": "electric_scooter", "fusion_lat": 0.0, "lon": -77.05474916666667}, {"fusion_lon": 0.0, "bike_id": "503d06342d25f000e9a635d3297c41da", "is_disabled": 0, "is_reserved": 0, "lat": 38.898267833333335, "name": "503d06342d25f000e9a635d3297c41da", "rental_uris": {"ios": "https://dc.lft.to/lastmile_qr_scan", "android": "https://dc.lft.to/lastmile_qr_scan"}, "type": "electric_scooter", "fusion_lat": 0.0, "lon": -77.04612216666666}, {"fusion_lon": 0.0, "bike_id": "a43d2840bd2e903cf408d54f44e4d136", "is_disabled": 0, "is_reserved": 0, "lat": 38.899064, "name": "a43d2840bd2e903cf408d54f44e4d136", "rental_uris": {"ios": "https://dc.lft.to/lastmile_qr_scan", "android": "https://dc.lft.to/lastmile_qr_scan"}, "type": "electric_scooter", "fusion_lat": 0.0, "lon": -77.02301633333333}, {"fusion_lon": 0.0, "bike_id": "1970c142d72aaec04839ccdcde6f1f85", "is_disabled": 0, "is_reserved": 0, "lat": 38.9105715, "name": "1970c142d72aaec04839ccdcde6f1f85", "rental_uris": {"ios": "https://dc.lft.to/lastmile_qr_scan", "android": "https://dc.lft.to/lastmile_qr_scan"}, "type": "electric_scooter", "fusion_lat": 0.0, "lon": -77.04094266666667}, {"fusion_lon": 0.0, "bike_id": "b22a2bcecd7a10583ea2beba6ec98df9", "is_disabled": 0, "is_reserved": 0, "lat": 38.919906833333336, "name": "b22a2bcecd7a10583ea2beba6ec98df9", "rental_uris": {"ios": "https://dc.lft.to/lastmile_qr_scan", "android": "https://dc.lft.to/lastmile_qr_scan"}, "type": "electric_scooter", "fusion_lat": 0.0, "lon": -77.03277}, {"fusion_lon": 0.0, "bike_id": "7bb783fad78d406bee122eb2354bc6d3", "is_disabled": 0, "is_reserved": 0, "lat": 38.904382, "name": "7bb783fad78d406bee122eb2354bc6d3", "rental_uris": {"ios": "https://dc.lft.to/lastmile_qr_scan", "android": "https://dc.lft.to/lastmile_qr_scan"}, "type": "electric_scooter", "fusion_lat": 0.0, "lon": -77.04347183333333}, {"fusion_lon": 0.0, "bike_id": "94527b24a0e0dbe7e5b546c8ff8c7cf7", "is_disabled": 0, "is_reserved": 0, "lat": 38.930643, "name": "94527b24a0e0dbe7e5b546c8ff8c7cf7", "rental_uris": {"ios": "https://dc.lft.to/lastmile_qr_scan", "android": "https://dc.lft.to/lastmile_qr_scan"}, "type": "electric_scooter", "fusion_lat": 0.0, "lon": -77.03946183333333}, {"fusion_lon": 0.0, "bike_id": "70c024d093669e33e2aad1e1aa5116c9", "is_disabled": 0, "is_reserved": 0, "lat": 38.90696533333333, "name": "70c024d093669e33e2aad1e1aa5116c9", "rental_uris": {"ios": "https://dc.lft.to/lastmile_qr_scan", "android": "https://dc.lft.to/lastmile_qr_scan"}, "type": "electric_scooter", "fusion_lat": 0.0, "lon": -77.02715316666666}, {"fusion_lon": 0.0, "bike_id": "f914a036b93469fb7740d2849d7b9c36", "is_disabled": 0, "is_reserved": 0, "lat": 38.9223265, "name": "f914a036b93469fb7740d2849d7b9c36", "rental_uris": {"ios": "https://dc.lft.to/lastmile_qr_scan", "android": "https://dc.lft.to/lastmile_qr_scan"}, "type": "electric_scooter", "fusion_lat": 0.0, "lon": -77.042488}, {"fusion_lon": 0.0, "bike_id": "46303304adf7f2fd8aaf2182fa0d1ef0", "is_disabled": 0, "is_reserved": 0, "lat": 38.90735883333333, "name": "46303304adf7f2fd8aaf2182fa0d1ef0", "rental_uris": {"ios": "https://dc.lft.to/lastmile_qr_scan", "android": "https://dc.lft.to/lastmile_qr_scan"}, "type": "electric_scooter", "fusion_lat": 0.0, "lon": -77.03444483333334}, {"fusion_lon": 0.0, "bike_id": "385218b8a239b1bdfec432cd98da5d21", "is_disabled": 0, "is_reserved": 0, "lat": 38.952593, "name": "385218b8a239b1bdfec432cd98da5d21", "rental_uris": {"ios": "https://dc.lft.to/lastmile_qr_scan", "android": "https://dc.lft.to/lastmile_qr_scan"}, "type": "electric_scooter", "fusion_lat": 0.0, "lon": -77.02076383333333}, {"fusion_lon": 0.0, "bike_id": "161cec9c489cae6e8cfed4c96e68deeb", "is_disabled": 0, "is_reserved": 0, "lat": 38.91753666666666, "name": "161cec9c489cae6e8cfed4c96e68deeb", "rental_uris": {"ios": "https://dc.lft.to/lastmile_qr_scan", "android": "https://dc.lft.to/lastmile_qr_scan"}, "type": "electric_scooter", "fusion_lat": 0.0, "lon": -77.02119683333333}, {"fusion_lon": 0.0, "bike_id": "65e861a893747144ac3834f0958a89a7", "is_disabled": 0, "is_reserved": 0, "lat": 38.9125435, "name": "65e861a893747144ac3834f0958a89a7", "rental_uris": {"ios": "https://dc.lft.to/lastmile_qr_scan", "android": "https://dc.lft.to/lastmile_qr_scan"}, "type": "electric_scooter", "fusion_lat": 0.0, "lon": -77.028062}, {"fusion_lon": 0.0, "bike_id": "6dc1489c1c1ea9b0b136dc54988378f7", "is_disabled": 0, "is_reserved": 0, "lat": 38.9050755, "name": "6dc1489c1c1ea9b0b136dc54988378f7", "rental_uris": {"ios": "https://dc.lft.to/lastmile_qr_scan", "android": "https://dc.lft.to/lastmile_qr_scan"}, "type": "electric_scooter", "fusion_lat": 0.0, "lon": -77.06520516666667}, {"fusion_lon": 0.0, "bike_id": "624821dc7f28a55af74878300f8e5286", "is_disabled": 0, "is_reserved": 0, "lat": 38.93525233333333, "name": "624821dc7f28a55af74878300f8e5286", "rental_uris": {"ios": "https://dc.lft.to/lastmile_qr_scan", "android": "https://dc.lft.to/lastmile_qr_scan"}, "type": "electric_scooter", "fusion_lat": 0.0, "lon": -77.03369516666666}, {"fusion_lon": 0.0, "bike_id": "0a1a08d2a30374c495b033e1cacdd05f", "is_disabled": 0, "is_reserved": 0, "lat": 38.918839166666665, "name": "0a1a08d2a30374c495b033e1cacdd05f", "rental_uris": {"ios": "https://dc.lft.to/lastmile_qr_scan", "android": "https://dc.lft.to/lastmile_qr_scan"}, "type": "electric_scooter", "fusion_lat": 0.0, "lon": -77.03505616666666}, {"fusion_lon": 0.0, "bike_id": "f0444be6468879f276a378bb7a80d7f3", "is_disabled": 0, "is_reserved": 0, "lat": 38.875473, "name": "f0444be6468879f276a378bb7a80d7f3", "rental_uris": {"ios": "https://dc.lft.to/lastmile_qr_scan", "android": "https://dc.lft.to/lastmile_qr_scan"}, "type": "electric_scooter", "fusion_lat": 0.0, "lon": -77.00541016666666}, {"fusion_lon": 0.0, "bike_id": "11edbee555237b84f54a3ac584594bcc", "is_disabled": 0, "is_reserved": 0, "lat": 38.914708833333336, "name": "11edbee555237b84f54a3ac584594bcc", "rental_uris": {"ios": "https://dc.lft.to/lastmile_qr_scan", "android": "https://dc.lft.to/lastmile_qr_scan"}, "type": "electric_scooter", "fusion_lat": 0.0, "lon": -77.00215583333333}, {"fusion_lon": 0.0, "bike_id": "30a17fdab21777d3880e3cec508b93da", "is_disabled": 0, "is_reserved": 0, "lat": 38.973690500000004, "name": "30a17fdab21777d3880e3cec508b93da", "rental_uris": {"ios": "https://dc.lft.to/lastmile_qr_scan", "android": "https://dc.lft.to/lastmile_qr_scan"}, "type": "electric_scooter", "fusion_lat": 0.0, "lon": -77.01865483333333}, {"fusion_lon": 0.0, "bike_id": "9cc87c01af26a2b618e368cb18af6e15", "is_disabled": 0, "is_reserved": 0, "lat": 38.9331635, "name": "9cc87c01af26a2b618e368cb18af6e15", "rental_uris": {"ios": "https://dc.lft.to/lastmile_qr_scan", "android": "https://dc.lft.to/lastmile_qr_scan"}, "type": "electric_scooter", "fusion_lat": 0.0, "lon": -77.0344115}, {"fusion_lon": 0.0, "bike_id": "1467440728cb2fa829feee84955bc801", "is_disabled": 0, "is_reserved": 0, "lat": 38.916876, "name": "1467440728cb2fa829feee84955bc801", "rental_uris": {"ios": "https://dc.lft.to/lastmile_qr_scan", "android": "https://dc.lft.to/lastmile_qr_scan"}, "type": "electric_scooter", "fusion_lat": 0.0, "lon": -77.03776283333333}, {"fusion_lon": 0.0, "bike_id": "44d1e0f407a1341c341d432bc65b958b", "is_disabled": 0, "is_reserved": 0, "lat": 38.956125166666666, "name": "44d1e0f407a1341c341d432bc65b958b", "rental_uris": {"ios": "https://dc.lft.to/lastmile_qr_scan", "android": "https://dc.lft.to/lastmile_qr_scan"}, "type": "electric_scooter", "fusion_lat": 0.0, "lon": -77.08033783333333}, {"fusion_lon": 0.0, "bike_id": "781934c8f9b44a304dcd804f4a004e75", "is_disabled": 0, "is_reserved": 0, "lat": 38.90738266666666, "name": "781934c8f9b44a304dcd804f4a004e75", "rental_uris": {"ios": "https://dc.lft.to/lastmile_qr_scan", "android": "https://dc.lft.to/lastmile_qr_scan"}, "type": "electric_scooter", "fusion_lat": 0.0, "lon": -77.02183683333334}, {"fusion_lon": 0.0, "bike_id": "499802337789901ab436b34a063085b6", "is_disabled": 0, "is_reserved": 0, "lat": 38.93701133333333, "name": "499802337789901ab436b34a063085b6", "rental_uris": {"ios": "https://dc.lft.to/lastmile_qr_scan", "android": "https://dc.lft.to/lastmile_qr_scan"}, "type": "electric_scooter", "fusion_lat": 0.0, "lon": -77.02405983333334}, {"fusion_lon": 0.0, "bike_id": "b633b639f92a7bf3faa854c9f30451c4", "is_disabled": 0, "is_reserved": 0, "lat": 38.967392833333335, "name": "b633b639f92a7bf3faa854c9f30451c4", "rental_uris": {"ios": "https://dc.lft.to/lastmile_qr_scan", "android": "https://dc.lft.to/lastmile_qr_scan"}, "type": "electric_bike", "fusion_lat": 0.0, "lon": -76.96041233333334}, {"fusion_lon": 0.0, "bike_id": "b3b2b290bb9cd80ffff6f16795861550", "is_disabled": 0, "is_reserved": 0, "lat": 38.88337383333333, "name": "b3b2b290bb9cd80ffff6f16795861550", "rental_uris": {"ios": "https://dc.lft.to/lastmile_qr_scan", "android": "https://dc.lft.to/lastmile_qr_scan"}, "type": "electric_scooter", "fusion_lat": 0.0, "lon": -77.01529716666667}, {"fusion_lon": 0.0, "bike_id": "a46c5d8c0cbb8bd71593c7b4c6b951bb", "is_disabled": 0, "is_reserved": 0, "lat": 38.93687333333333, "name": "a46c5d8c0cbb8bd71593c7b4c6b951bb", "rental_uris": {"ios": "https://dc.lft.to/lastmile_qr_scan", "android": "https://dc.lft.to/lastmile_qr_scan"}, "type": "electric_scooter", "fusion_lat": 0.0, "lon": -77.08432733333333}, {"fusion_lon": 0.0, "bike_id": "b8a443fadcf9f61144a0441719053c60", "is_disabled": 0, "is_reserved": 0, "lat": 38.8844285, "name": "b8a443fadcf9f61144a0441719053c60", "rental_uris": {"ios": "https://dc.lft.to/lastmile_qr_scan", "android": "https://dc.lft.to/lastmile_qr_scan"}, "type": "electric_scooter", "fusion_lat": 0.0, "lon": -77.03039883333334}, {"fusion_lon": 0.0, "bike_id": "86cf140330e4a84e01e20f57dea8063f", "is_disabled": 0, "is_reserved": 0, "lat": 38.901516, "name": "86cf140330e4a84e01e20f57dea8063f", "rental_uris": {"ios": "https://dc.lft.to/lastmile_qr_scan", "android": "https://dc.lft.to/lastmile_qr_scan"}, "type": "electric_scooter", "fusion_lat": 0.0, "lon": -76.98634383333334}, {"fusion_lon": 0.0, "bike_id": "6e1e5cb79e2908702d553aee4c64d7eb", "is_disabled": 0, "is_reserved": 0, "lat": 38.87641833333333, "name": "6e1e5cb79e2908702d553aee4c64d7eb", "rental_uris": {"ios": "https://dc.lft.to/lastmile_qr_scan", "android": "https://dc.lft.to/lastmile_qr_scan"}, "type": "electric_scooter", "fusion_lat": 0.0, "lon": -77.00741}, {"fusion_lon": 0.0, "bike_id": "d95ea79c3eff44530735a38db33a5da5", "is_disabled": 0, "is_reserved": 0, "lat": 38.874723333333336, "name": "d95ea79c3eff44530735a38db33a5da5", "rental_uris": {"ios": "https://dc.lft.to/lastmile_qr_scan", "android": "https://dc.lft.to/lastmile_qr_scan"}, "type": "electric_scooter", "fusion_lat": 0.0, "lon": -77.00516316666666}, {"fusion_lon": 0.0, "bike_id": "45c2e152b2d9c503a900afa57edea5de", "is_disabled": 0, "is_reserved": 0, "lat": 38.915504166666665, "name": "45c2e152b2d9c503a900afa57edea5de", "rental_uris": {"ios": "https://dc.lft.to/lastmile_qr_scan", "android": "https://dc.lft.to/lastmile_qr_scan"}, "type": "electric_scooter", "fusion_lat": 0.0, "lon": -76.98507033333334}, {"fusion_lon": 0.0, "bike_id": "c0b635c852fd13efe8ad5107ae72445a", "is_disabled": 0, "is_reserved": 0, "lat": 38.907622, "name": "c0b635c852fd13efe8ad5107ae72445a", "rental_uris": {"ios": "https://dc.lft.to/lastmile_qr_scan", "android": "https://dc.lft.to/lastmile_qr_scan"}, "type": "electric_scooter", "fusion_lat": 0.0, "lon": -77.045483}, {"fusion_lon": 0.0, "bike_id": "420a6a1df81128add8c133a838726728", "is_disabled": 0, "is_reserved": 0, "lat": 38.90779366666666, "name": "420a6a1df81128add8c133a838726728", "rental_uris": {"ios": "https://dc.lft.to/lastmile_qr_scan", "android": "https://dc.lft.to/lastmile_qr_scan"}, "type": "electric_scooter", "fusion_lat": 0.0, "lon": -77.00407283333334}, {"fusion_lon": 0.0, "bike_id": "1893eb150469e4bd7a43cda9b442bdc2", "is_disabled": 0, "is_reserved": 0, "lat": 38.923309, "name": "1893eb150469e4bd7a43cda9b442bdc2", "rental_uris": {"ios": "https://dc.lft.to/lastmile_qr_scan", "android": "https://dc.lft.to/lastmile_qr_scan"}, "type": "electric_scooter", "fusion_lat": 0.0, "lon": -77.02046966666667}, {"fusion_lon": 0.0, "bike_id": "aae10205c53f0874370c986670cf35fc", "is_disabled": 0, "is_reserved": 0, "lat": 38.90067666666667, "name": "aae10205c53f0874370c986670cf35fc", "rental_uris": {"ios": "https://dc.lft.to/lastmile_qr_scan", "android": "https://dc.lft.to/lastmile_qr_scan"}, "type": "electric_scooter", "fusion_lat": 0.0, "lon": -77.05055333333334}, {"fusion_lon": 0.0, "bike_id": "dea20cda35b5e04a714a602b96ecf112", "is_disabled": 0, "is_reserved": 0, "lat": 38.89338266666667, "name": "dea20cda35b5e04a714a602b96ecf112", "rental_uris": {"ios": "https://dc.lft.to/lastmile_qr_scan", "android": "https://dc.lft.to/lastmile_qr_scan"}, "type": "electric_scooter", "fusion_lat": 0.0, "lon": -76.95062616666667}, {"fusion_lon": 0.0, "bike_id": "1714eef9043519e96da1152344a177b9", "is_disabled": 0, "is_reserved": 0, "lat": 38.93732, "name": "1714eef9043519e96da1152344a177b9", "rental_uris": {"ios": "https://dc.lft.to/lastmile_qr_scan", "android": "https://dc.lft.to/lastmile_qr_scan"}, "type": "electric_scooter", "fusion_lat": 0.0, "lon": -77.07354133333334}, {"fusion_lon": 0.0, "bike_id": "3a2518f270a243497ac408d8187c6bb2", "is_disabled": 0, "is_reserved": 0, "lat": 38.888734, "name": "3a2518f270a243497ac408d8187c6bb2", "rental_uris": {"ios": "https://dc.lft.to/lastmile_qr_scan", "android": "https://dc.lft.to/lastmile_qr_scan"}, "type": "electric_scooter", "fusion_lat": 0.0, "lon": -76.990353}, {"fusion_lon": 0.0, "bike_id": "6e4d075f09499b8c36a091bf3cf22b0e", "is_disabled": 0, "is_reserved": 0, "lat": 38.90646066666667, "name": "6e4d075f09499b8c36a091bf3cf22b0e", "rental_uris": {"ios": "https://dc.lft.to/lastmile_qr_scan", "android": "https://dc.lft.to/lastmile_qr_scan"}, "type": "electric_scooter", "fusion_lat": 0.0, "lon": -77.0533705}, {"fusion_lon": 0.0, "bike_id": "d770e3e76b00bd29bd5444d15dd9e0cc", "is_disabled": 0, "is_reserved": 0, "lat": 38.89863166666667, "name": "d770e3e76b00bd29bd5444d15dd9e0cc", "rental_uris": {"ios": "https://dc.lft.to/lastmile_qr_scan", "android": "https://dc.lft.to/lastmile_qr_scan"}, "type": "electric_scooter", "fusion_lat": 0.0, "lon": -77.0203035}, {"fusion_lon": 0.0, "bike_id": "807b5b1adae9881cc5f098d5daabf8be", "is_disabled": 0, "is_reserved": 0, "lat": 38.914820166666665, "name": "807b5b1adae9881cc5f098d5daabf8be", "rental_uris": {"ios": "https://dc.lft.to/lastmile_qr_scan", "android": "https://dc.lft.to/lastmile_qr_scan"}, "type": "electric_scooter", "fusion_lat": 0.0, "lon": -77.02168233333333}, {"fusion_lon": 0.0, "bike_id": "46c237ff5a85641b02264e395084b3af", "is_disabled": 0, "is_reserved": 0, "lat": 38.9314845, "name": "46c237ff5a85641b02264e395084b3af", "rental_uris": {"ios": "https://dc.lft.to/lastmile_qr_scan", "android": "https://dc.lft.to/lastmile_qr_scan"}, "type": "electric_scooter", "fusion_lat": 0.0, "lon": -77.07839466666667}, {"fusion_lon": 0.0, "bike_id": "22815296ad65aa831f85627903292099", "is_disabled": 0, "is_reserved": 0, "lat": 38.86934816666667, "name": "22815296ad65aa831f85627903292099", "rental_uris": {"ios": "https://dc.lft.to/lastmile_qr_scan", "android": "https://dc.lft.to/lastmile_qr_scan"}, "type": "electric_scooter", "fusion_lat": 0.0, "lon": -76.97742883333333}, {"fusion_lon": 0.0, "bike_id": "6f17cabedd32fa38ecdd1e819caf4779", "is_disabled": 0, "is_reserved": 0, "lat": 38.9078265, "name": "6f17cabedd32fa38ecdd1e819caf4779", "rental_uris": {"ios": "https://dc.lft.to/lastmile_qr_scan", "android": "https://dc.lft.to/lastmile_qr_scan"}, "type": "electric_scooter", "fusion_lat": 0.0, "lon": -76.9985795}, {"fusion_lon": 0.0, "bike_id": "1d08c83745ce2d94da11a92f972c73fc", "is_disabled": 0, "is_reserved": 0, "lat": 38.906139833333334, "name": "1d08c83745ce2d94da11a92f972c73fc", "rental_uris": {"ios": "https://dc.lft.to/lastmile_qr_scan", "android": "https://dc.lft.to/lastmile_qr_scan"}, "type": "electric_scooter", "fusion_lat": 0.0, "lon": -77.0564765}, {"fusion_lon": 0.0, "bike_id": "e751fc448661987a1a5aa7609fa96c5b", "is_disabled": 0, "is_reserved": 0, "lat": 38.914838333333336, "name": "e751fc448661987a1a5aa7609fa96c5b", "rental_uris": {"ios": "https://dc.lft.to/lastmile_qr_scan", "android": "https://dc.lft.to/lastmile_qr_scan"}, "type": "electric_scooter", "fusion_lat": 0.0, "lon": -77.03659116666667}, {"fusion_lon": 0.0, "bike_id": "49af289bd3e9b057506ce69751d6c937", "is_disabled": 0, "is_reserved": 0, "lat": 38.92455483333333, "name": "49af289bd3e9b057506ce69751d6c937", "rental_uris": {"ios": "https://dc.lft.to/lastmile_qr_scan", "android": "https://dc.lft.to/lastmile_qr_scan"}, "type": "electric_scooter", "fusion_lat": 0.0, "lon": -77.03284483333333}, {"fusion_lon": 0.0, "bike_id": "ab2f2cb8ff27340c9165ee30bfb3c143", "is_disabled": 0, "is_reserved": 0, "lat": 38.8779495, "name": "ab2f2cb8ff27340c9165ee30bfb3c143", "rental_uris": {"ios": "https://dc.lft.to/lastmile_qr_scan", "android": "https://dc.lft.to/lastmile_qr_scan"}, "type": "electric_scooter", "fusion_lat": 0.0, "lon": -77.00123566666667}, {"fusion_lon": 0.0, "bike_id": "a9b5a5e7bc5a982bdbc211a5e01a9903", "is_disabled": 0, "is_reserved": 0, "lat": 38.924172666666664, "name": "a9b5a5e7bc5a982bdbc211a5e01a9903", "rental_uris": {"ios": "https://dc.lft.to/lastmile_qr_scan", "android": "https://dc.lft.to/lastmile_qr_scan"}, "type": "electric_scooter", "fusion_lat": 0.0, "lon": -77.02013116666667}, {"fusion_lon": 0.0, "bike_id": "3eec2b622c7f68c0b19c7544e0748fd9", "is_disabled": 0, "is_reserved": 0, "lat": 38.917043166666666, "name": "3eec2b622c7f68c0b19c7544e0748fd9", "rental_uris": {"ios": "https://dc.lft.to/lastmile_qr_scan", "android": "https://dc.lft.to/lastmile_qr_scan"}, "type": "electric_scooter", "fusion_lat": 0.0, "lon": -77.01036016666667}, {"fusion_lon": 0.0, "bike_id": "dc4943f73c8726e4993d725ec7872eeb", "is_disabled": 0, "is_reserved": 0, "lat": 38.897560166666665, "name": "dc4943f73c8726e4993d725ec7872eeb", "rental_uris": {"ios": "https://dc.lft.to/lastmile_qr_scan", "android": "https://dc.lft.to/lastmile_qr_scan"}, "type": "electric_scooter", "fusion_lat": 0.0, "lon": -77.02716533333333}, {"fusion_lon": 0.0, "bike_id": "528724bfecd48ccae35e614c6b67948c", "is_disabled": 0, "is_reserved": 0, "lat": 38.911949, "name": "528724bfecd48ccae35e614c6b67948c", "rental_uris": {"ios": "https://dc.lft.to/lastmile_qr_scan", "android": "https://dc.lft.to/lastmile_qr_scan"}, "type": "electric_scooter", "fusion_lat": 0.0, "lon": -77.0403775}, {"fusion_lon": 0.0, "bike_id": "ac126d9bf7edc91233c9a61f700d6b86", "is_disabled": 0, "is_reserved": 0, "lat": 38.921536, "name": "ac126d9bf7edc91233c9a61f700d6b86", "rental_uris": {"ios": "https://dc.lft.to/lastmile_qr_scan", "android": "https://dc.lft.to/lastmile_qr_scan"}, "type": "electric_scooter", "fusion_lat": 0.0, "lon": -77.04347116666666}, {"fusion_lon": 0.0, "bike_id": "ac35815e68446bd8b52c825faf492fce", "is_disabled": 0, "is_reserved": 0, "lat": 38.9340745, "name": "ac35815e68446bd8b52c825faf492fce", "rental_uris": {"ios": "https://dc.lft.to/lastmile_qr_scan", "android": "https://dc.lft.to/lastmile_qr_scan"}, "type": "electric_scooter", "fusion_lat": 0.0, "lon": -77.04549683333333}, {"fusion_lon": 0.0, "bike_id": "9c155a49694134c15338206d4162095e", "is_disabled": 0, "is_reserved": 0, "lat": 38.9089015, "name": "9c155a49694134c15338206d4162095e", "rental_uris": {"ios": "https://dc.lft.to/lastmile_qr_scan", "android": "https://dc.lft.to/lastmile_qr_scan"}, "type": "electric_bike", "fusion_lat": 0.0, "lon": -76.92485016666667}, {"fusion_lon": 0.0, "bike_id": "fe815af5f669d35824ce9193ed5fb19c", "is_disabled": 0, "is_reserved": 0, "lat": 38.9204905, "name": "fe815af5f669d35824ce9193ed5fb19c", "rental_uris": {"ios": "https://dc.lft.to/lastmile_qr_scan", "android": "https://dc.lft.to/lastmile_qr_scan"}, "type": "electric_scooter", "fusion_lat": 0.0, "lon": -77.04187466666667}, {"fusion_lon": 0.0, "bike_id": "d335ef154e1f27667f87a7abbd18e190", "is_disabled": 0, "is_reserved": 0, "lat": 38.91824883333334, "name": "d335ef154e1f27667f87a7abbd18e190", "rental_uris": {"ios": "https://dc.lft.to/lastmile_qr_scan", "android": "https://dc.lft.to/lastmile_qr_scan"}, "type": "electric_scooter", "fusion_lat": 0.0, "lon": -77.0293065}, {"fusion_lon": 0.0, "bike_id": "973428be05a98da70837e40b26115c9a", "is_disabled": 0, "is_reserved": 0, "lat": 38.913552, "name": "973428be05a98da70837e40b26115c9a", "rental_uris": {"ios": "https://dc.lft.to/lastmile_qr_scan", "android": "https://dc.lft.to/lastmile_qr_scan"}, "type": "electric_scooter", "fusion_lat": 0.0, "lon": -76.971418}, {"fusion_lon": 0.0, "bike_id": "4f856ff9fbb2f7ec409e033b66343bb9", "is_disabled": 0, "is_reserved": 0, "lat": 38.93061616666667, "name": "4f856ff9fbb2f7ec409e033b66343bb9", "rental_uris": {"ios": "https://dc.lft.to/lastmile_qr_scan", "android": "https://dc.lft.to/lastmile_qr_scan"}, "type": "electric_scooter", "fusion_lat": 0.0, "lon": -77.02324266666666}, {"fusion_lon": 0.0, "bike_id": "240336e28655bc3c2b2435359272befe", "is_disabled": 0, "is_reserved": 0, "lat": 38.9392935, "name": "240336e28655bc3c2b2435359272befe", "rental_uris": {"ios": "https://dc.lft.to/lastmile_qr_scan", "android": "https://dc.lft.to/lastmile_qr_scan"}, "type": "electric_scooter", "fusion_lat": 0.0, "lon": -77.06059716666667}, {"fusion_lon": 0.0, "bike_id": "f127f243502b4be5bfa8211b3615418c", "is_disabled": 0, "is_reserved": 0, "lat": 38.9005745, "name": "f127f243502b4be5bfa8211b3615418c", "rental_uris": {"ios": "https://dc.lft.to/lastmile_qr_scan", "android": "https://dc.lft.to/lastmile_qr_scan"}, "type": "electric_scooter", "fusion_lat": 0.0, "lon": -77.0455}, {"fusion_lon": 0.0, "bike_id": "9a0c04f42589abc469d6e7441fd3c9fe", "is_disabled": 0, "is_reserved": 0, "lat": 38.9324005, "name": "9a0c04f42589abc469d6e7441fd3c9fe", "rental_uris": {"ios": "https://dc.lft.to/lastmile_qr_scan", "android": "https://dc.lft.to/lastmile_qr_scan"}, "type": "electric_scooter", "fusion_lat": 0.0, "lon": -77.0327105}, {"fusion_lon": 0.0, "bike_id": "e0c1cf070e3c686b80191347eb2835c2", "is_disabled": 0, "is_reserved": 0, "lat": 38.91267216666667, "name": "e0c1cf070e3c686b80191347eb2835c2", "rental_uris": {"ios": "https://dc.lft.to/lastmile_qr_scan", "android": "https://dc.lft.to/lastmile_qr_scan"}, "type": "electric_scooter", "fusion_lat": 0.0, "lon": -77.0443595}, {"fusion_lon": 0.0, "bike_id": "907820ca8563907cce49c9f1c5ca2d82", "is_disabled": 0, "is_reserved": 0, "lat": 38.9085335, "name": "907820ca8563907cce49c9f1c5ca2d82", "rental_uris": {"ios": "https://dc.lft.to/lastmile_qr_scan", "android": "https://dc.lft.to/lastmile_qr_scan"}, "type": "electric_scooter", "fusion_lat": 0.0, "lon": -77.0637565}, {"fusion_lon": 0.0, "bike_id": "170a8efdaf1bffbe190a54de289c174d", "is_disabled": 0, "is_reserved": 0, "lat": 38.907810833333336, "name": "170a8efdaf1bffbe190a54de289c174d", "rental_uris": {"ios": "https://dc.lft.to/lastmile_qr_scan", "android": "https://dc.lft.to/lastmile_qr_scan"}, "type": "electric_bike", "fusion_lat": 0.0, "lon": -77.08171066666667}, {"fusion_lon": 0.0, "bike_id": "39d79d72c4ef6cd6fe0640b14a6ded9b", "is_disabled": 0, "is_reserved": 0, "lat": 38.91926616666667, "name": "39d79d72c4ef6cd6fe0640b14a6ded9b", "rental_uris": {"ios": "https://dc.lft.to/lastmile_qr_scan", "android": "https://dc.lft.to/lastmile_qr_scan"}, "type": "electric_scooter", "fusion_lat": 0.0, "lon": -77.0317325}, {"fusion_lon": 0.0, "bike_id": "b2d5be1eadef3fe20a566104249d8bef", "is_disabled": 0, "is_reserved": 0, "lat": 38.88516083333333, "name": "b2d5be1eadef3fe20a566104249d8bef", "rental_uris": {"ios": "https://dc.lft.to/lastmile_qr_scan", "android": "https://dc.lft.to/lastmile_qr_scan"}, "type": "electric_scooter", "fusion_lat": 0.0, "lon": -76.92442933333334}, {"fusion_lon": 0.0, "bike_id": "2e7d3ad3fda1c27034eda90d2c1e5113", "is_disabled": 0, "is_reserved": 0, "lat": 38.914050833333334, "name": "2e7d3ad3fda1c27034eda90d2c1e5113", "rental_uris": {"ios": "https://dc.lft.to/lastmile_qr_scan", "android": "https://dc.lft.to/lastmile_qr_scan"}, "type": "electric_scooter", "fusion_lat": 0.0, "lon": -77.01805583333334}, {"fusion_lon": 0.0, "bike_id": "c61e16c146f586fa4dc4c553c3ed2615", "is_disabled": 0, "is_reserved": 0, "lat": 38.906006166666664, "name": "c61e16c146f586fa4dc4c553c3ed2615", "rental_uris": {"ios": "https://dc.lft.to/lastmile_qr_scan", "android": "https://dc.lft.to/lastmile_qr_scan"}, "type": "electric_scooter", "fusion_lat": 0.0, "lon": -77.07008416666666}, {"fusion_lon": 0.0, "bike_id": "b5a897bdab4173d04133ced8fa75f32f", "is_disabled": 0, "is_reserved": 0, "lat": 38.921785666666665, "name": "b5a897bdab4173d04133ced8fa75f32f", "rental_uris": {"ios": "https://dc.lft.to/lastmile_qr_scan", "android": "https://dc.lft.to/lastmile_qr_scan"}, "type": "electric_scooter", "fusion_lat": 0.0, "lon": -77.04002583333333}, {"fusion_lon": 0.0, "bike_id": "730faa80f8f8b606bfcf7b3521b60ccf", "is_disabled": 0, "is_reserved": 0, "lat": 38.885352, "name": "730faa80f8f8b606bfcf7b3521b60ccf", "rental_uris": {"ios": "https://dc.lft.to/lastmile_qr_scan", "android": "https://dc.lft.to/lastmile_qr_scan"}, "type": "electric_scooter", "fusion_lat": 0.0, "lon": -76.98058666666667}, {"fusion_lon": 0.0, "bike_id": "d8942e08a9a9bdaa48d80a7c6852d2b2", "is_disabled": 0, "is_reserved": 0, "lat": 38.9025455, "name": "d8942e08a9a9bdaa48d80a7c6852d2b2", "rental_uris": {"ios": "https://dc.lft.to/lastmile_qr_scan", "android": "https://dc.lft.to/lastmile_qr_scan"}, "type": "electric_scooter", "fusion_lat": 0.0, "lon": -76.9770075}, {"fusion_lon": 0.0, "bike_id": "a2c1b7ccea8cd058797a7c7187e41356", "is_disabled": 0, "is_reserved": 0, "lat": 38.89227183333333, "name": "a2c1b7ccea8cd058797a7c7187e41356", "rental_uris": {"ios": "https://dc.lft.to/lastmile_qr_scan", "android": "https://dc.lft.to/lastmile_qr_scan"}, "type": "electric_scooter", "fusion_lat": 0.0, "lon": -77.02415983333333}, {"fusion_lon": 0.0, "bike_id": "c3520238510dda43cb7aac607b1eb353", "is_disabled": 0, "is_reserved": 0, "lat": 38.935348, "name": "c3520238510dda43cb7aac607b1eb353", "rental_uris": {"ios": "https://dc.lft.to/lastmile_qr_scan", "android": "https://dc.lft.to/lastmile_qr_scan"}, "type": "electric_scooter", "fusion_lat": 0.0, "lon": -77.03481716666667}, {"fusion_lon": 0.0, "bike_id": "1f1a3a5c076052e8633003d85faf7650", "is_disabled": 0, "is_reserved": 0, "lat": 38.9015315, "name": "1f1a3a5c076052e8633003d85faf7650", "rental_uris": {"ios": "https://dc.lft.to/lastmile_qr_scan", "android": "https://dc.lft.to/lastmile_qr_scan"}, "type": "electric_scooter", "fusion_lat": 0.0, "lon": -77.02255083333333}, {"fusion_lon": 0.0, "bike_id": "49b762661d3fe333345132421ca4034b", "is_disabled": 0, "is_reserved": 0, "lat": 38.92419066666667, "name": "49b762661d3fe333345132421ca4034b", "rental_uris": {"ios": "https://dc.lft.to/lastmile_qr_scan", "android": "https://dc.lft.to/lastmile_qr_scan"}, "type": "electric_scooter", "fusion_lat": 0.0, "lon": -77.02010583333333}, {"fusion_lon": 0.0, "bike_id": "53268efca1036e214cf1087dc79a91ea", "is_disabled": 0, "is_reserved": 0, "lat": 38.896226, "name": "53268efca1036e214cf1087dc79a91ea", "rental_uris": {"ios": "https://dc.lft.to/lastmile_qr_scan", "android": "https://dc.lft.to/lastmile_qr_scan"}, "type": "electric_bike", "fusion_lat": 0.0, "lon": -76.9074985}, {"fusion_lon": 0.0, "bike_id": "1439606beaf7480a2f484d1a14593ad4", "is_disabled": 0, "is_reserved": 0, "lat": 38.93517416666667, "name": "1439606beaf7480a2f484d1a14593ad4", "rental_uris": {"ios": "https://dc.lft.to/lastmile_qr_scan", "android": "https://dc.lft.to/lastmile_qr_scan"}, "type": "electric_bike", "fusion_lat": 0.0, "lon": -76.9835055}, {"fusion_lon": 0.0, "bike_id": "ca314a404a9c15b9bfa3fbc451c9d654", "is_disabled": 0, "is_reserved": 0, "lat": 38.9949435, "name": "ca314a404a9c15b9bfa3fbc451c9d654", "rental_uris": {"ios": "https://dc.lft.to/lastmile_qr_scan", "android": "https://dc.lft.to/lastmile_qr_scan"}, "type": "electric_bike", "fusion_lat": 0.0, "lon": -77.0013895}, {"fusion_lon": 0.0, "bike_id": "02bb39fc4f78a0e70d905bb7769dc18d", "is_disabled": 0, "is_reserved": 0, "lat": 38.92208316666667, "name": "02bb39fc4f78a0e70d905bb7769dc18d", "rental_uris": {"ios": "https://dc.lft.to/lastmile_qr_scan", "android": "https://dc.lft.to/lastmile_qr_scan"}, "type": "electric_scooter", "fusion_lat": 0.0, "lon": -77.01852316666667}, {"fusion_lon": 0.0, "bike_id": "9eb5e113cca6d3d0c96732075eea3266", "is_disabled": 0, "is_reserved": 0, "lat": 38.929720833333334, "name": "9eb5e113cca6d3d0c96732075eea3266", "rental_uris": {"ios": "https://dc.lft.to/lastmile_qr_scan", "android": "https://dc.lft.to/lastmile_qr_scan"}, "type": "electric_scooter", "fusion_lat": 0.0, "lon": -77.03151783333334}, {"fusion_lon": 0.0, "bike_id": "3eba456ae45631deab97f97b09c8ffb2", "is_disabled": 0, "is_reserved": 0, "lat": 38.95216516666667, "name": "3eba456ae45631deab97f97b09c8ffb2", "rental_uris": {"ios": "https://dc.lft.to/lastmile_qr_scan", "android": "https://dc.lft.to/lastmile_qr_scan"}, "type": "electric_bike", "fusion_lat": 0.0, "lon": -77.06780633333334}, {"fusion_lon": 0.0, "bike_id": "93e5c4807166718ca0d3dfd38ca7d1b2", "is_disabled": 0, "is_reserved": 0, "lat": 38.92060166666667, "name": "93e5c4807166718ca0d3dfd38ca7d1b2", "rental_uris": {"ios": "https://dc.lft.to/lastmile_qr_scan", "android": "https://dc.lft.to/lastmile_qr_scan"}, "type": "electric_scooter", "fusion_lat": 0.0, "lon": -77.041983}, {"fusion_lon": 0.0, "bike_id": "d20d6436201809995a0d87ee1d3ec32e", "is_disabled": 0, "is_reserved": 0, "lat": 38.9224235, "name": "d20d6436201809995a0d87ee1d3ec32e", "rental_uris": {"ios": "https://dc.lft.to/lastmile_qr_scan", "android": "https://dc.lft.to/lastmile_qr_scan"}, "type": "electric_scooter", "fusion_lat": 0.0, "lon": -77.036657}, {"fusion_lon": 0.0, "bike_id": "70660b6dc634ad1a78a3d938e7a78c5c", "is_disabled": 0, "is_reserved": 0, "lat": 38.917768333333335, "name": "70660b6dc634ad1a78a3d938e7a78c5c", "rental_uris": {"ios": "https://dc.lft.to/lastmile_qr_scan", "android": "https://dc.lft.to/lastmile_qr_scan"}, "type": "electric_scooter", "fusion_lat": 0.0, "lon": -77.02309733333334}, {"fusion_lon": 0.0, "bike_id": "f648c02ac96bc431a6c64828b544645c", "is_disabled": 0, "is_reserved": 0, "lat": 38.8754875, "name": "f648c02ac96bc431a6c64828b544645c", "rental_uris": {"ios": "https://dc.lft.to/lastmile_qr_scan", "android": "https://dc.lft.to/lastmile_qr_scan"}, "type": "electric_scooter", "fusion_lat": 0.0, "lon": -77.00534983333333}, {"fusion_lon": 0.0, "bike_id": "d0cb24627672cbaad2b589a5847664cb", "is_disabled": 0, "is_reserved": 0, "lat": 38.895096333333335, "name": "d0cb24627672cbaad2b589a5847664cb", "rental_uris": {"ios": "https://dc.lft.to/lastmile_qr_scan", "android": "https://dc.lft.to/lastmile_qr_scan"}, "type": "electric_scooter", "fusion_lat": 0.0, "lon": -76.94884616666667}, {"fusion_lon": 0.0, "bike_id": "1bdc73c725920082ef6395846e149b92", "is_disabled": 0, "is_reserved": 0, "lat": 38.9261575, "name": "1bdc73c725920082ef6395846e149b92", "rental_uris": {"ios": "https://dc.lft.to/lastmile_qr_scan", "android": "https://dc.lft.to/lastmile_qr_scan"}, "type": "electric_scooter", "fusion_lat": 0.0, "lon": -76.99056283333333}, {"fusion_lon": 0.0, "bike_id": "5ada26f2ea6711f982d3a1464a44cad6", "is_disabled": 0, "is_reserved": 0, "lat": 38.90364733333333, "name": "5ada26f2ea6711f982d3a1464a44cad6", "rental_uris": {"ios": "https://dc.lft.to/lastmile_qr_scan", "android": "https://dc.lft.to/lastmile_qr_scan"}, "type": "electric_scooter", "fusion_lat": 0.0, "lon": -76.9983175}, {"fusion_lon": 0.0, "bike_id": "68e1bac5b43ec5cf562da2cdacf7aa45", "is_disabled": 0, "is_reserved": 0, "lat": 38.899671, "name": "68e1bac5b43ec5cf562da2cdacf7aa45", "rental_uris": {"ios": "https://dc.lft.to/lastmile_qr_scan", "android": "https://dc.lft.to/lastmile_qr_scan"}, "type": "electric_scooter", "fusion_lat": 0.0, "lon": -77.0471815}, {"fusion_lon": 0.0, "bike_id": "1d776406ca2340bbc12b48417b731bee", "is_disabled": 0, "is_reserved": 0, "lat": 38.90183066666667, "name": "1d776406ca2340bbc12b48417b731bee", "rental_uris": {"ios": "https://dc.lft.to/lastmile_qr_scan", "android": "https://dc.lft.to/lastmile_qr_scan"}, "type": "electric_scooter", "fusion_lat": 0.0, "lon": -76.9806225}, {"fusion_lon": 0.0, "bike_id": "fd5e3c319fdb39f9c0e422074ff304d6", "is_disabled": 0, "is_reserved": 0, "lat": 38.91334483333333, "name": "fd5e3c319fdb39f9c0e422074ff304d6", "rental_uris": {"ios": "https://dc.lft.to/lastmile_qr_scan", "android": "https://dc.lft.to/lastmile_qr_scan"}, "type": "electric_scooter", "fusion_lat": 0.0, "lon": -77.01364133333334}, {"fusion_lon": 0.0, "bike_id": "3fa18e17944d62e889926dc26e74967a", "is_disabled": 0, "is_reserved": 0, "lat": 38.91483216666666, "name": "3fa18e17944d62e889926dc26e74967a", "rental_uris": {"ios": "https://dc.lft.to/lastmile_qr_scan", "android": "https://dc.lft.to/lastmile_qr_scan"}, "type": "electric_scooter", "fusion_lat": 0.0, "lon": -77.02199766666666}, {"fusion_lon": 0.0, "bike_id": "b1394c117f3f86300fc9ef094b8b1e2c", "is_disabled": 0, "is_reserved": 0, "lat": 38.92012066666667, "name": "b1394c117f3f86300fc9ef094b8b1e2c", "rental_uris": {"ios": "https://dc.lft.to/lastmile_qr_scan", "android": "https://dc.lft.to/lastmile_qr_scan"}, "type": "electric_scooter", "fusion_lat": 0.0, "lon": -77.07130333333333}, {"fusion_lon": 0.0, "bike_id": "d39c05018e3b242b9abbc24305632597", "is_disabled": 0, "is_reserved": 0, "lat": 38.911089, "name": "d39c05018e3b242b9abbc24305632597", "rental_uris": {"ios": "https://dc.lft.to/lastmile_qr_scan", "android": "https://dc.lft.to/lastmile_qr_scan"}, "type": "electric_scooter", "fusion_lat": 0.0, "lon": -77.018053}, {"fusion_lon": 0.0, "bike_id": "0f1e39be8d35c267c15027ab738ab8c6", "is_disabled": 0, "is_reserved": 0, "lat": 38.943640333333335, "name": "0f1e39be8d35c267c15027ab738ab8c6", "rental_uris": {"ios": "https://dc.lft.to/lastmile_qr_scan", "android": "https://dc.lft.to/lastmile_qr_scan"}, "type": "electric_scooter", "fusion_lat": 0.0, "lon": -77.02980766666667}, {"fusion_lon": 0.0, "bike_id": "2fd6c6b4181692a1fc9121a4c5b03e91", "is_disabled": 0, "is_reserved": 0, "lat": 38.94470283333333, "name": "2fd6c6b4181692a1fc9121a4c5b03e91", "rental_uris": {"ios": "https://dc.lft.to/lastmile_qr_scan", "android": "https://dc.lft.to/lastmile_qr_scan"}, "type": "electric_scooter", "fusion_lat": 0.0, "lon": -77.02631616666666}, {"fusion_lon": 0.0, "bike_id": "24745de5752eda9f7f06aa060a37c721", "is_disabled": 0, "is_reserved": 0, "lat": 38.89995, "name": "24745de5752eda9f7f06aa060a37c721", "rental_uris": {"ios": "https://dc.lft.to/lastmile_qr_scan", "android": "https://dc.lft.to/lastmile_qr_scan"}, "type": "electric_scooter", "fusion_lat": 0.0, "lon": -77.02654283333334}, {"fusion_lon": 0.0, "bike_id": "acabb9cba9530b8328e84ff9467b17a0", "is_disabled": 0, "is_reserved": 0, "lat": 38.88748, "name": "acabb9cba9530b8328e84ff9467b17a0", "rental_uris": {"ios": "https://dc.lft.to/lastmile_qr_scan", "android": "https://dc.lft.to/lastmile_qr_scan"}, "type": "electric_scooter", "fusion_lat": 0.0, "lon": -77.0286095}, {"fusion_lon": 0.0, "bike_id": "4892a84d6d242035848ed76eaf630012", "is_disabled": 0, "is_reserved": 0, "lat": 38.900415833333334, "name": "4892a84d6d242035848ed76eaf630012", "rental_uris": {"ios": "https://dc.lft.to/lastmile_qr_scan", "android": "https://dc.lft.to/lastmile_qr_scan"}, "type": "electric_scooter", "fusion_lat": 0.0, "lon": -76.98840683333333}, {"fusion_lon": 0.0, "bike_id": "3373e669799709b307a1e82150910683", "is_disabled": 0, "is_reserved": 0, "lat": 38.83157533333333, "name": "3373e669799709b307a1e82150910683", "rental_uris": {"ios": "https://dc.lft.to/lastmile_qr_scan", "android": "https://dc.lft.to/lastmile_qr_scan"}, "type": "electric_bike", "fusion_lat": 0.0, "lon": -76.99572}, {"fusion_lon": 0.0, "bike_id": "6ec8198da269ddb6393fb399c2f96f99", "is_disabled": 0, "is_reserved": 0, "lat": 38.898411, "name": "6ec8198da269ddb6393fb399c2f96f99", "rental_uris": {"ios": "https://dc.lft.to/lastmile_qr_scan", "android": "https://dc.lft.to/lastmile_qr_scan"}, "type": "electric_scooter", "fusion_lat": 0.0, "lon": -77.04813516666667}, {"fusion_lon": 0.0, "bike_id": "a58fd1490119f90719a9a1e77958f2bd", "is_disabled": 0, "is_reserved": 0, "lat": 38.89050183333333, "name": "a58fd1490119f90719a9a1e77958f2bd", "rental_uris": {"ios": "https://dc.lft.to/lastmile_qr_scan", "android": "https://dc.lft.to/lastmile_qr_scan"}, "type": "electric_scooter", "fusion_lat": 0.0, "lon": -76.93750483333334}, {"fusion_lon": 0.0, "bike_id": "1deaf1e8b90759c30c778fdf723df9ff", "is_disabled": 0, "is_reserved": 0, "lat": 38.918296, "name": "1deaf1e8b90759c30c778fdf723df9ff", "rental_uris": {"ios": "https://dc.lft.to/lastmile_qr_scan", "android": "https://dc.lft.to/lastmile_qr_scan"}, "type": "electric_scooter", "fusion_lat": 0.0, "lon": -77.03195133333334}, {"fusion_lon": 0.0, "bike_id": "7873e84a568b17ea0b313d78b1b355f8", "is_disabled": 0, "is_reserved": 0, "lat": 38.89832366666667, "name": "7873e84a568b17ea0b313d78b1b355f8", "rental_uris": {"ios": "https://dc.lft.to/lastmile_qr_scan", "android": "https://dc.lft.to/lastmile_qr_scan"}, "type": "electric_scooter", "fusion_lat": 0.0, "lon": -77.04798066666666}, {"fusion_lon": 0.0, "bike_id": "11fbf94b9303db85a7d4f4065aeee42e", "is_disabled": 0, "is_reserved": 0, "lat": 38.953125166666666, "name": "11fbf94b9303db85a7d4f4065aeee42e", "rental_uris": {"ios": "https://dc.lft.to/lastmile_qr_scan", "android": "https://dc.lft.to/lastmile_qr_scan"}, "type": "electric_bike", "fusion_lat": 0.0, "lon": -77.01915333333334}, {"fusion_lon": 0.0, "bike_id": "9343f8bffdb4fcf4b922d5f77f226b53", "is_disabled": 0, "is_reserved": 0, "lat": 38.909752833333336, "name": "9343f8bffdb4fcf4b922d5f77f226b53", "rental_uris": {"ios": "https://dc.lft.to/lastmile_qr_scan", "android": "https://dc.lft.to/lastmile_qr_scan"}, "type": "electric_scooter", "fusion_lat": 0.0, "lon": -77.00881433333333}, {"fusion_lon": 0.0, "bike_id": "0543a3284720868137b6e32f11f3bf00", "is_disabled": 0, "is_reserved": 0, "lat": 38.88965433333333, "name": "0543a3284720868137b6e32f11f3bf00", "rental_uris": {"ios": "https://dc.lft.to/lastmile_qr_scan", "android": "https://dc.lft.to/lastmile_qr_scan"}, "type": "electric_scooter", "fusion_lat": 0.0, "lon": -76.92741233333334}, {"fusion_lon": 0.0, "bike_id": "0fb6219017dbc1b8015e2d1c0c4a6ecd", "is_disabled": 0, "is_reserved": 0, "lat": 38.89624366666666, "name": "0fb6219017dbc1b8015e2d1c0c4a6ecd", "rental_uris": {"ios": "https://dc.lft.to/lastmile_qr_scan", "android": "https://dc.lft.to/lastmile_qr_scan"}, "type": "electric_scooter", "fusion_lat": 0.0, "lon": -77.00357533333333}, {"fusion_lon": 0.0, "bike_id": "90c6b0d315608fb1513062f330dc39c0", "is_disabled": 0, "is_reserved": 0, "lat": 38.90363933333333, "name": "90c6b0d315608fb1513062f330dc39c0", "rental_uris": {"ios": "https://dc.lft.to/lastmile_qr_scan", "android": "https://dc.lft.to/lastmile_qr_scan"}, "type": "electric_scooter", "fusion_lat": 0.0, "lon": -77.01100883333334}, {"fusion_lon": 0.0, "bike_id": "a667d21c1ef2c45610745caae10d12b9", "is_disabled": 0, "is_reserved": 0, "lat": 38.87636466666667, "name": "a667d21c1ef2c45610745caae10d12b9", "rental_uris": {"ios": "https://dc.lft.to/lastmile_qr_scan", "android": "https://dc.lft.to/lastmile_qr_scan"}, "type": "electric_bike", "fusion_lat": 0.0, "lon": -77.00371266666667}, {"fusion_lon": 0.0, "bike_id": "5d165f71d4c77060f22b40cbff14be69", "is_disabled": 0, "is_reserved": 0, "lat": 38.844583166666666, "name": "5d165f71d4c77060f22b40cbff14be69", "rental_uris": {"ios": "https://dc.lft.to/lastmile_qr_scan", "android": "https://dc.lft.to/lastmile_qr_scan"}, "type": "electric_bike", "fusion_lat": 0.0, "lon": -77.06827383333334}, {"fusion_lon": 0.0, "bike_id": "b3316f0f372f07bd0b7adbc0ac56571f", "is_disabled": 0, "is_reserved": 0, "lat": 38.92140933333334, "name": "b3316f0f372f07bd0b7adbc0ac56571f", "rental_uris": {"ios": "https://dc.lft.to/lastmile_qr_scan", "android": "https://dc.lft.to/lastmile_qr_scan"}, "type": "electric_scooter", "fusion_lat": 0.0, "lon": -77.017861}, {"fusion_lon": 0.0, "bike_id": "d4c1b8144871f275f741e5fbcc9ed73a", "is_disabled": 0, "is_reserved": 0, "lat": 38.911258333333336, "name": "d4c1b8144871f275f741e5fbcc9ed73a", "rental_uris": {"ios": "https://dc.lft.to/lastmile_qr_scan", "android": "https://dc.lft.to/lastmile_qr_scan"}, "type": "electric_scooter", "fusion_lat": 0.0, "lon": -77.021992}, {"fusion_lon": 0.0, "bike_id": "08d43c16d5207b91ef0d5b3e31f35bd4", "is_disabled": 0, "is_reserved": 0, "lat": 38.917054666666665, "name": "08d43c16d5207b91ef0d5b3e31f35bd4", "rental_uris": {"ios": "https://dc.lft.to/lastmile_qr_scan", "android": "https://dc.lft.to/lastmile_qr_scan"}, "type": "electric_scooter", "fusion_lat": 0.0, "lon": -77.03247733333333}, {"fusion_lon": 0.0, "bike_id": "0f1c4029d990d0b65c7852da2d4e9a10", "is_disabled": 0, "is_reserved": 0, "lat": 38.89576233333333, "name": "0f1c4029d990d0b65c7852da2d4e9a10", "rental_uris": {"ios": "https://dc.lft.to/lastmile_qr_scan", "android": "https://dc.lft.to/lastmile_qr_scan"}, "type": "electric_scooter", "fusion_lat": 0.0, "lon": -77.041681}, {"fusion_lon": 0.0, "bike_id": "ca9d67b60623c964603345461507ae74", "is_disabled": 0, "is_reserved": 0, "lat": 38.925618666666665, "name": "ca9d67b60623c964603345461507ae74", "rental_uris": {"ios": "https://dc.lft.to/lastmile_qr_scan", "android": "https://dc.lft.to/lastmile_qr_scan"}, "type": "electric_scooter", "fusion_lat": 0.0, "lon": -77.0377035}, {"fusion_lon": 0.0, "bike_id": "97d77a33eb82ea3998ebb4b303f2a7c1", "is_disabled": 0, "is_reserved": 0, "lat": 38.91429883333333, "name": "97d77a33eb82ea3998ebb4b303f2a7c1", "rental_uris": {"ios": "https://dc.lft.to/lastmile_qr_scan", "android": "https://dc.lft.to/lastmile_qr_scan"}, "type": "electric_scooter", "fusion_lat": 0.0, "lon": -77.01806783333333}, {"fusion_lon": 0.0, "bike_id": "e3e271afb79cd13ee210b639da4b5733", "is_disabled": 0, "is_reserved": 0, "lat": 38.914164666666665, "name": "e3e271afb79cd13ee210b639da4b5733", "rental_uris": {"ios": "https://dc.lft.to/lastmile_qr_scan", "android": "https://dc.lft.to/lastmile_qr_scan"}, "type": "electric_scooter", "fusion_lat": 0.0, "lon": -77.0221545}, {"fusion_lon": 0.0, "bike_id": "64f2f01ce54a73e2dffbf2b706c1038e", "is_disabled": 0, "is_reserved": 0, "lat": 38.89971, "name": "64f2f01ce54a73e2dffbf2b706c1038e", "rental_uris": {"ios": "https://dc.lft.to/lastmile_qr_scan", "android": "https://dc.lft.to/lastmile_qr_scan"}, "type": "electric_scooter", "fusion_lat": 0.0, "lon": -77.04718316666667}, {"fusion_lon": 0.0, "bike_id": "8a30bd17b50026b9ef1a5b5dcb9051a2", "is_disabled": 0, "is_reserved": 0, "lat": 38.9338045, "name": "8a30bd17b50026b9ef1a5b5dcb9051a2", "rental_uris": {"ios": "https://dc.lft.to/lastmile_qr_scan", "android": "https://dc.lft.to/lastmile_qr_scan"}, "type": "electric_scooter", "fusion_lat": 0.0, "lon": -77.02746466666666}, {"fusion_lon": 0.0, "bike_id": "9429aa48d054b358a6c645f6f843be50", "is_disabled": 0, "is_reserved": 0, "lat": 38.8304335, "name": "9429aa48d054b358a6c645f6f843be50", "rental_uris": {"ios": "https://dc.lft.to/lastmile_qr_scan", "android": "https://dc.lft.to/lastmile_qr_scan"}, "type": "electric_bike", "fusion_lat": 0.0, "lon": -77.00827116666666}, {"fusion_lon": 0.0, "bike_id": "541c1f455ca3a8d5754c2a8bbb5c4435", "is_disabled": 0, "is_reserved": 0, "lat": 38.927745333333334, "name": "541c1f455ca3a8d5754c2a8bbb5c4435", "rental_uris": {"ios": "https://dc.lft.to/lastmile_qr_scan", "android": "https://dc.lft.to/lastmile_qr_scan"}, "type": "electric_scooter", "fusion_lat": 0.0, "lon": -77.02051566666667}, {"fusion_lon": 0.0, "bike_id": "9d8c0902c0a282f79d414d1fc7e75cb9", "is_disabled": 0, "is_reserved": 0, "lat": 38.93281316666667, "name": "9d8c0902c0a282f79d414d1fc7e75cb9", "rental_uris": {"ios": "https://dc.lft.to/lastmile_qr_scan", "android": "https://dc.lft.to/lastmile_qr_scan"}, "type": "electric_scooter", "fusion_lat": 0.0, "lon": -77.03483216666666}, {"fusion_lon": 0.0, "bike_id": "aad6303b79aff15730b9b534934f2311", "is_disabled": 0, "is_reserved": 0, "lat": 38.908854166666664, "name": "aad6303b79aff15730b9b534934f2311", "rental_uris": {"ios": "https://dc.lft.to/lastmile_qr_scan", "android": "https://dc.lft.to/lastmile_qr_scan"}, "type": "electric_scooter", "fusion_lat": 0.0, "lon": -77.04496066666667}, {"fusion_lon": 0.0, "bike_id": "6d7f88a2b13b20fe43c41b0b8a412363", "is_disabled": 0, "is_reserved": 0, "lat": 38.976009, "name": "6d7f88a2b13b20fe43c41b0b8a412363", "rental_uris": {"ios": "https://dc.lft.to/lastmile_qr_scan", "android": "https://dc.lft.to/lastmile_qr_scan"}, "type": "electric_scooter", "fusion_lat": 0.0, "lon": -77.02660016666667}, {"fusion_lon": 0.0, "bike_id": "b3a688bd0cd0df54765fcdd3621adb8e", "is_disabled": 0, "is_reserved": 0, "lat": 38.9290025, "name": "b3a688bd0cd0df54765fcdd3621adb8e", "rental_uris": {"ios": "https://dc.lft.to/lastmile_qr_scan", "android": "https://dc.lft.to/lastmile_qr_scan"}, "type": "electric_scooter", "fusion_lat": 0.0, "lon": -77.0225535}, {"fusion_lon": 0.0, "bike_id": "647af51534a4079a68eb78a9e6fc83ff", "is_disabled": 0, "is_reserved": 0, "lat": 38.91559016666667, "name": "647af51534a4079a68eb78a9e6fc83ff", "rental_uris": {"ios": "https://dc.lft.to/lastmile_qr_scan", "android": "https://dc.lft.to/lastmile_qr_scan"}, "type": "electric_scooter", "fusion_lat": 0.0, "lon": -77.0121015}, {"fusion_lon": 0.0, "bike_id": "819e038506a597a27d9949831bf2f629", "is_disabled": 0, "is_reserved": 0, "lat": 38.918093, "name": "819e038506a597a27d9949831bf2f629", "rental_uris": {"ios": "https://dc.lft.to/lastmile_qr_scan", "android": "https://dc.lft.to/lastmile_qr_scan"}, "type": "electric_scooter", "fusion_lat": 0.0, "lon": -77.02454633333333}, {"fusion_lon": 0.0, "bike_id": "cdb636267c301837efffafb45a5523d4", "is_disabled": 0, "is_reserved": 0, "lat": 38.899969166666665, "name": "cdb636267c301837efffafb45a5523d4", "rental_uris": {"ios": "https://dc.lft.to/lastmile_qr_scan", "android": "https://dc.lft.to/lastmile_qr_scan"}, "type": "electric_scooter", "fusion_lat": 0.0, "lon": -77.019205}, {"fusion_lon": 0.0, "bike_id": "8e906ec01eae32e1dce4db35908117d9", "is_disabled": 0, "is_reserved": 0, "lat": 38.91590216666667, "name": "8e906ec01eae32e1dce4db35908117d9", "rental_uris": {"ios": "https://dc.lft.to/lastmile_qr_scan", "android": "https://dc.lft.to/lastmile_qr_scan"}, "type": "electric_scooter", "fusion_lat": 0.0, "lon": -77.03191766666667}, {"fusion_lon": 0.0, "bike_id": "00b91aea16ab7d6ec3094c219660015f", "is_disabled": 0, "is_reserved": 0, "lat": 38.891372, "name": "00b91aea16ab7d6ec3094c219660015f", "rental_uris": {"ios": "https://dc.lft.to/lastmile_qr_scan", "android": "https://dc.lft.to/lastmile_qr_scan"}, "type": "electric_scooter", "fusion_lat": 0.0, "lon": -76.99943883333333}, {"fusion_lon": 0.0, "bike_id": "5aab6982598706743bc71ee12ab11dc5", "is_disabled": 0, "is_reserved": 0, "lat": 38.918798333333335, "name": "5aab6982598706743bc71ee12ab11dc5", "rental_uris": {"ios": "https://dc.lft.to/lastmile_qr_scan", "android": "https://dc.lft.to/lastmile_qr_scan"}, "type": "electric_scooter", "fusion_lat": 0.0, "lon": -77.044759}, {"fusion_lon": 0.0, "bike_id": "7140f51916b0078ee7147b4c1b3be504", "is_disabled": 0, "is_reserved": 0, "lat": 38.91105116666667, "name": "7140f51916b0078ee7147b4c1b3be504", "rental_uris": {"ios": "https://dc.lft.to/lastmile_qr_scan", "android": "https://dc.lft.to/lastmile_qr_scan"}, "type": "electric_scooter", "fusion_lat": 0.0, "lon": -77.0447705}, {"fusion_lon": 0.0, "bike_id": "641f706385a134fe7bd770e6e97a83d1", "is_disabled": 0, "is_reserved": 0, "lat": 38.902672333333335, "name": "641f706385a134fe7bd770e6e97a83d1", "rental_uris": {"ios": "https://dc.lft.to/lastmile_qr_scan", "android": "https://dc.lft.to/lastmile_qr_scan"}, "type": "electric_scooter", "fusion_lat": 0.0, "lon": -77.03967216666666}, {"fusion_lon": 0.0, "bike_id": "e4a83e842cd8ca933ac74be43b2794ea", "is_disabled": 0, "is_reserved": 0, "lat": 38.923202, "name": "e4a83e842cd8ca933ac74be43b2794ea", "rental_uris": {"ios": "https://dc.lft.to/lastmile_qr_scan", "android": "https://dc.lft.to/lastmile_qr_scan"}, "type": "electric_scooter", "fusion_lat": 0.0, "lon": -77.0391095}, {"fusion_lon": 0.0, "bike_id": "2cb396a418196d7153f511baf2e1cd18", "is_disabled": 0, "is_reserved": 0, "lat": 38.91572883333333, "name": "2cb396a418196d7153f511baf2e1cd18", "rental_uris": {"ios": "https://dc.lft.to/lastmile_qr_scan", "android": "https://dc.lft.to/lastmile_qr_scan"}, "type": "electric_scooter", "fusion_lat": 0.0, "lon": -77.04622516666667}, {"fusion_lon": 0.0, "bike_id": "e014c18520d6fa8f8ab77376a2b06c69", "is_disabled": 0, "is_reserved": 0, "lat": 38.917107, "name": "e014c18520d6fa8f8ab77376a2b06c69", "rental_uris": {"ios": "https://dc.lft.to/lastmile_qr_scan", "android": "https://dc.lft.to/lastmile_qr_scan"}, "type": "electric_scooter", "fusion_lat": 0.0, "lon": -77.03868266666667}, {"fusion_lon": 0.0, "bike_id": "01d0e8d08887a49b98904349dbb55877", "is_disabled": 0, "is_reserved": 0, "lat": 38.9142005, "name": "01d0e8d08887a49b98904349dbb55877", "rental_uris": {"ios": "https://dc.lft.to/lastmile_qr_scan", "android": "https://dc.lft.to/lastmile_qr_scan"}, "type": "electric_scooter", "fusion_lat": 0.0, "lon": -77.029118}, {"fusion_lon": 0.0, "bike_id": "8cd43fd230e0525470abdbca9eb65c44", "is_disabled": 0, "is_reserved": 0, "lat": 38.930829, "name": "8cd43fd230e0525470abdbca9eb65c44", "rental_uris": {"ios": "https://dc.lft.to/lastmile_qr_scan", "android": "https://dc.lft.to/lastmile_qr_scan"}, "type": "electric_scooter", "fusion_lat": 0.0, "lon": -77.00202933333334}, {"fusion_lon": 0.0, "bike_id": "f77834cce177df08008b3300c6a2f83d", "is_disabled": 0, "is_reserved": 0, "lat": 38.88473966666667, "name": "f77834cce177df08008b3300c6a2f83d", "rental_uris": {"ios": "https://dc.lft.to/lastmile_qr_scan", "android": "https://dc.lft.to/lastmile_qr_scan"}, "type": "electric_scooter", "fusion_lat": 0.0, "lon": -77.02490466666667}, {"fusion_lon": 0.0, "bike_id": "b13bc60cde41e0dcfef0cfcdb7f3891b", "is_disabled": 0, "is_reserved": 0, "lat": 38.920502166666665, "name": "b13bc60cde41e0dcfef0cfcdb7f3891b", "rental_uris": {"ios": "https://dc.lft.to/lastmile_qr_scan", "android": "https://dc.lft.to/lastmile_qr_scan"}, "type": "electric_scooter", "fusion_lat": 0.0, "lon": -77.017294}, {"fusion_lon": 0.0, "bike_id": "ac5406352f431a59d5e653cbefcd06de", "is_disabled": 0, "is_reserved": 0, "lat": 38.91861816666667, "name": "ac5406352f431a59d5e653cbefcd06de", "rental_uris": {"ios": "https://dc.lft.to/lastmile_qr_scan", "android": "https://dc.lft.to/lastmile_qr_scan"}, "type": "electric_scooter", "fusion_lat": 0.0, "lon": -77.03496766666666}, {"fusion_lon": 0.0, "bike_id": "d36ceb8604f6e290160cc57de0e09cda", "is_disabled": 0, "is_reserved": 0, "lat": 38.91258116666667, "name": "d36ceb8604f6e290160cc57de0e09cda", "rental_uris": {"ios": "https://dc.lft.to/lastmile_qr_scan", "android": "https://dc.lft.to/lastmile_qr_scan"}, "type": "electric_scooter", "fusion_lat": 0.0, "lon": -77.028681}, {"fusion_lon": 0.0, "bike_id": "34921c0f506e0efcbe17b369efa78a77", "is_disabled": 0, "is_reserved": 0, "lat": 38.953559, "name": "34921c0f506e0efcbe17b369efa78a77", "rental_uris": {"ios": "https://dc.lft.to/lastmile_qr_scan", "android": "https://dc.lft.to/lastmile_qr_scan"}, "type": "electric_scooter", "fusion_lat": 0.0, "lon": -77.02572566666667}, {"fusion_lon": 0.0, "bike_id": "93b4c90a7163225ed3aea49cadf976a6", "is_disabled": 0, "is_reserved": 0, "lat": 38.920563666666666, "name": "93b4c90a7163225ed3aea49cadf976a6", "rental_uris": {"ios": "https://dc.lft.to/lastmile_qr_scan", "android": "https://dc.lft.to/lastmile_qr_scan"}, "type": "electric_scooter", "fusion_lat": 0.0, "lon": -76.99883183333333}, {"fusion_lon": 0.0, "bike_id": "0730239d2ba75aa1572522cc6bc4dde4", "is_disabled": 0, "is_reserved": 0, "lat": 38.89365383333333, "name": "0730239d2ba75aa1572522cc6bc4dde4", "rental_uris": {"ios": "https://dc.lft.to/lastmile_qr_scan", "android": "https://dc.lft.to/lastmile_qr_scan"}, "type": "electric_scooter", "fusion_lat": 0.0, "lon": -77.01559533333334}, {"fusion_lon": 0.0, "bike_id": "91b0f8fc017d02bf371393c73b197569", "is_disabled": 0, "is_reserved": 0, "lat": 38.8467755, "name": "91b0f8fc017d02bf371393c73b197569", "rental_uris": {"ios": "https://dc.lft.to/lastmile_qr_scan", "android": "https://dc.lft.to/lastmile_qr_scan"}, "type": "electric_bike", "fusion_lat": 0.0, "lon": -77.13938233333333}, {"fusion_lon": 0.0, "bike_id": "aa63bf797afe9a55d28ea4a9841f4188", "is_disabled": 0, "is_reserved": 0, "lat": 38.90036833333333, "name": "aa63bf797afe9a55d28ea4a9841f4188", "rental_uris": {"ios": "https://dc.lft.to/lastmile_qr_scan", "android": "https://dc.lft.to/lastmile_qr_scan"}, "type": "electric_scooter", "fusion_lat": 0.0, "lon": -77.00239733333333}, {"fusion_lon": 0.0, "bike_id": "c6b66c188adc3034aff19bfcdead8bb8", "is_disabled": 0, "is_reserved": 0, "lat": 38.919887, "name": "c6b66c188adc3034aff19bfcdead8bb8", "rental_uris": {"ios": "https://dc.lft.to/lastmile_qr_scan", "android": "https://dc.lft.to/lastmile_qr_scan"}, "type": "electric_scooter", "fusion_lat": 0.0, "lon": -77.04095716666667}, {"fusion_lon": 0.0, "bike_id": "15a236def31914be70ede18c472286a7", "is_disabled": 0, "is_reserved": 0, "lat": 38.913123666666664, "name": "15a236def31914be70ede18c472286a7", "rental_uris": {"ios": "https://dc.lft.to/lastmile_qr_scan", "android": "https://dc.lft.to/lastmile_qr_scan"}, "type": "electric_scooter", "fusion_lat": 0.0, "lon": -77.0364595}, {"fusion_lon": 0.0, "bike_id": "a49df66522027cb0096482b68798770c", "is_disabled": 0, "is_reserved": 0, "lat": 38.957364, "name": "a49df66522027cb0096482b68798770c", "rental_uris": {"ios": "https://dc.lft.to/lastmile_qr_scan", "android": "https://dc.lft.to/lastmile_qr_scan"}, "type": "electric_scooter", "fusion_lat": 0.0, "lon": -77.02421283333334}, {"fusion_lon": 0.0, "bike_id": "5c99e818e96b9f0a7b414fb000722306", "is_disabled": 0, "is_reserved": 0, "lat": 38.9242415, "name": "5c99e818e96b9f0a7b414fb000722306", "rental_uris": {"ios": "https://dc.lft.to/lastmile_qr_scan", "android": "https://dc.lft.to/lastmile_qr_scan"}, "type": "electric_scooter", "fusion_lat": 0.0, "lon": -77.02132083333333}, {"fusion_lon": 0.0, "bike_id": "530947c5776dba51d28b0d8d55d87be6", "is_disabled": 0, "is_reserved": 0, "lat": 38.891056666666664, "name": "530947c5776dba51d28b0d8d55d87be6", "rental_uris": {"ios": "https://dc.lft.to/lastmile_qr_scan", "android": "https://dc.lft.to/lastmile_qr_scan"}, "type": "electric_scooter", "fusion_lat": 0.0, "lon": -76.98828116666667}, {"fusion_lon": 0.0, "bike_id": "59eeabb2f76c0eca79927c5199b8d6d3", "is_disabled": 0, "is_reserved": 0, "lat": 38.876353, "name": "59eeabb2f76c0eca79927c5199b8d6d3", "rental_uris": {"ios": "https://dc.lft.to/lastmile_qr_scan", "android": "https://dc.lft.to/lastmile_qr_scan"}, "type": "electric_scooter", "fusion_lat": 0.0, "lon": -77.00955216666667}, {"fusion_lon": 0.0, "bike_id": "9f299dad170f9e878eecaa16770647c3", "is_disabled": 0, "is_reserved": 0, "lat": 38.89729533333333, "name": "9f299dad170f9e878eecaa16770647c3", "rental_uris": {"ios": "https://dc.lft.to/lastmile_qr_scan", "android": "https://dc.lft.to/lastmile_qr_scan"}, "type": "electric_scooter", "fusion_lat": 0.0, "lon": -77.05523633333334}, {"fusion_lon": 0.0, "bike_id": "236b3d0234b2551caba2257556c2907f", "is_disabled": 0, "is_reserved": 0, "lat": 38.88641633333334, "name": "236b3d0234b2551caba2257556c2907f", "rental_uris": {"ios": "https://dc.lft.to/lastmile_qr_scan", "android": "https://dc.lft.to/lastmile_qr_scan"}, "type": "electric_scooter", "fusion_lat": 0.0, "lon": -76.98211933333333}, {"fusion_lon": 0.0, "bike_id": "6a3846939df4a0722110372a4f4eb8a4", "is_disabled": 0, "is_reserved": 0, "lat": 38.89371833333333, "name": "6a3846939df4a0722110372a4f4eb8a4", "rental_uris": {"ios": "https://dc.lft.to/lastmile_qr_scan", "android": "https://dc.lft.to/lastmile_qr_scan"}, "type": "electric_scooter", "fusion_lat": 0.0, "lon": -77.03959633333334}, {"fusion_lon": 0.0, "bike_id": "00bc50e7fe85df8a1246637f36c589b6", "is_disabled": 0, "is_reserved": 0, "lat": 38.91416383333333, "name": "00bc50e7fe85df8a1246637f36c589b6", "rental_uris": {"ios": "https://dc.lft.to/lastmile_qr_scan", "android": "https://dc.lft.to/lastmile_qr_scan"}, "type": "electric_scooter", "fusion_lat": 0.0, "lon": -77.01302933333334}, {"fusion_lon": 0.0, "bike_id": "750f559e6234690bba2c617c4700f99f", "is_disabled": 0, "is_reserved": 0, "lat": 38.910064166666665, "name": "750f559e6234690bba2c617c4700f99f", "rental_uris": {"ios": "https://dc.lft.to/lastmile_qr_scan", "android": "https://dc.lft.to/lastmile_qr_scan"}, "type": "electric_scooter", "fusion_lat": 0.0, "lon": -76.99393566666667}, {"fusion_lon": 0.0, "bike_id": "a5378a6d632df6bd7a4b04939ad9f2b4", "is_disabled": 0, "is_reserved": 0, "lat": 38.905152333333334, "name": "a5378a6d632df6bd7a4b04939ad9f2b4", "rental_uris": {"ios": "https://dc.lft.to/lastmile_qr_scan", "android": "https://dc.lft.to/lastmile_qr_scan"}, "type": "electric_scooter", "fusion_lat": 0.0, "lon": -77.0483405}, {"fusion_lon": 0.0, "bike_id": "d5416827c10d294f721aa2bac7e9934e", "is_disabled": 0, "is_reserved": 0, "lat": 38.898522, "name": "d5416827c10d294f721aa2bac7e9934e", "rental_uris": {"ios": "https://dc.lft.to/lastmile_qr_scan", "android": "https://dc.lft.to/lastmile_qr_scan"}, "type": "electric_scooter", "fusion_lat": 0.0, "lon": -76.99036233333334}, {"fusion_lon": 0.0, "bike_id": "b111b9007f3809498646023957ee6f08", "is_disabled": 0, "is_reserved": 0, "lat": 38.928734666666664, "name": "b111b9007f3809498646023957ee6f08", "rental_uris": {"ios": "https://dc.lft.to/lastmile_qr_scan", "android": "https://dc.lft.to/lastmile_qr_scan"}, "type": "electric_scooter", "fusion_lat": 0.0, "lon": -77.01391316666667}, {"fusion_lon": 0.0, "bike_id": "a35de617611b29c9d50fc63d0c3adb29", "is_disabled": 0, "is_reserved": 0, "lat": 38.89971966666667, "name": "a35de617611b29c9d50fc63d0c3adb29", "rental_uris": {"ios": "https://dc.lft.to/lastmile_qr_scan", "android": "https://dc.lft.to/lastmile_qr_scan"}, "type": "electric_scooter", "fusion_lat": 0.0, "lon": -77.03079083333333}, {"fusion_lon": 0.0, "bike_id": "7ce328e0d8c85239dcab35aac7933fe3", "is_disabled": 0, "is_reserved": 0, "lat": 38.92259383333333, "name": "7ce328e0d8c85239dcab35aac7933fe3", "rental_uris": {"ios": "https://dc.lft.to/lastmile_qr_scan", "android": "https://dc.lft.to/lastmile_qr_scan"}, "type": "electric_scooter", "fusion_lat": 0.0, "lon": -77.019508}, {"fusion_lon": 0.0, "bike_id": "a3c5d748da7a8053ce5a9901c1d9c0e9", "is_disabled": 0, "is_reserved": 0, "lat": 38.904101, "name": "a3c5d748da7a8053ce5a9901c1d9c0e9", "rental_uris": {"ios": "https://dc.lft.to/lastmile_qr_scan", "android": "https://dc.lft.to/lastmile_qr_scan"}, "type": "electric_bike", "fusion_lat": 0.0, "lon": -77.04358916666666}, {"fusion_lon": 0.0, "bike_id": "d7dae1b0fab877daf6c97c5b9ceb3fd8", "is_disabled": 0, "is_reserved": 0, "lat": 38.92364883333333, "name": "d7dae1b0fab877daf6c97c5b9ceb3fd8", "rental_uris": {"ios": "https://dc.lft.to/lastmile_qr_scan", "android": "https://dc.lft.to/lastmile_qr_scan"}, "type": "electric_scooter", "fusion_lat": 0.0, "lon": -77.0354485}, {"fusion_lon": 0.0, "bike_id": "7f68beaf5e6a5f29012c415ed93f4c5c", "is_disabled": 0, "is_reserved": 0, "lat": 38.88357966666667, "name": "7f68beaf5e6a5f29012c415ed93f4c5c", "rental_uris": {"ios": "https://dc.lft.to/lastmile_qr_scan", "android": "https://dc.lft.to/lastmile_qr_scan"}, "type": "electric_scooter", "fusion_lat": 0.0, "lon": -76.95769533333333}, {"fusion_lon": 0.0, "bike_id": "19c04aaf66f1e9af04c5203e9c894c4b", "is_disabled": 0, "is_reserved": 0, "lat": 38.957409, "name": "19c04aaf66f1e9af04c5203e9c894c4b", "rental_uris": {"ios": "https://dc.lft.to/lastmile_qr_scan", "android": "https://dc.lft.to/lastmile_qr_scan"}, "type": "electric_scooter", "fusion_lat": 0.0, "lon": -77.0022165}, {"fusion_lon": 0.0, "bike_id": "3bf3ce5711c36e54bc4e23fd1106a015", "is_disabled": 0, "is_reserved": 0, "lat": 38.90006533333333, "name": "3bf3ce5711c36e54bc4e23fd1106a015", "rental_uris": {"ios": "https://dc.lft.to/lastmile_qr_scan", "android": "https://dc.lft.to/lastmile_qr_scan"}, "type": "electric_scooter", "fusion_lat": 0.0, "lon": -77.05559783333334}, {"fusion_lon": 0.0, "bike_id": "acf662a78d09d618e9a5ffb75e590c49", "is_disabled": 0, "is_reserved": 0, "lat": 38.9069885, "name": "acf662a78d09d618e9a5ffb75e590c49", "rental_uris": {"ios": "https://dc.lft.to/lastmile_qr_scan", "android": "https://dc.lft.to/lastmile_qr_scan"}, "type": "electric_bike", "fusion_lat": 0.0, "lon": -76.95256233333333}, {"fusion_lon": 0.0, "bike_id": "b9822417824649b2a1c05d06f59392e9", "is_disabled": 0, "is_reserved": 0, "lat": 38.9153775, "name": "b9822417824649b2a1c05d06f59392e9", "rental_uris": {"ios": "https://dc.lft.to/lastmile_qr_scan", "android": "https://dc.lft.to/lastmile_qr_scan"}, "type": "electric_scooter", "fusion_lat": 0.0, "lon": -77.04428716666666}, {"fusion_lon": 0.0, "bike_id": "524f7c8aa9e75789427db4810c46d3c7", "is_disabled": 0, "is_reserved": 0, "lat": 38.919252166666666, "name": "524f7c8aa9e75789427db4810c46d3c7", "rental_uris": {"ios": "https://dc.lft.to/lastmile_qr_scan", "android": "https://dc.lft.to/lastmile_qr_scan"}, "type": "electric_scooter", "fusion_lat": 0.0, "lon": -77.03177883333333}, {"fusion_lon": 0.0, "bike_id": "b268a8d48543b90feb08cae1133b68ca", "is_disabled": 0, "is_reserved": 0, "lat": 38.89752583333333, "name": "b268a8d48543b90feb08cae1133b68ca", "rental_uris": {"ios": "https://dc.lft.to/lastmile_qr_scan", "android": "https://dc.lft.to/lastmile_qr_scan"}, "type": "electric_scooter", "fusion_lat": 0.0, "lon": -77.01047166666666}, {"fusion_lon": 0.0, "bike_id": "294bd11cae7969da40439f61ddeb920c", "is_disabled": 0, "is_reserved": 0, "lat": 38.885137666666665, "name": "294bd11cae7969da40439f61ddeb920c", "rental_uris": {"ios": "https://dc.lft.to/lastmile_qr_scan", "android": "https://dc.lft.to/lastmile_qr_scan"}, "type": "electric_scooter", "fusion_lat": 0.0, "lon": -77.00222833333333}, {"fusion_lon": 0.0, "bike_id": "2dd5f466d13e5692fc873cf2efbe5cc4", "is_disabled": 0, "is_reserved": 0, "lat": 38.90206383333334, "name": "2dd5f466d13e5692fc873cf2efbe5cc4", "rental_uris": {"ios": "https://dc.lft.to/lastmile_qr_scan", "android": "https://dc.lft.to/lastmile_qr_scan"}, "type": "electric_scooter", "fusion_lat": 0.0, "lon": -77.05029383333333}, {"fusion_lon": 0.0, "bike_id": "613da9d55be798682c8da3e1a142a84d", "is_disabled": 0, "is_reserved": 0, "lat": 38.9035905, "name": "613da9d55be798682c8da3e1a142a84d", "rental_uris": {"ios": "https://dc.lft.to/lastmile_qr_scan", "android": "https://dc.lft.to/lastmile_qr_scan"}, "type": "electric_scooter", "fusion_lat": 0.0, "lon": -77.02202466666667}, {"fusion_lon": 0.0, "bike_id": "b251cb1be6b86e1440491e557ce3f689", "is_disabled": 0, "is_reserved": 0, "lat": 38.91944066666667, "name": "b251cb1be6b86e1440491e557ce3f689", "rental_uris": {"ios": "https://dc.lft.to/lastmile_qr_scan", "android": "https://dc.lft.to/lastmile_qr_scan"}, "type": "electric_scooter", "fusion_lat": 0.0, "lon": -77.01796166666666}, {"fusion_lon": 0.0, "bike_id": "4a5757b1651b728db9910ed2694f5926", "is_disabled": 0, "is_reserved": 0, "lat": 38.91814983333333, "name": "4a5757b1651b728db9910ed2694f5926", "rental_uris": {"ios": "https://dc.lft.to/lastmile_qr_scan", "android": "https://dc.lft.to/lastmile_qr_scan"}, "type": "electric_scooter", "fusion_lat": 0.0, "lon": -77.02477533333334}, {"fusion_lon": 0.0, "bike_id": "b896b980db3943fa1018816c6f4c0403", "is_disabled": 0, "is_reserved": 0, "lat": 38.9078435, "name": "b896b980db3943fa1018816c6f4c0403", "rental_uris": {"ios": "https://dc.lft.to/lastmile_qr_scan", "android": "https://dc.lft.to/lastmile_qr_scan"}, "type": "electric_scooter", "fusion_lat": 0.0, "lon": -77.07250833333333}, {"fusion_lon": 0.0, "bike_id": "4e227554e2f8a7995bb699ab73fa645a", "is_disabled": 0, "is_reserved": 0, "lat": 38.905622, "name": "4e227554e2f8a7995bb699ab73fa645a", "rental_uris": {"ios": "https://dc.lft.to/lastmile_qr_scan", "android": "https://dc.lft.to/lastmile_qr_scan"}, "type": "electric_scooter", "fusion_lat": 0.0, "lon": -77.00574716666667}, {"fusion_lon": 0.0, "bike_id": "ef4e45c0555f5a5cecaca30a045141b1", "is_disabled": 0, "is_reserved": 0, "lat": 38.90084266666667, "name": "ef4e45c0555f5a5cecaca30a045141b1", "rental_uris": {"ios": "https://dc.lft.to/lastmile_qr_scan", "android": "https://dc.lft.to/lastmile_qr_scan"}, "type": "electric_scooter", "fusion_lat": 0.0, "lon": -76.98335583333333}, {"fusion_lon": 0.0, "bike_id": "3628c62f525ac9b3ace0489b7e20f504", "is_disabled": 0, "is_reserved": 0, "lat": 38.94461233333333, "name": "3628c62f525ac9b3ace0489b7e20f504", "rental_uris": {"ios": "https://dc.lft.to/lastmile_qr_scan", "android": "https://dc.lft.to/lastmile_qr_scan"}, "type": "electric_scooter", "fusion_lat": 0.0, "lon": -77.00659033333334}, {"fusion_lon": 0.0, "bike_id": "5274c16324d10132737ee2b2a462a92f", "is_disabled": 0, "is_reserved": 0, "lat": 38.9089625, "name": "5274c16324d10132737ee2b2a462a92f", "rental_uris": {"ios": "https://dc.lft.to/lastmile_qr_scan", "android": "https://dc.lft.to/lastmile_qr_scan"}, "type": "electric_scooter", "fusion_lat": 0.0, "lon": -77.031475}, {"fusion_lon": 0.0, "bike_id": "be899087528927c09573b862be37bdcf", "is_disabled": 0, "is_reserved": 0, "lat": 38.90015866666667, "name": "be899087528927c09573b862be37bdcf", "rental_uris": {"ios": "https://dc.lft.to/lastmile_qr_scan", "android": "https://dc.lft.to/lastmile_qr_scan"}, "type": "electric_scooter", "fusion_lat": 0.0, "lon": -77.0446565}, {"fusion_lon": 0.0, "bike_id": "85ab8ae75e3bde12db95db10a9e66b23", "is_disabled": 0, "is_reserved": 0, "lat": 38.8887985, "name": "85ab8ae75e3bde12db95db10a9e66b23", "rental_uris": {"ios": "https://dc.lft.to/lastmile_qr_scan", "android": "https://dc.lft.to/lastmile_qr_scan"}, "type": "electric_scooter", "fusion_lat": 0.0, "lon": -76.9999885}, {"fusion_lon": 0.0, "bike_id": "c58baff6dc114968259ce09a148efc0a", "is_disabled": 0, "is_reserved": 0, "lat": 38.94755466666667, "name": "c58baff6dc114968259ce09a148efc0a", "rental_uris": {"ios": "https://dc.lft.to/lastmile_qr_scan", "android": "https://dc.lft.to/lastmile_qr_scan"}, "type": "electric_scooter", "fusion_lat": 0.0, "lon": -77.03284016666667}, {"fusion_lon": 0.0, "bike_id": "1f039bf5023718011cac1750722c28ce", "is_disabled": 0, "is_reserved": 0, "lat": 38.877013166666664, "name": "1f039bf5023718011cac1750722c28ce", "rental_uris": {"ios": "https://dc.lft.to/lastmile_qr_scan", "android": "https://dc.lft.to/lastmile_qr_scan"}, "type": "electric_scooter", "fusion_lat": 0.0, "lon": -77.017687}, {"fusion_lon": 0.0, "bike_id": "fa9a663a5b3a8be7c0aa1b76eb3847e4", "is_disabled": 0, "is_reserved": 0, "lat": 38.90905733333334, "name": "fa9a663a5b3a8be7c0aa1b76eb3847e4", "rental_uris": {"ios": "https://dc.lft.to/lastmile_qr_scan", "android": "https://dc.lft.to/lastmile_qr_scan"}, "type": "electric_bike", "fusion_lat": 0.0, "lon": -77.090021}, {"fusion_lon": 0.0, "bike_id": "99ef05875769f256098b0397ced9e0f5", "is_disabled": 0, "is_reserved": 0, "lat": 38.920151, "name": "99ef05875769f256098b0397ced9e0f5", "rental_uris": {"ios": "https://dc.lft.to/lastmile_qr_scan", "android": "https://dc.lft.to/lastmile_qr_scan"}, "type": "electric_scooter", "fusion_lat": 0.0, "lon": -77.0714765}, {"fusion_lon": 0.0, "bike_id": "ba5447c3ac308ccd236909ceb98fa5dc", "is_disabled": 0, "is_reserved": 0, "lat": 38.89501383333333, "name": "ba5447c3ac308ccd236909ceb98fa5dc", "rental_uris": {"ios": "https://dc.lft.to/lastmile_qr_scan", "android": "https://dc.lft.to/lastmile_qr_scan"}, "type": "electric_scooter", "fusion_lat": 0.0, "lon": -77.02213516666667}, {"fusion_lon": 0.0, "bike_id": "ae7dd71986050fd8431b45b4fd921f04", "is_disabled": 0, "is_reserved": 0, "lat": 38.96129033333333, "name": "ae7dd71986050fd8431b45b4fd921f04", "rental_uris": {"ios": "https://dc.lft.to/lastmile_qr_scan", "android": "https://dc.lft.to/lastmile_qr_scan"}, "type": "electric_bike", "fusion_lat": 0.0, "lon": -77.032802}, {"fusion_lon": 0.0, "bike_id": "308e6a4d375bed029659064ddd6315f9", "is_disabled": 0, "is_reserved": 0, "lat": 38.923864333333334, "name": "308e6a4d375bed029659064ddd6315f9", "rental_uris": {"ios": "https://dc.lft.to/lastmile_qr_scan", "android": "https://dc.lft.to/lastmile_qr_scan"}, "type": "electric_scooter", "fusion_lat": 0.0, "lon": -77.0430325}, {"fusion_lon": 0.0, "bike_id": "76273084fc258d9f91ba1c1a814d444d", "is_disabled": 0, "is_reserved": 0, "lat": 38.88118133333333, "name": "76273084fc258d9f91ba1c1a814d444d", "rental_uris": {"ios": "https://dc.lft.to/lastmile_qr_scan", "android": "https://dc.lft.to/lastmile_qr_scan"}, "type": "electric_scooter", "fusion_lat": 0.0, "lon": -77.01658066666667}, {"fusion_lon": 0.0, "bike_id": "3a7f0290b013149e0ddd7ac4e7cba537", "is_disabled": 0, "is_reserved": 0, "lat": 38.89328733333333, "name": "3a7f0290b013149e0ddd7ac4e7cba537", "rental_uris": {"ios": "https://dc.lft.to/lastmile_qr_scan", "android": "https://dc.lft.to/lastmile_qr_scan"}, "type": "electric_scooter", "fusion_lat": 0.0, "lon": -76.939272}, {"fusion_lon": 0.0, "bike_id": "aafa1a6f3bc88afc635ff283ce79f39f", "is_disabled": 0, "is_reserved": 0, "lat": 38.895976, "name": "aafa1a6f3bc88afc635ff283ce79f39f", "rental_uris": {"ios": "https://dc.lft.to/lastmile_qr_scan", "android": "https://dc.lft.to/lastmile_qr_scan"}, "type": "electric_scooter", "fusion_lat": 0.0, "lon": -77.0261475}, {"fusion_lon": 0.0, "bike_id": "b78e8ceb2bc16bd3e4d77e259f60c8bc", "is_disabled": 0, "is_reserved": 0, "lat": 38.924318666666665, "name": "b78e8ceb2bc16bd3e4d77e259f60c8bc", "rental_uris": {"ios": "https://dc.lft.to/lastmile_qr_scan", "android": "https://dc.lft.to/lastmile_qr_scan"}, "type": "electric_scooter", "fusion_lat": 0.0, "lon": -77.042547}, {"fusion_lon": 0.0, "bike_id": "a40de42cbb639375c273a9961d6c638a", "is_disabled": 0, "is_reserved": 0, "lat": 38.875788, "name": "a40de42cbb639375c273a9961d6c638a", "rental_uris": {"ios": "https://dc.lft.to/lastmile_qr_scan", "android": "https://dc.lft.to/lastmile_qr_scan"}, "type": "electric_bike", "fusion_lat": 0.0, "lon": -77.234109}, {"fusion_lon": 0.0, "bike_id": "affd557ab6b79d2d4db715181395a664", "is_disabled": 0, "is_reserved": 0, "lat": 38.919977, "name": "affd557ab6b79d2d4db715181395a664", "rental_uris": {"ios": "https://dc.lft.to/lastmile_qr_scan", "android": "https://dc.lft.to/lastmile_qr_scan"}, "type": "electric_scooter", "fusion_lat": 0.0, "lon": -77.02138466666666}, {"fusion_lon": 0.0, "bike_id": "96dca7a9f6614ba4dd609634c9de6569", "is_disabled": 0, "is_reserved": 0, "lat": 38.922883, "name": "96dca7a9f6614ba4dd609634c9de6569", "rental_uris": {"ios": "https://dc.lft.to/lastmile_qr_scan", "android": "https://dc.lft.to/lastmile_qr_scan"}, "type": "electric_scooter", "fusion_lat": 0.0, "lon": -77.0213075}, {"fusion_lon": 0.0, "bike_id": "00e5bd4856c4ab9051deb260430567f0", "is_disabled": 0, "is_reserved": 0, "lat": 38.9018155, "name": "00e5bd4856c4ab9051deb260430567f0", "rental_uris": {"ios": "https://dc.lft.to/lastmile_qr_scan", "android": "https://dc.lft.to/lastmile_qr_scan"}, "type": "electric_scooter", "fusion_lat": 0.0, "lon": -76.97669816666667}, {"fusion_lon": 0.0, "bike_id": "ffe56c1efaece33405aac1b738037f2b", "is_disabled": 0, "is_reserved": 0, "lat": 38.94333116666667, "name": "ffe56c1efaece33405aac1b738037f2b", "rental_uris": {"ios": "https://dc.lft.to/lastmile_qr_scan", "android": "https://dc.lft.to/lastmile_qr_scan"}, "type": "electric_scooter", "fusion_lat": 0.0, "lon": -77.03261283333333}, {"fusion_lon": 0.0, "bike_id": "ca58874ab0743922cd4904da86122b5d", "is_disabled": 0, "is_reserved": 0, "lat": 38.9242545, "name": "ca58874ab0743922cd4904da86122b5d", "rental_uris": {"ios": "https://dc.lft.to/lastmile_qr_scan", "android": "https://dc.lft.to/lastmile_qr_scan"}, "type": "electric_scooter", "fusion_lat": 0.0, "lon": -77.04042616666666}, {"fusion_lon": 0.0, "bike_id": "d025efe8fc785858584d1043c3264aed", "is_disabled": 0, "is_reserved": 0, "lat": 38.88714483333333, "name": "d025efe8fc785858584d1043c3264aed", "rental_uris": {"ios": "https://dc.lft.to/lastmile_qr_scan", "android": "https://dc.lft.to/lastmile_qr_scan"}, "type": "electric_scooter", "fusion_lat": 0.0, "lon": -76.983812}, {"fusion_lon": 0.0, "bike_id": "e7efea3f5361d1b0a636d5c70258832b", "is_disabled": 0, "is_reserved": 0, "lat": 38.88543633333333, "name": "e7efea3f5361d1b0a636d5c70258832b", "rental_uris": {"ios": "https://dc.lft.to/lastmile_qr_scan", "android": "https://dc.lft.to/lastmile_qr_scan"}, "type": "electric_scooter", "fusion_lat": 0.0, "lon": -77.0200495}, {"fusion_lon": 0.0, "bike_id": "b79d5c50908f3520be7ab76dac13e181", "is_disabled": 0, "is_reserved": 0, "lat": 38.91152366666667, "name": "b79d5c50908f3520be7ab76dac13e181", "rental_uris": {"ios": "https://dc.lft.to/lastmile_qr_scan", "android": "https://dc.lft.to/lastmile_qr_scan"}, "type": "electric_scooter", "fusion_lat": 0.0, "lon": -76.98729833333333}, {"fusion_lon": 0.0, "bike_id": "16f0bd4ef0381cefb46260a181d56674", "is_disabled": 0, "is_reserved": 0, "lat": 38.866221833333334, "name": "16f0bd4ef0381cefb46260a181d56674", "rental_uris": {"ios": "https://dc.lft.to/lastmile_qr_scan", "android": "https://dc.lft.to/lastmile_qr_scan"}, "type": "electric_bike", "fusion_lat": 0.0, "lon": -76.945727}, {"fusion_lon": 0.0, "bike_id": "cfbd91b370b55a2d8b6a925e1bb50cb2", "is_disabled": 0, "is_reserved": 0, "lat": 38.915371, "name": "cfbd91b370b55a2d8b6a925e1bb50cb2", "rental_uris": {"ios": "https://dc.lft.to/lastmile_qr_scan", "android": "https://dc.lft.to/lastmile_qr_scan"}, "type": "electric_scooter", "fusion_lat": 0.0, "lon": -77.07546633333334}, {"fusion_lon": 0.0, "bike_id": "13d399a9ee34fdadb97b62fee799868d", "is_disabled": 0, "is_reserved": 0, "lat": 38.9143005, "name": "13d399a9ee34fdadb97b62fee799868d", "rental_uris": {"ios": "https://dc.lft.to/lastmile_qr_scan", "android": "https://dc.lft.to/lastmile_qr_scan"}, "type": "electric_scooter", "fusion_lat": 0.0, "lon": -77.067045}, {"fusion_lon": 0.0, "bike_id": "2413feccc771a2860d54c07e030acd35", "is_disabled": 0, "is_reserved": 0, "lat": 38.924142833333335, "name": "2413feccc771a2860d54c07e030acd35", "rental_uris": {"ios": "https://dc.lft.to/lastmile_qr_scan", "android": "https://dc.lft.to/lastmile_qr_scan"}, "type": "electric_scooter", "fusion_lat": 0.0, "lon": -77.02129566666666}, {"fusion_lon": 0.0, "bike_id": "71ca3531dbfd2445abdfa35d5db81773", "is_disabled": 0, "is_reserved": 0, "lat": 38.905139, "name": "71ca3531dbfd2445abdfa35d5db81773", "rental_uris": {"ios": "https://dc.lft.to/lastmile_qr_scan", "android": "https://dc.lft.to/lastmile_qr_scan"}, "type": "electric_scooter", "fusion_lat": 0.0, "lon": -77.0513645}, {"fusion_lon": 0.0, "bike_id": "a19b2c01feff4b1d2b764431f45ff9ce", "is_disabled": 0, "is_reserved": 0, "lat": 38.921084666666665, "name": "a19b2c01feff4b1d2b764431f45ff9ce", "rental_uris": {"ios": "https://dc.lft.to/lastmile_qr_scan", "android": "https://dc.lft.to/lastmile_qr_scan"}, "type": "electric_scooter", "fusion_lat": 0.0, "lon": -77.046897}, {"fusion_lon": 0.0, "bike_id": "9d2c1f3e79b488ee0fb4bfcd499e351d", "is_disabled": 0, "is_reserved": 0, "lat": 38.99889866666667, "name": "9d2c1f3e79b488ee0fb4bfcd499e351d", "rental_uris": {"ios": "https://dc.lft.to/lastmile_qr_scan", "android": "https://dc.lft.to/lastmile_qr_scan"}, "type": "electric_bike", "fusion_lat": 0.0, "lon": -76.9108865}, {"fusion_lon": 0.0, "bike_id": "980ba117d1737aac29128a2d129034a0", "is_disabled": 0, "is_reserved": 0, "lat": 38.94152366666667, "name": "980ba117d1737aac29128a2d129034a0", "rental_uris": {"ios": "https://dc.lft.to/lastmile_qr_scan", "android": "https://dc.lft.to/lastmile_qr_scan"}, "type": "electric_bike", "fusion_lat": 0.0, "lon": -77.0019725}, {"fusion_lon": 0.0, "bike_id": "cb8c82e73c82e9480905d7e5dd3dc3ef", "is_disabled": 0, "is_reserved": 0, "lat": 38.908197333333334, "name": "cb8c82e73c82e9480905d7e5dd3dc3ef", "rental_uris": {"ios": "https://dc.lft.to/lastmile_qr_scan", "android": "https://dc.lft.to/lastmile_qr_scan"}, "type": "electric_scooter", "fusion_lat": 0.0, "lon": -77.02935766666667}, {"fusion_lon": 0.0, "bike_id": "a2f05151a3efdd99765d7796683df0d8", "is_disabled": 0, "is_reserved": 0, "lat": 38.91183783333334, "name": "a2f05151a3efdd99765d7796683df0d8", "rental_uris": {"ios": "https://dc.lft.to/lastmile_qr_scan", "android": "https://dc.lft.to/lastmile_qr_scan"}, "type": "electric_scooter", "fusion_lat": 0.0, "lon": -77.06619383333333}, {"fusion_lon": 0.0, "bike_id": "695a1150c7763ab96651ca138c9b433d", "is_disabled": 0, "is_reserved": 0, "lat": 38.92602683333333, "name": "695a1150c7763ab96651ca138c9b433d", "rental_uris": {"ios": "https://dc.lft.to/lastmile_qr_scan", "android": "https://dc.lft.to/lastmile_qr_scan"}, "type": "electric_scooter", "fusion_lat": 0.0, "lon": -77.02157433333333}, {"fusion_lon": 0.0, "bike_id": "c48a5460476d0b68f5aefe844e203300", "is_disabled": 0, "is_reserved": 0, "lat": 38.925507833333334, "name": "c48a5460476d0b68f5aefe844e203300", "rental_uris": {"ios": "https://dc.lft.to/lastmile_qr_scan", "android": "https://dc.lft.to/lastmile_qr_scan"}, "type": "electric_scooter", "fusion_lat": 0.0, "lon": -77.05301683333333}, {"fusion_lon": 0.0, "bike_id": "f8b1c594862e427c71b89833f1aa9ecc", "is_disabled": 0, "is_reserved": 0, "lat": 38.91550483333333, "name": "f8b1c594862e427c71b89833f1aa9ecc", "rental_uris": {"ios": "https://dc.lft.to/lastmile_qr_scan", "android": "https://dc.lft.to/lastmile_qr_scan"}, "type": "electric_scooter", "fusion_lat": 0.0, "lon": -77.04454566666666}, {"fusion_lon": 0.0, "bike_id": "de4e2296f3b1c8adece76e9b89111b17", "is_disabled": 0, "is_reserved": 0, "lat": 38.913140166666665, "name": "de4e2296f3b1c8adece76e9b89111b17", "rental_uris": {"ios": "https://dc.lft.to/lastmile_qr_scan", "android": "https://dc.lft.to/lastmile_qr_scan"}, "type": "electric_scooter", "fusion_lat": 0.0, "lon": -77.02859583333333}, {"fusion_lon": 0.0, "bike_id": "0f7119f09f4ad4bde54bb312873b6aaf", "is_disabled": 0, "is_reserved": 0, "lat": 38.93665566666667, "name": "0f7119f09f4ad4bde54bb312873b6aaf", "rental_uris": {"ios": "https://dc.lft.to/lastmile_qr_scan", "android": "https://dc.lft.to/lastmile_qr_scan"}, "type": "electric_bike", "fusion_lat": 0.0, "lon": -77.03681816666666}, {"fusion_lon": 0.0, "bike_id": "203a78efe676f40625c83b952864f6a0", "is_disabled": 0, "is_reserved": 0, "lat": 38.897536, "name": "203a78efe676f40625c83b952864f6a0", "rental_uris": {"ios": "https://dc.lft.to/lastmile_qr_scan", "android": "https://dc.lft.to/lastmile_qr_scan"}, "type": "electric_scooter", "fusion_lat": 0.0, "lon": -77.0273685}, {"fusion_lon": 0.0, "bike_id": "82d37105e466f2d5f140bcf45b1f1dba", "is_disabled": 0, "is_reserved": 0, "lat": 38.89925683333333, "name": "82d37105e466f2d5f140bcf45b1f1dba", "rental_uris": {"ios": "https://dc.lft.to/lastmile_qr_scan", "android": "https://dc.lft.to/lastmile_qr_scan"}, "type": "electric_scooter", "fusion_lat": 0.0, "lon": -76.94579733333333}, {"fusion_lon": 0.0, "bike_id": "059a3436643430d0a5e6ab2750731434", "is_disabled": 0, "is_reserved": 0, "lat": 39.026254, "name": "059a3436643430d0a5e6ab2750731434", "rental_uris": {"ios": "https://dc.lft.to/lastmile_qr_scan", "android": "https://dc.lft.to/lastmile_qr_scan"}, "type": "electric_bike", "fusion_lat": 0.0, "lon": -77.03883483333334}, {"fusion_lon": 0.0, "bike_id": "b39c19b16db320c7f12d3c0c78a0c934", "is_disabled": 0, "is_reserved": 0, "lat": 38.91712783333333, "name": "b39c19b16db320c7f12d3c0c78a0c934", "rental_uris": {"ios": "https://dc.lft.to/lastmile_qr_scan", "android": "https://dc.lft.to/lastmile_qr_scan"}, "type": "electric_scooter", "fusion_lat": 0.0, "lon": -77.03247616666667}, {"fusion_lon": 0.0, "bike_id": "47760319413e1727028ebfc1b7731f2f", "is_disabled": 0, "is_reserved": 0, "lat": 38.97046816666667, "name": "47760319413e1727028ebfc1b7731f2f", "rental_uris": {"ios": "https://dc.lft.to/lastmile_qr_scan", "android": "https://dc.lft.to/lastmile_qr_scan"}, "type": "electric_bike", "fusion_lat": 0.0, "lon": -76.93620433333334}, {"fusion_lon": 0.0, "bike_id": "a5f9b89f221d6ce62d57bd58a7b04440", "is_disabled": 0, "is_reserved": 0, "lat": 38.92481383333333, "name": "a5f9b89f221d6ce62d57bd58a7b04440", "rental_uris": {"ios": "https://dc.lft.to/lastmile_qr_scan", "android": "https://dc.lft.to/lastmile_qr_scan"}, "type": "electric_scooter", "fusion_lat": 0.0, "lon": -77.03178866666667}, {"fusion_lon": 0.0, "bike_id": "5e62310b801b6717ea20f1b448de0fa5", "is_disabled": 0, "is_reserved": 0, "lat": 38.85798416666667, "name": "5e62310b801b6717ea20f1b448de0fa5", "rental_uris": {"ios": "https://dc.lft.to/lastmile_qr_scan", "android": "https://dc.lft.to/lastmile_qr_scan"}, "type": "electric_bike", "fusion_lat": 0.0, "lon": -76.98750233333334}, {"fusion_lon": 0.0, "bike_id": "0fd1ec7328e4873a8325ca9b8f9c215d", "is_disabled": 0, "is_reserved": 0, "lat": 38.9066055, "name": "0fd1ec7328e4873a8325ca9b8f9c215d", "rental_uris": {"ios": "https://dc.lft.to/lastmile_qr_scan", "android": "https://dc.lft.to/lastmile_qr_scan"}, "type": "electric_scooter", "fusion_lat": 0.0, "lon": -77.008922}, {"fusion_lon": 0.0, "bike_id": "c245767cf48a07ce446273235addbfe8", "is_disabled": 0, "is_reserved": 0, "lat": 38.90449533333334, "name": "c245767cf48a07ce446273235addbfe8", "rental_uris": {"ios": "https://dc.lft.to/lastmile_qr_scan", "android": "https://dc.lft.to/lastmile_qr_scan"}, "type": "electric_scooter", "fusion_lat": 0.0, "lon": -76.98252366666667}, {"fusion_lon": 0.0, "bike_id": "ffb1a7719282b062040595bc61710453", "is_disabled": 0, "is_reserved": 0, "lat": 38.91253183333333, "name": "ffb1a7719282b062040595bc61710453", "rental_uris": {"ios": "https://dc.lft.to/lastmile_qr_scan", "android": "https://dc.lft.to/lastmile_qr_scan"}, "type": "electric_scooter", "fusion_lat": 0.0, "lon": -77.04768016666667}, {"fusion_lon": 0.0, "bike_id": "da56535d4f08a1c6f76d31b9c1040def", "is_disabled": 0, "is_reserved": 0, "lat": 38.92167033333333, "name": "da56535d4f08a1c6f76d31b9c1040def", "rental_uris": {"ios": "https://dc.lft.to/lastmile_qr_scan", "android": "https://dc.lft.to/lastmile_qr_scan"}, "type": "electric_scooter", "fusion_lat": 0.0, "lon": -77.03209333333334}, {"fusion_lon": 0.0, "bike_id": "87090599564442fc3946ce65b1ea363a", "is_disabled": 0, "is_reserved": 0, "lat": 38.90574516666667, "name": "87090599564442fc3946ce65b1ea363a", "rental_uris": {"ios": "https://dc.lft.to/lastmile_qr_scan", "android": "https://dc.lft.to/lastmile_qr_scan"}, "type": "electric_scooter", "fusion_lat": 0.0, "lon": -77.00557533333334}, {"fusion_lon": 0.0, "bike_id": "9adde5911506e31412b0f009b4793b73", "is_disabled": 0, "is_reserved": 0, "lat": 38.93114583333333, "name": "9adde5911506e31412b0f009b4793b73", "rental_uris": {"ios": "https://dc.lft.to/lastmile_qr_scan", "android": "https://dc.lft.to/lastmile_qr_scan"}, "type": "electric_scooter", "fusion_lat": 0.0, "lon": -77.02097416666666}, {"fusion_lon": 0.0, "bike_id": "c17e246939e3cf47324fe77c33f53278", "is_disabled": 0, "is_reserved": 0, "lat": 38.899092833333334, "name": "c17e246939e3cf47324fe77c33f53278", "rental_uris": {"ios": "https://dc.lft.to/lastmile_qr_scan", "android": "https://dc.lft.to/lastmile_qr_scan"}, "type": "electric_scooter", "fusion_lat": 0.0, "lon": -76.93389966666666}, {"fusion_lon": 0.0, "bike_id": "ccc46034f3f35ae8716deecbb1dd342c", "is_disabled": 0, "is_reserved": 0, "lat": 38.91703566666666, "name": "ccc46034f3f35ae8716deecbb1dd342c", "rental_uris": {"ios": "https://dc.lft.to/lastmile_qr_scan", "android": "https://dc.lft.to/lastmile_qr_scan"}, "type": "electric_scooter", "fusion_lat": 0.0, "lon": -77.03119516666666}, {"fusion_lon": 0.0, "bike_id": "569f8450c0b47b97202d46949fc24878", "is_disabled": 0, "is_reserved": 0, "lat": 38.92605016666667, "name": "569f8450c0b47b97202d46949fc24878", "rental_uris": {"ios": "https://dc.lft.to/lastmile_qr_scan", "android": "https://dc.lft.to/lastmile_qr_scan"}, "type": "electric_scooter", "fusion_lat": 0.0, "lon": -77.05710783333333}, {"fusion_lon": 0.0, "bike_id": "0f0ff616311e5499d0fe3ab6813359e0", "is_disabled": 0, "is_reserved": 0, "lat": 38.9022315, "name": "0f0ff616311e5499d0fe3ab6813359e0", "rental_uris": {"ios": "https://dc.lft.to/lastmile_qr_scan", "android": "https://dc.lft.to/lastmile_qr_scan"}, "type": "electric_scooter", "fusion_lat": 0.0, "lon": -77.05134266666667}, {"fusion_lon": 0.0, "bike_id": "40533289a4c626028ac75ee112962aaa", "is_disabled": 0, "is_reserved": 0, "lat": 38.915624, "name": "40533289a4c626028ac75ee112962aaa", "rental_uris": {"ios": "https://dc.lft.to/lastmile_qr_scan", "android": "https://dc.lft.to/lastmile_qr_scan"}, "type": "electric_scooter", "fusion_lat": 0.0, "lon": -77.03272683333333}, {"fusion_lon": 0.0, "bike_id": "769e57cff7b2e0ff437e02ec783fdb65", "is_disabled": 0, "is_reserved": 0, "lat": 38.92058266666667, "name": "769e57cff7b2e0ff437e02ec783fdb65", "rental_uris": {"ios": "https://dc.lft.to/lastmile_qr_scan", "android": "https://dc.lft.to/lastmile_qr_scan"}, "type": "electric_scooter", "fusion_lat": 0.0, "lon": -77.01720216666666}, {"fusion_lon": 0.0, "bike_id": "fc47ecb2efa29b172d401af8e3dbd155", "is_disabled": 0, "is_reserved": 0, "lat": 38.923230833333335, "name": "fc47ecb2efa29b172d401af8e3dbd155", "rental_uris": {"ios": "https://dc.lft.to/lastmile_qr_scan", "android": "https://dc.lft.to/lastmile_qr_scan"}, "type": "electric_scooter", "fusion_lat": 0.0, "lon": -77.03667716666666},