{"data": {"bikes": [{"is_reserved": 0, "is_disabled": 0, "fusion_lon": 0.0, "lat": 38.931785833333336, "name": "42441ff4445efdff5327f7d2c12906fc", "bike_id": "42441ff4445efdff5327f7d2c12906fc", "lon": -77.03539866666667, "fusion_lat": 0.0, "rental_uris": {"android": "https://dc.lft.to/lastmile_qr_scan", "ios": "https://dc.lft.to/lastmile_qr_scan"}, "type": "electric_bike"}, {"is_reserved": 0, "is_disabled": 0, "fusion_lon": 0.0, "lat": 38.927027, "name": "b14c1accddd4af6a390dd253e3129a9b", "bike_id": "b14c1accddd4af6a390dd253e3129a9b", "lon": -77.023881, "fusion_lat": 0.0, "rental_uris": {"android": "https://dc.lft.to/lastmile_qr_scan", "ios": "https://dc.lft.to/lastmile_qr_scan"}, "type": "electric_scooter"}, {"is_reserved": 0, "is_disabled": 0, "fusion_lon": 0.0, "lat": 38.923928833333335, "name": "0cc01df30c39e11033806b143e41ed43", "bike_id": "0cc01df30c39e11033806b143e41ed43", "lon": -77.00070866666667, "fusion_lat": 0.0, "rental_uris": {"android": "https://dc.lft.to/lastmile_qr_scan", "ios": "https://dc.lft.to/lastmile_qr_scan"}, "type": "electric_scooter"}, {"is_reserved": 0, "is_disabled": 0, "fusion_lon": 0.0, "lat": 38.917071666666665, "name": "ee0ed24585c7a4b035abdf041d54c32a", "bike_id": "ee0ed24585c7a4b035abdf041d54c32a", "lon": -77.035008, "fusion_lat": 0.0, "rental_uris": {"android": "https://dc.lft.to/lastmile_qr_scan", "ios": "https://dc.lft.to/lastmile_qr_scan"}, "type": "electric_scooter"}, {"is_reserved": 0, "is_disabled": 0, "fusion_lon": 0.0, "lat": 39.0423835, "name": "50ca7f9b9ee84f5a239386e55e809f3c", "bike_id": "50ca7f9b9ee84f5a239386e55e809f3c", "lon": -76.9973905, "fusion_lat": 0.0, "rental_uris": {"android": "https://dc.lft.to/lastmile_qr_scan", "ios": "https://dc.lft.to/lastmile_qr_scan"}, "type": "electric_bike"}, {"is_reserved": 0, "is_disabled": 0, "fusion_lon": 0.0, "lat": 38.888799666666664, "name": "a52361ca5a9c5d781e5bb33fd603fdd9", "bike_id": "a52361ca5a9c5d781e5bb33fd603fdd9", "lon": -76.99035516666666, "fusion_lat": 0.0, "rental_uris": {"android": "https://dc.lft.to/lastmile_qr_scan", "ios": "https://dc.lft.to/lastmile_qr_scan"}, "type": "electric_scooter"}, {"is_reserved": 0, "is_disabled": 0, "fusion_lon": 0.0, "lat": 38.92423016666667, "name": "208d355be24545429defbf35e2d586cc", "bike_id": "208d355be24545429defbf35e2d586cc", "lon": -77.020286, "fusion_lat": 0.0, "rental_uris": {"android": "https://dc.lft.to/lastmile_qr_scan", "ios": "https://dc.lft.to/lastmile_qr_scan"}, "type": "electric_scooter"}, {"is_reserved": 0, "is_disabled": 0, "fusion_lon": 0.0, "lat": 38.9084445, "name": "6781eddbe2610a6b123a40fc58ed38e5", "bike_id": "6781eddbe2610a6b123a40fc58ed38e5", "lon": -77.04328916666667, "fusion_lat": 0.0, "rental_uris": {"android": "https://dc.lft.to/lastmile_qr_scan", "ios": "https://dc.lft.to/lastmile_qr_scan"}, "type": "electric_scooter"}, {"is_reserved": 0, "is_disabled": 0, "fusion_lon": 0.0, "lat": 38.858750666666666, "name": "8d2127c86cb08d72a9481db515119594", "bike_id": "8d2127c86cb08d72a9481db515119594", "lon": -76.98932366666666, "fusion_lat": 0.0, "rental_uris": {"android": "https://dc.lft.to/lastmile_qr_scan", "ios": "https://dc.lft.to/lastmile_qr_scan"}, "type": "electric_scooter"}, {"is_reserved": 0, "is_disabled": 0, "fusion_lon": 0.0, "lat": 38.91346216666667, "name": "448fef69d6e787eb5bffcbb3c731b961", "bike_id": "448fef69d6e787eb5bffcbb3c731b961", "lon": -77.02052666666667, "fusion_lat": 0.0, "rental_uris": {"android": "https://dc.lft.to/lastmile_qr_scan", "ios": "https://dc.lft.to/lastmile_qr_scan"}, "type": "electric_scooter"}, {"is_reserved": 0, "is_disabled": 0, "fusion_lon": 0.0, "lat": 38.919944, "name": "ab361266242a6f825118c1116900f77a", "bike_id": "ab361266242a6f825118c1116900f77a", "lon": -76.98488666666667, "fusion_lat": 0.0, "rental_uris": {"android": "https://dc.lft.to/lastmile_qr_scan", "ios": "https://dc.lft.to/lastmile_qr_scan"}, "type": "electric_scooter"}, {"is_reserved": 0, "is_disabled": 0, "fusion_lon": 0.0, "lat": 38.90597433333333, "name": "0adb3687dc8c0c2daab7bfa89e631043", "bike_id": "0adb3687dc8c0c2daab7bfa89e631043", "lon": -77.0669065, "fusion_lat": 0.0, "rental_uris": {"android": "https://dc.lft.to/lastmile_qr_scan", "ios": "https://dc.lft.to/lastmile_qr_scan"}, "type": "electric_scooter"}, {"is_reserved": 0, "is_disabled": 0, "fusion_lon": 0.0, "lat": 38.906443833333334, "name": "f1ed7ae87d61e7b8ec6d598aab84d399", "bike_id": "f1ed7ae87d61e7b8ec6d598aab84d399", "lon": -77.0169155, "fusion_lat": 0.0, "rental_uris": {"android": "https://dc.lft.to/lastmile_qr_scan", "ios": "https://dc.lft.to/lastmile_qr_scan"}, "type": "electric_scooter"}, {"is_reserved": 0, "is_disabled": 0, "fusion_lon": 0.0, "lat": 38.9167875, "name": "0aad51ca1ae308c4843893826c3c4fa3", "bike_id": "0aad51ca1ae308c4843893826c3c4fa3", "lon": -77.04605516666666, "fusion_lat": 0.0, "rental_uris": {"android": "https://dc.lft.to/lastmile_qr_scan", "ios": "https://dc.lft.to/lastmile_qr_scan"}, "type": "electric_scooter"}, {"is_reserved": 0, "is_disabled": 0, "fusion_lon": 0.0, "lat": 38.9132485, "name": "d4a2d1c8eef3f2eae1a865f0cd5e8ef2", "bike_id": "d4a2d1c8eef3f2eae1a865f0cd5e8ef2", "lon": -77.04537816666667, "fusion_lat": 0.0, "rental_uris": {"android": "https://dc.lft.to/lastmile_qr_scan", "ios": "https://dc.lft.to/lastmile_qr_scan"}, "type": "electric_scooter"}, {"is_reserved": 0, "is_disabled": 0, "fusion_lon": 0.0, "lat": 38.90583066666667, "name": "4e32a0ddc2d1db654e7873126648efd0", "bike_id": "4e32a0ddc2d1db654e7873126648efd0", "lon": -77.04087733333333, "fusion_lat": 0.0, "rental_uris": {"android": "https://dc.lft.to/lastmile_qr_scan", "ios": "https://dc.lft.to/lastmile_qr_scan"}, "type": "electric_scooter"}, {"is_reserved": 0, "is_disabled": 0, "fusion_lon": 0.0, "lat": 38.900284166666665, "name": "104d29b5d720360ca9fc61ef87af91fd", "bike_id": "104d29b5d720360ca9fc61ef87af91fd", "lon": -76.9984915, "fusion_lat": 0.0, "rental_uris": {"android": "https://dc.lft.to/lastmile_qr_scan", "ios": "https://dc.lft.to/lastmile_qr_scan"}, "type": "electric_scooter"}, {"is_reserved": 0, "is_disabled": 0, "fusion_lon": 0.0, "lat": 38.91708233333333, "name": "a4e9d237fccfdc8e23aeaeb8ec29a605", "bike_id": "a4e9d237fccfdc8e23aeaeb8ec29a605", "lon": -77.03863833333334, "fusion_lat": 0.0, "rental_uris": {"android": "https://dc.lft.to/lastmile_qr_scan", "ios": "https://dc.lft.to/lastmile_qr_scan"}, "type": "electric_scooter"}, {"is_reserved": 0, "is_disabled": 0, "fusion_lon": 0.0, "lat": 38.90033666666667, "name": "8c7b24ef5a410d173433a41a1e2545e6", "bike_id": "8c7b24ef5a410d173433a41a1e2545e6", "lon": -76.98837033333334, "fusion_lat": 0.0, "rental_uris": {"android": "https://dc.lft.to/lastmile_qr_scan", "ios": "https://dc.lft.to/lastmile_qr_scan"}, "type": "electric_scooter"}, {"is_reserved": 0, "is_disabled": 0, "fusion_lon": 0.0, "lat": 38.915557166666666, "name": "112ce414190c26e756eda368a5422a50", "bike_id": "112ce414190c26e756eda368a5422a50", "lon": -77.02367916666667, "fusion_lat": 0.0, "rental_uris": {"android": "https://dc.lft.to/lastmile_qr_scan", "ios": "https://dc.lft.to/lastmile_qr_scan"}, "type": "electric_bike"}, {"is_reserved": 0, "is_disabled": 0, "fusion_lon": 0.0, "lat": 38.91572566666667, "name": "76cf1ffdbbcbb925d6c4270789484b07", "bike_id": "76cf1ffdbbcbb925d6c4270789484b07", "lon": -77.03201383333334, "fusion_lat": 0.0, "rental_uris": {"android": "https://dc.lft.to/lastmile_qr_scan", "ios": "https://dc.lft.to/lastmile_qr_scan"}, "type": "electric_scooter"}, {"is_reserved": 0, "is_disabled": 0, "fusion_lon": 0.0, "lat": 39.0747145, "name": "1e00110e62364a72218fb4248d1b0830", "bike_id": "1e00110e62364a72218fb4248d1b0830", "lon": -77.11528666666666, "fusion_lat": 0.0, "rental_uris": {"android": "https://dc.lft.to/lastmile_qr_scan", "ios": "https://dc.lft.to/lastmile_qr_scan"}, "type": "electric_bike"}, {"is_reserved": 0, "is_disabled": 0, "fusion_lon": 0.0, "lat": 38.8984585, "name": "45daf00d12aeae98578dd5558879e910", "bike_id": "45daf00d12aeae98578dd5558879e910", "lon": -77.03956333333333, "fusion_lat": 0.0, "rental_uris": {"android": "https://dc.lft.to/lastmile_qr_scan", "ios": "https://dc.lft.to/lastmile_qr_scan"}, "type": "electric_scooter"}, {"is_reserved": 0, "is_disabled": 0, "fusion_lon": 0.0, "lat": 38.90528616666667, "name": "ff4b19baaca768c2e4bb81374f87b8c4", "bike_id": "ff4b19baaca768c2e4bb81374f87b8c4", "lon": -77.0603285, "fusion_lat": 0.0, "rental_uris": {"android": "https://dc.lft.to/lastmile_qr_scan", "ios": "https://dc.lft.to/lastmile_qr_scan"}, "type": "electric_scooter"}, {"is_reserved": 0, "is_disabled": 0, "fusion_lon": 0.0, "lat": 38.91710483333333, "name": "b6d232f6e3121c1f63e22242e39d4377", "bike_id": "b6d232f6e3121c1f63e22242e39d4377", "lon": -77.03831116666667, "fusion_lat": 0.0, "rental_uris": {"android": "https://dc.lft.to/lastmile_qr_scan", "ios": "https://dc.lft.to/lastmile_qr_scan"}, "type": "electric_scooter"}, {"is_reserved": 0, "is_disabled": 0, "fusion_lon": 0.0, "lat": 38.89907733333333, "name": "eb990f955d1d9bb30e16771d0c6cad5d", "bike_id": "eb990f955d1d9bb30e16771d0c6cad5d", "lon": -76.93386166666667, "fusion_lat": 0.0, "rental_uris": {"android": "https://dc.lft.to/lastmile_qr_scan", "ios": "https://dc.lft.to/lastmile_qr_scan"}, "type": "electric_scooter"}, {"is_reserved": 0, "is_disabled": 0, "fusion_lon": 0.0, "lat": 38.898776166666664, "name": "a68e3ca6eea5a2a265f378dd9545e8d7", "bike_id": "a68e3ca6eea5a2a265f378dd9545e8d7", "lon": -76.93187116666667, "fusion_lat": 0.0, "rental_uris": {"android": "https://dc.lft.to/lastmile_qr_scan", "ios": "https://dc.lft.to/lastmile_qr_scan"}, "type": "electric_bike"}, {"is_reserved": 0, "is_disabled": 0, "fusion_lon": 0.0, "lat": 38.8922555, "name": "dbd44fe8812ed518aae811749b60f6c7", "bike_id": "dbd44fe8812ed518aae811749b60f6c7", "lon": -77.0274875, "fusion_lat": 0.0, "rental_uris": {"android": "https://dc.lft.to/lastmile_qr_scan", "ios": "https://dc.lft.to/lastmile_qr_scan"}, "type": "electric_scooter"}, {"is_reserved": 0, "is_disabled": 0, "fusion_lon": 0.0, "lat": 38.924478, "name": "7ed25fdde28f623c061b54102fff4f06", "bike_id": "7ed25fdde28f623c061b54102fff4f06", "lon": -76.96836033333334, "fusion_lat": 0.0, "rental_uris": {"android": "https://dc.lft.to/lastmile_qr_scan", "ios": "https://dc.lft.to/lastmile_qr_scan"}, "type": "electric_bike"}, {"is_reserved": 0, "is_disabled": 0, "fusion_lon": 0.0, "lat": 38.90641733333333, "name": "7d9721e79b9fd6eb52067ecd2fddee45", "bike_id": "7d9721e79b9fd6eb52067ecd2fddee45", "lon": -77.008842, "fusion_lat": 0.0, "rental_uris": {"android": "https://dc.lft.to/lastmile_qr_scan", "ios": "https://dc.lft.to/lastmile_qr_scan"}, "type": "electric_scooter"}, {"is_reserved": 0, "is_disabled": 0, "fusion_lon": 0.0, "lat": 38.890123833333334, "name": "c77518611f6df86c7dd213d1a1afd402", "bike_id": "c77518611f6df86c7dd213d1a1afd402", "lon": -76.93740433333333, "fusion_lat": 0.0, "rental_uris": {"android": "https://dc.lft.to/lastmile_qr_scan", "ios": "https://dc.lft.to/lastmile_qr_scan"}, "type": "electric_scooter"}, {"is_reserved": 0, "is_disabled": 0, "fusion_lon": 0.0, "lat": 38.938645, "name": "d40f071177a371eeb2b3edffb80afe7b", "bike_id": "d40f071177a371eeb2b3edffb80afe7b", "lon": -77.02516133333333, "fusion_lat": 0.0, "rental_uris": {"android": "https://dc.lft.to/lastmile_qr_scan", "ios": "https://dc.lft.to/lastmile_qr_scan"}, "type": "electric_scooter"}, {"is_reserved": 0, "is_disabled": 0, "fusion_lon": 0.0, "lat": 38.89823416666667, "name": "7426614b504ea49cea53ada4ade52725", "bike_id": "7426614b504ea49cea53ada4ade52725", "lon": -77.03344766666666, "fusion_lat": 0.0, "rental_uris": {"android": "https://dc.lft.to/lastmile_qr_scan", "ios": "https://dc.lft.to/lastmile_qr_scan"}, "type": "electric_scooter"}, {"is_reserved": 0, "is_disabled": 0, "fusion_lon": 0.0, "lat": 38.942018, "name": "5ce541c27813862750a2467b10803399", "bike_id": "5ce541c27813862750a2467b10803399", "lon": -77.01833933333333, "fusion_lat": 0.0, "rental_uris": {"android": "https://dc.lft.to/lastmile_qr_scan", "ios": "https://dc.lft.to/lastmile_qr_scan"}, "type": "electric_scooter"}, {"is_reserved": 0, "is_disabled": 0, "fusion_lon": 0.0, "lat": 38.877099666666666, "name": "353d9f268149125fb15865641f6073f6", "bike_id": "353d9f268149125fb15865641f6073f6", "lon": -77.01755133333333, "fusion_lat": 0.0, "rental_uris": {"android": "https://dc.lft.to/lastmile_qr_scan", "ios": "https://dc.lft.to/lastmile_qr_scan"}, "type": "electric_scooter"}, {"is_reserved": 0, "is_disabled": 0, "fusion_lon": 0.0, "lat": 38.928828333333335, "name": "dd60e8eb9ce2af1f9d071c0965427f1e", "bike_id": "dd60e8eb9ce2af1f9d071c0965427f1e", "lon": -77.032178, "fusion_lat": 0.0, "rental_uris": {"android": "https://dc.lft.to/lastmile_qr_scan", "ios": "https://dc.lft.to/lastmile_qr_scan"}, "type": "electric_scooter"}, {"is_reserved": 0, "is_disabled": 0, "fusion_lon": 0.0, "lat": 38.88711966666666, "name": "d5ea7e712989d343f7741f565bc28d97", "bike_id": "d5ea7e712989d343f7741f565bc28d97", "lon": -76.98343583333333, "fusion_lat": 0.0, "rental_uris": {"android": "https://dc.lft.to/lastmile_qr_scan", "ios": "https://dc.lft.to/lastmile_qr_scan"}, "type": "electric_scooter"}, {"is_reserved": 0, "is_disabled": 0, "fusion_lon": 0.0, "lat": 38.94266733333333, "name": "c8c3552fa3e224fc8a79ad48241dc492", "bike_id": "c8c3552fa3e224fc8a79ad48241dc492", "lon": -77.02586483333333, "fusion_lat": 0.0, "rental_uris": {"android": "https://dc.lft.to/lastmile_qr_scan", "ios": "https://dc.lft.to/lastmile_qr_scan"}, "type": "electric_scooter"}, {"is_reserved": 0, "is_disabled": 0, "fusion_lon": 0.0, "lat": 38.926149833333334, "name": "48b81dab2a8eb90b6048444859ab883e", "bike_id": "48b81dab2a8eb90b6048444859ab883e", "lon": -77.02157916666667, "fusion_lat": 0.0, "rental_uris": {"android": "https://dc.lft.to/lastmile_qr_scan", "ios": "https://dc.lft.to/lastmile_qr_scan"}, "type": "electric_scooter"}, {"is_reserved": 0, "is_disabled": 0, "fusion_lon": 0.0, "lat": 38.93361433333333, "name": "4ece6098c624da2c17f7d42a740621c0", "bike_id": "4ece6098c624da2c17f7d42a740621c0", "lon": -77.057144, "fusion_lat": 0.0, "rental_uris": {"android": "https://dc.lft.to/lastmile_qr_scan", "ios": "https://dc.lft.to/lastmile_qr_scan"}, "type": "electric_scooter"}, {"is_reserved": 0, "is_disabled": 0, "fusion_lon": 0.0, "lat": 38.9036025, "name": "138bfd30ba6046d97af654ce683721a6", "bike_id": "138bfd30ba6046d97af654ce683721a6", "lon": -77.033496, "fusion_lat": 0.0, "rental_uris": {"android": "https://dc.lft.to/lastmile_qr_scan", "ios": "https://dc.lft.to/lastmile_qr_scan"}, "type": "electric_bike"}, {"is_reserved": 0, "is_disabled": 0, "fusion_lon": 0.0, "lat": 38.90859233333333, "name": "ddc18e1df06128d50d6172f43f1e4d57", "bike_id": "ddc18e1df06128d50d6172f43f1e4d57", "lon": -77.02991566666667, "fusion_lat": 0.0, "rental_uris": {"android": "https://dc.lft.to/lastmile_qr_scan", "ios": "https://dc.lft.to/lastmile_qr_scan"}, "type": "electric_scooter"}, {"is_reserved": 0, "is_disabled": 0, "fusion_lon": 0.0, "lat": 38.87215616666667, "name": "63e36c11353fe2dd082d7d9461722249", "bike_id": "63e36c11353fe2dd082d7d9461722249", "lon": -77.0160565, "fusion_lat": 0.0, "rental_uris": {"android": "https://dc.lft.to/lastmile_qr_scan", "ios": "https://dc.lft.to/lastmile_qr_scan"}, "type": "electric_scooter"}, {"is_reserved": 0, "is_disabled": 0, "fusion_lon": 0.0, "lat": 38.911018166666665, "name": "0b42b3450866f83ddb7471255cef2313", "bike_id": "0b42b3450866f83ddb7471255cef2313", "lon": -77.07345316666667, "fusion_lat": 0.0, "rental_uris": {"android": "https://dc.lft.to/lastmile_qr_scan", "ios": "https://dc.lft.to/lastmile_qr_scan"}, "type": "electric_scooter"}, {"is_reserved": 0, "is_disabled": 0, "fusion_lon": 0.0, "lat": 38.91057583333333, "name": "ae4a16337589f5de85a20137e6b0ae75", "bike_id": "ae4a16337589f5de85a20137e6b0ae75", "lon": -77.04095716666667, "fusion_lat": 0.0, "rental_uris": {"android": "https://dc.lft.to/lastmile_qr_scan", "ios": "https://dc.lft.to/lastmile_qr_scan"}, "type": "electric_scooter"}, {"is_reserved": 0, "is_disabled": 0, "fusion_lon": 0.0, "lat": 38.90068383333333, "name": "9532ae5bfaaadb71aa87c0f22ad3fb7b", "bike_id": "9532ae5bfaaadb71aa87c0f22ad3fb7b", "lon": -77.031818, "fusion_lat": 0.0, "rental_uris": {"android": "https://dc.lft.to/lastmile_qr_scan", "ios": "https://dc.lft.to/lastmile_qr_scan"}, "type": "electric_scooter"}, {"is_reserved": 0, "is_disabled": 0, "fusion_lon": 0.0, "lat": 38.90054033333333, "name": "32ea445c8c1c9ac25cbd4a73480e1d9b", "bike_id": "32ea445c8c1c9ac25cbd4a73480e1d9b", "lon": -76.98706266666667, "fusion_lat": 0.0, "rental_uris": {"android": "https://dc.lft.to/lastmile_qr_scan", "ios": "https://dc.lft.to/lastmile_qr_scan"}, "type": "electric_scooter"}, {"is_reserved": 0, "is_disabled": 0, "fusion_lon": 0.0, "lat": 38.9154255, "name": "86fca362341ab91ae50b64a925167e38", "bike_id": "86fca362341ab91ae50b64a925167e38", "lon": -77.03181283333333, "fusion_lat": 0.0, "rental_uris": {"android": "https://dc.lft.to/lastmile_qr_scan", "ios": "https://dc.lft.to/lastmile_qr_scan"}, "type": "electric_scooter"}, {"is_reserved": 0, "is_disabled": 0, "fusion_lon": 0.0, "lat": 38.918063333333336, "name": "582a6db0b1af886dc6c51f87b0ea9b63", "bike_id": "582a6db0b1af886dc6c51f87b0ea9b63", "lon": -77.03440083333334, "fusion_lat": 0.0, "rental_uris": {"android": "https://dc.lft.to/lastmile_qr_scan", "ios": "https://dc.lft.to/lastmile_qr_scan"}, "type": "electric_scooter"}, {"is_reserved": 0, "is_disabled": 0, "fusion_lon": 0.0, "lat": 38.904210166666665, "name": "338b2792a820b1092f8e079b0c158c64", "bike_id": "338b2792a820b1092f8e079b0c158c64", "lon": -77.03831833333334, "fusion_lat": 0.0, "rental_uris": {"android": "https://dc.lft.to/lastmile_qr_scan", "ios": "https://dc.lft.to/lastmile_qr_scan"}, "type": "electric_scooter"}, {"is_reserved": 0, "is_disabled": 0, "fusion_lon": 0.0, "lat": 38.9239885, "name": "589a6c52f4700f0dccc2e85bbaf8d8b8", "bike_id": "589a6c52f4700f0dccc2e85bbaf8d8b8", "lon": -77.025894, "fusion_lat": 0.0, "rental_uris": {"android": "https://dc.lft.to/lastmile_qr_scan", "ios": "https://dc.lft.to/lastmile_qr_scan"}, "type": "electric_scooter"}, {"is_reserved": 0, "is_disabled": 0, "fusion_lon": 0.0, "lat": 38.8040385, "name": "1ac33b4a78cd4b6e89d017d5105c5323", "bike_id": "1ac33b4a78cd4b6e89d017d5105c5323", "lon": -77.1133125, "fusion_lat": 0.0, "rental_uris": {"android": "https://dc.lft.to/lastmile_qr_scan", "ios": "https://dc.lft.to/lastmile_qr_scan"}, "type": "electric_bike"}, {"is_reserved": 0, "is_disabled": 0, "fusion_lon": 0.0, "lat": 38.927704, "name": "8febb9d86cc6a11d636faeab0e62bb42", "bike_id": "8febb9d86cc6a11d636faeab0e62bb42", "lon": -77.02779033333333, "fusion_lat": 0.0, "rental_uris": {"android": "https://dc.lft.to/lastmile_qr_scan", "ios": "https://dc.lft.to/lastmile_qr_scan"}, "type": "electric_scooter"}, {"is_reserved": 0, "is_disabled": 0, "fusion_lon": 0.0, "lat": 38.91914233333333, "name": "1a2bc01154a27e51d96b20e107ea526f", "bike_id": "1a2bc01154a27e51d96b20e107ea526f", "lon": -77.03394266666666, "fusion_lat": 0.0, "rental_uris": {"android": "https://dc.lft.to/lastmile_qr_scan", "ios": "https://dc.lft.to/lastmile_qr_scan"}, "type": "electric_scooter"}, {"is_reserved": 0, "is_disabled": 0, "fusion_lon": 0.0, "lat": 38.913463166666666, "name": "47f951db8bc66f6d491b6d484058f484", "bike_id": "47f951db8bc66f6d491b6d484058f484", "lon": -77.031823, "fusion_lat": 0.0, "rental_uris": {"android": "https://dc.lft.to/lastmile_qr_scan", "ios": "https://dc.lft.to/lastmile_qr_scan"}, "type": "electric_scooter"}, {"is_reserved": 0, "is_disabled": 0, "fusion_lon": 0.0, "lat": 38.868695333333335, "name": "d9f6cd3ad6c8674496561a2e3028db48", "bike_id": "d9f6cd3ad6c8674496561a2e3028db48", "lon": -76.9866255, "fusion_lat": 0.0, "rental_uris": {"android": "https://dc.lft.to/lastmile_qr_scan", "ios": "https://dc.lft.to/lastmile_qr_scan"}, "type": "electric_scooter"}, {"is_reserved": 0, "is_disabled": 0, "fusion_lon": 0.0, "lat": 38.923334833333335, "name": "19c789e54d0d6fd382e2a5c19e98a352", "bike_id": "19c789e54d0d6fd382e2a5c19e98a352", "lon": -77.05678333333333, "fusion_lat": 0.0, "rental_uris": {"android": "https://dc.lft.to/lastmile_qr_scan", "ios": "https://dc.lft.to/lastmile_qr_scan"}, "type": "electric_scooter"}, {"is_reserved": 0, "is_disabled": 0, "fusion_lon": 0.0, "lat": 38.928742666666665, "name": "2ee99fa3c60a418ce69cf32e7d7581a4", "bike_id": "2ee99fa3c60a418ce69cf32e7d7581a4", "lon": -77.03359783333333, "fusion_lat": 0.0, "rental_uris": {"android": "https://dc.lft.to/lastmile_qr_scan", "ios": "https://dc.lft.to/lastmile_qr_scan"}, "type": "electric_scooter"}, {"is_reserved": 0, "is_disabled": 0, "fusion_lon": 0.0, "lat": 38.85445083333333, "name": "81a3970dc083d715d16ec18d4a73e7b4", "bike_id": "81a3970dc083d715d16ec18d4a73e7b4", "lon": -77.0831765, "fusion_lat": 0.0, "rental_uris": {"android": "https://dc.lft.to/lastmile_qr_scan", "ios": "https://dc.lft.to/lastmile_qr_scan"}, "type": "electric_bike"}, {"is_reserved": 0, "is_disabled": 0, "fusion_lon": 0.0, "lat": 38.8972935, "name": "42dd82245654309b85691de38b8d12ba", "bike_id": "42dd82245654309b85691de38b8d12ba", "lon": -77.05525216666666, "fusion_lat": 0.0, "rental_uris": {"android": "https://dc.lft.to/lastmile_qr_scan", "ios": "https://dc.lft.to/lastmile_qr_scan"}, "type": "electric_scooter"}, {"is_reserved": 0, "is_disabled": 0, "fusion_lon": 0.0, "lat": 38.93077066666667, "name": "7b77e03cbcca1c656da4d19433d9ef16", "bike_id": "7b77e03cbcca1c656da4d19433d9ef16", "lon": -77.03140433333333, "fusion_lat": 0.0, "rental_uris": {"android": "https://dc.lft.to/lastmile_qr_scan", "ios": "https://dc.lft.to/lastmile_qr_scan"}, "type": "electric_scooter"}, {"is_reserved": 0, "is_disabled": 0, "fusion_lon": 0.0, "lat": 38.92239283333333, "name": "a5020a54e3771a91b81b3f652ad3234b", "bike_id": "a5020a54e3771a91b81b3f652ad3234b", "lon": -77.02121916666667, "fusion_lat": 0.0, "rental_uris": {"android": "https://dc.lft.to/lastmile_qr_scan", "ios": "https://dc.lft.to/lastmile_qr_scan"}, "type": "electric_scooter"}, {"is_reserved": 0, "is_disabled": 0, "fusion_lon": 0.0, "lat": 38.91548983333333, "name": "e50e368116776dcc72bcbc285dd9e2a3", "bike_id": "e50e368116776dcc72bcbc285dd9e2a3", "lon": -77.02451733333334, "fusion_lat": 0.0, "rental_uris": {"android": "https://dc.lft.to/lastmile_qr_scan", "ios": "https://dc.lft.to/lastmile_qr_scan"}, "type": "electric_scooter"}, {"is_reserved": 0, "is_disabled": 0, "fusion_lon": 0.0, "lat": 38.8954925, "name": "7a460139b58d8fc11be98fbf7c465606", "bike_id": "7a460139b58d8fc11be98fbf7c465606", "lon": -77.0091845, "fusion_lat": 0.0, "rental_uris": {"android": "https://dc.lft.to/lastmile_qr_scan", "ios": "https://dc.lft.to/lastmile_qr_scan"}, "type": "electric_scooter"}, {"is_reserved": 0, "is_disabled": 0, "fusion_lon": 0.0, "lat": 38.9174945, "name": "92e4de116a0e3cfba38dee65dc3a8da1", "bike_id": "92e4de116a0e3cfba38dee65dc3a8da1", "lon": -77.024884, "fusion_lat": 0.0, "rental_uris": {"android": "https://dc.lft.to/lastmile_qr_scan", "ios": "https://dc.lft.to/lastmile_qr_scan"}, "type": "electric_scooter"}, {"is_reserved": 0, "is_disabled": 0, "fusion_lon": 0.0, "lat": 38.919337166666665, "name": "ae61bdc4bd068a370f335539d73cd9ba", "bike_id": "ae61bdc4bd068a370f335539d73cd9ba", "lon": -77.01907066666666, "fusion_lat": 0.0, "rental_uris": {"android": "https://dc.lft.to/lastmile_qr_scan", "ios": "https://dc.lft.to/lastmile_qr_scan"}, "type": "electric_scooter"}, {"is_reserved": 0, "is_disabled": 0, "fusion_lon": 0.0, "lat": 38.908994, "name": "9f6b0559c850d076da2254d74e868ace", "bike_id": "9f6b0559c850d076da2254d74e868ace", "lon": -77.0338965, "fusion_lat": 0.0, "rental_uris": {"android": "https://dc.lft.to/lastmile_qr_scan", "ios": "https://dc.lft.to/lastmile_qr_scan"}, "type": "electric_scooter"}, {"is_reserved": 0, "is_disabled": 0, "fusion_lon": 0.0, "lat": 38.899080833333336, "name": "c0f76afac926fb9c6df185516d47b525", "bike_id": "c0f76afac926fb9c6df185516d47b525", "lon": -77.0122425, "fusion_lat": 0.0, "rental_uris": {"android": "https://dc.lft.to/lastmile_qr_scan", "ios": "https://dc.lft.to/lastmile_qr_scan"}, "type": "electric_scooter"}, {"is_reserved": 0, "is_disabled": 0, "fusion_lon": 0.0, "lat": 38.912028666666664, "name": "4a3d5b18fad9c1ad0825f4e5bb147a86", "bike_id": "4a3d5b18fad9c1ad0825f4e5bb147a86", "lon": -77.03209916666667, "fusion_lat": 0.0, "rental_uris": {"android": "https://dc.lft.to/lastmile_qr_scan", "ios": "https://dc.lft.to/lastmile_qr_scan"}, "type": "electric_scooter"}, {"is_reserved": 0, "is_disabled": 0, "fusion_lon": 0.0, "lat": 38.90593966666667, "name": "dba965bc48ff69877d6c73ed349f25f7", "bike_id": "dba965bc48ff69877d6c73ed349f25f7", "lon": -77.045117, "fusion_lat": 0.0, "rental_uris": {"android": "https://dc.lft.to/lastmile_qr_scan", "ios": "https://dc.lft.to/lastmile_qr_scan"}, "type": "electric_scooter"}, {"is_reserved": 0, "is_disabled": 0, "fusion_lon": 0.0, "lat": 38.9068275, "name": "baa80a17c209e90e46939e78985e5f0d", "bike_id": "baa80a17c209e90e46939e78985e5f0d", "lon": -77.05825, "fusion_lat": 0.0, "rental_uris": {"android": "https://dc.lft.to/lastmile_qr_scan", "ios": "https://dc.lft.to/lastmile_qr_scan"}, "type": "electric_bike"}, {"is_reserved": 0, "is_disabled": 0, "fusion_lon": 0.0, "lat": 38.89983983333333, "name": "d83d849170211a0b04e8f72dfcc8a595", "bike_id": "d83d849170211a0b04e8f72dfcc8a595", "lon": -77.044926, "fusion_lat": 0.0, "rental_uris": {"android": "https://dc.lft.to/lastmile_qr_scan", "ios": "https://dc.lft.to/lastmile_qr_scan"}, "type": "electric_scooter"}, {"is_reserved": 0, "is_disabled": 0, "fusion_lon": 0.0, "lat": 38.89502683333333, "name": "dcb1fa01798b7f1e61103c3a8d8c3f5c", "bike_id": "dcb1fa01798b7f1e61103c3a8d8c3f5c", "lon": -77.04640066666667, "fusion_lat": 0.0, "rental_uris": {"android": "https://dc.lft.to/lastmile_qr_scan", "ios": "https://dc.lft.to/lastmile_qr_scan"}, "type": "electric_scooter"}, {"is_reserved": 0, "is_disabled": 0, "fusion_lon": 0.0, "lat": 38.90734283333333, "name": "fefdb1f8db80ee3a72b6909bd5f2f366", "bike_id": "fefdb1f8db80ee3a72b6909bd5f2f366", "lon": -77.04541933333333, "fusion_lat": 0.0, "rental_uris": {"android": "https://dc.lft.to/lastmile_qr_scan", "ios": "https://dc.lft.to/lastmile_qr_scan"}, "type": "electric_scooter"}, {"is_reserved": 0, "is_disabled": 0, "fusion_lon": 0.0, "lat": 38.89229866666667, "name": "7d58ef32f83a69167a1ade4b7e3be582", "bike_id": "7d58ef32f83a69167a1ade4b7e3be582", "lon": -77.03182366666667, "fusion_lat": 0.0, "rental_uris": {"android": "https://dc.lft.to/lastmile_qr_scan", "ios": "https://dc.lft.to/lastmile_qr_scan"}, "type": "electric_scooter"}, {"is_reserved": 0, "is_disabled": 0, "fusion_lon": 0.0, "lat": 38.897377666666664, "name": "8e998f519598a9546d02df0e0100fc18", "bike_id": "8e998f519598a9546d02df0e0100fc18", "lon": -76.97580566666667, "fusion_lat": 0.0, "rental_uris": {"android": "https://dc.lft.to/lastmile_qr_scan", "ios": "https://dc.lft.to/lastmile_qr_scan"}, "type": "electric_scooter"}, {"is_reserved": 0, "is_disabled": 0, "fusion_lon": 0.0, "lat": 38.924584833333334, "name": "3d2b7bba69c1f96fa419fc24435338b4", "bike_id": "3d2b7bba69c1f96fa419fc24435338b4", "lon": -77.0338395, "fusion_lat": 0.0, "rental_uris": {"android": "https://dc.lft.to/lastmile_qr_scan", "ios": "https://dc.lft.to/lastmile_qr_scan"}, "type": "electric_scooter"}, {"is_reserved": 0, "is_disabled": 0, "fusion_lon": 0.0, "lat": 38.9180555, "name": "eacf21b1c295b68cc8e4e015a9ef138d", "bike_id": "eacf21b1c295b68cc8e4e015a9ef138d", "lon": -77.02454983333334, "fusion_lat": 0.0, "rental_uris": {"android": "https://dc.lft.to/lastmile_qr_scan", "ios": "https://dc.lft.to/lastmile_qr_scan"}, "type": "electric_scooter"}, {"is_reserved": 0, "is_disabled": 0, "fusion_lon": 0.0, "lat": 38.89904666666666, "name": "153758710b2b021619edc050914ca0ba", "bike_id": "153758710b2b021619edc050914ca0ba", "lon": -77.04028083333333, "fusion_lat": 0.0, "rental_uris": {"android": "https://dc.lft.to/lastmile_qr_scan", "ios": "https://dc.lft.to/lastmile_qr_scan"}, "type": "electric_scooter"}, {"is_reserved": 0, "is_disabled": 0, "fusion_lon": 0.0, "lat": 38.92123466666666, "name": "268924e554c999d783423c8527b857b1", "bike_id": "268924e554c999d783423c8527b857b1", "lon": -77.01036416666666, "fusion_lat": 0.0, "rental_uris": {"android": "https://dc.lft.to/lastmile_qr_scan", "ios": "https://dc.lft.to/lastmile_qr_scan"}, "type": "electric_bike"}, {"is_reserved": 0, "is_disabled": 0, "fusion_lon": 0.0, "lat": 38.941395, "name": "9243066b379ef7741d3361c1dec6c5c6", "bike_id": "9243066b379ef7741d3361c1dec6c5c6", "lon": -77.02330166666667, "fusion_lat": 0.0, "rental_uris": {"android": "https://dc.lft.to/lastmile_qr_scan", "ios": "https://dc.lft.to/lastmile_qr_scan"}, "type": "electric_scooter"}, {"is_reserved": 0, "is_disabled": 0, "fusion_lon": 0.0, "lat": 38.911115833333334, "name": "73d34b7081c658ddcef1c04056f363bc", "bike_id": "73d34b7081c658ddcef1c04056f363bc", "lon": -77.03616833333334, "fusion_lat": 0.0, "rental_uris": {"android": "https://dc.lft.to/lastmile_qr_scan", "ios": "https://dc.lft.to/lastmile_qr_scan"}, "type": "electric_scooter"}, {"is_reserved": 0, "is_disabled": 0, "fusion_lon": 0.0, "lat": 38.9223825, "name": "45623bcb1102a7ce7db9396f0635cc6b", "bike_id": "45623bcb1102a7ce7db9396f0635cc6b", "lon": -77.034632, "fusion_lat": 0.0, "rental_uris": {"android": "https://dc.lft.to/lastmile_qr_scan", "ios": "https://dc.lft.to/lastmile_qr_scan"}, "type": "electric_scooter"}, {"is_reserved": 0, "is_disabled": 0, "fusion_lon": 0.0, "lat": 38.92171583333333, "name": "7e41007a96f7ecd0dd7363f30f42187e", "bike_id": "7e41007a96f7ecd0dd7363f30f42187e", "lon": -77.01879483333333, "fusion_lat": 0.0, "rental_uris": {"android": "https://dc.lft.to/lastmile_qr_scan", "ios": "https://dc.lft.to/lastmile_qr_scan"}, "type": "electric_scooter"}, {"is_reserved": 0, "is_disabled": 0, "fusion_lon": 0.0, "lat": 38.902257, "name": "8ae81692c11189a0188a78d7ceef42a6", "bike_id": "8ae81692c11189a0188a78d7ceef42a6", "lon": -77.048058, "fusion_lat": 0.0, "rental_uris": {"android": "https://dc.lft.to/lastmile_qr_scan", "ios": "https://dc.lft.to/lastmile_qr_scan"}, "type": "electric_scooter"}, {"is_reserved": 0, "is_disabled": 0, "fusion_lon": 0.0, "lat": 38.9057355, "name": "60ad88ef7778fa56e495db47fdb8011b", "bike_id": "60ad88ef7778fa56e495db47fdb8011b", "lon": -77.022088, "fusion_lat": 0.0, "rental_uris": {"android": "https://dc.lft.to/lastmile_qr_scan", "ios": "https://dc.lft.to/lastmile_qr_scan"}, "type": "electric_scooter"}, {"is_reserved": 0, "is_disabled": 0, "fusion_lon": 0.0, "lat": 38.9136505, "name": "488bde06522b69a0f06d4fc85bc5e911", "bike_id": "488bde06522b69a0f06d4fc85bc5e911", "lon": -77.04557083333333, "fusion_lat": 0.0, "rental_uris": {"android": "https://dc.lft.to/lastmile_qr_scan", "ios": "https://dc.lft.to/lastmile_qr_scan"}, "type": "electric_scooter"}, {"is_reserved": 0, "is_disabled": 0, "fusion_lon": 0.0, "lat": 38.9403735, "name": "0e29c8c6a330f433127e51459f4dfc8c", "bike_id": "0e29c8c6a330f433127e51459f4dfc8c", "lon": -77.07749233333334, "fusion_lat": 0.0, "rental_uris": {"android": "https://dc.lft.to/lastmile_qr_scan", "ios": "https://dc.lft.to/lastmile_qr_scan"}, "type": "electric_scooter"}, {"is_reserved": 0, "is_disabled": 0, "fusion_lon": 0.0, "lat": 38.92471, "name": "4707ba34ef32643dac24cba5fc5b8577", "bike_id": "4707ba34ef32643dac24cba5fc5b8577", "lon": -77.03933583333334, "fusion_lat": 0.0, "rental_uris": {"android": "https://dc.lft.to/lastmile_qr_scan", "ios": "https://dc.lft.to/lastmile_qr_scan"}, "type": "electric_scooter"}, {"is_reserved": 0, "is_disabled": 0, "fusion_lon": 0.0, "lat": 38.940393, "name": "310d0e2e76c06bd15e27ea133fb8aff4", "bike_id": "310d0e2e76c06bd15e27ea133fb8aff4", "lon": -77.02912916666666, "fusion_lat": 0.0, "rental_uris": {"android": "https://dc.lft.to/lastmile_qr_scan", "ios": "https://dc.lft.to/lastmile_qr_scan"}, "type": "electric_scooter"}, {"is_reserved": 0, "is_disabled": 0, "fusion_lon": 0.0, "lat": 38.90675516666667, "name": "b185e7da6529b00ba9a0549e649cf54c", "bike_id": "b185e7da6529b00ba9a0549e649cf54c", "lon": -77.071821, "fusion_lat": 0.0, "rental_uris": {"android": "https://dc.lft.to/lastmile_qr_scan", "ios": "https://dc.lft.to/lastmile_qr_scan"}, "type": "electric_scooter"}, {"is_reserved": 0, "is_disabled": 0, "fusion_lon": 0.0, "lat": 38.907317, "name": "5dd5a00ad7056b13d7ee7c2f9a7ffa0b", "bike_id": "5dd5a00ad7056b13d7ee7c2f9a7ffa0b", "lon": -77.04543816666667, "fusion_lat": 0.0, "rental_uris": {"android": "https://dc.lft.to/lastmile_qr_scan", "ios": "https://dc.lft.to/lastmile_qr_scan"}, "type": "electric_scooter"}, {"is_reserved": 0, "is_disabled": 0, "fusion_lon": 0.0, "lat": 38.91969066666667, "name": "16a5cd96b39095e2570a9259026f174e", "bike_id": "16a5cd96b39095e2570a9259026f174e", "lon": -77.07119483333334, "fusion_lat": 0.0, "rental_uris": {"android": "https://dc.lft.to/lastmile_qr_scan", "ios": "https://dc.lft.to/lastmile_qr_scan"}, "type": "electric_scooter"}, {"is_reserved": 0, "is_disabled": 0, "fusion_lon": 0.0, "lat": 38.910991333333335, "name": "8ec03185880875077a9ab21ddcbaee95", "bike_id": "8ec03185880875077a9ab21ddcbaee95", "lon": -77.07353383333333, "fusion_lat": 0.0, "rental_uris": {"android": "https://dc.lft.to/lastmile_qr_scan", "ios": "https://dc.lft.to/lastmile_qr_scan"}, "type": "electric_scooter"}, {"is_reserved": 0, "is_disabled": 0, "fusion_lon": 0.0, "lat": 38.92345183333333, "name": "77e04a888a6c7514b47192203790656b", "bike_id": "77e04a888a6c7514b47192203790656b", "lon": -77.0190165, "fusion_lat": 0.0, "rental_uris": {"android": "https://dc.lft.to/lastmile_qr_scan", "ios": "https://dc.lft.to/lastmile_qr_scan"}, "type": "electric_scooter"}, {"is_reserved": 0, "is_disabled": 0, "fusion_lon": 0.0, "lat": 38.90485733333333, "name": "668e2851a9330de3cf2999e402dc19f2", "bike_id": "668e2851a9330de3cf2999e402dc19f2", "lon": -76.94958833333334, "fusion_lat": 0.0, "rental_uris": {"android": "https://dc.lft.to/lastmile_qr_scan", "ios": "https://dc.lft.to/lastmile_qr_scan"}, "type": "electric_scooter"}, {"is_reserved": 0, "is_disabled": 0, "fusion_lon": 0.0, "lat": 38.900408666666664, "name": "996355e294ee06286dd65242431f4cd5", "bike_id": "996355e294ee06286dd65242431f4cd5", "lon": -76.99037483333333, "fusion_lat": 0.0, "rental_uris": {"android": "https://dc.lft.to/lastmile_qr_scan", "ios": "https://dc.lft.to/lastmile_qr_scan"}, "type": "electric_scooter"}, {"is_reserved": 0, "is_disabled": 0, "fusion_lon": 0.0, "lat": 38.884761833333336, "name": "201afe54059573003c82d26aea4d6465", "bike_id": "201afe54059573003c82d26aea4d6465", "lon": -77.02651233333333, "fusion_lat": 0.0, "rental_uris": {"android": "https://dc.lft.to/lastmile_qr_scan", "ios": "https://dc.lft.to/lastmile_qr_scan"}, "type": "electric_scooter"}, {"is_reserved": 0, "is_disabled": 0, "fusion_lon": 0.0, "lat": 38.914043, "name": "d0c420cd3d0109b495f2636f8d71aeac", "bike_id": "d0c420cd3d0109b495f2636f8d71aeac", "lon": -77.03214266666667, "fusion_lat": 0.0, "rental_uris": {"android": "https://dc.lft.to/lastmile_qr_scan", "ios": "https://dc.lft.to/lastmile_qr_scan"}, "type": "electric_scooter"}, {"is_reserved": 0, "is_disabled": 0, "fusion_lon": 0.0, "lat": 38.9039, "name": "bbd69f2e57cc9d54b780a4ac71e28caf", "bike_id": "bbd69f2e57cc9d54b780a4ac71e28caf", "lon": -77.01851066666667, "fusion_lat": 0.0, "rental_uris": {"android": "https://dc.lft.to/lastmile_qr_scan", "ios": "https://dc.lft.to/lastmile_qr_scan"}, "type": "electric_scooter"}, {"is_reserved": 0, "is_disabled": 0, "fusion_lon": 0.0, "lat": 38.92059166666667, "name": "f8762a5564d128963a19e01d9cfa2e10", "bike_id": "f8762a5564d128963a19e01d9cfa2e10", "lon": -77.0440105, "fusion_lat": 0.0, "rental_uris": {"android": "https://dc.lft.to/lastmile_qr_scan", "ios": "https://dc.lft.to/lastmile_qr_scan"}, "type": "electric_scooter"}, {"is_reserved": 0, "is_disabled": 0, "fusion_lon": 0.0, "lat": 38.91267666666667, "name": "ff68ff3e9277680741c83504f5e28777", "bike_id": "ff68ff3e9277680741c83504f5e28777", "lon": -77.03270983333333, "fusion_lat": 0.0, "rental_uris": {"android": "https://dc.lft.to/lastmile_qr_scan", "ios": "https://dc.lft.to/lastmile_qr_scan"}, "type": "electric_scooter"}, {"is_reserved": 0, "is_disabled": 0, "fusion_lon": 0.0, "lat": 38.92416333333333, "name": "63742527f68795ed63a82aa6ddc16b6e", "bike_id": "63742527f68795ed63a82aa6ddc16b6e", "lon": -77.020092, "fusion_lat": 0.0, "rental_uris": {"android": "https://dc.lft.to/lastmile_qr_scan", "ios": "https://dc.lft.to/lastmile_qr_scan"}, "type": "electric_scooter"}, {"is_reserved": 0, "is_disabled": 0, "fusion_lon": 0.0, "lat": 38.9952325, "name": "cb486baf5fb9ae67c8fd38202c381dc6", "bike_id": "cb486baf5fb9ae67c8fd38202c381dc6", "lon": -77.02890633333334, "fusion_lat": 0.0, "rental_uris": {"android": "https://dc.lft.to/lastmile_qr_scan", "ios": "https://dc.lft.to/lastmile_qr_scan"}, "type": "electric_bike"}, {"is_reserved": 0, "is_disabled": 0, "fusion_lon": 0.0, "lat": 38.90849, "name": "de51f9b2fdde22401ffefca8e0cc0796", "bike_id": "de51f9b2fdde22401ffefca8e0cc0796", "lon": -76.9980285, "fusion_lat": 0.0, "rental_uris": {"android": "https://dc.lft.to/lastmile_qr_scan", "ios": "https://dc.lft.to/lastmile_qr_scan"}, "type": "electric_scooter"}, {"is_reserved": 0, "is_disabled": 0, "fusion_lon": 0.0, "lat": 38.897371166666666, "name": "980a10f40480b22f21ba04c42e782487", "bike_id": "980a10f40480b22f21ba04c42e782487", "lon": -77.0322365, "fusion_lat": 0.0, "rental_uris": {"android": "https://dc.lft.to/lastmile_qr_scan", "ios": "https://dc.lft.to/lastmile_qr_scan"}, "type": "electric_scooter"}, {"is_reserved": 0, "is_disabled": 0, "fusion_lon": 0.0, "lat": 38.896086833333335, "name": "c6ffeebf08ae3c1c90b7e1880a2d63c7", "bike_id": "c6ffeebf08ae3c1c90b7e1880a2d63c7", "lon": -76.9724655, "fusion_lat": 0.0, "rental_uris": {"android": "https://dc.lft.to/lastmile_qr_scan", "ios": "https://dc.lft.to/lastmile_qr_scan"}, "type": "electric_scooter"}, {"is_reserved": 0, "is_disabled": 0, "fusion_lon": 0.0, "lat": 38.922840666666666, "name": "9c3d29f1db13c9d6c3219e8df4375810", "bike_id": "9c3d29f1db13c9d6c3219e8df4375810", "lon": -77.03660133333334, "fusion_lat": 0.0, "rental_uris": {"android": "https://dc.lft.to/lastmile_qr_scan", "ios": "https://dc.lft.to/lastmile_qr_scan"}, "type": "electric_scooter"}, {"is_reserved": 0, "is_disabled": 0, "fusion_lon": 0.0, "lat": 38.892235666666664, "name": "bb0c4dde60e1f8e4ccadbad7143c9a5f", "bike_id": "bb0c4dde60e1f8e4ccadbad7143c9a5f", "lon": -77.02748316666667, "fusion_lat": 0.0, "rental_uris": {"android": "https://dc.lft.to/lastmile_qr_scan", "ios": "https://dc.lft.to/lastmile_qr_scan"}, "type": "electric_scooter"}, {"is_reserved": 0, "is_disabled": 0, "fusion_lon": 0.0, "lat": 38.9079065, "name": "d739914ef84e1e747c1dd1fd68759033", "bike_id": "d739914ef84e1e747c1dd1fd68759033", "lon": -77.0319385, "fusion_lat": 0.0, "rental_uris": {"android": "https://dc.lft.to/lastmile_qr_scan", "ios": "https://dc.lft.to/lastmile_qr_scan"}, "type": "electric_scooter"}, {"is_reserved": 0, "is_disabled": 0, "fusion_lon": 0.0, "lat": 38.899893166666665, "name": "3d77b68073676f0f97d16977fdac144f", "bike_id": "3d77b68073676f0f97d16977fdac144f", "lon": -77.04823366666666, "fusion_lat": 0.0, "rental_uris": {"android": "https://dc.lft.to/lastmile_qr_scan", "ios": "https://dc.lft.to/lastmile_qr_scan"}, "type": "electric_scooter"}, {"is_reserved": 0, "is_disabled": 0, "fusion_lon": 0.0, "lat": 38.916302, "name": "12b09697cbb1ad22fa402b1016e7ae95", "bike_id": "12b09697cbb1ad22fa402b1016e7ae95", "lon": -77.04620783333333, "fusion_lat": 0.0, "rental_uris": {"android": "https://dc.lft.to/lastmile_qr_scan", "ios": "https://dc.lft.to/lastmile_qr_scan"}, "type": "electric_scooter"}, {"is_reserved": 0, "is_disabled": 0, "fusion_lon": 0.0, "lat": 38.922959666666664, "name": "e7b1ad80ce0c9c263a76ff7787f31c39", "bike_id": "e7b1ad80ce0c9c263a76ff7787f31c39", "lon": -77.0195055, "fusion_lat": 0.0, "rental_uris": {"android": "https://dc.lft.to/lastmile_qr_scan", "ios": "https://dc.lft.to/lastmile_qr_scan"}, "type": "electric_scooter"}, {"is_reserved": 0, "is_disabled": 0, "fusion_lon": 0.0, "lat": 38.908761, "name": "5cd118ee262919d7ee93a8ac84cb8b25", "bike_id": "5cd118ee262919d7ee93a8ac84cb8b25", "lon": -77.02590066666667, "fusion_lat": 0.0, "rental_uris": {"android": "https://dc.lft.to/lastmile_qr_scan", "ios": "https://dc.lft.to/lastmile_qr_scan"}, "type": "electric_scooter"}, {"is_reserved": 0, "is_disabled": 0, "fusion_lon": 0.0, "lat": 38.91097366666666, "name": "e622d6148239648790a3583742815ad7", "bike_id": "e622d6148239648790a3583742815ad7", "lon": -77.028008, "fusion_lat": 0.0, "rental_uris": {"android": "https://dc.lft.to/lastmile_qr_scan", "ios": "https://dc.lft.to/lastmile_qr_scan"}, "type": "electric_scooter"}, {"is_reserved": 0, "is_disabled": 0, "fusion_lon": 0.0, "lat": 38.924658666666666, "name": "71fd1597248467f19160389a325ef245", "bike_id": "71fd1597248467f19160389a325ef245", "lon": -77.02251516666666, "fusion_lat": 0.0, "rental_uris": {"android": "https://dc.lft.to/lastmile_qr_scan", "ios": "https://dc.lft.to/lastmile_qr_scan"}, "type": "electric_scooter"}, {"is_reserved": 0, "is_disabled": 0, "fusion_lon": 0.0, "lat": 38.95308583333333, "name": "ed2b4dc77e67152a48980c6a340383e7", "bike_id": "ed2b4dc77e67152a48980c6a340383e7", "lon": -76.9818195, "fusion_lat": 0.0, "rental_uris": {"android": "https://dc.lft.to/lastmile_qr_scan", "ios": "https://dc.lft.to/lastmile_qr_scan"}, "type": "electric_bike"}, {"is_reserved": 0, "is_disabled": 0, "fusion_lon": 0.0, "lat": 38.92005566666667, "name": "b1886a8822520e8c2eb435500709c838", "bike_id": "b1886a8822520e8c2eb435500709c838", "lon": -77.0316715, "fusion_lat": 0.0, "rental_uris": {"android": "https://dc.lft.to/lastmile_qr_scan", "ios": "https://dc.lft.to/lastmile_qr_scan"}, "type": "electric_scooter"}, {"is_reserved": 0, "is_disabled": 0, "fusion_lon": 0.0, "lat": 38.92135733333333, "name": "327e067256d07ab580c030114e85db41", "bike_id": "327e067256d07ab580c030114e85db41", "lon": -77.01794416666667, "fusion_lat": 0.0, "rental_uris": {"android": "https://dc.lft.to/lastmile_qr_scan", "ios": "https://dc.lft.to/lastmile_qr_scan"}, "type": "electric_scooter"}, {"is_reserved": 0, "is_disabled": 0, "fusion_lon": 0.0, "lat": 38.90384483333333, "name": "eaeb817ea8efb18f0940d24834348d62", "bike_id": "eaeb817ea8efb18f0940d24834348d62", "lon": -77.05334616666667, "fusion_lat": 0.0, "rental_uris": {"android": "https://dc.lft.to/lastmile_qr_scan", "ios": "https://dc.lft.to/lastmile_qr_scan"}, "type": "electric_scooter"}, {"is_reserved": 0, "is_disabled": 0, "fusion_lon": 0.0, "lat": 38.91832983333333, "name": "7830e5fe4426e705aa8f1de9c2c19bb6", "bike_id": "7830e5fe4426e705aa8f1de9c2c19bb6", "lon": -77.05319816666666, "fusion_lat": 0.0, "rental_uris": {"android": "https://dc.lft.to/lastmile_qr_scan", "ios": "https://dc.lft.to/lastmile_qr_scan"}, "type": "electric_scooter"}, {"is_reserved": 0, "is_disabled": 0, "fusion_lon": 0.0, "lat": 38.92391633333333, "name": "15891ff30b3fe27cb7dd4ff5ca5481ec", "bike_id": "15891ff30b3fe27cb7dd4ff5ca5481ec", "lon": -77.02261166666666, "fusion_lat": 0.0, "rental_uris": {"android": "https://dc.lft.to/lastmile_qr_scan", "ios": "https://dc.lft.to/lastmile_qr_scan"}, "type": "electric_scooter"}, {"is_reserved": 0, "is_disabled": 0, "fusion_lon": 0.0, "lat": 38.87777916666667, "name": "f113b0c73c62b5c43c24dc83581efd3c", "bike_id": "f113b0c73c62b5c43c24dc83581efd3c", "lon": -77.0021015, "fusion_lat": 0.0, "rental_uris": {"android": "https://dc.lft.to/lastmile_qr_scan", "ios": "https://dc.lft.to/lastmile_qr_scan"}, "type": "electric_scooter"}, {"is_reserved": 0, "is_disabled": 0, "fusion_lon": 0.0, "lat": 38.897576, "name": "fb62e05fc7dcdade077e51119cbb0194", "bike_id": "fb62e05fc7dcdade077e51119cbb0194", "lon": -77.00953633333333, "fusion_lat": 0.0, "rental_uris": {"android": "https://dc.lft.to/lastmile_qr_scan", "ios": "https://dc.lft.to/lastmile_qr_scan"}, "type": "electric_scooter"}, {"is_reserved": 0, "is_disabled": 0, "fusion_lon": 0.0, "lat": 38.902681333333334, "name": "0d73a1af2c2c73d9aa49dc865784fdba", "bike_id": "0d73a1af2c2c73d9aa49dc865784fdba", "lon": -77.04440683333333, "fusion_lat": 0.0, "rental_uris": {"android": "https://dc.lft.to/lastmile_qr_scan", "ios": "https://dc.lft.to/lastmile_qr_scan"}, "type": "electric_scooter"}, {"is_reserved": 0, "is_disabled": 0, "fusion_lon": 0.0, "lat": 38.928635666666665, "name": "28624469aba3c39b138dcb85adcb3601", "bike_id": "28624469aba3c39b138dcb85adcb3601", "lon": -77.0371275, "fusion_lat": 0.0, "rental_uris": {"android": "https://dc.lft.to/lastmile_qr_scan", "ios": "https://dc.lft.to/lastmile_qr_scan"}, "type": "electric_scooter"}, {"is_reserved": 0, "is_disabled": 0, "fusion_lon": 0.0, "lat": 38.9086335, "name": "07f94186ba410ab0960ae0bd6ee83c0a", "bike_id": "07f94186ba410ab0960ae0bd6ee83c0a", "lon": -77.0807095, "fusion_lat": 0.0, "rental_uris": {"android": "https://dc.lft.to/lastmile_qr_scan", "ios": "https://dc.lft.to/lastmile_qr_scan"}, "type": "electric_bike"}, {"is_reserved": 0, "is_disabled": 0, "fusion_lon": 0.0, "lat": 38.901371166666664, "name": "08189f0ad4444a8532990a410d673fff", "bike_id": "08189f0ad4444a8532990a410d673fff", "lon": -77.04036766666667, "fusion_lat": 0.0, "rental_uris": {"android": "https://dc.lft.to/lastmile_qr_scan", "ios": "https://dc.lft.to/lastmile_qr_scan"}, "type": "electric_scooter"}, {"is_reserved": 0, "is_disabled": 0, "fusion_lon": 0.0, "lat": 38.91543, "name": "5ce9ad4a75a27f31f0ef1cc970802593", "bike_id": "5ce9ad4a75a27f31f0ef1cc970802593", "lon": -77.03184683333333, "fusion_lat": 0.0, "rental_uris": {"android": "https://dc.lft.to/lastmile_qr_scan", "ios": "https://dc.lft.to/lastmile_qr_scan"}, "type": "electric_scooter"}, {"is_reserved": 0, "is_disabled": 0, "fusion_lon": 0.0, "lat": 38.93399816666667, "name": "a562302836da57fc636280596e3c526f", "bike_id": "a562302836da57fc636280596e3c526f", "lon": -77.04139866666667, "fusion_lat": 0.0, "rental_uris": {"android": "https://dc.lft.to/lastmile_qr_scan", "ios": "https://dc.lft.to/lastmile_qr_scan"}, "type": "electric_scooter"}, {"is_reserved": 0, "is_disabled": 0, "fusion_lon": 0.0, "lat": 38.9001365, "name": "fb4568c9cd3cf424baf7407647100b7d", "bike_id": "fb4568c9cd3cf424baf7407647100b7d", "lon": -76.99740866666667, "fusion_lat": 0.0, "rental_uris": {"android": "https://dc.lft.to/lastmile_qr_scan", "ios": "https://dc.lft.to/lastmile_qr_scan"}, "type": "electric_bike"}, {"is_reserved": 0, "is_disabled": 0, "fusion_lon": 0.0, "lat": 38.88506833333334, "name": "6ca502d71691c2bf8f4adc3b9c16953b", "bike_id": "6ca502d71691c2bf8f4adc3b9c16953b", "lon": -77.0147035, "fusion_lat": 0.0, "rental_uris": {"android": "https://dc.lft.to/lastmile_qr_scan", "ios": "https://dc.lft.to/lastmile_qr_scan"}, "type": "electric_scooter"}, {"is_reserved": 0, "is_disabled": 0, "fusion_lon": 0.0, "lat": 38.91878716666667, "name": "f217c6e596aae2006af14fb5f2cc0276", "bike_id": "f217c6e596aae2006af14fb5f2cc0276", "lon": -77.04316, "fusion_lat": 0.0, "rental_uris": {"android": "https://dc.lft.to/lastmile_qr_scan", "ios": "https://dc.lft.to/lastmile_qr_scan"}, "type": "electric_scooter"}, {"is_reserved": 0, "is_disabled": 0, "fusion_lon": 0.0, "lat": 38.9156285, "name": "bbd7c4fb40db59e85ccbf89cf307fc9b", "bike_id": "bbd7c4fb40db59e85ccbf89cf307fc9b", "lon": -77.03225116666667, "fusion_lat": 0.0, "rental_uris": {"android": "https://dc.lft.to/lastmile_qr_scan", "ios": "https://dc.lft.to/lastmile_qr_scan"}, "type": "electric_scooter"}, {"is_reserved": 0, "is_disabled": 0, "fusion_lon": 0.0, "lat": 38.92044166666667, "name": "b0395c4bfbdc1cfd39ccd36d6fbd914e", "bike_id": "b0395c4bfbdc1cfd39ccd36d6fbd914e", "lon": -77.0168255, "fusion_lat": 0.0, "rental_uris": {"android": "https://dc.lft.to/lastmile_qr_scan", "ios": "https://dc.lft.to/lastmile_qr_scan"}, "type": "electric_scooter"}, {"is_reserved": 0, "is_disabled": 0, "fusion_lon": 0.0, "lat": 38.871778, "name": "bd3aa2a48f96db4999ccae1ef4654af2", "bike_id": "bd3aa2a48f96db4999ccae1ef4654af2", "lon": -77.00661116666667, "fusion_lat": 0.0, "rental_uris": {"android": "https://dc.lft.to/lastmile_qr_scan", "ios": "https://dc.lft.to/lastmile_qr_scan"}, "type": "electric_scooter"}, {"is_reserved": 0, "is_disabled": 0, "fusion_lon": 0.0, "lat": 38.906996, "name": "aaca9bad5853aea287eaeec738c453bd", "bike_id": "aaca9bad5853aea287eaeec738c453bd", "lon": -76.98697066666666, "fusion_lat": 0.0, "rental_uris": {"android": "https://dc.lft.to/lastmile_qr_scan", "ios": "https://dc.lft.to/lastmile_qr_scan"}, "type": "electric_scooter"}, {"is_reserved": 0, "is_disabled": 0, "fusion_lon": 0.0, "lat": 38.874666500000004, "name": "673ff1579ed8dc892e105416c362038d", "bike_id": "673ff1579ed8dc892e105416c362038d", "lon": -77.00509483333333, "fusion_lat": 0.0, "rental_uris": {"android": "https://dc.lft.to/lastmile_qr_scan", "ios": "https://dc.lft.to/lastmile_qr_scan"}, "type": "electric_scooter"}, {"is_reserved": 0, "is_disabled": 0, "fusion_lon": 0.0, "lat": 38.926865166666666, "name": "c8fd2e06fb6e5863c3107ea94cd2d6c1", "bike_id": "c8fd2e06fb6e5863c3107ea94cd2d6c1", "lon": -77.02966333333333, "fusion_lat": 0.0, "rental_uris": {"android": "https://dc.lft.to/lastmile_qr_scan", "ios": "https://dc.lft.to/lastmile_qr_scan"}, "type": "electric_scooter"}, {"is_reserved": 0, "is_disabled": 0, "fusion_lon": 0.0, "lat": 38.926638833333335, "name": "ae3a1ebfe331b104005e965470ccb584", "bike_id": "ae3a1ebfe331b104005e965470ccb584", "lon": -77.01469933333334, "fusion_lat": 0.0, "rental_uris": {"android": "https://dc.lft.to/lastmile_qr_scan", "ios": "https://dc.lft.to/lastmile_qr_scan"}, "type": "electric_scooter"}, {"is_reserved": 0, "is_disabled": 0, "fusion_lon": 0.0, "lat": 38.8972705, "name": "55f36f7cce56b4dd26f809bf58cc1e7c", "bike_id": "55f36f7cce56b4dd26f809bf58cc1e7c", "lon": -77.05523633333334, "fusion_lat": 0.0, "rental_uris": {"android": "https://dc.lft.to/lastmile_qr_scan", "ios": "https://dc.lft.to/lastmile_qr_scan"}, "type": "electric_scooter"}, {"is_reserved": 0, "is_disabled": 0, "fusion_lon": 0.0, "lat": 38.96407683333334, "name": "3e87246440956bbf5007817a79ec0d1d", "bike_id": "3e87246440956bbf5007817a79ec0d1d", "lon": -77.03285233333334, "fusion_lat": 0.0, "rental_uris": {"android": "https://dc.lft.to/lastmile_qr_scan", "ios": "https://dc.lft.to/lastmile_qr_scan"}, "type": "electric_scooter"}, {"is_reserved": 0, "is_disabled": 0, "fusion_lon": 0.0, "lat": 38.87066216666667, "name": "bfd73ac1f42fa35ede6ae6aa8cf187b8", "bike_id": "bfd73ac1f42fa35ede6ae6aa8cf187b8", "lon": -77.1103105, "fusion_lat": 0.0, "rental_uris": {"android": "https://dc.lft.to/lastmile_qr_scan", "ios": "https://dc.lft.to/lastmile_qr_scan"}, "type": "electric_bike"}, {"is_reserved": 0, "is_disabled": 0, "fusion_lon": 0.0, "lat": 38.917172, "name": "4f87125c1db05cdc8d250b527287b646", "bike_id": "4f87125c1db05cdc8d250b527287b646", "lon": -77.03349533333333, "fusion_lat": 0.0, "rental_uris": {"android": "https://dc.lft.to/lastmile_qr_scan", "ios": "https://dc.lft.to/lastmile_qr_scan"}, "type": "electric_scooter"}, {"is_reserved": 0, "is_disabled": 0, "fusion_lon": 0.0, "lat": 38.89670516666666, "name": "1b8839029d3730014af00b8ed999e765", "bike_id": "1b8839029d3730014af00b8ed999e765", "lon": -76.93210283333333, "fusion_lat": 0.0, "rental_uris": {"android": "https://dc.lft.to/lastmile_qr_scan", "ios": "https://dc.lft.to/lastmile_qr_scan"}, "type": "electric_scooter"}, {"is_reserved": 0, "is_disabled": 0, "fusion_lon": 0.0, "lat": 38.8845725, "name": "7d5fc3dbd66668083a37e5d8067311ca", "bike_id": "7d5fc3dbd66668083a37e5d8067311ca", "lon": -76.92620633333334, "fusion_lat": 0.0, "rental_uris": {"android": "https://dc.lft.to/lastmile_qr_scan", "ios": "https://dc.lft.to/lastmile_qr_scan"}, "type": "electric_scooter"}, {"is_reserved": 0, "is_disabled": 0, "fusion_lon": 0.0, "lat": 38.92105883333333, "name": "dc8464d4a1e6f04561db5cd23b57ad0a", "bike_id": "dc8464d4a1e6f04561db5cd23b57ad0a", "lon": -77.0439465, "fusion_lat": 0.0, "rental_uris": {"android": "https://dc.lft.to/lastmile_qr_scan", "ios": "https://dc.lft.to/lastmile_qr_scan"}, "type": "electric_scooter"}, {"is_reserved": 0, "is_disabled": 0, "fusion_lon": 0.0, "lat": 38.9018585, "name": "df91dca4cc7bda81d2a869a2ab9cb7e7", "bike_id": "df91dca4cc7bda81d2a869a2ab9cb7e7", "lon": -77.01251333333333, "fusion_lat": 0.0, "rental_uris": {"android": "https://dc.lft.to/lastmile_qr_scan", "ios": "https://dc.lft.to/lastmile_qr_scan"}, "type": "electric_scooter"}, {"is_reserved": 0, "is_disabled": 0, "fusion_lon": 0.0, "lat": 38.8904365, "name": "bcfc23d40dd212250dac4b9a35427975", "bike_id": "bcfc23d40dd212250dac4b9a35427975", "lon": -76.9376205, "fusion_lat": 0.0, "rental_uris": {"android": "https://dc.lft.to/lastmile_qr_scan", "ios": "https://dc.lft.to/lastmile_qr_scan"}, "type": "electric_scooter"}, {"is_reserved": 0, "is_disabled": 0, "fusion_lon": 0.0, "lat": 38.892470833333334, "name": "a0bb91c8669bb4731be5461fc6302c01", "bike_id": "a0bb91c8669bb4731be5461fc6302c01", "lon": -77.03189916666666, "fusion_lat": 0.0, "rental_uris": {"android": "https://dc.lft.to/lastmile_qr_scan", "ios": "https://dc.lft.to/lastmile_qr_scan"}, "type": "electric_scooter"}, {"is_reserved": 0, "is_disabled": 0, "fusion_lon": 0.0, "lat": 38.9010955, "name": "dd2297e806af9a4986b58acb4f33c6fb", "bike_id": "dd2297e806af9a4986b58acb4f33c6fb", "lon": -77.018223, "fusion_lat": 0.0, "rental_uris": {"android": "https://dc.lft.to/lastmile_qr_scan", "ios": "https://dc.lft.to/lastmile_qr_scan"}, "type": "electric_scooter"}, {"is_reserved": 0, "is_disabled": 0, "fusion_lon": 0.0, "lat": 38.9028175, "name": "4449d872ec845b391195505e0ebec274", "bike_id": "4449d872ec845b391195505e0ebec274", "lon": -77.02281116666667, "fusion_lat": 0.0, "rental_uris": {"android": "https://dc.lft.to/lastmile_qr_scan", "ios": "https://dc.lft.to/lastmile_qr_scan"}, "type": "electric_scooter"}, {"is_reserved": 0, "is_disabled": 0, "fusion_lon": 0.0, "lat": 38.849606666666666, "name": "52b783aee1634314099fe42733a40cdc", "bike_id": "52b783aee1634314099fe42733a40cdc", "lon": -77.08933616666667, "fusion_lat": 0.0, "rental_uris": {"android": "https://dc.lft.to/lastmile_qr_scan", "ios": "https://dc.lft.to/lastmile_qr_scan"}, "type": "electric_bike"}, {"is_reserved": 0, "is_disabled": 0, "fusion_lon": 0.0, "lat": 38.92320616666667, "name": "33fd75986d9557fd842e8af2d2ffc59e", "bike_id": "33fd75986d9557fd842e8af2d2ffc59e", "lon": -77.04458783333334, "fusion_lat": 0.0, "rental_uris": {"android": "https://dc.lft.to/lastmile_qr_scan", "ios": "https://dc.lft.to/lastmile_qr_scan"}, "type": "electric_scooter"}, {"is_reserved": 0, "is_disabled": 0, "fusion_lon": 0.0, "lat": 38.92655666666667, "name": "1ef9b01fd9ab77f47caeadf07e06fc84", "bike_id": "1ef9b01fd9ab77f47caeadf07e06fc84", "lon": -77.09023216666667, "fusion_lat": 0.0, "rental_uris": {"android": "https://dc.lft.to/lastmile_qr_scan", "ios": "https://dc.lft.to/lastmile_qr_scan"}, "type": "electric_bike"}, {"is_reserved": 0, "is_disabled": 0, "fusion_lon": 0.0, "lat": 38.91380266666667, "name": "fb79edb31cd8a514c8a905a9057ff313", "bike_id": "fb79edb31cd8a514c8a905a9057ff313", "lon": -77.04172, "fusion_lat": 0.0, "rental_uris": {"android": "https://dc.lft.to/lastmile_qr_scan", "ios": "https://dc.lft.to/lastmile_qr_scan"}, "type": "electric_scooter"}, {"is_reserved": 0, "is_disabled": 0, "fusion_lon": 0.0, "lat": 38.88772433333333, "name": "dcb039dd4b1d44945612a5216d7b2994", "bike_id": "dcb039dd4b1d44945612a5216d7b2994", "lon": -76.93265016666666, "fusion_lat": 0.0, "rental_uris": {"android": "https://dc.lft.to/lastmile_qr_scan", "ios": "https://dc.lft.to/lastmile_qr_scan"}, "type": "electric_scooter"}, {"is_reserved": 0, "is_disabled": 0, "fusion_lon": 0.0, "lat": 38.914877833333335, "name": "7855d589a32ac9aed71d23e46c7480ca", "bike_id": "7855d589a32ac9aed71d23e46c7480ca", "lon": -77.00216316666666, "fusion_lat": 0.0, "rental_uris": {"android": "https://dc.lft.to/lastmile_qr_scan", "ios": "https://dc.lft.to/lastmile_qr_scan"}, "type": "electric_scooter"}, {"is_reserved": 0, "is_disabled": 0, "fusion_lon": 0.0, "lat": 38.924701666666664, "name": "7be2cdb018ade035f21edda30a2c2de9", "bike_id": "7be2cdb018ade035f21edda30a2c2de9", "lon": -77.02223366666666, "fusion_lat": 0.0, "rental_uris": {"android": "https://dc.lft.to/lastmile_qr_scan", "ios": "https://dc.lft.to/lastmile_qr_scan"}, "type": "electric_scooter"}, {"is_reserved": 0, "is_disabled": 0, "fusion_lon": 0.0, "lat": 38.922411333333336, "name": "5920ff6c461cdcfafaaa21e9d9360b72", "bike_id": "5920ff6c461cdcfafaaa21e9d9360b72", "lon": -77.031463, "fusion_lat": 0.0, "rental_uris": {"android": "https://dc.lft.to/lastmile_qr_scan", "ios": "https://dc.lft.to/lastmile_qr_scan"}, "type": "electric_scooter"}, {"is_reserved": 0, "is_disabled": 0, "fusion_lon": 0.0, "lat": 38.91661633333333, "name": "67fd0984d95c0fbad1371957ebd84d0c", "bike_id": "67fd0984d95c0fbad1371957ebd84d0c", "lon": -77.038512, "fusion_lat": 0.0, "rental_uris": {"android": "https://dc.lft.to/lastmile_qr_scan", "ios": "https://dc.lft.to/lastmile_qr_scan"}, "type": "electric_scooter"}, {"is_reserved": 0, "is_disabled": 0, "fusion_lon": 0.0, "lat": 38.928491666666666, "name": "40840aed2fd44dfeffc64f66cf32b3d7", "bike_id": "40840aed2fd44dfeffc64f66cf32b3d7", "lon": -77.036109, "fusion_lat": 0.0, "rental_uris": {"android": "https://dc.lft.to/lastmile_qr_scan", "ios": "https://dc.lft.to/lastmile_qr_scan"}, "type": "electric_scooter"}, {"is_reserved": 0, "is_disabled": 0, "fusion_lon": 0.0, "lat": 38.92759933333333, "name": "f37b00993c5b6a566caa8a7c6b16995f", "bike_id": "f37b00993c5b6a566caa8a7c6b16995f", "lon": -77.03211633333333, "fusion_lat": 0.0, "rental_uris": {"android": "https://dc.lft.to/lastmile_qr_scan", "ios": "https://dc.lft.to/lastmile_qr_scan"}, "type": "electric_scooter"}, {"is_reserved": 0, "is_disabled": 0, "fusion_lon": 0.0, "lat": 38.9059685, "name": "093279b3efaaf3ad5993c4d92e2030e8", "bike_id": "093279b3efaaf3ad5993c4d92e2030e8", "lon": -77.07007983333334, "fusion_lat": 0.0, "rental_uris": {"android": "https://dc.lft.to/lastmile_qr_scan", "ios": "https://dc.lft.to/lastmile_qr_scan"}, "type": "electric_scooter"}, {"is_reserved": 0, "is_disabled": 0, "fusion_lon": 0.0, "lat": 38.924397166666665, "name": "2132ba56d4bd14182fca8106089b3341", "bike_id": "2132ba56d4bd14182fca8106089b3341", "lon": -77.0202375, "fusion_lat": 0.0, "rental_uris": {"android": "https://dc.lft.to/lastmile_qr_scan", "ios": "https://dc.lft.to/lastmile_qr_scan"}, "type": "electric_scooter"}, {"is_reserved": 0, "is_disabled": 0, "fusion_lon": 0.0, "lat": 38.89478916666667, "name": "c6e71b88e43482a03671bf009c8f4f10", "bike_id": "c6e71b88e43482a03671bf009c8f4f10", "lon": -77.02111083333334, "fusion_lat": 0.0, "rental_uris": {"android": "https://dc.lft.to/lastmile_qr_scan", "ios": "https://dc.lft.to/lastmile_qr_scan"}, "type": "electric_scooter"}, {"is_reserved": 0, "is_disabled": 0, "fusion_lon": 0.0, "lat": 38.9155565, "name": "3586cffd7d94990c7dabf50a063996ee", "bike_id": "3586cffd7d94990c7dabf50a063996ee", "lon": -77.0321735, "fusion_lat": 0.0, "rental_uris": {"android": "https://dc.lft.to/lastmile_qr_scan", "ios": "https://dc.lft.to/lastmile_qr_scan"}, "type": "electric_scooter"}, {"is_reserved": 0, "is_disabled": 0, "fusion_lon": 0.0, "lat": 38.92351216666667, "name": "6da31ae8f8784a786e94401c8ba6a132", "bike_id": "6da31ae8f8784a786e94401c8ba6a132", "lon": -77.0434605, "fusion_lat": 0.0, "rental_uris": {"android": "https://dc.lft.to/lastmile_qr_scan", "ios": "https://dc.lft.to/lastmile_qr_scan"}, "type": "electric_scooter"}, {"is_reserved": 0, "is_disabled": 0, "fusion_lon": 0.0, "lat": 38.940981666666666, "name": "b5a935db300052520b55a329a471437c", "bike_id": "b5a935db300052520b55a329a471437c", "lon": -77.02980233333334, "fusion_lat": 0.0, "rental_uris": {"android": "https://dc.lft.to/lastmile_qr_scan", "ios": "https://dc.lft.to/lastmile_qr_scan"}, "type": "electric_scooter"}, {"is_reserved": 0, "is_disabled": 0, "fusion_lon": 0.0, "lat": 38.905804, "name": "7d420300148b8d6ea74ca1104d2694f6", "bike_id": "7d420300148b8d6ea74ca1104d2694f6", "lon": -77.07022233333333, "fusion_lat": 0.0, "rental_uris": {"android": "https://dc.lft.to/lastmile_qr_scan", "ios": "https://dc.lft.to/lastmile_qr_scan"}, "type": "electric_scooter"}, {"is_reserved": 0, "is_disabled": 0, "fusion_lon": 0.0, "lat": 38.900364833333335, "name": "6495445db56a17213e445648d82f6dfe", "bike_id": "6495445db56a17213e445648d82f6dfe", "lon": -76.98821816666667, "fusion_lat": 0.0, "rental_uris": {"android": "https://dc.lft.to/lastmile_qr_scan", "ios": "https://dc.lft.to/lastmile_qr_scan"}, "type": "electric_scooter"}, {"is_reserved": 0, "is_disabled": 0, "fusion_lon": 0.0, "lat": 38.9226665, "name": "e401b9ef6b07d517d7d72020e8efe466", "bike_id": "e401b9ef6b07d517d7d72020e8efe466", "lon": -77.01851733333334, "fusion_lat": 0.0, "rental_uris": {"android": "https://dc.lft.to/lastmile_qr_scan", "ios": "https://dc.lft.to/lastmile_qr_scan"}, "type": "electric_scooter"}, {"is_reserved": 0, "is_disabled": 0, "fusion_lon": 0.0, "lat": 38.89221533333333, "name": "abccdba9c9e95b72e0c9d5480987d941", "bike_id": "abccdba9c9e95b72e0c9d5480987d941", "lon": -77.03130733333333, "fusion_lat": 0.0, "rental_uris": {"android": "https://dc.lft.to/lastmile_qr_scan", "ios": "https://dc.lft.to/lastmile_qr_scan"}, "type": "electric_scooter"}, {"is_reserved": 0, "is_disabled": 0, "fusion_lon": 0.0, "lat": 38.8812425, "name": "6a98b3c565a15e53901ce9392470157e", "bike_id": "6a98b3c565a15e53901ce9392470157e", "lon": -77.00452683333333, "fusion_lat": 0.0, "rental_uris": {"android": "https://dc.lft.to/lastmile_qr_scan", "ios": "https://dc.lft.to/lastmile_qr_scan"}, "type": "electric_scooter"}, {"is_reserved": 0, "is_disabled": 0, "fusion_lon": 0.0, "lat": 38.947305166666666, "name": "f169ea39f737ef4de5de382ea2663646", "bike_id": "f169ea39f737ef4de5de382ea2663646", "lon": -77.065484, "fusion_lat": 0.0, "rental_uris": {"android": "https://dc.lft.to/lastmile_qr_scan", "ios": "https://dc.lft.to/lastmile_qr_scan"}, "type": "electric_scooter"}, {"is_reserved": 0, "is_disabled": 0, "fusion_lon": 0.0, "lat": 38.905528, "name": "b84b3f7348f18e5a8b561efb588dc8fd", "bike_id": "b84b3f7348f18e5a8b561efb588dc8fd", "lon": -77.03972533333334, "fusion_lat": 0.0, "rental_uris": {"android": "https://dc.lft.to/lastmile_qr_scan", "ios": "https://dc.lft.to/lastmile_qr_scan"}, "type": "electric_scooter"}, {"is_reserved": 0, "is_disabled": 0, "fusion_lon": 0.0, "lat": 38.9262595, "name": "68476d7ce7adbfccb4d262f15864ef9c", "bike_id": "68476d7ce7adbfccb4d262f15864ef9c", "lon": -77.03527233333334, "fusion_lat": 0.0, "rental_uris": {"android": "https://dc.lft.to/lastmile_qr_scan", "ios": "https://dc.lft.to/lastmile_qr_scan"}, "type": "electric_scooter"}, {"is_reserved": 0, "is_disabled": 0, "fusion_lon": 0.0, "lat": 38.93022216666667, "name": "fc2cf5ee25b14530839ff1f427852b32", "bike_id": "fc2cf5ee25b14530839ff1f427852b32", "lon": -77.03308883333334, "fusion_lat": 0.0, "rental_uris": {"android": "https://dc.lft.to/lastmile_qr_scan", "ios": "https://dc.lft.to/lastmile_qr_scan"}, "type": "electric_scooter"}, {"is_reserved": 0, "is_disabled": 0, "fusion_lon": 0.0, "lat": 38.8924345, "name": "cbfe3a1fc99741c25aaaed35ad051384", "bike_id": "cbfe3a1fc99741c25aaaed35ad051384", "lon": -77.03179916666667, "fusion_lat": 0.0, "rental_uris": {"android": "https://dc.lft.to/lastmile_qr_scan", "ios": "https://dc.lft.to/lastmile_qr_scan"}, "type": "electric_scooter"}, {"is_reserved": 0, "is_disabled": 0, "fusion_lon": 0.0, "lat": 38.897441666666666, "name": "ce7fed07696496ad95a5e4dc0bf4dc1c", "bike_id": "ce7fed07696496ad95a5e4dc0bf4dc1c", "lon": -77.04423833333334, "fusion_lat": 0.0, "rental_uris": {"android": "https://dc.lft.to/lastmile_qr_scan", "ios": "https://dc.lft.to/lastmile_qr_scan"}, "type": "electric_scooter"}, {"is_reserved": 0, "is_disabled": 0, "fusion_lon": 0.0, "lat": 38.89225833333333, "name": "2bf9578617976d2bc1fc3734f0cdef61", "bike_id": "2bf9578617976d2bc1fc3734f0cdef61", "lon": -77.02638, "fusion_lat": 0.0, "rental_uris": {"android": "https://dc.lft.to/lastmile_qr_scan", "ios": "https://dc.lft.to/lastmile_qr_scan"}, "type": "electric_scooter"}, {"is_reserved": 0, "is_disabled": 0, "fusion_lon": 0.0, "lat": 38.93970566666667, "name": "28c088f553d3e3fc6a611c835a2f9db1", "bike_id": "28c088f553d3e3fc6a611c835a2f9db1", "lon": -77.03428016666666, "fusion_lat": 0.0, "rental_uris": {"android": "https://dc.lft.to/lastmile_qr_scan", "ios": "https://dc.lft.to/lastmile_qr_scan"}, "type": "electric_scooter"}, {"is_reserved": 0, "is_disabled": 0, "fusion_lon": 0.0, "lat": 38.88424216666667, "name": "6ddbbced81c8d88f0291200d93471f54", "bike_id": "6ddbbced81c8d88f0291200d93471f54", "lon": -76.9969515, "fusion_lat": 0.0, "rental_uris": {"android": "https://dc.lft.to/lastmile_qr_scan", "ios": "https://dc.lft.to/lastmile_qr_scan"}, "type": "electric_scooter"}, {"is_reserved": 0, "is_disabled": 0, "fusion_lon": 0.0, "lat": 39.00384583333334, "name": "038d343ce92891b7df7d59e676529b02", "bike_id": "038d343ce92891b7df7d59e676529b02", "lon": -77.01294133333333, "fusion_lat": 0.0, "rental_uris": {"android": "https://dc.lft.to/lastmile_qr_scan", "ios": "https://dc.lft.to/lastmile_qr_scan"}, "type": "electric_bike"}, {"is_reserved": 0, "is_disabled": 0, "fusion_lon": 0.0, "lat": 38.94562233333333, "name": "d04f96e67a9abaad9989b8ef446a15d3", "bike_id": "d04f96e67a9abaad9989b8ef446a15d3", "lon": -77.079563, "fusion_lat": 0.0, "rental_uris": {"android": "https://dc.lft.to/lastmile_qr_scan", "ios": "https://dc.lft.to/lastmile_qr_scan"}, "type": "electric_scooter"}, {"is_reserved": 0, "is_disabled": 0, "fusion_lon": 0.0, "lat": 38.903382, "name": "e09e7e5627b7226f1a80b8d69c693892", "bike_id": "e09e7e5627b7226f1a80b8d69c693892", "lon": -76.97574633333333, "fusion_lat": 0.0, "rental_uris": {"android": "https://dc.lft.to/lastmile_qr_scan", "ios": "https://dc.lft.to/lastmile_qr_scan"}, "type": "electric_scooter"}, {"is_reserved": 0, "is_disabled": 0, "fusion_lon": 0.0, "lat": 38.837430499999996, "name": "a0f021c8a0bef67b57e92cf00e680a80", "bike_id": "a0f021c8a0bef67b57e92cf00e680a80", "lon": -76.99862683333333, "fusion_lat": 0.0, "rental_uris": {"android": "https://dc.lft.to/lastmile_qr_scan", "ios": "https://dc.lft.to/lastmile_qr_scan"}, "type": "electric_scooter"}, {"is_reserved": 0, "is_disabled": 0, "fusion_lon": 0.0, "lat": 38.878830666666666, "name": "cbe19a4ba4ef00fa86c4a8a24016594a", "bike_id": "cbe19a4ba4ef00fa86c4a8a24016594a", "lon": -77.02318483333333, "fusion_lat": 0.0, "rental_uris": {"android": "https://dc.lft.to/lastmile_qr_scan", "ios": "https://dc.lft.to/lastmile_qr_scan"}, "type": "electric_scooter"}, {"is_reserved": 0, "is_disabled": 0, "fusion_lon": 0.0, "lat": 38.89520866666667, "name": "a6b063d54aacbe38debec7716c70591d", "bike_id": "a6b063d54aacbe38debec7716c70591d", "lon": -77.01983416666667, "fusion_lat": 0.0, "rental_uris": {"android": "https://dc.lft.to/lastmile_qr_scan", "ios": "https://dc.lft.to/lastmile_qr_scan"}, "type": "electric_scooter"}, {"is_reserved": 0, "is_disabled": 0, "fusion_lon": 0.0, "lat": 38.9215425, "name": "6dd192883691828514edb70e73a8d5cf", "bike_id": "6dd192883691828514edb70e73a8d5cf", "lon": -77.03510433333334, "fusion_lat": 0.0, "rental_uris": {"android": "https://dc.lft.to/lastmile_qr_scan", "ios": "https://dc.lft.to/lastmile_qr_scan"}, "type": "electric_scooter"}, {"is_reserved": 0, "is_disabled": 0, "fusion_lon": 0.0, "lat": 38.91847333333333, "name": "bea26c126a9c50e52bd012aaee3c1336", "bike_id": "bea26c126a9c50e52bd012aaee3c1336", "lon": -77.02279283333333, "fusion_lat": 0.0, "rental_uris": {"android": "https://dc.lft.to/lastmile_qr_scan", "ios": "https://dc.lft.to/lastmile_qr_scan"}, "type": "electric_scooter"}, {"is_reserved": 0, "is_disabled": 0, "fusion_lon": 0.0, "lat": 38.89491616666667, "name": "b8c515bf3796eff6bf63455ddf1545e5", "bike_id": "b8c515bf3796eff6bf63455ddf1545e5", "lon": -76.9489395, "fusion_lat": 0.0, "rental_uris": {"android": "https://dc.lft.to/lastmile_qr_scan", "ios": "https://dc.lft.to/lastmile_qr_scan"}, "type": "electric_scooter"}, {"is_reserved": 0, "is_disabled": 0, "fusion_lon": 0.0, "lat": 38.9236735, "name": "142c144b7a150acdc79eaa46ff8873a6", "bike_id": "142c144b7a150acdc79eaa46ff8873a6", "lon": -77.02982966666667, "fusion_lat": 0.0, "rental_uris": {"android": "https://dc.lft.to/lastmile_qr_scan", "ios": "https://dc.lft.to/lastmile_qr_scan"}, "type": "electric_scooter"}, {"is_reserved": 0, "is_disabled": 0, "fusion_lon": 0.0, "lat": 38.932834, "name": "24cdcc1b876511d01857770e28b2ddb9", "bike_id": "24cdcc1b876511d01857770e28b2ddb9", "lon": -77.02542466666667, "fusion_lat": 0.0, "rental_uris": {"android": "https://dc.lft.to/lastmile_qr_scan", "ios": "https://dc.lft.to/lastmile_qr_scan"}, "type": "electric_scooter"}, {"is_reserved": 0, "is_disabled": 0, "fusion_lon": 0.0, "lat": 38.899811, "name": "0ee2ec8c34e1fc0ab7bbf6e57163696f", "bike_id": "0ee2ec8c34e1fc0ab7bbf6e57163696f", "lon": -77.0207325, "fusion_lat": 0.0, "rental_uris": {"android": "https://dc.lft.to/lastmile_qr_scan", "ios": "https://dc.lft.to/lastmile_qr_scan"}, "type": "electric_scooter"}, {"is_reserved": 0, "is_disabled": 0, "fusion_lon": 0.0, "lat": 38.934633166666664, "name": "d809c79b19b13164032b293d637a3597", "bike_id": "d809c79b19b13164032b293d637a3597", "lon": -77.05808683333333, "fusion_lat": 0.0, "rental_uris": {"android": "https://dc.lft.to/lastmile_qr_scan", "ios": "https://dc.lft.to/lastmile_qr_scan"}, "type": "electric_scooter"}, {"is_reserved": 0, "is_disabled": 0, "fusion_lon": 0.0, "lat": 38.95787116666666, "name": "375280a8feba9120ffafeece2045b7f3", "bike_id": "375280a8feba9120ffafeece2045b7f3", "lon": -77.028304, "fusion_lat": 0.0, "rental_uris": {"android": "https://dc.lft.to/lastmile_qr_scan", "ios": "https://dc.lft.to/lastmile_qr_scan"}, "type": "electric_scooter"}, {"is_reserved": 0, "is_disabled": 0, "fusion_lon": 0.0, "lat": 38.8837055, "name": "77f41cbbaccd7820177d98fe07570498", "bike_id": "77f41cbbaccd7820177d98fe07570498", "lon": -76.99519883333333, "fusion_lat": 0.0, "rental_uris": {"android": "https://dc.lft.to/lastmile_qr_scan", "ios": "https://dc.lft.to/lastmile_qr_scan"}, "type": "electric_scooter"}, {"is_reserved": 0, "is_disabled": 0, "fusion_lon": 0.0, "lat": 38.91709483333333, "name": "66f609b9fe774c51249cb04732700008", "bike_id": "66f609b9fe774c51249cb04732700008", "lon": -77.03866416666666, "fusion_lat": 0.0, "rental_uris": {"android": "https://dc.lft.to/lastmile_qr_scan", "ios": "https://dc.lft.to/lastmile_qr_scan"}, "type": "electric_scooter"}, {"is_reserved": 0, "is_disabled": 0, "fusion_lon": 0.0, "lat": 38.928851, "name": "03b193d6c4ac87816f3d27f674ea2bdd", "bike_id": "03b193d6c4ac87816f3d27f674ea2bdd", "lon": -77.033579, "fusion_lat": 0.0, "rental_uris": {"android": "https://dc.lft.to/lastmile_qr_scan", "ios": "https://dc.lft.to/lastmile_qr_scan"}, "type": "electric_scooter"}, {"is_reserved": 0, "is_disabled": 0, "fusion_lon": 0.0, "lat": 38.923952166666666, "name": "6c12713a72b56de2e3d30e90606be0e0", "bike_id": "6c12713a72b56de2e3d30e90606be0e0", "lon": -77.0269765, "fusion_lat": 0.0, "rental_uris": {"android": "https://dc.lft.to/lastmile_qr_scan", "ios": "https://dc.lft.to/lastmile_qr_scan"}, "type": "electric_scooter"}, {"is_reserved": 0, "is_disabled": 0, "fusion_lon": 0.0, "lat": 38.903879, "name": "9ec0bb2f3aceb90e9e226de42c98057f", "bike_id": "9ec0bb2f3aceb90e9e226de42c98057f", "lon": -77.03970083333333, "fusion_lat": 0.0, "rental_uris": {"android": "https://dc.lft.to/lastmile_qr_scan", "ios": "https://dc.lft.to/lastmile_qr_scan"}, "type": "electric_scooter"}, {"is_reserved": 0, "is_disabled": 0, "fusion_lon": 0.0, "lat": 38.90662183333333, "name": "250659f8ad1608e90cfda3a41346ec53", "bike_id": "250659f8ad1608e90cfda3a41346ec53", "lon": -77.00193966666667, "fusion_lat": 0.0, "rental_uris": {"android": "https://dc.lft.to/lastmile_qr_scan", "ios": "https://dc.lft.to/lastmile_qr_scan"}, "type": "electric_scooter"}, {"is_reserved": 0, "is_disabled": 0, "fusion_lon": 0.0, "lat": 38.92927483333333, "name": "81c55b2b7dbb940adad37f08eee20c95", "bike_id": "81c55b2b7dbb940adad37f08eee20c95", "lon": -77.00672616666667, "fusion_lat": 0.0, "rental_uris": {"android": "https://dc.lft.to/lastmile_qr_scan", "ios": "https://dc.lft.to/lastmile_qr_scan"}, "type": "electric_scooter"}, {"is_reserved": 0, "is_disabled": 0, "fusion_lon": 0.0, "lat": 38.9266905, "name": "e230b2c8c6df21474599e37a7ad255ed", "bike_id": "e230b2c8c6df21474599e37a7ad255ed", "lon": -77.0276735, "fusion_lat": 0.0, "rental_uris": {"android": "https://dc.lft.to/lastmile_qr_scan", "ios": "https://dc.lft.to/lastmile_qr_scan"}, "type": "electric_scooter"}, {"is_reserved": 0, "is_disabled": 0, "fusion_lon": 0.0, "lat": 38.89222866666667, "name": "ae3b593dd5dc839a5882a39518367642", "bike_id": "ae3b593dd5dc839a5882a39518367642", "lon": -77.04501766666667, "fusion_lat": 0.0, "rental_uris": {"android": "https://dc.lft.to/lastmile_qr_scan", "ios": "https://dc.lft.to/lastmile_qr_scan"}, "type": "electric_scooter"}, {"is_reserved": 0, "is_disabled": 0, "fusion_lon": 0.0, "lat": 38.90253466666667, "name": "ca0339da41553219d2bf01d28765a753", "bike_id": "ca0339da41553219d2bf01d28765a753", "lon": -77.029371, "fusion_lat": 0.0, "rental_uris": {"android": "https://dc.lft.to/lastmile_qr_scan", "ios": "https://dc.lft.to/lastmile_qr_scan"}, "type": "electric_scooter"}, {"is_reserved": 0, "is_disabled": 0, "fusion_lon": 0.0, "lat": 38.920711833333336, "name": "2140ee5b63854066667657cccecb3b3f", "bike_id": "2140ee5b63854066667657cccecb3b3f", "lon": -77.03989216666666, "fusion_lat": 0.0, "rental_uris": {"android": "https://dc.lft.to/lastmile_qr_scan", "ios": "https://dc.lft.to/lastmile_qr_scan"}, "type": "electric_scooter"}, {"is_reserved": 0, "is_disabled": 0, "fusion_lon": 0.0, "lat": 38.8796295, "name": "e4db4b43db04b12944649a3ae67cc392", "bike_id": "e4db4b43db04b12944649a3ae67cc392", "lon": -77.024347, "fusion_lat": 0.0, "rental_uris": {"android": "https://dc.lft.to/lastmile_qr_scan", "ios": "https://dc.lft.to/lastmile_qr_scan"}, "type": "electric_scooter"}, {"is_reserved": 0, "is_disabled": 0, "fusion_lon": 0.0, "lat": 38.9119115, "name": "c711e30a23c775a0063564d0429480e3", "bike_id": "c711e30a23c775a0063564d0429480e3", "lon": -77.011464, "fusion_lat": 0.0, "rental_uris": {"android": "https://dc.lft.to/lastmile_qr_scan", "ios": "https://dc.lft.to/lastmile_qr_scan"}, "type": "electric_scooter"}, {"is_reserved": 0, "is_disabled": 0, "fusion_lon": 0.0, "lat": 38.92363983333333, "name": "b30ebbbc32dbb1f224d5090f5d1b83b8", "bike_id": "b30ebbbc32dbb1f224d5090f5d1b83b8", "lon": -77.02124016666667, "fusion_lat": 0.0, "rental_uris": {"android": "https://dc.lft.to/lastmile_qr_scan", "ios": "https://dc.lft.to/lastmile_qr_scan"}, "type": "electric_scooter"}, {"is_reserved": 0, "is_disabled": 0, "fusion_lon": 0.0, "lat": 38.8922275, "name": "125fa246e305167eeccfd65501c75937", "bike_id": "125fa246e305167eeccfd65501c75937", "lon": -77.03139233333333, "fusion_lat": 0.0, "rental_uris": {"android": "https://dc.lft.to/lastmile_qr_scan", "ios": "https://dc.lft.to/lastmile_qr_scan"}, "type": "electric_scooter"}, {"is_reserved": 0, "is_disabled": 0, "fusion_lon": 0.0, "lat": 38.93535083333333, "name": "7eccca9470323726b3b46509d6fd063f", "bike_id": "7eccca9470323726b3b46509d6fd063f", "lon": -77.05827683333334, "fusion_lat": 0.0, "rental_uris": {"android": "https://dc.lft.to/lastmile_qr_scan", "ios": "https://dc.lft.to/lastmile_qr_scan"}, "type": "electric_scooter"}, {"is_reserved": 0, "is_disabled": 0, "fusion_lon": 0.0, "lat": 38.93125283333333, "name": "6abd2b685322a48f05efa7dc1e94aa27", "bike_id": "6abd2b685322a48f05efa7dc1e94aa27", "lon": -77.022609, "fusion_lat": 0.0, "rental_uris": {"android": "https://dc.lft.to/lastmile_qr_scan", "ios": "https://dc.lft.to/lastmile_qr_scan"}, "type": "electric_scooter"}, {"is_reserved": 0, "is_disabled": 0, "fusion_lon": 0.0, "lat": 38.84757366666667, "name": "c8c8b841931b9813ba6f4f8dd0994895", "bike_id": "c8c8b841931b9813ba6f4f8dd0994895", "lon": -77.05370583333334, "fusion_lat": 0.0, "rental_uris": {"android": "https://dc.lft.to/lastmile_qr_scan", "ios": "https://dc.lft.to/lastmile_qr_scan"}, "type": "electric_bike"}, {"is_reserved": 0, "is_disabled": 0, "fusion_lon": 0.0, "lat": 38.897068833333336, "name": "31862de6060b218d9f046f56ce3115f3", "bike_id": "31862de6060b218d9f046f56ce3115f3", "lon": -77.013151, "fusion_lat": 0.0, "rental_uris": {"android": "https://dc.lft.to/lastmile_qr_scan", "ios": "https://dc.lft.to/lastmile_qr_scan"}, "type": "electric_scooter"}, {"is_reserved": 0, "is_disabled": 0, "fusion_lon": 0.0, "lat": 38.893202, "name": "84bb4aff098bd70486ad4e28c24c496a", "bike_id": "84bb4aff098bd70486ad4e28c24c496a", "lon": -76.9397065, "fusion_lat": 0.0, "rental_uris": {"android": "https://dc.lft.to/lastmile_qr_scan", "ios": "https://dc.lft.to/lastmile_qr_scan"}, "type": "electric_scooter"}, {"is_reserved": 0, "is_disabled": 0, "fusion_lon": 0.0, "lat": 38.894933, "name": "43e1c9628e729bd31e72650b4cbc4121", "bike_id": "43e1c9628e729bd31e72650b4cbc4121", "lon": -76.94890966666667, "fusion_lat": 0.0, "rental_uris": {"android": "https://dc.lft.to/lastmile_qr_scan", "ios": "https://dc.lft.to/lastmile_qr_scan"}, "type": "electric_scooter"}, {"is_reserved": 0, "is_disabled": 0, "fusion_lon": 0.0, "lat": 38.89601583333334, "name": "9af24966968ec58a359ae4ac7e5817c1", "bike_id": "9af24966968ec58a359ae4ac7e5817c1", "lon": -77.02791733333333, "fusion_lat": 0.0, "rental_uris": {"android": "https://dc.lft.to/lastmile_qr_scan", "ios": "https://dc.lft.to/lastmile_qr_scan"}, "type": "electric_scooter"}, {"is_reserved": 0, "is_disabled": 0, "fusion_lon": 0.0, "lat": 38.91678533333334, "name": "d57ad4675ce8e1dca116084bd2e6dd24", "bike_id": "d57ad4675ce8e1dca116084bd2e6dd24", "lon": -77.01573383333333, "fusion_lat": 0.0, "rental_uris": {"android": "https://dc.lft.to/lastmile_qr_scan", "ios": "https://dc.lft.to/lastmile_qr_scan"}, "type": "electric_scooter"}, {"is_reserved": 0, "is_disabled": 0, "fusion_lon": 0.0, "lat": 38.91402983333333, "name": "7e24e9616e6dba261add888ba95b0edf", "bike_id": "7e24e9616e6dba261add888ba95b0edf", "lon": -77.04885466666667, "fusion_lat": 0.0, "rental_uris": {"android": "https://dc.lft.to/lastmile_qr_scan", "ios": "https://dc.lft.to/lastmile_qr_scan"}, "type": "electric_scooter"}, {"is_reserved": 0, "is_disabled": 0, "fusion_lon": 0.0, "lat": 38.9138405, "name": "40de3c9feddb73ca5a587f9bf99c0a2b", "bike_id": "40de3c9feddb73ca5a587f9bf99c0a2b", "lon": -76.98415916666667, "fusion_lat": 0.0, "rental_uris": {"android": "https://dc.lft.to/lastmile_qr_scan", "ios": "https://dc.lft.to/lastmile_qr_scan"}, "type": "electric_scooter"}, {"is_reserved": 0, "is_disabled": 0, "fusion_lon": 0.0, "lat": 38.932124, "name": "f0e6999fa8fc73bac209a69f8b5278fb", "bike_id": "f0e6999fa8fc73bac209a69f8b5278fb", "lon": -77.03268933333334, "fusion_lat": 0.0, "rental_uris": {"android": "https://dc.lft.to/lastmile_qr_scan", "ios": "https://dc.lft.to/lastmile_qr_scan"}, "type": "electric_scooter"}, {"is_reserved": 0, "is_disabled": 0, "fusion_lon": 0.0, "lat": 38.927757166666666, "name": "558e5101516c7378d6b3ceff4dc9b65c", "bike_id": "558e5101516c7378d6b3ceff4dc9b65c", "lon": -77.0371145, "fusion_lat": 0.0, "rental_uris": {"android": "https://dc.lft.to/lastmile_qr_scan", "ios": "https://dc.lft.to/lastmile_qr_scan"}, "type": "electric_scooter"}, {"is_reserved": 0, "is_disabled": 0, "fusion_lon": 0.0, "lat": 38.916253833333336, "name": "70ff8596f0303ee8c193f58cd0b70d60", "bike_id": "70ff8596f0303ee8c193f58cd0b70d60", "lon": -77.05060516666667, "fusion_lat": 0.0, "rental_uris": {"android": "https://dc.lft.to/lastmile_qr_scan", "ios": "https://dc.lft.to/lastmile_qr_scan"}, "type": "electric_scooter"}, {"is_reserved": 0, "is_disabled": 0, "fusion_lon": 0.0, "lat": 38.9287165, "name": "69b3155f9c05207a536ef827650d4a12", "bike_id": "69b3155f9c05207a536ef827650d4a12", "lon": -77.03416766666666, "fusion_lat": 0.0, "rental_uris": {"android": "https://dc.lft.to/lastmile_qr_scan", "ios": "https://dc.lft.to/lastmile_qr_scan"}, "type": "electric_scooter"}, {"is_reserved": 0, "is_disabled": 0, "fusion_lon": 0.0, "lat": 38.911943666666666, "name": "7258da9349e22bb7533aa36b3fa5458d", "bike_id": "7258da9349e22bb7533aa36b3fa5458d", "lon": -77.044574, "fusion_lat": 0.0, "rental_uris": {"android": "https://dc.lft.to/lastmile_qr_scan", "ios": "https://dc.lft.to/lastmile_qr_scan"}, "type": "electric_scooter"}, {"is_reserved": 0, "is_disabled": 0, "fusion_lon": 0.0, "lat": 38.941834, "name": "f62969c76020831a713793dcd353465d", "bike_id": "f62969c76020831a713793dcd353465d", "lon": -77.02488866666667, "fusion_lat": 0.0, "rental_uris": {"android": "https://dc.lft.to/lastmile_qr_scan", "ios": "https://dc.lft.to/lastmile_qr_scan"}, "type": "electric_scooter"}, {"is_reserved": 0, "is_disabled": 0, "fusion_lon": 0.0, "lat": 38.92416266666667, "name": "ae60f93b4fb2a09557577e2f99abf3cf", "bike_id": "ae60f93b4fb2a09557577e2f99abf3cf", "lon": -77.021341, "fusion_lat": 0.0, "rental_uris": {"android": "https://dc.lft.to/lastmile_qr_scan", "ios": "https://dc.lft.to/lastmile_qr_scan"}, "type": "electric_scooter"}, {"is_reserved": 0, "is_disabled": 0, "fusion_lon": 0.0, "lat": 38.9267705, "name": "2355ad52b3545c620318ee64206df135", "bike_id": "2355ad52b3545c620318ee64206df135", "lon": -77.0274825, "fusion_lat": 0.0, "rental_uris": {"android": "https://dc.lft.to/lastmile_qr_scan", "ios": "https://dc.lft.to/lastmile_qr_scan"}, "type": "electric_scooter"}, {"is_reserved": 0, "is_disabled": 0, "fusion_lon": 0.0, "lat": 38.93131433333333, "name": "1034de7a9fa23f558dae3f77c3763bb0", "bike_id": "1034de7a9fa23f558dae3f77c3763bb0", "lon": -77.078505, "fusion_lat": 0.0, "rental_uris": {"android": "https://dc.lft.to/lastmile_qr_scan", "ios": "https://dc.lft.to/lastmile_qr_scan"}, "type": "electric_scooter"}, {"is_reserved": 0, "is_disabled": 0, "fusion_lon": 0.0, "lat": 38.90781333333334, "name": "ac17cdb51ce3d717eddce29245892a5e", "bike_id": "ac17cdb51ce3d717eddce29245892a5e", "lon": -77.0724025, "fusion_lat": 0.0, "rental_uris": {"android": "https://dc.lft.to/lastmile_qr_scan", "ios": "https://dc.lft.to/lastmile_qr_scan"}, "type": "electric_scooter"}, {"is_reserved": 0, "is_disabled": 0, "fusion_lon": 0.0, "lat": 38.9016435, "name": "28cf85765547deb3445557e7eef45df3", "bike_id": "28cf85765547deb3445557e7eef45df3", "lon": -76.98086083333334, "fusion_lat": 0.0, "rental_uris": {"android": "https://dc.lft.to/lastmile_qr_scan", "ios": "https://dc.lft.to/lastmile_qr_scan"}, "type": "electric_scooter"}, {"is_reserved": 0, "is_disabled": 0, "fusion_lon": 0.0, "lat": 38.9208375, "name": "b3b8aecf8d567513c35e4b1ecdd0dd7b", "bike_id": "b3b8aecf8d567513c35e4b1ecdd0dd7b", "lon": -77.02366866666667, "fusion_lat": 0.0, "rental_uris": {"android": "https://dc.lft.to/lastmile_qr_scan", "ios": "https://dc.lft.to/lastmile_qr_scan"}, "type": "electric_scooter"}, {"is_reserved": 0, "is_disabled": 0, "fusion_lon": 0.0, "lat": 38.876324333333336, "name": "1318cbd001cddb364c2beb82274f46d0", "bike_id": "1318cbd001cddb364c2beb82274f46d0", "lon": -77.0023125, "fusion_lat": 0.0, "rental_uris": {"android": "https://dc.lft.to/lastmile_qr_scan", "ios": "https://dc.lft.to/lastmile_qr_scan"}, "type": "electric_scooter"}, {"is_reserved": 0, "is_disabled": 0, "fusion_lon": 0.0, "lat": 38.8871445, "name": "0910c02b219b8b6a477940bd3a50d35e", "bike_id": "0910c02b219b8b6a477940bd3a50d35e", "lon": -76.98339716666666, "fusion_lat": 0.0, "rental_uris": {"android": "https://dc.lft.to/lastmile_qr_scan", "ios": "https://dc.lft.to/lastmile_qr_scan"}, "type": "electric_scooter"}, {"is_reserved": 0, "is_disabled": 0, "fusion_lon": 0.0, "lat": 38.909567333333335, "name": "0c1aabc04251fade8875aef0fef2bdb5", "bike_id": "0c1aabc04251fade8875aef0fef2bdb5", "lon": -77.05085033333333, "fusion_lat": 0.0, "rental_uris": {"android": "https://dc.lft.to/lastmile_qr_scan", "ios": "https://dc.lft.to/lastmile_qr_scan"}, "type": "electric_scooter"}, {"is_reserved": 0, "is_disabled": 0, "fusion_lon": 0.0, "lat": 39.02926, "name": "85afc27d65c4186e28c7bdcf6a7fdabf", "bike_id": "85afc27d65c4186e28c7bdcf6a7fdabf", "lon": -77.01359166666667, "fusion_lat": 0.0, "rental_uris": {"android": "https://dc.lft.to/lastmile_qr_scan", "ios": "https://dc.lft.to/lastmile_qr_scan"}, "type": "electric_bike"}, {"is_reserved": 0, "is_disabled": 0, "fusion_lon": 0.0, "lat": 38.90768466666667, "name": "a1c75d94fe86cc907265b83f284203f7", "bike_id": "a1c75d94fe86cc907265b83f284203f7", "lon": -76.993022, "fusion_lat": 0.0, "rental_uris": {"android": "https://dc.lft.to/lastmile_qr_scan", "ios": "https://dc.lft.to/lastmile_qr_scan"}, "type": "electric_scooter"}, {"is_reserved": 0, "is_disabled": 0, "fusion_lon": 0.0, "lat": 38.914156166666665, "name": "5434826460cceace690359c0bed059bd", "bike_id": "5434826460cceace690359c0bed059bd", "lon": -77.052111, "fusion_lat": 0.0, "rental_uris": {"android": "https://dc.lft.to/lastmile_qr_scan", "ios": "https://dc.lft.to/lastmile_qr_scan"}, "type": "electric_scooter"}, {"is_reserved": 0, "is_disabled": 0, "fusion_lon": 0.0, "lat": 38.89222633333333, "name": "3c7747b99af5192a3f7f03b58bc07af1", "bike_id": "3c7747b99af5192a3f7f03b58bc07af1", "lon": -77.04685966666666, "fusion_lat": 0.0, "rental_uris": {"android": "https://dc.lft.to/lastmile_qr_scan", "ios": "https://dc.lft.to/lastmile_qr_scan"}, "type": "electric_scooter"}, {"is_reserved": 0, "is_disabled": 0, "fusion_lon": 0.0, "lat": 38.915324, "name": "c5817b0e92393cfbb06ce7e514590280", "bike_id": "c5817b0e92393cfbb06ce7e514590280", "lon": -77.0318255, "fusion_lat": 0.0, "rental_uris": {"android": "https://dc.lft.to/lastmile_qr_scan", "ios": "https://dc.lft.to/lastmile_qr_scan"}, "type": "electric_scooter"}, {"is_reserved": 0, "is_disabled": 0, "fusion_lon": 0.0, "lat": 38.92467083333333, "name": "2d71fbb0fbbc350c3989335887518665", "bike_id": "2d71fbb0fbbc350c3989335887518665", "lon": -77.02197216666667, "fusion_lat": 0.0, "rental_uris": {"android": "https://dc.lft.to/lastmile_qr_scan", "ios": "https://dc.lft.to/lastmile_qr_scan"}, "type": "electric_scooter"}, {"is_reserved": 0, "is_disabled": 0, "fusion_lon": 0.0, "lat": 38.879420833333334, "name": "ee6169cb9a64fe0058cad0d59f24cc7d", "bike_id": "ee6169cb9a64fe0058cad0d59f24cc7d", "lon": -77.02050683333333, "fusion_lat": 0.0, "rental_uris": {"android": "https://dc.lft.to/lastmile_qr_scan", "ios": "https://dc.lft.to/lastmile_qr_scan"}, "type": "electric_scooter"}, {"is_reserved": 0, "is_disabled": 0, "fusion_lon": 0.0, "lat": 38.915536, "name": "5e5241adacb241f56a3567ce4b557070", "bike_id": "5e5241adacb241f56a3567ce4b557070", "lon": -77.03818333333334, "fusion_lat": 0.0, "rental_uris": {"android": "https://dc.lft.to/lastmile_qr_scan", "ios": "https://dc.lft.to/lastmile_qr_scan"}, "type": "electric_bike"}, {"is_reserved": 0, "is_disabled": 0, "fusion_lon": 0.0, "lat": 38.93624966666667, "name": "24575051e0416bc686478e510c5e2294", "bike_id": "24575051e0416bc686478e510c5e2294", "lon": -77.0641515, "fusion_lat": 0.0, "rental_uris": {"android": "https://dc.lft.to/lastmile_qr_scan", "ios": "https://dc.lft.to/lastmile_qr_scan"}, "type": "electric_scooter"}, {"is_reserved": 0, "is_disabled": 0, "fusion_lon": 0.0, "lat": 38.923546, "name": "b87b3a1605cbd7795ee7c5ff0d1f8932", "bike_id": "b87b3a1605cbd7795ee7c5ff0d1f8932", "lon": -77.019197, "fusion_lat": 0.0, "rental_uris": {"android": "https://dc.lft.to/lastmile_qr_scan", "ios": "https://dc.lft.to/lastmile_qr_scan"}, "type": "electric_scooter"}, {"is_reserved": 0, "is_disabled": 0, "fusion_lon": 0.0, "lat": 38.91403783333333, "name": "994e0c974645d549b2a2e55b57881601", "bike_id": "994e0c974645d549b2a2e55b57881601", "lon": -77.01821383333333, "fusion_lat": 0.0, "rental_uris": {"android": "https://dc.lft.to/lastmile_qr_scan", "ios": "https://dc.lft.to/lastmile_qr_scan"}, "type": "electric_scooter"}, {"is_reserved": 0, "is_disabled": 0, "fusion_lon": 0.0, "lat": 38.91910016666667, "name": "dd9be5d04a950483435bc4b37f6ae711", "bike_id": "dd9be5d04a950483435bc4b37f6ae711", "lon": -77.01224683333334, "fusion_lat": 0.0, "rental_uris": {"android": "https://dc.lft.to/lastmile_qr_scan", "ios": "https://dc.lft.to/lastmile_qr_scan"}, "type": "electric_scooter"}, {"is_reserved": 0, "is_disabled": 0, "fusion_lon": 0.0, "lat": 38.90780933333333, "name": "b20f0e7542480bd76f27b2e5acc48733", "bike_id": "b20f0e7542480bd76f27b2e5acc48733", "lon": -77.0450535, "fusion_lat": 0.0, "rental_uris": {"android": "https://dc.lft.to/lastmile_qr_scan", "ios": "https://dc.lft.to/lastmile_qr_scan"}, "type": "electric_scooter"}, {"is_reserved": 0, "is_disabled": 0, "fusion_lon": 0.0, "lat": 38.9175565, "name": "e798440c71f56c3bfc2947fef63af72e", "bike_id": "e798440c71f56c3bfc2947fef63af72e", "lon": -77.0269935, "fusion_lat": 0.0, "rental_uris": {"android": "https://dc.lft.to/lastmile_qr_scan", "ios": "https://dc.lft.to/lastmile_qr_scan"}, "type": "electric_scooter"}, {"is_reserved": 0, "is_disabled": 0, "fusion_lon": 0.0, "lat": 38.9079065, "name": "d2e38c7ff9e68f581d950050c67d5ec4", "bike_id": "d2e38c7ff9e68f581d950050c67d5ec4", "lon": -76.99714066666667, "fusion_lat": 0.0, "rental_uris": {"android": "https://dc.lft.to/lastmile_qr_scan", "ios": "https://dc.lft.to/lastmile_qr_scan"}, "type": "electric_scooter"}, {"is_reserved": 0, "is_disabled": 0, "fusion_lon": 0.0, "lat": 38.913613, "name": "a524cdad6df5ddaeaf2f31e59e109b4b", "bike_id": "a524cdad6df5ddaeaf2f31e59e109b4b", "lon": -77.045914, "fusion_lat": 0.0, "rental_uris": {"android": "https://dc.lft.to/lastmile_qr_scan", "ios": "https://dc.lft.to/lastmile_qr_scan"}, "type": "electric_scooter"}, {"is_reserved": 0, "is_disabled": 0, "fusion_lon": 0.0, "lat": 38.915721833333336, "name": "b4db670d771c0bfcd336e0fc8847582c", "bike_id": "b4db670d771c0bfcd336e0fc8847582c", "lon": -77.05036083333333, "fusion_lat": 0.0, "rental_uris": {"android": "https://dc.lft.to/lastmile_qr_scan", "ios": "https://dc.lft.to/lastmile_qr_scan"}, "type": "electric_scooter"}, {"is_reserved": 0, "is_disabled": 0, "fusion_lon": 0.0, "lat": 38.91707516666666, "name": "833c481b46aa62300fe3ddc6677b77c2", "bike_id": "833c481b46aa62300fe3ddc6677b77c2", "lon": -77.02501633333334, "fusion_lat": 0.0, "rental_uris": {"android": "https://dc.lft.to/lastmile_qr_scan", "ios": "https://dc.lft.to/lastmile_qr_scan"}, "type": "electric_scooter"}, {"is_reserved": 0, "is_disabled": 0, "fusion_lon": 0.0, "lat": 38.928466, "name": "f38fc0cacfdf943e88cd6f8541c724ed", "bike_id": "f38fc0cacfdf943e88cd6f8541c724ed", "lon": -77.03618516666667, "fusion_lat": 0.0, "rental_uris": {"android": "https://dc.lft.to/lastmile_qr_scan", "ios": "https://dc.lft.to/lastmile_qr_scan"}, "type": "electric_scooter"}, {"is_reserved": 0, "is_disabled": 0, "fusion_lon": 0.0, "lat": 38.9175615, "name": "9e9f117818e6f9da3fe36c93dbca0b38", "bike_id": "9e9f117818e6f9da3fe36c93dbca0b38", "lon": -77.02303866666666, "fusion_lat": 0.0, "rental_uris": {"android": "https://dc.lft.to/lastmile_qr_scan", "ios": "https://dc.lft.to/lastmile_qr_scan"}, "type": "electric_scooter"}, {"is_reserved": 0, "is_disabled": 0, "fusion_lon": 0.0, "lat": 38.92318616666667, "name": "3274a1e49feaacb8d5952a9ac99c293f", "bike_id": "3274a1e49feaacb8d5952a9ac99c293f", "lon": -77.01950133333334, "fusion_lat": 0.0, "rental_uris": {"android": "https://dc.lft.to/lastmile_qr_scan", "ios": "https://dc.lft.to/lastmile_qr_scan"}, "type": "electric_scooter"}, {"is_reserved": 0, "is_disabled": 0, "fusion_lon": 0.0, "lat": 38.9119245, "name": "5768986f29581708bd167e3dbbbc9477", "bike_id": "5768986f29581708bd167e3dbbbc9477", "lon": -77.03837016666667, "fusion_lat": 0.0, "rental_uris": {"android": "https://dc.lft.to/lastmile_qr_scan", "ios": "https://dc.lft.to/lastmile_qr_scan"}, "type": "electric_scooter"}, {"is_reserved": 0, "is_disabled": 0, "fusion_lon": 0.0, "lat": 38.92883233333333, "name": "9f4dd7573595d213a761da34a03dd5c5", "bike_id": "9f4dd7573595d213a761da34a03dd5c5", "lon": -77.0336135, "fusion_lat": 0.0, "rental_uris": {"android": "https://dc.lft.to/lastmile_qr_scan", "ios": "https://dc.lft.to/lastmile_qr_scan"}, "type": "electric_scooter"}, {"is_reserved": 0, "is_disabled": 0, "fusion_lon": 0.0, "lat": 38.91554133333333, "name": "94c1e3794a206e9fe5e4a14be55760ef", "bike_id": "94c1e3794a206e9fe5e4a14be55760ef", "lon": -77.0317215, "fusion_lat": 0.0, "rental_uris": {"android": "https://dc.lft.to/lastmile_qr_scan", "ios": "https://dc.lft.to/lastmile_qr_scan"}, "type": "electric_scooter"}, {"is_reserved": 0, "is_disabled": 0, "fusion_lon": 0.0, "lat": 38.89221833333333, "name": "5d1c4aa8f17ac410e33c93afb8240e20", "bike_id": "5d1c4aa8f17ac410e33c93afb8240e20", "lon": -77.03133133333333, "fusion_lat": 0.0, "rental_uris": {"android": "https://dc.lft.to/lastmile_qr_scan", "ios": "https://dc.lft.to/lastmile_qr_scan"}, "type": "electric_scooter"}, {"is_reserved": 0, "is_disabled": 0, "fusion_lon": 0.0, "lat": 38.924892, "name": "adf8653d81b7f8f6d9ddd44c5b3c3dc3", "bike_id": "adf8653d81b7f8f6d9ddd44c5b3c3dc3", "lon": -77.0321565, "fusion_lat": 0.0, "rental_uris": {"android": "https://dc.lft.to/lastmile_qr_scan", "ios": "https://dc.lft.to/lastmile_qr_scan"}, "type": "electric_scooter"}, {"is_reserved": 0, "is_disabled": 0, "fusion_lon": 0.0, "lat": 38.902455833333335, "name": "a25c606d8d86532fe576beb38c003876", "bike_id": "a25c606d8d86532fe576beb38c003876", "lon": -77.0388155, "fusion_lat": 0.0, "rental_uris": {"android": "https://dc.lft.to/lastmile_qr_scan", "ios": "https://dc.lft.to/lastmile_qr_scan"}, "type": "electric_scooter"}, {"is_reserved": 0, "is_disabled": 0, "fusion_lon": 0.0, "lat": 38.9225065, "name": "52f72956a4f6651197e0a429bb1e2648", "bike_id": "52f72956a4f6651197e0a429bb1e2648", "lon": -77.01947166666666, "fusion_lat": 0.0, "rental_uris": {"android": "https://dc.lft.to/lastmile_qr_scan", "ios": "https://dc.lft.to/lastmile_qr_scan"}, "type": "electric_scooter"}, {"is_reserved": 0, "is_disabled": 0, "fusion_lon": 0.0, "lat": 38.8998955, "name": "683d03e11376048216e547c7a000b072", "bike_id": "683d03e11376048216e547c7a000b072", "lon": -76.99485066666666, "fusion_lat": 0.0, "rental_uris": {"android": "https://dc.lft.to/lastmile_qr_scan", "ios": "https://dc.lft.to/lastmile_qr_scan"}, "type": "electric_scooter"}, {"is_reserved": 0, "is_disabled": 0, "fusion_lon": 0.0, "lat": 38.924880333333334, "name": "da24a104dc81f369a4762f55c98778d2", "bike_id": "da24a104dc81f369a4762f55c98778d2", "lon": -77.07329966666667, "fusion_lat": 0.0, "rental_uris": {"android": "https://dc.lft.to/lastmile_qr_scan", "ios": "https://dc.lft.to/lastmile_qr_scan"}, "type": "electric_scooter"}, {"is_reserved": 0, "is_disabled": 0, "fusion_lon": 0.0, "lat": 38.9228745, "name": "38a0f01be3b6082ec4b1676d443f27e6", "bike_id": "38a0f01be3b6082ec4b1676d443f27e6", "lon": -77.04216683333334, "fusion_lat": 0.0, "rental_uris": {"android": "https://dc.lft.to/lastmile_qr_scan", "ios": "https://dc.lft.to/lastmile_qr_scan"}, "type": "electric_scooter"}, {"is_reserved": 0, "is_disabled": 0, "fusion_lon": 0.0, "lat": 38.89885533333333, "name": "4302c33c821b307b9a33b428357958fa", "bike_id": "4302c33c821b307b9a33b428357958fa", "lon": -76.931762, "fusion_lat": 0.0, "rental_uris": {"android": "https://dc.lft.to/lastmile_qr_scan", "ios": "https://dc.lft.to/lastmile_qr_scan"}, "type": "electric_scooter"}, {"is_reserved": 0, "is_disabled": 0, "fusion_lon": 0.0, "lat": 38.90946266666667, "name": "19d4c7a19ddb1d47e47b839ae9f427ac", "bike_id": "19d4c7a19ddb1d47e47b839ae9f427ac", "lon": -77.04869783333334, "fusion_lat": 0.0, "rental_uris": {"android": "https://dc.lft.to/lastmile_qr_scan", "ios": "https://dc.lft.to/lastmile_qr_scan"}, "type": "electric_scooter"}, {"is_reserved": 0, "is_disabled": 0, "fusion_lon": 0.0, "lat": 38.923713666666664, "name": "1394ef26076b6506d431e7fd9b8e0c62", "bike_id": "1394ef26076b6506d431e7fd9b8e0c62", "lon": -77.03131616666667, "fusion_lat": 0.0, "rental_uris": {"android": "https://dc.lft.to/lastmile_qr_scan", "ios": "https://dc.lft.to/lastmile_qr_scan"}, "type": "electric_scooter"}, {"is_reserved": 0, "is_disabled": 0, "fusion_lon": 0.0, "lat": 38.9248025, "name": "f48744a388a16ae5ecee08ccb3b74529", "bike_id": "f48744a388a16ae5ecee08ccb3b74529", "lon": -77.03938033333333, "fusion_lat": 0.0, "rental_uris": {"android": "https://dc.lft.to/lastmile_qr_scan", "ios": "https://dc.lft.to/lastmile_qr_scan"}, "type": "electric_scooter"}, {"is_reserved": 0, "is_disabled": 0, "fusion_lon": 0.0, "lat": 38.91871533333333, "name": "d08a47706ea76add29ee471d9c571559", "bike_id": "d08a47706ea76add29ee471d9c571559", "lon": -77.04483383333333, "fusion_lat": 0.0, "rental_uris": {"android": "https://dc.lft.to/lastmile_qr_scan", "ios": "https://dc.lft.to/lastmile_qr_scan"}, "type": "electric_scooter"}, {"is_reserved": 0, "is_disabled": 0, "fusion_lon": 0.0, "lat": 38.901256833333335, "name": "37c7522e98398dd17e145bbe5c9daf13", "bike_id": "37c7522e98398dd17e145bbe5c9daf13", "lon": -77.01754316666667, "fusion_lat": 0.0, "rental_uris": {"android": "https://dc.lft.to/lastmile_qr_scan", "ios": "https://dc.lft.to/lastmile_qr_scan"}, "type": "electric_scooter"}, {"is_reserved": 0, "is_disabled": 0, "fusion_lon": 0.0, "lat": 38.96047433333333, "name": "76ad8a4813a84eb0b93895947cbee7d6", "bike_id": "76ad8a4813a84eb0b93895947cbee7d6", "lon": -77.00510916666667, "fusion_lat": 0.0, "rental_uris": {"android": "https://dc.lft.to/lastmile_qr_scan", "ios": "https://dc.lft.to/lastmile_qr_scan"}, "type": "electric_scooter"}, {"is_reserved": 0, "is_disabled": 0, "fusion_lon": 0.0, "lat": 38.930599, "name": "c2ace3371bedbf4e398cad6f2132784c", "bike_id": "c2ace3371bedbf4e398cad6f2132784c", "lon": -77.04327016666667, "fusion_lat": 0.0, "rental_uris": {"android": "https://dc.lft.to/lastmile_qr_scan", "ios": "https://dc.lft.to/lastmile_qr_scan"}, "type": "electric_scooter"}, {"is_reserved": 0, "is_disabled": 0, "fusion_lon": 0.0, "lat": 38.90774566666666, "name": "7fc60f3b8166b99ca5c8f71f84d3cd3d", "bike_id": "7fc60f3b8166b99ca5c8f71f84d3cd3d", "lon": -77.02186916666666, "fusion_lat": 0.0, "rental_uris": {"android": "https://dc.lft.to/lastmile_qr_scan", "ios": "https://dc.lft.to/lastmile_qr_scan"}, "type": "electric_scooter"}, {"is_reserved": 0, "is_disabled": 0, "fusion_lon": 0.0, "lat": 38.91693583333333, "name": "5581eca0d68363edfcba9eaa62878ae3", "bike_id": "5581eca0d68363edfcba9eaa62878ae3", "lon": -77.02459466666667, "fusion_lat": 0.0, "rental_uris": {"android": "https://dc.lft.to/lastmile_qr_scan", "ios": "https://dc.lft.to/lastmile_qr_scan"}, "type": "electric_scooter"}, {"is_reserved": 0, "is_disabled": 0, "fusion_lon": 0.0, "lat": 38.873952, "name": "f9b8f1bd27827c08f8ae0fd69695e477", "bike_id": "f9b8f1bd27827c08f8ae0fd69695e477", "lon": -77.00026733333333, "fusion_lat": 0.0, "rental_uris": {"android": "https://dc.lft.to/lastmile_qr_scan", "ios": "https://dc.lft.to/lastmile_qr_scan"}, "type": "electric_scooter"}, {"is_reserved": 0, "is_disabled": 0, "fusion_lon": 0.0, "lat": 38.919301833333336, "name": "d12f5b9a202b611e1e2d33e5491dab4f", "bike_id": "d12f5b9a202b611e1e2d33e5491dab4f", "lon": -77.03363216666666, "fusion_lat": 0.0, "rental_uris": {"android": "https://dc.lft.to/lastmile_qr_scan", "ios": "https://dc.lft.to/lastmile_qr_scan"}, "type": "electric_scooter"}, {"is_reserved": 0, "is_disabled": 0, "fusion_lon": 0.0, "lat": 38.896779333333335, "name": "9364773fb8945f79ae9daae96b3d386c", "bike_id": "9364773fb8945f79ae9daae96b3d386c", "lon": -77.04330583333333, "fusion_lat": 0.0, "rental_uris": {"android": "https://dc.lft.to/lastmile_qr_scan", "ios": "https://dc.lft.to/lastmile_qr_scan"}, "type": "electric_scooter"}, {"is_reserved": 0, "is_disabled": 0, "fusion_lon": 0.0, "lat": 38.900192, "name": "72a3786d883fca596edf582f34913863", "bike_id": "72a3786d883fca596edf582f34913863", "lon": -77.04486583333333, "fusion_lat": 0.0, "rental_uris": {"android": "https://dc.lft.to/lastmile_qr_scan", "ios": "https://dc.lft.to/lastmile_qr_scan"}, "type": "electric_scooter"},