{"data": {"bikes": [{"name": "e895f99f07303ee47b4de311d8f0c87e", "fusion_lon": 0.0, "lat": 38.90196616666667, "is_reserved": 0, "type": "electric_scooter", "bike_id": "e895f99f07303ee47b4de311d8f0c87e", "is_disabled": 0, "rental_uris": {"android": "https://dc.lft.to/lastmile_qr_scan", "ios": "https://dc.lft.to/lastmile_qr_scan"}, "lon": -77.02187, "fusion_lat": 0.0}, {"name": "69caae1d3cc48962311a1061bc115e6f", "fusion_lon": 0.0, "lat": 38.86238566666667, "is_reserved": 0, "type": "electric_scooter", "bike_id": "69caae1d3cc48962311a1061bc115e6f", "is_disabled": 0, "rental_uris": {"android": "https://dc.lft.to/lastmile_qr_scan", "ios": "https://dc.lft.to/lastmile_qr_scan"}, "lon": -76.99494816666666, "fusion_lat": 0.0}, {"name": "cc35d34c6ec4fdfd35c18417734b8ac4", "fusion_lon": 0.0, "lat": 38.8492125, "is_reserved": 0, "type": "electric_bike", "bike_id": "cc35d34c6ec4fdfd35c18417734b8ac4", "is_disabled": 0, "rental_uris": {"android": "https://dc.lft.to/lastmile_qr_scan", "ios": "https://dc.lft.to/lastmile_qr_scan"}, "lon": -77.07783183333333, "fusion_lat": 0.0}, {"name": "9b05281a68b2d760d67b910bca69ae19", "fusion_lon": 0.0, "lat": 38.90675316666667, "is_reserved": 0, "type": "electric_scooter", "bike_id": "9b05281a68b2d760d67b910bca69ae19", "is_disabled": 0, "rental_uris": {"android": "https://dc.lft.to/lastmile_qr_scan", "ios": "https://dc.lft.to/lastmile_qr_scan"}, "lon": -77.07132316666667, "fusion_lat": 0.0}, {"name": "0d8a4d4479203ace91c33ace439b5a7f", "fusion_lon": 0.0, "lat": 38.89834833333333, "is_reserved": 0, "type": "electric_scooter", "bike_id": "0d8a4d4479203ace91c33ace439b5a7f", "is_disabled": 0, "rental_uris": {"android": "https://dc.lft.to/lastmile_qr_scan", "ios": "https://dc.lft.to/lastmile_qr_scan"}, "lon": -77.02203266666666, "fusion_lat": 0.0}, {"name": "64df9492fc65eeae0dc73070188f79a1", "fusion_lon": 0.0, "lat": 38.9051025, "is_reserved": 0, "type": "electric_scooter", "bike_id": "64df9492fc65eeae0dc73070188f79a1", "is_disabled": 0, "rental_uris": {"android": "https://dc.lft.to/lastmile_qr_scan", "ios": "https://dc.lft.to/lastmile_qr_scan"}, "lon": -77.00135, "fusion_lat": 0.0}, {"name": "b14f6294f4cbadda8a4c0247f433fee6", "fusion_lon": 0.0, "lat": 38.92542916666667, "is_reserved": 0, "type": "electric_scooter", "bike_id": "b14f6294f4cbadda8a4c0247f433fee6", "is_disabled": 0, "rental_uris": {"android": "https://dc.lft.to/lastmile_qr_scan", "ios": "https://dc.lft.to/lastmile_qr_scan"}, "lon": -77.03297383333333, "fusion_lat": 0.0}, {"name": "457fbc7256976cdbedacb9a54ed04225", "fusion_lon": 0.0, "lat": 38.92149083333334, "is_reserved": 0, "type": "electric_scooter", "bike_id": "457fbc7256976cdbedacb9a54ed04225", "is_disabled": 0, "rental_uris": {"android": "https://dc.lft.to/lastmile_qr_scan", "ios": "https://dc.lft.to/lastmile_qr_scan"}, "lon": -77.0387085, "fusion_lat": 0.0}, {"name": "11a7f7d4118b235c427e2d4f0ebc0561", "fusion_lon": 0.0, "lat": 38.86510333333333, "is_reserved": 0, "type": "electric_scooter", "bike_id": "11a7f7d4118b235c427e2d4f0ebc0561", "is_disabled": 0, "rental_uris": {"android": "https://dc.lft.to/lastmile_qr_scan", "ios": "https://dc.lft.to/lastmile_qr_scan"}, "lon": -76.973463, "fusion_lat": 0.0}, {"name": "3a44cb9a2bc194127e79b054aab95dc7", "fusion_lon": 0.0, "lat": 38.866587333333335, "is_reserved": 0, "type": "electric_scooter", "bike_id": "3a44cb9a2bc194127e79b054aab95dc7", "is_disabled": 0, "rental_uris": {"android": "https://dc.lft.to/lastmile_qr_scan", "ios": "https://dc.lft.to/lastmile_qr_scan"}, "lon": -76.98884816666667, "fusion_lat": 0.0}, {"name": "6ce712ac45634278018cf1b48dc73884", "fusion_lon": 0.0, "lat": 38.9160655, "is_reserved": 0, "type": "electric_scooter", "bike_id": "6ce712ac45634278018cf1b48dc73884", "is_disabled": 0, "rental_uris": {"android": "https://dc.lft.to/lastmile_qr_scan", "ios": "https://dc.lft.to/lastmile_qr_scan"}, "lon": -77.03174083333333, "fusion_lat": 0.0}, {"name": "992511ed753856fe4f34163718c3acfd", "fusion_lon": 0.0, "lat": 38.9564885, "is_reserved": 0, "type": "electric_bike", "bike_id": "992511ed753856fe4f34163718c3acfd", "is_disabled": 0, "rental_uris": {"android": "https://dc.lft.to/lastmile_qr_scan", "ios": "https://dc.lft.to/lastmile_qr_scan"}, "lon": -77.0128, "fusion_lat": 0.0}, {"name": "596f884f50d83f39e343e283f43defcd", "fusion_lon": 0.0, "lat": 38.92886583333333, "is_reserved": 0, "type": "electric_bike", "bike_id": "596f884f50d83f39e343e283f43defcd", "is_disabled": 0, "rental_uris": {"android": "https://dc.lft.to/lastmile_qr_scan", "ios": "https://dc.lft.to/lastmile_qr_scan"}, "lon": -77.083953, "fusion_lat": 0.0}, {"name": "720c362d74da1571ca5bafc9894fd3ad", "fusion_lon": 0.0, "lat": 38.90216133333333, "is_reserved": 0, "type": "electric_scooter", "bike_id": "720c362d74da1571ca5bafc9894fd3ad", "is_disabled": 0, "rental_uris": {"android": "https://dc.lft.to/lastmile_qr_scan", "ios": "https://dc.lft.to/lastmile_qr_scan"}, "lon": -77.02356966666666, "fusion_lat": 0.0}, {"name": "611249e6a906536fcf2b37ff803cb950", "fusion_lon": 0.0, "lat": 38.905121666666666, "is_reserved": 0, "type": "electric_scooter", "bike_id": "611249e6a906536fcf2b37ff803cb950", "is_disabled": 0, "rental_uris": {"android": "https://dc.lft.to/lastmile_qr_scan", "ios": "https://dc.lft.to/lastmile_qr_scan"}, "lon": -77.0021555, "fusion_lat": 0.0}, {"name": "0ff01b39bcafaf388d47acc6ef76c789", "fusion_lon": 0.0, "lat": 38.90621866666667, "is_reserved": 0, "type": "electric_scooter", "bike_id": "0ff01b39bcafaf388d47acc6ef76c789", "is_disabled": 0, "rental_uris": {"android": "https://dc.lft.to/lastmile_qr_scan", "ios": "https://dc.lft.to/lastmile_qr_scan"}, "lon": -77.0100995, "fusion_lat": 0.0}, {"name": "bbd6e3e1647cf08f07736d809fbb9b44", "fusion_lon": 0.0, "lat": 38.95245283333333, "is_reserved": 0, "type": "electric_bike", "bike_id": "bbd6e3e1647cf08f07736d809fbb9b44", "is_disabled": 0, "rental_uris": {"android": "https://dc.lft.to/lastmile_qr_scan", "ios": "https://dc.lft.to/lastmile_qr_scan"}, "lon": -76.97676433333334, "fusion_lat": 0.0}, {"name": "b89ade50e92520297acd56674bd36f99", "fusion_lon": 0.0, "lat": 38.932661833333334, "is_reserved": 0, "type": "electric_scooter", "bike_id": "b89ade50e92520297acd56674bd36f99", "is_disabled": 0, "rental_uris": {"android": "https://dc.lft.to/lastmile_qr_scan", "ios": "https://dc.lft.to/lastmile_qr_scan"}, "lon": -77.01920366666667, "fusion_lat": 0.0}, {"name": "e231ed9ee86f3bb1535e2df11a068e8b", "fusion_lon": 0.0, "lat": 38.930135666666665, "is_reserved": 0, "type": "electric_scooter", "bike_id": "e231ed9ee86f3bb1535e2df11a068e8b", "is_disabled": 0, "rental_uris": {"android": "https://dc.lft.to/lastmile_qr_scan", "ios": "https://dc.lft.to/lastmile_qr_scan"}, "lon": -77.0551845, "fusion_lat": 0.0}, {"name": "f2160e98d814115ea8f24f5b9e3e4520", "fusion_lon": 0.0, "lat": 38.93014933333333, "is_reserved": 0, "type": "electric_scooter", "bike_id": "f2160e98d814115ea8f24f5b9e3e4520", "is_disabled": 0, "rental_uris": {"android": "https://dc.lft.to/lastmile_qr_scan", "ios": "https://dc.lft.to/lastmile_qr_scan"}, "lon": -77.06092216666667, "fusion_lat": 0.0}, {"name": "74f7caacdca5dd010f286ce5d86aea7d", "fusion_lon": 0.0, "lat": 38.92968333333334, "is_reserved": 0, "type": "electric_scooter", "bike_id": "74f7caacdca5dd010f286ce5d86aea7d", "is_disabled": 0, "rental_uris": {"android": "https://dc.lft.to/lastmile_qr_scan", "ios": "https://dc.lft.to/lastmile_qr_scan"}, "lon": -77.02952133333334, "fusion_lat": 0.0}, {"name": "47601bc0f6e8a9fdb9398b44cd8bf738", "fusion_lon": 0.0, "lat": 38.83808616666666, "is_reserved": 0, "type": "electric_bike", "bike_id": "47601bc0f6e8a9fdb9398b44cd8bf738", "is_disabled": 0, "rental_uris": {"android": "https://dc.lft.to/lastmile_qr_scan", "ios": "https://dc.lft.to/lastmile_qr_scan"}, "lon": -77.09523716666666, "fusion_lat": 0.0}, {"name": "7534eb1bca43ce1011b88aff325a1ce7", "fusion_lon": 0.0, "lat": 38.8576755, "is_reserved": 0, "type": "electric_bike", "bike_id": "7534eb1bca43ce1011b88aff325a1ce7", "is_disabled": 0, "rental_uris": {"android": "https://dc.lft.to/lastmile_qr_scan", "ios": "https://dc.lft.to/lastmile_qr_scan"}, "lon": -76.98768383333334, "fusion_lat": 0.0}, {"name": "a859c76d3daea8d3fc46c086189ec9fb", "fusion_lon": 0.0, "lat": 38.91263083333333, "is_reserved": 0, "type": "electric_scooter", "bike_id": "a859c76d3daea8d3fc46c086189ec9fb", "is_disabled": 0, "rental_uris": {"android": "https://dc.lft.to/lastmile_qr_scan", "ios": "https://dc.lft.to/lastmile_qr_scan"}, "lon": -77.03294033333333, "fusion_lat": 0.0}, {"name": "485218ec2ce6a12ec555f22ad490b0cb", "fusion_lon": 0.0, "lat": 38.893433333333334, "is_reserved": 0, "type": "electric_scooter", "bike_id": "485218ec2ce6a12ec555f22ad490b0cb", "is_disabled": 0, "rental_uris": {"android": "https://dc.lft.to/lastmile_qr_scan", "ios": "https://dc.lft.to/lastmile_qr_scan"}, "lon": -77.017136, "fusion_lat": 0.0}, {"name": "57737e6bda070896e5aef1b10edcaf31", "fusion_lon": 0.0, "lat": 38.955277833333334, "is_reserved": 0, "type": "electric_scooter", "bike_id": "57737e6bda070896e5aef1b10edcaf31", "is_disabled": 0, "rental_uris": {"android": "https://dc.lft.to/lastmile_qr_scan", "ios": "https://dc.lft.to/lastmile_qr_scan"}, "lon": -77.02781233333333, "fusion_lat": 0.0}, {"name": "6948412d19d6f927773056f3e6530a29", "fusion_lon": 0.0, "lat": 38.907996833333335, "is_reserved": 0, "type": "electric_scooter", "bike_id": "6948412d19d6f927773056f3e6530a29", "is_disabled": 0, "rental_uris": {"android": "https://dc.lft.to/lastmile_qr_scan", "ios": "https://dc.lft.to/lastmile_qr_scan"}, "lon": -77.0365465, "fusion_lat": 0.0}, {"name": "f4f7146584da20c0ffa4fe211a8d10a5", "fusion_lon": 0.0, "lat": 38.90992133333334, "is_reserved": 0, "type": "electric_scooter", "bike_id": "f4f7146584da20c0ffa4fe211a8d10a5", "is_disabled": 0, "rental_uris": {"android": "https://dc.lft.to/lastmile_qr_scan", "ios": "https://dc.lft.to/lastmile_qr_scan"}, "lon": -77.04430166666667, "fusion_lat": 0.0}, {"name": "2a2810bb5572458fd551ad55b11462a2", "fusion_lon": 0.0, "lat": 38.871773166666664, "is_reserved": 0, "type": "electric_scooter", "bike_id": "2a2810bb5572458fd551ad55b11462a2", "is_disabled": 0, "rental_uris": {"android": "https://dc.lft.to/lastmile_qr_scan", "ios": "https://dc.lft.to/lastmile_qr_scan"}, "lon": -77.00613966666667, "fusion_lat": 0.0}, {"name": "0d340df290df307b1fa3cea5043382f4", "fusion_lon": 0.0, "lat": 38.898997666666666, "is_reserved": 0, "type": "electric_scooter", "bike_id": "0d340df290df307b1fa3cea5043382f4", "is_disabled": 0, "rental_uris": {"android": "https://dc.lft.to/lastmile_qr_scan", "ios": "https://dc.lft.to/lastmile_qr_scan"}, "lon": -76.97705816666667, "fusion_lat": 0.0}, {"name": "fd5cdad8ff24ba9ad8530c31f0bc79e9", "fusion_lon": 0.0, "lat": 38.92282766666667, "is_reserved": 0, "type": "electric_scooter", "bike_id": "fd5cdad8ff24ba9ad8530c31f0bc79e9", "is_disabled": 0, "rental_uris": {"android": "https://dc.lft.to/lastmile_qr_scan", "ios": "https://dc.lft.to/lastmile_qr_scan"}, "lon": -77.02969866666666, "fusion_lat": 0.0}, {"name": "b0e7b5efb7a5d380266229a6c53db98c", "fusion_lon": 0.0, "lat": 38.92112816666667, "is_reserved": 0, "type": "electric_scooter", "bike_id": "b0e7b5efb7a5d380266229a6c53db98c", "is_disabled": 0, "rental_uris": {"android": "https://dc.lft.to/lastmile_qr_scan", "ios": "https://dc.lft.to/lastmile_qr_scan"}, "lon": -77.04374566666667, "fusion_lat": 0.0}, {"name": "d002c5d268b490907c9dffcd400806fd", "fusion_lon": 0.0, "lat": 38.937559, "is_reserved": 0, "type": "electric_scooter", "bike_id": "d002c5d268b490907c9dffcd400806fd", "is_disabled": 0, "rental_uris": {"android": "https://dc.lft.to/lastmile_qr_scan", "ios": "https://dc.lft.to/lastmile_qr_scan"}, "lon": -77.02474433333333, "fusion_lat": 0.0}, {"name": "8fde1e38b1a31a3044c2ef6a90835515", "fusion_lon": 0.0, "lat": 38.91315866666667, "is_reserved": 0, "type": "electric_bike", "bike_id": "8fde1e38b1a31a3044c2ef6a90835515", "is_disabled": 0, "rental_uris": {"android": "https://dc.lft.to/lastmile_qr_scan", "ios": "https://dc.lft.to/lastmile_qr_scan"}, "lon": -77.22316083333334, "fusion_lat": 0.0}, {"name": "d560617c70e95014838fc1e06c04e500", "fusion_lon": 0.0, "lat": 38.917289, "is_reserved": 0, "type": "electric_scooter", "bike_id": "d560617c70e95014838fc1e06c04e500", "is_disabled": 0, "rental_uris": {"android": "https://dc.lft.to/lastmile_qr_scan", "ios": "https://dc.lft.to/lastmile_qr_scan"}, "lon": -77.03209883333334, "fusion_lat": 0.0}, {"name": "208fd801c8c4127d5b64b0670e7932ea", "fusion_lon": 0.0, "lat": 38.8836675, "is_reserved": 0, "type": "electric_scooter", "bike_id": "208fd801c8c4127d5b64b0670e7932ea", "is_disabled": 0, "rental_uris": {"android": "https://dc.lft.to/lastmile_qr_scan", "ios": "https://dc.lft.to/lastmile_qr_scan"}, "lon": -76.99520466666667, "fusion_lat": 0.0}, {"name": "593de3e582554ecc09dfe7733931a94f", "fusion_lon": 0.0, "lat": 38.892004666666665, "is_reserved": 0, "type": "electric_scooter", "bike_id": "593de3e582554ecc09dfe7733931a94f", "is_disabled": 0, "rental_uris": {"android": "https://dc.lft.to/lastmile_qr_scan", "ios": "https://dc.lft.to/lastmile_qr_scan"}, "lon": -77.00298383333333, "fusion_lat": 0.0}, {"name": "a10041433b54862e2bdd35edd027c558", "fusion_lon": 0.0, "lat": 38.8668855, "is_reserved": 0, "type": "electric_scooter", "bike_id": "a10041433b54862e2bdd35edd027c558", "is_disabled": 0, "rental_uris": {"android": "https://dc.lft.to/lastmile_qr_scan", "ios": "https://dc.lft.to/lastmile_qr_scan"}, "lon": -76.985607, "fusion_lat": 0.0}, {"name": "3a2dbe32722853dacd1f559565923800", "fusion_lon": 0.0, "lat": 38.904704, "is_reserved": 0, "type": "electric_scooter", "bike_id": "3a2dbe32722853dacd1f559565923800", "is_disabled": 0, "rental_uris": {"android": "https://dc.lft.to/lastmile_qr_scan", "ios": "https://dc.lft.to/lastmile_qr_scan"}, "lon": -77.0533235, "fusion_lat": 0.0}, {"name": "64e80163a8688880c1bfaf6858dddc7f", "fusion_lon": 0.0, "lat": 38.93182783333334, "is_reserved": 0, "type": "electric_scooter", "bike_id": "64e80163a8688880c1bfaf6858dddc7f", "is_disabled": 0, "rental_uris": {"android": "https://dc.lft.to/lastmile_qr_scan", "ios": "https://dc.lft.to/lastmile_qr_scan"}, "lon": -77.03874616666667, "fusion_lat": 0.0}, {"name": "bca4bf3cad662f1d57618b6e0e6b0792", "fusion_lon": 0.0, "lat": 38.910501833333335, "is_reserved": 0, "type": "electric_scooter", "bike_id": "bca4bf3cad662f1d57618b6e0e6b0792", "is_disabled": 0, "rental_uris": {"android": "https://dc.lft.to/lastmile_qr_scan", "ios": "https://dc.lft.to/lastmile_qr_scan"}, "lon": -77.05398666666666, "fusion_lat": 0.0}, {"name": "26240ff9a13f3b47109266215283c35d", "fusion_lon": 0.0, "lat": 38.919199666666664, "is_reserved": 0, "type": "electric_scooter", "bike_id": "26240ff9a13f3b47109266215283c35d", "is_disabled": 0, "rental_uris": {"android": "https://dc.lft.to/lastmile_qr_scan", "ios": "https://dc.lft.to/lastmile_qr_scan"}, "lon": -77.04252366666667, "fusion_lat": 0.0}, {"name": "6de29a3ce662ec480b9d054eb2f68300", "fusion_lon": 0.0, "lat": 38.91171333333333, "is_reserved": 0, "type": "electric_scooter", "bike_id": "6de29a3ce662ec480b9d054eb2f68300", "is_disabled": 0, "rental_uris": {"android": "https://dc.lft.to/lastmile_qr_scan", "ios": "https://dc.lft.to/lastmile_qr_scan"}, "lon": -77.011265, "fusion_lat": 0.0}, {"name": "f3101bd5350a3605d84d985cf4616930", "fusion_lon": 0.0, "lat": 38.902399833333334, "is_reserved": 0, "type": "electric_scooter", "bike_id": "f3101bd5350a3605d84d985cf4616930", "is_disabled": 0, "rental_uris": {"android": "https://dc.lft.to/lastmile_qr_scan", "ios": "https://dc.lft.to/lastmile_qr_scan"}, "lon": -77.03979633333333, "fusion_lat": 0.0}, {"name": "46030eafcd2d18a2dd748846a009b916", "fusion_lon": 0.0, "lat": 38.86369066666666, "is_reserved": 0, "type": "electric_scooter", "bike_id": "46030eafcd2d18a2dd748846a009b916", "is_disabled": 0, "rental_uris": {"android": "https://dc.lft.to/lastmile_qr_scan", "ios": "https://dc.lft.to/lastmile_qr_scan"}, "lon": -76.99058633333334, "fusion_lat": 0.0}, {"name": "905347f25fb72bd4823657eb58f0e9cd", "fusion_lon": 0.0, "lat": 38.84727316666667, "is_reserved": 0, "type": "electric_bike", "bike_id": "905347f25fb72bd4823657eb58f0e9cd", "is_disabled": 0, "rental_uris": {"android": "https://dc.lft.to/lastmile_qr_scan", "ios": "https://dc.lft.to/lastmile_qr_scan"}, "lon": -77.11985716666666, "fusion_lat": 0.0}, {"name": "5dcdd2dd09f5f8932ffb37d2003d065d", "fusion_lon": 0.0, "lat": 38.90150083333333, "is_reserved": 0, "type": "electric_scooter", "bike_id": "5dcdd2dd09f5f8932ffb37d2003d065d", "is_disabled": 0, "rental_uris": {"android": "https://dc.lft.to/lastmile_qr_scan", "ios": "https://dc.lft.to/lastmile_qr_scan"}, "lon": -76.92139166666666, "fusion_lat": 0.0}, {"name": "fcf1fe105c50e3274aab0bf989ece226", "fusion_lon": 0.0, "lat": 38.93118116666667, "is_reserved": 0, "type": "electric_scooter", "bike_id": "fcf1fe105c50e3274aab0bf989ece226", "is_disabled": 0, "rental_uris": {"android": "https://dc.lft.to/lastmile_qr_scan", "ios": "https://dc.lft.to/lastmile_qr_scan"}, "lon": -77.0330755, "fusion_lat": 0.0}, {"name": "96371bcb432e9861bffebc533855fc82", "fusion_lon": 0.0, "lat": 38.9025895, "is_reserved": 0, "type": "electric_scooter", "bike_id": "96371bcb432e9861bffebc533855fc82", "is_disabled": 0, "rental_uris": {"android": "https://dc.lft.to/lastmile_qr_scan", "ios": "https://dc.lft.to/lastmile_qr_scan"}, "lon": -77.03966266666667, "fusion_lat": 0.0}, {"name": "8c0d6c57a5457943f91c9075637b3c6c", "fusion_lon": 0.0, "lat": 38.8624095, "is_reserved": 0, "type": "electric_scooter", "bike_id": "8c0d6c57a5457943f91c9075637b3c6c", "is_disabled": 0, "rental_uris": {"android": "https://dc.lft.to/lastmile_qr_scan", "ios": "https://dc.lft.to/lastmile_qr_scan"}, "lon": -76.99494183333333, "fusion_lat": 0.0}, {"name": "24cf5c37d6531142d0c82a536b90ccc1", "fusion_lon": 0.0, "lat": 38.9007205, "is_reserved": 0, "type": "electric_scooter", "bike_id": "24cf5c37d6531142d0c82a536b90ccc1", "is_disabled": 0, "rental_uris": {"android": "https://dc.lft.to/lastmile_qr_scan", "ios": "https://dc.lft.to/lastmile_qr_scan"}, "lon": -77.04326266666666, "fusion_lat": 0.0}, {"name": "ea4ffb3f26486107766a80d4dc9200a6", "fusion_lon": 0.0, "lat": 38.9353005, "is_reserved": 0, "type": "electric_scooter", "bike_id": "ea4ffb3f26486107766a80d4dc9200a6", "is_disabled": 0, "rental_uris": {"android": "https://dc.lft.to/lastmile_qr_scan", "ios": "https://dc.lft.to/lastmile_qr_scan"}, "lon": -77.02349116666667, "fusion_lat": 0.0}, {"name": "484bc1aad1ae6ea73c6d9300b112031f", "fusion_lon": 0.0, "lat": 38.882889, "is_reserved": 0, "type": "electric_bike", "bike_id": "484bc1aad1ae6ea73c6d9300b112031f", "is_disabled": 0, "rental_uris": {"android": "https://dc.lft.to/lastmile_qr_scan", "ios": "https://dc.lft.to/lastmile_qr_scan"}, "lon": -77.171851, "fusion_lat": 0.0}, {"name": "6db11c0d24557df899efd6a8c4be2900", "fusion_lon": 0.0, "lat": 38.92339033333333, "is_reserved": 0, "type": "electric_scooter", "bike_id": "6db11c0d24557df899efd6a8c4be2900", "is_disabled": 0, "rental_uris": {"android": "https://dc.lft.to/lastmile_qr_scan", "ios": "https://dc.lft.to/lastmile_qr_scan"}, "lon": -77.052463, "fusion_lat": 0.0}, {"name": "99980cde3073de6937bd0f5ad868c73c", "fusion_lon": 0.0, "lat": 38.92031766666667, "is_reserved": 0, "type": "electric_scooter", "bike_id": "99980cde3073de6937bd0f5ad868c73c", "is_disabled": 0, "rental_uris": {"android": "https://dc.lft.to/lastmile_qr_scan", "ios": "https://dc.lft.to/lastmile_qr_scan"}, "lon": -77.02585583333334, "fusion_lat": 0.0}, {"name": "38363cfffcd716512854788d3e84632e", "fusion_lon": 0.0, "lat": 38.89221233333333, "is_reserved": 0, "type": "electric_scooter", "bike_id": "38363cfffcd716512854788d3e84632e", "is_disabled": 0, "rental_uris": {"android": "https://dc.lft.to/lastmile_qr_scan", "ios": "https://dc.lft.to/lastmile_qr_scan"}, "lon": -77.01285133333333, "fusion_lat": 0.0}, {"name": "1e1b58ae0990537682f71f77592980d4", "fusion_lon": 0.0, "lat": 38.90333966666667, "is_reserved": 0, "type": "electric_scooter", "bike_id": "1e1b58ae0990537682f71f77592980d4", "is_disabled": 0, "rental_uris": {"android": "https://dc.lft.to/lastmile_qr_scan", "ios": "https://dc.lft.to/lastmile_qr_scan"}, "lon": -76.97583516666667, "fusion_lat": 0.0}, {"name": "bf55f1077cff0128a97109be346b9b43", "fusion_lon": 0.0, "lat": 38.899118333333334, "is_reserved": 0, "type": "electric_scooter", "bike_id": "bf55f1077cff0128a97109be346b9b43", "is_disabled": 0, "rental_uris": {"android": "https://dc.lft.to/lastmile_qr_scan", "ios": "https://dc.lft.to/lastmile_qr_scan"}, "lon": -76.9338875, "fusion_lat": 0.0}, {"name": "28e7dd672c099f8febfc8c891d9cf887", "fusion_lon": 0.0, "lat": 38.93057983333333, "is_reserved": 0, "type": "electric_scooter", "bike_id": "28e7dd672c099f8febfc8c891d9cf887", "is_disabled": 0, "rental_uris": {"android": "https://dc.lft.to/lastmile_qr_scan", "ios": "https://dc.lft.to/lastmile_qr_scan"}, "lon": -77.03817033333333, "fusion_lat": 0.0}, {"name": "d20942caad5a9264ad2e0b78daae8df1", "fusion_lon": 0.0, "lat": 38.94126266666667, "is_reserved": 0, "type": "electric_scooter", "bike_id": "d20942caad5a9264ad2e0b78daae8df1", "is_disabled": 0, "rental_uris": {"android": "https://dc.lft.to/lastmile_qr_scan", "ios": "https://dc.lft.to/lastmile_qr_scan"}, "lon": -77.01537033333334, "fusion_lat": 0.0}, {"name": "ffa72381b09295b9d6f4ec935dcd3a2f", "fusion_lon": 0.0, "lat": 38.913315833333336, "is_reserved": 0, "type": "electric_scooter", "bike_id": "ffa72381b09295b9d6f4ec935dcd3a2f", "is_disabled": 0, "rental_uris": {"android": "https://dc.lft.to/lastmile_qr_scan", "ios": "https://dc.lft.to/lastmile_qr_scan"}, "lon": -77.032082, "fusion_lat": 0.0}, {"name": "004ea7279df79f1652383cf3cebc2637", "fusion_lon": 0.0, "lat": 38.9124385, "is_reserved": 0, "type": "electric_scooter", "bike_id": "004ea7279df79f1652383cf3cebc2637", "is_disabled": 0, "rental_uris": {"android": "https://dc.lft.to/lastmile_qr_scan", "ios": "https://dc.lft.to/lastmile_qr_scan"}, "lon": -77.03412966666667, "fusion_lat": 0.0}, {"name": "e038610eeb4100ca86e0c1b436bd0f80", "fusion_lon": 0.0, "lat": 38.90692116666666, "is_reserved": 0, "type": "electric_scooter", "bike_id": "e038610eeb4100ca86e0c1b436bd0f80", "is_disabled": 0, "rental_uris": {"android": "https://dc.lft.to/lastmile_qr_scan", "ios": "https://dc.lft.to/lastmile_qr_scan"}, "lon": -77.02591716666667, "fusion_lat": 0.0}, {"name": "ff52ed70d1fa178754f0760296e5d535", "fusion_lon": 0.0, "lat": 38.92338866666667, "is_reserved": 0, "type": "electric_scooter", "bike_id": "ff52ed70d1fa178754f0760296e5d535", "is_disabled": 0, "rental_uris": {"android": "https://dc.lft.to/lastmile_qr_scan", "ios": "https://dc.lft.to/lastmile_qr_scan"}, "lon": -77.050746, "fusion_lat": 0.0}, {"name": "4b24af0c9c27c77b28cae1c456e5b59a", "fusion_lon": 0.0, "lat": 38.90573533333333, "is_reserved": 0, "type": "electric_scooter", "bike_id": "4b24af0c9c27c77b28cae1c456e5b59a", "is_disabled": 0, "rental_uris": {"android": "https://dc.lft.to/lastmile_qr_scan", "ios": "https://dc.lft.to/lastmile_qr_scan"}, "lon": -77.0398585, "fusion_lat": 0.0}, {"name": "f6c5ec5677167355d9d99f129aa7ccaf", "fusion_lon": 0.0, "lat": 38.90718483333333, "is_reserved": 0, "type": "electric_scooter", "bike_id": "f6c5ec5677167355d9d99f129aa7ccaf", "is_disabled": 0, "rental_uris": {"android": "https://dc.lft.to/lastmile_qr_scan", "ios": "https://dc.lft.to/lastmile_qr_scan"}, "lon": -77.02542333333334, "fusion_lat": 0.0}, {"name": "cc42794a812620d341f3d9eebbcb737a", "fusion_lon": 0.0, "lat": 38.978797, "is_reserved": 0, "type": "electric_bike", "bike_id": "cc42794a812620d341f3d9eebbcb737a", "is_disabled": 0, "rental_uris": {"android": "https://dc.lft.to/lastmile_qr_scan", "ios": "https://dc.lft.to/lastmile_qr_scan"}, "lon": -77.06028883333333, "fusion_lat": 0.0}, {"name": "2973ced4db7c8331db5d0a28ab3107bf", "fusion_lon": 0.0, "lat": 38.912591166666665, "is_reserved": 0, "type": "electric_scooter", "bike_id": "2973ced4db7c8331db5d0a28ab3107bf", "is_disabled": 0, "rental_uris": {"android": "https://dc.lft.to/lastmile_qr_scan", "ios": "https://dc.lft.to/lastmile_qr_scan"}, "lon": -77.0443975, "fusion_lat": 0.0}, {"name": "7ad6b913bf8a1ac000979f7f8d7a0fc5", "fusion_lon": 0.0, "lat": 38.855219, "is_reserved": 0, "type": "electric_bike", "bike_id": "7ad6b913bf8a1ac000979f7f8d7a0fc5", "is_disabled": 0, "rental_uris": {"android": "https://dc.lft.to/lastmile_qr_scan", "ios": "https://dc.lft.to/lastmile_qr_scan"}, "lon": -76.98441683333333, "fusion_lat": 0.0}, {"name": "33201c99c80ac4663f3314e9069efbac", "fusion_lon": 0.0, "lat": 38.919229666666666, "is_reserved": 0, "type": "electric_scooter", "bike_id": "33201c99c80ac4663f3314e9069efbac", "is_disabled": 0, "rental_uris": {"android": "https://dc.lft.to/lastmile_qr_scan", "ios": "https://dc.lft.to/lastmile_qr_scan"}, "lon": -77.031799, "fusion_lat": 0.0}, {"name": "03eb2bafb46863a91b21218d56df9809", "fusion_lon": 0.0, "lat": 38.88308816666667, "is_reserved": 0, "type": "electric_scooter", "bike_id": "03eb2bafb46863a91b21218d56df9809", "is_disabled": 0, "rental_uris": {"android": "https://dc.lft.to/lastmile_qr_scan", "ios": "https://dc.lft.to/lastmile_qr_scan"}, "lon": -77.00051033333334, "fusion_lat": 0.0}, {"name": "ed3fc329d005f980ed53543cdb7c35da", "fusion_lon": 0.0, "lat": 38.8747025, "is_reserved": 0, "type": "electric_scooter", "bike_id": "ed3fc329d005f980ed53543cdb7c35da", "is_disabled": 0, "rental_uris": {"android": "https://dc.lft.to/lastmile_qr_scan", "ios": "https://dc.lft.to/lastmile_qr_scan"}, "lon": -77.00945866666666, "fusion_lat": 0.0}, {"name": "019031f9e48a796268c991d53d14dc6e", "fusion_lon": 0.0, "lat": 38.843149833333335, "is_reserved": 0, "type": "electric_scooter", "bike_id": "019031f9e48a796268c991d53d14dc6e", "is_disabled": 0, "rental_uris": {"android": "https://dc.lft.to/lastmile_qr_scan", "ios": "https://dc.lft.to/lastmile_qr_scan"}, "lon": -76.99930416666666, "fusion_lat": 0.0}, {"name": "083630901c327eb531024abd91e2a9cb", "fusion_lon": 0.0, "lat": 38.917880833333335, "is_reserved": 0, "type": "electric_scooter", "bike_id": "083630901c327eb531024abd91e2a9cb", "is_disabled": 0, "rental_uris": {"android": "https://dc.lft.to/lastmile_qr_scan", "ios": "https://dc.lft.to/lastmile_qr_scan"}, "lon": -77.0229745, "fusion_lat": 0.0}, {"name": "6b3067dca039ac21a0ed75d497552908", "fusion_lon": 0.0, "lat": 38.92043133333333, "is_reserved": 0, "type": "electric_scooter", "bike_id": "6b3067dca039ac21a0ed75d497552908", "is_disabled": 0, "rental_uris": {"android": "https://dc.lft.to/lastmile_qr_scan", "ios": "https://dc.lft.to/lastmile_qr_scan"}, "lon": -77.02614633333333, "fusion_lat": 0.0}, {"name": "1545cb25627f6a328575c7bc10e01194", "fusion_lon": 0.0, "lat": 38.9125405, "is_reserved": 0, "type": "electric_scooter", "bike_id": "1545cb25627f6a328575c7bc10e01194", "is_disabled": 0, "rental_uris": {"android": "https://dc.lft.to/lastmile_qr_scan", "ios": "https://dc.lft.to/lastmile_qr_scan"}, "lon": -77.04468466666667, "fusion_lat": 0.0}, {"name": "b99a5724d0d3bc028f795caeb273fbfd", "fusion_lon": 0.0, "lat": 38.87678966666667, "is_reserved": 0, "type": "electric_scooter", "bike_id": "b99a5724d0d3bc028f795caeb273fbfd", "is_disabled": 0, "rental_uris": {"android": "https://dc.lft.to/lastmile_qr_scan", "ios": "https://dc.lft.to/lastmile_qr_scan"}, "lon": -77.00438083333333, "fusion_lat": 0.0}, {"name": "a37620009ebdd65473c853f0965ca613", "fusion_lon": 0.0, "lat": 38.9003935, "is_reserved": 0, "type": "electric_scooter", "bike_id": "a37620009ebdd65473c853f0965ca613", "is_disabled": 0, "rental_uris": {"android": "https://dc.lft.to/lastmile_qr_scan", "ios": "https://dc.lft.to/lastmile_qr_scan"}, "lon": -76.9191845, "fusion_lat": 0.0}, {"name": "ab933c122e73b90e726deee300f3f834", "fusion_lon": 0.0, "lat": 38.885053166666665, "is_reserved": 0, "type": "electric_scooter", "bike_id": "ab933c122e73b90e726deee300f3f834", "is_disabled": 0, "rental_uris": {"android": "https://dc.lft.to/lastmile_qr_scan", "ios": "https://dc.lft.to/lastmile_qr_scan"}, "lon": -76.99839533333333, "fusion_lat": 0.0}, {"name": "97af1ed2832d7ffcbc561c8021ffccab", "fusion_lon": 0.0, "lat": 38.939543666666665, "is_reserved": 0, "type": "electric_scooter", "bike_id": "97af1ed2832d7ffcbc561c8021ffccab", "is_disabled": 0, "rental_uris": {"android": "https://dc.lft.to/lastmile_qr_scan", "ios": "https://dc.lft.to/lastmile_qr_scan"}, "lon": -77.072512, "fusion_lat": 0.0}, {"name": "19888397eb129150b8523fb906f5f69b", "fusion_lon": 0.0, "lat": 38.89846433333334, "is_reserved": 0, "type": "electric_scooter", "bike_id": "19888397eb129150b8523fb906f5f69b", "is_disabled": 0, "rental_uris": {"android": "https://dc.lft.to/lastmile_qr_scan", "ios": "https://dc.lft.to/lastmile_qr_scan"}, "lon": -77.0333165, "fusion_lat": 0.0}, {"name": "92c999a6e7ed151b19684a43995266bd", "fusion_lon": 0.0, "lat": 38.9084835, "is_reserved": 0, "type": "electric_scooter", "bike_id": "92c999a6e7ed151b19684a43995266bd", "is_disabled": 0, "rental_uris": {"android": "https://dc.lft.to/lastmile_qr_scan", "ios": "https://dc.lft.to/lastmile_qr_scan"}, "lon": -77.03659333333333, "fusion_lat": 0.0}, {"name": "379652ba90c5c908e87b5118488a4437", "fusion_lon": 0.0, "lat": 38.93081316666667, "is_reserved": 0, "type": "electric_scooter", "bike_id": "379652ba90c5c908e87b5118488a4437", "is_disabled": 0, "rental_uris": {"android": "https://dc.lft.to/lastmile_qr_scan", "ios": "https://dc.lft.to/lastmile_qr_scan"}, "lon": -77.02566783333333, "fusion_lat": 0.0}, {"name": "9b129afb0f2746cebc26dafbe660ac6d", "fusion_lon": 0.0, "lat": 38.87203433333333, "is_reserved": 0, "type": "electric_scooter", "bike_id": "9b129afb0f2746cebc26dafbe660ac6d", "is_disabled": 0, "rental_uris": {"android": "https://dc.lft.to/lastmile_qr_scan", "ios": "https://dc.lft.to/lastmile_qr_scan"}, "lon": -76.9783965, "fusion_lat": 0.0}, {"name": "6c628c2e4dcc3a1f50d0bdcb7a07e1c1", "fusion_lon": 0.0, "lat": 38.9420085, "is_reserved": 0, "type": "electric_scooter", "bike_id": "6c628c2e4dcc3a1f50d0bdcb7a07e1c1", "is_disabled": 0, "rental_uris": {"android": "https://dc.lft.to/lastmile_qr_scan", "ios": "https://dc.lft.to/lastmile_qr_scan"}, "lon": -77.0251585, "fusion_lat": 0.0}, {"name": "9cba037cc921908bc85780907d572dda", "fusion_lon": 0.0, "lat": 39.03930316666667, "is_reserved": 0, "type": "electric_bike", "bike_id": "9cba037cc921908bc85780907d572dda", "is_disabled": 0, "rental_uris": {"android": "https://dc.lft.to/lastmile_qr_scan", "ios": "https://dc.lft.to/lastmile_qr_scan"}, "lon": -77.02851033333333, "fusion_lat": 0.0}, {"name": "a1fef1e4815149d36319e3c151b7eeae", "fusion_lon": 0.0, "lat": 38.903445, "is_reserved": 0, "type": "electric_scooter", "bike_id": "a1fef1e4815149d36319e3c151b7eeae", "is_disabled": 0, "rental_uris": {"android": "https://dc.lft.to/lastmile_qr_scan", "ios": "https://dc.lft.to/lastmile_qr_scan"}, "lon": -77.04894283333333, "fusion_lat": 0.0}, {"name": "c225acd6feca52f30dbb4ce926b70164", "fusion_lon": 0.0, "lat": 38.90254316666667, "is_reserved": 0, "type": "electric_bike", "bike_id": "c225acd6feca52f30dbb4ce926b70164", "is_disabled": 0, "rental_uris": {"android": "https://dc.lft.to/lastmile_qr_scan", "ios": "https://dc.lft.to/lastmile_qr_scan"}, "lon": -77.02811983333334, "fusion_lat": 0.0}, {"name": "ee4363c006dc3649e9da19082d450148", "fusion_lon": 0.0, "lat": 38.91909116666667, "is_reserved": 0, "type": "electric_scooter", "bike_id": "ee4363c006dc3649e9da19082d450148", "is_disabled": 0, "rental_uris": {"android": "https://dc.lft.to/lastmile_qr_scan", "ios": "https://dc.lft.to/lastmile_qr_scan"}, "lon": -76.970894, "fusion_lat": 0.0}, {"name": "0908b95fe4fdb8663ec87a1159e361f9", "fusion_lon": 0.0, "lat": 38.95728316666667, "is_reserved": 0, "type": "electric_scooter", "bike_id": "0908b95fe4fdb8663ec87a1159e361f9", "is_disabled": 0, "rental_uris": {"android": "https://dc.lft.to/lastmile_qr_scan", "ios": "https://dc.lft.to/lastmile_qr_scan"}, "lon": -77.02426983333334, "fusion_lat": 0.0}, {"name": "625e47df3c51a1c78b4d976de071cb48", "fusion_lon": 0.0, "lat": 38.95133166666667, "is_reserved": 0, "type": "electric_scooter", "bike_id": "625e47df3c51a1c78b4d976de071cb48", "is_disabled": 0, "rental_uris": {"android": "https://dc.lft.to/lastmile_qr_scan", "ios": "https://dc.lft.to/lastmile_qr_scan"}, "lon": -77.02723616666667, "fusion_lat": 0.0}, {"name": "875511b7da9db29a66931b20f2d62cc8", "fusion_lon": 0.0, "lat": 38.893629833333335, "is_reserved": 0, "type": "electric_scooter", "bike_id": "875511b7da9db29a66931b20f2d62cc8", "is_disabled": 0, "rental_uris": {"android": "https://dc.lft.to/lastmile_qr_scan", "ios": "https://dc.lft.to/lastmile_qr_scan"}, "lon": -76.9908675, "fusion_lat": 0.0}, {"name": "df4bc2dfcf096c399c88f23b45916f9f", "fusion_lon": 0.0, "lat": 38.924437, "is_reserved": 0, "type": "electric_scooter", "bike_id": "df4bc2dfcf096c399c88f23b45916f9f", "is_disabled": 0, "rental_uris": {"android": "https://dc.lft.to/lastmile_qr_scan", "ios": "https://dc.lft.to/lastmile_qr_scan"}, "lon": -77.022564, "fusion_lat": 0.0}, {"name": "7b1a0c48ca2e20d0704c9bce3a6eb6ff", "fusion_lon": 0.0, "lat": 38.95836166666667, "is_reserved": 0, "type": "electric_scooter", "bike_id": "7b1a0c48ca2e20d0704c9bce3a6eb6ff", "is_disabled": 0, "rental_uris": {"android": "https://dc.lft.to/lastmile_qr_scan", "ios": "https://dc.lft.to/lastmile_qr_scan"}, "lon": -77.01512883333334, "fusion_lat": 0.0}, {"name": "d2d0bed81015b4f00ac04c12629880ce", "fusion_lon": 0.0, "lat": 38.919438666666665, "is_reserved": 0, "type": "electric_scooter", "bike_id": "d2d0bed81015b4f00ac04c12629880ce", "is_disabled": 0, "rental_uris": {"android": "https://dc.lft.to/lastmile_qr_scan", "ios": "https://dc.lft.to/lastmile_qr_scan"}, "lon": -77.0288595, "fusion_lat": 0.0}, {"name": "c1279ddb32bd746fce9c129ee520f57b", "fusion_lon": 0.0, "lat": 38.895511166666665, "is_reserved": 0, "type": "electric_scooter", "bike_id": "c1279ddb32bd746fce9c129ee520f57b", "is_disabled": 0, "rental_uris": {"android": "https://dc.lft.to/lastmile_qr_scan", "ios": "https://dc.lft.to/lastmile_qr_scan"}, "lon": -77.04675383333333, "fusion_lat": 0.0}, {"name": "c7e74fc64cf8f3a47de2abd92542ce27", "fusion_lon": 0.0, "lat": 38.8765015, "is_reserved": 0, "type": "electric_scooter", "bike_id": "c7e74fc64cf8f3a47de2abd92542ce27", "is_disabled": 0, "rental_uris": {"android": "https://dc.lft.to/lastmile_qr_scan", "ios": "https://dc.lft.to/lastmile_qr_scan"}, "lon": -76.96506383333333, "fusion_lat": 0.0}, {"name": "fe3d4826bc42ed9bd56300def2e5be94", "fusion_lon": 0.0, "lat": 38.8922135, "is_reserved": 0, "type": "electric_scooter", "bike_id": "fe3d4826bc42ed9bd56300def2e5be94", "is_disabled": 0, "rental_uris": {"android": "https://dc.lft.to/lastmile_qr_scan", "ios": "https://dc.lft.to/lastmile_qr_scan"}, "lon": -77.043059, "fusion_lat": 0.0}, {"name": "0bad0020b917a3970e8015e7f322a438", "fusion_lon": 0.0, "lat": 38.90018, "is_reserved": 0, "type": "electric_scooter", "bike_id": "0bad0020b917a3970e8015e7f322a438", "is_disabled": 0, "rental_uris": {"android": "https://dc.lft.to/lastmile_qr_scan", "ios": "https://dc.lft.to/lastmile_qr_scan"}, "lon": -76.99528716666667, "fusion_lat": 0.0}, {"name": "fcf097d5b52d538e17ca1b9b582ed822", "fusion_lon": 0.0, "lat": 38.95499733333333, "is_reserved": 0, "type": "electric_bike", "bike_id": "fcf097d5b52d538e17ca1b9b582ed822", "is_disabled": 0, "rental_uris": {"android": "https://dc.lft.to/lastmile_qr_scan", "ios": "https://dc.lft.to/lastmile_qr_scan"}, "lon": -76.9935455, "fusion_lat": 0.0}, {"name": "ffda31a698dd3925620b31d03c3500b1", "fusion_lon": 0.0, "lat": 38.9167805, "is_reserved": 0, "type": "electric_scooter", "bike_id": "ffda31a698dd3925620b31d03c3500b1", "is_disabled": 0, "rental_uris": {"android": "https://dc.lft.to/lastmile_qr_scan", "ios": "https://dc.lft.to/lastmile_qr_scan"}, "lon": -77.03688933333333, "fusion_lat": 0.0}, {"name": "321574a9c76913e1fdc0859822d9374d", "fusion_lon": 0.0, "lat": 38.903789, "is_reserved": 0, "type": "electric_scooter", "bike_id": "321574a9c76913e1fdc0859822d9374d", "is_disabled": 0, "rental_uris": {"android": "https://dc.lft.to/lastmile_qr_scan", "ios": "https://dc.lft.to/lastmile_qr_scan"}, "lon": -77.04285933333334, "fusion_lat": 0.0}, {"name": "a8fd0e666ff0905f9289fc04eb1bb6f3", "fusion_lon": 0.0, "lat": 38.98446833333333, "is_reserved": 0, "type": "electric_bike", "bike_id": "a8fd0e666ff0905f9289fc04eb1bb6f3", "is_disabled": 0, "rental_uris": {"android": "https://dc.lft.to/lastmile_qr_scan", "ios": "https://dc.lft.to/lastmile_qr_scan"}, "lon": -77.02675033333334, "fusion_lat": 0.0}, {"name": "5333e0fc5493dfb3b2640e5f4079eec1", "fusion_lon": 0.0, "lat": 38.915025166666666, "is_reserved": 0, "type": "electric_scooter", "bike_id": "5333e0fc5493dfb3b2640e5f4079eec1", "is_disabled": 0, "rental_uris": {"android": "https://dc.lft.to/lastmile_qr_scan", "ios": "https://dc.lft.to/lastmile_qr_scan"}, "lon": -77.0454415, "fusion_lat": 0.0}, {"name": "990679f1c8e853d71ef1364d9e1e6a26", "fusion_lon": 0.0, "lat": 38.91982183333333, "is_reserved": 0, "type": "electric_scooter", "bike_id": "990679f1c8e853d71ef1364d9e1e6a26", "is_disabled": 0, "rental_uris": {"android": "https://dc.lft.to/lastmile_qr_scan", "ios": "https://dc.lft.to/lastmile_qr_scan"}, "lon": -77.023747, "fusion_lat": 0.0}, {"name": "d103e5808ca13dd274a3c99271d2f2b0", "fusion_lon": 0.0, "lat": 38.9068255, "is_reserved": 0, "type": "electric_scooter", "bike_id": "d103e5808ca13dd274a3c99271d2f2b0", "is_disabled": 0, "rental_uris": {"android": "https://dc.lft.to/lastmile_qr_scan", "ios": "https://dc.lft.to/lastmile_qr_scan"}, "lon": -77.03509816666667, "fusion_lat": 0.0}, {"name": "f275d949cd0596bfb606597f0457071b", "fusion_lon": 0.0, "lat": 38.901750666666665, "is_reserved": 0, "type": "electric_scooter", "bike_id": "f275d949cd0596bfb606597f0457071b", "is_disabled": 0, "rental_uris": {"android": "https://dc.lft.to/lastmile_qr_scan", "ios": "https://dc.lft.to/lastmile_qr_scan"}, "lon": -76.98301166666667, "fusion_lat": 0.0}, {"name": "bb31827127438fc1b2b40313f599b199", "fusion_lon": 0.0, "lat": 38.91416816666667, "is_reserved": 0, "type": "electric_scooter", "bike_id": "bb31827127438fc1b2b40313f599b199", "is_disabled": 0, "rental_uris": {"android": "https://dc.lft.to/lastmile_qr_scan", "ios": "https://dc.lft.to/lastmile_qr_scan"}, "lon": -77.034377, "fusion_lat": 0.0}, {"name": "07f02f2e4cfbdb019f0a942e0c55ccc6", "fusion_lon": 0.0, "lat": 38.897194999999996, "is_reserved": 0, "type": "electric_scooter", "bike_id": "07f02f2e4cfbdb019f0a942e0c55ccc6", "is_disabled": 0, "rental_uris": {"android": "https://dc.lft.to/lastmile_qr_scan", "ios": "https://dc.lft.to/lastmile_qr_scan"}, "lon": -77.007847, "fusion_lat": 0.0}, {"name": "e18221e68ecd1174fe623fab5bdbf678", "fusion_lon": 0.0, "lat": 38.865158666666666, "is_reserved": 0, "type": "electric_bike", "bike_id": "e18221e68ecd1174fe623fab5bdbf678", "is_disabled": 0, "rental_uris": {"android": "https://dc.lft.to/lastmile_qr_scan", "ios": "https://dc.lft.to/lastmile_qr_scan"}, "lon": -76.97340566666666, "fusion_lat": 0.0}, {"name": "aa162fc1c58d641b8242a1a625dbb3b6", "fusion_lon": 0.0, "lat": 38.898099333333334, "is_reserved": 0, "type": "electric_scooter", "bike_id": "aa162fc1c58d641b8242a1a625dbb3b6", "is_disabled": 0, "rental_uris": {"android": "https://dc.lft.to/lastmile_qr_scan", "ios": "https://dc.lft.to/lastmile_qr_scan"}, "lon": -77.02953416666666, "fusion_lat": 0.0}, {"name": "a8a2925a6c4286797b2a911cb624014f", "fusion_lon": 0.0, "lat": 38.92159016666667, "is_reserved": 0, "type": "electric_scooter", "bike_id": "a8a2925a6c4286797b2a911cb624014f", "is_disabled": 0, "rental_uris": {"android": "https://dc.lft.to/lastmile_qr_scan", "ios": "https://dc.lft.to/lastmile_qr_scan"}, "lon": -77.0351485, "fusion_lat": 0.0}, {"name": "1295967a40ee91ae8394f0cf453a59dd", "fusion_lon": 0.0, "lat": 38.9198745, "is_reserved": 0, "type": "electric_scooter", "bike_id": "1295967a40ee91ae8394f0cf453a59dd", "is_disabled": 0, "rental_uris": {"android": "https://dc.lft.to/lastmile_qr_scan", "ios": "https://dc.lft.to/lastmile_qr_scan"}, "lon": -77.02370533333334, "fusion_lat": 0.0}, {"name": "fb0afc11c8c3c349463e800e2938ad24", "fusion_lon": 0.0, "lat": 38.903052833333334, "is_reserved": 0, "type": "electric_scooter", "bike_id": "fb0afc11c8c3c349463e800e2938ad24", "is_disabled": 0, "rental_uris": {"android": "https://dc.lft.to/lastmile_qr_scan", "ios": "https://dc.lft.to/lastmile_qr_scan"}, "lon": -77.02365133333333, "fusion_lat": 0.0}, {"name": "5926f5eba897273e5255aae7df25a938", "fusion_lon": 0.0, "lat": 38.911103833333335, "is_reserved": 0, "type": "electric_scooter", "bike_id": "5926f5eba897273e5255aae7df25a938", "is_disabled": 0, "rental_uris": {"android": "https://dc.lft.to/lastmile_qr_scan", "ios": "https://dc.lft.to/lastmile_qr_scan"}, "lon": -77.043541, "fusion_lat": 0.0}, {"name": "df5a8bad9221e40cde7d5c34eccd7ae3", "fusion_lon": 0.0, "lat": 38.913447833333336, "is_reserved": 0, "type": "electric_scooter", "bike_id": "df5a8bad9221e40cde7d5c34eccd7ae3", "is_disabled": 0, "rental_uris": {"android": "https://dc.lft.to/lastmile_qr_scan", "ios": "https://dc.lft.to/lastmile_qr_scan"}, "lon": -77.0423275, "fusion_lat": 0.0}, {"name": "a7e0dbf7cf73c453ef0b0a5b8b6e8aad", "fusion_lon": 0.0, "lat": 38.906074333333336, "is_reserved": 0, "type": "electric_scooter", "bike_id": "a7e0dbf7cf73c453ef0b0a5b8b6e8aad", "is_disabled": 0, "rental_uris": {"android": "https://dc.lft.to/lastmile_qr_scan", "ios": "https://dc.lft.to/lastmile_qr_scan"}, "lon": -76.99268333333333, "fusion_lat": 0.0}, {"name": "836e1f8c3dd5fc9cb70be0503e3d8655", "fusion_lon": 0.0, "lat": 38.90030816666667, "is_reserved": 0, "type": "electric_bike", "bike_id": "836e1f8c3dd5fc9cb70be0503e3d8655", "is_disabled": 0, "rental_uris": {"android": "https://dc.lft.to/lastmile_qr_scan", "ios": "https://dc.lft.to/lastmile_qr_scan"}, "lon": -76.972246, "fusion_lat": 0.0}, {"name": "4990eac77968d281503e6c66be713b6c", "fusion_lon": 0.0, "lat": 38.945133, "is_reserved": 0, "type": "electric_scooter", "bike_id": "4990eac77968d281503e6c66be713b6c", "is_disabled": 0, "rental_uris": {"android": "https://dc.lft.to/lastmile_qr_scan", "ios": "https://dc.lft.to/lastmile_qr_scan"}, "lon": -77.03322233333333, "fusion_lat": 0.0}, {"name": "24a6e3738f814264fac350364081415f", "fusion_lon": 0.0, "lat": 38.858921, "is_reserved": 0, "type": "electric_bike", "bike_id": "24a6e3738f814264fac350364081415f", "is_disabled": 0, "rental_uris": {"android": "https://dc.lft.to/lastmile_qr_scan", "ios": "https://dc.lft.to/lastmile_qr_scan"}, "lon": -77.11864066666666, "fusion_lat": 0.0}, {"name": "1549801c5fc56076c7cf50414fe83576", "fusion_lon": 0.0, "lat": 38.90378616666667, "is_reserved": 0, "type": "electric_scooter", "bike_id": "1549801c5fc56076c7cf50414fe83576", "is_disabled": 0, "rental_uris": {"android": "https://dc.lft.to/lastmile_qr_scan", "ios": "https://dc.lft.to/lastmile_qr_scan"}, "lon": -77.03631033333333, "fusion_lat": 0.0}, {"name": "25c23a49296e595cdba340892803ae8b", "fusion_lon": 0.0, "lat": 38.91913316666667, "is_reserved": 0, "type": "electric_scooter", "bike_id": "25c23a49296e595cdba340892803ae8b", "is_disabled": 0, "rental_uris": {"android": "https://dc.lft.to/lastmile_qr_scan", "ios": "https://dc.lft.to/lastmile_qr_scan"}, "lon": -77.00991883333333, "fusion_lat": 0.0}, {"name": "640a29d7aeb3253d33bc0b093a2fdd95", "fusion_lon": 0.0, "lat": 38.884608166666666, "is_reserved": 0, "type": "electric_scooter", "bike_id": "640a29d7aeb3253d33bc0b093a2fdd95", "is_disabled": 0, "rental_uris": {"android": "https://dc.lft.to/lastmile_qr_scan", "ios": "https://dc.lft.to/lastmile_qr_scan"}, "lon": -76.95746483333333, "fusion_lat": 0.0}, {"name": "8da59ea560c9b069f54a04cc8b2d3fce", "fusion_lon": 0.0, "lat": 38.90731483333333, "is_reserved": 0, "type": "electric_scooter", "bike_id": "8da59ea560c9b069f54a04cc8b2d3fce", "is_disabled": 0, "rental_uris": {"android": "https://dc.lft.to/lastmile_qr_scan", "ios": "https://dc.lft.to/lastmile_qr_scan"}, "lon": -77.01135666666667, "fusion_lat": 0.0}, {"name": "3de98e3386c74b551f1a9ae5cc98a26d", "fusion_lon": 0.0, "lat": 38.90863733333333, "is_reserved": 0, "type": "electric_scooter", "bike_id": "3de98e3386c74b551f1a9ae5cc98a26d", "is_disabled": 0, "rental_uris": {"android": "https://dc.lft.to/lastmile_qr_scan", "ios": "https://dc.lft.to/lastmile_qr_scan"}, "lon": -77.02422233333333, "fusion_lat": 0.0}, {"name": "507a40e7ce3feb8cd98ffa647f83d9c4", "fusion_lon": 0.0, "lat": 38.9094215, "is_reserved": 0, "type": "electric_scooter", "bike_id": "507a40e7ce3feb8cd98ffa647f83d9c4", "is_disabled": 0, "rental_uris": {"android": "https://dc.lft.to/lastmile_qr_scan", "ios": "https://dc.lft.to/lastmile_qr_scan"}, "lon": -77.04250033333334, "fusion_lat": 0.0}, {"name": "dfe4db8f125e3b960950790df7b7a108", "fusion_lon": 0.0, "lat": 38.9223035, "is_reserved": 0, "type": "electric_scooter", "bike_id": "dfe4db8f125e3b960950790df7b7a108", "is_disabled": 0, "rental_uris": {"android": "https://dc.lft.to/lastmile_qr_scan", "ios": "https://dc.lft.to/lastmile_qr_scan"}, "lon": -77.02975716666667, "fusion_lat": 0.0}, {"name": "5a75b58f7a3566d8b7fed1ce3e0279bb", "fusion_lon": 0.0, "lat": 38.924125833333335, "is_reserved": 0, "type": "electric_scooter", "bike_id": "5a75b58f7a3566d8b7fed1ce3e0279bb", "is_disabled": 0, "rental_uris": {"android": "https://dc.lft.to/lastmile_qr_scan", "ios": "https://dc.lft.to/lastmile_qr_scan"}, "lon": -77.02007483333334, "fusion_lat": 0.0}, {"name": "9982c458349b003f949b6277d71f47f9", "fusion_lon": 0.0, "lat": 38.889091, "is_reserved": 0, "type": "electric_scooter", "bike_id": "9982c458349b003f949b6277d71f47f9", "is_disabled": 0, "rental_uris": {"android": "https://dc.lft.to/lastmile_qr_scan", "ios": "https://dc.lft.to/lastmile_qr_scan"}, "lon": -77.052213, "fusion_lat": 0.0}, {"name": "94d3f27c10f7f2d709e5e1debf985d24", "fusion_lon": 0.0, "lat": 38.903133833333335, "is_reserved": 0, "type": "electric_scooter", "bike_id": "94d3f27c10f7f2d709e5e1debf985d24", "is_disabled": 0, "rental_uris": {"android": "https://dc.lft.to/lastmile_qr_scan", "ios": "https://dc.lft.to/lastmile_qr_scan"}, "lon": -76.97801766666667, "fusion_lat": 0.0}, {"name": "937c6d9df727383eada3b491b504595f", "fusion_lon": 0.0, "lat": 38.86884883333333, "is_reserved": 0, "type": "electric_bike", "bike_id": "937c6d9df727383eada3b491b504595f", "is_disabled": 0, "rental_uris": {"android": "https://dc.lft.to/lastmile_qr_scan", "ios": "https://dc.lft.to/lastmile_qr_scan"}, "lon": -76.957847, "fusion_lat": 0.0}, {"name": "726a75a78722923c976590c1c6fe2cc4", "fusion_lon": 0.0, "lat": 38.9214815, "is_reserved": 0, "type": "electric_scooter", "bike_id": "726a75a78722923c976590c1c6fe2cc4", "is_disabled": 0, "rental_uris": {"android": "https://dc.lft.to/lastmile_qr_scan", "ios": "https://dc.lft.to/lastmile_qr_scan"}, "lon": -77.01813133333333, "fusion_lat": 0.0}, {"name": "d1b5daeb7ca47617fc74829bc4f4e300", "fusion_lon": 0.0, "lat": 38.95172516666667, "is_reserved": 0, "type": "electric_bike", "bike_id": "d1b5daeb7ca47617fc74829bc4f4e300", "is_disabled": 0, "rental_uris": {"android": "https://dc.lft.to/lastmile_qr_scan", "ios": "https://dc.lft.to/lastmile_qr_scan"}, "lon": -76.9773105, "fusion_lat": 0.0}, {"name": "afeb8552747ac3b02c656aedaec72ae2", "fusion_lon": 0.0, "lat": 38.909565, "is_reserved": 0, "type": "electric_scooter", "bike_id": "afeb8552747ac3b02c656aedaec72ae2", "is_disabled": 0, "rental_uris": {"android": "https://dc.lft.to/lastmile_qr_scan", "ios": "https://dc.lft.to/lastmile_qr_scan"}, "lon": -77.02687266666666, "fusion_lat": 0.0}, {"name": "df09a88030210fcfdbbf30bd62684cb9", "fusion_lon": 0.0, "lat": 38.96500116666667, "is_reserved": 0, "type": "electric_bike", "bike_id": "df09a88030210fcfdbbf30bd62684cb9", "is_disabled": 0, "rental_uris": {"android": "https://dc.lft.to/lastmile_qr_scan", "ios": "https://dc.lft.to/lastmile_qr_scan"}, "lon": -77.0199675, "fusion_lat": 0.0}, {"name": "c752f2154e6bcadafa1ba785354115a4", "fusion_lon": 0.0, "lat": 38.92859933333333, "is_reserved": 0, "type": "electric_scooter", "bike_id": "c752f2154e6bcadafa1ba785354115a4", "is_disabled": 0, "rental_uris": {"android": "https://dc.lft.to/lastmile_qr_scan", "ios": "https://dc.lft.to/lastmile_qr_scan"}, "lon": -77.01372233333333, "fusion_lat": 0.0}, {"name": "ec9435bb2e25bdf782360daff1f83baf", "fusion_lon": 0.0, "lat": 38.90488666666667, "is_reserved": 0, "type": "electric_scooter", "bike_id": "ec9435bb2e25bdf782360daff1f83baf", "is_disabled": 0, "rental_uris": {"android": "https://dc.lft.to/lastmile_qr_scan", "ios": "https://dc.lft.to/lastmile_qr_scan"}, "lon": -76.94963683333333, "fusion_lat": 0.0}, {"name": "d01197ad5913976f44b38634b805c12a", "fusion_lon": 0.0, "lat": 38.95741616666667, "is_reserved": 0, "type": "electric_scooter", "bike_id": "d01197ad5913976f44b38634b805c12a", "is_disabled": 0, "rental_uris": {"android": "https://dc.lft.to/lastmile_qr_scan", "ios": "https://dc.lft.to/lastmile_qr_scan"}, "lon": -77.020655, "fusion_lat": 0.0}, {"name": "267ed1d6ddafe2fb822b340c3e141f53", "fusion_lon": 0.0, "lat": 38.8314455, "is_reserved": 0, "type": "electric_scooter", "bike_id": "267ed1d6ddafe2fb822b340c3e141f53", "is_disabled": 0, "rental_uris": {"android": "https://dc.lft.to/lastmile_qr_scan", "ios": "https://dc.lft.to/lastmile_qr_scan"}, "lon": -77.05125, "fusion_lat": 0.0}, {"name": "36b6328ca399f0d418e18bdf2ad1dcb9", "fusion_lon": 0.0, "lat": 38.93669716666667, "is_reserved": 0, "type": "electric_scooter", "bike_id": "36b6328ca399f0d418e18bdf2ad1dcb9", "is_disabled": 0, "rental_uris": {"android": "https://dc.lft.to/lastmile_qr_scan", "ios": "https://dc.lft.to/lastmile_qr_scan"}, "lon": -77.03570466666666, "fusion_lat": 0.0}, {"name": "e3f8248960c20cfefe769b431430bff6", "fusion_lon": 0.0, "lat": 38.91706833333333, "is_reserved": 0, "type": "electric_scooter", "bike_id": "e3f8248960c20cfefe769b431430bff6", "is_disabled": 0, "rental_uris": {"android": "https://dc.lft.to/lastmile_qr_scan", "ios": "https://dc.lft.to/lastmile_qr_scan"}, "lon": -77.035006, "fusion_lat": 0.0}, {"name": "f671bed1a8d5771a11743c49884895ba", "fusion_lon": 0.0, "lat": 38.897134666666666, "is_reserved": 0, "type": "electric_scooter", "bike_id": "f671bed1a8d5771a11743c49884895ba", "is_disabled": 0, "rental_uris": {"android": "https://dc.lft.to/lastmile_qr_scan", "ios": "https://dc.lft.to/lastmile_qr_scan"}, "lon": -76.973447, "fusion_lat": 0.0}, {"name": "c8808089b661cecc49202e6bfa5a1b57", "fusion_lon": 0.0, "lat": 38.90753316666667, "is_reserved": 0, "type": "electric_scooter", "bike_id": "c8808089b661cecc49202e6bfa5a1b57", "is_disabled": 0, "rental_uris": {"android": "https://dc.lft.to/lastmile_qr_scan", "ios": "https://dc.lft.to/lastmile_qr_scan"}, "lon": -77.031868, "fusion_lat": 0.0}, {"name": "64e48842505c7f5eed1d001953e1a3d1", "fusion_lon": 0.0, "lat": 38.878653666666665, "is_reserved": 0, "type": "electric_scooter", "bike_id": "64e48842505c7f5eed1d001953e1a3d1", "is_disabled": 0, "rental_uris": {"android": "https://dc.lft.to/lastmile_qr_scan", "ios": "https://dc.lft.to/lastmile_qr_scan"}, "lon": -77.0229965, "fusion_lat": 0.0}, {"name": "6913baab9ececc39165e905f3bda0359", "fusion_lon": 0.0, "lat": 38.9234085, "is_reserved": 0, "type": "electric_scooter", "bike_id": "6913baab9ececc39165e905f3bda0359", "is_disabled": 0, "rental_uris": {"android": "https://dc.lft.to/lastmile_qr_scan", "ios": "https://dc.lft.to/lastmile_qr_scan"}, "lon": -77.05081466666667, "fusion_lat": 0.0}, {"name": "ad82faf71d61662b29c1ced6e3df49f9", "fusion_lon": 0.0, "lat": 38.9241665, "is_reserved": 0, "type": "electric_scooter", "bike_id": "ad82faf71d61662b29c1ced6e3df49f9", "is_disabled": 0, "rental_uris": {"android": "https://dc.lft.to/lastmile_qr_scan", "ios": "https://dc.lft.to/lastmile_qr_scan"}, "lon": -77.0505845, "fusion_lat": 0.0}, {"name": "3046a33987799df692fa404f987f53ce", "fusion_lon": 0.0, "lat": 38.862406166666666, "is_reserved": 0, "type": "electric_scooter", "bike_id": "3046a33987799df692fa404f987f53ce", "is_disabled": 0, "rental_uris": {"android": "https://dc.lft.to/lastmile_qr_scan", "ios": "https://dc.lft.to/lastmile_qr_scan"}, "lon": -76.99495183333333, "fusion_lat": 0.0}, {"name": "8e7d379c7d757fd9bdc79b97aaaeb307", "fusion_lon": 0.0, "lat": 38.983628333333336, "is_reserved": 0, "type": "electric_bike", "bike_id": "8e7d379c7d757fd9bdc79b97aaaeb307", "is_disabled": 0, "rental_uris": {"android": "https://dc.lft.to/lastmile_qr_scan", "ios": "https://dc.lft.to/lastmile_qr_scan"}, "lon": -76.97216083333333, "fusion_lat": 0.0}, {"name": "cfa38d096ca2452e01dc55053c55cec8", "fusion_lon": 0.0, "lat": 38.917399833333334, "is_reserved": 0, "type": "electric_scooter", "bike_id": "cfa38d096ca2452e01dc55053c55cec8", "is_disabled": 0, "rental_uris": {"android": "https://dc.lft.to/lastmile_qr_scan", "ios": "https://dc.lft.to/lastmile_qr_scan"}, "lon": -77.01456916666666, "fusion_lat": 0.0}, {"name": "0cf6324c905686fedc74ec2f3cea7bf1", "fusion_lon": 0.0, "lat": 38.9022835, "is_reserved": 0, "type": "electric_scooter", "bike_id": "0cf6324c905686fedc74ec2f3cea7bf1", "is_disabled": 0, "rental_uris": {"android": "https://dc.lft.to/lastmile_qr_scan", "ios": "https://dc.lft.to/lastmile_qr_scan"}, "lon": -77.04389583333334, "fusion_lat": 0.0}, {"name": "29c6befc599e3fb760de7cc67f323719", "fusion_lon": 0.0, "lat": 38.8950085, "is_reserved": 0, "type": "electric_scooter", "bike_id": "29c6befc599e3fb760de7cc67f323719", "is_disabled": 0, "rental_uris": {"android": "https://dc.lft.to/lastmile_qr_scan", "ios": "https://dc.lft.to/lastmile_qr_scan"}, "lon": -76.93476133333333, "fusion_lat": 0.0}, {"name": "9cbd53183148bfd80f9ebac9a5b2aee6", "fusion_lon": 0.0, "lat": 38.91103566666666, "is_reserved": 0, "type": "electric_scooter", "bike_id": "9cbd53183148bfd80f9ebac9a5b2aee6", "is_disabled": 0, "rental_uris": {"android": "https://dc.lft.to/lastmile_qr_scan", "ios": "https://dc.lft.to/lastmile_qr_scan"}, "lon": -77.03830333333333, "fusion_lat": 0.0}, {"name": "d5b05cfb9ab8257471855ed4b41ece91", "fusion_lon": 0.0, "lat": 38.88206016666667, "is_reserved": 0, "type": "electric_bike", "bike_id": "d5b05cfb9ab8257471855ed4b41ece91", "is_disabled": 0, "rental_uris": {"android": "https://dc.lft.to/lastmile_qr_scan", "ios": "https://dc.lft.to/lastmile_qr_scan"}, "lon": -77.11746166666667, "fusion_lat": 0.0}, {"name": "4c9b607ad7e1e080f356ae55974eaf36", "fusion_lon": 0.0, "lat": 38.902244, "is_reserved": 0, "type": "electric_scooter", "bike_id": "4c9b607ad7e1e080f356ae55974eaf36", "is_disabled": 0, "rental_uris": {"android": "https://dc.lft.to/lastmile_qr_scan", "ios": "https://dc.lft.to/lastmile_qr_scan"}, "lon": -77.04350083333334, "fusion_lat": 0.0}, {"name": "aaaf5f788b79dbc63c2016be85815ba3", "fusion_lon": 0.0, "lat": 38.9223675, "is_reserved": 0, "type": "electric_scooter", "bike_id": "aaaf5f788b79dbc63c2016be85815ba3", "is_disabled": 0, "rental_uris": {"android": "https://dc.lft.to/lastmile_qr_scan", "ios": "https://dc.lft.to/lastmile_qr_scan"}, "lon": -77.03356983333333, "fusion_lat": 0.0}, {"name": "eccca45b5564de0e3f4f0e72e09affe2", "fusion_lon": 0.0, "lat": 38.89215933333333, "is_reserved": 0, "type": "electric_scooter", "bike_id": "eccca45b5564de0e3f4f0e72e09affe2", "is_disabled": 0, "rental_uris": {"android": "https://dc.lft.to/lastmile_qr_scan", "ios": "https://dc.lft.to/lastmile_qr_scan"}, "lon": -77.02227833333333, "fusion_lat": 0.0}, {"name": "0538aa512e55406921a39085b0e488e1", "fusion_lon": 0.0, "lat": 38.92615516666667, "is_reserved": 0, "type": "electric_scooter", "bike_id": "0538aa512e55406921a39085b0e488e1", "is_disabled": 0, "rental_uris": {"android": "https://dc.lft.to/lastmile_qr_scan", "ios": "https://dc.lft.to/lastmile_qr_scan"}, "lon": -77.043315, "fusion_lat": 0.0}, {"name": "4ec3f6b8fb8f4d603b7703c81f1c8828", "fusion_lon": 0.0, "lat": 38.866905, "is_reserved": 0, "type": "electric_scooter", "bike_id": "4ec3f6b8fb8f4d603b7703c81f1c8828", "is_disabled": 0, "rental_uris": {"android": "https://dc.lft.to/lastmile_qr_scan", "ios": "https://dc.lft.to/lastmile_qr_scan"}, "lon": -76.985684, "fusion_lat": 0.0}, {"name": "28211a3e0cd19343ef3012c34509bde3", "fusion_lon": 0.0, "lat": 38.99530033333333, "is_reserved": 0, "type": "electric_bike", "bike_id": "28211a3e0cd19343ef3012c34509bde3", "is_disabled": 0, "rental_uris": {"android": "https://dc.lft.to/lastmile_qr_scan", "ios": "https://dc.lft.to/lastmile_qr_scan"}, "lon": -77.0695, "fusion_lat": 0.0}, {"name": "40edbca81696dd3389ade44e56403e2c", "fusion_lon": 0.0, "lat": 38.90751316666667, "is_reserved": 0, "type": "electric_scooter", "bike_id": "40edbca81696dd3389ade44e56403e2c", "is_disabled": 0, "rental_uris": {"android": "https://dc.lft.to/lastmile_qr_scan", "ios": "https://dc.lft.to/lastmile_qr_scan"}, "lon": -77.02604566666666, "fusion_lat": 0.0}, {"name": "dc3ba6f7cd2de767a52735e25605ba70", "fusion_lon": 0.0, "lat": 38.9025475, "is_reserved": 0, "type": "electric_scooter", "bike_id": "dc3ba6f7cd2de767a52735e25605ba70", "is_disabled": 0, "rental_uris": {"android": "https://dc.lft.to/lastmile_qr_scan", "ios": "https://dc.lft.to/lastmile_qr_scan"}, "lon": -77.04858983333334, "fusion_lat": 0.0}, {"name": "7f69711b92a60ca914b0441610afe9ec", "fusion_lon": 0.0, "lat": 38.87827383333333, "is_reserved": 0, "type": "electric_scooter", "bike_id": "7f69711b92a60ca914b0441610afe9ec", "is_disabled": 0, "rental_uris": {"android": "https://dc.lft.to/lastmile_qr_scan", "ios": "https://dc.lft.to/lastmile_qr_scan"}, "lon": -77.01597233333334, "fusion_lat": 0.0}, {"name": "d5ace82924cb1c57aeb28f24f91312f8", "fusion_lon": 0.0, "lat": 38.91729816666667, "is_reserved": 0, "type": "electric_scooter", "bike_id": "d5ace82924cb1c57aeb28f24f91312f8", "is_disabled": 0, "rental_uris": {"android": "https://dc.lft.to/lastmile_qr_scan", "ios": "https://dc.lft.to/lastmile_qr_scan"}, "lon": -77.03209566666666, "fusion_lat": 0.0}, {"name": "99a47be83e7e5f7e2e7a86764f17a9ab", "fusion_lon": 0.0, "lat": 38.92032233333333, "is_reserved": 0, "type": "electric_scooter", "bike_id": "99a47be83e7e5f7e2e7a86764f17a9ab", "is_disabled": 0, "rental_uris": {"android": "https://dc.lft.to/lastmile_qr_scan", "ios": "https://dc.lft.to/lastmile_qr_scan"}, "lon": -77.02584316666666, "fusion_lat": 0.0}, {"name": "438900d36d446195566f87828d767f36", "fusion_lon": 0.0, "lat": 38.9038025, "is_reserved": 0, "type": "electric_scooter", "bike_id": "438900d36d446195566f87828d767f36", "is_disabled": 0, "rental_uris": {"android": "https://dc.lft.to/lastmile_qr_scan", "ios": "https://dc.lft.to/lastmile_qr_scan"}, "lon": -77.02623516666667, "fusion_lat": 0.0}, {"name": "c2349e5ed3483f0f4a5163e64cc22047", "fusion_lon": 0.0, "lat": 38.89296366666667, "is_reserved": 0, "type": "electric_scooter", "bike_id": "c2349e5ed3483f0f4a5163e64cc22047", "is_disabled": 0, "rental_uris": {"android": "https://dc.lft.to/lastmile_qr_scan", "ios": "https://dc.lft.to/lastmile_qr_scan"}, "lon": -76.93928016666666, "fusion_lat": 0.0}, {"name": "3542294da7d4171ef39ff27470aeb95f", "fusion_lon": 0.0, "lat": 38.87229816666667, "is_reserved": 0, "type": "electric_scooter", "bike_id": "3542294da7d4171ef39ff27470aeb95f", "is_disabled": 0, "rental_uris": {"android": "https://dc.lft.to/lastmile_qr_scan", "ios": "https://dc.lft.to/lastmile_qr_scan"}, "lon": -77.011792, "fusion_lat": 0.0}, {"name": "39d6f1975131f98677d73300298f5c74", "fusion_lon": 0.0, "lat": 38.928747, "is_reserved": 0, "type": "electric_scooter", "bike_id": "39d6f1975131f98677d73300298f5c74", "is_disabled": 0, "rental_uris": {"android": "https://dc.lft.to/lastmile_qr_scan", "ios": "https://dc.lft.to/lastmile_qr_scan"}, "lon": -77.04233016666667, "fusion_lat": 0.0}, {"name": "9ab3927807702db0ade3358c253e28c4", "fusion_lon": 0.0, "lat": 38.899059333333334, "is_reserved": 0, "type": "electric_scooter", "bike_id": "9ab3927807702db0ade3358c253e28c4", "is_disabled": 0, "rental_uris": {"android": "https://dc.lft.to/lastmile_qr_scan", "ios": "https://dc.lft.to/lastmile_qr_scan"}, "lon": -77.03297166666667, "fusion_lat": 0.0}, {"name": "0555959d63482bad53ed381c39b0fdbd", "fusion_lon": 0.0, "lat": 38.896857, "is_reserved": 0, "type": "electric_scooter", "bike_id": "0555959d63482bad53ed381c39b0fdbd", "is_disabled": 0, "rental_uris": {"android": "https://dc.lft.to/lastmile_qr_scan", "ios": "https://dc.lft.to/lastmile_qr_scan"}, "lon": -77.00505883333334, "fusion_lat": 0.0}, {"name": "14518b653422e835bb5dbbb99710eaf3", "fusion_lon": 0.0, "lat": 38.95633083333333, "is_reserved": 0, "type": "electric_bike", "bike_id": "14518b653422e835bb5dbbb99710eaf3", "is_disabled": 0, "rental_uris": {"android": "https://dc.lft.to/lastmile_qr_scan", "ios": "https://dc.lft.to/lastmile_qr_scan"}, "lon": -76.93871416666667, "fusion_lat": 0.0}, {"name": "84d0ba62627eeee0d989fde829ebab20", "fusion_lon": 0.0, "lat": 38.904184, "is_reserved": 0, "type": "electric_scooter", "bike_id": "84d0ba62627eeee0d989fde829ebab20", "is_disabled": 0, "rental_uris": {"android": "https://dc.lft.to/lastmile_qr_scan", "ios": "https://dc.lft.to/lastmile_qr_scan"}, "lon": -77.01738, "fusion_lat": 0.0}, {"name": "142399273cfad5aeaad47f597514ced3", "fusion_lon": 0.0, "lat": 38.98430366666667, "is_reserved": 0, "type": "electric_scooter", "bike_id": "142399273cfad5aeaad47f597514ced3", "is_disabled": 0, "rental_uris": {"android": "https://dc.lft.to/lastmile_qr_scan", "ios": "https://dc.lft.to/lastmile_qr_scan"}, "lon": -77.02674033333334, "fusion_lat": 0.0}, {"name": "df645e73049130d8897f0746a4dd795f", "fusion_lon": 0.0, "lat": 38.89478233333333, "is_reserved": 0, "type": "electric_scooter", "bike_id": "df645e73049130d8897f0746a4dd795f", "is_disabled": 0, "rental_uris": {"android": "https://dc.lft.to/lastmile_qr_scan", "ios": "https://dc.lft.to/lastmile_qr_scan"}, "lon": -77.04657633333333, "fusion_lat": 0.0}, {"name": "34f4f5435be1951f89e76ac965c89d86", "fusion_lon": 0.0, "lat": 38.9010175, "is_reserved": 0, "type": "electric_scooter", "bike_id": "34f4f5435be1951f89e76ac965c89d86", "is_disabled": 0, "rental_uris": {"android": "https://dc.lft.to/lastmile_qr_scan", "ios": "https://dc.lft.to/lastmile_qr_scan"}, "lon": -77.006562, "fusion_lat": 0.0}, {"name": "ea3caa2ee6f4cfed05683e0ca7c65f53", "fusion_lon": 0.0, "lat": 38.89236966666667, "is_reserved": 0, "type": "electric_scooter", "bike_id": "ea3caa2ee6f4cfed05683e0ca7c65f53", "is_disabled": 0, "rental_uris": {"android": "https://dc.lft.to/lastmile_qr_scan", "ios": "https://dc.lft.to/lastmile_qr_scan"}, "lon": -77.024116, "fusion_lat": 0.0}, {"name": "1af1604c40329c94420a74a68ba1965b", "fusion_lon": 0.0, "lat": 38.927001, "is_reserved": 0, "type": "electric_scooter", "bike_id": "1af1604c40329c94420a74a68ba1965b", "is_disabled": 0, "rental_uris": {"android": "https://dc.lft.to/lastmile_qr_scan", "ios": "https://dc.lft.to/lastmile_qr_scan"}, "lon": -77.03637333333333, "fusion_lat": 0.0}, {"name": "61eb92f7464cf5a4744411b0562148fb", "fusion_lon": 0.0, "lat": 38.872049, "is_reserved": 0, "type": "electric_scooter", "bike_id": "61eb92f7464cf5a4744411b0562148fb", "is_disabled": 0, "rental_uris": {"android": "https://dc.lft.to/lastmile_qr_scan", "ios": "https://dc.lft.to/lastmile_qr_scan"}, "lon": -77.009694, "fusion_lat": 0.0}, {"name": "73a1ed16d1f64237343c764621cac6fa", "fusion_lon": 0.0, "lat": 38.9195475, "is_reserved": 0, "type": "electric_scooter", "bike_id": "73a1ed16d1f64237343c764621cac6fa", "is_disabled": 0, "rental_uris": {"android": "https://dc.lft.to/lastmile_qr_scan", "ios": "https://dc.lft.to/lastmile_qr_scan"}, "lon": -77.0347845, "fusion_lat": 0.0}, {"name": "9bff47012bd60886b3114f0e97524acc", "fusion_lon": 0.0, "lat": 38.926945333333336, "is_reserved": 0, "type": "electric_scooter", "bike_id": "9bff47012bd60886b3114f0e97524acc", "is_disabled": 0, "rental_uris": {"android": "https://dc.lft.to/lastmile_qr_scan", "ios": "https://dc.lft.to/lastmile_qr_scan"}, "lon": -77.02425916666667, "fusion_lat": 0.0}, {"name": "2baf0bdd3692420e1795f5d0d566b695", "fusion_lon": 0.0, "lat": 38.92306166666667, "is_reserved": 0, "type": "electric_bike", "bike_id": "2baf0bdd3692420e1795f5d0d566b695", "is_disabled": 0, "rental_uris": {"android": "https://dc.lft.to/lastmile_qr_scan", "ios": "https://dc.lft.to/lastmile_qr_scan"}, "lon": -77.02255633333333, "fusion_lat": 0.0}, {"name": "b9f93ef78c6d6fd6293957b680ea6011", "fusion_lon": 0.0, "lat": 38.91618283333333, "is_reserved": 0, "type": "electric_scooter", "bike_id": "b9f93ef78c6d6fd6293957b680ea6011", "is_disabled": 0, "rental_uris": {"android": "https://dc.lft.to/lastmile_qr_scan", "ios": "https://dc.lft.to/lastmile_qr_scan"}, "lon": -77.03855533333333, "fusion_lat": 0.0}, {"name": "77265fe083b5aa92702b226436ff8eb6", "fusion_lon": 0.0, "lat": 38.914168833333335, "is_reserved": 0, "type": "electric_scooter", "bike_id": "77265fe083b5aa92702b226436ff8eb6", "is_disabled": 0, "rental_uris": {"android": "https://dc.lft.to/lastmile_qr_scan", "ios": "https://dc.lft.to/lastmile_qr_scan"}, "lon": -77.03209083333333, "fusion_lat": 0.0}, {"name": "74c9f111b5d4ba0e6e7bcc4693b6b139", "fusion_lon": 0.0, "lat": 38.91693883333333, "is_reserved": 0, "type": "electric_scooter", "bike_id": "74c9f111b5d4ba0e6e7bcc4693b6b139", "is_disabled": 0, "rental_uris": {"android": "https://dc.lft.to/lastmile_qr_scan", "ios": "https://dc.lft.to/lastmile_qr_scan"}, "lon": -77.02514533333333, "fusion_lat": 0.0}, {"name": "c5107ef6c27338cafe624a9e9bf2428b", "fusion_lon": 0.0, "lat": 38.865036833333335, "is_reserved": 0, "type": "electric_scooter", "bike_id": "c5107ef6c27338cafe624a9e9bf2428b", "is_disabled": 0, "rental_uris": {"android": "https://dc.lft.to/lastmile_qr_scan", "ios": "https://dc.lft.to/lastmile_qr_scan"}, "lon": -76.99001466666667, "fusion_lat": 0.0}, {"name": "9b0996f9961900ec8b5f91eb5ab09455", "fusion_lon": 0.0, "lat": 38.9934185, "is_reserved": 0, "type": "electric_bike", "bike_id": "9b0996f9961900ec8b5f91eb5ab09455", "is_disabled": 0, "rental_uris": {"android": "https://dc.lft.to/lastmile_qr_scan", "ios": "https://dc.lft.to/lastmile_qr_scan"}, "lon": -77.115766, "fusion_lat": 0.0}, {"name": "231683dfb190083c7fae2944ddf9ccf9", "fusion_lon": 0.0, "lat": 38.80758683333333, "is_reserved": 0, "type": "electric_bike", "bike_id": "231683dfb190083c7fae2944ddf9ccf9", "is_disabled": 0, "rental_uris": {"android": "https://dc.lft.to/lastmile_qr_scan", "ios": "https://dc.lft.to/lastmile_qr_scan"}, "lon": -77.094683, "fusion_lat": 0.0}, {"name": "39ba34b5f7b2298fa56435a20a4a79ac", "fusion_lon": 0.0, "lat": 38.9418055, "is_reserved": 0, "type": "electric_scooter", "bike_id": "39ba34b5f7b2298fa56435a20a4a79ac", "is_disabled": 0, "rental_uris": {"android": "https://dc.lft.to/lastmile_qr_scan", "ios": "https://dc.lft.to/lastmile_qr_scan"}, "lon": -77.0279695, "fusion_lat": 0.0}, {"name": "5daa1c29941e1314fd809321d2d79d49", "fusion_lon": 0.0, "lat": 38.9235595, "is_reserved": 0, "type": "electric_scooter", "bike_id": "5daa1c29941e1314fd809321d2d79d49", "is_disabled": 0, "rental_uris": {"android": "https://dc.lft.to/lastmile_qr_scan", "ios": "https://dc.lft.to/lastmile_qr_scan"}, "lon": -77.05276483333333, "fusion_lat": 0.0}, {"name": "d9c1f44256e603aa02078c9a25ab301f", "fusion_lon": 0.0, "lat": 38.9221375, "is_reserved": 0, "type": "electric_scooter", "bike_id": "d9c1f44256e603aa02078c9a25ab301f", "is_disabled": 0, "rental_uris": {"android": "https://dc.lft.to/lastmile_qr_scan", "ios": "https://dc.lft.to/lastmile_qr_scan"}, "lon": -77.03291266666666, "fusion_lat": 0.0}, {"name": "9f53e922aa02d8cdfbf54782b1034911", "fusion_lon": 0.0, "lat": 38.941833, "is_reserved": 0, "type": "electric_scooter", "bike_id": "9f53e922aa02d8cdfbf54782b1034911", "is_disabled": 0, "rental_uris": {"android": "https://dc.lft.to/lastmile_qr_scan", "ios": "https://dc.lft.to/lastmile_qr_scan"}, "lon": -77.0249345, "fusion_lat": 0.0}, {"name": "7ffac983327b6b4bf4a2e41f285960d9", "fusion_lon": 0.0, "lat": 39.05790483333333, "is_reserved": 0, "type": "electric_bike", "bike_id": "7ffac983327b6b4bf4a2e41f285960d9", "is_disabled": 0, "rental_uris": {"android": "https://dc.lft.to/lastmile_qr_scan", "ios": "https://dc.lft.to/lastmile_qr_scan"}, "lon": -77.1502615, "fusion_lat": 0.0}, {"name": "57afff3fd52588f56fd3759e926816bf", "fusion_lon": 0.0, "lat": 38.92106716666667, "is_reserved": 0, "type": "electric_scooter", "bike_id": "57afff3fd52588f56fd3759e926816bf", "is_disabled": 0, "rental_uris": {"android": "https://dc.lft.to/lastmile_qr_scan", "ios": "https://dc.lft.to/lastmile_qr_scan"}, "lon": -77.0176475, "fusion_lat": 0.0}, {"name": "147f57075d99de9dfad86abab985a7be", "fusion_lon": 0.0, "lat": 38.84608933333333, "is_reserved": 0, "type": "electric_scooter", "bike_id": "147f57075d99de9dfad86abab985a7be", "is_disabled": 0, "rental_uris": {"android": "https://dc.lft.to/lastmile_qr_scan", "ios": "https://dc.lft.to/lastmile_qr_scan"}, "lon": -76.981518, "fusion_lat": 0.0}, {"name": "66d377876277548ce1a1998b26c32820", "fusion_lon": 0.0, "lat": 38.92669383333333, "is_reserved": 0, "type": "electric_scooter", "bike_id": "66d377876277548ce1a1998b26c32820", "is_disabled": 0, "rental_uris": {"android": "https://dc.lft.to/lastmile_qr_scan", "ios": "https://dc.lft.to/lastmile_qr_scan"}, "lon": -77.01512983333333, "fusion_lat": 0.0}, {"name": "336a067bd4b5735d319db98e67ab3be8", "fusion_lon": 0.0, "lat": 38.8569455, "is_reserved": 0, "type": "electric_scooter", "bike_id": "336a067bd4b5735d319db98e67ab3be8", "is_disabled": 0, "rental_uris": {"android": "https://dc.lft.to/lastmile_qr_scan", "ios": "https://dc.lft.to/lastmile_qr_scan"}, "lon": -76.98952533333333, "fusion_lat": 0.0}, {"name": "bf4de7d7c4e791ec0053a9889fdf46cc", "fusion_lon": 0.0, "lat": 38.93007033333333, "is_reserved": 0, "type": "electric_scooter", "bike_id": "bf4de7d7c4e791ec0053a9889fdf46cc", "is_disabled": 0, "rental_uris": {"android": "https://dc.lft.to/lastmile_qr_scan", "ios": "https://dc.lft.to/lastmile_qr_scan"}, "lon": -77.014342, "fusion_lat": 0.0}, {"name": "3a4f9e1bcb7da4e736c39cd720431de6", "fusion_lon": 0.0, "lat": 38.900582, "is_reserved": 0, "type": "electric_scooter", "bike_id": "3a4f9e1bcb7da4e736c39cd720431de6", "is_disabled": 0, "rental_uris": {"android": "https://dc.lft.to/lastmile_qr_scan", "ios": "https://dc.lft.to/lastmile_qr_scan"}, "lon": -76.93472883333334, "fusion_lat": 0.0}, {"name": "eb36a992a07223b93a8b3c1c66a9c576", "fusion_lon": 0.0, "lat": 38.905813, "is_reserved": 0, "type": "electric_scooter", "bike_id": "eb36a992a07223b93a8b3c1c66a9c576", "is_disabled": 0, "rental_uris": {"android": "https://dc.lft.to/lastmile_qr_scan", "ios": "https://dc.lft.to/lastmile_qr_scan"}, "lon": -77.07021366666666, "fusion_lat": 0.0}, {"name": "c38a9480562d7c817350e083b02bac99", "fusion_lon": 0.0, "lat": 38.924493166666664, "is_reserved": 0, "type": "electric_scooter", "bike_id": "c38a9480562d7c817350e083b02bac99", "is_disabled": 0, "rental_uris": {"android": "https://dc.lft.to/lastmile_qr_scan", "ios": "https://dc.lft.to/lastmile_qr_scan"}, "lon": -77.00207866666666, "fusion_lat": 0.0}, {"name": "e2b4d5de32d47d34c075f085eae941a7", "fusion_lon": 0.0, "lat": 38.90283933333333, "is_reserved": 0, "type": "electric_scooter", "bike_id": "e2b4d5de32d47d34c075f085eae941a7", "is_disabled": 0, "rental_uris": {"android": "https://dc.lft.to/lastmile_qr_scan", "ios": "https://dc.lft.to/lastmile_qr_scan"}, "lon": -77.05805933333333, "fusion_lat": 0.0}, {"name": "6fd145dba9fbbb36349f13079555aa74", "fusion_lon": 0.0, "lat": 38.905083166666664, "is_reserved": 0, "type": "electric_scooter", "bike_id": "6fd145dba9fbbb36349f13079555aa74", "is_disabled": 0, "rental_uris": {"android": "https://dc.lft.to/lastmile_qr_scan", "ios": "https://dc.lft.to/lastmile_qr_scan"}, "lon": -77.03858, "fusion_lat": 0.0}, {"name": "ebd1724713bb50746ddf61155c98f218", "fusion_lon": 0.0, "lat": 38.907236166666664, "is_reserved": 0, "type": "electric_scooter", "bike_id": "ebd1724713bb50746ddf61155c98f218", "is_disabled": 0, "rental_uris": {"android": "https://dc.lft.to/lastmile_qr_scan", "ios": "https://dc.lft.to/lastmile_qr_scan"}, "lon": -77.04355883333334, "fusion_lat": 0.0}, {"name": "a2b45775c7a2c36b9d3e84ecf0c5df9f", "fusion_lon": 0.0, "lat": 38.913468333333334, "is_reserved": 0, "type": "electric_scooter", "bike_id": "a2b45775c7a2c36b9d3e84ecf0c5df9f", "is_disabled": 0, "rental_uris": {"android": "https://dc.lft.to/lastmile_qr_scan", "ios": "https://dc.lft.to/lastmile_qr_scan"}, "lon": -77.01226866666667, "fusion_lat": 0.0}, {"name": "09a160585f2a2b42c9e4d4e8aa58da69", "fusion_lon": 0.0, "lat": 38.91247583333333, "is_reserved": 0, "type": "electric_scooter", "bike_id": "09a160585f2a2b42c9e4d4e8aa58da69", "is_disabled": 0, "rental_uris": {"android": "https://dc.lft.to/lastmile_qr_scan", "ios": "https://dc.lft.to/lastmile_qr_scan"}, "lon": -77.03416016666667, "fusion_lat": 0.0}, {"name": "f03385b470b7d7ea2e59d1909de38f49", "fusion_lon": 0.0, "lat": 38.93635483333333, "is_reserved": 0, "type": "electric_scooter", "bike_id": "f03385b470b7d7ea2e59d1909de38f49", "is_disabled": 0, "rental_uris": {"android": "https://dc.lft.to/lastmile_qr_scan", "ios": "https://dc.lft.to/lastmile_qr_scan"}, "lon": -77.05887383333334, "fusion_lat": 0.0}, {"name": "b733f1014bb15d98fa71eca3378a14f5", "fusion_lon": 0.0, "lat": 38.916000833333335, "is_reserved": 0, "type": "electric_scooter", "bike_id": "b733f1014bb15d98fa71eca3378a14f5", "is_disabled": 0, "rental_uris": {"android": "https://dc.lft.to/lastmile_qr_scan", "ios": "https://dc.lft.to/lastmile_qr_scan"}, "lon": -77.032101, "fusion_lat": 0.0}, {"name": "14b04c8d7c92be02f74b2a689efdaaa2", "fusion_lon": 0.0, "lat": 38.86503416666667, "is_reserved": 0, "type": "electric_scooter", "bike_id": "14b04c8d7c92be02f74b2a689efdaaa2", "is_disabled": 0, "rental_uris": {"android": "https://dc.lft.to/lastmile_qr_scan", "ios": "https://dc.lft.to/lastmile_qr_scan"}, "lon": -76.99002416666667, "fusion_lat": 0.0}, {"name": "9e58bcbfaeaec1a4c6a7fc10af2383e8", "fusion_lon": 0.0, "lat": 38.92494266666667, "is_reserved": 0, "type": "electric_scooter", "bike_id": "9e58bcbfaeaec1a4c6a7fc10af2383e8", "is_disabled": 0, "rental_uris": {"android": "https://dc.lft.to/lastmile_qr_scan", "ios": "https://dc.lft.to/lastmile_qr_scan"}, "lon": -77.05254316666667, "fusion_lat": 0.0}, {"name": "6b2f98041977973f79bfa0e71a64bcb8", "fusion_lon": 0.0, "lat": 38.91649116666667, "is_reserved": 0, "type": "electric_scooter", "bike_id": "6b2f98041977973f79bfa0e71a64bcb8", "is_disabled": 0, "rental_uris": {"android": "https://dc.lft.to/lastmile_qr_scan", "ios": "https://dc.lft.to/lastmile_qr_scan"}, "lon": -77.02006166666666, "fusion_lat": 0.0}, {"name": "3776b1d9b9ff9c0c717fe74461c9a4c6", "fusion_lon": 0.0, "lat": 38.9219295, "is_reserved": 0, "type": "electric_scooter", "bike_id": "3776b1d9b9ff9c0c717fe74461c9a4c6", "is_disabled": 0, "rental_uris": {"android": "https://dc.lft.to/lastmile_qr_scan", "ios": "https://dc.lft.to/lastmile_qr_scan"}, "lon": -77.02092916666666, "fusion_lat": 0.0}, {"name": "5f2176bc8d659811c723416e700f352a", "fusion_lon": 0.0, "lat": 38.9162905, "is_reserved": 0, "type": "electric_scooter", "bike_id": "5f2176bc8d659811c723416e700f352a", "is_disabled": 0, "rental_uris": {"android": "https://dc.lft.to/lastmile_qr_scan", "ios": "https://dc.lft.to/lastmile_qr_scan"}, "lon": -77.03854416666667, "fusion_lat": 0.0}, {"name": "69972d31b7486f2d8927516129afab4c", "fusion_lon": 0.0, "lat": 38.90044183333333, "is_reserved": 0, "type": "electric_scooter", "bike_id": "69972d31b7486f2d8927516129afab4c", "is_disabled": 0, "rental_uris": {"android": "https://dc.lft.to/lastmile_qr_scan", "ios": "https://dc.lft.to/lastmile_qr_scan"}, "lon": -76.98837816666666, "fusion_lat": 0.0}, {"name": "e762729e26e4fa3540c405b0e438de11", "fusion_lon": 0.0, "lat": 38.96135066666667, "is_reserved": 0, "type": "electric_bike", "bike_id": "e762729e26e4fa3540c405b0e438de11", "is_disabled": 0, "rental_uris": {"android": "https://dc.lft.to/lastmile_qr_scan", "ios": "https://dc.lft.to/lastmile_qr_scan"}, "lon": -77.085203, "fusion_lat": 0.0}, {"name": "f611ae99e59fecb23b24775ae23ee5ca", "fusion_lon": 0.0, "lat": 38.916301, "is_reserved": 0, "type": "electric_scooter", "bike_id": "f611ae99e59fecb23b24775ae23ee5ca", "is_disabled": 0, "rental_uris": {"android": "https://dc.lft.to/lastmile_qr_scan", "ios": "https://dc.lft.to/lastmile_qr_scan"}, "lon": -77.0254695, "fusion_lat": 0.0}, {"name": "b4a22ab7a3f6cb7e152bc8ae518dbcb3", "fusion_lon": 0.0, "lat": 38.908135333333334, "is_reserved": 0, "type": "electric_scooter", "bike_id": "b4a22ab7a3f6cb7e152bc8ae518dbcb3", "is_disabled": 0, "rental_uris": {"android": "https://dc.lft.to/lastmile_qr_scan", "ios": "https://dc.lft.to/lastmile_qr_scan"}, "lon": -77.0435615, "fusion_lat": 0.0}, {"name": "5743b8ba47317ca36fdeaababbb9bea0", "fusion_lon": 0.0, "lat": 38.9065135, "is_reserved": 0, "type": "electric_scooter", "bike_id": "5743b8ba47317ca36fdeaababbb9bea0", "is_disabled": 0, "rental_uris": {"android": "https://dc.lft.to/lastmile_qr_scan", "ios": "https://dc.lft.to/lastmile_qr_scan"}, "lon": -77.00209966666667, "fusion_lat": 0.0}, {"name": "32525609da7ed91ac948bd987b24a324", "fusion_lon": 0.0, "lat": 38.91361033333333, "is_reserved": 0, "type": "electric_scooter", "bike_id": "32525609da7ed91ac948bd987b24a324", "is_disabled": 0, "rental_uris": {"android": "https://dc.lft.to/lastmile_qr_scan", "ios": "https://dc.lft.to/lastmile_qr_scan"}, "lon": -77.06935716666666, "fusion_lat": 0.0}, {"name": "9ca2ee02858365b62ca3fd7915ea0ddd", "fusion_lon": 0.0, "lat": 38.90399816666667, "is_reserved": 0, "type": "electric_scooter", "bike_id": "9ca2ee02858365b62ca3fd7915ea0ddd", "is_disabled": 0, "rental_uris": {"android": "https://dc.lft.to/lastmile_qr_scan", "ios": "https://dc.lft.to/lastmile_qr_scan"}, "lon": -77.06771133333334, "fusion_lat": 0.0}, {"name": "4f01346c24c306e7c75640b86a5693af", "fusion_lon": 0.0, "lat": 38.93276266666667, "is_reserved": 0, "type": "electric_scooter", "bike_id": "4f01346c24c306e7c75640b86a5693af", "is_disabled": 0, "rental_uris": {"android": "https://dc.lft.to/lastmile_qr_scan", "ios": "https://dc.lft.to/lastmile_qr_scan"}, "lon": -77.04532566666667, "fusion_lat": 0.0}, {"name": "fc24f32c8f9d48a9513421874db739b7", "fusion_lon": 0.0, "lat": 38.86383583333333, "is_reserved": 0, "type": "electric_scooter", "bike_id": "fc24f32c8f9d48a9513421874db739b7", "is_disabled": 0, "rental_uris": {"android": "https://dc.lft.to/lastmile_qr_scan", "ios": "https://dc.lft.to/lastmile_qr_scan"}, "lon": -76.99043266666666, "fusion_lat": 0.0}, {"name": "a6d1869b2189ee59a63e5a0da4062c35", "fusion_lon": 0.0, "lat": 38.911092, "is_reserved": 0, "type": "electric_scooter", "bike_id": "a6d1869b2189ee59a63e5a0da4062c35", "is_disabled": 0, "rental_uris": {"android": "https://dc.lft.to/lastmile_qr_scan", "ios": "https://dc.lft.to/lastmile_qr_scan"}, "lon": -77.048319, "fusion_lat": 0.0}, {"name": "c3af5d5d1d689d35b3ced2138b08b17e", "fusion_lon": 0.0, "lat": 38.89957316666667, "is_reserved": 0, "type": "electric_scooter", "bike_id": "c3af5d5d1d689d35b3ced2138b08b17e", "is_disabled": 0, "rental_uris": {"android": "https://dc.lft.to/lastmile_qr_scan", "ios": "https://dc.lft.to/lastmile_qr_scan"}, "lon": -77.015112, "fusion_lat": 0.0}, {"name": "68c86eb9d64c8c6675df97af82de87d0", "fusion_lon": 0.0, "lat": 38.91116566666667, "is_reserved": 0, "type": "electric_scooter", "bike_id": "68c86eb9d64c8c6675df97af82de87d0", "is_disabled": 0, "rental_uris": {"android": "https://dc.lft.to/lastmile_qr_scan", "ios": "https://dc.lft.to/lastmile_qr_scan"}, "lon": -77.03767333333333, "fusion_lat": 0.0}, {"name": "d00a462fdbfb4d157834652fa5bdfee0", "fusion_lon": 0.0, "lat": 38.8962055, "is_reserved": 0, "type": "electric_scooter", "bike_id": "d00a462fdbfb4d157834652fa5bdfee0", "is_disabled": 0, "rental_uris": {"android": "https://dc.lft.to/lastmile_qr_scan", "ios": "https://dc.lft.to/lastmile_qr_scan"}, "lon": -77.04469866666666, "fusion_lat": 0.0}, {"name": "1804de59c4eb39c7a81852419d40e3ef", "fusion_lon": 0.0, "lat": 38.928221, "is_reserved": 0, "type": "electric_scooter", "bike_id": "1804de59c4eb39c7a81852419d40e3ef", "is_disabled": 0, "rental_uris": {"android": "https://dc.lft.to/lastmile_qr_scan", "ios": "https://dc.lft.to/lastmile_qr_scan"}, "lon": -77.03635333333334, "fusion_lat": 0.0}, {"name": "03bb2f94a9d50bd84df671aca8d7360f", "fusion_lon": 0.0, "lat": 38.9111055, "is_reserved": 0, "type": "electric_scooter", "bike_id": "03bb2f94a9d50bd84df671aca8d7360f", "is_disabled": 0, "rental_uris": {"android": "https://dc.lft.to/lastmile_qr_scan", "ios": "https://dc.lft.to/lastmile_qr_scan"}, "lon": -77.04356683333333, "fusion_lat": 0.0}, {"name": "4526ee90cf9889dd68c187dc2ad941cc", "fusion_lon": 0.0, "lat": 38.933168, "is_reserved": 0, "type": "electric_scooter", "bike_id": "4526ee90cf9889dd68c187dc2ad941cc", "is_disabled": 0, "rental_uris": {"android": "https://dc.lft.to/lastmile_qr_scan", "ios": "https://dc.lft.to/lastmile_qr_scan"}, "lon": -77.034466, "fusion_lat": 0.0}, {"name": "97692775ba1d78ea53021d6ac8794ed5", "fusion_lon": 0.0, "lat": 38.921108833333335, "is_reserved": 0, "type": "electric_scooter", "bike_id": "97692775ba1d78ea53021d6ac8794ed5", "is_disabled": 0, "rental_uris": {"android": "https://dc.lft.to/lastmile_qr_scan", "ios": "https://dc.lft.to/lastmile_qr_scan"}, "lon": -77.020501, "fusion_lat": 0.0}, {"name": "8ec71c8c21ac47759b1094ff4c112ef8", "fusion_lon": 0.0, "lat": 38.920293666666666, "is_reserved": 0, "type": "electric_scooter", "bike_id": "8ec71c8c21ac47759b1094ff4c112ef8", "is_disabled": 0, "rental_uris": {"android": "https://dc.lft.to/lastmile_qr_scan", "ios": "https://dc.lft.to/lastmile_qr_scan"}, "lon": -77.02585916666666, "fusion_lat": 0.0}, {"name": "30c1a140efa31cae51ffb3536fa53060", "fusion_lon": 0.0, "lat": 38.92965816666667, "is_reserved": 0, "type": "electric_bike", "bike_id": "30c1a140efa31cae51ffb3536fa53060", "is_disabled": 0, "rental_uris": {"android": "https://dc.lft.to/lastmile_qr_scan", "ios": "https://dc.lft.to/lastmile_qr_scan"}, "lon": -77.18562766666666, "fusion_lat": 0.0}, {"name": "64a6818fb0ec36321903e85207f2edff", "fusion_lon": 0.0, "lat": 38.9422125, "is_reserved": 0, "type": "electric_bike", "bike_id": "64a6818fb0ec36321903e85207f2edff", "is_disabled": 0, "rental_uris": {"android": "https://dc.lft.to/lastmile_qr_scan", "ios": "https://dc.lft.to/lastmile_qr_scan"}, "lon": -76.96616533333334, "fusion_lat": 0.0}, {"name": "1712ea6ea44436d798e1432ac8c05e83", "fusion_lon": 0.0, "lat": 39.05499983333333, "is_reserved": 0, "type": "electric_bike", "bike_id": "1712ea6ea44436d798e1432ac8c05e83", "is_disabled": 0, "rental_uris": {"android": "https://dc.lft.to/lastmile_qr_scan", "ios": "https://dc.lft.to/lastmile_qr_scan"}, "lon": -77.04650133333334, "fusion_lat": 0.0}, {"name": "9ba030e20019c7fd54dd5f21aef29f0c", "fusion_lon": 0.0, "lat": 38.924512666666665, "is_reserved": 0, "type": "electric_scooter", "bike_id": "9ba030e20019c7fd54dd5f21aef29f0c", "is_disabled": 0, "rental_uris": {"android": "https://dc.lft.to/lastmile_qr_scan", "ios": "https://dc.lft.to/lastmile_qr_scan"}, "lon": -77.07828783333333, "fusion_lat": 0.0}, {"name": "538cdcdefa9c8ad2b69db53834aa86ba", "fusion_lon": 0.0, "lat": 38.904964166666666, "is_reserved": 0, "type": "electric_scooter", "bike_id": "538cdcdefa9c8ad2b69db53834aa86ba", "is_disabled": 0, "rental_uris": {"android": "https://dc.lft.to/lastmile_qr_scan", "ios": "https://dc.lft.to/lastmile_qr_scan"}, "lon": -77.02001416666667, "fusion_lat": 0.0}, {"name": "2f0e32e445081a10bde1ea2b8d475743", "fusion_lon": 0.0, "lat": 38.88611183333333, "is_reserved": 0, "type": "electric_scooter", "bike_id": "2f0e32e445081a10bde1ea2b8d475743", "is_disabled": 0, "rental_uris": {"android": "https://dc.lft.to/lastmile_qr_scan", "ios": "https://dc.lft.to/lastmile_qr_scan"}, "lon": -76.99508533333334, "fusion_lat": 0.0}, {"name": "f52989aacdedb38571587101bbc0a6fa", "fusion_lon": 0.0, "lat": 38.888078166666666, "is_reserved": 0, "type": "electric_bike", "bike_id": "f52989aacdedb38571587101bbc0a6fa", "is_disabled": 0, "rental_uris": {"android": "https://dc.lft.to/lastmile_qr_scan", "ios": "https://dc.lft.to/lastmile_qr_scan"}, "lon": -77.1263935, "fusion_lat": 0.0}, {"name": "62da4d3f268457ba9ceadc371f44cabd", "fusion_lon": 0.0, "lat": 38.90268066666667, "is_reserved": 0, "type": "electric_scooter", "bike_id": "62da4d3f268457ba9ceadc371f44cabd", "is_disabled": 0, "rental_uris": {"android": "https://dc.lft.to/lastmile_qr_scan", "ios": "https://dc.lft.to/lastmile_qr_scan"}, "lon": -77.057892, "fusion_lat": 0.0}, {"name": "23e16224648cae27d2b98a2f1423171c", "fusion_lon": 0.0, "lat": 38.90044616666667, "is_reserved": 0, "type": "electric_scooter", "bike_id": "23e16224648cae27d2b98a2f1423171c", "is_disabled": 0, "rental_uris": {"android": "https://dc.lft.to/lastmile_qr_scan", "ios": "https://dc.lft.to/lastmile_qr_scan"}, "lon": -77.00304133333333, "fusion_lat": 0.0}, {"name": "4cb202e1a347f54aa5f7d43be09a227c", "fusion_lon": 0.0, "lat": 38.902049, "is_reserved": 0, "type": "electric_scooter", "bike_id": "4cb202e1a347f54aa5f7d43be09a227c", "is_disabled": 0, "rental_uris": {"android": "https://dc.lft.to/lastmile_qr_scan", "ios": "https://dc.lft.to/lastmile_qr_scan"}, "lon": -77.04685066666667, "fusion_lat": 0.0}, {"name": "8dd5ccb5bdd911c5e43e3ceb1f332716", "fusion_lon": 0.0, "lat": 38.917157333333336, "is_reserved": 0, "type": "electric_scooter", "bike_id": "8dd5ccb5bdd911c5e43e3ceb1f332716", "is_disabled": 0, "rental_uris": {"android": "https://dc.lft.to/lastmile_qr_scan", "ios": "https://dc.lft.to/lastmile_qr_scan"}, "lon": -77.02590916666666, "fusion_lat": 0.0}, {"name": "ede1c2fec9460d93f611acf10d444c2b", "fusion_lon": 0.0, "lat": 38.911214, "is_reserved": 0, "type": "electric_scooter", "bike_id": "ede1c2fec9460d93f611acf10d444c2b", "is_disabled": 0, "rental_uris": {"android": "https://dc.lft.to/lastmile_qr_scan", "ios": "https://dc.lft.to/lastmile_qr_scan"}, "lon": -77.03049716666666, "fusion_lat": 0.0}, {"name": "bed08f2a770bd4c84072c4a97c05075a", "fusion_lon": 0.0, "lat": 38.8921905, "is_reserved": 0, "type": "electric_scooter", "bike_id": "bed08f2a770bd4c84072c4a97c05075a", "is_disabled": 0, "rental_uris": {"android": "https://dc.lft.to/lastmile_qr_scan", "ios": "https://dc.lft.to/lastmile_qr_scan"}, "lon": -77.03222216666667, "fusion_lat": 0.0}, {"name": "9c023b3157623a38259ed6d91e86eb58", "fusion_lon": 0.0, "lat": 38.9305985, "is_reserved": 0, "type": "electric_scooter", "bike_id": "9c023b3157623a38259ed6d91e86eb58", "is_disabled": 0, "rental_uris": {"android": "https://dc.lft.to/lastmile_qr_scan", "ios": "https://dc.lft.to/lastmile_qr_scan"}, "lon": -77.03345616666667, "fusion_lat": 0.0}, {"name": "8210329474757cb4bb5dbb1db9c54a7d", "fusion_lon": 0.0, "lat": 38.92238583333334, "is_reserved": 0, "type": "electric_scooter", "bike_id": "8210329474757cb4bb5dbb1db9c54a7d", "is_disabled": 0, "rental_uris": {"android": "https://dc.lft.to/lastmile_qr_scan", "ios": "https://dc.lft.to/lastmile_qr_scan"}, "lon": -77.03662716666666, "fusion_lat": 0.0}, {"name": "ed5b6b8dd9cba1513ec95fd7801d6172", "fusion_lon": 0.0, "lat": 38.914140833333335, "is_reserved": 0, "type": "electric_scooter", "bike_id": "ed5b6b8dd9cba1513ec95fd7801d6172", "is_disabled": 0, "rental_uris": {"android": "https://dc.lft.to/lastmile_qr_scan", "ios": "https://dc.lft.to/lastmile_qr_scan"}, "lon": -77.02250933333333, "fusion_lat": 0.0}, {"name": "31e9c8cd8f701b97518cb84c8292927b", "fusion_lon": 0.0, "lat": 38.873926166666664, "is_reserved": 0, "type": "electric_scooter", "bike_id": "31e9c8cd8f701b97518cb84c8292927b", "is_disabled": 0, "rental_uris": {"android": "https://dc.lft.to/lastmile_qr_scan", "ios": "https://dc.lft.to/lastmile_qr_scan"}, "lon": -77.00013366666667, "fusion_lat": 0.0}, {"name": "96c45449ad25d1f562d3265a3d0b7c56", "fusion_lon": 0.0, "lat": 38.91120433333333, "is_reserved": 0, "type": "electric_scooter", "bike_id": "96c45449ad25d1f562d3265a3d0b7c56", "is_disabled": 0, "rental_uris": {"android": "https://dc.lft.to/lastmile_qr_scan", "ios": "https://dc.lft.to/lastmile_qr_scan"}, "lon": -77.04179783333333, "fusion_lat": 0.0}, {"name": "4cc0c72070b5769e79b8aac76ae0a354", "fusion_lon": 0.0, "lat": 38.907954833333335, "is_reserved": 0, "type": "electric_scooter", "bike_id": "4cc0c72070b5769e79b8aac76ae0a354", "is_disabled": 0, "rental_uris": {"android": "https://dc.lft.to/lastmile_qr_scan", "ios": "https://dc.lft.to/lastmile_qr_scan"}, "lon": -77.0313585, "fusion_lat": 0.0}, {"name": "1acb8e1dc964053c02f92be9628e691b", "fusion_lon": 0.0, "lat": 38.89219033333333, "is_reserved": 0, "type": "electric_scooter", "bike_id": "1acb8e1dc964053c02f92be9628e691b", "is_disabled": 0, "rental_uris": {"android": "https://dc.lft.to/lastmile_qr_scan", "ios": "https://dc.lft.to/lastmile_qr_scan"}, "lon": -77.04308783333333, "fusion_lat": 0.0}, {"name": "7e24d1dd5add8fd64c78136c90d60d38", "fusion_lon": 0.0, "lat": 38.903877333333334, "is_reserved": 0, "type": "electric_scooter", "bike_id": "7e24d1dd5add8fd64c78136c90d60d38", "is_disabled": 0, "rental_uris": {"android": "https://dc.lft.to/lastmile_qr_scan", "ios": "https://dc.lft.to/lastmile_qr_scan"}, "lon": -77.02822933333333, "fusion_lat": 0.0}, {"name": "b2eb267d862cee1244ed79bb0a8311ee", "fusion_lon": 0.0, "lat": 38.9023045, "is_reserved": 0, "type": "electric_scooter", "bike_id": "b2eb267d862cee1244ed79bb0a8311ee", "is_disabled": 0, "rental_uris": {"android": "https://dc.lft.to/lastmile_qr_scan", "ios": "https://dc.lft.to/lastmile_qr_scan"}, "lon": -76.98923383333333, "fusion_lat": 0.0}, {"name": "73f7cdf185410a7d48852350d75f045f", "fusion_lon": 0.0, "lat": 38.884881666666665, "is_reserved": 0, "type": "electric_scooter", "bike_id": "73f7cdf185410a7d48852350d75f045f", "is_disabled": 0, "rental_uris": {"android": "https://dc.lft.to/lastmile_qr_scan", "ios": "https://dc.lft.to/lastmile_qr_scan"}, "lon": -77.007084, "fusion_lat": 0.0}, {"name": "f6651d9d98ede70425de01e76b738b7b", "fusion_lon": 0.0, "lat": 38.8759985, "is_reserved": 0, "type": "electric_scooter", "bike_id": "f6651d9d98ede70425de01e76b738b7b", "is_disabled": 0, "rental_uris": {"android": "https://dc.lft.to/lastmile_qr_scan", "ios": "https://dc.lft.to/lastmile_qr_scan"}, "lon": -77.00083216666667, "fusion_lat": 0.0}, {"name": "6f1677cabc460cc6ae74d8b38d10863d", "fusion_lon": 0.0, "lat": 38.900056, "is_reserved": 0, "type": "electric_scooter", "bike_id": "6f1677cabc460cc6ae74d8b38d10863d", "is_disabled": 0, "rental_uris": {"android": "https://dc.lft.to/lastmile_qr_scan", "ios": "https://dc.lft.to/lastmile_qr_scan"}, "lon": -77.006847, "fusion_lat": 0.0}, {"name": "5aa3c4b88a68b9aa90f35a47970f9b38", "fusion_lon": 0.0, "lat": 38.92863116666667, "is_reserved": 0, "type": "electric_scooter", "bike_id": "5aa3c4b88a68b9aa90f35a47970f9b38", "is_disabled": 0, "rental_uris": {"android": "https://dc.lft.to/lastmile_qr_scan", "ios": "https://dc.lft.to/lastmile_qr_scan"}, "lon": -77.02171033333333, "fusion_lat": 0.0}, {"name": "b5b0094bc33242409c80adec6b92e237", "fusion_lon": 0.0, "lat": 38.8543535, "is_reserved": 0, "type": "electric_bike", "bike_id": "b5b0094bc33242409c80adec6b92e237", "is_disabled": 0, "rental_uris": {"android": "https://dc.lft.to/lastmile_qr_scan", "ios": "https://dc.lft.to/lastmile_qr_scan"}, "lon": -77.083085, "fusion_lat": 0.0}, {"name": "12b77708fe0c1ee3bc059ccbfad9af8c", "fusion_lon": 0.0, "lat": 38.918231, "is_reserved": 0, "type": "electric_scooter", "bike_id": "12b77708fe0c1ee3bc059ccbfad9af8c", "is_disabled": 0, "rental_uris": {"android": "https://dc.lft.to/lastmile_qr_scan", "ios": "https://dc.lft.to/lastmile_qr_scan"}, "lon": -77.0319205, "fusion_lat": 0.0}, {"name": "8e3bd71d85cac37f4ab7ce3d758eb586", "fusion_lon": 0.0, "lat": 38.906985166666665, "is_reserved": 0, "type": "electric_scooter", "bike_id": "8e3bd71d85cac37f4ab7ce3d758eb586", "is_disabled": 0, "rental_uris": {"android": "https://dc.lft.to/lastmile_qr_scan", "ios": "https://dc.lft.to/lastmile_qr_scan"}, "lon": -77.035094, "fusion_lat": 0.0}, {"name": "4a2f60241f436fbb44ff66f6a5f3d7ec", "fusion_lon": 0.0, "lat": 38.9232485, "is_reserved": 0, "type": "electric_scooter", "bike_id": "4a2f60241f436fbb44ff66f6a5f3d7ec", "is_disabled": 0, "rental_uris": {"android": "https://dc.lft.to/lastmile_qr_scan", "ios": "https://dc.lft.to/lastmile_qr_scan"}, "lon": -77.01958883333333, "fusion_lat": 0.0}, {"name": "6d3f72490c63e8391b2f35023bdd5156", "fusion_lon": 0.0, "lat": 38.9028155, "is_reserved": 0, "type": "electric_scooter", "bike_id": "6d3f72490c63e8391b2f35023bdd5156", "is_disabled": 0, "rental_uris": {"android": "https://dc.lft.to/lastmile_qr_scan", "ios": "https://dc.lft.to/lastmile_qr_scan"}, "lon": -77.05913166666667, "fusion_lat": 0.0}, {"name": "87610018a1998dd16f62c63acd3d47b8", "fusion_lon": 0.0, "lat": 38.904257333333334, "is_reserved": 0, "type": "electric_scooter", "bike_id": "87610018a1998dd16f62c63acd3d47b8", "is_disabled": 0, "rental_uris": {"android": "https://dc.lft.to/lastmile_qr_scan", "ios": "https://dc.lft.to/lastmile_qr_scan"}, "lon": -77.01730483333333, "fusion_lat": 0.0}, {"name": "06a473c1e0fdf3ac14c08413548eb24e", "fusion_lon": 0.0, "lat": 38.903721, "is_reserved": 0, "type": "electric_scooter", "bike_id": "06a473c1e0fdf3ac14c08413548eb24e", "is_disabled": 0, "rental_uris": {"android": "https://dc.lft.to/lastmile_qr_scan", "ios": "https://dc.lft.to/lastmile_qr_scan"}, "lon": -77.04338516666667, "fusion_lat": 0.0}, {"name": "8c466462490c2b3ff94fd1e5f36a9199", "fusion_lon": 0.0, "lat": 38.90729316666667, "is_reserved": 0, "type": "electric_scooter", "bike_id": "8c466462490c2b3ff94fd1e5f36a9199", "is_disabled": 0, "rental_uris": {"android": "https://dc.lft.to/lastmile_qr_scan", "ios": "https://dc.lft.to/lastmile_qr_scan"}, "lon": -77.0435265, "fusion_lat": 0.0}, {"name": "3450fec273b6a201bb5ada01150eb47d", "fusion_lon": 0.0, "lat": 38.897398, "is_reserved": 0, "type": "electric_scooter", "bike_id": "3450fec273b6a201bb5ada01150eb47d", "is_disabled": 0, "rental_uris": {"android": "https://dc.lft.to/lastmile_qr_scan", "ios": "https://dc.lft.to/lastmile_qr_scan"}, "lon": -77.00775333333333, "fusion_lat": 0.0}, {"name": "f95f36f11844280dcbddba1097ab92e2", "fusion_lon": 0.0, "lat": 38.86954516666667, "is_reserved": 0, "type": "electric_scooter", "bike_id": "f95f36f11844280dcbddba1097ab92e2", "is_disabled": 0, "rental_uris": {"android": "https://dc.lft.to/lastmile_qr_scan", "ios": "https://dc.lft.to/lastmile_qr_scan"}, "lon": -76.9816585, "fusion_lat": 0.0}, {"name": "9c39fad03e295c4bec3e83894cd2c176", "fusion_lon": 0.0, "lat": 38.897247166666666, "is_reserved": 0, "type": "electric_scooter", "bike_id": "9c39fad03e295c4bec3e83894cd2c176", "is_disabled": 0, "rental_uris": {"android": "https://dc.lft.to/lastmile_qr_scan", "ios": "https://dc.lft.to/lastmile_qr_scan"}, "lon": -77.02132216666666, "fusion_lat": 0.0}, {"name": "b88bffc61952876a37027464ee0e7587", "fusion_lon": 0.0, "lat": 38.900277, "is_reserved": 0, "type": "electric_scooter", "bike_id": "b88bffc61952876a37027464ee0e7587", "is_disabled": 0, "rental_uris": {"android": "https://dc.lft.to/lastmile_qr_scan", "ios": "https://dc.lft.to/lastmile_qr_scan"}, "lon": -77.001372, "fusion_lat": 0.0}, {"name": "6de9adfe3bccbf765e46154485036d90", "fusion_lon": 0.0, "lat": 38.90587716666667, "is_reserved": 0, "type": "electric_scooter", "bike_id": "6de9adfe3bccbf765e46154485036d90", "is_disabled": 0, "rental_uris": {"android": "https://dc.lft.to/lastmile_qr_scan", "ios": "https://dc.lft.to/lastmile_qr_scan"}, "lon": -77.0642785, "fusion_lat": 0.0}, {"name": "b9c05f113bff80c9d44e2eb0e406c8d0", "fusion_lon": 0.0, "lat": 38.930723, "is_reserved": 0, "type": "electric_scooter", "bike_id": "b9c05f113bff80c9d44e2eb0e406c8d0", "is_disabled": 0, "rental_uris": {"android": "https://dc.lft.to/lastmile_qr_scan", "ios": "https://dc.lft.to/lastmile_qr_scan"}, "lon": -77.02189033333333, "fusion_lat": 0.0}, {"name": "fbc0cbb2b9e3a89f8acb48f448dafb54", "fusion_lon": 0.0, "lat": 38.90334083333333, "is_reserved": 0, "type": "electric_scooter", "bike_id": "fbc0cbb2b9e3a89f8acb48f448dafb54", "is_disabled": 0, "rental_uris": {"android": "https://dc.lft.to/lastmile_qr_scan", "ios": "https://dc.lft.to/lastmile_qr_scan"}, "lon": -76.97589866666667, "fusion_lat": 0.0}, {"name": "ca6986816f06a493c674b5f5d33acb47", "fusion_lon": 0.0, "lat": 38.920361666666665, "is_reserved": 0, "type": "electric_scooter", "bike_id": "ca6986816f06a493c674b5f5d33acb47", "is_disabled": 0, "rental_uris": {"android": "https://dc.lft.to/lastmile_qr_scan", "ios": "https://dc.lft.to/lastmile_qr_scan"}, "lon": -77.03128583333333, "fusion_lat": 0.0}, {"name": "9757d70ace657e71f72bf028743b6279", "fusion_lon": 0.0, "lat": 38.892393166666665, "is_reserved": 0, "type": "electric_scooter", "bike_id": "9757d70ace657e71f72bf028743b6279", "is_disabled": 0, "rental_uris": {"android": "https://dc.lft.to/lastmile_qr_scan", "ios": "https://dc.lft.to/lastmile_qr_scan"}, "lon": -77.02510266666667, "fusion_lat": 0.0}, {"name": "248b5b1be0d93192432b8cd996ec71cf", "fusion_lon": 0.0, "lat": 38.917654666666664, "is_reserved": 0, "type": "electric_scooter", "bike_id": "248b5b1be0d93192432b8cd996ec71cf", "is_disabled": 0, "rental_uris": {"android": "https://dc.lft.to/lastmile_qr_scan", "ios": "https://dc.lft.to/lastmile_qr_scan"}, "lon": -77.04059916666667, "fusion_lat": 0.0}, {"name": "98b212264848d439af0d1c91aa38edc0", "fusion_lon": 0.0, "lat": 38.92307, "is_reserved": 0, "type": "electric_scooter", "bike_id": "98b212264848d439af0d1c91aa38edc0", "is_disabled": 0, "rental_uris": {"android": "https://dc.lft.to/lastmile_qr_scan", "ios": "https://dc.lft.to/lastmile_qr_scan"}, "lon": -77.031218, "fusion_lat": 0.0}, {"name": "86ad87c2a4fd9fa1262b77492816362a", "fusion_lon": 0.0, "lat": 38.9109445, "is_reserved": 0, "type": "electric_scooter", "bike_id": "86ad87c2a4fd9fa1262b77492816362a", "is_disabled": 0, "rental_uris": {"android": "https://dc.lft.to/lastmile_qr_scan", "ios": "https://dc.lft.to/lastmile_qr_scan"}, "lon": -77.03211433333334, "fusion_lat": 0.0}, {"name": "356a29ef6a0211c0f6c22d7a81c91fb2", "fusion_lon": 0.0, "lat": 38.89664333333333, "is_reserved": 0, "type": "electric_scooter", "bike_id": "356a29ef6a0211c0f6c22d7a81c91fb2", "is_disabled": 0, "rental_uris": {"android": "https://dc.lft.to/lastmile_qr_scan", "ios": "https://dc.lft.to/lastmile_qr_scan"}, "lon": -76.98818483333334, "fusion_lat": 0.0}, {"name": "edb04afaff94862017999f0005e5646c", "fusion_lon": 0.0, "lat": 38.922401, "is_reserved": 0, "type": "electric_scooter", "bike_id": "edb04afaff94862017999f0005e5646c", "is_disabled": 0, "rental_uris": {"android": "https://dc.lft.to/lastmile_qr_scan", "ios": "https://dc.lft.to/lastmile_qr_scan"}, "lon": -77.03914033333334, "fusion_lat": 0.0}, {"name": "4326dec28ebca1e74b79260be2964679", "fusion_lon": 0.0, "lat": 38.9161975, "is_reserved": 0, "type": "electric_scooter", "bike_id": "4326dec28ebca1e74b79260be2964679", "is_disabled": 0, "rental_uris": {"android": "https://dc.lft.to/lastmile_qr_scan", "ios": "https://dc.lft.to/lastmile_qr_scan"}, "lon": -77.038504, "fusion_lat": 0.0}, {"name": "5992b21fa7a19d3064144ab4a0aab8bb", "fusion_lon": 0.0, "lat": 38.928954166666664, "is_reserved": 0, "type": "electric_scooter", "bike_id": "5992b21fa7a19d3064144ab4a0aab8bb", "is_disabled": 0, "rental_uris": {"android": "https://dc.lft.to/lastmile_qr_scan", "ios": "https://dc.lft.to/lastmile_qr_scan"}, "lon": -77.0275245, "fusion_lat": 0.0}, {"name": "a7a40743125728ea3943a1cc7103b17f", "fusion_lon": 0.0, "lat": 38.937466, "is_reserved": 0, "type": "electric_scooter", "bike_id": "a7a40743125728ea3943a1cc7103b17f", "is_disabled": 0, "rental_uris": {"android": "https://dc.lft.to/lastmile_qr_scan", "ios": "https://dc.lft.to/lastmile_qr_scan"}, "lon": -77.024415, "fusion_lat": 0.0}, {"name": "e9a14d4ead0273b21134fa0058cc509f", "fusion_lon": 0.0, "lat": 38.92031333333333, "is_reserved": 0, "type": "electric_scooter", "bike_id": "e9a14d4ead0273b21134fa0058cc509f", "is_disabled": 0, "rental_uris": {"android": "https://dc.lft.to/lastmile_qr_scan", "ios": "https://dc.lft.to/lastmile_qr_scan"}, "lon": -77.025839, "fusion_lat": 0.0},