{"data": {"bikes": [{"type": "electric_scooter", "rental_uris": {"ios": "https://dc.lft.to/lastmile_qr_scan", "android": "https://dc.lft.to/lastmile_qr_scan"}, "lon": -76.99857516666667, "fusion_lon": 0.0, "is_disabled": 0, "lat": 38.899959333333335, "bike_id": "899a2f39111d2067090b19f9c12715c1", "name": "899a2f39111d2067090b19f9c12715c1", "is_reserved": 0, "fusion_lat": 0.0}, {"type": "electric_scooter", "rental_uris": {"ios": "https://dc.lft.to/lastmile_qr_scan", "android": "https://dc.lft.to/lastmile_qr_scan"}, "lon": -77.0419815, "fusion_lon": 0.0, "is_disabled": 0, "lat": 38.90558083333333, "bike_id": "68a3c451acf0b349b81524e40f3e2cf6", "name": "68a3c451acf0b349b81524e40f3e2cf6", "is_reserved": 0, "fusion_lat": 0.0}, {"type": "electric_scooter", "rental_uris": {"ios": "https://dc.lft.to/lastmile_qr_scan", "android": "https://dc.lft.to/lastmile_qr_scan"}, "lon": -77.0590665, "fusion_lon": 0.0, "is_disabled": 0, "lat": 38.902314833333335, "bike_id": "cd62bd9b5c8d7f6cc7c3450324bd62a6", "name": "cd62bd9b5c8d7f6cc7c3450324bd62a6", "is_reserved": 0, "fusion_lat": 0.0}, {"type": "electric_scooter", "rental_uris": {"ios": "https://dc.lft.to/lastmile_qr_scan", "android": "https://dc.lft.to/lastmile_qr_scan"}, "lon": -76.99200616666667, "fusion_lon": 0.0, "is_disabled": 0, "lat": 38.908224833333335, "bike_id": "eca7b8dc51bc6ac45e5b5101a057d14e", "name": "eca7b8dc51bc6ac45e5b5101a057d14e", "is_reserved": 0, "fusion_lat": 0.0}, {"type": "electric_scooter", "rental_uris": {"ios": "https://dc.lft.to/lastmile_qr_scan", "android": "https://dc.lft.to/lastmile_qr_scan"}, "lon": -77.02431666666666, "fusion_lon": 0.0, "is_disabled": 0, "lat": 38.92054183333333, "bike_id": "25d002cb6428626e9593a52142ccbd26", "name": "25d002cb6428626e9593a52142ccbd26", "is_reserved": 0, "fusion_lat": 0.0}, {"type": "electric_scooter", "rental_uris": {"ios": "https://dc.lft.to/lastmile_qr_scan", "android": "https://dc.lft.to/lastmile_qr_scan"}, "lon": -76.97730566666667, "fusion_lon": 0.0, "is_disabled": 0, "lat": 38.872853666666664, "bike_id": "e16ee36a26c149a075b056dbeb3b2734", "name": "e16ee36a26c149a075b056dbeb3b2734", "is_reserved": 0, "fusion_lat": 0.0}, {"type": "electric_scooter", "rental_uris": {"ios": "https://dc.lft.to/lastmile_qr_scan", "android": "https://dc.lft.to/lastmile_qr_scan"}, "lon": -77.04576333333333, "fusion_lon": 0.0, "is_disabled": 0, "lat": 38.9223845, "bike_id": "0de3ea77b6c78984f7a255fb11068e78", "name": "0de3ea77b6c78984f7a255fb11068e78", "is_reserved": 0, "fusion_lat": 0.0}, {"type": "electric_scooter", "rental_uris": {"ios": "https://dc.lft.to/lastmile_qr_scan", "android": "https://dc.lft.to/lastmile_qr_scan"}, "lon": -77.03217, "fusion_lon": 0.0, "is_disabled": 0, "lat": 38.918419666666665, "bike_id": "3f6c9710361498f50c1b37aab033d558", "name": "3f6c9710361498f50c1b37aab033d558", "is_reserved": 0, "fusion_lat": 0.0}, {"type": "electric_scooter", "rental_uris": {"ios": "https://dc.lft.to/lastmile_qr_scan", "android": "https://dc.lft.to/lastmile_qr_scan"}, "lon": -77.04650383333333, "fusion_lon": 0.0, "is_disabled": 0, "lat": 38.9000675, "bike_id": "157bd266096f10a3ed6700ee50bb0636", "name": "157bd266096f10a3ed6700ee50bb0636", "is_reserved": 0, "fusion_lat": 0.0}, {"type": "electric_scooter", "rental_uris": {"ios": "https://dc.lft.to/lastmile_qr_scan", "android": "https://dc.lft.to/lastmile_qr_scan"}, "lon": -77.06117133333333, "fusion_lon": 0.0, "is_disabled": 0, "lat": 38.9053385, "bike_id": "d66d097a4a207e1a825c30a8ebe41b70", "name": "d66d097a4a207e1a825c30a8ebe41b70", "is_reserved": 0, "fusion_lat": 0.0}, {"type": "electric_scooter", "rental_uris": {"ios": "https://dc.lft.to/lastmile_qr_scan", "android": "https://dc.lft.to/lastmile_qr_scan"}, "lon": -77.01957216666666, "fusion_lon": 0.0, "is_disabled": 0, "lat": 38.922518833333335, "bike_id": "5f399ee00ce02dd365b58273bdabed8c", "name": "5f399ee00ce02dd365b58273bdabed8c", "is_reserved": 0, "fusion_lat": 0.0}, {"type": "electric_scooter", "rental_uris": {"ios": "https://dc.lft.to/lastmile_qr_scan", "android": "https://dc.lft.to/lastmile_qr_scan"}, "lon": -77.02309566666666, "fusion_lon": 0.0, "is_disabled": 0, "lat": 38.916086666666665, "bike_id": "e5f97569fe488e32016995211f1f1a66", "name": "e5f97569fe488e32016995211f1f1a66", "is_reserved": 0, "fusion_lat": 0.0}, {"type": "electric_scooter", "rental_uris": {"ios": "https://dc.lft.to/lastmile_qr_scan", "android": "https://dc.lft.to/lastmile_qr_scan"}, "lon": -76.996375, "fusion_lon": 0.0, "is_disabled": 0, "lat": 38.908833333333334, "bike_id": "715dd83530b8edbddd623f00f7a15035", "name": "715dd83530b8edbddd623f00f7a15035", "is_reserved": 0, "fusion_lat": 0.0}, {"type": "electric_scooter", "rental_uris": {"ios": "https://dc.lft.to/lastmile_qr_scan", "android": "https://dc.lft.to/lastmile_qr_scan"}, "lon": -77.03855516666667, "fusion_lon": 0.0, "is_disabled": 0, "lat": 38.9080575, "bike_id": "46b58621fe7637690137a74a4fd6f703", "name": "46b58621fe7637690137a74a4fd6f703", "is_reserved": 0, "fusion_lat": 0.0}, {"type": "electric_scooter", "rental_uris": {"ios": "https://dc.lft.to/lastmile_qr_scan", "android": "https://dc.lft.to/lastmile_qr_scan"}, "lon": -76.99526716666666, "fusion_lon": 0.0, "is_disabled": 0, "lat": 38.884507166666666, "bike_id": "ed5be7a5d11d262873af6b541b82848e", "name": "ed5be7a5d11d262873af6b541b82848e", "is_reserved": 0, "fusion_lat": 0.0}, {"type": "electric_scooter", "rental_uris": {"ios": "https://dc.lft.to/lastmile_qr_scan", "android": "https://dc.lft.to/lastmile_qr_scan"}, "lon": -77.04184283333333, "fusion_lon": 0.0, "is_disabled": 0, "lat": 38.90529083333333, "bike_id": "b8a75afc99cbd47b81188457d374a43a", "name": "b8a75afc99cbd47b81188457d374a43a", "is_reserved": 0, "fusion_lat": 0.0}, {"type": "electric_scooter", "rental_uris": {"ios": "https://dc.lft.to/lastmile_qr_scan", "android": "https://dc.lft.to/lastmile_qr_scan"}, "lon": -76.98546416666667, "fusion_lon": 0.0, "is_disabled": 0, "lat": 38.86688683333333, "bike_id": "955b604a520a39a81faf9e90e42b4c8d", "name": "955b604a520a39a81faf9e90e42b4c8d", "is_reserved": 0, "fusion_lat": 0.0}, {"type": "electric_scooter", "rental_uris": {"ios": "https://dc.lft.to/lastmile_qr_scan", "android": "https://dc.lft.to/lastmile_qr_scan"}, "lon": -77.0320255, "fusion_lon": 0.0, "is_disabled": 0, "lat": 38.914078833333335, "bike_id": "ca8baf72ec23508ef4085912b17faafe", "name": "ca8baf72ec23508ef4085912b17faafe", "is_reserved": 0, "fusion_lat": 0.0}, {"type": "electric_scooter", "rental_uris": {"ios": "https://dc.lft.to/lastmile_qr_scan", "android": "https://dc.lft.to/lastmile_qr_scan"}, "lon": -77.04029183333333, "fusion_lon": 0.0, "is_disabled": 0, "lat": 38.91802583333333, "bike_id": "58a9b65d561e40867abd3790a4ef0439", "name": "58a9b65d561e40867abd3790a4ef0439", "is_reserved": 0, "fusion_lat": 0.0}, {"type": "electric_scooter", "rental_uris": {"ios": "https://dc.lft.to/lastmile_qr_scan", "android": "https://dc.lft.to/lastmile_qr_scan"}, "lon": -77.03719066666666, "fusion_lon": 0.0, "is_disabled": 0, "lat": 38.928629, "bike_id": "6a07f4de553a9ecf8f6f5bf76da9d128", "name": "6a07f4de553a9ecf8f6f5bf76da9d128", "is_reserved": 0, "fusion_lat": 0.0}, {"type": "electric_scooter", "rental_uris": {"ios": "https://dc.lft.to/lastmile_qr_scan", "android": "https://dc.lft.to/lastmile_qr_scan"}, "lon": -77.035318, "fusion_lon": 0.0, "is_disabled": 0, "lat": 38.918149166666666, "bike_id": "3fc3371aa02162931703c96dec74bea2", "name": "3fc3371aa02162931703c96dec74bea2", "is_reserved": 0, "fusion_lat": 0.0}, {"type": "electric_bike", "rental_uris": {"ios": "https://dc.lft.to/lastmile_qr_scan", "android": "https://dc.lft.to/lastmile_qr_scan"}, "lon": -77.12023, "fusion_lon": 0.0, "is_disabled": 0, "lat": 38.855091333333334, "bike_id": "6fca61b293e55e1cf3d425a3cf134bf2", "name": "6fca61b293e55e1cf3d425a3cf134bf2", "is_reserved": 0, "fusion_lat": 0.0}, {"type": "electric_scooter", "rental_uris": {"ios": "https://dc.lft.to/lastmile_qr_scan", "android": "https://dc.lft.to/lastmile_qr_scan"}, "lon": -77.0234965, "fusion_lon": 0.0, "is_disabled": 0, "lat": 38.917802, "bike_id": "65cabdd467bdfe40f4a710616f643966", "name": "65cabdd467bdfe40f4a710616f643966", "is_reserved": 0, "fusion_lat": 0.0}, {"type": "electric_scooter", "rental_uris": {"ios": "https://dc.lft.to/lastmile_qr_scan", "android": "https://dc.lft.to/lastmile_qr_scan"}, "lon": -77.0342325, "fusion_lon": 0.0, "is_disabled": 0, "lat": 38.92239383333333, "bike_id": "5cd2bfe1234bfe4d723f33414f7cabc2", "name": "5cd2bfe1234bfe4d723f33414f7cabc2", "is_reserved": 0, "fusion_lat": 0.0}, {"type": "electric_scooter", "rental_uris": {"ios": "https://dc.lft.to/lastmile_qr_scan", "android": "https://dc.lft.to/lastmile_qr_scan"}, "lon": -77.02225, "fusion_lon": 0.0, "is_disabled": 0, "lat": 38.908482666666664, "bike_id": "1bf7dbfc39989328f5bcb5f66b300f74", "name": "1bf7dbfc39989328f5bcb5f66b300f74", "is_reserved": 0, "fusion_lat": 0.0}, {"type": "electric_scooter", "rental_uris": {"ios": "https://dc.lft.to/lastmile_qr_scan", "android": "https://dc.lft.to/lastmile_qr_scan"}, "lon": -77.031456, "fusion_lon": 0.0, "is_disabled": 0, "lat": 38.915689, "bike_id": "7b76019522457cbf4f54c3a20d8311e1", "name": "7b76019522457cbf4f54c3a20d8311e1", "is_reserved": 0, "fusion_lat": 0.0}, {"type": "electric_scooter", "rental_uris": {"ios": "https://dc.lft.to/lastmile_qr_scan", "android": "https://dc.lft.to/lastmile_qr_scan"}, "lon": -77.01947066666666, "fusion_lon": 0.0, "is_disabled": 0, "lat": 38.949271833333334, "bike_id": "510648b14382f1b63290ad447510b226", "name": "510648b14382f1b63290ad447510b226", "is_reserved": 0, "fusion_lat": 0.0}, {"type": "electric_bike", "rental_uris": {"ios": "https://dc.lft.to/lastmile_qr_scan", "android": "https://dc.lft.to/lastmile_qr_scan"}, "lon": -76.96112566666666, "fusion_lon": 0.0, "is_disabled": 0, "lat": 38.85186933333333, "bike_id": "b1de0cfc2cd4fe9a777f5829747800ea", "name": "b1de0cfc2cd4fe9a777f5829747800ea", "is_reserved": 0, "fusion_lat": 0.0}, {"type": "electric_scooter", "rental_uris": {"ios": "https://dc.lft.to/lastmile_qr_scan", "android": "https://dc.lft.to/lastmile_qr_scan"}, "lon": -76.94633983333334, "fusion_lon": 0.0, "is_disabled": 0, "lat": 38.89844016666667, "bike_id": "e4b1bc0a92d422748d3031d252afe1ac", "name": "e4b1bc0a92d422748d3031d252afe1ac", "is_reserved": 0, "fusion_lat": 0.0}, {"type": "electric_scooter", "rental_uris": {"ios": "https://dc.lft.to/lastmile_qr_scan", "android": "https://dc.lft.to/lastmile_qr_scan"}, "lon": -77.03432983333333, "fusion_lon": 0.0, "is_disabled": 0, "lat": 38.907273833333335, "bike_id": "271da440c56ad669275528350c9d94c7", "name": "271da440c56ad669275528350c9d94c7", "is_reserved": 0, "fusion_lat": 0.0}, {"type": "electric_scooter", "rental_uris": {"ios": "https://dc.lft.to/lastmile_qr_scan", "android": "https://dc.lft.to/lastmile_qr_scan"}, "lon": -77.04341366666667, "fusion_lon": 0.0, "is_disabled": 0, "lat": 38.908059, "bike_id": "248b482cfa607411809e122970ee2bdc", "name": "248b482cfa607411809e122970ee2bdc", "is_reserved": 0, "fusion_lat": 0.0}, {"type": "electric_bike", "rental_uris": {"ios": "https://dc.lft.to/lastmile_qr_scan", "android": "https://dc.lft.to/lastmile_qr_scan"}, "lon": -77.099617, "fusion_lon": 0.0, "is_disabled": 0, "lat": 38.933577666666665, "bike_id": "22b5a9c5ce098647c46e54d825e1c2c6", "name": "22b5a9c5ce098647c46e54d825e1c2c6", "is_reserved": 0, "fusion_lat": 0.0}, {"type": "electric_scooter", "rental_uris": {"ios": "https://dc.lft.to/lastmile_qr_scan", "android": "https://dc.lft.to/lastmile_qr_scan"}, "lon": -77.02831883333333, "fusion_lon": 0.0, "is_disabled": 0, "lat": 38.931859833333334, "bike_id": "f3b69a570d5eb55b29c60e4484ee289b", "name": "f3b69a570d5eb55b29c60e4484ee289b", "is_reserved": 0, "fusion_lat": 0.0}, {"type": "electric_scooter", "rental_uris": {"ios": "https://dc.lft.to/lastmile_qr_scan", "android": "https://dc.lft.to/lastmile_qr_scan"}, "lon": -77.04211833333333, "fusion_lon": 0.0, "is_disabled": 0, "lat": 38.923179166666664, "bike_id": "8b50e9bf19c3515879b4153aa1d8bc47", "name": "8b50e9bf19c3515879b4153aa1d8bc47", "is_reserved": 0, "fusion_lat": 0.0}, {"type": "electric_bike", "rental_uris": {"ios": "https://dc.lft.to/lastmile_qr_scan", "android": "https://dc.lft.to/lastmile_qr_scan"}, "lon": -77.02391616666667, "fusion_lon": 0.0, "is_disabled": 0, "lat": 38.962812166666666, "bike_id": "8c64f85a5170a52278f985a38202bbc3", "name": "8c64f85a5170a52278f985a38202bbc3", "is_reserved": 0, "fusion_lat": 0.0}, {"type": "electric_scooter", "rental_uris": {"ios": "https://dc.lft.to/lastmile_qr_scan", "android": "https://dc.lft.to/lastmile_qr_scan"}, "lon": -77.033624, "fusion_lon": 0.0, "is_disabled": 0, "lat": 38.902660833333336, "bike_id": "470d9f632ee2281808f717f90ebac18f", "name": "470d9f632ee2281808f717f90ebac18f", "is_reserved": 0, "fusion_lat": 0.0}, {"type": "electric_scooter", "rental_uris": {"ios": "https://dc.lft.to/lastmile_qr_scan", "android": "https://dc.lft.to/lastmile_qr_scan"}, "lon": -77.03808866666667, "fusion_lon": 0.0, "is_disabled": 0, "lat": 38.920589166666666, "bike_id": "9dff6ebef070032be9f4c9709e558707", "name": "9dff6ebef070032be9f4c9709e558707", "is_reserved": 0, "fusion_lat": 0.0}, {"type": "electric_scooter", "rental_uris": {"ios": "https://dc.lft.to/lastmile_qr_scan", "android": "https://dc.lft.to/lastmile_qr_scan"}, "lon": -77.0315405, "fusion_lon": 0.0, "is_disabled": 0, "lat": 38.915653666666664, "bike_id": "804f7a4aca17df60ee47637aa809356e", "name": "804f7a4aca17df60ee47637aa809356e", "is_reserved": 0, "fusion_lat": 0.0}, {"type": "electric_scooter", "rental_uris": {"ios": "https://dc.lft.to/lastmile_qr_scan", "android": "https://dc.lft.to/lastmile_qr_scan"}, "lon": -77.03229933333333, "fusion_lon": 0.0, "is_disabled": 0, "lat": 38.91483866666667, "bike_id": "f203f67c695679660124ff993e76b7f4", "name": "f203f67c695679660124ff993e76b7f4", "is_reserved": 0, "fusion_lat": 0.0}, {"type": "electric_scooter", "rental_uris": {"ios": "https://dc.lft.to/lastmile_qr_scan", "android": "https://dc.lft.to/lastmile_qr_scan"}, "lon": -77.02405633333333, "fusion_lon": 0.0, "is_disabled": 0, "lat": 38.928949333333335, "bike_id": "4081d698ab4a2273706a32caecb2b905", "name": "4081d698ab4a2273706a32caecb2b905", "is_reserved": 0, "fusion_lat": 0.0}, {"type": "electric_scooter", "rental_uris": {"ios": "https://dc.lft.to/lastmile_qr_scan", "android": "https://dc.lft.to/lastmile_qr_scan"}, "lon": -77.0318605, "fusion_lon": 0.0, "is_disabled": 0, "lat": 38.91421666666667, "bike_id": "d7f484654f48532c39335807ca860ab9", "name": "d7f484654f48532c39335807ca860ab9", "is_reserved": 0, "fusion_lat": 0.0}, {"type": "electric_scooter", "rental_uris": {"ios": "https://dc.lft.to/lastmile_qr_scan", "android": "https://dc.lft.to/lastmile_qr_scan"}, "lon": -77.0512015, "fusion_lon": 0.0, "is_disabled": 0, "lat": 38.90589083333333, "bike_id": "eb84466d984297d1375bf0e3f1c2fdd5", "name": "eb84466d984297d1375bf0e3f1c2fdd5", "is_reserved": 0, "fusion_lat": 0.0}, {"type": "electric_scooter", "rental_uris": {"ios": "https://dc.lft.to/lastmile_qr_scan", "android": "https://dc.lft.to/lastmile_qr_scan"}, "lon": -77.03800566666666, "fusion_lon": 0.0, "is_disabled": 0, "lat": 38.91270983333333, "bike_id": "c6f75b7388251db39302b6d845398fb5", "name": "c6f75b7388251db39302b6d845398fb5", "is_reserved": 0, "fusion_lat": 0.0}, {"type": "electric_bike", "rental_uris": {"ios": "https://dc.lft.to/lastmile_qr_scan", "android": "https://dc.lft.to/lastmile_qr_scan"}, "lon": -76.96261633333333, "fusion_lon": 0.0, "is_disabled": 0, "lat": 38.882430166666666, "bike_id": "d233a22d996bb5cd6534aa7b5e236585", "name": "d233a22d996bb5cd6534aa7b5e236585", "is_reserved": 0, "fusion_lat": 0.0}, {"type": "electric_scooter", "rental_uris": {"ios": "https://dc.lft.to/lastmile_qr_scan", "android": "https://dc.lft.to/lastmile_qr_scan"}, "lon": -77.03969733333334, "fusion_lon": 0.0, "is_disabled": 0, "lat": 38.8963015, "bike_id": "28bcba4d7ffa93957a2a458a17c93a71", "name": "28bcba4d7ffa93957a2a458a17c93a71", "is_reserved": 0, "fusion_lat": 0.0}, {"type": "electric_scooter", "rental_uris": {"ios": "https://dc.lft.to/lastmile_qr_scan", "android": "https://dc.lft.to/lastmile_qr_scan"}, "lon": -77.02963733333333, "fusion_lon": 0.0, "is_disabled": 0, "lat": 38.92589233333333, "bike_id": "be5680b0dddfb632ab8be696a1b3282a", "name": "be5680b0dddfb632ab8be696a1b3282a", "is_reserved": 0, "fusion_lat": 0.0}, {"type": "electric_scooter", "rental_uris": {"ios": "https://dc.lft.to/lastmile_qr_scan", "android": "https://dc.lft.to/lastmile_qr_scan"}, "lon": -76.98699533333334, "fusion_lon": 0.0, "is_disabled": 0, "lat": 38.90699016666667, "bike_id": "91d05a1fcb9ff32e266f8834f900a9c2", "name": "91d05a1fcb9ff32e266f8834f900a9c2", "is_reserved": 0, "fusion_lat": 0.0}, {"type": "electric_scooter", "rental_uris": {"ios": "https://dc.lft.to/lastmile_qr_scan", "android": "https://dc.lft.to/lastmile_qr_scan"}, "lon": -77.043934, "fusion_lon": 0.0, "is_disabled": 0, "lat": 38.91065033333334, "bike_id": "edfcc064a5548968a11d86981f073730", "name": "edfcc064a5548968a11d86981f073730", "is_reserved": 0, "fusion_lat": 0.0}, {"type": "electric_bike", "rental_uris": {"ios": "https://dc.lft.to/lastmile_qr_scan", "android": "https://dc.lft.to/lastmile_qr_scan"}, "lon": -76.94803533333334, "fusion_lon": 0.0, "is_disabled": 0, "lat": 38.89395533333333, "bike_id": "cf2e936a75b4036a830f09eadd5246e6", "name": "cf2e936a75b4036a830f09eadd5246e6", "is_reserved": 0, "fusion_lat": 0.0}, {"type": "electric_bike", "rental_uris": {"ios": "https://dc.lft.to/lastmile_qr_scan", "android": "https://dc.lft.to/lastmile_qr_scan"}, "lon": -76.97830616666667, "fusion_lon": 0.0, "is_disabled": 0, "lat": 38.87075683333333, "bike_id": "6f8ec03710d1f370b263da281e0be35f", "name": "6f8ec03710d1f370b263da281e0be35f", "is_reserved": 0, "fusion_lat": 0.0}, {"type": "electric_scooter", "rental_uris": {"ios": "https://dc.lft.to/lastmile_qr_scan", "android": "https://dc.lft.to/lastmile_qr_scan"}, "lon": -76.95414083333333, "fusion_lon": 0.0, "is_disabled": 0, "lat": 38.890607833333334, "bike_id": "8d14c270df9c2d38dd4ab3de1ad7b407", "name": "8d14c270df9c2d38dd4ab3de1ad7b407", "is_reserved": 0, "fusion_lat": 0.0}, {"type": "electric_scooter", "rental_uris": {"ios": "https://dc.lft.to/lastmile_qr_scan", "android": "https://dc.lft.to/lastmile_qr_scan"}, "lon": -77.03430583333333, "fusion_lon": 0.0, "is_disabled": 0, "lat": 38.90726516666667, "bike_id": "8b9d5cff646da1054430dd2e4b61e7a6", "name": "8b9d5cff646da1054430dd2e4b61e7a6", "is_reserved": 0, "fusion_lat": 0.0}, {"type": "electric_scooter", "rental_uris": {"ios": "https://dc.lft.to/lastmile_qr_scan", "android": "https://dc.lft.to/lastmile_qr_scan"}, "lon": -77.03796033333333, "fusion_lon": 0.0, "is_disabled": 0, "lat": 38.906626, "bike_id": "ab466a97de9d242a631747768563ed27", "name": "ab466a97de9d242a631747768563ed27", "is_reserved": 0, "fusion_lat": 0.0}, {"type": "electric_bike", "rental_uris": {"ios": "https://dc.lft.to/lastmile_qr_scan", "android": "https://dc.lft.to/lastmile_qr_scan"}, "lon": -76.99019, "fusion_lon": 0.0, "is_disabled": 0, "lat": 38.954761166666664, "bike_id": "aae3aadba733d09efe7b158435103125", "name": "aae3aadba733d09efe7b158435103125", "is_reserved": 0, "fusion_lat": 0.0}, {"type": "electric_scooter", "rental_uris": {"ios": "https://dc.lft.to/lastmile_qr_scan", "android": "https://dc.lft.to/lastmile_qr_scan"}, "lon": -77.01435466666666, "fusion_lon": 0.0, "is_disabled": 0, "lat": 38.9145665, "bike_id": "5dcd33709b0ad4f45a08e86ed20201e2", "name": "5dcd33709b0ad4f45a08e86ed20201e2", "is_reserved": 0, "fusion_lat": 0.0}, {"type": "electric_scooter", "rental_uris": {"ios": "https://dc.lft.to/lastmile_qr_scan", "android": "https://dc.lft.to/lastmile_qr_scan"}, "lon": -77.022284, "fusion_lon": 0.0, "is_disabled": 0, "lat": 38.912531, "bike_id": "b1fe326a05901bad00179117681b8460", "name": "b1fe326a05901bad00179117681b8460", "is_reserved": 0, "fusion_lat": 0.0}, {"type": "electric_scooter", "rental_uris": {"ios": "https://dc.lft.to/lastmile_qr_scan", "android": "https://dc.lft.to/lastmile_qr_scan"}, "lon": -77.037598, "fusion_lon": 0.0, "is_disabled": 0, "lat": 38.9067305, "bike_id": "d5fb12650f579dac6332e6238aa6d037", "name": "d5fb12650f579dac6332e6238aa6d037", "is_reserved": 0, "fusion_lat": 0.0}, {"type": "electric_scooter", "rental_uris": {"ios": "https://dc.lft.to/lastmile_qr_scan", "android": "https://dc.lft.to/lastmile_qr_scan"}, "lon": -77.044782, "fusion_lon": 0.0, "is_disabled": 0, "lat": 38.915766, "bike_id": "e7c22a186400fad9f9ae9b40f7265e3e", "name": "e7c22a186400fad9f9ae9b40f7265e3e", "is_reserved": 0, "fusion_lat": 0.0}, {"type": "electric_scooter", "rental_uris": {"ios": "https://dc.lft.to/lastmile_qr_scan", "android": "https://dc.lft.to/lastmile_qr_scan"}, "lon": -76.99825483333333, "fusion_lon": 0.0, "is_disabled": 0, "lat": 38.90024983333333, "bike_id": "107beb63ae70280ef283e3fd07090cdc", "name": "107beb63ae70280ef283e3fd07090cdc", "is_reserved": 0, "fusion_lat": 0.0}, {"type": "electric_bike", "rental_uris": {"ios": "https://dc.lft.to/lastmile_qr_scan", "android": "https://dc.lft.to/lastmile_qr_scan"}, "lon": -77.11801466666667, "fusion_lon": 0.0, "is_disabled": 0, "lat": 38.873740833333336, "bike_id": "1d351a64eb0ffdd4687e4e640154d36d", "name": "1d351a64eb0ffdd4687e4e640154d36d", "is_reserved": 0, "fusion_lat": 0.0}, {"type": "electric_scooter", "rental_uris": {"ios": "https://dc.lft.to/lastmile_qr_scan", "android": "https://dc.lft.to/lastmile_qr_scan"}, "lon": -76.96529833333334, "fusion_lon": 0.0, "is_disabled": 0, "lat": 38.8762535, "bike_id": "43f8a8b036f9e322ec5401d6f1dffbd3", "name": "43f8a8b036f9e322ec5401d6f1dffbd3", "is_reserved": 0, "fusion_lat": 0.0}, {"type": "electric_scooter", "rental_uris": {"ios": "https://dc.lft.to/lastmile_qr_scan", "android": "https://dc.lft.to/lastmile_qr_scan"}, "lon": -76.9652775, "fusion_lon": 0.0, "is_disabled": 0, "lat": 38.876253166666665, "bike_id": "12d27b4ea44e3e543c3320fdab40bdc0", "name": "12d27b4ea44e3e543c3320fdab40bdc0", "is_reserved": 0, "fusion_lat": 0.0}, {"type": "electric_scooter", "rental_uris": {"ios": "https://dc.lft.to/lastmile_qr_scan", "android": "https://dc.lft.to/lastmile_qr_scan"}, "lon": -77.03525766666667, "fusion_lon": 0.0, "is_disabled": 0, "lat": 38.918161, "bike_id": "673e96aaa31c855f73355fa6b9fa0767", "name": "673e96aaa31c855f73355fa6b9fa0767", "is_reserved": 0, "fusion_lat": 0.0}, {"type": "electric_scooter", "rental_uris": {"ios": "https://dc.lft.to/lastmile_qr_scan", "android": "https://dc.lft.to/lastmile_qr_scan"}, "lon": -77.02294366666666, "fusion_lon": 0.0, "is_disabled": 0, "lat": 38.914395666666664, "bike_id": "d81d32354e46963d97b92e3276b9179e", "name": "d81d32354e46963d97b92e3276b9179e", "is_reserved": 0, "fusion_lat": 0.0}, {"type": "electric_scooter", "rental_uris": {"ios": "https://dc.lft.to/lastmile_qr_scan", "android": "https://dc.lft.to/lastmile_qr_scan"}, "lon": -77.05489783333333, "fusion_lon": 0.0, "is_disabled": 0, "lat": 38.90939733333333, "bike_id": "50d198b72e06b9982786120cfd17b1b3", "name": "50d198b72e06b9982786120cfd17b1b3", "is_reserved": 0, "fusion_lat": 0.0}, {"type": "electric_bike", "rental_uris": {"ios": "https://dc.lft.to/lastmile_qr_scan", "android": "https://dc.lft.to/lastmile_qr_scan"}, "lon": -77.02619883333334, "fusion_lon": 0.0, "is_disabled": 0, "lat": 38.96927816666667, "bike_id": "a58dedfb4582f70d404fa7ece71752e3", "name": "a58dedfb4582f70d404fa7ece71752e3", "is_reserved": 0, "fusion_lat": 0.0}, {"type": "electric_bike", "rental_uris": {"ios": "https://dc.lft.to/lastmile_qr_scan", "android": "https://dc.lft.to/lastmile_qr_scan"}, "lon": -77.02842966666667, "fusion_lon": 0.0, "is_disabled": 0, "lat": 38.921372833333336, "bike_id": "586d4b250974d270493cdddacecee405", "name": "586d4b250974d270493cdddacecee405", "is_reserved": 0, "fusion_lat": 0.0}, {"type": "electric_scooter", "rental_uris": {"ios": "https://dc.lft.to/lastmile_qr_scan", "android": "https://dc.lft.to/lastmile_qr_scan"}, "lon": -77.038431, "fusion_lon": 0.0, "is_disabled": 0, "lat": 38.917561166666665, "bike_id": "d3b9e38685f22120df67d15b38091075", "name": "d3b9e38685f22120df67d15b38091075", "is_reserved": 0, "fusion_lat": 0.0}, {"type": "electric_scooter", "rental_uris": {"ios": "https://dc.lft.to/lastmile_qr_scan", "android": "https://dc.lft.to/lastmile_qr_scan"}, "lon": -77.04906716666666, "fusion_lon": 0.0, "is_disabled": 0, "lat": 38.892290333333335, "bike_id": "fb7bc391ddf94c519abb0843417daf0b", "name": "fb7bc391ddf94c519abb0843417daf0b", "is_reserved": 0, "fusion_lat": 0.0}, {"type": "electric_scooter", "rental_uris": {"ios": "https://dc.lft.to/lastmile_qr_scan", "android": "https://dc.lft.to/lastmile_qr_scan"}, "lon": -77.04711516666667, "fusion_lon": 0.0, "is_disabled": 0, "lat": 38.921845, "bike_id": "9a17baf5833f5d4e5318652fbd6086f7", "name": "9a17baf5833f5d4e5318652fbd6086f7", "is_reserved": 0, "fusion_lat": 0.0}, {"type": "electric_scooter", "rental_uris": {"ios": "https://dc.lft.to/lastmile_qr_scan", "android": "https://dc.lft.to/lastmile_qr_scan"}, "lon": -77.04719783333333, "fusion_lon": 0.0, "is_disabled": 0, "lat": 38.897208666666664, "bike_id": "ee3cb0347ddcbc658ba7f1298bd60fbe", "name": "ee3cb0347ddcbc658ba7f1298bd60fbe", "is_reserved": 0, "fusion_lat": 0.0}, {"type": "electric_scooter", "rental_uris": {"ios": "https://dc.lft.to/lastmile_qr_scan", "android": "https://dc.lft.to/lastmile_qr_scan"}, "lon": -77.043477, "fusion_lon": 0.0, "is_disabled": 0, "lat": 38.92151466666667, "bike_id": "4d8ef66655185cc79f61f1929654d708", "name": "4d8ef66655185cc79f61f1929654d708", "is_reserved": 0, "fusion_lat": 0.0}, {"type": "electric_scooter", "rental_uris": {"ios": "https://dc.lft.to/lastmile_qr_scan", "android": "https://dc.lft.to/lastmile_qr_scan"}, "lon": -77.04015716666666, "fusion_lon": 0.0, "is_disabled": 0, "lat": 38.918387833333334, "bike_id": "00b1d4b86821202b1338c17108759f9e", "name": "00b1d4b86821202b1338c17108759f9e", "is_reserved": 0, "fusion_lat": 0.0}, {"type": "electric_scooter", "rental_uris": {"ios": "https://dc.lft.to/lastmile_qr_scan", "android": "https://dc.lft.to/lastmile_qr_scan"}, "lon": -77.03844316666667, "fusion_lon": 0.0, "is_disabled": 0, "lat": 38.9175615, "bike_id": "bfe342b3d3c584e4fba47e01d3dad374", "name": "bfe342b3d3c584e4fba47e01d3dad374", "is_reserved": 0, "fusion_lat": 0.0}, {"type": "electric_scooter", "rental_uris": {"ios": "https://dc.lft.to/lastmile_qr_scan", "android": "https://dc.lft.to/lastmile_qr_scan"}, "lon": -76.91912983333333, "fusion_lon": 0.0, "is_disabled": 0, "lat": 38.885752333333336, "bike_id": "f642d1843f265bc27b89095114e214f2", "name": "f642d1843f265bc27b89095114e214f2", "is_reserved": 0, "fusion_lat": 0.0}, {"type": "electric_scooter", "rental_uris": {"ios": "https://dc.lft.to/lastmile_qr_scan", "android": "https://dc.lft.to/lastmile_qr_scan"}, "lon": -77.0267105, "fusion_lon": 0.0, "is_disabled": 0, "lat": 38.916908666666664, "bike_id": "94c52001295db9ad8a1ac97cfe797dfb", "name": "94c52001295db9ad8a1ac97cfe797dfb", "is_reserved": 0, "fusion_lat": 0.0}, {"type": "electric_scooter", "rental_uris": {"ios": "https://dc.lft.to/lastmile_qr_scan", "android": "https://dc.lft.to/lastmile_qr_scan"}, "lon": -77.04577683333333, "fusion_lon": 0.0, "is_disabled": 0, "lat": 38.917322666666664, "bike_id": "62cfefdd24d0c3cb50b1de1b7c67a840", "name": "62cfefdd24d0c3cb50b1de1b7c67a840", "is_reserved": 0, "fusion_lat": 0.0}, {"type": "electric_scooter", "rental_uris": {"ios": "https://dc.lft.to/lastmile_qr_scan", "android": "https://dc.lft.to/lastmile_qr_scan"}, "lon": -77.03341566666667, "fusion_lon": 0.0, "is_disabled": 0, "lat": 38.91731333333333, "bike_id": "0b8db74973bdb7eeaf4db7a4e4f66f51", "name": "0b8db74973bdb7eeaf4db7a4e4f66f51", "is_reserved": 0, "fusion_lat": 0.0}, {"type": "electric_scooter", "rental_uris": {"ios": "https://dc.lft.to/lastmile_qr_scan", "android": "https://dc.lft.to/lastmile_qr_scan"}, "lon": -77.03072733333333, "fusion_lon": 0.0, "is_disabled": 0, "lat": 38.90572, "bike_id": "212374f9a3de6db28fab04b4456acd59", "name": "212374f9a3de6db28fab04b4456acd59", "is_reserved": 0, "fusion_lat": 0.0}, {"type": "electric_scooter", "rental_uris": {"ios": "https://dc.lft.to/lastmile_qr_scan", "android": "https://dc.lft.to/lastmile_qr_scan"}, "lon": -77.02494266666666, "fusion_lon": 0.0, "is_disabled": 0, "lat": 38.93091066666667, "bike_id": "a891d50ef63f945650b126ac1794ce6d", "name": "a891d50ef63f945650b126ac1794ce6d", "is_reserved": 0, "fusion_lat": 0.0}, {"type": "electric_scooter", "rental_uris": {"ios": "https://dc.lft.to/lastmile_qr_scan", "android": "https://dc.lft.to/lastmile_qr_scan"}, "lon": -77.02695583333333, "fusion_lon": 0.0, "is_disabled": 0, "lat": 38.90678716666667, "bike_id": "9ff867b1a57863c27f6294ef4dfc2e9b", "name": "9ff867b1a57863c27f6294ef4dfc2e9b", "is_reserved": 0, "fusion_lat": 0.0}, {"type": "electric_scooter", "rental_uris": {"ios": "https://dc.lft.to/lastmile_qr_scan", "android": "https://dc.lft.to/lastmile_qr_scan"}, "lon": -77.01222883333334, "fusion_lon": 0.0, "is_disabled": 0, "lat": 38.919707333333335, "bike_id": "7a7bcdad98f20663533d2f3df86930c6", "name": "7a7bcdad98f20663533d2f3df86930c6", "is_reserved": 0, "fusion_lat": 0.0}, {"type": "electric_scooter", "rental_uris": {"ios": "https://dc.lft.to/lastmile_qr_scan", "android": "https://dc.lft.to/lastmile_qr_scan"}, "lon": -77.02971733333334, "fusion_lon": 0.0, "is_disabled": 0, "lat": 38.91684816666667, "bike_id": "6f99b756434f77926ca93e0a9e7343a7", "name": "6f99b756434f77926ca93e0a9e7343a7", "is_reserved": 0, "fusion_lat": 0.0}, {"type": "electric_scooter", "rental_uris": {"ios": "https://dc.lft.to/lastmile_qr_scan", "android": "https://dc.lft.to/lastmile_qr_scan"}, "lon": -77.00206766666666, "fusion_lon": 0.0, "is_disabled": 0, "lat": 38.894932, "bike_id": "95242c0a59d78ead6308468b5907b502", "name": "95242c0a59d78ead6308468b5907b502", "is_reserved": 0, "fusion_lat": 0.0}, {"type": "electric_scooter", "rental_uris": {"ios": "https://dc.lft.to/lastmile_qr_scan", "android": "https://dc.lft.to/lastmile_qr_scan"}, "lon": -77.03269333333333, "fusion_lon": 0.0, "is_disabled": 0, "lat": 38.934006833333335, "bike_id": "a1bf9b1c44ca1cc5ab972ca7b4cbb995", "name": "a1bf9b1c44ca1cc5ab972ca7b4cbb995", "is_reserved": 0, "fusion_lat": 0.0}, {"type": "electric_bike", "rental_uris": {"ios": "https://dc.lft.to/lastmile_qr_scan", "android": "https://dc.lft.to/lastmile_qr_scan"}, "lon": -77.00221283333333, "fusion_lon": 0.0, "is_disabled": 0, "lat": 38.92849116666667, "bike_id": "1f5275cb338b5834698c8c4c2230222d", "name": "1f5275cb338b5834698c8c4c2230222d", "is_reserved": 0, "fusion_lat": 0.0}, {"type": "electric_scooter", "rental_uris": {"ios": "https://dc.lft.to/lastmile_qr_scan", "android": "https://dc.lft.to/lastmile_qr_scan"}, "lon": -77.03456233333333, "fusion_lon": 0.0, "is_disabled": 0, "lat": 38.9374445, "bike_id": "7605a46e70f27c2380baf571b5589f83", "name": "7605a46e70f27c2380baf571b5589f83", "is_reserved": 0, "fusion_lat": 0.0}, {"type": "electric_scooter", "rental_uris": {"ios": "https://dc.lft.to/lastmile_qr_scan", "android": "https://dc.lft.to/lastmile_qr_scan"}, "lon": -77.03147, "fusion_lon": 0.0, "is_disabled": 0, "lat": 38.88741266666667, "bike_id": "6a36015db32a8b5071e16c3f75cbad84", "name": "6a36015db32a8b5071e16c3f75cbad84", "is_reserved": 0, "fusion_lat": 0.0}, {"type": "electric_scooter", "rental_uris": {"ios": "https://dc.lft.to/lastmile_qr_scan", "android": "https://dc.lft.to/lastmile_qr_scan"}, "lon": -76.9990855, "fusion_lon": 0.0, "is_disabled": 0, "lat": 38.907492166666664, "bike_id": "c84778f3f28f7887babb39b70a416083", "name": "c84778f3f28f7887babb39b70a416083", "is_reserved": 0, "fusion_lat": 0.0}, {"type": "electric_scooter", "rental_uris": {"ios": "https://dc.lft.to/lastmile_qr_scan", "android": "https://dc.lft.to/lastmile_qr_scan"}, "lon": -77.00102166666667, "fusion_lon": 0.0, "is_disabled": 0, "lat": 38.91237783333333, "bike_id": "98e6581b90557f4ea4a5c7df21d8d951", "name": "98e6581b90557f4ea4a5c7df21d8d951", "is_reserved": 0, "fusion_lat": 0.0}, {"type": "electric_scooter", "rental_uris": {"ios": "https://dc.lft.to/lastmile_qr_scan", "android": "https://dc.lft.to/lastmile_qr_scan"}, "lon": -77.03854433333333, "fusion_lon": 0.0, "is_disabled": 0, "lat": 38.932334833333336, "bike_id": "b0dbdb194943ec905f7e635b1f14fd27", "name": "b0dbdb194943ec905f7e635b1f14fd27", "is_reserved": 0, "fusion_lat": 0.0}, {"type": "electric_scooter", "rental_uris": {"ios": "https://dc.lft.to/lastmile_qr_scan", "android": "https://dc.lft.to/lastmile_qr_scan"}, "lon": -77.06252866666667, "fusion_lon": 0.0, "is_disabled": 0, "lat": 38.94422766666667, "bike_id": "515d463e344988f8e8fc77fea7bf849e", "name": "515d463e344988f8e8fc77fea7bf849e", "is_reserved": 0, "fusion_lat": 0.0}, {"type": "electric_scooter", "rental_uris": {"ios": "https://dc.lft.to/lastmile_qr_scan", "android": "https://dc.lft.to/lastmile_qr_scan"}, "lon": -76.97949, "fusion_lon": 0.0, "is_disabled": 0, "lat": 38.91688216666667, "bike_id": "6d968d9c6b95eb67df7327c3d6f3d107", "name": "6d968d9c6b95eb67df7327c3d6f3d107", "is_reserved": 0, "fusion_lat": 0.0}, {"type": "electric_bike", "rental_uris": {"ios": "https://dc.lft.to/lastmile_qr_scan", "android": "https://dc.lft.to/lastmile_qr_scan"}, "lon": -77.16242133333333, "fusion_lon": 0.0, "is_disabled": 0, "lat": 38.886827, "bike_id": "39cf70949bc207c634629b09bc8f4b70", "name": "39cf70949bc207c634629b09bc8f4b70", "is_reserved": 0, "fusion_lat": 0.0}, {"type": "electric_scooter", "rental_uris": {"ios": "https://dc.lft.to/lastmile_qr_scan", "android": "https://dc.lft.to/lastmile_qr_scan"}, "lon": -77.05052383333333, "fusion_lon": 0.0, "is_disabled": 0, "lat": 38.90447916666667, "bike_id": "3343821aca041af2ae7f822df9211f62", "name": "3343821aca041af2ae7f822df9211f62", "is_reserved": 0, "fusion_lat": 0.0}, {"type": "electric_scooter", "rental_uris": {"ios": "https://dc.lft.to/lastmile_qr_scan", "android": "https://dc.lft.to/lastmile_qr_scan"}, "lon": -76.99030033333334, "fusion_lon": 0.0, "is_disabled": 0, "lat": 38.90030983333333, "bike_id": "626bb9dec7748212d35dc4b3da932d02", "name": "626bb9dec7748212d35dc4b3da932d02", "is_reserved": 0, "fusion_lat": 0.0}, {"type": "electric_bike", "rental_uris": {"ios": "https://dc.lft.to/lastmile_qr_scan", "android": "https://dc.lft.to/lastmile_qr_scan"}, "lon": -77.11786216666667, "fusion_lon": 0.0, "is_disabled": 0, "lat": 38.885473833333336, "bike_id": "eb038e8009c96572841c525f03c4025c", "name": "eb038e8009c96572841c525f03c4025c", "is_reserved": 0, "fusion_lat": 0.0}, {"type": "electric_scooter", "rental_uris": {"ios": "https://dc.lft.to/lastmile_qr_scan", "android": "https://dc.lft.to/lastmile_qr_scan"}, "lon": -77.01894016666667, "fusion_lon": 0.0, "is_disabled": 0, "lat": 38.886097666666664, "bike_id": "d3d571feda972b4d3b56d6572c7dec84", "name": "d3d571feda972b4d3b56d6572c7dec84", "is_reserved": 0, "fusion_lat": 0.0}, {"type": "electric_bike", "rental_uris": {"ios": "https://dc.lft.to/lastmile_qr_scan", "android": "https://dc.lft.to/lastmile_qr_scan"}, "lon": -77.01282083333334, "fusion_lon": 0.0, "is_disabled": 0, "lat": 38.9566225, "bike_id": "5264386f19cffa286286cd946d739804", "name": "5264386f19cffa286286cd946d739804", "is_reserved": 0, "fusion_lat": 0.0}, {"type": "electric_scooter", "rental_uris": {"ios": "https://dc.lft.to/lastmile_qr_scan", "android": "https://dc.lft.to/lastmile_qr_scan"}, "lon": -77.026378, "fusion_lon": 0.0, "is_disabled": 0, "lat": 38.901320166666665, "bike_id": "ba45296841ec769b2243b4b8de28c474", "name": "ba45296841ec769b2243b4b8de28c474", "is_reserved": 0, "fusion_lat": 0.0}, {"type": "electric_scooter", "rental_uris": {"ios": "https://dc.lft.to/lastmile_qr_scan", "android": "https://dc.lft.to/lastmile_qr_scan"}, "lon": -77.0160955, "fusion_lon": 0.0, "is_disabled": 0, "lat": 38.9159325, "bike_id": "b3d39c4b1977c519bd2ce5583bdc3159", "name": "b3d39c4b1977c519bd2ce5583bdc3159", "is_reserved": 0, "fusion_lat": 0.0}, {"type": "electric_scooter", "rental_uris": {"ios": "https://dc.lft.to/lastmile_qr_scan", "android": "https://dc.lft.to/lastmile_qr_scan"}, "lon": -77.0201005, "fusion_lon": 0.0, "is_disabled": 0, "lat": 38.908230333333336, "bike_id": "04cefa35a5abae48c4f6d700b87f163d", "name": "04cefa35a5abae48c4f6d700b87f163d", "is_reserved": 0, "fusion_lat": 0.0}, {"type": "electric_scooter", "rental_uris": {"ios": "https://dc.lft.to/lastmile_qr_scan", "android": "https://dc.lft.to/lastmile_qr_scan"}, "lon": -77.03170083333333, "fusion_lon": 0.0, "is_disabled": 0, "lat": 38.918192833333336, "bike_id": "7d79f90d4e3463d9197e6563066a4b74", "name": "7d79f90d4e3463d9197e6563066a4b74", "is_reserved": 0, "fusion_lat": 0.0}, {"type": "electric_scooter", "rental_uris": {"ios": "https://dc.lft.to/lastmile_qr_scan", "android": "https://dc.lft.to/lastmile_qr_scan"}, "lon": -77.02203416666667, "fusion_lon": 0.0, "is_disabled": 0, "lat": 38.87882883333333, "bike_id": "1086d0afdcf370ed2b3aa528ca7b595e", "name": "1086d0afdcf370ed2b3aa528ca7b595e", "is_reserved": 0, "fusion_lat": 0.0}, {"type": "electric_scooter", "rental_uris": {"ios": "https://dc.lft.to/lastmile_qr_scan", "android": "https://dc.lft.to/lastmile_qr_scan"}, "lon": -77.02910983333334, "fusion_lon": 0.0, "is_disabled": 0, "lat": 38.8984435, "bike_id": "4f09d36edc7d9bbe068429e3de3079b1", "name": "4f09d36edc7d9bbe068429e3de3079b1", "is_reserved": 0, "fusion_lat": 0.0}, {"type": "electric_scooter", "rental_uris": {"ios": "https://dc.lft.to/lastmile_qr_scan", "android": "https://dc.lft.to/lastmile_qr_scan"}, "lon": -77.04141633333333, "fusion_lon": 0.0, "is_disabled": 0, "lat": 38.89350533333333, "bike_id": "99f77b28d4fd5d291b7195aef6c4c671", "name": "99f77b28d4fd5d291b7195aef6c4c671", "is_reserved": 0, "fusion_lat": 0.0}, {"type": "electric_scooter", "rental_uris": {"ios": "https://dc.lft.to/lastmile_qr_scan", "android": "https://dc.lft.to/lastmile_qr_scan"}, "lon": -77.03274016666667, "fusion_lon": 0.0, "is_disabled": 0, "lat": 38.93247183333333, "bike_id": "de862b1cdae34800f2267426b9a10b15", "name": "de862b1cdae34800f2267426b9a10b15", "is_reserved": 0, "fusion_lat": 0.0}, {"type": "electric_scooter", "rental_uris": {"ios": "https://dc.lft.to/lastmile_qr_scan", "android": "https://dc.lft.to/lastmile_qr_scan"}, "lon": -77.0201065, "fusion_lon": 0.0, "is_disabled": 0, "lat": 38.91117766666667, "bike_id": "b6a0a09db315ddcf854fb077c2ad8707", "name": "b6a0a09db315ddcf854fb077c2ad8707", "is_reserved": 0, "fusion_lat": 0.0}, {"type": "electric_scooter", "rental_uris": {"ios": "https://dc.lft.to/lastmile_qr_scan", "android": "https://dc.lft.to/lastmile_qr_scan"}, "lon": -77.03632333333333, "fusion_lon": 0.0, "is_disabled": 0, "lat": 38.937143, "bike_id": "aa6690d1339ec3f3280002fe99f97adb", "name": "aa6690d1339ec3f3280002fe99f97adb", "is_reserved": 0, "fusion_lat": 0.0}, {"type": "electric_scooter", "rental_uris": {"ios": "https://dc.lft.to/lastmile_qr_scan", "android": "https://dc.lft.to/lastmile_qr_scan"}, "lon": -77.03263716666666, "fusion_lon": 0.0, "is_disabled": 0, "lat": 38.935139666666664, "bike_id": "bd29438c765fe0118842e1ce4acd9045", "name": "bd29438c765fe0118842e1ce4acd9045", "is_reserved": 0, "fusion_lat": 0.0}, {"type": "electric_scooter", "rental_uris": {"ios": "https://dc.lft.to/lastmile_qr_scan", "android": "https://dc.lft.to/lastmile_qr_scan"}, "lon": -77.0374425, "fusion_lon": 0.0, "is_disabled": 0, "lat": 38.9308255, "bike_id": "fd462a69f0e07cec169f88d0f63b2fa7", "name": "fd462a69f0e07cec169f88d0f63b2fa7", "is_reserved": 0, "fusion_lat": 0.0}, {"type": "electric_scooter", "rental_uris": {"ios": "https://dc.lft.to/lastmile_qr_scan", "android": "https://dc.lft.to/lastmile_qr_scan"}, "lon": -76.99364, "fusion_lon": 0.0, "is_disabled": 0, "lat": 38.900367, "bike_id": "d3378fe78f0df21917cb4bbfd95d7acf", "name": "d3378fe78f0df21917cb4bbfd95d7acf", "is_reserved": 0, "fusion_lat": 0.0}, {"type": "electric_scooter", "rental_uris": {"ios": "https://dc.lft.to/lastmile_qr_scan", "android": "https://dc.lft.to/lastmile_qr_scan"}, "lon": -77.02307083333334, "fusion_lon": 0.0, "is_disabled": 0, "lat": 38.917881666666666, "bike_id": "23be7eb6b7cd1f32f0dd46b676ea7a7f", "name": "23be7eb6b7cd1f32f0dd46b676ea7a7f", "is_reserved": 0, "fusion_lat": 0.0}, {"type": "electric_scooter", "rental_uris": {"ios": "https://dc.lft.to/lastmile_qr_scan", "android": "https://dc.lft.to/lastmile_qr_scan"}, "lon": -77.0628975, "fusion_lon": 0.0, "is_disabled": 0, "lat": 38.904938333333334, "bike_id": "8114677f874ecf6ac07b824f17810ae5", "name": "8114677f874ecf6ac07b824f17810ae5", "is_reserved": 0, "fusion_lat": 0.0}, {"type": "electric_scooter", "rental_uris": {"ios": "https://dc.lft.to/lastmile_qr_scan", "android": "https://dc.lft.to/lastmile_qr_scan"}, "lon": -77.0249715, "fusion_lon": 0.0, "is_disabled": 0, "lat": 38.91802033333333, "bike_id": "393a4e16f330f902c321d0d7983a1f96", "name": "393a4e16f330f902c321d0d7983a1f96", "is_reserved": 0, "fusion_lat": 0.0}, {"type": "electric_scooter", "rental_uris": {"ios": "https://dc.lft.to/lastmile_qr_scan", "android": "https://dc.lft.to/lastmile_qr_scan"}, "lon": -77.03267816666667, "fusion_lon": 0.0, "is_disabled": 0, "lat": 38.937745166666666, "bike_id": "fe5caf985588d39390f48deec13eb8e5", "name": "fe5caf985588d39390f48deec13eb8e5", "is_reserved": 0, "fusion_lat": 0.0}, {"type": "electric_scooter", "rental_uris": {"ios": "https://dc.lft.to/lastmile_qr_scan", "android": "https://dc.lft.to/lastmile_qr_scan"}, "lon": -77.04426483333333, "fusion_lon": 0.0, "is_disabled": 0, "lat": 38.92526566666667, "bike_id": "1a920cdb43f29602b86b049419d55200", "name": "1a920cdb43f29602b86b049419d55200", "is_reserved": 0, "fusion_lat": 0.0}, {"type": "electric_scooter", "rental_uris": {"ios": "https://dc.lft.to/lastmile_qr_scan", "android": "https://dc.lft.to/lastmile_qr_scan"}, "lon": -77.0368615, "fusion_lon": 0.0, "is_disabled": 0, "lat": 38.91676483333333, "bike_id": "77724d84ad502c7f48e2f58aabdbbd6d", "name": "77724d84ad502c7f48e2f58aabdbbd6d", "is_reserved": 0, "fusion_lat": 0.0}, {"type": "electric_scooter", "rental_uris": {"ios": "https://dc.lft.to/lastmile_qr_scan", "android": "https://dc.lft.to/lastmile_qr_scan"}, "lon": -77.02281883333333, "fusion_lon": 0.0, "is_disabled": 0, "lat": 38.924129666666666, "bike_id": "5888392097d98393dd74fb08ac05fe82", "name": "5888392097d98393dd74fb08ac05fe82", "is_reserved": 0, "fusion_lat": 0.0}, {"type": "electric_scooter", "rental_uris": {"ios": "https://dc.lft.to/lastmile_qr_scan", "android": "https://dc.lft.to/lastmile_qr_scan"}, "lon": -77.05470533333333, "fusion_lon": 0.0, "is_disabled": 0, "lat": 38.89604033333333, "bike_id": "7cf79e84a3fd1277d9118401853d6c04", "name": "7cf79e84a3fd1277d9118401853d6c04", "is_reserved": 0, "fusion_lat": 0.0}, {"type": "electric_scooter", "rental_uris": {"ios": "https://dc.lft.to/lastmile_qr_scan", "android": "https://dc.lft.to/lastmile_qr_scan"}, "lon": -77.03161716666666, "fusion_lon": 0.0, "is_disabled": 0, "lat": 38.91182583333333, "bike_id": "c6c5368d963ec607b063989df7673c3c", "name": "c6c5368d963ec607b063989df7673c3c", "is_reserved": 0, "fusion_lat": 0.0}, {"type": "electric_scooter", "rental_uris": {"ios": "https://dc.lft.to/lastmile_qr_scan", "android": "https://dc.lft.to/lastmile_qr_scan"}, "lon": -77.02596333333334, "fusion_lon": 0.0, "is_disabled": 0, "lat": 38.899416333333335, "bike_id": "1776d8da83df05dbc42c188181a3cbff", "name": "1776d8da83df05dbc42c188181a3cbff", "is_reserved": 0, "fusion_lat": 0.0}, {"type": "electric_scooter", "rental_uris": {"ios": "https://dc.lft.to/lastmile_qr_scan", "android": "https://dc.lft.to/lastmile_qr_scan"}, "lon": -77.0386355, "fusion_lon": 0.0, "is_disabled": 0, "lat": 38.91173116666667, "bike_id": "ac7ef06379d58be2c946034163ecf0cb", "name": "ac7ef06379d58be2c946034163ecf0cb", "is_reserved": 0, "fusion_lat": 0.0}, {"type": "electric_scooter", "rental_uris": {"ios": "https://dc.lft.to/lastmile_qr_scan", "android": "https://dc.lft.to/lastmile_qr_scan"}, "lon": -77.03643683333334, "fusion_lon": 0.0, "is_disabled": 0, "lat": 38.91683866666666, "bike_id": "d7ae59dd2b60b8b3a2d0ab827e7ef7f8", "name": "d7ae59dd2b60b8b3a2d0ab827e7ef7f8", "is_reserved": 0, "fusion_lat": 0.0}, {"type": "electric_scooter", "rental_uris": {"ios": "https://dc.lft.to/lastmile_qr_scan", "android": "https://dc.lft.to/lastmile_qr_scan"}, "lon": -77.023954, "fusion_lon": 0.0, "is_disabled": 0, "lat": 38.919526166666664, "bike_id": "85dbf69295fd8de725889bebd6232108", "name": "85dbf69295fd8de725889bebd6232108", "is_reserved": 0, "fusion_lat": 0.0}, {"type": "electric_scooter", "rental_uris": {"ios": "https://dc.lft.to/lastmile_qr_scan", "android": "https://dc.lft.to/lastmile_qr_scan"}, "lon": -77.057631, "fusion_lon": 0.0, "is_disabled": 0, "lat": 38.924542, "bike_id": "ce137c66681ad88d4967c03ff29b0cab", "name": "ce137c66681ad88d4967c03ff29b0cab", "is_reserved": 0, "fusion_lat": 0.0}, {"type": "electric_scooter", "rental_uris": {"ios": "https://dc.lft.to/lastmile_qr_scan", "android": "https://dc.lft.to/lastmile_qr_scan"}, "lon": -77.03872083333333, "fusion_lon": 0.0, "is_disabled": 0, "lat": 38.9103895, "bike_id": "55d243bb28a99f6e5c082585339fd87b", "name": "55d243bb28a99f6e5c082585339fd87b", "is_reserved": 0, "fusion_lat": 0.0}, {"type": "electric_scooter", "rental_uris": {"ios": "https://dc.lft.to/lastmile_qr_scan", "android": "https://dc.lft.to/lastmile_qr_scan"}, "lon": -77.05013333333333, "fusion_lon": 0.0, "is_disabled": 0, "lat": 38.90666366666667, "bike_id": "fd9ce5db7fef768fb5ac7ead5b085d1e", "name": "fd9ce5db7fef768fb5ac7ead5b085d1e", "is_reserved": 0, "fusion_lat": 0.0}, {"type": "electric_scooter", "rental_uris": {"ios": "https://dc.lft.to/lastmile_qr_scan", "android": "https://dc.lft.to/lastmile_qr_scan"}, "lon": -77.02612183333333, "fusion_lon": 0.0, "is_disabled": 0, "lat": 38.91409633333333, "bike_id": "28cc891180c642a301be63adac247840", "name": "28cc891180c642a301be63adac247840", "is_reserved": 0, "fusion_lat": 0.0}, {"type": "electric_scooter", "rental_uris": {"ios": "https://dc.lft.to/lastmile_qr_scan", "android": "https://dc.lft.to/lastmile_qr_scan"}, "lon": -77.04174983333333, "fusion_lon": 0.0, "is_disabled": 0, "lat": 38.9133955, "bike_id": "b2161a15d5a132860ff47e255fe6382c", "name": "b2161a15d5a132860ff47e255fe6382c", "is_reserved": 0, "fusion_lat": 0.0}, {"type": "electric_scooter", "rental_uris": {"ios": "https://dc.lft.to/lastmile_qr_scan", "android": "https://dc.lft.to/lastmile_qr_scan"}, "lon": -76.98518066666666, "fusion_lon": 0.0, "is_disabled": 0, "lat": 38.91546133333333, "bike_id": "bfad123d9c8e955d0cffa84561ed80a0", "name": "bfad123d9c8e955d0cffa84561ed80a0", "is_reserved": 0, "fusion_lat": 0.0}, {"type": "electric_scooter", "rental_uris": {"ios": "https://dc.lft.to/lastmile_qr_scan", "android": "https://dc.lft.to/lastmile_qr_scan"}, "lon": -77.03261, "fusion_lon": 0.0, "is_disabled": 0, "lat": 38.929738, "bike_id": "b14593909193595ba3bf6285e64ac8e2", "name": "b14593909193595ba3bf6285e64ac8e2", "is_reserved": 0, "fusion_lat": 0.0}, {"type": "electric_bike", "rental_uris": {"ios": "https://dc.lft.to/lastmile_qr_scan", "android": "https://dc.lft.to/lastmile_qr_scan"}, "lon": -77.360984, "fusion_lon": 0.0, "is_disabled": 0, "lat": 38.9395785, "bike_id": "f1b39e49715eedbc9c3779e11cdaa171", "name": "f1b39e49715eedbc9c3779e11cdaa171", "is_reserved": 0, "fusion_lat": 0.0}, {"type": "electric_scooter", "rental_uris": {"ios": "https://dc.lft.to/lastmile_qr_scan", "android": "https://dc.lft.to/lastmile_qr_scan"}, "lon": -76.93041266666667, "fusion_lon": 0.0, "is_disabled": 0, "lat": 38.895690333333334, "bike_id": "e206d0e26366f4a4851e586b8ed86641", "name": "e206d0e26366f4a4851e586b8ed86641", "is_reserved": 0, "fusion_lat": 0.0}, {"type": "electric_scooter", "rental_uris": {"ios": "https://dc.lft.to/lastmile_qr_scan", "android": "https://dc.lft.to/lastmile_qr_scan"}, "lon": -76.94998566666666, "fusion_lon": 0.0, "is_disabled": 0, "lat": 38.89392183333333, "bike_id": "45277d35473eac1997f314ff2a4130ec", "name": "45277d35473eac1997f314ff2a4130ec", "is_reserved": 0, "fusion_lat": 0.0}, {"type": "electric_scooter", "rental_uris": {"ios": "https://dc.lft.to/lastmile_qr_scan", "android": "https://dc.lft.to/lastmile_qr_scan"}, "lon": -77.0328515, "fusion_lon": 0.0, "is_disabled": 0, "lat": 38.927441, "bike_id": "c16b79f835834ec78930f901a5041aef", "name": "c16b79f835834ec78930f901a5041aef", "is_reserved": 0, "fusion_lat": 0.0}, {"type": "electric_scooter", "rental_uris": {"ios": "https://dc.lft.to/lastmile_qr_scan", "android": "https://dc.lft.to/lastmile_qr_scan"}, "lon": -76.93347983333334, "fusion_lon": 0.0, "is_disabled": 0, "lat": 38.899066, "bike_id": "c8e79ca6237d819ea14ce3eb4bb5f945", "name": "c8e79ca6237d819ea14ce3eb4bb5f945", "is_reserved": 0, "fusion_lat": 0.0}, {"type": "electric_scooter", "rental_uris": {"ios": "https://dc.lft.to/lastmile_qr_scan", "android": "https://dc.lft.to/lastmile_qr_scan"}, "lon": -77.03197283333333, "fusion_lon": 0.0, "is_disabled": 0, "lat": 38.91755916666666, "bike_id": "49b6bbf4563ba9e820b3719674266046", "name": "49b6bbf4563ba9e820b3719674266046", "is_reserved": 0, "fusion_lat": 0.0}, {"type": "electric_scooter", "rental_uris": {"ios": "https://dc.lft.to/lastmile_qr_scan", "android": "https://dc.lft.to/lastmile_qr_scan"}, "lon": -77.037031, "fusion_lon": 0.0, "is_disabled": 0, "lat": 38.926428, "bike_id": "e8b641a7d3bd756a491cb00a1bfc97df", "name": "e8b641a7d3bd756a491cb00a1bfc97df", "is_reserved": 0, "fusion_lat": 0.0}, {"type": "electric_scooter", "rental_uris": {"ios": "https://dc.lft.to/lastmile_qr_scan", "android": "https://dc.lft.to/lastmile_qr_scan"}, "lon": -77.0572065, "fusion_lon": 0.0, "is_disabled": 0, "lat": 38.93368266666667, "bike_id": "af1b9cdef5f7721b1130d06ecf49572e", "name": "af1b9cdef5f7721b1130d06ecf49572e", "is_reserved": 0, "fusion_lat": 0.0}, {"type": "electric_scooter", "rental_uris": {"ios": "https://dc.lft.to/lastmile_qr_scan", "android": "https://dc.lft.to/lastmile_qr_scan"}, "lon": -77.0388495, "fusion_lon": 0.0, "is_disabled": 0, "lat": 38.9096765, "bike_id": "9bcf49c562b2ad50e84749700a7e36a6", "name": "9bcf49c562b2ad50e84749700a7e36a6", "is_reserved": 0, "fusion_lat": 0.0}, {"type": "electric_scooter", "rental_uris": {"ios": "https://dc.lft.to/lastmile_qr_scan", "android": "https://dc.lft.to/lastmile_qr_scan"}, "lon": -77.037701, "fusion_lon": 0.0, "is_disabled": 0, "lat": 38.92972666666667, "bike_id": "18997f819779ce4307c71e4f621c9ca1", "name": "18997f819779ce4307c71e4f621c9ca1", "is_reserved": 0, "fusion_lat": 0.0}, {"type": "electric_bike", "rental_uris": {"ios": "https://dc.lft.to/lastmile_qr_scan", "android": "https://dc.lft.to/lastmile_qr_scan"}, "lon": -76.98999883333333, "fusion_lon": 0.0, "is_disabled": 0, "lat": 38.9548665, "bike_id": "6d7eaa0ecc0e6ed620074064bd7557f8", "name": "6d7eaa0ecc0e6ed620074064bd7557f8", "is_reserved": 0, "fusion_lat": 0.0}, {"type": "electric_bike", "rental_uris": {"ios": "https://dc.lft.to/lastmile_qr_scan", "android": "https://dc.lft.to/lastmile_qr_scan"}, "lon": -76.94603583333334, "fusion_lon": 0.0, "is_disabled": 0, "lat": 38.952852666666665, "bike_id": "5ac568acc430c7d6b3b5bd9b76704cda", "name": "5ac568acc430c7d6b3b5bd9b76704cda", "is_reserved": 0, "fusion_lat": 0.0}, {"type": "electric_scooter", "rental_uris": {"ios": "https://dc.lft.to/lastmile_qr_scan", "android": "https://dc.lft.to/lastmile_qr_scan"}, "lon": -77.02947116666667, "fusion_lon": 0.0, "is_disabled": 0, "lat": 38.904991333333335, "bike_id": "8e37e0fcf454dc5014ccf54305a68836", "name": "8e37e0fcf454dc5014ccf54305a68836", "is_reserved": 0, "fusion_lat": 0.0}, {"type": "electric_bike", "rental_uris": {"ios": "https://dc.lft.to/lastmile_qr_scan", "android": "https://dc.lft.to/lastmile_qr_scan"}, "lon": -77.02624883333333, "fusion_lon": 0.0, "is_disabled": 0, "lat": 38.962211, "bike_id": "17feb9b7c07769b6ac00c236e6f1a608", "name": "17feb9b7c07769b6ac00c236e6f1a608", "is_reserved": 0, "fusion_lat": 0.0}, {"type": "electric_scooter", "rental_uris": {"ios": "https://dc.lft.to/lastmile_qr_scan", "android": "https://dc.lft.to/lastmile_qr_scan"}, "lon": -77.03203016666667, "fusion_lon": 0.0, "is_disabled": 0, "lat": 38.9181055, "bike_id": "c06dafc84fe1fd5208d5c9e482d9cfce", "name": "c06dafc84fe1fd5208d5c9e482d9cfce", "is_reserved": 0, "fusion_lat": 0.0}, {"type": "electric_bike", "rental_uris": {"ios": "https://dc.lft.to/lastmile_qr_scan", "android": "https://dc.lft.to/lastmile_qr_scan"}, "lon": -76.90978966666667, "fusion_lon": 0.0, "is_disabled": 0, "lat": 38.8544015, "bike_id": "a6d35b7ab56c1f5adaafe277438aeeec", "name": "a6d35b7ab56c1f5adaafe277438aeeec", "is_reserved": 0, "fusion_lat": 0.0}, {"type": "electric_scooter", "rental_uris": {"ios": "https://dc.lft.to/lastmile_qr_scan", "android": "https://dc.lft.to/lastmile_qr_scan"}, "lon": -76.99859133333334, "fusion_lon": 0.0, "is_disabled": 0, "lat": 38.9000285, "bike_id": "880d90b1532882d7073f1b19bfecd981", "name": "880d90b1532882d7073f1b19bfecd981", "is_reserved": 0, "fusion_lat": 0.0}, {"type": "electric_scooter", "rental_uris": {"ios": "https://dc.lft.to/lastmile_qr_scan", "android": "https://dc.lft.to/lastmile_qr_scan"}, "lon": -77.05130116666666, "fusion_lon": 0.0, "is_disabled": 0, "lat": 38.92359666666667, "bike_id": "9da835009970ce88ab2f8efb93ec8d47", "name": "9da835009970ce88ab2f8efb93ec8d47", "is_reserved": 0, "fusion_lat": 0.0}, {"type": "electric_scooter", "rental_uris": {"ios": "https://dc.lft.to/lastmile_qr_scan", "android": "https://dc.lft.to/lastmile_qr_scan"}, "lon": -77.03229183333333, "fusion_lon": 0.0, "is_disabled": 0, "lat": 38.928867833333335, "bike_id": "c9d75e0eb6762867798bb494f0e15424", "name": "c9d75e0eb6762867798bb494f0e15424", "is_reserved": 0, "fusion_lat": 0.0}, {"type": "electric_scooter", "rental_uris": {"ios": "https://dc.lft.to/lastmile_qr_scan", "android": "https://dc.lft.to/lastmile_qr_scan"}, "lon": -77.02127016666667, "fusion_lon": 0.0, "is_disabled": 0, "lat": 38.9357535, "bike_id": "c3195172c081eb21a588cb0c5267961c", "name": "c3195172c081eb21a588cb0c5267961c", "is_reserved": 0, "fusion_lat": 0.0}, {"type": "electric_scooter", "rental_uris": {"ios": "https://dc.lft.to/lastmile_qr_scan", "android": "https://dc.lft.to/lastmile_qr_scan"}, "lon": -77.0523505, "fusion_lon": 0.0, "is_disabled": 0, "lat": 38.924656166666665, "bike_id": "578c0a92f5d3279332994afc78fffa26", "name": "578c0a92f5d3279332994afc78fffa26", "is_reserved": 0, "fusion_lat": 0.0}, {"type": "electric_scooter", "rental_uris": {"ios": "https://dc.lft.to/lastmile_qr_scan", "android": "https://dc.lft.to/lastmile_qr_scan"}, "lon": -77.04494716666666, "fusion_lon": 0.0, "is_disabled": 0, "lat": 38.919260666666666, "bike_id": "d9df485bc13837309e5ed49f83baa1b9", "name": "d9df485bc13837309e5ed49f83baa1b9", "is_reserved": 0, "fusion_lat": 0.0}, {"type": "electric_scooter", "rental_uris": {"ios": "https://dc.lft.to/lastmile_qr_scan", "android": "https://dc.lft.to/lastmile_qr_scan"}, "lon": -76.9653285, "fusion_lon": 0.0, "is_disabled": 0, "lat": 38.87625216666667, "bike_id": "9849a3ea3f12249ab7183cab52100c6f", "name": "9849a3ea3f12249ab7183cab52100c6f", "is_reserved": 0, "fusion_lat": 0.0}, {"type": "electric_scooter", "rental_uris": {"ios": "https://dc.lft.to/lastmile_qr_scan", "android": "https://dc.lft.to/lastmile_qr_scan"}, "lon": -77.00918266666666, "fusion_lon": 0.0, "is_disabled": 0, "lat": 38.876333, "bike_id": "16029ccbaac1b63ef2b27af90631b140", "name": "16029ccbaac1b63ef2b27af90631b140", "is_reserved": 0, "fusion_lat": 0.0}, {"type": "electric_scooter", "rental_uris": {"ios": "https://dc.lft.to/lastmile_qr_scan", "android": "https://dc.lft.to/lastmile_qr_scan"}, "lon": -76.99957666666667, "fusion_lon": 0.0, "is_disabled": 0, "lat": 38.9011185, "bike_id": "2b65bd4cfd98f2816eff69814134e626", "name": "2b65bd4cfd98f2816eff69814134e626", "is_reserved": 0, "fusion_lat": 0.0}, {"type": "electric_scooter", "rental_uris": {"ios": "https://dc.lft.to/lastmile_qr_scan", "android": "https://dc.lft.to/lastmile_qr_scan"}, "lon": -77.02626033333334, "fusion_lon": 0.0, "is_disabled": 0, "lat": 38.925362, "bike_id": "f9be84d962d0a4526cc1a827585b2575", "name": "f9be84d962d0a4526cc1a827585b2575", "is_reserved": 0, "fusion_lat": 0.0}, {"type": "electric_bike", "rental_uris": {"ios": "https://dc.lft.to/lastmile_qr_scan", "android": "https://dc.lft.to/lastmile_qr_scan"}, "lon": -76.92492483333334, "fusion_lon": 0.0, "is_disabled": 0, "lat": 38.958751666666664, "bike_id": "a9a90d3af95f9526a83863f080fbaa95", "name": "a9a90d3af95f9526a83863f080fbaa95", "is_reserved": 0, "fusion_lat": 0.0}, {"type": "electric_scooter", "rental_uris": {"ios": "https://dc.lft.to/lastmile_qr_scan", "android": "https://dc.lft.to/lastmile_qr_scan"}, "lon": -77.03292766666667, "fusion_lon": 0.0, "is_disabled": 0, "lat": 38.9340905, "bike_id": "99daf36e822df0c2568841ded92550e6", "name": "99daf36e822df0c2568841ded92550e6", "is_reserved": 0, "fusion_lat": 0.0}, {"type": "electric_scooter", "rental_uris": {"ios": "https://dc.lft.to/lastmile_qr_scan", "android": "https://dc.lft.to/lastmile_qr_scan"}, "lon": -76.9951185, "fusion_lon": 0.0, "is_disabled": 0, "lat": 38.883637, "bike_id": "4bcde6c5cc8621357df296ae37ca3fdc", "name": "4bcde6c5cc8621357df296ae37ca3fdc", "is_reserved": 0, "fusion_lat": 0.0}, {"type": "electric_scooter", "rental_uris": {"ios": "https://dc.lft.to/lastmile_qr_scan", "android": "https://dc.lft.to/lastmile_qr_scan"}, "lon": -76.94154866666666, "fusion_lon": 0.0, "is_disabled": 0, "lat": 38.88363566666666, "bike_id": "55025406f0cb9a12cd174d32a3963fe5", "name": "55025406f0cb9a12cd174d32a3963fe5", "is_reserved": 0, "fusion_lat": 0.0}, {"type": "electric_scooter", "rental_uris": {"ios": "https://dc.lft.to/lastmile_qr_scan", "android": "https://dc.lft.to/lastmile_qr_scan"}, "lon": -76.9652785, "fusion_lon": 0.0, "is_disabled": 0, "lat": 38.876273, "bike_id": "a3f2c709528a5eecc0eb7f2bb1ae5c13", "name": "a3f2c709528a5eecc0eb7f2bb1ae5c13", "is_reserved": 0, "fusion_lat": 0.0}, {"type": "electric_scooter", "rental_uris": {"ios": "https://dc.lft.to/lastmile_qr_scan", "android": "https://dc.lft.to/lastmile_qr_scan"}, "lon": -77.07891083333334, "fusion_lon": 0.0, "is_disabled": 0, "lat": 38.92063866666667, "bike_id": "bb6706e2535304a987630bce42eee84d", "name": "bb6706e2535304a987630bce42eee84d", "is_reserved": 0, "fusion_lat": 0.0}, {"type": "electric_scooter", "rental_uris": {"ios": "https://dc.lft.to/lastmile_qr_scan", "android": "https://dc.lft.to/lastmile_qr_scan"}, "lon": -77.0585865, "fusion_lon": 0.0, "is_disabled": 0, "lat": 38.936059, "bike_id": "bf96bbc26157b77504ebf753146cbd81", "name": "bf96bbc26157b77504ebf753146cbd81", "is_reserved": 0, "fusion_lat": 0.0}, {"type": "electric_scooter", "rental_uris": {"ios": "https://dc.lft.to/lastmile_qr_scan", "android": "https://dc.lft.to/lastmile_qr_scan"}, "lon": -76.99409716666666, "fusion_lon": 0.0, "is_disabled": 0, "lat": 38.877939166666664, "bike_id": "cbb0305c8ee5465c816415c66e6286f7", "name": "cbb0305c8ee5465c816415c66e6286f7", "is_reserved": 0, "fusion_lat": 0.0}, {"type": "electric_bike", "rental_uris": {"ios": "https://dc.lft.to/lastmile_qr_scan", "android": "https://dc.lft.to/lastmile_qr_scan"}, "lon": -77.050571, "fusion_lon": 0.0, "is_disabled": 0, "lat": 39.03887183333333, "bike_id": "98f9ec6071cf391819800e8e09e9a574", "name": "98f9ec6071cf391819800e8e09e9a574", "is_reserved": 0, "fusion_lat": 0.0}, {"type": "electric_scooter", "rental_uris": {"ios": "https://dc.lft.to/lastmile_qr_scan", "android": "https://dc.lft.to/lastmile_qr_scan"}, "lon": -77.0502115, "fusion_lon": 0.0, "is_disabled": 0, "lat": 38.89376733333334, "bike_id": "83506bfcdcb013e34fda3b971b38f419", "name": "83506bfcdcb013e34fda3b971b38f419", "is_reserved": 0, "fusion_lat": 0.0}, {"type": "electric_scooter", "rental_uris": {"ios": "https://dc.lft.to/lastmile_qr_scan", "android": "https://dc.lft.to/lastmile_qr_scan"}, "lon": -77.043399, "fusion_lon": 0.0, "is_disabled": 0, "lat": 38.9061445, "bike_id": "c28ad250c581778da478198fabb5787d", "name": "c28ad250c581778da478198fabb5787d", "is_reserved": 0, "fusion_lat": 0.0}, {"type": "electric_scooter", "rental_uris": {"ios": "https://dc.lft.to/lastmile_qr_scan", "android": "https://dc.lft.to/lastmile_qr_scan"}, "lon": -77.02592516666667, "fusion_lon": 0.0, "is_disabled": 0, "lat": 38.941930666666664, "bike_id": "366f89f49afa63b357791ee1e1ae710f", "name": "366f89f49afa63b357791ee1e1ae710f", "is_reserved": 0, "fusion_lat": 0.0}, {"type": "electric_bike", "rental_uris": {"ios": "https://dc.lft.to/lastmile_qr_scan", "android": "https://dc.lft.to/lastmile_qr_scan"}, "lon": -76.98792583333334, "fusion_lon": 0.0, "is_disabled": 0, "lat": 38.92213366666667, "bike_id": "efd6d00de97e8580ac010343ba01a975", "name": "efd6d00de97e8580ac010343ba01a975", "is_reserved": 0, "fusion_lat": 0.0}, {"type": "electric_scooter", "rental_uris": {"ios": "https://dc.lft.to/lastmile_qr_scan", "android": "https://dc.lft.to/lastmile_qr_scan"}, "lon": -77.0221045, "fusion_lon": 0.0, "is_disabled": 0, "lat": 38.924797, "bike_id": "82f1949114a880037198d882cbfe7db2", "name": "82f1949114a880037198d882cbfe7db2", "is_reserved": 0, "fusion_lat": 0.0}, {"type": "electric_scooter", "rental_uris": {"ios": "https://dc.lft.to/lastmile_qr_scan", "android": "https://dc.lft.to/lastmile_qr_scan"}, "lon": -77.03156266666667, "fusion_lon": 0.0, "is_disabled": 0, "lat": 38.915665833333335, "bike_id": "ce2ec55635009fc73fef0d001ad7a5b9", "name": "ce2ec55635009fc73fef0d001ad7a5b9", "is_reserved": 0, "fusion_lat": 0.0}, {"type": "electric_bike", "rental_uris": {"ios": "https://dc.lft.to/lastmile_qr_scan", "android": "https://dc.lft.to/lastmile_qr_scan"}, "lon": -77.08810533333333, "fusion_lon": 0.0, "is_disabled": 0, "lat": 38.86236066666667, "bike_id": "dbf11873e5c2c4ee5a2b1a1f717b177f", "name": "dbf11873e5c2c4ee5a2b1a1f717b177f", "is_reserved": 0, "fusion_lat": 0.0}, {"type": "electric_scooter", "rental_uris": {"ios": "https://dc.lft.to/lastmile_qr_scan", "android": "https://dc.lft.to/lastmile_qr_scan"}, "lon": -77.0442235, "fusion_lon": 0.0, "is_disabled": 0, "lat": 38.931984666666665, "bike_id": "e4be9127f279468e0e8e71d07957ee19", "name": "e4be9127f279468e0e8e71d07957ee19", "is_reserved": 0, "fusion_lat": 0.0}, {"type": "electric_scooter", "rental_uris": {"ios": "https://dc.lft.to/lastmile_qr_scan", "android": "https://dc.lft.to/lastmile_qr_scan"}, "lon": -77.0359135, "fusion_lon": 0.0, "is_disabled": 0, "lat": 38.93299833333333, "bike_id": "913a3b40d02081fe2ee5e58ec232da9e", "name": "913a3b40d02081fe2ee5e58ec232da9e", "is_reserved": 0, "fusion_lat": 0.0}, {"type": "electric_scooter", "rental_uris": {"ios": "https://dc.lft.to/lastmile_qr_scan", "android": "https://dc.lft.to/lastmile_qr_scan"}, "lon": -76.98926533333334, "fusion_lon": 0.0, "is_disabled": 0, "lat": 38.840711, "bike_id": "d33f4b45fe38ac872c153fe095a66618", "name": "d33f4b45fe38ac872c153fe095a66618", "is_reserved": 0, "fusion_lat": 0.0}, {"type": "electric_scooter", "rental_uris": {"ios": "https://dc.lft.to/lastmile_qr_scan", "android": "https://dc.lft.to/lastmile_qr_scan"}, "lon": -77.02734766666667, "fusion_lon": 0.0, "is_disabled": 0, "lat": 38.897452666666666, "bike_id": "39feeb05c7ef32433a2047d4a9b4ee54", "name": "39feeb05c7ef32433a2047d4a9b4ee54", "is_reserved": 0, "fusion_lat": 0.0}, {"type": "electric_scooter", "rental_uris": {"ios": "https://dc.lft.to/lastmile_qr_scan", "android": "https://dc.lft.to/lastmile_qr_scan"}, "lon": -77.00387016666667, "fusion_lon": 0.0, "is_disabled": 0, "lat": 38.91063833333333, "bike_id": "9b8d73db3cbfb9b76959468cbde96de2", "name": "9b8d73db3cbfb9b76959468cbde96de2", "is_reserved": 0, "fusion_lat": 0.0}, {"type": "electric_scooter", "rental_uris": {"ios": "https://dc.lft.to/lastmile_qr_scan", "android": "https://dc.lft.to/lastmile_qr_scan"}, "lon": -77.0271095, "fusion_lon": 0.0, "is_disabled": 0, "lat": 38.928742166666666, "bike_id": "df494c0555177223600d2ea514cc1e86", "name": "df494c0555177223600d2ea514cc1e86", "is_reserved": 0, "fusion_lat": 0.0}, {"type": "electric_scooter", "rental_uris": {"ios": "https://dc.lft.to/lastmile_qr_scan", "android": "https://dc.lft.to/lastmile_qr_scan"}, "lon": -77.0372555, "fusion_lon": 0.0, "is_disabled": 0, "lat": 38.91708716666667, "bike_id": "aa3f96b01c63cda71088b0d000fb8ac4", "name": "aa3f96b01c63cda71088b0d000fb8ac4", "is_reserved": 0, "fusion_lat": 0.0}, {"type": "electric_scooter", "rental_uris": {"ios": "https://dc.lft.to/lastmile_qr_scan", "android": "https://dc.lft.to/lastmile_qr_scan"}, "lon": -77.0424085, "fusion_lon": 0.0, "is_disabled": 0, "lat": 38.92224083333333, "bike_id": "7b94235a11bf430046938a3c30ca6931", "name": "7b94235a11bf430046938a3c30ca6931", "is_reserved": 0, "fusion_lat": 0.0}, {"type": "electric_scooter", "rental_uris": {"ios": "https://dc.lft.to/lastmile_qr_scan", "android": "https://dc.lft.to/lastmile_qr_scan"}, "lon": -77.0248895, "fusion_lon": 0.0, "is_disabled": 0, "lat": 38.93880266666667, "bike_id": "0bc5299f16570426b1cab5251367079a", "name": "0bc5299f16570426b1cab5251367079a", "is_reserved": 0, "fusion_lat": 0.0}, {"type": "electric_scooter", "rental_uris": {"ios": "https://dc.lft.to/lastmile_qr_scan", "android": "https://dc.lft.to/lastmile_qr_scan"}, "lon": -77.02232116666667, "fusion_lon": 0.0, "is_disabled": 0, "lat": 38.9126965, "bike_id": "fcf02567be63e08ceb796dbd0d25a1ae", "name": "fcf02567be63e08ceb796dbd0d25a1ae", "is_reserved": 0, "fusion_lat": 0.0}, {"type": "electric_scooter", "rental_uris": {"ios": "https://dc.lft.to/lastmile_qr_scan", "android": "https://dc.lft.to/lastmile_qr_scan"}, "lon": -77.02714933333333, "fusion_lon": 0.0, "is_disabled": 0, "lat": 38.90732533333333, "bike_id": "58c9913a7d6212ec4a2bc057bbe7f304", "name": "58c9913a7d6212ec4a2bc057bbe7f304", "is_reserved": 0, "fusion_lat": 0.0}, {"type": "electric_scooter", "rental_uris": {"ios": "https://dc.lft.to/lastmile_qr_scan", "android": "https://dc.lft.to/lastmile_qr_scan"}, "lon": -77.04330066666667, "fusion_lon": 0.0, "is_disabled": 0, "lat": 38.89223, "bike_id": "33fd49a64f4e7fd6e854ba46ba48f44f", "name": "33fd49a64f4e7fd6e854ba46ba48f44f", "is_reserved": 0, "fusion_lat": 0.0}, {"type": "electric_scooter", "rental_uris": {"ios": "https://dc.lft.to/lastmile_qr_scan", "android": "https://dc.lft.to/lastmile_qr_scan"}, "lon": -76.99856166666666, "fusion_lon": 0.0, "is_disabled": 0, "lat": 38.89998083333333, "bike_id": "afca77519163c6cd772da01b812a9b85", "name": "afca77519163c6cd772da01b812a9b85", "is_reserved": 0, "fusion_lat": 0.0}, {"type": "electric_scooter", "rental_uris": {"ios": "https://dc.lft.to/lastmile_qr_scan", "android": "https://dc.lft.to/lastmile_qr_scan"}, "lon": -77.04472533333333, "fusion_lon": 0.0, "is_disabled": 0, "lat": 38.90949116666667, "bike_id": "5fe85c73edbca157722ba378aea68f82", "name": "5fe85c73edbca157722ba378aea68f82", "is_reserved": 0, "fusion_lat": 0.0}, {"type": "electric_scooter", "rental_uris": {"ios": "https://dc.lft.to/lastmile_qr_scan", "android": "https://dc.lft.to/lastmile_qr_scan"}, "lon": -77.02198583333333, "fusion_lon": 0.0, "is_disabled": 0, "lat": 38.9191805, "bike_id": "6a0742a3785d4bee097badd4ecad859a", "name": "6a0742a3785d4bee097badd4ecad859a", "is_reserved": 0, "fusion_lat": 0.0}, {"type": "electric_scooter", "rental_uris": {"ios": "https://dc.lft.to/lastmile_qr_scan", "android": "https://dc.lft.to/lastmile_qr_scan"}, "lon": -77.00563833333334, "fusion_lon": 0.0, "is_disabled": 0, "lat": 38.88077833333333, "bike_id": "9612d67e061171080391c1cb814ce3ab", "name": "9612d67e061171080391c1cb814ce3ab", "is_reserved": 0, "fusion_lat": 0.0}, {"type": "electric_bike", "rental_uris": {"ios": "https://dc.lft.to/lastmile_qr_scan", "android": "https://dc.lft.to/lastmile_qr_scan"}, "lon": -77.034254, "fusion_lon": 0.0, "is_disabled": 0, "lat": 38.9661535, "bike_id": "a6d8f46bd75106b7f66f74339c74e731", "name": "a6d8f46bd75106b7f66f74339c74e731", "is_reserved": 0, "fusion_lat": 0.0}, {"type": "electric_scooter", "rental_uris": {"ios": "https://dc.lft.to/lastmile_qr_scan", "android": "https://dc.lft.to/lastmile_qr_scan"}, "lon": -77.05230933333333, "fusion_lon": 0.0, "is_disabled": 0, "lat": 38.924671833333335, "bike_id": "08d4cf6f293872bd11cc3fa9bfd9dfdb", "name": "08d4cf6f293872bd11cc3fa9bfd9dfdb", "is_reserved": 0, "fusion_lat": 0.0}, {"type": "electric_scooter", "rental_uris": {"ios": "https://dc.lft.to/lastmile_qr_scan", "android": "https://dc.lft.to/lastmile_qr_scan"}, "lon": -77.024608, "fusion_lon": 0.0, "is_disabled": 0, "lat": 38.916948, "bike_id": "2b9c050b4f0046b4341d9405c83dd6e9", "name": "2b9c050b4f0046b4341d9405c83dd6e9", "is_reserved": 0, "fusion_lat": 0.0}, {"type": "electric_scooter", "rental_uris": {"ios": "https://dc.lft.to/lastmile_qr_scan", "android": "https://dc.lft.to/lastmile_qr_scan"}, "lon": -77.00610166666667, "fusion_lon": 0.0, "is_disabled": 0, "lat": 38.8717785, "bike_id": "1e626157a3e445b7382674cbaa91aece", "name": "1e626157a3e445b7382674cbaa91aece", "is_reserved": 0, "fusion_lat": 0.0}, {"type": "electric_scooter", "rental_uris": {"ios": "https://dc.lft.to/lastmile_qr_scan", "android": "https://dc.lft.to/lastmile_qr_scan"}, "lon": -77.03245716666666, "fusion_lon": 0.0, "is_disabled": 0, "lat": 38.917118, "bike_id": "fdebee1ee7343a4ded48a0cd7d076555", "name": "fdebee1ee7343a4ded48a0cd7d076555", "is_reserved": 0, "fusion_lat": 0.0}, {"type": "electric_scooter", "rental_uris": {"ios": "https://dc.lft.to/lastmile_qr_scan", "android": "https://dc.lft.to/lastmile_qr_scan"}, "lon": -76.995186, "fusion_lon": 0.0, "is_disabled": 0, "lat": 38.86255466666667, "bike_id": "815ebeb4d1bb7b5a04f77a643aa5d858", "name": "815ebeb4d1bb7b5a04f77a643aa5d858", "is_reserved": 0, "fusion_lat": 0.0}, {"type": "electric_scooter", "rental_uris": {"ios": "https://dc.lft.to/lastmile_qr_scan", "android": "https://dc.lft.to/lastmile_qr_scan"}, "lon": -77.0281735, "fusion_lon": 0.0, "is_disabled": 0, "lat": 38.896864, "bike_id": "83952c20f133d4f444b3dab238d5aae6", "name": "83952c20f133d4f444b3dab238d5aae6", "is_reserved": 0, "fusion_lat": 0.0}, {"type": "electric_scooter", "rental_uris": {"ios": "https://dc.lft.to/lastmile_qr_scan", "android": "https://dc.lft.to/lastmile_qr_scan"}, "lon": -77.040132, "fusion_lon": 0.0, "is_disabled": 0, "lat": 38.90359683333333, "bike_id": "6f6199deaea1d69bbaa78496b1721478", "name": "6f6199deaea1d69bbaa78496b1721478", "is_reserved": 0, "fusion_lat": 0.0}, {"type": "electric_scooter", "rental_uris": {"ios": "https://dc.lft.to/lastmile_qr_scan", "android": "https://dc.lft.to/lastmile_qr_scan"}, "lon": -77.02836816666667, "fusion_lon": 0.0, "is_disabled": 0, "lat": 38.89228116666666, "bike_id": "9c3103917673ebdca9f1524c7bf38089", "name": "9c3103917673ebdca9f1524c7bf38089", "is_reserved": 0, "fusion_lat": 0.0}, {"type": "electric_scooter", "rental_uris": {"ios": "https://dc.lft.to/lastmile_qr_scan", "android": "https://dc.lft.to/lastmile_qr_scan"}, "lon": -77.04137333333334, "fusion_lon": 0.0, "is_disabled": 0, "lat": 38.925306666666664, "bike_id": "7949d223b73059e04beaa1a6152d4697", "name": "7949d223b73059e04beaa1a6152d4697", "is_reserved": 0, "fusion_lat": 0.0}, {"type": "electric_bike", "rental_uris": {"ios": "https://dc.lft.to/lastmile_qr_scan", "android": "https://dc.lft.to/lastmile_qr_scan"}, "lon": -77.12486583333333, "fusion_lon": 0.0, "is_disabled": 0, "lat": 38.853948333333335, "bike_id": "5a50d968e73e9d6e526741d3c8a5aa03", "name": "5a50d968e73e9d6e526741d3c8a5aa03", "is_reserved": 0, "fusion_lat": 0.0}, {"type": "electric_bike", "rental_uris": {"ios": "https://dc.lft.to/lastmile_qr_scan", "android": "https://dc.lft.to/lastmile_qr_scan"}, "lon": -76.94568816666667, "fusion_lon": 0.0, "is_disabled": 0, "lat": 38.84132616666667, "bike_id": "f13abc3593cd5541650b15738eb2d094", "name": "f13abc3593cd5541650b15738eb2d094", "is_reserved": 0, "fusion_lat": 0.0}, {"type": "electric_scooter", "rental_uris": {"ios": "https://dc.lft.to/lastmile_qr_scan", "android": "https://dc.lft.to/lastmile_qr_scan"}, "lon": -76.995211, "fusion_lon": 0.0, "is_disabled": 0, "lat": 38.8836955, "bike_id": "f215590b0a2fef28ef188b90f62fda50", "name": "f215590b0a2fef28ef188b90f62fda50", "is_reserved": 0, "fusion_lat": 0.0}, {"type": "electric_scooter", "rental_uris": {"ios": "https://dc.lft.to/lastmile_qr_scan", "android": "https://dc.lft.to/lastmile_qr_scan"}, "lon": -77.05251216666667, "fusion_lon": 0.0, "is_disabled": 0, "lat": 38.899879166666665, "bike_id": "66f1e25a8ebb9b92a21676ccaca04012", "name": "66f1e25a8ebb9b92a21676ccaca04012", "is_reserved": 0, "fusion_lat": 0.0}, {"type": "electric_scooter", "rental_uris": {"ios": "https://dc.lft.to/lastmile_qr_scan", "android": "https://dc.lft.to/lastmile_qr_scan"}, "lon": -76.981775, "fusion_lon": 0.0, "is_disabled": 0, "lat": 38.895818166666665, "bike_id": "1ff816b79a84e84edc0bbb01a7545761", "name": "1ff816b79a84e84edc0bbb01a7545761", "is_reserved": 0, "fusion_lat": 0.0}, {"type": "electric_scooter", "rental_uris": {"ios": "https://dc.lft.to/lastmile_qr_scan", "android": "https://dc.lft.to/lastmile_qr_scan"}, "lon": -77.02311533333334, "fusion_lon": 0.0, "is_disabled": 0, "lat": 38.899826166666664, "bike_id": "3758f1a80494f4b51fb6198d486be329", "name": "3758f1a80494f4b51fb6198d486be329", "is_reserved": 0, "fusion_lat": 0.0}, {"type": "electric_scooter", "rental_uris": {"ios": "https://dc.lft.to/lastmile_qr_scan", "android": "https://dc.lft.to/lastmile_qr_scan"}, "lon": -77.00207483333334, "fusion_lon": 0.0, "is_disabled": 0, "lat": 38.90077516666667, "bike_id": "c4148a5ec00a88caec562a6346b72174", "name": "c4148a5ec00a88caec562a6346b72174", "is_reserved": 0, "fusion_lat": 0.0}, {"type": "electric_scooter", "rental_uris": {"ios": "https://dc.lft.to/lastmile_qr_scan", "android": "https://dc.lft.to/lastmile_qr_scan"}, "lon": -77.0462265, "fusion_lon": 0.0, "is_disabled": 0, "lat": 38.91543466666667, "bike_id": "c2f98f358d352d5ec4260ce8af500ca9", "name": "c2f98f358d352d5ec4260ce8af500ca9", "is_reserved": 0, "fusion_lat": 0.0}, {"type": "electric_scooter", "rental_uris": {"ios": "https://dc.lft.to/lastmile_qr_scan", "android": "https://dc.lft.to/lastmile_qr_scan"}, "lon": -77.0021035, "fusion_lon": 0.0, "is_disabled": 0, "lat": 38.90495133333334, "bike_id": "508cebebff699c35d47a4c00f4789863", "name": "508cebebff699c35d47a4c00f4789863", "is_reserved": 0, "fusion_lat": 0.0}, {"type": "electric_bike", "rental_uris": {"ios": "https://dc.lft.to/lastmile_qr_scan", "android": "https://dc.lft.to/lastmile_qr_scan"}, "lon": -76.93231166666666, "fusion_lon": 0.0, "is_disabled": 0, "lat": 38.865929, "bike_id": "96159587d49ca73bb411677d6d98b7b1", "name": "96159587d49ca73bb411677d6d98b7b1", "is_reserved": 0, "fusion_lat": 0.0}, {"type": "electric_scooter", "rental_uris": {"ios": "https://dc.lft.to/lastmile_qr_scan", "android": "https://dc.lft.to/lastmile_qr_scan"}, "lon": -77.04010966666667, "fusion_lon": 0.0, "is_disabled": 0, "lat": 38.90995183333333, "bike_id": "f8e9edec42245a817ece38766ddac1b9", "name": "f8e9edec42245a817ece38766ddac1b9", "is_reserved": 0, "fusion_lat": 0.0}, {"type": "electric_scooter", "rental_uris": {"ios": "https://dc.lft.to/lastmile_qr_scan", "android": "https://dc.lft.to/lastmile_qr_scan"}, "lon": -77.04035816666666, "fusion_lon": 0.0, "is_disabled": 0, "lat": 38.90361583333333, "bike_id": "53251d22dc377bedc31377814c8d932f", "name": "53251d22dc377bedc31377814c8d932f", "is_reserved": 0, "fusion_lat": 0.0}, {"type": "electric_scooter", "rental_uris": {"ios": "https://dc.lft.to/lastmile_qr_scan", "android": "https://dc.lft.to/lastmile_qr_scan"}, "lon": -77.04383216666666, "fusion_lon": 0.0, "is_disabled": 0, "lat": 38.93330533333334, "bike_id": "01c068d63b512b1a590dcc627739b216", "name": "01c068d63b512b1a590dcc627739b216", "is_reserved": 0, "fusion_lat": 0.0}, {"type": "electric_bike", "rental_uris": {"ios": "https://dc.lft.to/lastmile_qr_scan", "android": "https://dc.lft.to/lastmile_qr_scan"}, "lon": -76.9810105, "fusion_lon": 0.0, "is_disabled": 0, "lat": 38.953538333333334, "bike_id": "1ba1044934628d42f3105c59ed21fcc0", "name": "1ba1044934628d42f3105c59ed21fcc0", "is_reserved": 0, "fusion_lat": 0.0}, {"type": "electric_scooter", "rental_uris": {"ios": "https://dc.lft.to/lastmile_qr_scan", "android": "https://dc.lft.to/lastmile_qr_scan"}, "lon": -77.04350333333333, "fusion_lon": 0.0, "is_disabled": 0, "lat": 38.9042025, "bike_id": "a095becb578885c41eeabec65de4b909", "name": "a095becb578885c41eeabec65de4b909", "is_reserved": 0, "fusion_lat": 0.0}, {"type": "electric_scooter", "rental_uris": {"ios": "https://dc.lft.to/lastmile_qr_scan", "android": "https://dc.lft.to/lastmile_qr_scan"}, "lon": -77.03186266666667, "fusion_lon": 0.0, "is_disabled": 0, "lat": 38.909775833333335, "bike_id": "0a1a7b54e2d8a4aebf3b08ca6e3c02ff", "name": "0a1a7b54e2d8a4aebf3b08ca6e3c02ff", "is_reserved": 0, "fusion_lat": 0.0}, {"type": "electric_scooter", "rental_uris": {"ios": "https://dc.lft.to/lastmile_qr_scan", "android": "https://dc.lft.to/lastmile_qr_scan"}, "lon": -77.02000916666667, "fusion_lon": 0.0, "is_disabled": 0, "lat": 38.876719, "bike_id": "0ea37cf3d3f27de6f676c96dfcca6e52", "name": "0ea37cf3d3f27de6f676c96dfcca6e52", "is_reserved": 0, "fusion_lat": 0.0}, {"type": "electric_scooter", "rental_uris": {"ios": "https://dc.lft.to/lastmile_qr_scan", "android": "https://dc.lft.to/lastmile_qr_scan"}, "lon": -77.0402355, "fusion_lon": 0.0, "is_disabled": 0, "lat": 38.924468, "bike_id": "fdd58728530c67a22aa0998ff81e8731", "name": "fdd58728530c67a22aa0998ff81e8731", "is_reserved": 0, "fusion_lat": 0.0}, {"type": "electric_scooter", "rental_uris": {"ios": "https://dc.lft.to/lastmile_qr_scan", "android": "https://dc.lft.to/lastmile_qr_scan"}, "lon": -77.03189366666666, "fusion_lon": 0.0, "is_disabled": 0, "lat": 38.919155, "bike_id": "ba33b8d054b0ca1d3fc4c08a373398d2", "name": "ba33b8d054b0ca1d3fc4c08a373398d2", "is_reserved": 0, "fusion_lat": 0.0}, {"type": "electric_scooter", "rental_uris": {"ios": "https://dc.lft.to/lastmile_qr_scan", "android": "https://dc.lft.to/lastmile_qr_scan"}, "lon": -76.99030133333333, "fusion_lon": 0.0, "is_disabled": 0, "lat": 38.865196166666664, "bike_id": "7b5206d15f928021555318eef2be5ace", "name": "7b5206d15f928021555318eef2be5ace", "is_reserved": 0, "fusion_lat": 0.0}, {"type": "electric_scooter", "rental_uris": {"ios": "https://dc.lft.to/lastmile_qr_scan", "android": "https://dc.lft.to/lastmile_qr_scan"}, "lon": -77.03181333333333, "fusion_lon": 0.0, "is_disabled": 0, "lat": 38.913962833333336, "bike_id": "0db4c7a56eff4732b2b14521268d7ddd", "name": "0db4c7a56eff4732b2b14521268d7ddd", "is_reserved": 0, "fusion_lat": 0.0}, {"type": "electric_scooter", "rental_uris": {"ios": "https://dc.lft.to/lastmile_qr_scan", "android": "https://dc.lft.to/lastmile_qr_scan"}, "lon": -77.03843433333333, "fusion_lon": 0.0, "is_disabled": 0, "lat": 38.91595933333333, "bike_id": "d804e339aae458c9b810e27906da1d2e", "name": "d804e339aae458c9b810e27906da1d2e", "is_reserved": 0, "fusion_lat": 0.0}, {"type": "electric_bike", "rental_uris": {"ios": "https://dc.lft.to/lastmile_qr_scan", "android": "https://dc.lft.to/lastmile_qr_scan"}, "lon": -77.09480766666667, "fusion_lon": 0.0, "is_disabled": 0, "lat": 38.807528166666664, "bike_id": "1607e56da88f28deac9cf03a69be7c6a", "name": "1607e56da88f28deac9cf03a69be7c6a", "is_reserved": 0, "fusion_lat": 0.0}, {"type": "electric_bike", "rental_uris": {"ios": "https://dc.lft.to/lastmile_qr_scan", "android": "https://dc.lft.to/lastmile_qr_scan"}, "lon": -77.1294765, "fusion_lon": 0.0, "is_disabled": 0, "lat": 38.852212, "bike_id": "6abeb50a6659c07455e4e4e823b61185", "name": "6abeb50a6659c07455e4e4e823b61185", "is_reserved": 0, "fusion_lat": 0.0}, {"type": "electric_scooter", "rental_uris": {"ios": "https://dc.lft.to/lastmile_qr_scan", "android": "https://dc.lft.to/lastmile_qr_scan"}, "lon": -77.0262575, "fusion_lon": 0.0, "is_disabled": 0, "lat": 38.892143, "bike_id": "19c349a087b241febbbf50d5f77d62c9", "name": "19c349a087b241febbbf50d5f77d62c9", "is_reserved": 0, "fusion_lat": 0.0}, {"type": "electric_scooter", "rental_uris": {"ios": "https://dc.lft.to/lastmile_qr_scan", "android": "https://dc.lft.to/lastmile_qr_scan"}, "lon": -77.0417885, "fusion_lon": 0.0, "is_disabled": 0, "lat": 38.9172985, "bike_id": "fdd36130047de41f4f4ad9f6f870ce2c", "name": "fdd36130047de41f4f4ad9f6f870ce2c", "is_reserved": 0, "fusion_lat": 0.0}, {"type": "electric_scooter", "rental_uris": {"ios": "https://dc.lft.to/lastmile_qr_scan", "android": "https://dc.lft.to/lastmile_qr_scan"}, "lon": -77.0030955, "fusion_lon": 0.0, "is_disabled": 0, "lat": 38.9247925, "bike_id": "8b0d501f240719d181f8156b1e53f7ce", "name": "8b0d501f240719d181f8156b1e53f7ce", "is_reserved": 0, "fusion_lat": 0.0}, {"type": "electric_scooter", "rental_uris": {"ios": "https://dc.lft.to/lastmile_qr_scan", "android": "https://dc.lft.to/lastmile_qr_scan"}, "lon": -77.02652933333333, "fusion_lon": 0.0, "is_disabled": 0, "lat": 38.938596833333335, "bike_id": "33950acd2a7ce55ff16c96db8399ec6a", "name": "33950acd2a7ce55ff16c96db8399ec6a", "is_reserved": 0, "fusion_lat": 0.0}, {"type": "electric_scooter", "rental_uris": {"ios": "https://dc.lft.to/lastmile_qr_scan", "android": "https://dc.lft.to/lastmile_qr_scan"}, "lon": -77.00374966666666, "fusion_lon": 0.0, "is_disabled": 0, "lat": 38.884384833333336, "bike_id": "bb371af24487f44fd522e2fa5935af9e", "name": "bb371af24487f44fd522e2fa5935af9e", "is_reserved": 0, "fusion_lat": 0.0}, {"type": "electric_scooter", "rental_uris": {"ios": "https://dc.lft.to/lastmile_qr_scan", "android": "https://dc.lft.to/lastmile_qr_scan"}, "lon": -77.03596, "fusion_lon": 0.0, "is_disabled": 0, "lat": 38.937347333333335, "bike_id": "9350eafe4f291a1ce878e7a671b7fd21", "name": "9350eafe4f291a1ce878e7a671b7fd21", "is_reserved": 0, "fusion_lat": 0.0}, {"type": "electric_scooter", "rental_uris": {"ios": "https://dc.lft.to/lastmile_qr_scan", "android": "https://dc.lft.to/lastmile_qr_scan"}, "lon": -76.986147, "fusion_lon": 0.0, "is_disabled": 0, "lat": 38.880028833333334, "bike_id": "c1da753a2845861ea5adae57796bfd3d", "name": "c1da753a2845861ea5adae57796bfd3d", "is_reserved": 0, "fusion_lat": 0.0}, {"type": "electric_scooter", "rental_uris": {"ios": "https://dc.lft.to/lastmile_qr_scan", "android": "https://dc.lft.to/lastmile_qr_scan"}, "lon": -77.064488, "fusion_lon": 0.0, "is_disabled": 0, "lat": 38.905187, "bike_id": "b8d1a02ae99da6324ba0a74468f926a5", "name": "b8d1a02ae99da6324ba0a74468f926a5", "is_reserved": 0, "fusion_lat": 0.0}, {"type": "electric_scooter", "rental_uris": {"ios": "https://dc.lft.to/lastmile_qr_scan", "android": "https://dc.lft.to/lastmile_qr_scan"}, "lon": -77.02189433333334, "fusion_lon": 0.0, "is_disabled": 0, "lat": 38.898639833333334, "bike_id": "991d0e4b2617fe19ac995aa93e307436", "name": "991d0e4b2617fe19ac995aa93e307436", "is_reserved": 0, "fusion_lat": 0.0}, {"type": "electric_scooter", "rental_uris": {"ios": "https://dc.lft.to/lastmile_qr_scan", "android": "https://dc.lft.to/lastmile_qr_scan"}, "lon": -76.92579433333333, "fusion_lon": 0.0, "is_disabled": 0, "lat": 38.89772333333333, "bike_id": "217a397cf25ccb4c2288f6a1c666971c", "name": "217a397cf25ccb4c2288f6a1c666971c", "is_reserved": 0, "fusion_lat": 0.0}, {"type": "electric_scooter", "rental_uris": {"ios": "https://dc.lft.to/lastmile_qr_scan", "android": "https://dc.lft.to/lastmile_qr_scan"}, "lon": -77.02102066666667, "fusion_lon": 0.0, "is_disabled": 0, "lat": 38.91077633333333, "bike_id": "8cb64f3f3a69f0b545428865f907da58", "name": "8cb64f3f3a69f0b545428865f907da58", "is_reserved": 0, "fusion_lat": 0.0}, {"type": "electric_scooter", "rental_uris": {"ios": "https://dc.lft.to/lastmile_qr_scan", "android": "https://dc.lft.to/lastmile_qr_scan"}, "lon": -77.0235575, "fusion_lon": 0.0, "is_disabled": 0, "lat": 38.9305265, "bike_id": "28a5d7cfeabc53b41486974be2cb8c59", "name": "28a5d7cfeabc53b41486974be2cb8c59", "is_reserved": 0, "fusion_lat": 0.0}, {"type": "electric_scooter", "rental_uris": {"ios": "https://dc.lft.to/lastmile_qr_scan", "android": "https://dc.lft.to/lastmile_qr_scan"}, "lon": -77.03226233333334, "fusion_lon": 0.0, "is_disabled": 0, "lat": 38.918329666666665, "bike_id": "d4212cc3b040a8606a7b209c684b0248", "name": "d4212cc3b040a8606a7b209c684b0248", "is_reserved": 0, "fusion_lat": 0.0}, {"type": "electric_scooter", "rental_uris": {"ios": "https://dc.lft.to/lastmile_qr_scan", "android": "https://dc.lft.to/lastmile_qr_scan"}, "lon": -76.97736483333334, "fusion_lon": 0.0, "is_disabled": 0, "lat": 38.8951835, "bike_id": "d1170a563a1a1fd6adf17f6541da20f8", "name": "d1170a563a1a1fd6adf17f6541da20f8", "is_reserved": 0, "fusion_lat": 0.0}, {"type": "electric_scooter", "rental_uris": {"ios": "https://dc.lft.to/lastmile_qr_scan", "android": "https://dc.lft.to/lastmile_qr_scan"}, "lon": -77.03674166666667, "fusion_lon": 0.0, "is_disabled": 0, "lat": 38.902804, "bike_id": "d17a467f1b18c8932ed064724c4802bd", "name": "d17a467f1b18c8932ed064724c4802bd", "is_reserved": 0, "fusion_lat": 0.0}, {"type": "electric_scooter", "rental_uris": {"ios": "https://dc.lft.to/lastmile_qr_scan", "android": "https://dc.lft.to/lastmile_qr_scan"}, "lon": -77.0397385, "fusion_lon": 0.0, "is_disabled": 0, "lat": 38.89869366666667, "bike_id": "3a5003a42fabda8ebe4f7641a6091ad5", "name": "3a5003a42fabda8ebe4f7641a6091ad5", "is_reserved": 0, "fusion_lat": 0.0}, {"type": "electric_bike", "rental_uris": {"ios": "https://dc.lft.to/lastmile_qr_scan", "android": "https://dc.lft.to/lastmile_qr_scan"}, "lon": -77.04923733333334, "fusion_lon": 0.0, "is_disabled": 0, "lat": 38.813455, "bike_id": "9adf235c1dfe7749fae15cd39fccc4e7", "name": "9adf235c1dfe7749fae15cd39fccc4e7", "is_reserved": 0, "fusion_lat": 0.0}, {"type": "electric_bike", "rental_uris": {"ios": "https://dc.lft.to/lastmile_qr_scan", "android": "https://dc.lft.to/lastmile_qr_scan"}, "lon": -76.98357383333334, "fusion_lon": 0.0, "is_disabled": 0, "lat": 38.894380166666664, "bike_id": "ad2c34ae78ff5796f59fb112eccc8877", "name": "ad2c34ae78ff5796f59fb112eccc8877", "is_reserved": 0, "fusion_lat": 0.0}, {"type": "electric_bike", "rental_uris": {"ios": "https://dc.lft.to/lastmile_qr_scan", "android": "https://dc.lft.to/lastmile_qr_scan"}, "lon": -77.0351545, "fusion_lon": 0.0, "is_disabled": 0, "lat": 38.96205333333333, "bike_id": "01fd522f4278f6165faa9cd1000f0f12", "name": "01fd522f4278f6165faa9cd1000f0f12", "is_reserved": 0, "fusion_lat": 0.0}, {"type": "electric_scooter", "rental_uris": {"ios": "https://dc.lft.to/lastmile_qr_scan", "android": "https://dc.lft.to/lastmile_qr_scan"}, "lon": -77.00214316666667, "fusion_lon": 0.0, "is_disabled": 0, "lat": 38.90428716666667, "bike_id": "5be22b33d824ade95135809f270c10c8", "name": "5be22b33d824ade95135809f270c10c8", "is_reserved": 0, "fusion_lat": 0.0}, {"type": "electric_scooter", "rental_uris": {"ios": "https://dc.lft.to/lastmile_qr_scan", "android": "https://dc.lft.to/lastmile_qr_scan"}, "lon": -77.03281883333334, "fusion_lon": 0.0, "is_disabled": 0, "lat": 38.932521333333334, "bike_id": "f84ce589129c341de85c5659546a581b", "name": "f84ce589129c341de85c5659546a581b", "is_reserved": 0, "fusion_lat": 0.0}, {"type": "electric_scooter", "rental_uris": {"ios": "https://dc.lft.to/lastmile_qr_scan", "android": "https://dc.lft.to/lastmile_qr_scan"}, "lon": -77.0240015, "fusion_lon": 0.0, "is_disabled": 0, "lat": 38.9174025, "bike_id": "071fc4e704196f938ebc84f64dd567d2", "name": "071fc4e704196f938ebc84f64dd567d2", "is_reserved": 0, "fusion_lat": 0.0}, {"type": "electric_scooter", "rental_uris": {"ios": "https://dc.lft.to/lastmile_qr_scan", "android": "https://dc.lft.to/lastmile_qr_scan"}, "lon": -77.04056783333333, "fusion_lon": 0.0, "is_disabled": 0, "lat": 38.898843, "bike_id": "b14698c0de2ca21f5220cf489dbc266a", "name": "b14698c0de2ca21f5220cf489dbc266a", "is_reserved": 0, "fusion_lat": 0.0}, {"type": "electric_scooter", "rental_uris": {"ios": "https://dc.lft.to/lastmile_qr_scan", "android": "https://dc.lft.to/lastmile_qr_scan"}, "lon": -77.00669683333334, "fusion_lon": 0.0, "is_disabled": 0, "lat": 38.89991216666667, "bike_id": "1a42ab4a8f15a82c4824233b089eddfc", "name": "1a42ab4a8f15a82c4824233b089eddfc", "is_reserved": 0, "fusion_lat": 0.0}, {"type": "electric_scooter", "rental_uris": {"ios": "https://dc.lft.to/lastmile_qr_scan", "android": "https://dc.lft.to/lastmile_qr_scan"}, "lon": -77.082874, "fusion_lon": 0.0, "is_disabled": 0, "lat": 38.960913166666664, "bike_id": "a6f3f02358627b5d1acbed02adc5af6c", "name": "a6f3f02358627b5d1acbed02adc5af6c", "is_reserved": 0, "fusion_lat": 0.0}, {"type": "electric_scooter", "rental_uris": {"ios": "https://dc.lft.to/lastmile_qr_scan", "android": "https://dc.lft.to/lastmile_qr_scan"}, "lon": -77.03314183333333, "fusion_lon": 0.0, "is_disabled": 0, "lat": 38.903149666666664, "bike_id": "45fdd4ecb0025f9af08aa159df64a3a2", "name": "45fdd4ecb0025f9af08aa159df64a3a2", "is_reserved": 0, "fusion_lat": 0.0}, {"type": "electric_scooter", "rental_uris": {"ios": "https://dc.lft.to/lastmile_qr_scan", "android": "https://dc.lft.to/lastmile_qr_scan"}, "lon": -76.99854633333334, "fusion_lon": 0.0, "is_disabled": 0, "lat": 38.90010866666667, "bike_id": "2c55dc3d51139ef362e44510e84da76b", "name": "2c55dc3d51139ef362e44510e84da76b", "is_reserved": 0, "fusion_lat": 0.0}, {"type": "electric_bike", "rental_uris": {"ios": "https://dc.lft.to/lastmile_qr_scan", "android": "https://dc.lft.to/lastmile_qr_scan"}, "lon": -77.03223383333334, "fusion_lon": 0.0, "is_disabled": 0, "lat": 38.91549116666667, "bike_id": "1a6efeb2f37b54823f1a1519c9f2ec33", "name": "1a6efeb2f37b54823f1a1519c9f2ec33", "is_reserved": 0, "fusion_lat": 0.0}, {"type": "electric_scooter", "rental_uris": {"ios": "https://dc.lft.to/lastmile_qr_scan", "android": "https://dc.lft.to/lastmile_qr_scan"}, "lon": -77.02141266666666, "fusion_lon": 0.0, "is_disabled": 0, "lat": 38.92590883333333, "bike_id": "f39f1b590c09c77a3217e1e82a733ba3", "name": "f39f1b590c09c77a3217e1e82a733ba3", "is_reserved": 0, "fusion_lat": 0.0}, {"type": "electric_scooter", "rental_uris": {"ios": "https://dc.lft.to/lastmile_qr_scan", "android": "https://dc.lft.to/lastmile_qr_scan"}, "lon": -77.03258383333333, "fusion_lon": 0.0, "is_disabled": 0, "lat": 38.927762, "bike_id": "9afbfbc5db153929969d116931b07c6a", "name": "9afbfbc5db153929969d116931b07c6a", "is_reserved": 0, "fusion_lat": 0.0}, {"type": "electric_scooter", "rental_uris": {"ios": "https://dc.lft.to/lastmile_qr_scan", "android": "https://dc.lft.to/lastmile_qr_scan"}, "lon": -77.04849083333333, "fusion_lon": 0.0, "is_disabled": 0, "lat": 38.90230283333333, "bike_id": "da558977d0d3aec0968bc6f21ea9fdcf", "name": "da558977d0d3aec0968bc6f21ea9fdcf", "is_reserved": 0, "fusion_lat": 0.0}, {"type": "electric_scooter", "rental_uris": {"ios": "https://dc.lft.to/lastmile_qr_scan", "android": "https://dc.lft.to/lastmile_qr_scan"}, "lon": -77.04126933333333, "fusion_lon": 0.0, "is_disabled": 0, "lat": 38.933974166666665, "bike_id": "ff11652ebb2639667adf5d8002cb8163", "name": "ff11652ebb2639667adf5d8002cb8163", "is_reserved": 0, "fusion_lat": 0.0}, {"type": "electric_scooter", "rental_uris": {"ios": "https://dc.lft.to/lastmile_qr_scan", "android": "https://dc.lft.to/lastmile_qr_scan"}, "lon": -77.0727345, "fusion_lon": 0.0, "is_disabled": 0, "lat": 38.93487616666667, "bike_id": "b80246315937fe1699ca718683657d30", "name": "b80246315937fe1699ca718683657d30", "is_reserved": 0, "fusion_lat": 0.0}, {"type": "electric_scooter", "rental_uris": {"ios": "https://dc.lft.to/lastmile_qr_scan", "android": "https://dc.lft.to/lastmile_qr_scan"}, "lon": -77.03834216666667, "fusion_lon": 0.0, "is_disabled": 0, "lat": 38.909671833333334, "bike_id": "a51d97d2561fd863337d032af71dd075", "name": "a51d97d2561fd863337d032af71dd075", "is_reserved": 0, "fusion_lat": 0.0}, {"type": "electric_bike", "rental_uris": {"ios": "https://dc.lft.to/lastmile_qr_scan", "android": "https://dc.lft.to/lastmile_qr_scan"}, "lon": -77.04494833333334, "fusion_lon": 0.0, "is_disabled": 0, "lat": 38.842911, "bike_id": "a8750bee51f6f3bff1b36c401779a76b", "name": "a8750bee51f6f3bff1b36c401779a76b", "is_reserved": 0, "fusion_lat": 0.0}, {"type": "electric_scooter", "rental_uris": {"ios": "https://dc.lft.to/lastmile_qr_scan", "android": "https://dc.lft.to/lastmile_qr_scan"}, "lon": -77.03978116666667, "fusion_lon": 0.0, "is_disabled": 0, "lat": 38.898682, "bike_id": "75baf04eef1fb0dc2c534e2b522e43aa", "name": "75baf04eef1fb0dc2c534e2b522e43aa", "is_reserved": 0, "fusion_lat": 0.0}, {"type": "electric_scooter", "rental_uris": {"ios": "https://dc.lft.to/lastmile_qr_scan", "android": "https://dc.lft.to/lastmile_qr_scan"}, "lon": -77.0318435, "fusion_lon": 0.0, "is_disabled": 0, "lat": 38.91324816666667, "bike_id": "f2941246316ab4b176538695fa3c2960", "name": "f2941246316ab4b176538695fa3c2960", "is_reserved": 0, "fusion_lat": 0.0}, {"type": "electric_scooter", "rental_uris": {"ios": "https://dc.lft.to/lastmile_qr_scan", "android": "https://dc.lft.to/lastmile_qr_scan"}, "lon": -77.02698433333333, "fusion_lon": 0.0, "is_disabled": 0, "lat": 38.90680966666667, "bike_id": "9cc1a21513c7e9e0fd4cf5c596646dff", "name": "9cc1a21513c7e9e0fd4cf5c596646dff", "is_reserved": 0, "fusion_lat": 0.0}, {"type": "electric_scooter", "rental_uris": {"ios": "https://dc.lft.to/lastmile_qr_scan", "android": "https://dc.lft.to/lastmile_qr_scan"}, "lon": -77.0283215, "fusion_lon": 0.0, "is_disabled": 0, "lat": 38.9318885, "bike_id": "fe8e0c1dd69f59ff1a779231ad3a397c", "name": "fe8e0c1dd69f59ff1a779231ad3a397c", "is_reserved": 0, "fusion_lat": 0.0}, {"type": "electric_scooter", "rental_uris": {"ios": "https://dc.lft.to/lastmile_qr_scan", "android": "https://dc.lft.to/lastmile_qr_scan"}, "lon": -77.03866366666666, "fusion_lon": 0.0, "is_disabled": 0, "lat": 38.910353666666666, "bike_id": "da30aba6c7c3fce430651c3503806003", "name": "da30aba6c7c3fce430651c3503806003", "is_reserved": 0, "fusion_lat": 0.0}, {"type": "electric_bike", "rental_uris": {"ios": "https://dc.lft.to/lastmile_qr_scan", "android": "https://dc.lft.to/lastmile_qr_scan"}, "lon": -77.040181, "fusion_lon": 0.0, "is_disabled": 0, "lat": 38.79324866666666, "bike_id": "651659e94a5d926fc8aa333a383280a2", "name": "651659e94a5d926fc8aa333a383280a2", "is_reserved": 0, "fusion_lat": 0.0}, {"type": "electric_bike", "rental_uris": {"ios": "https://dc.lft.to/lastmile_qr_scan", "android": "https://dc.lft.to/lastmile_qr_scan"}, "lon": -76.97241666666666, "fusion_lon": 0.0, "is_disabled": 0, "lat": 38.949010666666666, "bike_id": "4b45b99d9bd0a426bae8b4bd626a5e35", "name": "4b45b99d9bd0a426bae8b4bd626a5e35", "is_reserved": 0, "fusion_lat": 0.0}, {"type": "electric_scooter", "rental_uris": {"ios": "https://dc.lft.to/lastmile_qr_scan", "android": "https://dc.lft.to/lastmile_qr_scan"}, "lon": -76.99520516666666, "fusion_lon": 0.0, "is_disabled": 0, "lat": 38.883668, "bike_id": "b2015d9c3eaa904e5f11e3659a999154", "name": "b2015d9c3eaa904e5f11e3659a999154", "is_reserved": 0, "fusion_lat": 0.0}, {"type": "electric_scooter", "rental_uris": {"ios": "https://dc.lft.to/lastmile_qr_scan", "android": "https://dc.lft.to/lastmile_qr_scan"}, "lon": -77.03204366666667, "fusion_lon": 0.0, "is_disabled": 0, "lat": 38.91402316666667, "bike_id": "b169b08fa4e3e6a0e25472a1303a698e", "name": "b169b08fa4e3e6a0e25472a1303a698e", "is_reserved": 0, "fusion_lat": 0.0}, {"type": "electric_scooter", "rental_uris": {"ios": "https://dc.lft.to/lastmile_qr_scan", "android": "https://dc.lft.to/lastmile_qr_scan"}, "lon": -77.008704, "fusion_lon": 0.0, "is_disabled": 0, "lat": 38.917047833333335, "bike_id": "3660af2301de24c42aa2894d60989bb6", "name": "3660af2301de24c42aa2894d60989bb6", "is_reserved": 0, "fusion_lat": 0.0}, {"type": "electric_scooter", "rental_uris": {"ios": "https://dc.lft.to/lastmile_qr_scan", "android": "https://dc.lft.to/lastmile_qr_scan"}, "lon": -77.0351515, "fusion_lon": 0.0, "is_disabled": 0, "lat": 38.921461, "bike_id": "47ff07c9b5556b61b1a8d5ebe98e65b6", "name": "47ff07c9b5556b61b1a8d5ebe98e65b6", "is_reserved": 0, "fusion_lat": 0.0}, {"type": "electric_scooter", "rental_uris": {"ios": "https://dc.lft.to/lastmile_qr_scan", "android": "https://dc.lft.to/lastmile_qr_scan"}, "lon": -77.02628683333333, "fusion_lon": 0.0, "is_disabled": 0, "lat": 38.8921725, "bike_id": "69f82c752f0ca853f1045ab0488d1a14", "name": "69f82c752f0ca853f1045ab0488d1a14", "is_reserved": 0, "fusion_lat": 0.0}, {"type": "electric_scooter", "rental_uris": {"ios": "https://dc.lft.to/lastmile_qr_scan", "android": "https://dc.lft.to/lastmile_qr_scan"}, "lon": -77.0324885, "fusion_lon": 0.0, "is_disabled": 0, "lat": 38.89906083333333, "bike_id": "f6cd5644b1ee8b45f9ac8728813ab003", "name": "f6cd5644b1ee8b45f9ac8728813ab003", "is_reserved": 0, "fusion_lat": 0.0}, {"type": "electric_bike", "rental_uris": {"ios": "https://dc.lft.to/lastmile_qr_scan", "android": "https://dc.lft.to/lastmile_qr_scan"}, "lon": -77.11806966666667, "fusion_lon": 0.0, "is_disabled": 0, "lat": 38.873707833333334, "bike_id": "1dde6120c1aa57bda9dc0b41f794833f", "name": "1dde6120c1aa57bda9dc0b41f794833f", "is_reserved": 0, "fusion_lat": 0.0}, {"type": "electric_scooter", "rental_uris": {"ios": "https://dc.lft.to/lastmile_qr_scan", "android": "https://dc.lft.to/lastmile_qr_scan"}, "lon": -77.00930883333334, "fusion_lon": 0.0, "is_disabled": 0, "lat": 38.88331, "bike_id": "a2763013401ff3406fc9119c26218ac8", "name": "a2763013401ff3406fc9119c26218ac8", "is_reserved": 0, "fusion_lat": 0.0}, {"type": "electric_scooter", "rental_uris": {"ios": "https://dc.lft.to/lastmile_qr_scan", "android": "https://dc.lft.to/lastmile_qr_scan"}, "lon": -77.0365285, "fusion_lon": 0.0, "is_disabled": 0, "lat": 38.90314716666666, "bike_id": "9cf53e1ee52a2862dd60e5b0ca65b1c7", "name": "9cf53e1ee52a2862dd60e5b0ca65b1c7", "is_reserved": 0, "fusion_lat": 0.0}, {"type": "electric_bike", "rental_uris": {"ios": "https://dc.lft.to/lastmile_qr_scan", "android": "https://dc.lft.to/lastmile_qr_scan"}, "lon": -77.031401, "fusion_lon": 0.0, "is_disabled": 0, "lat": 38.99427566666667, "bike_id": "07de6b5fb4eb56ed660e644a81d1c2b2", "name": "07de6b5fb4eb56ed660e644a81d1c2b2", "is_reserved": 0, "fusion_lat": 0.0}, {"type": "electric_bike", "rental_uris": {"ios": "https://dc.lft.to/lastmile_qr_scan", "android": "https://dc.lft.to/lastmile_qr_scan"}, "lon": -76.95200716666666, "fusion_lon": 0.0, "is_disabled": 0, "lat": 38.936734, "bike_id": "811fda8b4091b987e7379f80a0dcd120", "name": "811fda8b4091b987e7379f80a0dcd120", "is_reserved": 0, "fusion_lat": 0.0}, {"type": "electric_bike", "rental_uris": {"ios": "https://dc.lft.to/lastmile_qr_scan", "android": "https://dc.lft.to/lastmile_qr_scan"}, "lon": -77.216488, "fusion_lon": 0.0, "is_disabled": 0, "lat": 38.9300795, "bike_id": "7422879f16f0a79d1ce452bfa4321a04", "name": "7422879f16f0a79d1ce452bfa4321a04", "is_reserved": 0, "fusion_lat": 0.0}, {"type": "electric_scooter", "rental_uris": {"ios": "https://dc.lft.to/lastmile_qr_scan", "android": "https://dc.lft.to/lastmile_qr_scan"}, "lon": -77.02187466666666, "fusion_lon": 0.0, "is_disabled": 0, "lat": 38.915643, "bike_id": "da4e6f97940663814268d420e6c67209", "name": "da4e6f97940663814268d420e6c67209", "is_reserved": 0, "fusion_lat": 0.0}, {"type": "electric_scooter", "rental_uris": {"ios": "https://dc.lft.to/lastmile_qr_scan", "android": "https://dc.lft.to/lastmile_qr_scan"}, "lon": -77.02617383333333, "fusion_lon": 0.0, "is_disabled": 0, "lat": 38.94820083333333, "bike_id": "b391bc35aa45008399165c4a8c9dd7a9", "name": "b391bc35aa45008399165c4a8c9dd7a9", "is_reserved": 0, "fusion_lat": 0.0}, {"type": "electric_scooter", "rental_uris": {"ios": "https://dc.lft.to/lastmile_qr_scan", "android": "https://dc.lft.to/lastmile_qr_scan"}, "lon": -77.01949633333334, "fusion_lon": 0.0, "is_disabled": 0, "lat": 38.94849466666667, "bike_id": "e712b3fe6049871e8c8f9edc56d6dcf5", "name": "e712b3fe6049871e8c8f9edc56d6dcf5", "is_reserved": 0, "fusion_lat": 0.0}, {"type": "electric_scooter", "rental_uris": {"ios": "https://dc.lft.to/lastmile_qr_scan", "android": "https://dc.lft.to/lastmile_qr_scan"}, "lon": -77.00694916666667, "fusion_lon": 0.0, "is_disabled": 0, "lat": 38.905361166666665, "bike_id": "c28cff736981230b7e17ffa82e7b3007", "name": "c28cff736981230b7e17ffa82e7b3007", "is_reserved": 0, "fusion_lat": 0.0}, {"type": "electric_bike", "rental_uris": {"ios": "https://dc.lft.to/lastmile_qr_scan", "android": "https://dc.lft.to/lastmile_qr_scan"},