{"data": {"bikes": [{"rental_uris": {"ios": "https://dc.lft.to/lastmile_qr_scan", "android": "https://dc.lft.to/lastmile_qr_scan"}, "type": "electric_scooter", "name": "19dec26e4b53053d01b0bfff84ecb3ef", "is_reserved": 0, "lon": -77.02959316666667, "is_disabled": 0, "fusion_lat": 0.0, "lat": 38.916749333333335, "bike_id": "19dec26e4b53053d01b0bfff84ecb3ef", "fusion_lon": 0.0}, {"rental_uris": {"ios": "https://dc.lft.to/lastmile_qr_scan", "android": "https://dc.lft.to/lastmile_qr_scan"}, "type": "electric_scooter", "name": "20736cf339fb94fdfdffb9e7bdca83cd", "is_reserved": 0, "lon": -76.94666666666667, "is_disabled": 0, "fusion_lat": 0.0, "lat": 38.89869783333333, "bike_id": "20736cf339fb94fdfdffb9e7bdca83cd", "fusion_lon": 0.0}, {"rental_uris": {"ios": "https://dc.lft.to/lastmile_qr_scan", "android": "https://dc.lft.to/lastmile_qr_scan"}, "type": "electric_scooter", "name": "0f7a8ee4de3cfdc404318e31eeb70af0", "is_reserved": 0, "lon": -77.02533233333334, "is_disabled": 0, "fusion_lat": 0.0, "lat": 38.9009475, "bike_id": "0f7a8ee4de3cfdc404318e31eeb70af0", "fusion_lon": 0.0}, {"rental_uris": {"ios": "https://dc.lft.to/lastmile_qr_scan", "android": "https://dc.lft.to/lastmile_qr_scan"}, "type": "electric_scooter", "name": "4877ae7c91dd714b1832c5b7cb8e8a3d", "is_reserved": 0, "lon": -76.99489883333334, "is_disabled": 0, "fusion_lat": 0.0, "lat": 38.89979966666667, "bike_id": "4877ae7c91dd714b1832c5b7cb8e8a3d", "fusion_lon": 0.0}, {"rental_uris": {"ios": "https://dc.lft.to/lastmile_qr_scan", "android": "https://dc.lft.to/lastmile_qr_scan"}, "type": "electric_scooter", "name": "517254e90c31e954d2b10ce68429d93f", "is_reserved": 0, "lon": -77.04192483333334, "is_disabled": 0, "fusion_lat": 0.0, "lat": 38.920607333333336, "bike_id": "517254e90c31e954d2b10ce68429d93f", "fusion_lon": 0.0}, {"rental_uris": {"ios": "https://dc.lft.to/lastmile_qr_scan", "android": "https://dc.lft.to/lastmile_qr_scan"}, "type": "electric_scooter", "name": "19f727cc328c19dbfaaf0d78abe9521b", "is_reserved": 0, "lon": -77.04615416666667, "is_disabled": 0, "fusion_lat": 0.0, "lat": 38.90960716666667, "bike_id": "19f727cc328c19dbfaaf0d78abe9521b", "fusion_lon": 0.0}, {"rental_uris": {"ios": "https://dc.lft.to/lastmile_qr_scan", "android": "https://dc.lft.to/lastmile_qr_scan"}, "type": "electric_scooter", "name": "c5da485634e0d865a1b936e9deee7f63", "is_reserved": 0, "lon": -76.998991, "is_disabled": 0, "fusion_lat": 0.0, "lat": 38.95298616666667, "bike_id": "c5da485634e0d865a1b936e9deee7f63", "fusion_lon": 0.0}, {"rental_uris": {"ios": "https://dc.lft.to/lastmile_qr_scan", "android": "https://dc.lft.to/lastmile_qr_scan"}, "type": "electric_scooter", "name": "70a3327ea214f1d99ec8bee5b2bf8219", "is_reserved": 0, "lon": -77.04886983333333, "is_disabled": 0, "fusion_lat": 0.0, "lat": 38.90907466666667, "bike_id": "70a3327ea214f1d99ec8bee5b2bf8219", "fusion_lon": 0.0}, {"rental_uris": {"ios": "https://dc.lft.to/lastmile_qr_scan", "android": "https://dc.lft.to/lastmile_qr_scan"}, "type": "electric_scooter", "name": "ff5df311ff3e45c16d578d1d3f490de5", "is_reserved": 0, "lon": -77.0091925, "is_disabled": 0, "fusion_lat": 0.0, "lat": 38.89886166666667, "bike_id": "ff5df311ff3e45c16d578d1d3f490de5", "fusion_lon": 0.0}, {"rental_uris": {"ios": "https://dc.lft.to/lastmile_qr_scan", "android": "https://dc.lft.to/lastmile_qr_scan"}, "type": "electric_scooter", "name": "e292bc02131532d647a3e3a48292e76d", "is_reserved": 0, "lon": -76.9793565, "is_disabled": 0, "fusion_lat": 0.0, "lat": 38.906609333333336, "bike_id": "e292bc02131532d647a3e3a48292e76d", "fusion_lon": 0.0}, {"rental_uris": {"ios": "https://dc.lft.to/lastmile_qr_scan", "android": "https://dc.lft.to/lastmile_qr_scan"}, "type": "electric_scooter", "name": "ddf9c612cb1119a2c6b4a4a3873fdba9", "is_reserved": 0, "lon": -77.03322816666666, "is_disabled": 0, "fusion_lat": 0.0, "lat": 38.919275166666665, "bike_id": "ddf9c612cb1119a2c6b4a4a3873fdba9", "fusion_lon": 0.0}, {"rental_uris": {"ios": "https://dc.lft.to/lastmile_qr_scan", "android": "https://dc.lft.to/lastmile_qr_scan"}, "type": "electric_scooter", "name": "bf8a8ee29a090c1f64c26b98dfa31867", "is_reserved": 0, "lon": -76.99610366666667, "is_disabled": 0, "fusion_lat": 0.0, "lat": 38.93162233333334, "bike_id": "bf8a8ee29a090c1f64c26b98dfa31867", "fusion_lon": 0.0}, {"rental_uris": {"ios": "https://dc.lft.to/lastmile_qr_scan", "android": "https://dc.lft.to/lastmile_qr_scan"}, "type": "electric_scooter", "name": "aeb0f69adb33a7370f16d5ce0232d93f", "is_reserved": 0, "lon": -77.046916, "is_disabled": 0, "fusion_lat": 0.0, "lat": 38.89741033333333, "bike_id": "aeb0f69adb33a7370f16d5ce0232d93f", "fusion_lon": 0.0}, {"rental_uris": {"ios": "https://dc.lft.to/lastmile_qr_scan", "android": "https://dc.lft.to/lastmile_qr_scan"}, "type": "electric_bike", "name": "d5bf9ed3e1cda8015ef4c49653762ae9", "is_reserved": 0, "lon": -76.98094, "is_disabled": 0, "fusion_lat": 0.0, "lat": 38.95361783333333, "bike_id": "d5bf9ed3e1cda8015ef4c49653762ae9", "fusion_lon": 0.0}, {"rental_uris": {"ios": "https://dc.lft.to/lastmile_qr_scan", "android": "https://dc.lft.to/lastmile_qr_scan"}, "type": "electric_scooter", "name": "e0f1d22240c802668f67e6f93a475b51", "is_reserved": 0, "lon": -76.99639083333334, "is_disabled": 0, "fusion_lat": 0.0, "lat": 38.88766666666667, "bike_id": "e0f1d22240c802668f67e6f93a475b51", "fusion_lon": 0.0}, {"rental_uris": {"ios": "https://dc.lft.to/lastmile_qr_scan", "android": "https://dc.lft.to/lastmile_qr_scan"}, "type": "electric_scooter", "name": "24dbaacac10aab81ccfe69d6f8198a6e", "is_reserved": 0, "lon": -77.04660383333334, "is_disabled": 0, "fusion_lat": 0.0, "lat": 38.893385333333335, "bike_id": "24dbaacac10aab81ccfe69d6f8198a6e", "fusion_lon": 0.0}, {"rental_uris": {"ios": "https://dc.lft.to/lastmile_qr_scan", "android": "https://dc.lft.to/lastmile_qr_scan"}, "type": "electric_scooter", "name": "652504853df61a6d28538061ae322943", "is_reserved": 0, "lon": -77.04655866666667, "is_disabled": 0, "fusion_lat": 0.0, "lat": 38.90549516666667, "bike_id": "652504853df61a6d28538061ae322943", "fusion_lon": 0.0}, {"rental_uris": {"ios": "https://dc.lft.to/lastmile_qr_scan", "android": "https://dc.lft.to/lastmile_qr_scan"}, "type": "electric_scooter", "name": "933a6313d875eaa39c27383d162d6a0e", "is_reserved": 0, "lon": -77.02152766666667, "is_disabled": 0, "fusion_lat": 0.0, "lat": 38.88747633333333, "bike_id": "933a6313d875eaa39c27383d162d6a0e", "fusion_lon": 0.0}, {"rental_uris": {"ios": "https://dc.lft.to/lastmile_qr_scan", "android": "https://dc.lft.to/lastmile_qr_scan"}, "type": "electric_bike", "name": "af9b17c4d2506e6e92a9b75fdec93781", "is_reserved": 0, "lon": -77.00203166666667, "is_disabled": 0, "fusion_lat": 0.0, "lat": 38.819343, "bike_id": "af9b17c4d2506e6e92a9b75fdec93781", "fusion_lon": 0.0}, {"rental_uris": {"ios": "https://dc.lft.to/lastmile_qr_scan", "android": "https://dc.lft.to/lastmile_qr_scan"}, "type": "electric_scooter", "name": "19e02836a03184700938d3473e33142b", "is_reserved": 0, "lon": -76.996279, "is_disabled": 0, "fusion_lat": 0.0, "lat": 38.899983, "bike_id": "19e02836a03184700938d3473e33142b", "fusion_lon": 0.0}, {"rental_uris": {"ios": "https://dc.lft.to/lastmile_qr_scan", "android": "https://dc.lft.to/lastmile_qr_scan"}, "type": "electric_scooter", "name": "5def824c8b76b7d01ed7c7450ccddba0", "is_reserved": 0, "lon": -76.99735066666666, "is_disabled": 0, "fusion_lat": 0.0, "lat": 38.885296333333336, "bike_id": "5def824c8b76b7d01ed7c7450ccddba0", "fusion_lon": 0.0}, {"rental_uris": {"ios": "https://dc.lft.to/lastmile_qr_scan", "android": "https://dc.lft.to/lastmile_qr_scan"}, "type": "electric_scooter", "name": "cf81118aaaf275300cb2d2b9f2383037", "is_reserved": 0, "lon": -76.984129, "is_disabled": 0, "fusion_lat": 0.0, "lat": 38.879987666666665, "bike_id": "cf81118aaaf275300cb2d2b9f2383037", "fusion_lon": 0.0}, {"rental_uris": {"ios": "https://dc.lft.to/lastmile_qr_scan", "android": "https://dc.lft.to/lastmile_qr_scan"}, "type": "electric_scooter", "name": "f8c98ec38680bee851a6f8bb124b7a77", "is_reserved": 0, "lon": -77.0280705, "is_disabled": 0, "fusion_lat": 0.0, "lat": 38.930808666666664, "bike_id": "f8c98ec38680bee851a6f8bb124b7a77", "fusion_lon": 0.0}, {"rental_uris": {"ios": "https://dc.lft.to/lastmile_qr_scan", "android": "https://dc.lft.to/lastmile_qr_scan"}, "type": "electric_scooter", "name": "0260f65f680399ab7713d38d1bfc0f53", "is_reserved": 0, "lon": -77.03898166666667, "is_disabled": 0, "fusion_lat": 0.0, "lat": 38.92319166666667, "bike_id": "0260f65f680399ab7713d38d1bfc0f53", "fusion_lon": 0.0}, {"rental_uris": {"ios": "https://dc.lft.to/lastmile_qr_scan", "android": "https://dc.lft.to/lastmile_qr_scan"}, "type": "electric_scooter", "name": "cfa3efd4e2f9e18415d88c030d5b5198", "is_reserved": 0, "lon": -77.040961, "is_disabled": 0, "fusion_lat": 0.0, "lat": 38.917268, "bike_id": "cfa3efd4e2f9e18415d88c030d5b5198", "fusion_lon": 0.0}, {"rental_uris": {"ios": "https://dc.lft.to/lastmile_qr_scan", "android": "https://dc.lft.to/lastmile_qr_scan"}, "type": "electric_scooter", "name": "a8c06fa0c3f86ab830128b8b3bb238bb", "is_reserved": 0, "lon": -77.0270335, "is_disabled": 0, "fusion_lat": 0.0, "lat": 38.92284566666667, "bike_id": "a8c06fa0c3f86ab830128b8b3bb238bb", "fusion_lon": 0.0}, {"rental_uris": {"ios": "https://dc.lft.to/lastmile_qr_scan", "android": "https://dc.lft.to/lastmile_qr_scan"}, "type": "electric_scooter", "name": "cad6f12bdf48f5b90d3a3d532bda0c3a", "is_reserved": 0, "lon": -77.034713, "is_disabled": 0, "fusion_lat": 0.0, "lat": 38.905623, "bike_id": "cad6f12bdf48f5b90d3a3d532bda0c3a", "fusion_lon": 0.0}, {"rental_uris": {"ios": "https://dc.lft.to/lastmile_qr_scan", "android": "https://dc.lft.to/lastmile_qr_scan"}, "type": "electric_scooter", "name": "f4fb60704815d7d1dd292c53a6f94479", "is_reserved": 0, "lon": -77.043442, "is_disabled": 0, "fusion_lat": 0.0, "lat": 38.907236166666664, "bike_id": "f4fb60704815d7d1dd292c53a6f94479", "fusion_lon": 0.0}, {"rental_uris": {"ios": "https://dc.lft.to/lastmile_qr_scan", "android": "https://dc.lft.to/lastmile_qr_scan"}, "type": "electric_scooter", "name": "41292a3f9670dcf4b77413718fbf3575", "is_reserved": 0, "lon": -77.04064283333334, "is_disabled": 0, "fusion_lat": 0.0, "lat": 38.917683833333335, "bike_id": "41292a3f9670dcf4b77413718fbf3575", "fusion_lon": 0.0}, {"rental_uris": {"ios": "https://dc.lft.to/lastmile_qr_scan", "android": "https://dc.lft.to/lastmile_qr_scan"}, "type": "electric_bike", "name": "f783f737949174986a977c1efcd4a881", "is_reserved": 0, "lon": -76.9614965, "is_disabled": 0, "fusion_lat": 0.0, "lat": 38.85618383333333, "bike_id": "f783f737949174986a977c1efcd4a881", "fusion_lon": 0.0}, {"rental_uris": {"ios": "https://dc.lft.to/lastmile_qr_scan", "android": "https://dc.lft.to/lastmile_qr_scan"}, "type": "electric_scooter", "name": "37aa6782a0f4708cb89e913cf92c45bf", "is_reserved": 0, "lon": -77.04521133333333, "is_disabled": 0, "fusion_lat": 0.0, "lat": 38.907571, "bike_id": "37aa6782a0f4708cb89e913cf92c45bf", "fusion_lon": 0.0}, {"rental_uris": {"ios": "https://dc.lft.to/lastmile_qr_scan", "android": "https://dc.lft.to/lastmile_qr_scan"}, "type": "electric_scooter", "name": "1016d97b9622f70aaa3297faffaa9bb2", "is_reserved": 0, "lon": -77.06133516666667, "is_disabled": 0, "fusion_lat": 0.0, "lat": 38.90263266666667, "bike_id": "1016d97b9622f70aaa3297faffaa9bb2", "fusion_lon": 0.0}, {"rental_uris": {"ios": "https://dc.lft.to/lastmile_qr_scan", "android": "https://dc.lft.to/lastmile_qr_scan"}, "type": "electric_scooter", "name": "761bf5a4ef86577c766f176002e02db5", "is_reserved": 0, "lon": -77.02816733333333, "is_disabled": 0, "fusion_lat": 0.0, "lat": 38.90919433333333, "bike_id": "761bf5a4ef86577c766f176002e02db5", "fusion_lon": 0.0}, {"rental_uris": {"ios": "https://dc.lft.to/lastmile_qr_scan", "android": "https://dc.lft.to/lastmile_qr_scan"}, "type": "electric_scooter", "name": "3ca9a2329acebbc2614d454bd3b49da7", "is_reserved": 0, "lon": -77.05818416666666, "is_disabled": 0, "fusion_lat": 0.0, "lat": 38.93522133333333, "bike_id": "3ca9a2329acebbc2614d454bd3b49da7", "fusion_lon": 0.0}, {"rental_uris": {"ios": "https://dc.lft.to/lastmile_qr_scan", "android": "https://dc.lft.to/lastmile_qr_scan"}, "type": "electric_scooter", "name": "5c24dcf3d6ee8226ef6247bbbc3316d9", "is_reserved": 0, "lon": -77.03912716666666, "is_disabled": 0, "fusion_lat": 0.0, "lat": 38.91559616666667, "bike_id": "5c24dcf3d6ee8226ef6247bbbc3316d9", "fusion_lon": 0.0}, {"rental_uris": {"ios": "https://dc.lft.to/lastmile_qr_scan", "android": "https://dc.lft.to/lastmile_qr_scan"}, "type": "electric_scooter", "name": "030762c8d1598e44eff412f33cfaa34e", "is_reserved": 0, "lon": -77.00181516666666, "is_disabled": 0, "fusion_lat": 0.0, "lat": 38.91185466666667, "bike_id": "030762c8d1598e44eff412f33cfaa34e", "fusion_lon": 0.0}, {"rental_uris": {"ios": "https://dc.lft.to/lastmile_qr_scan", "android": "https://dc.lft.to/lastmile_qr_scan"}, "type": "electric_scooter", "name": "58d703350d78140d4a595adfe2be03b7", "is_reserved": 0, "lon": -77.01502016666667, "is_disabled": 0, "fusion_lat": 0.0, "lat": 38.926685166666665, "bike_id": "58d703350d78140d4a595adfe2be03b7", "fusion_lon": 0.0}, {"rental_uris": {"ios": "https://dc.lft.to/lastmile_qr_scan", "android": "https://dc.lft.to/lastmile_qr_scan"}, "type": "electric_scooter", "name": "77bb62be78f167247af98897474d0c5c", "is_reserved": 0, "lon": -77.00050116666667, "is_disabled": 0, "fusion_lat": 0.0, "lat": 38.8744075, "bike_id": "77bb62be78f167247af98897474d0c5c", "fusion_lon": 0.0}, {"rental_uris": {"ios": "https://dc.lft.to/lastmile_qr_scan", "android": "https://dc.lft.to/lastmile_qr_scan"}, "type": "electric_scooter", "name": "f7795b03be35b04f71a8bcfabf2d351f", "is_reserved": 0, "lon": -77.0320155, "is_disabled": 0, "fusion_lat": 0.0, "lat": 38.9121655, "bike_id": "f7795b03be35b04f71a8bcfabf2d351f", "fusion_lon": 0.0}, {"rental_uris": {"ios": "https://dc.lft.to/lastmile_qr_scan", "android": "https://dc.lft.to/lastmile_qr_scan"}, "type": "electric_scooter", "name": "cb203a78d2a340fbcf9df92b9fd34ac2", "is_reserved": 0, "lon": -77.02157933333334, "is_disabled": 0, "fusion_lat": 0.0, "lat": 38.92465266666667, "bike_id": "cb203a78d2a340fbcf9df92b9fd34ac2", "fusion_lon": 0.0}, {"rental_uris": {"ios": "https://dc.lft.to/lastmile_qr_scan", "android": "https://dc.lft.to/lastmile_qr_scan"}, "type": "electric_bike", "name": "e136b155db75d92c4ece78c2f53d271c", "is_reserved": 0, "lon": -76.94154533333334, "is_disabled": 0, "fusion_lat": 0.0, "lat": 38.890201833333336, "bike_id": "e136b155db75d92c4ece78c2f53d271c", "fusion_lon": 0.0}, {"rental_uris": {"ios": "https://dc.lft.to/lastmile_qr_scan", "android": "https://dc.lft.to/lastmile_qr_scan"}, "type": "electric_scooter", "name": "e5378cf6f92a2a57845942cac230ab17", "is_reserved": 0, "lon": -76.99010816666667, "is_disabled": 0, "fusion_lat": 0.0, "lat": 38.864259, "bike_id": "e5378cf6f92a2a57845942cac230ab17", "fusion_lon": 0.0}, {"rental_uris": {"ios": "https://dc.lft.to/lastmile_qr_scan", "android": "https://dc.lft.to/lastmile_qr_scan"}, "type": "electric_scooter", "name": "68a23ccc117335ee34392574b8b1b635", "is_reserved": 0, "lon": -77.03826616666667, "is_disabled": 0, "fusion_lat": 0.0, "lat": 38.9626845, "bike_id": "68a23ccc117335ee34392574b8b1b635", "fusion_lon": 0.0}, {"rental_uris": {"ios": "https://dc.lft.to/lastmile_qr_scan", "android": "https://dc.lft.to/lastmile_qr_scan"}, "type": "electric_scooter", "name": "c0fa216c19b2db8acc9d0ee7883879c3", "is_reserved": 0, "lon": -76.931848, "is_disabled": 0, "fusion_lat": 0.0, "lat": 38.89878983333333, "bike_id": "c0fa216c19b2db8acc9d0ee7883879c3", "fusion_lon": 0.0}, {"rental_uris": {"ios": "https://dc.lft.to/lastmile_qr_scan", "android": "https://dc.lft.to/lastmile_qr_scan"}, "type": "electric_scooter", "name": "c3716733143872b18d28de09f5a9940f", "is_reserved": 0, "lon": -77.07063083333334, "is_disabled": 0, "fusion_lat": 0.0, "lat": 38.893101, "bike_id": "c3716733143872b18d28de09f5a9940f", "fusion_lon": 0.0}, {"rental_uris": {"ios": "https://dc.lft.to/lastmile_qr_scan", "android": "https://dc.lft.to/lastmile_qr_scan"}, "type": "electric_scooter", "name": "4da7d3ba3a4a3836772839839794d5a6", "is_reserved": 0, "lon": -77.02864733333334, "is_disabled": 0, "fusion_lat": 0.0, "lat": 38.912636166666665, "bike_id": "4da7d3ba3a4a3836772839839794d5a6", "fusion_lon": 0.0}, {"rental_uris": {"ios": "https://dc.lft.to/lastmile_qr_scan", "android": "https://dc.lft.to/lastmile_qr_scan"}, "type": "electric_bike", "name": "b9d7356e22e14eab8fdaa3f982c2c597", "is_reserved": 0, "lon": -77.12931166666667, "is_disabled": 0, "fusion_lat": 0.0, "lat": 38.86598716666666, "bike_id": "b9d7356e22e14eab8fdaa3f982c2c597", "fusion_lon": 0.0}, {"rental_uris": {"ios": "https://dc.lft.to/lastmile_qr_scan", "android": "https://dc.lft.to/lastmile_qr_scan"}, "type": "electric_scooter", "name": "8a044b3d6dd7d186ab54faf0f60d28d2", "is_reserved": 0, "lon": -77.0403565, "is_disabled": 0, "fusion_lat": 0.0, "lat": 38.92307433333333, "bike_id": "8a044b3d6dd7d186ab54faf0f60d28d2", "fusion_lon": 0.0}, {"rental_uris": {"ios": "https://dc.lft.to/lastmile_qr_scan", "android": "https://dc.lft.to/lastmile_qr_scan"}, "type": "electric_scooter", "name": "a72b083b581352b5254c68afc0920375", "is_reserved": 0, "lon": -77.03753933333333, "is_disabled": 0, "fusion_lat": 0.0, "lat": 38.9254465, "bike_id": "a72b083b581352b5254c68afc0920375", "fusion_lon": 0.0}, {"rental_uris": {"ios": "https://dc.lft.to/lastmile_qr_scan", "android": "https://dc.lft.to/lastmile_qr_scan"}, "type": "electric_scooter", "name": "a9b02ef9ef611a1a685939d341aa22cb", "is_reserved": 0, "lon": -76.99510516666666, "is_disabled": 0, "fusion_lat": 0.0, "lat": 38.887892, "bike_id": "a9b02ef9ef611a1a685939d341aa22cb", "fusion_lon": 0.0}, {"rental_uris": {"ios": "https://dc.lft.to/lastmile_qr_scan", "android": "https://dc.lft.to/lastmile_qr_scan"}, "type": "electric_scooter", "name": "b9ab10d7f1af344a018e9b63a70a51b0", "is_reserved": 0, "lon": -76.990145, "is_disabled": 0, "fusion_lat": 0.0, "lat": 38.86426683333333, "bike_id": "b9ab10d7f1af344a018e9b63a70a51b0", "fusion_lon": 0.0}, {"rental_uris": {"ios": "https://dc.lft.to/lastmile_qr_scan", "android": "https://dc.lft.to/lastmile_qr_scan"}, "type": "electric_scooter", "name": "ad2d49a004ff6bd146eb0aae3337b482", "is_reserved": 0, "lon": -77.0295115, "is_disabled": 0, "fusion_lat": 0.0, "lat": 38.9125275, "bike_id": "ad2d49a004ff6bd146eb0aae3337b482", "fusion_lon": 0.0}, {"rental_uris": {"ios": "https://dc.lft.to/lastmile_qr_scan", "android": "https://dc.lft.to/lastmile_qr_scan"}, "type": "electric_scooter", "name": "6fb54bd11cc17ebf1feae61355a7ba9f", "is_reserved": 0, "lon": -77.03879433333333, "is_disabled": 0, "fusion_lat": 0.0, "lat": 38.90800683333333, "bike_id": "6fb54bd11cc17ebf1feae61355a7ba9f", "fusion_lon": 0.0}, {"rental_uris": {"ios": "https://dc.lft.to/lastmile_qr_scan", "android": "https://dc.lft.to/lastmile_qr_scan"}, "type": "electric_scooter", "name": "c318b46809d1a5b4051bf114475cad0e", "is_reserved": 0, "lon": -76.9652415, "is_disabled": 0, "fusion_lat": 0.0, "lat": 38.87632766666667, "bike_id": "c318b46809d1a5b4051bf114475cad0e", "fusion_lon": 0.0}, {"rental_uris": {"ios": "https://dc.lft.to/lastmile_qr_scan", "android": "https://dc.lft.to/lastmile_qr_scan"}, "type": "electric_scooter", "name": "fc23ec2cf23a2e47a97afb5a4bb2e974", "is_reserved": 0, "lon": -77.01615816666667, "is_disabled": 0, "fusion_lat": 0.0, "lat": 38.9060825, "bike_id": "fc23ec2cf23a2e47a97afb5a4bb2e974", "fusion_lon": 0.0}, {"rental_uris": {"ios": "https://dc.lft.to/lastmile_qr_scan", "android": "https://dc.lft.to/lastmile_qr_scan"}, "type": "electric_scooter", "name": "200a4609f38863b5a5fc5486872f7e59", "is_reserved": 0, "lon": -77.03391333333333, "is_disabled": 0, "fusion_lat": 0.0, "lat": 38.9288325, "bike_id": "200a4609f38863b5a5fc5486872f7e59", "fusion_lon": 0.0}, {"rental_uris": {"ios": "https://dc.lft.to/lastmile_qr_scan", "android": "https://dc.lft.to/lastmile_qr_scan"}, "type": "electric_scooter", "name": "21cf65dd7ad13763de8243ce2afd7d4f", "is_reserved": 0, "lon": -76.994766, "is_disabled": 0, "fusion_lat": 0.0, "lat": 38.8621695, "bike_id": "21cf65dd7ad13763de8243ce2afd7d4f", "fusion_lon": 0.0}, {"rental_uris": {"ios": "https://dc.lft.to/lastmile_qr_scan", "android": "https://dc.lft.to/lastmile_qr_scan"}, "type": "electric_scooter", "name": "31a947fb523d5cf80a1421fc8cd52946", "is_reserved": 0, "lon": -77.055922, "is_disabled": 0, "fusion_lat": 0.0, "lat": 38.9053705, "bike_id": "31a947fb523d5cf80a1421fc8cd52946", "fusion_lon": 0.0}, {"rental_uris": {"ios": "https://dc.lft.to/lastmile_qr_scan", "android": "https://dc.lft.to/lastmile_qr_scan"}, "type": "electric_scooter", "name": "06c5b7654dbf70144dc5333b64a4103d", "is_reserved": 0, "lon": -77.026605, "is_disabled": 0, "fusion_lat": 0.0, "lat": 38.92219716666666, "bike_id": "06c5b7654dbf70144dc5333b64a4103d", "fusion_lon": 0.0}, {"rental_uris": {"ios": "https://dc.lft.to/lastmile_qr_scan", "android": "https://dc.lft.to/lastmile_qr_scan"}, "type": "electric_scooter", "name": "180b8e5ad673e9e0beee8e8bf7b47375", "is_reserved": 0, "lon": -77.06556066666667, "is_disabled": 0, "fusion_lat": 0.0, "lat": 38.9116845, "bike_id": "180b8e5ad673e9e0beee8e8bf7b47375", "fusion_lon": 0.0}, {"rental_uris": {"ios": "https://dc.lft.to/lastmile_qr_scan", "android": "https://dc.lft.to/lastmile_qr_scan"}, "type": "electric_scooter", "name": "b159eff7366fa6e04f3b86c90643bc04", "is_reserved": 0, "lon": -77.0472105, "is_disabled": 0, "fusion_lat": 0.0, "lat": 38.91791, "bike_id": "b159eff7366fa6e04f3b86c90643bc04", "fusion_lon": 0.0}, {"rental_uris": {"ios": "https://dc.lft.to/lastmile_qr_scan", "android": "https://dc.lft.to/lastmile_qr_scan"}, "type": "electric_scooter", "name": "3df6f603347e2f33485db0b00c1ca38a", "is_reserved": 0, "lon": -77.02136666666667, "is_disabled": 0, "fusion_lat": 0.0, "lat": 38.897485333333336, "bike_id": "3df6f603347e2f33485db0b00c1ca38a", "fusion_lon": 0.0}, {"rental_uris": {"ios": "https://dc.lft.to/lastmile_qr_scan", "android": "https://dc.lft.to/lastmile_qr_scan"}, "type": "electric_scooter", "name": "2b3fd507f80e9881baeaddfe2c31e8b7", "is_reserved": 0, "lon": -77.021314, "is_disabled": 0, "fusion_lat": 0.0, "lat": 38.926959, "bike_id": "2b3fd507f80e9881baeaddfe2c31e8b7", "fusion_lon": 0.0}, {"rental_uris": {"ios": "https://dc.lft.to/lastmile_qr_scan", "android": "https://dc.lft.to/lastmile_qr_scan"}, "type": "electric_scooter", "name": "64a1664fea583b95b863f1479580b1a9", "is_reserved": 0, "lon": -77.0434675, "is_disabled": 0, "fusion_lat": 0.0, "lat": 38.92352433333333, "bike_id": "64a1664fea583b95b863f1479580b1a9", "fusion_lon": 0.0}, {"rental_uris": {"ios": "https://dc.lft.to/lastmile_qr_scan", "android": "https://dc.lft.to/lastmile_qr_scan"}, "type": "electric_bike", "name": "e48ae7dd6149a2f967463f836611db80", "is_reserved": 0, "lon": -77.02008766666667, "is_disabled": 0, "fusion_lat": 0.0, "lat": 38.9644095, "bike_id": "e48ae7dd6149a2f967463f836611db80", "fusion_lon": 0.0}, {"rental_uris": {"ios": "https://dc.lft.to/lastmile_qr_scan", "android": "https://dc.lft.to/lastmile_qr_scan"}, "type": "electric_scooter", "name": "47a006022789ba72acecd640c0603eb8", "is_reserved": 0, "lon": -77.0233215, "is_disabled": 0, "fusion_lat": 0.0, "lat": 38.92300783333334, "bike_id": "47a006022789ba72acecd640c0603eb8", "fusion_lon": 0.0}, {"rental_uris": {"ios": "https://dc.lft.to/lastmile_qr_scan", "android": "https://dc.lft.to/lastmile_qr_scan"}, "type": "electric_scooter", "name": "4e32d35b7d297b17afdf5b23f0a16b73", "is_reserved": 0, "lon": -77.0261255, "is_disabled": 0, "fusion_lat": 0.0, "lat": 38.916971, "bike_id": "4e32d35b7d297b17afdf5b23f0a16b73", "fusion_lon": 0.0}, {"rental_uris": {"ios": "https://dc.lft.to/lastmile_qr_scan", "android": "https://dc.lft.to/lastmile_qr_scan"}, "type": "electric_scooter", "name": "338950c3b2185cf7831cf515968c88c9", "is_reserved": 0, "lon": -76.98262616666666, "is_disabled": 0, "fusion_lat": 0.0, "lat": 38.866303, "bike_id": "338950c3b2185cf7831cf515968c88c9", "fusion_lon": 0.0}, {"rental_uris": {"ios": "https://dc.lft.to/lastmile_qr_scan", "android": "https://dc.lft.to/lastmile_qr_scan"}, "type": "electric_scooter", "name": "69ce407e24c2b8099d8fc681536ddfca", "is_reserved": 0, "lon": -77.03644833333334, "is_disabled": 0, "fusion_lat": 0.0, "lat": 38.92594583333333, "bike_id": "69ce407e24c2b8099d8fc681536ddfca", "fusion_lon": 0.0}, {"rental_uris": {"ios": "https://dc.lft.to/lastmile_qr_scan", "android": "https://dc.lft.to/lastmile_qr_scan"}, "type": "electric_scooter", "name": "20820239c78f11d88975ad635722d3e2", "is_reserved": 0, "lon": -77.04435383333333, "is_disabled": 0, "fusion_lat": 0.0, "lat": 38.9126135, "bike_id": "20820239c78f11d88975ad635722d3e2", "fusion_lon": 0.0}, {"rental_uris": {"ios": "https://dc.lft.to/lastmile_qr_scan", "android": "https://dc.lft.to/lastmile_qr_scan"}, "type": "electric_scooter", "name": "8f1e8fafe67f537a4cafb169589202b3", "is_reserved": 0, "lon": -77.0786845, "is_disabled": 0, "fusion_lat": 0.0, "lat": 38.924671000000004, "bike_id": "8f1e8fafe67f537a4cafb169589202b3", "fusion_lon": 0.0}, {"rental_uris": {"ios": "https://dc.lft.to/lastmile_qr_scan", "android": "https://dc.lft.to/lastmile_qr_scan"}, "type": "electric_scooter", "name": "b706e296c52ff4fe38bc986b5bb282fa", "is_reserved": 0, "lon": -77.05645166666666, "is_disabled": 0, "fusion_lat": 0.0, "lat": 38.93596516666667, "bike_id": "b706e296c52ff4fe38bc986b5bb282fa", "fusion_lon": 0.0}, {"rental_uris": {"ios": "https://dc.lft.to/lastmile_qr_scan", "android": "https://dc.lft.to/lastmile_qr_scan"}, "type": "electric_scooter", "name": "22584cd07af50cbac5456e45546285c6", "is_reserved": 0, "lon": -77.04695183333334, "is_disabled": 0, "fusion_lat": 0.0, "lat": 38.897466666666666, "bike_id": "22584cd07af50cbac5456e45546285c6", "fusion_lon": 0.0}, {"rental_uris": {"ios": "https://dc.lft.to/lastmile_qr_scan", "android": "https://dc.lft.to/lastmile_qr_scan"}, "type": "electric_scooter", "name": "1cbf1e57134822e46bbceb854447f1be", "is_reserved": 0, "lon": -77.03957183333333, "is_disabled": 0, "fusion_lat": 0.0, "lat": 38.89249516666667, "bike_id": "1cbf1e57134822e46bbceb854447f1be", "fusion_lon": 0.0}, {"rental_uris": {"ios": "https://dc.lft.to/lastmile_qr_scan", "android": "https://dc.lft.to/lastmile_qr_scan"}, "type": "electric_scooter", "name": "6543989ba740d9c43597dcc443cd0eaf", "is_reserved": 0, "lon": -77.0327685, "is_disabled": 0, "fusion_lat": 0.0, "lat": 38.9199605, "bike_id": "6543989ba740d9c43597dcc443cd0eaf", "fusion_lon": 0.0}, {"rental_uris": {"ios": "https://dc.lft.to/lastmile_qr_scan", "android": "https://dc.lft.to/lastmile_qr_scan"}, "type": "electric_scooter", "name": "0a77cdf6795ef2777375690ed47ea58b", "is_reserved": 0, "lon": -77.010138, "is_disabled": 0, "fusion_lat": 0.0, "lat": 38.91267533333333, "bike_id": "0a77cdf6795ef2777375690ed47ea58b", "fusion_lon": 0.0}, {"rental_uris": {"ios": "https://dc.lft.to/lastmile_qr_scan", "android": "https://dc.lft.to/lastmile_qr_scan"}, "type": "electric_scooter", "name": "affb3f8866c4b44e288574b5281a63eb", "is_reserved": 0, "lon": -77.036448, "is_disabled": 0, "fusion_lat": 0.0, "lat": 38.91818766666667, "bike_id": "affb3f8866c4b44e288574b5281a63eb", "fusion_lon": 0.0}, {"rental_uris": {"ios": "https://dc.lft.to/lastmile_qr_scan", "android": "https://dc.lft.to/lastmile_qr_scan"}, "type": "electric_scooter", "name": "0f24dead1eb7be07090365394a7aba7d", "is_reserved": 0, "lon": -77.04142383333334, "is_disabled": 0, "fusion_lat": 0.0, "lat": 38.92250516666667, "bike_id": "0f24dead1eb7be07090365394a7aba7d", "fusion_lon": 0.0}, {"rental_uris": {"ios": "https://dc.lft.to/lastmile_qr_scan", "android": "https://dc.lft.to/lastmile_qr_scan"}, "type": "electric_bike", "name": "e00efcbc6f4e463bd7b485741db58b4d", "is_reserved": 0, "lon": -76.98351, "is_disabled": 0, "fusion_lat": 0.0, "lat": 38.862661833333334, "bike_id": "e00efcbc6f4e463bd7b485741db58b4d", "fusion_lon": 0.0}, {"rental_uris": {"ios": "https://dc.lft.to/lastmile_qr_scan", "android": "https://dc.lft.to/lastmile_qr_scan"}, "type": "electric_scooter", "name": "8a3e75decd40010631f35b0892dcf6ee", "is_reserved": 0, "lon": -77.03218433333333, "is_disabled": 0, "fusion_lat": 0.0, "lat": 38.914049166666665, "bike_id": "8a3e75decd40010631f35b0892dcf6ee", "fusion_lon": 0.0}, {"rental_uris": {"ios": "https://dc.lft.to/lastmile_qr_scan", "android": "https://dc.lft.to/lastmile_qr_scan"}, "type": "electric_scooter", "name": "f27a9754f894358d3558f568a54fa1bf", "is_reserved": 0, "lon": -77.0108925, "is_disabled": 0, "fusion_lat": 0.0, "lat": 38.903363166666665, "bike_id": "f27a9754f894358d3558f568a54fa1bf", "fusion_lon": 0.0}, {"rental_uris": {"ios": "https://dc.lft.to/lastmile_qr_scan", "android": "https://dc.lft.to/lastmile_qr_scan"}, "type": "electric_scooter", "name": "3767541c55825a6bff67fc114ae145d6", "is_reserved": 0, "lon": -77.0420555, "is_disabled": 0, "fusion_lat": 0.0, "lat": 38.920613, "bike_id": "3767541c55825a6bff67fc114ae145d6", "fusion_lon": 0.0}, {"rental_uris": {"ios": "https://dc.lft.to/lastmile_qr_scan", "android": "https://dc.lft.to/lastmile_qr_scan"}, "type": "electric_scooter", "name": "d03b124c64b02517b0c986c46284e885", "is_reserved": 0, "lon": -77.02392166666667, "is_disabled": 0, "fusion_lat": 0.0, "lat": 38.90852316666667, "bike_id": "d03b124c64b02517b0c986c46284e885", "fusion_lon": 0.0}, {"rental_uris": {"ios": "https://dc.lft.to/lastmile_qr_scan", "android": "https://dc.lft.to/lastmile_qr_scan"}, "type": "electric_scooter", "name": "11e1a07fac3922dded7fb34379957df8", "is_reserved": 0, "lon": -77.016344, "is_disabled": 0, "fusion_lat": 0.0, "lat": 38.90380966666667, "bike_id": "11e1a07fac3922dded7fb34379957df8", "fusion_lon": 0.0}, {"rental_uris": {"ios": "https://dc.lft.to/lastmile_qr_scan", "android": "https://dc.lft.to/lastmile_qr_scan"}, "type": "electric_scooter", "name": "4d0a09847db7307a9e360e5f7cdb3cc7", "is_reserved": 0, "lon": -77.0162655, "is_disabled": 0, "fusion_lat": 0.0, "lat": 38.88742516666667, "bike_id": "4d0a09847db7307a9e360e5f7cdb3cc7", "fusion_lon": 0.0}, {"rental_uris": {"ios": "https://dc.lft.to/lastmile_qr_scan", "android": "https://dc.lft.to/lastmile_qr_scan"}, "type": "electric_scooter", "name": "5525b8e4ead53be162d2f6f3f91b176c", "is_reserved": 0, "lon": -77.04245266666666, "is_disabled": 0, "fusion_lat": 0.0, "lat": 38.90930866666667, "bike_id": "5525b8e4ead53be162d2f6f3f91b176c", "fusion_lon": 0.0}, {"rental_uris": {"ios": "https://dc.lft.to/lastmile_qr_scan", "android": "https://dc.lft.to/lastmile_qr_scan"}, "type": "electric_scooter", "name": "7a382b98906a8a4b94348c1ed25a70b7", "is_reserved": 0, "lon": -77.036145, "is_disabled": 0, "fusion_lat": 0.0, "lat": 38.90330816666667, "bike_id": "7a382b98906a8a4b94348c1ed25a70b7", "fusion_lon": 0.0}, {"rental_uris": {"ios": "https://dc.lft.to/lastmile_qr_scan", "android": "https://dc.lft.to/lastmile_qr_scan"}, "type": "electric_scooter", "name": "b1598178bbd20fc891b75f7bcc52a359", "is_reserved": 0, "lon": -77.03812383333333, "is_disabled": 0, "fusion_lat": 0.0, "lat": 38.910388, "bike_id": "b1598178bbd20fc891b75f7bcc52a359", "fusion_lon": 0.0}, {"rental_uris": {"ios": "https://dc.lft.to/lastmile_qr_scan", "android": "https://dc.lft.to/lastmile_qr_scan"}, "type": "electric_scooter", "name": "3039b9683a723190c01c0a39e52e9564", "is_reserved": 0, "lon": -77.04688933333334, "is_disabled": 0, "fusion_lat": 0.0, "lat": 38.9029195, "bike_id": "3039b9683a723190c01c0a39e52e9564", "fusion_lon": 0.0}, {"rental_uris": {"ios": "https://dc.lft.to/lastmile_qr_scan", "android": "https://dc.lft.to/lastmile_qr_scan"}, "type": "electric_scooter", "name": "ce3434428e9bde69748793a3087ea240", "is_reserved": 0, "lon": -76.93355116666666, "is_disabled": 0, "fusion_lat": 0.0, "lat": 38.898909833333335, "bike_id": "ce3434428e9bde69748793a3087ea240", "fusion_lon": 0.0}, {"rental_uris": {"ios": "https://dc.lft.to/lastmile_qr_scan", "android": "https://dc.lft.to/lastmile_qr_scan"}, "type": "electric_scooter", "name": "c784a239180444973ca3aac31af0683e", "is_reserved": 0, "lon": -77.0489565, "is_disabled": 0, "fusion_lat": 0.0, "lat": 38.900706666666665, "bike_id": "c784a239180444973ca3aac31af0683e", "fusion_lon": 0.0}, {"rental_uris": {"ios": "https://dc.lft.to/lastmile_qr_scan", "android": "https://dc.lft.to/lastmile_qr_scan"}, "type": "electric_bike", "name": "e9e6a1543f55890057e524ab43e82c6c", "is_reserved": 0, "lon": -77.1273185, "is_disabled": 0, "fusion_lat": 0.0, "lat": 38.89562333333333, "bike_id": "e9e6a1543f55890057e524ab43e82c6c", "fusion_lon": 0.0}, {"rental_uris": {"ios": "https://dc.lft.to/lastmile_qr_scan", "android": "https://dc.lft.to/lastmile_qr_scan"}, "type": "electric_scooter", "name": "78f0613d1823593c913b863cb4255fda", "is_reserved": 0, "lon": -77.0667545, "is_disabled": 0, "fusion_lat": 0.0, "lat": 38.95015266666667, "bike_id": "78f0613d1823593c913b863cb4255fda", "fusion_lon": 0.0}, {"rental_uris": {"ios": "https://dc.lft.to/lastmile_qr_scan", "android": "https://dc.lft.to/lastmile_qr_scan"}, "type": "electric_scooter", "name": "d2f9672d1e2ca5370a2ad85c3a5eb1b2", "is_reserved": 0, "lon": -77.04170416666666, "is_disabled": 0, "fusion_lat": 0.0, "lat": 38.918317333333334, "bike_id": "d2f9672d1e2ca5370a2ad85c3a5eb1b2", "fusion_lon": 0.0}, {"rental_uris": {"ios": "https://dc.lft.to/lastmile_qr_scan", "android": "https://dc.lft.to/lastmile_qr_scan"}, "type": "electric_bike", "name": "06075dba75e20898864f8792fe569d22", "is_reserved": 0, "lon": -77.12696733333334, "is_disabled": 0, "fusion_lat": 0.0, "lat": 38.89570466666667, "bike_id": "06075dba75e20898864f8792fe569d22", "fusion_lon": 0.0}, {"rental_uris": {"ios": "https://dc.lft.to/lastmile_qr_scan", "android": "https://dc.lft.to/lastmile_qr_scan"}, "type": "electric_bike", "name": "67d0db03cdfffbcb932fae2acb5a7aad", "is_reserved": 0, "lon": -76.95698316666666, "is_disabled": 0, "fusion_lat": 0.0, "lat": 38.85089816666667, "bike_id": "67d0db03cdfffbcb932fae2acb5a7aad", "fusion_lon": 0.0}, {"rental_uris": {"ios": "https://dc.lft.to/lastmile_qr_scan", "android": "https://dc.lft.to/lastmile_qr_scan"}, "type": "electric_scooter", "name": "fe723e84b59a8a3ba28690cdbf7deee8", "is_reserved": 0, "lon": -77.029456, "is_disabled": 0, "fusion_lat": 0.0, "lat": 38.91686683333333, "bike_id": "fe723e84b59a8a3ba28690cdbf7deee8", "fusion_lon": 0.0}, {"rental_uris": {"ios": "https://dc.lft.to/lastmile_qr_scan", "android": "https://dc.lft.to/lastmile_qr_scan"}, "type": "electric_scooter", "name": "1576905e6a131bbd91f90b75188cd09b", "is_reserved": 0, "lon": -77.02373316666667, "is_disabled": 0, "fusion_lat": 0.0, "lat": 38.902230333333335, "bike_id": "1576905e6a131bbd91f90b75188cd09b", "fusion_lon": 0.0}, {"rental_uris": {"ios": "https://dc.lft.to/lastmile_qr_scan", "android": "https://dc.lft.to/lastmile_qr_scan"}, "type": "electric_scooter", "name": "9f0279821152d85b5d5fa3133194b05c", "is_reserved": 0, "lon": -76.95744433333333, "is_disabled": 0, "fusion_lat": 0.0, "lat": 38.883917333333336, "bike_id": "9f0279821152d85b5d5fa3133194b05c", "fusion_lon": 0.0}, {"rental_uris": {"ios": "https://dc.lft.to/lastmile_qr_scan", "android": "https://dc.lft.to/lastmile_qr_scan"}, "type": "electric_scooter", "name": "c74dc12cbec8c87c0990c693ba7d5e1f", "is_reserved": 0, "lon": -76.9835685, "is_disabled": 0, "fusion_lat": 0.0, "lat": 38.8874495, "bike_id": "c74dc12cbec8c87c0990c693ba7d5e1f", "fusion_lon": 0.0}, {"rental_uris": {"ios": "https://dc.lft.to/lastmile_qr_scan", "android": "https://dc.lft.to/lastmile_qr_scan"}, "type": "electric_scooter", "name": "b6c83a87d3db52c915ef98e22726983c", "is_reserved": 0, "lon": -77.007577, "is_disabled": 0, "fusion_lat": 0.0, "lat": 38.92531133333333, "bike_id": "b6c83a87d3db52c915ef98e22726983c", "fusion_lon": 0.0}, {"rental_uris": {"ios": "https://dc.lft.to/lastmile_qr_scan", "android": "https://dc.lft.to/lastmile_qr_scan"}, "type": "electric_scooter", "name": "7c7eab83ff2d88b1e76df7e4d76e2fc3", "is_reserved": 0, "lon": -77.03191366666667, "is_disabled": 0, "fusion_lat": 0.0, "lat": 38.91807933333333, "bike_id": "7c7eab83ff2d88b1e76df7e4d76e2fc3", "fusion_lon": 0.0}, {"rental_uris": {"ios": "https://dc.lft.to/lastmile_qr_scan", "android": "https://dc.lft.to/lastmile_qr_scan"}, "type": "electric_bike", "name": "191fdbd8c3602515de1ff82e1c3fa8fd", "is_reserved": 0, "lon": -77.0901075, "is_disabled": 0, "fusion_lat": 0.0, "lat": 38.926465666666665, "bike_id": "191fdbd8c3602515de1ff82e1c3fa8fd", "fusion_lon": 0.0}, {"rental_uris": {"ios": "https://dc.lft.to/lastmile_qr_scan", "android": "https://dc.lft.to/lastmile_qr_scan"}, "type": "electric_scooter", "name": "6cc48a9c5b4a67a20ecf09476c989dec", "is_reserved": 0, "lon": -77.0267275, "is_disabled": 0, "fusion_lat": 0.0, "lat": 38.8849175, "bike_id": "6cc48a9c5b4a67a20ecf09476c989dec", "fusion_lon": 0.0}, {"rental_uris": {"ios": "https://dc.lft.to/lastmile_qr_scan", "android": "https://dc.lft.to/lastmile_qr_scan"}, "type": "electric_scooter", "name": "752193569f02673c67fe0a7b9ad71172", "is_reserved": 0, "lon": -77.039851, "is_disabled": 0, "fusion_lat": 0.0, "lat": 38.892222333333336, "bike_id": "752193569f02673c67fe0a7b9ad71172", "fusion_lon": 0.0}, {"rental_uris": {"ios": "https://dc.lft.to/lastmile_qr_scan", "android": "https://dc.lft.to/lastmile_qr_scan"}, "type": "electric_bike", "name": "d1b0661dc08e3edca719c99befd8c5d1", "is_reserved": 0, "lon": -76.98686283333333, "is_disabled": 0, "fusion_lat": 0.0, "lat": 38.944775666666665, "bike_id": "d1b0661dc08e3edca719c99befd8c5d1", "fusion_lon": 0.0}, {"rental_uris": {"ios": "https://dc.lft.to/lastmile_qr_scan", "android": "https://dc.lft.to/lastmile_qr_scan"}, "type": "electric_bike", "name": "9bbf98c89e3751e969b7ac4e417342d7", "is_reserved": 0, "lon": -76.994654, "is_disabled": 0, "fusion_lat": 0.0, "lat": 38.86266033333333, "bike_id": "9bbf98c89e3751e969b7ac4e417342d7", "fusion_lon": 0.0}, {"rental_uris": {"ios": "https://dc.lft.to/lastmile_qr_scan", "android": "https://dc.lft.to/lastmile_qr_scan"}, "type": "electric_scooter", "name": "6007a31c65c29b17ebebd185750ef5b8", "is_reserved": 0, "lon": -76.98840683333333, "is_disabled": 0, "fusion_lat": 0.0, "lat": 38.842997833333335, "bike_id": "6007a31c65c29b17ebebd185750ef5b8", "fusion_lon": 0.0}, {"rental_uris": {"ios": "https://dc.lft.to/lastmile_qr_scan", "android": "https://dc.lft.to/lastmile_qr_scan"}, "type": "electric_bike", "name": "d39521aa17f458b222d53be8979694a4", "is_reserved": 0, "lon": -77.0363195, "is_disabled": 0, "fusion_lat": 0.0, "lat": 38.97295866666666, "bike_id": "d39521aa17f458b222d53be8979694a4", "fusion_lon": 0.0}, {"rental_uris": {"ios": "https://dc.lft.to/lastmile_qr_scan", "android": "https://dc.lft.to/lastmile_qr_scan"}, "type": "electric_scooter", "name": "2f72431886051d6557dff049e9f69fed", "is_reserved": 0, "lon": -77.022068, "is_disabled": 0, "fusion_lat": 0.0, "lat": 38.90545566666667, "bike_id": "2f72431886051d6557dff049e9f69fed", "fusion_lon": 0.0}, {"rental_uris": {"ios": "https://dc.lft.to/lastmile_qr_scan", "android": "https://dc.lft.to/lastmile_qr_scan"}, "type": "electric_bike", "name": "3827bcdc51486fe86264b274d3b89abb", "is_reserved": 0, "lon": -76.96267683333333, "is_disabled": 0, "fusion_lat": 0.0, "lat": 38.96788933333333, "bike_id": "3827bcdc51486fe86264b274d3b89abb", "fusion_lon": 0.0}, {"rental_uris": {"ios": "https://dc.lft.to/lastmile_qr_scan", "android": "https://dc.lft.to/lastmile_qr_scan"}, "type": "electric_scooter", "name": "6296bd22b7fa416e387e8f1b412db40f", "is_reserved": 0, "lon": -77.04906966666667, "is_disabled": 0, "fusion_lat": 0.0, "lat": 38.888452666666666, "bike_id": "6296bd22b7fa416e387e8f1b412db40f", "fusion_lon": 0.0}, {"rental_uris": {"ios": "https://dc.lft.to/lastmile_qr_scan", "android": "https://dc.lft.to/lastmile_qr_scan"}, "type": "electric_scooter", "name": "fa22205e0826f1ec6c001bd2f17b82ab", "is_reserved": 0, "lon": -77.04018816666667, "is_disabled": 0, "fusion_lat": 0.0, "lat": 38.92386116666667, "bike_id": "fa22205e0826f1ec6c001bd2f17b82ab", "fusion_lon": 0.0}, {"rental_uris": {"ios": "https://dc.lft.to/lastmile_qr_scan", "android": "https://dc.lft.to/lastmile_qr_scan"}, "type": "electric_scooter", "name": "c260b8e1279d0ef848f83c8a50aee559", "is_reserved": 0, "lon": -77.0259615, "is_disabled": 0, "fusion_lat": 0.0, "lat": 38.95816266666667, "bike_id": "c260b8e1279d0ef848f83c8a50aee559", "fusion_lon": 0.0}, {"rental_uris": {"ios": "https://dc.lft.to/lastmile_qr_scan", "android": "https://dc.lft.to/lastmile_qr_scan"}, "type": "electric_scooter", "name": "eabafcee5c5e18bfea8348f96d8601eb", "is_reserved": 0, "lon": -76.99885966666666, "is_disabled": 0, "fusion_lat": 0.0, "lat": 38.88664833333333, "bike_id": "eabafcee5c5e18bfea8348f96d8601eb", "fusion_lon": 0.0}, {"rental_uris": {"ios": "https://dc.lft.to/lastmile_qr_scan", "android": "https://dc.lft.to/lastmile_qr_scan"}, "type": "electric_bike", "name": "b049b6341ed3ea0256212a50713b4a28", "is_reserved": 0, "lon": -77.10217033333333, "is_disabled": 0, "fusion_lat": 0.0, "lat": 38.91997683333334, "bike_id": "b049b6341ed3ea0256212a50713b4a28", "fusion_lon": 0.0}, {"rental_uris": {"ios": "https://dc.lft.to/lastmile_qr_scan", "android": "https://dc.lft.to/lastmile_qr_scan"}, "type": "electric_bike", "name": "557dd5127aea103ec10a643996b06ad7", "is_reserved": 0, "lon": -77.06259466666667, "is_disabled": 0, "fusion_lat": 0.0, "lat": 38.937396, "bike_id": "557dd5127aea103ec10a643996b06ad7", "fusion_lon": 0.0}, {"rental_uris": {"ios": "https://dc.lft.to/lastmile_qr_scan", "android": "https://dc.lft.to/lastmile_qr_scan"}, "type": "electric_scooter", "name": "d929ac337529224b3c5cca7d47a0efc4", "is_reserved": 0, "lon": -77.01764333333334, "is_disabled": 0, "fusion_lat": 0.0, "lat": 38.876800833333334, "bike_id": "d929ac337529224b3c5cca7d47a0efc4", "fusion_lon": 0.0}, {"rental_uris": {"ios": "https://dc.lft.to/lastmile_qr_scan", "android": "https://dc.lft.to/lastmile_qr_scan"}, "type": "electric_scooter", "name": "c9d23928d548d20420a984457b705f9c", "is_reserved": 0, "lon": -77.0344705, "is_disabled": 0, "fusion_lat": 0.0, "lat": 38.90823566666667, "bike_id": "c9d23928d548d20420a984457b705f9c", "fusion_lon": 0.0}, {"rental_uris": {"ios": "https://dc.lft.to/lastmile_qr_scan", "android": "https://dc.lft.to/lastmile_qr_scan"}, "type": "electric_scooter", "name": "0804bfc0b0b2adacfea294fa48c3cf24", "is_reserved": 0, "lon": -77.0468085, "is_disabled": 0, "fusion_lat": 0.0, "lat": 38.897284666666664, "bike_id": "0804bfc0b0b2adacfea294fa48c3cf24", "fusion_lon": 0.0}, {"rental_uris": {"ios": "https://dc.lft.to/lastmile_qr_scan", "android": "https://dc.lft.to/lastmile_qr_scan"}, "type": "electric_scooter", "name": "09af52eb63946bc6ffc25e6a2d0c051d", "is_reserved": 0, "lon": -77.04243366666667, "is_disabled": 0, "fusion_lat": 0.0, "lat": 38.92174283333333, "bike_id": "09af52eb63946bc6ffc25e6a2d0c051d", "fusion_lon": 0.0}, {"rental_uris": {"ios": "https://dc.lft.to/lastmile_qr_scan", "android": "https://dc.lft.to/lastmile_qr_scan"}, "type": "electric_scooter", "name": "e4d2779c3ee7adf7342016aa26e767a4", "is_reserved": 0, "lon": -77.04256, "is_disabled": 0, "fusion_lat": 0.0, "lat": 38.92237266666667, "bike_id": "e4d2779c3ee7adf7342016aa26e767a4", "fusion_lon": 0.0}, {"rental_uris": {"ios": "https://dc.lft.to/lastmile_qr_scan", "android": "https://dc.lft.to/lastmile_qr_scan"}, "type": "electric_scooter", "name": "cc00f9583bfe46263432832ce467f7ac", "is_reserved": 0, "lon": -77.04763366666667, "is_disabled": 0, "fusion_lat": 0.0, "lat": 38.91242166666667, "bike_id": "cc00f9583bfe46263432832ce467f7ac", "fusion_lon": 0.0}, {"rental_uris": {"ios": "https://dc.lft.to/lastmile_qr_scan", "android": "https://dc.lft.to/lastmile_qr_scan"}, "type": "electric_bike", "name": "81dad6a9be94b7d0bc92c0d69e02c9b8", "is_reserved": 0, "lon": -77.04332083333334, "is_disabled": 0, "fusion_lat": 0.0, "lat": 38.92239516666667, "bike_id": "81dad6a9be94b7d0bc92c0d69e02c9b8", "fusion_lon": 0.0}, {"rental_uris": {"ios": "https://dc.lft.to/lastmile_qr_scan", "android": "https://dc.lft.to/lastmile_qr_scan"}, "type": "electric_scooter", "name": "7b21df01e678a71518980848243e9b18", "is_reserved": 0, "lon": -77.01875766666667, "is_disabled": 0, "fusion_lat": 0.0, "lat": 38.8973125, "bike_id": "7b21df01e678a71518980848243e9b18", "fusion_lon": 0.0}, {"rental_uris": {"ios": "https://dc.lft.to/lastmile_qr_scan", "android": "https://dc.lft.to/lastmile_qr_scan"}, "type": "electric_scooter", "name": "c7eeab51c921f59f6490208d4e10a9b6", "is_reserved": 0, "lon": -76.93746316666666, "is_disabled": 0, "fusion_lat": 0.0, "lat": 38.8900875, "bike_id": "c7eeab51c921f59f6490208d4e10a9b6", "fusion_lon": 0.0}, {"rental_uris": {"ios": "https://dc.lft.to/lastmile_qr_scan", "android": "https://dc.lft.to/lastmile_qr_scan"}, "type": "electric_scooter", "name": "d665b5b8e5320320a48b5ca8c7b92028", "is_reserved": 0, "lon": -77.055068, "is_disabled": 0, "fusion_lat": 0.0, "lat": 38.9283475, "bike_id": "d665b5b8e5320320a48b5ca8c7b92028", "fusion_lon": 0.0}, {"rental_uris": {"ios": "https://dc.lft.to/lastmile_qr_scan", "android": "https://dc.lft.to/lastmile_qr_scan"}, "type": "electric_scooter", "name": "3f64e59c3896d0a96d47bd282db637dd", "is_reserved": 0, "lon": -77.0608805, "is_disabled": 0, "fusion_lat": 0.0, "lat": 38.939942333333335, "bike_id": "3f64e59c3896d0a96d47bd282db637dd", "fusion_lon": 0.0}, {"rental_uris": {"ios": "https://dc.lft.to/lastmile_qr_scan", "android": "https://dc.lft.to/lastmile_qr_scan"}, "type": "electric_bike", "name": "64603e2503ff0ab06f7e74639188fd0f", "is_reserved": 0, "lon": -77.00140366666666, "is_disabled": 0, "fusion_lat": 0.0, "lat": 38.994968666666665, "bike_id": "64603e2503ff0ab06f7e74639188fd0f", "fusion_lon": 0.0}, {"rental_uris": {"ios": "https://dc.lft.to/lastmile_qr_scan", "android": "https://dc.lft.to/lastmile_qr_scan"}, "type": "electric_scooter", "name": "440d257d44b792341b07645f6b0e180c", "is_reserved": 0, "lon": -77.0318585, "is_disabled": 0, "fusion_lat": 0.0, "lat": 38.91101483333333, "bike_id": "440d257d44b792341b07645f6b0e180c", "fusion_lon": 0.0}, {"rental_uris": {"ios": "https://dc.lft.to/lastmile_qr_scan", "android": "https://dc.lft.to/lastmile_qr_scan"}, "type": "electric_scooter", "name": "bcd9026d452c0ee53bdacb2819cb9def", "is_reserved": 0, "lon": -77.073358, "is_disabled": 0, "fusion_lat": 0.0, "lat": 38.9609385, "bike_id": "bcd9026d452c0ee53bdacb2819cb9def", "fusion_lon": 0.0}, {"rental_uris": {"ios": "https://dc.lft.to/lastmile_qr_scan", "android": "https://dc.lft.to/lastmile_qr_scan"}, "type": "electric_bike", "name": "464a1f93929c1d48bc6a3fdfae96df03", "is_reserved": 0, "lon": -76.99253883333333, "is_disabled": 0, "fusion_lat": 0.0, "lat": 38.96079366666667, "bike_id": "464a1f93929c1d48bc6a3fdfae96df03", "fusion_lon": 0.0}, {"rental_uris": {"ios": "https://dc.lft.to/lastmile_qr_scan", "android": "https://dc.lft.to/lastmile_qr_scan"}, "type": "electric_scooter", "name": "c8a433df2ed168c3928eb7a47e7fda7c", "is_reserved": 0, "lon": -77.024556, "is_disabled": 0, "fusion_lat": 0.0, "lat": 38.937294666666666, "bike_id": "c8a433df2ed168c3928eb7a47e7fda7c", "fusion_lon": 0.0}, {"rental_uris": {"ios": "https://dc.lft.to/lastmile_qr_scan", "android": "https://dc.lft.to/lastmile_qr_scan"}, "type": "electric_scooter", "name": "2a769ca55387c556246d42d47648f128", "is_reserved": 0, "lon": -77.07168883333334, "is_disabled": 0, "fusion_lat": 0.0, "lat": 38.90763366666667, "bike_id": "2a769ca55387c556246d42d47648f128", "fusion_lon": 0.0}, {"rental_uris": {"ios": "https://dc.lft.to/lastmile_qr_scan", "android": "https://dc.lft.to/lastmile_qr_scan"}, "type": "electric_scooter", "name": "410cdcf2f192793fd34dfa3687f0a7ef", "is_reserved": 0, "lon": -76.9979145, "is_disabled": 0, "fusion_lat": 0.0, "lat": 38.87633233333333, "bike_id": "410cdcf2f192793fd34dfa3687f0a7ef", "fusion_lon": 0.0}, {"rental_uris": {"ios": "https://dc.lft.to/lastmile_qr_scan", "android": "https://dc.lft.to/lastmile_qr_scan"}, "type": "electric_scooter", "name": "937d4931443060971d947333d21e694c", "is_reserved": 0, "lon": -76.97566716666667, "is_disabled": 0, "fusion_lat": 0.0, "lat": 38.94421466666667, "bike_id": "937d4931443060971d947333d21e694c", "fusion_lon": 0.0}, {"rental_uris": {"ios": "https://dc.lft.to/lastmile_qr_scan", "android": "https://dc.lft.to/lastmile_qr_scan"}, "type": "electric_bike", "name": "249c941869aab2c06ad9540c1e9de601", "is_reserved": 0, "lon": -76.9578975, "is_disabled": 0, "fusion_lat": 0.0, "lat": 38.980472166666665, "bike_id": "249c941869aab2c06ad9540c1e9de601", "fusion_lon": 0.0}, {"rental_uris": {"ios": "https://dc.lft.to/lastmile_qr_scan", "android": "https://dc.lft.to/lastmile_qr_scan"}, "type": "electric_scooter", "name": "205b42b1914c795313741158a9bc966d", "is_reserved": 0, "lon": -77.0338715, "is_disabled": 0, "fusion_lat": 0.0, "lat": 38.93737383333333, "bike_id": "205b42b1914c795313741158a9bc966d", "fusion_lon": 0.0}, {"rental_uris": {"ios": "https://dc.lft.to/lastmile_qr_scan", "android": "https://dc.lft.to/lastmile_qr_scan"}, "type": "electric_scooter", "name": "277ba2415854ca4afce2ccba59169ad3", "is_reserved": 0, "lon": -77.00003616666666, "is_disabled": 0, "fusion_lat": 0.0, "lat": 38.90757283333333, "bike_id": "277ba2415854ca4afce2ccba59169ad3", "fusion_lon": 0.0}, {"rental_uris": {"ios": "https://dc.lft.to/lastmile_qr_scan", "android": "https://dc.lft.to/lastmile_qr_scan"}, "type": "electric_bike", "name": "2a7fad0df30d7ebbb7abd0ee33f49dc6", "is_reserved": 0, "lon": -76.95060616666666, "is_disabled": 0, "fusion_lat": 0.0, "lat": 39.08511883333333, "bike_id": "2a7fad0df30d7ebbb7abd0ee33f49dc6", "fusion_lon": 0.0}, {"rental_uris": {"ios": "https://dc.lft.to/lastmile_qr_scan", "android": "https://dc.lft.to/lastmile_qr_scan"}, "type": "electric_scooter", "name": "a197a32d29fded3a52cd7f9d0a61da8d", "is_reserved": 0, "lon": -77.02307783333333, "is_disabled": 0, "fusion_lat": 0.0, "lat": 38.90082566666667, "bike_id": "a197a32d29fded3a52cd7f9d0a61da8d", "fusion_lon": 0.0}, {"rental_uris": {"ios": "https://dc.lft.to/lastmile_qr_scan", "android": "https://dc.lft.to/lastmile_qr_scan"}, "type": "electric_scooter", "name": "9deb711a69815626ead50a5b52f7e752", "is_reserved": 0, "lon": -77.01994333333333, "is_disabled": 0, "fusion_lat": 0.0, "lat": 38.93053233333333, "bike_id": "9deb711a69815626ead50a5b52f7e752", "fusion_lon": 0.0}, {"rental_uris": {"ios": "https://dc.lft.to/lastmile_qr_scan", "android": "https://dc.lft.to/lastmile_qr_scan"}, "type": "electric_scooter", "name": "b3e8d44f66bfc0126482dbb662cbc755", "is_reserved": 0, "lon": -77.0400795, "is_disabled": 0, "fusion_lat": 0.0, "lat": 38.914107666666666, "bike_id": "b3e8d44f66bfc0126482dbb662cbc755", "fusion_lon": 0.0}, {"rental_uris": {"ios": "https://dc.lft.to/lastmile_qr_scan", "android": "https://dc.lft.to/lastmile_qr_scan"}, "type": "electric_scooter", "name": "983ab20bef9688a7571b2f7f9353eda5", "is_reserved": 0, "lon": -77.03267933333333, "is_disabled": 0, "fusion_lat": 0.0, "lat": 38.938809666666664, "bike_id": "983ab20bef9688a7571b2f7f9353eda5", "fusion_lon": 0.0}, {"rental_uris": {"ios": "https://dc.lft.to/lastmile_qr_scan", "android": "https://dc.lft.to/lastmile_qr_scan"}, "type": "electric_scooter", "name": "4ce7bb02687535ea7ea50b89cd9d972a", "is_reserved": 0, "lon": -77.03809833333334, "is_disabled": 0, "fusion_lat": 0.0, "lat": 38.930724166666664, "bike_id": "4ce7bb02687535ea7ea50b89cd9d972a", "fusion_lon": 0.0}, {"rental_uris": {"ios": "https://dc.lft.to/lastmile_qr_scan", "android": "https://dc.lft.to/lastmile_qr_scan"}, "type": "electric_scooter", "name": "d2bedbbc40c709e5e0d79082bf220974", "is_reserved": 0, "lon": -76.9818375, "is_disabled": 0, "fusion_lat": 0.0, "lat": 38.90582233333333, "bike_id": "d2bedbbc40c709e5e0d79082bf220974", "fusion_lon": 0.0}, {"rental_uris": {"ios": "https://dc.lft.to/lastmile_qr_scan", "android": "https://dc.lft.to/lastmile_qr_scan"}, "type": "electric_scooter", "name": "386af8b8fe12cb1e4c40025f6529a5ab", "is_reserved": 0, "lon": -77.07408516666666, "is_disabled": 0, "fusion_lat": 0.0, "lat": 38.9374435, "bike_id": "386af8b8fe12cb1e4c40025f6529a5ab", "fusion_lon": 0.0}, {"rental_uris": {"ios": "https://dc.lft.to/lastmile_qr_scan", "android": "https://dc.lft.to/lastmile_qr_scan"}, "type": "electric_scooter", "name": "c81afad6723e70425e7c7a59298219c3", "is_reserved": 0, "lon": -77.02359466666667, "is_disabled": 0, "fusion_lat": 0.0, "lat": 38.945223, "bike_id": "c81afad6723e70425e7c7a59298219c3", "fusion_lon": 0.0}, {"rental_uris": {"ios": "https://dc.lft.to/lastmile_qr_scan", "android": "https://dc.lft.to/lastmile_qr_scan"}, "type": "electric_scooter", "name": "75c18266cbcb9d3d637322dbb9ba702a", "is_reserved": 0, "lon": -77.03122883333333, "is_disabled": 0, "fusion_lat": 0.0, "lat": 38.923516666666664, "bike_id": "75c18266cbcb9d3d637322dbb9ba702a", "fusion_lon": 0.0}, {"rental_uris": {"ios": "https://dc.lft.to/lastmile_qr_scan", "android": "https://dc.lft.to/lastmile_qr_scan"}, "type": "electric_scooter", "name": "da6cecf4c9fc823fcff567f9a3c99e35", "is_reserved": 0, "lon": -77.02400866666666, "is_disabled": 0, "fusion_lat": 0.0, "lat": 38.91716233333333, "bike_id": "da6cecf4c9fc823fcff567f9a3c99e35", "fusion_lon": 0.0}, {"rental_uris": {"ios": "https://dc.lft.to/lastmile_qr_scan", "android": "https://dc.lft.to/lastmile_qr_scan"}, "type": "electric_scooter", "name": "fb9bf6a428a664ef57f6d614fafc0430", "is_reserved": 0, "lon": -77.04474816666666, "is_disabled": 0, "fusion_lat": 0.0, "lat": 38.909375, "bike_id": "fb9bf6a428a664ef57f6d614fafc0430", "fusion_lon": 0.0}, {"rental_uris": {"ios": "https://dc.lft.to/lastmile_qr_scan", "android": "https://dc.lft.to/lastmile_qr_scan"}, "type": "electric_scooter", "name": "0c7ab24c7c9fb8826fe7ad8f1f2b2695", "is_reserved": 0, "lon": -77.0509705, "is_disabled": 0, "fusion_lat": 0.0, "lat": 38.90387, "bike_id": "0c7ab24c7c9fb8826fe7ad8f1f2b2695", "fusion_lon": 0.0}, {"rental_uris": {"ios": "https://dc.lft.to/lastmile_qr_scan", "android": "https://dc.lft.to/lastmile_qr_scan"}, "type": "electric_scooter", "name": "71fe281d83e6c3bf1bafda1079fea8cd", "is_reserved": 0, "lon": -77.04033783333334, "is_disabled": 0, "fusion_lat": 0.0, "lat": 38.8992625, "bike_id": "71fe281d83e6c3bf1bafda1079fea8cd", "fusion_lon": 0.0}, {"rental_uris": {"ios": "https://dc.lft.to/lastmile_qr_scan", "android": "https://dc.lft.to/lastmile_qr_scan"}, "type": "electric_scooter", "name": "615ebc4d77ae14640c8468e32c4e6cc2", "is_reserved": 0, "lon": -77.006299, "is_disabled": 0, "fusion_lat": 0.0, "lat": 38.878519833333335, "bike_id": "615ebc4d77ae14640c8468e32c4e6cc2", "fusion_lon": 0.0}, {"rental_uris": {"ios": "https://dc.lft.to/lastmile_qr_scan", "android": "https://dc.lft.to/lastmile_qr_scan"}, "type": "electric_scooter", "name": "e08047bd52e11637f31d41397e226331", "is_reserved": 0, "lon": -77.029743, "is_disabled": 0, "fusion_lat": 0.0, "lat": 38.91676116666667, "bike_id": "e08047bd52e11637f31d41397e226331", "fusion_lon": 0.0}, {"rental_uris": {"ios": "https://dc.lft.to/lastmile_qr_scan", "android": "https://dc.lft.to/lastmile_qr_scan"}, "type": "electric_scooter", "name": "78ad6ce710789cf3ea9fc1789445d623", "is_reserved": 0, "lon": -77.045597, "is_disabled": 0, "fusion_lat": 0.0, "lat": 38.90078466666667, "bike_id": "78ad6ce710789cf3ea9fc1789445d623", "fusion_lon": 0.0}, {"rental_uris": {"ios": "https://dc.lft.to/lastmile_qr_scan", "android": "https://dc.lft.to/lastmile_qr_scan"}, "type": "electric_scooter", "name": "4878c0295674795601cbe374dfbe452a", "is_reserved": 0, "lon": -77.028012, "is_disabled": 0, "fusion_lat": 0.0, "lat": 38.892164666666666, "bike_id": "4878c0295674795601cbe374dfbe452a", "fusion_lon": 0.0}, {"rental_uris": {"ios": "https://dc.lft.to/lastmile_qr_scan", "android": "https://dc.lft.to/lastmile_qr_scan"}, "type": "electric_scooter", "name": "a6773420d9cab653f6f5975464696869", "is_reserved": 0, "lon": -77.0381355, "is_disabled": 0, "fusion_lat": 0.0, "lat": 38.93113666666667, "bike_id": "a6773420d9cab653f6f5975464696869", "fusion_lon": 0.0}, {"rental_uris": {"ios": "https://dc.lft.to/lastmile_qr_scan", "android": "https://dc.lft.to/lastmile_qr_scan"}, "type": "electric_scooter", "name": "deafbed4e3879a78a4c21843bb8b7ccf", "is_reserved": 0, "lon": -77.071653, "is_disabled": 0, "fusion_lat": 0.0, "lat": 38.907658, "bike_id": "deafbed4e3879a78a4c21843bb8b7ccf", "fusion_lon": 0.0}, {"rental_uris": {"ios": "https://dc.lft.to/lastmile_qr_scan", "android": "https://dc.lft.to/lastmile_qr_scan"}, "type": "electric_scooter", "name": "a1970392ec4a6f205a3a792d816de00c", "is_reserved": 0, "lon": -76.92947366666667, "is_disabled": 0, "fusion_lat": 0.0, "lat": 38.90335916666667, "bike_id": "a1970392ec4a6f205a3a792d816de00c", "fusion_lon": 0.0}, {"rental_uris": {"ios": "https://dc.lft.to/lastmile_qr_scan", "android": "https://dc.lft.to/lastmile_qr_scan"}, "type": "electric_scooter", "name": "9c3c61a016579fa80f817fb7a378e977", "is_reserved": 0, "lon": -77.06327683333333, "is_disabled": 0, "fusion_lat": 0.0, "lat": 38.9437065, "bike_id": "9c3c61a016579fa80f817fb7a378e977", "fusion_lon": 0.0}, {"rental_uris": {"ios": "https://dc.lft.to/lastmile_qr_scan", "android": "https://dc.lft.to/lastmile_qr_scan"}, "type": "electric_scooter", "name": "911bca8af993e2ad63b1e13808c1ac78", "is_reserved": 0, "lon": -77.02384116666667, "is_disabled": 0, "fusion_lat": 0.0, "lat": 38.90640283333333, "bike_id": "911bca8af993e2ad63b1e13808c1ac78", "fusion_lon": 0.0}, {"rental_uris": {"ios": "https://dc.lft.to/lastmile_qr_scan", "android": "https://dc.lft.to/lastmile_qr_scan"}, "type": "electric_bike", "name": "ddd47d846f7079cd5dda706a223c993d", "is_reserved": 0, "lon": -76.96306033333333, "is_disabled": 0, "fusion_lat": 0.0, "lat": 38.897022666666665, "bike_id": "ddd47d846f7079cd5dda706a223c993d", "fusion_lon": 0.0}, {"rental_uris": {"ios": "https://dc.lft.to/lastmile_qr_scan", "android": "https://dc.lft.to/lastmile_qr_scan"}, "type": "electric_scooter", "name": "1f40b8d5004be2d6455a6be2e7f9be7c", "is_reserved": 0, "lon": -77.040235, "is_disabled": 0, "fusion_lat": 0.0, "lat": 38.92253783333334, "bike_id": "1f40b8d5004be2d6455a6be2e7f9be7c", "fusion_lon": 0.0}, {"rental_uris": {"ios": "https://dc.lft.to/lastmile_qr_scan", "android": "https://dc.lft.to/lastmile_qr_scan"}, "type": "electric_scooter", "name": "87beb92b757ff3c8d935928a1140bf17", "is_reserved": 0, "lon": -77.0220645, "is_disabled": 0, "fusion_lat": 0.0, "lat": 38.89232483333333, "bike_id": "87beb92b757ff3c8d935928a1140bf17", "fusion_lon": 0.0}, {"rental_uris": {"ios": "https://dc.lft.to/lastmile_qr_scan", "android": "https://dc.lft.to/lastmile_qr_scan"}, "type": "electric_scooter", "name": "616153e93a37b738b9b69e50797986e9", "is_reserved": 0, "lon": -77.04555183333333, "is_disabled": 0, "fusion_lat": 0.0, "lat": 38.90074883333333, "bike_id": "616153e93a37b738b9b69e50797986e9", "fusion_lon": 0.0}, {"rental_uris": {"ios": "https://dc.lft.to/lastmile_qr_scan", "android": "https://dc.lft.to/lastmile_qr_scan"}, "type": "electric_bike", "name": "b813e903f1d77d655e4dc221875f4c1a", "is_reserved": 0, "lon": -77.06417216666667, "is_disabled": 0, "fusion_lat": 0.0, "lat": 38.906449333333335, "bike_id": "b813e903f1d77d655e4dc221875f4c1a", "fusion_lon": 0.0}, {"rental_uris": {"ios": "https://dc.lft.to/lastmile_qr_scan", "android": "https://dc.lft.to/lastmile_qr_scan"}, "type": "electric_scooter", "name": "3e1f5033a4e4b3a5ecb655a23c6c87da", "is_reserved": 0, "lon": -77.04529533333333, "is_disabled": 0, "fusion_lat": 0.0, "lat": 38.91114566666667, "bike_id": "3e1f5033a4e4b3a5ecb655a23c6c87da", "fusion_lon": 0.0}, {"rental_uris": {"ios": "https://dc.lft.to/lastmile_qr_scan", "android": "https://dc.lft.to/lastmile_qr_scan"}, "type": "electric_scooter", "name": "20143e5f35ef7b0aafe2d10fde1f44d2", "is_reserved": 0, "lon": -77.03201766666666, "is_disabled": 0, "fusion_lat": 0.0, "lat": 38.916292166666665, "bike_id": "20143e5f35ef7b0aafe2d10fde1f44d2", "fusion_lon": 0.0}, {"rental_uris": {"ios": "https://dc.lft.to/lastmile_qr_scan", "android": "https://dc.lft.to/lastmile_qr_scan"}, "type": "electric_scooter", "name": "9348e7f580e97070bdf4ea5935cb2ead", "is_reserved": 0, "lon": -77.018295, "is_disabled": 0, "fusion_lat": 0.0, "lat": 38.92219583333333, "bike_id": "9348e7f580e97070bdf4ea5935cb2ead", "fusion_lon": 0.0}, {"rental_uris": {"ios": "https://dc.lft.to/lastmile_qr_scan", "android": "https://dc.lft.to/lastmile_qr_scan"}, "type": "electric_scooter", "name": "4be1f8908d93348278bd38dc11e5c830", "is_reserved": 0, "lon": -77.05333383333334, "is_disabled": 0, "fusion_lat": 0.0, "lat": 38.9023535, "bike_id": "4be1f8908d93348278bd38dc11e5c830", "fusion_lon": 0.0}, {"rental_uris": {"ios": "https://dc.lft.to/lastmile_qr_scan", "android": "https://dc.lft.to/lastmile_qr_scan"}, "type": "electric_scooter", "name": "1b1b3c1f74082d512364c191b3e916e2", "is_reserved": 0, "lon": -77.037388, "is_disabled": 0, "fusion_lat": 0.0, "lat": 38.879949, "bike_id": "1b1b3c1f74082d512364c191b3e916e2", "fusion_lon": 0.0}, {"rental_uris": {"ios": "https://dc.lft.to/lastmile_qr_scan", "android": "https://dc.lft.to/lastmile_qr_scan"}, "type": "electric_scooter", "name": "23c01630341678e7a3980bb1e4c9d070", "is_reserved": 0, "lon": -77.043464, "is_disabled": 0, "fusion_lat": 0.0, "lat": 38.9136945, "bike_id": "23c01630341678e7a3980bb1e4c9d070", "fusion_lon": 0.0}, {"rental_uris": {"ios": "https://dc.lft.to/lastmile_qr_scan", "android": "https://dc.lft.to/lastmile_qr_scan"}, "type": "electric_scooter", "name": "2d7d2d38d91c46a87d5d95a08b349108", "is_reserved": 0, "lon": -77.01583883333333, "is_disabled": 0, "fusion_lat": 0.0, "lat": 38.87646483333333, "bike_id": "2d7d2d38d91c46a87d5d95a08b349108", "fusion_lon": 0.0}, {"rental_uris": {"ios": "https://dc.lft.to/lastmile_qr_scan", "android": "https://dc.lft.to/lastmile_qr_scan"}, "type": "electric_scooter", "name": "1b39e1ee69582faa4b5edf0451bda1be", "is_reserved": 0, "lon": -77.03816516666667, "is_disabled": 0, "fusion_lat": 0.0, "lat": 38.921667, "bike_id": "1b39e1ee69582faa4b5edf0451bda1be", "fusion_lon": 0.0}, {"rental_uris": {"ios": "https://dc.lft.to/lastmile_qr_scan", "android": "https://dc.lft.to/lastmile_qr_scan"}, "type": "electric_scooter", "name": "9496559ef8809d7af7516942afb7fc8c", "is_reserved": 0, "lon": -77.02864116666667, "is_disabled": 0, "fusion_lat": 0.0, "lat": 38.92580983333333, "bike_id": "9496559ef8809d7af7516942afb7fc8c", "fusion_lon": 0.0}, {"rental_uris": {"ios": "https://dc.lft.to/lastmile_qr_scan", "android": "https://dc.lft.to/lastmile_qr_scan"}, "type": "electric_scooter", "name": "78da46719740ca802e97feae3c46a7bc", "is_reserved": 0, "lon": -77.020955, "is_disabled": 0, "fusion_lat": 0.0, "lat": 38.9327425, "bike_id": "78da46719740ca802e97feae3c46a7bc", "fusion_lon": 0.0}, {"rental_uris": {"ios": "https://dc.lft.to/lastmile_qr_scan", "android": "https://dc.lft.to/lastmile_qr_scan"}, "type": "electric_scooter", "name": "911ca1a54bc6de4db98014db61de5050", "is_reserved": 0, "lon": -77.04496766666666, "is_disabled": 0, "fusion_lat": 0.0, "lat": 38.900038333333335, "bike_id": "911ca1a54bc6de4db98014db61de5050", "fusion_lon": 0.0}, {"rental_uris": {"ios": "https://dc.lft.to/lastmile_qr_scan", "android": "https://dc.lft.to/lastmile_qr_scan"}, "type": "electric_bike", "name": "2c6dea64d27108dac3b85a70a7bd7a78", "is_reserved": 0, "lon": -76.98247883333333, "is_disabled": 0, "fusion_lat": 0.0, "lat": 38.952428833333336, "bike_id": "2c6dea64d27108dac3b85a70a7bd7a78", "fusion_lon": 0.0}, {"rental_uris": {"ios": "https://dc.lft.to/lastmile_qr_scan", "android": "https://dc.lft.to/lastmile_qr_scan"}, "type": "electric_scooter", "name": "8aec7fe0979929ee390e705c7e533d13", "is_reserved": 0, "lon": -76.9815575, "is_disabled": 0, "fusion_lat": 0.0, "lat": 38.89936616666667, "bike_id": "8aec7fe0979929ee390e705c7e533d13", "fusion_lon": 0.0}, {"rental_uris": {"ios": "https://dc.lft.to/lastmile_qr_scan", "android": "https://dc.lft.to/lastmile_qr_scan"}, "type": "electric_scooter", "name": "815ec2ac79af0d61e4b95c2cb92b5446", "is_reserved": 0, "lon": -77.02142383333333, "is_disabled": 0, "fusion_lat": 0.0, "lat": 38.903089666666666, "bike_id": "815ec2ac79af0d61e4b95c2cb92b5446", "fusion_lon": 0.0}, {"rental_uris": {"ios": "https://dc.lft.to/lastmile_qr_scan", "android": "https://dc.lft.to/lastmile_qr_scan"}, "type": "electric_bike", "name": "3808a6ddf6b0efa5253e48abe7589d42", "is_reserved": 0, "lon": -76.9802255, "is_disabled": 0, "fusion_lat": 0.0, "lat": 38.85317033333333, "bike_id": "3808a6ddf6b0efa5253e48abe7589d42", "fusion_lon": 0.0}, {"rental_uris": {"ios": "https://dc.lft.to/lastmile_qr_scan", "android": "https://dc.lft.to/lastmile_qr_scan"}, "type": "electric_scooter", "name": "755ba477beefb64be0d7c17d428382ec", "is_reserved": 0, "lon": -77.02292166666666, "is_disabled": 0, "fusion_lat": 0.0, "lat": 38.91664333333333, "bike_id": "755ba477beefb64be0d7c17d428382ec", "fusion_lon": 0.0}, {"rental_uris": {"ios": "https://dc.lft.to/lastmile_qr_scan", "android": "https://dc.lft.to/lastmile_qr_scan"}, "type": "electric_scooter", "name": "4de274881d828dc232a6190a8b293e66", "is_reserved": 0, "lon": -77.04218066666667, "is_disabled": 0, "fusion_lat": 0.0, "lat": 38.92126483333333, "bike_id": "4de274881d828dc232a6190a8b293e66", "fusion_lon": 0.0}, {"rental_uris": {"ios": "https://dc.lft.to/lastmile_qr_scan", "android": "https://dc.lft.to/lastmile_qr_scan"}, "type": "electric_scooter", "name": "0a8ab990045914eb44301d53bee24ef3", "is_reserved": 0, "lon": -77.02965766666667, "is_disabled": 0, "fusion_lat": 0.0, "lat": 38.925187666666666, "bike_id": "0a8ab990045914eb44301d53bee24ef3", "fusion_lon": 0.0}, {"rental_uris": {"ios": "https://dc.lft.to/lastmile_qr_scan", "android": "https://dc.lft.to/lastmile_qr_scan"}, "type": "electric_scooter", "name": "d82143fa5532f9b59e3add3b73e4c7e0", "is_reserved": 0, "lon": -77.00627033333333, "is_disabled": 0, "fusion_lat": 0.0, "lat": 38.87175466666667, "bike_id": "d82143fa5532f9b59e3add3b73e4c7e0", "fusion_lon": 0.0}, {"rental_uris": {"ios": "https://dc.lft.to/lastmile_qr_scan", "android": "https://dc.lft.to/lastmile_qr_scan"}, "type": "electric_scooter", "name": "27595738ef6f7533739b06a4751480bc", "is_reserved": 0, "lon": -77.00519966666667, "is_disabled": 0, "fusion_lat": 0.0, "lat": 38.87658783333333, "bike_id": "27595738ef6f7533739b06a4751480bc", "fusion_lon": 0.0}, {"rental_uris": {"ios": "https://dc.lft.to/lastmile_qr_scan", "android": "https://dc.lft.to/lastmile_qr_scan"}, "type": "electric_scooter", "name": "ea3d32718fa08b85507bab9093d881ca", "is_reserved": 0, "lon": -77.04079016666667, "is_disabled": 0, "fusion_lat": 0.0, "lat": 38.9238905, "bike_id": "ea3d32718fa08b85507bab9093d881ca", "fusion_lon": 0.0}, {"rental_uris": {"ios": "https://dc.lft.to/lastmile_qr_scan", "android": "https://dc.lft.to/lastmile_qr_scan"}, "type": "electric_scooter", "name": "69b5f57aee37a3c710bc55a96464415b", "is_reserved": 0, "lon": -77.03865666666667, "is_disabled": 0, "fusion_lat": 0.0, "lat": 38.92152983333333, "bike_id": "69b5f57aee37a3c710bc55a96464415b", "fusion_lon": 0.0}, {"rental_uris": {"ios": "https://dc.lft.to/lastmile_qr_scan", "android": "https://dc.lft.to/lastmile_qr_scan"}, "type": "electric_scooter", "name": "15ee3aefb4786097d9906474e9956689", "is_reserved": 0, "lon": -76.98033283333334, "is_disabled": 0, "fusion_lat": 0.0, "lat": 38.91679416666667, "bike_id": "15ee3aefb4786097d9906474e9956689", "fusion_lon": 0.0}, {"rental_uris": {"ios": "https://dc.lft.to/lastmile_qr_scan", "android": "https://dc.lft.to/lastmile_qr_scan"}, "type": "electric_scooter", "name": "2425a86eb4f1b206d79cb85a5fcb8efb", "is_reserved": 0, "lon": -77.01738883333333, "is_disabled": 0, "fusion_lat": 0.0, "lat": 38.91243033333333, "bike_id": "2425a86eb4f1b206d79cb85a5fcb8efb", "fusion_lon": 0.0}, {"rental_uris": {"ios": "https://dc.lft.to/lastmile_qr_scan", "android": "https://dc.lft.to/lastmile_qr_scan"}, "type": "electric_scooter", "name": "fc4fccb60762a5e57cc0dd3975b436ae", "is_reserved": 0, "lon": -77.04381, "is_disabled": 0, "fusion_lat": 0.0, "lat": 38.923632833333336, "bike_id": "fc4fccb60762a5e57cc0dd3975b436ae", "fusion_lon": 0.0}, {"rental_uris": {"ios": "https://dc.lft.to/lastmile_qr_scan", "android": "https://dc.lft.to/lastmile_qr_scan"}, "type": "electric_scooter", "name": "5d64977bf2fdb67a806c5063cdf62183", "is_reserved": 0, "lon": -77.00987166666667, "is_disabled": 0, "fusion_lat": 0.0, "lat": 38.872922, "bike_id": "5d64977bf2fdb67a806c5063cdf62183", "fusion_lon": 0.0}, {"rental_uris": {"ios": "https://dc.lft.to/lastmile_qr_scan", "android": "https://dc.lft.to/lastmile_qr_scan"}, "type": "electric_scooter", "name": "5709dfdd9e964814097107f1951dca53", "is_reserved": 0, "lon": -77.04899066666667, "is_disabled": 0, "fusion_lat": 0.0, "lat": 38.91935766666667, "bike_id": "5709dfdd9e964814097107f1951dca53", "fusion_lon": 0.0}, {"rental_uris": {"ios": "https://dc.lft.to/lastmile_qr_scan", "android": "https://dc.lft.to/lastmile_qr_scan"}, "type": "electric_bike", "name": "5df95b4a708a3f66b8a44a96ebeaea0c", "is_reserved": 0, "lon": -76.999975, "is_disabled": 0, "fusion_lat": 0.0, "lat": 38.92393766666667, "bike_id": "5df95b4a708a3f66b8a44a96ebeaea0c", "fusion_lon": 0.0}, {"rental_uris": {"ios": "https://dc.lft.to/lastmile_qr_scan", "android": "https://dc.lft.to/lastmile_qr_scan"}, "type": "electric_scooter", "name": "a349ae33858b3f4abd0522ca333fd0ab", "is_reserved": 0, "lon": -77.040437, "is_disabled": 0, "fusion_lat": 0.0, "lat": 38.89921916666667, "bike_id": "a349ae33858b3f4abd0522ca333fd0ab", "fusion_lon": 0.0}, {"rental_uris": {"ios": "https://dc.lft.to/lastmile_qr_scan", "android": "https://dc.lft.to/lastmile_qr_scan"}, "type": "electric_bike", "name": "3bb11783dfbbaa45d30c955fa2ac6606", "is_reserved": 0, "lon": -76.94164183333334, "is_disabled": 0, "fusion_lat": 0.0, "lat": 38.86554483333333, "bike_id": "3bb11783dfbbaa45d30c955fa2ac6606", "fusion_lon": 0.0}, {"rental_uris": {"ios": "https://dc.lft.to/lastmile_qr_scan", "android": "https://dc.lft.to/lastmile_qr_scan"}, "type": "electric_scooter", "name": "3346be24a41499645ba03b294a692f8a", "is_reserved": 0, "lon": -77.03445433333333, "is_disabled": 0, "fusion_lat": 0.0, "lat": 38.907134166666665, "bike_id": "3346be24a41499645ba03b294a692f8a", "fusion_lon": 0.0}, {"rental_uris": {"ios": "https://dc.lft.to/lastmile_qr_scan", "android": "https://dc.lft.to/lastmile_qr_scan"}, "type": "electric_scooter", "name": "de3ee88e73edbef1fd0d333e2433ffd7", "is_reserved": 0, "lon": -77.0183995, "is_disabled": 0, "fusion_lat": 0.0, "lat": 38.90959483333334, "bike_id": "de3ee88e73edbef1fd0d333e2433ffd7", "fusion_lon": 0.0}, {"rental_uris": {"ios": "https://dc.lft.to/lastmile_qr_scan", "android": "https://dc.lft.to/lastmile_qr_scan"}, "type": "electric_scooter", "name": "c0e807de4d9964cb1970b2d2ab07b9b4", "is_reserved": 0, "lon": -77.03967166666666, "is_disabled": 0, "fusion_lat": 0.0, "lat": 38.90724433333333, "bike_id": "c0e807de4d9964cb1970b2d2ab07b9b4", "fusion_lon": 0.0}, {"rental_uris": {"ios": "https://dc.lft.to/lastmile_qr_scan", "android": "https://dc.lft.to/lastmile_qr_scan"}, "type": "electric_scooter", "name": "b864ffd3ca07de57eb83bd4b9669b76c", "is_reserved": 0, "lon": -77.0215275, "is_disabled": 0, "fusion_lat": 0.0, "lat": 38.887486833333334, "bike_id": "b864ffd3ca07de57eb83bd4b9669b76c", "fusion_lon": 0.0}, {"rental_uris": {"ios": "https://dc.lft.to/lastmile_qr_scan", "android": "https://dc.lft.to/lastmile_qr_scan"}, "type": "electric_scooter", "name": "1728c0bc8e15866cd7277171a5e31208", "is_reserved": 0, "lon": -77.0417335, "is_disabled": 0, "fusion_lat": 0.0, "lat": 38.919403333333335, "bike_id": "1728c0bc8e15866cd7277171a5e31208", "fusion_lon": 0.0}, {"rental_uris": {"ios": "https://dc.lft.to/lastmile_qr_scan", "android": "https://dc.lft.to/lastmile_qr_scan"}, "type": "electric_scooter", "name": "9087f24264f86f5ca3076f446f3efb93", "is_reserved": 0, "lon": -77.00311066666667, "is_disabled": 0, "fusion_lat": 0.0, "lat": 38.90735083333333, "bike_id": "9087f24264f86f5ca3076f446f3efb93", "fusion_lon": 0.0}, {"rental_uris": {"ios": "https://dc.lft.to/lastmile_qr_scan", "android": "https://dc.lft.to/lastmile_qr_scan"}, "type": "electric_scooter", "name": "4f6f542af3b0d1ace695967109e57896", "is_reserved": 0, "lon": -77.0486545, "is_disabled": 0, "fusion_lat": 0.0, "lat": 38.91275733333333, "bike_id": "4f6f542af3b0d1ace695967109e57896", "fusion_lon": 0.0}, {"rental_uris": {"ios": "https://dc.lft.to/lastmile_qr_scan", "android": "https://dc.lft.to/lastmile_qr_scan"}, "type": "electric_scooter", "name": "486bfce53896a37742d056d90dfb691d", "is_reserved": 0, "lon": -77.02051183333333, "is_disabled": 0, "fusion_lat": 0.0, "lat": 38.92923866666667, "bike_id": "486bfce53896a37742d056d90dfb691d", "fusion_lon": 0.0}, {"rental_uris": {"ios": "https://dc.lft.to/lastmile_qr_scan", "android": "https://dc.lft.to/lastmile_qr_scan"}, "type": "electric_scooter", "name": "da30b462efeacff51667a18b8a718540", "is_reserved": 0, "lon": -77.0024485, "is_disabled": 0, "fusion_lat": 0.0, "lat": 38.90033566666666, "bike_id": "da30b462efeacff51667a18b8a718540", "fusion_lon": 0.0}, {"rental_uris": {"ios": "https://dc.lft.to/lastmile_qr_scan", "android": "https://dc.lft.to/lastmile_qr_scan"}, "type": "electric_scooter", "name": "593b39257d4691073338630d902aad18", "is_reserved": 0, "lon": -77.02534083333333, "is_disabled": 0, "fusion_lat": 0.0, "lat": 38.9453325, "bike_id": "593b39257d4691073338630d902aad18", "fusion_lon": 0.0}, {"rental_uris": {"ios": "https://dc.lft.to/lastmile_qr_scan", "android": "https://dc.lft.to/lastmile_qr_scan"}, "type": "electric_scooter", "name": "4888b251689dc373c5f100ca635b3ee8", "is_reserved": 0, "lon": -77.03468283333333, "is_disabled": 0, "fusion_lat": 0.0, "lat": 38.9118465, "bike_id": "4888b251689dc373c5f100ca635b3ee8", "fusion_lon": 0.0}, {"rental_uris": {"ios": "https://dc.lft.to/lastmile_qr_scan", "android": "https://dc.lft.to/lastmile_qr_scan"}, "type": "electric_bike", "name": "9c5c250bbc82d832a574c621c6470d88", "is_reserved": 0, "lon": -77.00540816666667, "is_disabled": 0, "fusion_lat": 0.0, "lat": 38.82445966666667, "bike_id": "9c5c250bbc82d832a574c621c6470d88", "fusion_lon": 0.0}, {"rental_uris": {"ios": "https://dc.lft.to/lastmile_qr_scan", "android": "https://dc.lft.to/lastmile_qr_scan"}, "type": "electric_scooter", "name": "4cd711fdae34925e9fbdc45d19cc07a5", "is_reserved": 0, "lon": -76.98900083333334, "is_disabled": 0, "fusion_lat": 0.0, "lat": 38.906508333333335, "bike_id": "4cd711fdae34925e9fbdc45d19cc07a5", "fusion_lon": 0.0}, {"rental_uris": {"ios": "https://dc.lft.to/lastmile_qr_scan", "android": "https://dc.lft.to/lastmile_qr_scan"}, "type": "electric_scooter", "name": "6d9c08b1f52b5672fa16f924678f7465", "is_reserved": 0, "lon": -77.05436416666667, "is_disabled": 0, "fusion_lat": 0.0, "lat": 38.92842366666667, "bike_id": "6d9c08b1f52b5672fa16f924678f7465", "fusion_lon": 0.0}, {"rental_uris": {"ios": "https://dc.lft.to/lastmile_qr_scan", "android": "https://dc.lft.to/lastmile_qr_scan"}, "type": "electric_scooter", "name": "3e1dd3c70ddda24fe840eb5d0e1a3072", "is_reserved": 0, "lon": -77.0231755, "is_disabled": 0, "fusion_lat": 0.0, "lat": 38.92078333333333, "bike_id": "3e1dd3c70ddda24fe840eb5d0e1a3072", "fusion_lon": 0.0}, {"rental_uris": {"ios": "https://dc.lft.to/lastmile_qr_scan", "android": "https://dc.lft.to/lastmile_qr_scan"}, "type": "electric_scooter", "name": "6dd48eb18882843ca32ba565cc247edf", "is_reserved": 0, "lon": -77.02678733333333, "is_disabled": 0, "fusion_lat": 0.0, "lat": 38.92482583333334, "bike_id": "6dd48eb18882843ca32ba565cc247edf", "fusion_lon": 0.0}, {"rental_uris": {"ios": "https://dc.lft.to/lastmile_qr_scan", "android": "https://dc.lft.to/lastmile_qr_scan"}, "type": "electric_scooter", "name": "d21c28474900e844c826758e44b34343", "is_reserved": 0, "lon": -76.95742466666667, "is_disabled": 0, "fusion_lat": 0.0, "lat": 38.88393266666667, "bike_id": "d21c28474900e844c826758e44b34343", "fusion_lon": 0.0}, {"rental_uris": {"ios": "https://dc.lft.to/lastmile_qr_scan", "android": "https://dc.lft.to/lastmile_qr_scan"}, "type": "electric_scooter", "name": "7602022a321a32baaf3f8402480f17d4", "is_reserved": 0, "lon": -77.033804, "is_disabled": 0, "fusion_lat": 0.0, "lat": 38.92463466666667, "bike_id": "7602022a321a32baaf3f8402480f17d4", "fusion_lon": 0.0}, {"rental_uris": {"ios": "https://dc.lft.to/lastmile_qr_scan", "android": "https://dc.lft.to/lastmile_qr_scan"}, "type": "electric_scooter", "name": "f4fe8b298ecd6ea8555a8b6ddd8b6b85", "is_reserved": 0, "lon": -77.03464333333334, "is_disabled": 0, "fusion_lat": 0.0, "lat": 38.90559016666667, "bike_id": "f4fe8b298ecd6ea8555a8b6ddd8b6b85", "fusion_lon": 0.0}, {"rental_uris": {"ios": "https://dc.lft.to/lastmile_qr_scan", "android": "https://dc.lft.to/lastmile_qr_scan"}, "type": "electric_scooter", "name": "26cf0374b45305752fee4f51e507086f", "is_reserved": 0, "lon": -77.04896916666667, "is_disabled": 0, "fusion_lat": 0.0, "lat": 38.919365666666664, "bike_id": "26cf0374b45305752fee4f51e507086f", "fusion_lon": 0.0}, {"rental_uris": {"ios": "https://dc.lft.to/lastmile_qr_scan", "android": "https://dc.lft.to/lastmile_qr_scan"}, "type": "electric_scooter", "name": "6fd80a6ec5dd5b2ac5233bcfb8fbd5f2", "is_reserved": 0, "lon": -77.026606, "is_disabled": 0, "fusion_lat": 0.0, "lat": 38.924874833333334, "bike_id": "6fd80a6ec5dd5b2ac5233bcfb8fbd5f2", "fusion_lon": 0.0}, {"rental_uris": {"ios": "https://dc.lft.to/lastmile_qr_scan", "android": "https://dc.lft.to/lastmile_qr_scan"}, "type": "electric_scooter", "name": "7d3dd1eb586c92f55c1410cc1ee57800", "is_reserved": 0, "lon": -77.04181833333334, "is_disabled": 0, "fusion_lat": 0.0, "lat": 38.9141165, "bike_id": "7d3dd1eb586c92f55c1410cc1ee57800", "fusion_lon": 0.0}, {"rental_uris": {"ios": "https://dc.lft.to/lastmile_qr_scan", "android": "https://dc.lft.to/lastmile_qr_scan"}, "type": "electric_scooter", "name": "0f31ca72a2b4b3b0d1a6f5eea5e2471a", "is_reserved": 0, "lon": -77.0405015, "is_disabled": 0, "fusion_lat": 0.0, "lat": 38.93011666666666, "bike_id": "0f31ca72a2b4b3b0d1a6f5eea5e2471a", "fusion_lon": 0.0}, {"rental_uris": {"ios": "https://dc.lft.to/lastmile_qr_scan", "android": "https://dc.lft.to/lastmile_qr_scan"}, "type": "electric_scooter", "name": "71e2903059722b8a851bf88c5cdadd01", "is_reserved": 0, "lon": -77.068939, "is_disabled": 0, "fusion_lat": 0.0, "lat": 38.90769733333333, "bike_id": "71e2903059722b8a851bf88c5cdadd01", "fusion_lon": 0.0}, {"rental_uris": {"ios": "https://dc.lft.to/lastmile_qr_scan", "android": "https://dc.lft.to/lastmile_qr_scan"}, "type": "electric_scooter", "name": "03e2e1fbcd0a5efcd3aff6783a5c193f", "is_reserved": 0, "lon": -77.01028416666666, "is_disabled": 0, "fusion_lat": 0.0, "lat": 38.906565666666665, "bike_id": "03e2e1fbcd0a5efcd3aff6783a5c193f", "fusion_lon": 0.0}, {"rental_uris": {"ios": "https://dc.lft.to/lastmile_qr_scan", "android": "https://dc.lft.to/lastmile_qr_scan"}, "type": "electric_bike", "name": "5f0c283c57c15acb473214907e3c9b10", "is_reserved": 0, "lon": -77.11355066666667, "is_disabled": 0, "fusion_lat": 0.0, "lat": 38.841961, "bike_id": "5f0c283c57c15acb473214907e3c9b10", "fusion_lon": 0.0}, {"rental_uris": {"ios": "https://dc.lft.to/lastmile_qr_scan", "android": "https://dc.lft.to/lastmile_qr_scan"}, "type": "electric_scooter", "name": "66812ffe653754081453db65b6079294", "is_reserved": 0, "lon": -77.0327415, "is_disabled": 0, "fusion_lat": 0.0, "lat": 38.93254533333333, "bike_id": "66812ffe653754081453db65b6079294", "fusion_lon": 0.0}, {"rental_uris": {"ios": "https://dc.lft.to/lastmile_qr_scan", "android": "https://dc.lft.to/lastmile_qr_scan"}, "type": "electric_scooter", "name": "af1e1b13d24e2a52d4578cf5a4161533", "is_reserved": 0, "lon": -77.035575, "is_disabled": 0, "fusion_lat": 0.0, "lat": 38.90870433333333, "bike_id": "af1e1b13d24e2a52d4578cf5a4161533", "fusion_lon": 0.0}, {"rental_uris": {"ios": "https://dc.lft.to/lastmile_qr_scan", "android": "https://dc.lft.to/lastmile_qr_scan"}, "type": "electric_scooter", "name": "b583c5472726a59ff2e7d3708b52481b", "is_reserved": 0, "lon": -76.9737535, "is_disabled": 0, "fusion_lat": 0.0, "lat": 38.85005866666667, "bike_id": "b583c5472726a59ff2e7d3708b52481b", "fusion_lon": 0.0}, {"rental_uris": {"ios": "https://dc.lft.to/lastmile_qr_scan", "android": "https://dc.lft.to/lastmile_qr_scan"}, "type": "electric_scooter", "name": "576cba9d731c4d735e9ecbcef23663d4", "is_reserved": 0, "lon": -77.01774783333333, "is_disabled": 0, "fusion_lat": 0.0, "lat": 38.9003285, "bike_id": "576cba9d731c4d735e9ecbcef23663d4", "fusion_lon": 0.0}, {"rental_uris": {"ios": "https://dc.lft.to/lastmile_qr_scan", "android": "https://dc.lft.to/lastmile_qr_scan"}, "type": "electric_scooter", "name": "9d98c7a85e64f3245d411eba70cd93bf", "is_reserved": 0, "lon": -77.01890533333334, "is_disabled": 0, "fusion_lat": 0.0, "lat": 38.91327616666667, "bike_id": "9d98c7a85e64f3245d411eba70cd93bf", "fusion_lon": 0.0}, {"rental_uris": {"ios": "https://dc.lft.to/lastmile_qr_scan", "android": "https://dc.lft.to/lastmile_qr_scan"}, "type": "electric_scooter", "name": "931c7549e07017c6a846cb68008222bf", "is_reserved": 0, "lon": -76.99350583333333, "is_disabled": 0, "fusion_lat": 0.0, "lat": 38.8769095, "bike_id": "931c7549e07017c6a846cb68008222bf", "fusion_lon": 0.0}, {"rental_uris": {"ios": "https://dc.lft.to/lastmile_qr_scan", "android": "https://dc.lft.to/lastmile_qr_scan"}, "type": "electric_scooter", "name": "a206e576bf1e6d12deb56cb7984e6092", "is_reserved": 0, "lon": -77.03450733333334, "is_disabled": 0, "fusion_lat": 0.0, "lat": 38.907098, "bike_id": "a206e576bf1e6d12deb56cb7984e6092", "fusion_lon": 0.0}, {"rental_uris": {"ios": "https://dc.lft.to/lastmile_qr_scan", "android": "https://dc.lft.to/lastmile_qr_scan"}, "type": "electric_scooter", "name": "b6de04b6e5b284e764e222a3dbb32b09", "is_reserved": 0, "lon": -77.01767583333333, "is_disabled": 0, "fusion_lat": 0.0, "lat": 38.876859333333336, "bike_id": "b6de04b6e5b284e764e222a3dbb32b09", "fusion_lon": 0.0}, {"rental_uris": {"ios": "https://dc.lft.to/lastmile_qr_scan", "android": "https://dc.lft.to/lastmile_qr_scan"}, "type": "electric_scooter", "name": "28ce0cc2386e3c8e545e16cd563a44de", "is_reserved": 0, "lon": -77.07451883333333, "is_disabled": 0, "fusion_lat": 0.0, "lat": 38.937821666666665, "bike_id": "28ce0cc2386e3c8e545e16cd563a44de", "fusion_lon": 0.0}, {"rental_uris": {"ios": "https://dc.lft.to/lastmile_qr_scan", "android": "https://dc.lft.to/lastmile_qr_scan"}, "type": "electric_bike", "name": "bbfe5dcef619601336173aaff360c18a", "is_reserved": 0, "lon": -77.04318916666666, "is_disabled": 0, "fusion_lat": 0.0, "lat": 39.03422533333333, "bike_id": "bbfe5dcef619601336173aaff360c18a", "fusion_lon": 0.0}, {"rental_uris": {"ios": "https://dc.lft.to/lastmile_qr_scan", "android": "https://dc.lft.to/lastmile_qr_scan"}, "type": "electric_scooter", "name": "364b58b9c2a9026f1e818cf872b3a43f", "is_reserved": 0, "lon": -76.99703866666667, "is_disabled": 0, "fusion_lat": 0.0, "lat": 38.90025116666666, "bike_id": "364b58b9c2a9026f1e818cf872b3a43f", "fusion_lon": 0.0}, {"rental_uris": {"ios": "https://dc.lft.to/lastmile_qr_scan", "android": "https://dc.lft.to/lastmile_qr_scan"}, "type": "electric_scooter", "name": "191b61468d3f03509932c4bc87e17a0e", "is_reserved": 0, "lon": -77.00515333333334, "is_disabled": 0, "fusion_lat": 0.0, "lat": 38.879201333333334, "bike_id": "191b61468d3f03509932c4bc87e17a0e", "fusion_lon": 0.0}, {"rental_uris": {"ios": "https://dc.lft.to/lastmile_qr_scan", "android": "https://dc.lft.to/lastmile_qr_scan"}, "type": "electric_scooter", "name": "736f03c4bf3756599434a2a5f91ca747", "is_reserved": 0, "lon": -77.06138816666666, "is_disabled": 0, "fusion_lat": 0.0, "lat": 38.90849083333333, "bike_id": "736f03c4bf3756599434a2a5f91ca747", "fusion_lon": 0.0}, {"rental_uris": {"ios": "https://dc.lft.to/lastmile_qr_scan", "android": "https://dc.lft.to/lastmile_qr_scan"}, "type": "electric_scooter", "name": "557f4925bc737127bafad9d4158fa065", "is_reserved": 0, "lon": -77.008215, "is_disabled": 0, "fusion_lat": 0.0, "lat": 38.913699666666666, "bike_id": "557f4925bc737127bafad9d4158fa065", "fusion_lon": 0.0}, {"rental_uris": {"ios": "https://dc.lft.to/lastmile_qr_scan", "android": "https://dc.lft.to/lastmile_qr_scan"}, "type": "electric_scooter", "name": "95a53207f4de831829cea6dbcaf273da", "is_reserved": 0, "lon": -77.02612866666666, "is_disabled": 0, "fusion_lat": 0.0, "lat": 38.8809795, "bike_id": "95a53207f4de831829cea6dbcaf273da", "fusion_lon": 0.0}, {"rental_uris": {"ios": "https://dc.lft.to/lastmile_qr_scan", "android": "https://dc.lft.to/lastmile_qr_scan"}, "type": "electric_scooter", "name": "39a6f8de5ab2fac9426556652f7b3fc8", "is_reserved": 0, "lon": -77.04346366666667, "is_disabled": 0, "fusion_lat": 0.0, "lat": 38.922307833333335, "bike_id": "39a6f8de5ab2fac9426556652f7b3fc8", "fusion_lon": 0.0}, {"rental_uris": {"ios": "https://dc.lft.to/lastmile_qr_scan", "android": "https://dc.lft.to/lastmile_qr_scan"}, "type": "electric_scooter", "name": "93a9784d219ca375e06210bdf25e21e7", "is_reserved": 0, "lon": -77.026215, "is_disabled": 0, "fusion_lat": 0.0, "lat": 38.90388166666666, "bike_id": "93a9784d219ca375e06210bdf25e21e7", "fusion_lon": 0.0}, {"rental_uris": {"ios": "https://dc.lft.to/lastmile_qr_scan", "android": "https://dc.lft.to/lastmile_qr_scan"}, "type": "electric_scooter", "name": "392863a5713953002c26af0e9391196a", "is_reserved": 0, "lon": -77.03427233333333, "is_disabled": 0, "fusion_lat": 0.0, "lat": 38.900948166666666, "bike_id": "392863a5713953002c26af0e9391196a", "fusion_lon": 0.0}, {"rental_uris": {"ios": "https://dc.lft.to/lastmile_qr_scan", "android": "https://dc.lft.to/lastmile_qr_scan"}, "type": "electric_scooter", "name": "725574afb3bf00ab8e2408f44a3c25ac", "is_reserved": 0, "lon": -77.0475975, "is_disabled": 0, "fusion_lat": 0.0, "lat": 38.941014833333334, "bike_id": "725574afb3bf00ab8e2408f44a3c25ac", "fusion_lon": 0.0}, {"rental_uris": {"ios": "https://dc.lft.to/lastmile_qr_scan", "android": "https://dc.lft.to/lastmile_qr_scan"}, "type": "electric_scooter", "name": "053735d81e674123c409e881270e7fe4", "is_reserved": 0, "lon": -77.04883016666666, "is_disabled": 0, "fusion_lat": 0.0, "lat": 38.90065283333333, "bike_id": "053735d81e674123c409e881270e7fe4", "fusion_lon": 0.0}, {"rental_uris": {"ios": "https://dc.lft.to/lastmile_qr_scan", "android": "https://dc.lft.to/lastmile_qr_scan"}, "type": "electric_scooter", "name": "03126f2cc4303a663f09ee122b350074", "is_reserved": 0, "lon": -77.01227633333333, "is_disabled": 0, "fusion_lat": 0.0, "lat": 38.86723466666667, "bike_id": "03126f2cc4303a663f09ee122b350074", "fusion_lon": 0.0}, {"rental_uris": {"ios": "https://dc.lft.to/lastmile_qr_scan", "android": "https://dc.lft.to/lastmile_qr_scan"}, "type": "electric_scooter", "name": "28d1a2bf926fba752ad9fc30d52d3779", "is_reserved": 0, "lon": -77.03843633333334, "is_disabled": 0, "fusion_lat": 0.0, "lat": 38.907253833333336, "bike_id": "28d1a2bf926fba752ad9fc30d52d3779", "fusion_lon": 0.0}, {"rental_uris": {"ios": "https://dc.lft.to/lastmile_qr_scan", "android": "https://dc.lft.to/lastmile_qr_scan"}, "type": "electric_scooter", "name": "626a10930b22a69900f328b0b5e973dc", "is_reserved": 0, "lon": -76.99912283333333, "is_disabled": 0, "fusion_lat": 0.0, "lat": 38.924610333333334, "bike_id": "626a10930b22a69900f328b0b5e973dc", "fusion_lon": 0.0}, {"rental_uris": {"ios": "https://dc.lft.to/lastmile_qr_scan", "android": "https://dc.lft.to/lastmile_qr_scan"}, "type": "electric_scooter", "name": "26bad6389fbf3d2317821a68e198b4aa", "is_reserved": 0, "lon": -76.99235383333334, "is_disabled": 0, "fusion_lat": 0.0, "lat": 38.887531333333335, "bike_id": "26bad6389fbf3d2317821a68e198b4aa", "fusion_lon": 0.0}, {"rental_uris": {"ios": "https://dc.lft.to/lastmile_qr_scan", "android": "https://dc.lft.to/lastmile_qr_scan"}, "type": "electric_bike", "name": "23edd4dbfe43f4b88179d1cb25a32442", "is_reserved": 0, "lon": -76.90737633333333, "is_disabled": 0, "fusion_lat": 0.0, "lat": 38.89622333333333, "bike_id": "23edd4dbfe43f4b88179d1cb25a32442", "fusion_lon": 0.0}, {"rental_uris": {"ios": "https://dc.lft.to/lastmile_qr_scan", "android": "https://dc.lft.to/lastmile_qr_scan"}, "type": "electric_scooter", "name": "c045ba28e3813314bc5c5ccc9d00ddce", "is_reserved": 0, "lon": -77.0320115, "is_disabled": 0, "fusion_lat": 0.0, "lat": 38.884723, "bike_id": "c045ba28e3813314bc5c5ccc9d00ddce", "fusion_lon": 0.0}, {"rental_uris": {"ios": "https://dc.lft.to/lastmile_qr_scan", "android": "https://dc.lft.to/lastmile_qr_scan"}, "type": "electric_scooter", "name": "1ef14ac74c0a4c60574c4317d9df4383", "is_reserved": 0, "lon": -77.0487895, "is_disabled": 0, "fusion_lat": 0.0, "lat": 38.9161005, "bike_id": "1ef14ac74c0a4c60574c4317d9df4383", "fusion_lon": 0.0}, {"rental_uris": {"ios": "https://dc.lft.to/lastmile_qr_scan", "android": "https://dc.lft.to/lastmile_qr_scan"}, "type": "electric_scooter", "name": "d9d6d9654818cef325aa49e97ac664f6", "is_reserved": 0, "lon": -77.0295715, "is_disabled": 0, "fusion_lat": 0.0, "lat": 38.9168055, "bike_id": "d9d6d9654818cef325aa49e97ac664f6", "fusion_lon": 0.0}, {"rental_uris": {"ios": "https://dc.lft.to/lastmile_qr_scan", "android": "https://dc.lft.to/lastmile_qr_scan"}, "type": "electric_scooter", "name": "0ecde047020517a617c4c8258cb1c7d7", "is_reserved": 0, "lon": -77.0211315, "is_disabled": 0, "fusion_lat": 0.0, "lat": 38.906073666666664, "bike_id": "0ecde047020517a617c4c8258cb1c7d7", "fusion_lon": 0.0}, {"rental_uris": {"ios": "https://dc.lft.to/lastmile_qr_scan", "android": "https://dc.lft.to/lastmile_qr_scan"}, "type": "electric_scooter", "name": "ec28849d84cc3c9425f489c9c48598ff", "is_reserved": 0, "lon": -76.99804566666667, "is_disabled": 0, "fusion_lat": 0.0, "lat": 38.921655333333334, "bike_id": "ec28849d84cc3c9425f489c9c48598ff", "fusion_lon": 0.0}, {"rental_uris": {"ios": "https://dc.lft.to/lastmile_qr_scan", "android": "https://dc.lft.to/lastmile_qr_scan"}, "type": "electric_scooter", "name": "68f526ffeff88c14c6bc0cbbaad832f8", "is_reserved": 0, "lon": -77.03222366666667, "is_disabled": 0, "fusion_lat": 0.0, "lat": 38.89224166666666, "bike_id": "68f526ffeff88c14c6bc0cbbaad832f8", "fusion_lon": 0.0}, {"rental_uris": {"ios": "https://dc.lft.to/lastmile_qr_scan", "android": "https://dc.lft.to/lastmile_qr_scan"}, "type": "electric_scooter", "name": "0416243961ac50c9c207a9375b0dab35", "is_reserved": 0, "lon": -77.023887, "is_disabled": 0, "fusion_lat": 0.0, "lat": 38.92079016666667, "bike_id": "0416243961ac50c9c207a9375b0dab35", "fusion_lon": 0.0}, {"rental_uris": {"ios": "https://dc.lft.to/lastmile_qr_scan", "android": "https://dc.lft.to/lastmile_qr_scan"}, "type": "electric_scooter", "name": "7b6bbc5cfdf74e4c71fc50150e2e3491", "is_reserved": 0, "lon": -76.98837966666666, "is_disabled": 0, "fusion_lat": 0.0, "lat": 38.8429505, "bike_id": "7b6bbc5cfdf74e4c71fc50150e2e3491", "fusion_lon": 0.0}, {"rental_uris": {"ios": "https://dc.lft.to/lastmile_qr_scan", "android": "https://dc.lft.to/lastmile_qr_scan"}, "type": "electric_scooter", "name": "2517a65a165730da2786eee4d788b5e9", "is_reserved": 0, "lon": -77.02153333333334, "is_disabled": 0, "fusion_lat": 0.0, "lat": 38.887460833333336, "bike_id": "2517a65a165730da2786eee4d788b5e9", "fusion_lon": 0.0}, {"rental_uris": {"ios": "https://dc.lft.to/lastmile_qr_scan", "android": "https://dc.lft.to/lastmile_qr_scan"}, "type": "electric_scooter", "name": "75762b0e00c9851de836d3dc49a6755e", "is_reserved": 0, "lon": -77.03154383333333, "is_disabled": 0, "fusion_lat": 0.0, "lat": 38.90956166666667, "bike_id": "75762b0e00c9851de836d3dc49a6755e", "fusion_lon": 0.0}, {"rental_uris": {"ios": "https://dc.lft.to/lastmile_qr_scan", "android": "https://dc.lft.to/lastmile_qr_scan"}, "type": "electric_scooter", "name": "c37fe06f8a69faf75730224ba616cb03", "is_reserved": 0, "lon": -77.04667216666667, "is_disabled": 0, "fusion_lat": 0.0, "lat": 38.909486666666666, "bike_id": "c37fe06f8a69faf75730224ba616cb03", "fusion_lon": 0.0}, {"rental_uris": {"ios": "https://dc.lft.to/lastmile_qr_scan", "android": "https://dc.lft.to/lastmile_qr_scan"}, "type": "electric_scooter", "name": "be69aca8965caf7897d02bd6018ad458", "is_reserved": 0, "lon": -77.03205333333334, "is_disabled": 0, "fusion_lat": 0.0, "lat": 38.9046905, "bike_id": "be69aca8965caf7897d02bd6018ad458", "fusion_lon": 0.0}, {"rental_uris": {"ios": "https://dc.lft.to/lastmile_qr_scan", "android": "https://dc.lft.to/lastmile_qr_scan"}, "type": "electric_scooter", "name": "46b94d3fe33046b7c085e2704d06ddd3", "is_reserved": 0, "lon": -77.02199933333333, "is_disabled": 0, "fusion_lat": 0.0, "lat": 38.9112425, "bike_id": "46b94d3fe33046b7c085e2704d06ddd3", "fusion_lon": 0.0}, {"rental_uris": {"ios": "https://dc.lft.to/lastmile_qr_scan", "android": "https://dc.lft.to/lastmile_qr_scan"}, "type": "electric_scooter", "name": "45862214d92d78b34ddee1c4bd39a295", "is_reserved": 0, "lon": -77.02416716666667, "is_disabled": 0, "fusion_lat": 0.0, "lat": 38.935531833333336, "bike_id": "45862214d92d78b34ddee1c4bd39a295", "fusion_lon": 0.0}, {"rental_uris": {"ios": "https://dc.lft.to/lastmile_qr_scan", "android": "https://dc.lft.to/lastmile_qr_scan"}, "type": "electric_bike", "name": "79f59c77dfd16b9120ca2857cb379ff2", "is_reserved": 0, "lon": -77.034447, "is_disabled": 0, "fusion_lat": 0.0, "lat": 38.9285935, "bike_id": "79f59c77dfd16b9120ca2857cb379ff2", "fusion_lon": 0.0}, {"rental_uris": {"ios": "https://dc.lft.to/lastmile_qr_scan", "android": "https://dc.lft.to/lastmile_qr_scan"}, "type": "electric_scooter", "name": "79bd030324ee7c6b0cdeaf59d7f88d4f", "is_reserved": 0, "lon": -77.02198366666667, "is_disabled": 0, "fusion_lat": 0.0, "lat": 38.911319, "bike_id": "79bd030324ee7c6b0cdeaf59d7f88d4f", "fusion_lon": 0.0}, {"rental_uris": {"ios": "https://dc.lft.to/lastmile_qr_scan", "android": "https://dc.lft.to/lastmile_qr_scan"}, "type": "electric_scooter", "name": "c9182405e28686ed1dfb07cf8af2a75d", "is_reserved": 0, "lon": -77.02838983333334, "is_disabled": 0, "fusion_lat": 0.0, "lat": 38.89224866666667, "bike_id": "c9182405e28686ed1dfb07cf8af2a75d", "fusion_lon": 0.0}, {"rental_uris": {"ios": "https://dc.lft.to/lastmile_qr_scan", "android": "https://dc.lft.to/lastmile_qr_scan"}, "type": "electric_scooter", "name": "b9a76e869bb3b6398faf1ad992441b00", "is_reserved": 0, "lon": -76.99473566666667, "is_disabled": 0, "fusion_lat": 0.0, "lat": 38.862149333333335, "bike_id": "b9a76e869bb3b6398faf1ad992441b00", "fusion_lon": 0.0}, {"rental_uris": {"ios": "https://dc.lft.to/lastmile_qr_scan", "android": "https://dc.lft.to/lastmile_qr_scan"}, "type": "electric_scooter", "name": "aaf73d2f007b718ec92c3830fe0c9d51", "is_reserved": 0, "lon": -76.99034066666667, "is_disabled": 0, "fusion_lat": 0.0, "lat": 38.8985185, "bike_id": "aaf73d2f007b718ec92c3830fe0c9d51", "fusion_lon": 0.0}, {"rental_uris": {"ios": "https://dc.lft.to/lastmile_qr_scan", "android": "https://dc.lft.to/lastmile_qr_scan"}, "type": "electric_scooter", "name": "ef45fa590400ab514f1acbf9ed560c5b", "is_reserved": 0, "lon": -77.01775333333333, "is_disabled": 0, "fusion_lat": 0.0, "lat": 38.921081, "bike_id": "ef45fa590400ab514f1acbf9ed560c5b", "fusion_lon": 0.0}, {"rental_uris": {"ios": "https://dc.lft.to/lastmile_qr_scan", "android": "https://dc.lft.to/lastmile_qr_scan"}, "type": "electric_scooter", "name": "4490be1335205a31fe9a4aa71f6f3db1", "is_reserved": 0, "lon": -77.06473133333333, "is_disabled": 0, "fusion_lat": 0.0, "lat": 38.9269605, "bike_id": "4490be1335205a31fe9a4aa71f6f3db1", "fusion_lon": 0.0}, {"rental_uris": {"ios": "https://dc.lft.to/lastmile_qr_scan", "android": "https://dc.lft.to/lastmile_qr_scan"}, "type": "electric_scooter", "name": "14363cf64ed6ab75091c27217dfcd37c", "is_reserved": 0, "lon": -76.99865, "is_disabled": 0, "fusion_lat": 0.0, "lat": 38.90020233333333, "bike_id": "14363cf64ed6ab75091c27217dfcd37c", "fusion_lon": 0.0}, {"rental_uris": {"ios": "https://dc.lft.to/lastmile_qr_scan", "android": "https://dc.lft.to/lastmile_qr_scan"}, "type": "electric_scooter", "name": "9842e3c1769b1241ccbd4c86c229505d", "is_reserved": 0, "lon": -77.010198, "is_disabled": 0, "fusion_lat": 0.0, "lat": 38.91409133333333, "bike_id": "9842e3c1769b1241ccbd4c86c229505d", "fusion_lon": 0.0}, {"rental_uris": {"ios": "https://dc.lft.to/lastmile_qr_scan", "android": "https://dc.lft.to/lastmile_qr_scan"}, "type": "electric_scooter", "name": "d716e2244830762677ab81f4586b708f", "is_reserved": 0, "lon": -76.99380366666666, "is_disabled": 0, "fusion_lat": 0.0, "lat": 38.8934205, "bike_id": "d716e2244830762677ab81f4586b708f", "fusion_lon": 0.0}, {"rental_uris": {"ios": "https://dc.lft.to/lastmile_qr_scan", "android": "https://dc.lft.to/lastmile_qr_scan"}, "type": "electric_scooter", "name": "be9f8733cc6b00923f8b027340ead888", "is_reserved": 0, "lon": -77.0233955, "is_disabled": 0, "fusion_lat": 0.0, "lat": 38.916722666666665, "bike_id": "be9f8733cc6b00923f8b027340ead888", "fusion_lon": 0.0}, {"rental_uris": {"ios": "https://dc.lft.to/lastmile_qr_scan", "android": "https://dc.lft.to/lastmile_qr_scan"}, "type": "electric_scooter", "name": "45f3a983ab8a8016199a06063219374b", "is_reserved": 0, "lon": -76.984591, "is_disabled": 0, "fusion_lat": 0.0, "lat": 38.90016583333333, "bike_id": "45f3a983ab8a8016199a06063219374b", "fusion_lon": 0.0}, {"rental_uris": {"ios": "https://dc.lft.to/lastmile_qr_scan", "android": "https://dc.lft.to/lastmile_qr_scan"}, "type": "electric_scooter", "name": "3c461feecc5fb32989916130fae1f20d", "is_reserved": 0, "lon": -77.04531816666666, "is_disabled": 0, "fusion_lat": 0.0, "lat": 38.91117883333333, "bike_id": "3c461feecc5fb32989916130fae1f20d", "fusion_lon": 0.0}, {"rental_uris": {"ios": "https://dc.lft.to/lastmile_qr_scan", "android": "https://dc.lft.to/lastmile_qr_scan"}, "type": "electric_scooter", "name": "72ae4a7976156c1abed46353f5ecd1f9", "is_reserved": 0, "lon": -76.9916035, "is_disabled": 0, "fusion_lat": 0.0, "lat": 38.88814466666667, "bike_id": "72ae4a7976156c1abed46353f5ecd1f9", "fusion_lon": 0.0}, {"rental_uris": {"ios": "https://dc.lft.to/lastmile_qr_scan", "android": "https://dc.lft.to/lastmile_qr_scan"}, "type": "electric_scooter", "name": "7b45e5458449e4d76798b9b8ed6c1f52", "is_reserved": 0, "lon": -77.00021766666667, "is_disabled": 0, "fusion_lat": 0.0, "lat": 38.87433216666667, "bike_id": "7b45e5458449e4d76798b9b8ed6c1f52", "fusion_lon": 0.0}, {"rental_uris": {"ios": "https://dc.lft.to/lastmile_qr_scan", "android": "https://dc.lft.to/lastmile_qr_scan"}, "type": "electric_scooter", "name": "a9fbda6dcbefa273de8981ee2756a943", "is_reserved": 0, "lon": -77.01814816666666, "is_disabled": 0, "fusion_lat": 0.0, "lat": 38.921132166666666, "bike_id": "a9fbda6dcbefa273de8981ee2756a943", "fusion_lon": 0.0}, {"rental_uris": {"ios": "https://dc.lft.to/lastmile_qr_scan", "android": "https://dc.lft.to/lastmile_qr_scan"}, "type": "electric_scooter", "name": "c394dd44d1888041e4de5b418b65403b", "is_reserved": 0, "lon": -77.03186183333334, "is_disabled": 0, "fusion_lat": 0.0, "lat": 38.899597, "bike_id": "c394dd44d1888041e4de5b418b65403b", "fusion_lon": 0.0}, {"rental_uris": {"ios": "https://dc.lft.to/lastmile_qr_scan", "android": "https://dc.lft.to/lastmile_qr_scan"}, "type": "electric_scooter", "name": "49789ad838135a81eec8c5598c5e5ed4", "is_reserved": 0, "lon": -76.998732, "is_disabled": 0, "fusion_lat": 0.0, "lat": 38.90021183333333, "bike_id": "49789ad838135a81eec8c5598c5e5ed4", "fusion_lon": 0.0}, {"rental_uris": {"ios": "https://dc.lft.to/lastmile_qr_scan", "android": "https://dc.lft.to/lastmile_qr_scan"}, "type": "electric_bike", "name": "83c06aee6592fd923594b02121585dac", "is_reserved": 0, "lon": -77.01230683333333, "is_disabled": 0, "fusion_lat": 0.0, "lat": 38.950847333333336, "bike_id": "83c06aee6592fd923594b02121585dac", "fusion_lon": 0.0}, {"rental_uris": {"ios": "https://dc.lft.to/lastmile_qr_scan", "android": "https://dc.lft.to/lastmile_qr_scan"}, "type": "electric_scooter", "name": "dc7e129f160694e42cb454a329fe1b37", "is_reserved": 0, "lon": -77.0250925, "is_disabled": 0, "fusion_lat": 0.0, "lat": 38.94097433333334, "bike_id": "dc7e129f160694e42cb454a329fe1b37", "fusion_lon": 0.0}, {"rental_uris": {"ios": "https://dc.lft.to/lastmile_qr_scan", "android": "https://dc.lft.to/lastmile_qr_scan"},