{"data": {"bikes": [{"fusion_lon": 0.0, "bike_id": "a94b1634b8cbccf563843534db2fbb1f", "name": "a94b1634b8cbccf563843534db2fbb1f", "type": "electric_scooter", "lon": -77.05126983333334, "rental_uris": {"android": "https://dc.lft.to/lastmile_qr_scan", "ios": "https://dc.lft.to/lastmile_qr_scan"}, "lat": 38.92366283333333, "is_reserved": 0, "is_disabled": 0, "fusion_lat": 0.0}, {"fusion_lon": 0.0, "bike_id": "d4907dc751d6493a44a41de6a6a1d4ce", "name": "d4907dc751d6493a44a41de6a6a1d4ce", "type": "electric_scooter", "lon": -76.940557, "rental_uris": {"android": "https://dc.lft.to/lastmile_qr_scan", "ios": "https://dc.lft.to/lastmile_qr_scan"}, "lat": 38.890347, "is_reserved": 0, "is_disabled": 0, "fusion_lat": 0.0}, {"fusion_lon": 0.0, "bike_id": "62918fc2043ab941344a81a891e24807", "name": "62918fc2043ab941344a81a891e24807", "type": "electric_scooter", "lon": -77.02711783333334, "rental_uris": {"android": "https://dc.lft.to/lastmile_qr_scan", "ios": "https://dc.lft.to/lastmile_qr_scan"}, "lat": 38.9074985, "is_reserved": 0, "is_disabled": 0, "fusion_lat": 0.0}, {"fusion_lon": 0.0, "bike_id": "19e87e69a2e0f68f0d4cc1382c5db79f", "name": "19e87e69a2e0f68f0d4cc1382c5db79f", "type": "electric_scooter", "lon": -77.0241695, "rental_uris": {"android": "https://dc.lft.to/lastmile_qr_scan", "ios": "https://dc.lft.to/lastmile_qr_scan"}, "lat": 38.9265655, "is_reserved": 0, "is_disabled": 0, "fusion_lat": 0.0}, {"fusion_lon": 0.0, "bike_id": "c8a81cbc19debaae1d955dea116fdd98", "name": "c8a81cbc19debaae1d955dea116fdd98", "type": "electric_scooter", "lon": -76.972733, "rental_uris": {"android": "https://dc.lft.to/lastmile_qr_scan", "ios": "https://dc.lft.to/lastmile_qr_scan"}, "lat": 38.93082666666667, "is_reserved": 0, "is_disabled": 0, "fusion_lat": 0.0}, {"fusion_lon": 0.0, "bike_id": "9853a20d0db172d3ac9850c567c41bb8", "name": "9853a20d0db172d3ac9850c567c41bb8", "type": "electric_scooter", "lon": -77.01959416666666, "rental_uris": {"android": "https://dc.lft.to/lastmile_qr_scan", "ios": "https://dc.lft.to/lastmile_qr_scan"}, "lat": 38.8841495, "is_reserved": 0, "is_disabled": 0, "fusion_lat": 0.0}, {"fusion_lon": 0.0, "bike_id": "d9c89e9daaedb962c8583ae37b51d4dc", "name": "d9c89e9daaedb962c8583ae37b51d4dc", "type": "electric_bike", "lon": -76.932254, "rental_uris": {"android": "https://dc.lft.to/lastmile_qr_scan", "ios": "https://dc.lft.to/lastmile_qr_scan"}, "lat": 38.865953, "is_reserved": 0, "is_disabled": 0, "fusion_lat": 0.0}, {"fusion_lon": 0.0, "bike_id": "47ce4b49e92f68cd686de9f7a427f071", "name": "47ce4b49e92f68cd686de9f7a427f071", "type": "electric_bike", "lon": -77.03320433333333, "rental_uris": {"android": "https://dc.lft.to/lastmile_qr_scan", "ios": "https://dc.lft.to/lastmile_qr_scan"}, "lat": 38.918026166666664, "is_reserved": 0, "is_disabled": 0, "fusion_lat": 0.0}, {"fusion_lon": 0.0, "bike_id": "f39e1d04297084f7b05a633a0b96e3fc", "name": "f39e1d04297084f7b05a633a0b96e3fc", "type": "electric_scooter", "lon": -76.98419733333333, "rental_uris": {"android": "https://dc.lft.to/lastmile_qr_scan", "ios": "https://dc.lft.to/lastmile_qr_scan"}, "lat": 38.919935833333334, "is_reserved": 0, "is_disabled": 0, "fusion_lat": 0.0}, {"fusion_lon": 0.0, "bike_id": "4251906ac9a929830e3114bb8cd42111", "name": "4251906ac9a929830e3114bb8cd42111", "type": "electric_scooter", "lon": -77.03673833333333, "rental_uris": {"android": "https://dc.lft.to/lastmile_qr_scan", "ios": "https://dc.lft.to/lastmile_qr_scan"}, "lat": 38.908212, "is_reserved": 0, "is_disabled": 0, "fusion_lat": 0.0}, {"fusion_lon": 0.0, "bike_id": "e3d8307fa0b0989092354421ad24bba6", "name": "e3d8307fa0b0989092354421ad24bba6", "type": "electric_scooter", "lon": -77.03189383333333, "rental_uris": {"android": "https://dc.lft.to/lastmile_qr_scan", "ios": "https://dc.lft.to/lastmile_qr_scan"}, "lat": 38.91779966666667, "is_reserved": 0, "is_disabled": 0, "fusion_lat": 0.0}, {"fusion_lon": 0.0, "bike_id": "3ef7accd37727abd207dd28e24b6dcc2", "name": "3ef7accd37727abd207dd28e24b6dcc2", "type": "electric_scooter", "lon": -77.0225095, "rental_uris": {"android": "https://dc.lft.to/lastmile_qr_scan", "ios": "https://dc.lft.to/lastmile_qr_scan"}, "lat": 38.96559383333334, "is_reserved": 0, "is_disabled": 0, "fusion_lat": 0.0}, {"fusion_lon": 0.0, "bike_id": "0a5ffd10f536dfe6739cd8950008f096", "name": "0a5ffd10f536dfe6739cd8950008f096", "type": "electric_scooter", "lon": -76.987676, "rental_uris": {"android": "https://dc.lft.to/lastmile_qr_scan", "ios": "https://dc.lft.to/lastmile_qr_scan"}, "lat": 38.9117435, "is_reserved": 0, "is_disabled": 0, "fusion_lat": 0.0}, {"fusion_lon": 0.0, "bike_id": "319360ba0fd5d2aa8ad425cca37c6273", "name": "319360ba0fd5d2aa8ad425cca37c6273", "type": "electric_scooter", "lon": -77.04170683333334, "rental_uris": {"android": "https://dc.lft.to/lastmile_qr_scan", "ios": "https://dc.lft.to/lastmile_qr_scan"}, "lat": 38.91574466666667, "is_reserved": 0, "is_disabled": 0, "fusion_lat": 0.0}, {"fusion_lon": 0.0, "bike_id": "20cd0ecfcc5485936df31dcebb230449", "name": "20cd0ecfcc5485936df31dcebb230449", "type": "electric_scooter", "lon": -77.01822716666666, "rental_uris": {"android": "https://dc.lft.to/lastmile_qr_scan", "ios": "https://dc.lft.to/lastmile_qr_scan"}, "lat": 38.92206933333333, "is_reserved": 0, "is_disabled": 0, "fusion_lat": 0.0}, {"fusion_lon": 0.0, "bike_id": "3aa8c6153c4600efc9d7168601301f5b", "name": "3aa8c6153c4600efc9d7168601301f5b", "type": "electric_scooter", "lon": -77.04728533333333, "rental_uris": {"android": "https://dc.lft.to/lastmile_qr_scan", "ios": "https://dc.lft.to/lastmile_qr_scan"}, "lat": 38.906011, "is_reserved": 0, "is_disabled": 0, "fusion_lat": 0.0}, {"fusion_lon": 0.0, "bike_id": "2eb668ec98c70f04d7c20b661b99a648", "name": "2eb668ec98c70f04d7c20b661b99a648", "type": "electric_scooter", "lon": -77.02597266666666, "rental_uris": {"android": "https://dc.lft.to/lastmile_qr_scan", "ios": "https://dc.lft.to/lastmile_qr_scan"}, "lat": 38.91631183333333, "is_reserved": 0, "is_disabled": 0, "fusion_lat": 0.0}, {"fusion_lon": 0.0, "bike_id": "2b9ffb185b0d6e435cbdba831593c493", "name": "2b9ffb185b0d6e435cbdba831593c493", "type": "electric_bike", "lon": -77.12584166666667, "rental_uris": {"android": "https://dc.lft.to/lastmile_qr_scan", "ios": "https://dc.lft.to/lastmile_qr_scan"}, "lat": 38.851445, "is_reserved": 0, "is_disabled": 0, "fusion_lat": 0.0}, {"fusion_lon": 0.0, "bike_id": "d4fe02e1e31fb7e58a8b490a8295c359", "name": "d4fe02e1e31fb7e58a8b490a8295c359", "type": "electric_scooter", "lon": -77.026963, "rental_uris": {"android": "https://dc.lft.to/lastmile_qr_scan", "ios": "https://dc.lft.to/lastmile_qr_scan"}, "lat": 38.90839666666667, "is_reserved": 0, "is_disabled": 0, "fusion_lat": 0.0}, {"fusion_lon": 0.0, "bike_id": "223d25b07bf09c10561171db7b7342d3", "name": "223d25b07bf09c10561171db7b7342d3", "type": "electric_scooter", "lon": -77.01222583333333, "rental_uris": {"android": "https://dc.lft.to/lastmile_qr_scan", "ios": "https://dc.lft.to/lastmile_qr_scan"}, "lat": 38.91346516666667, "is_reserved": 0, "is_disabled": 0, "fusion_lat": 0.0}, {"fusion_lon": 0.0, "bike_id": "26c7ca438caf15432b636208615d59d3", "name": "26c7ca438caf15432b636208615d59d3", "type": "electric_scooter", "lon": -77.02440116666666, "rental_uris": {"android": "https://dc.lft.to/lastmile_qr_scan", "ios": "https://dc.lft.to/lastmile_qr_scan"}, "lat": 38.93589133333333, "is_reserved": 0, "is_disabled": 0, "fusion_lat": 0.0}, {"fusion_lon": 0.0, "bike_id": "30dcc16021b23e517dd5e1eacfb0820d", "name": "30dcc16021b23e517dd5e1eacfb0820d", "type": "electric_scooter", "lon": -76.9969755, "rental_uris": {"android": "https://dc.lft.to/lastmile_qr_scan", "ios": "https://dc.lft.to/lastmile_qr_scan"}, "lat": 38.88418716666666, "is_reserved": 0, "is_disabled": 0, "fusion_lat": 0.0}, {"fusion_lon": 0.0, "bike_id": "f036b7f8850a76cb3a74a2b5b335c1f8", "name": "f036b7f8850a76cb3a74a2b5b335c1f8", "type": "electric_scooter", "lon": -77.035968, "rental_uris": {"android": "https://dc.lft.to/lastmile_qr_scan", "ios": "https://dc.lft.to/lastmile_qr_scan"}, "lat": 38.906871833333334, "is_reserved": 0, "is_disabled": 0, "fusion_lat": 0.0}, {"fusion_lon": 0.0, "bike_id": "3a8d3e05725d922602fd6f4f6199e1a1", "name": "3a8d3e05725d922602fd6f4f6199e1a1", "type": "electric_scooter", "lon": -77.03998366666667, "rental_uris": {"android": "https://dc.lft.to/lastmile_qr_scan", "ios": "https://dc.lft.to/lastmile_qr_scan"}, "lat": 38.91635133333333, "is_reserved": 0, "is_disabled": 0, "fusion_lat": 0.0}, {"fusion_lon": 0.0, "bike_id": "dba8a3e0f993db2f1713564cada5ac43", "name": "dba8a3e0f993db2f1713564cada5ac43", "type": "electric_scooter", "lon": -77.03444583333334, "rental_uris": {"android": "https://dc.lft.to/lastmile_qr_scan", "ios": "https://dc.lft.to/lastmile_qr_scan"}, "lat": 38.9159015, "is_reserved": 0, "is_disabled": 0, "fusion_lat": 0.0}, {"fusion_lon": 0.0, "bike_id": "e55506e2721adf9f1f677f9a8e5f40f3", "name": "e55506e2721adf9f1f677f9a8e5f40f3", "type": "electric_scooter", "lon": -76.98474933333334, "rental_uris": {"android": "https://dc.lft.to/lastmile_qr_scan", "ios": "https://dc.lft.to/lastmile_qr_scan"}, "lat": 38.893510166666665, "is_reserved": 0, "is_disabled": 0, "fusion_lat": 0.0}, {"fusion_lon": 0.0, "bike_id": "61e5acba6667dc935bc49eec1a9376f2", "name": "61e5acba6667dc935bc49eec1a9376f2", "type": "electric_scooter", "lon": -76.97993066666666, "rental_uris": {"android": "https://dc.lft.to/lastmile_qr_scan", "ios": "https://dc.lft.to/lastmile_qr_scan"}, "lat": 38.88872766666667, "is_reserved": 0, "is_disabled": 0, "fusion_lat": 0.0}, {"fusion_lon": 0.0, "bike_id": "ba5a156f6e8dc2acb07d5a6f6a4b9d46", "name": "ba5a156f6e8dc2acb07d5a6f6a4b9d46", "type": "electric_scooter", "lon": -77.02234133333333, "rental_uris": {"android": "https://dc.lft.to/lastmile_qr_scan", "ios": "https://dc.lft.to/lastmile_qr_scan"}, "lat": 38.91414133333333, "is_reserved": 0, "is_disabled": 0, "fusion_lat": 0.0}, {"fusion_lon": 0.0, "bike_id": "002a89eeb080429ae9d4f3bf4700443d", "name": "002a89eeb080429ae9d4f3bf4700443d", "type": "electric_scooter", "lon": -77.04272983333334, "rental_uris": {"android": "https://dc.lft.to/lastmile_qr_scan", "ios": "https://dc.lft.to/lastmile_qr_scan"}, "lat": 38.91693166666667, "is_reserved": 0, "is_disabled": 0, "fusion_lat": 0.0}, {"fusion_lon": 0.0, "bike_id": "afe10dabc9e4e25f4c626bd1d519bf04", "name": "afe10dabc9e4e25f4c626bd1d519bf04", "type": "electric_scooter", "lon": -77.03613333333334, "rental_uris": {"android": "https://dc.lft.to/lastmile_qr_scan", "ios": "https://dc.lft.to/lastmile_qr_scan"}, "lat": 38.91911, "is_reserved": 0, "is_disabled": 0, "fusion_lat": 0.0}, {"fusion_lon": 0.0, "bike_id": "784342957a369daf61ca9de2f8ce2399", "name": "784342957a369daf61ca9de2f8ce2399", "type": "electric_scooter", "lon": -77.0311, "rental_uris": {"android": "https://dc.lft.to/lastmile_qr_scan", "ios": "https://dc.lft.to/lastmile_qr_scan"}, "lat": 38.905575166666665, "is_reserved": 0, "is_disabled": 0, "fusion_lat": 0.0}, {"fusion_lon": 0.0, "bike_id": "d36dc86f6206ea79adcfb40e4fdd8a87", "name": "d36dc86f6206ea79adcfb40e4fdd8a87", "type": "electric_scooter", "lon": -77.03966233333334, "rental_uris": {"android": "https://dc.lft.to/lastmile_qr_scan", "ios": "https://dc.lft.to/lastmile_qr_scan"}, "lat": 38.919779, "is_reserved": 0, "is_disabled": 0, "fusion_lat": 0.0}, {"fusion_lon": 0.0, "bike_id": "871d5d0d3a047b77e9a177add3f63ff9", "name": "871d5d0d3a047b77e9a177add3f63ff9", "type": "electric_scooter", "lon": -77.05920566666667, "rental_uris": {"android": "https://dc.lft.to/lastmile_qr_scan", "ios": "https://dc.lft.to/lastmile_qr_scan"}, "lat": 38.9008535, "is_reserved": 0, "is_disabled": 0, "fusion_lat": 0.0}, {"fusion_lon": 0.0, "bike_id": "8fdb4946d81ccb120977cd7ac8773952", "name": "8fdb4946d81ccb120977cd7ac8773952", "type": "electric_scooter", "lon": -76.9961485, "rental_uris": {"android": "https://dc.lft.to/lastmile_qr_scan", "ios": "https://dc.lft.to/lastmile_qr_scan"}, "lat": 38.90119083333333, "is_reserved": 0, "is_disabled": 0, "fusion_lat": 0.0}, {"fusion_lon": 0.0, "bike_id": "d40ac2be33b8a0810c6574f9efab107c", "name": "d40ac2be33b8a0810c6574f9efab107c", "type": "electric_scooter", "lon": -77.073778, "rental_uris": {"android": "https://dc.lft.to/lastmile_qr_scan", "ios": "https://dc.lft.to/lastmile_qr_scan"}, "lat": 38.93354466666667, "is_reserved": 0, "is_disabled": 0, "fusion_lat": 0.0}, {"fusion_lon": 0.0, "bike_id": "60f08b7357623062cb5115d0e44af3f6", "name": "60f08b7357623062cb5115d0e44af3f6", "type": "electric_scooter", "lon": -77.0365025, "rental_uris": {"android": "https://dc.lft.to/lastmile_qr_scan", "ios": "https://dc.lft.to/lastmile_qr_scan"}, "lat": 38.91834333333333, "is_reserved": 0, "is_disabled": 0, "fusion_lat": 0.0}, {"fusion_lon": 0.0, "bike_id": "fbef8586605f7079b0495297702cbacc", "name": "fbef8586605f7079b0495297702cbacc", "type": "electric_scooter", "lon": -77.02637533333333, "rental_uris": {"android": "https://dc.lft.to/lastmile_qr_scan", "ios": "https://dc.lft.to/lastmile_qr_scan"}, "lat": 38.9805725, "is_reserved": 0, "is_disabled": 0, "fusion_lat": 0.0}, {"fusion_lon": 0.0, "bike_id": "97b597243de02f2bcb1238a5b662c31d", "name": "97b597243de02f2bcb1238a5b662c31d", "type": "electric_scooter", "lon": -77.068857, "rental_uris": {"android": "https://dc.lft.to/lastmile_qr_scan", "ios": "https://dc.lft.to/lastmile_qr_scan"}, "lat": 38.90515883333333, "is_reserved": 0, "is_disabled": 0, "fusion_lat": 0.0}, {"fusion_lon": 0.0, "bike_id": "cb65125699d0af8c406e60106bdba1d3", "name": "cb65125699d0af8c406e60106bdba1d3", "type": "electric_scooter", "lon": -77.03836316666667, "rental_uris": {"android": "https://dc.lft.to/lastmile_qr_scan", "ios": "https://dc.lft.to/lastmile_qr_scan"}, "lat": 38.915631166666664, "is_reserved": 0, "is_disabled": 0, "fusion_lat": 0.0}, {"fusion_lon": 0.0, "bike_id": "7685932c37a211f00a0b8cf34ff1140b", "name": "7685932c37a211f00a0b8cf34ff1140b", "type": "electric_scooter", "lon": -77.01760133333333, "rental_uris": {"android": "https://dc.lft.to/lastmile_qr_scan", "ios": "https://dc.lft.to/lastmile_qr_scan"}, "lat": 38.87716, "is_reserved": 0, "is_disabled": 0, "fusion_lat": 0.0}, {"fusion_lon": 0.0, "bike_id": "a421d5c7093895f3a2494a57b332de10", "name": "a421d5c7093895f3a2494a57b332de10", "type": "electric_scooter", "lon": -77.06214183333333, "rental_uris": {"android": "https://dc.lft.to/lastmile_qr_scan", "ios": "https://dc.lft.to/lastmile_qr_scan"}, "lat": 38.905284333333334, "is_reserved": 0, "is_disabled": 0, "fusion_lat": 0.0}, {"fusion_lon": 0.0, "bike_id": "f9717e641e2c6b58e03c52f76edb2840", "name": "f9717e641e2c6b58e03c52f76edb2840", "type": "electric_scooter", "lon": -76.9967805, "rental_uris": {"android": "https://dc.lft.to/lastmile_qr_scan", "ios": "https://dc.lft.to/lastmile_qr_scan"}, "lat": 38.88702416666667, "is_reserved": 0, "is_disabled": 0, "fusion_lat": 0.0}, {"fusion_lon": 0.0, "bike_id": "011d7ab91a13a910d656c319deb3bd48", "name": "011d7ab91a13a910d656c319deb3bd48", "type": "electric_scooter", "lon": -77.02604733333334, "rental_uris": {"android": "https://dc.lft.to/lastmile_qr_scan", "ios": "https://dc.lft.to/lastmile_qr_scan"}, "lat": 38.924417166666665, "is_reserved": 0, "is_disabled": 0, "fusion_lat": 0.0}, {"fusion_lon": 0.0, "bike_id": "5bd244c52e874e8e4ef614cef5b69712", "name": "5bd244c52e874e8e4ef614cef5b69712", "type": "electric_scooter", "lon": -77.03112883333333, "rental_uris": {"android": "https://dc.lft.to/lastmile_qr_scan", "ios": "https://dc.lft.to/lastmile_qr_scan"}, "lat": 38.92976616666667, "is_reserved": 0, "is_disabled": 0, "fusion_lat": 0.0}, {"fusion_lon": 0.0, "bike_id": "2a04c06e311c3ec14c1eb96a701f9303", "name": "2a04c06e311c3ec14c1eb96a701f9303", "type": "electric_scooter", "lon": -77.0005605, "rental_uris": {"android": "https://dc.lft.to/lastmile_qr_scan", "ios": "https://dc.lft.to/lastmile_qr_scan"}, "lat": 38.889063166666666, "is_reserved": 0, "is_disabled": 0, "fusion_lat": 0.0}, {"fusion_lon": 0.0, "bike_id": "21b40faee07fae3dfec49f755c3e8b6e", "name": "21b40faee07fae3dfec49f755c3e8b6e", "type": "electric_scooter", "lon": -77.03102666666666, "rental_uris": {"android": "https://dc.lft.to/lastmile_qr_scan", "ios": "https://dc.lft.to/lastmile_qr_scan"}, "lat": 38.91862183333333, "is_reserved": 0, "is_disabled": 0, "fusion_lat": 0.0}, {"fusion_lon": 0.0, "bike_id": "8504e7ce7c58c191a4788b3b3be844b3", "name": "8504e7ce7c58c191a4788b3b3be844b3", "type": "electric_scooter", "lon": -76.96523866666666, "rental_uris": {"android": "https://dc.lft.to/lastmile_qr_scan", "ios": "https://dc.lft.to/lastmile_qr_scan"}, "lat": 38.876291, "is_reserved": 0, "is_disabled": 0, "fusion_lat": 0.0}, {"fusion_lon": 0.0, "bike_id": "3905c6d7180453209ff26f93c55bb8b7", "name": "3905c6d7180453209ff26f93c55bb8b7", "type": "electric_bike", "lon": -76.94573233333334, "rental_uris": {"android": "https://dc.lft.to/lastmile_qr_scan", "ios": "https://dc.lft.to/lastmile_qr_scan"}, "lat": 38.86622883333333, "is_reserved": 0, "is_disabled": 0, "fusion_lat": 0.0}, {"fusion_lon": 0.0, "bike_id": "58941f9e07027315b808e14c371d4d6a", "name": "58941f9e07027315b808e14c371d4d6a", "type": "electric_scooter", "lon": -77.05436433333334, "rental_uris": {"android": "https://dc.lft.to/lastmile_qr_scan", "ios": "https://dc.lft.to/lastmile_qr_scan"}, "lat": 38.89602633333333, "is_reserved": 0, "is_disabled": 0, "fusion_lat": 0.0}, {"fusion_lon": 0.0, "bike_id": "28405e2fa89027c22a58d645485d77a8", "name": "28405e2fa89027c22a58d645485d77a8", "type": "electric_scooter", "lon": -77.017341, "rental_uris": {"android": "https://dc.lft.to/lastmile_qr_scan", "ios": "https://dc.lft.to/lastmile_qr_scan"}, "lat": 38.87482266666667, "is_reserved": 0, "is_disabled": 0, "fusion_lat": 0.0}, {"fusion_lon": 0.0, "bike_id": "ab416122fc61d197c192a0975f828781", "name": "ab416122fc61d197c192a0975f828781", "type": "electric_scooter", "lon": -77.0087255, "rental_uris": {"android": "https://dc.lft.to/lastmile_qr_scan", "ios": "https://dc.lft.to/lastmile_qr_scan"}, "lat": 38.9055105, "is_reserved": 0, "is_disabled": 0, "fusion_lat": 0.0}, {"fusion_lon": 0.0, "bike_id": "955283122c2e1f6cf24301a121c256da", "name": "955283122c2e1f6cf24301a121c256da", "type": "electric_scooter", "lon": -77.00757766666666, "rental_uris": {"android": "https://dc.lft.to/lastmile_qr_scan", "ios": "https://dc.lft.to/lastmile_qr_scan"}, "lat": 38.876441666666665, "is_reserved": 0, "is_disabled": 0, "fusion_lat": 0.0}, {"fusion_lon": 0.0, "bike_id": "a235f07a3650d9994509ce4e5c9f36fb", "name": "a235f07a3650d9994509ce4e5c9f36fb", "type": "electric_scooter", "lon": -76.93186466666667, "rental_uris": {"android": "https://dc.lft.to/lastmile_qr_scan", "ios": "https://dc.lft.to/lastmile_qr_scan"}, "lat": 38.898763833333334, "is_reserved": 0, "is_disabled": 0, "fusion_lat": 0.0}, {"fusion_lon": 0.0, "bike_id": "dcc88bf54037873f52816801f33f5843", "name": "dcc88bf54037873f52816801f33f5843", "type": "electric_scooter", "lon": -77.0336615, "rental_uris": {"android": "https://dc.lft.to/lastmile_qr_scan", "ios": "https://dc.lft.to/lastmile_qr_scan"}, "lat": 38.91201, "is_reserved": 0, "is_disabled": 0, "fusion_lat": 0.0}, {"fusion_lon": 0.0, "bike_id": "031d7d239458071cd6498ada74375a5d", "name": "031d7d239458071cd6498ada74375a5d", "type": "electric_scooter", "lon": -76.98069366666667, "rental_uris": {"android": "https://dc.lft.to/lastmile_qr_scan", "ios": "https://dc.lft.to/lastmile_qr_scan"}, "lat": 38.91675883333333, "is_reserved": 0, "is_disabled": 0, "fusion_lat": 0.0}, {"fusion_lon": 0.0, "bike_id": "8f69f2d53db2c7becd69a058111c3e6a", "name": "8f69f2d53db2c7becd69a058111c3e6a", "type": "electric_bike", "lon": -77.02487966666666, "rental_uris": {"android": "https://dc.lft.to/lastmile_qr_scan", "ios": "https://dc.lft.to/lastmile_qr_scan"}, "lat": 38.974007, "is_reserved": 0, "is_disabled": 0, "fusion_lat": 0.0}, {"fusion_lon": 0.0, "bike_id": "8e4308d0cbd2ef4cde5bfe6c1b2ffcaa", "name": "8e4308d0cbd2ef4cde5bfe6c1b2ffcaa", "type": "electric_bike", "lon": -77.00079216666667, "rental_uris": {"android": "https://dc.lft.to/lastmile_qr_scan", "ios": "https://dc.lft.to/lastmile_qr_scan"}, "lat": 38.8860145, "is_reserved": 0, "is_disabled": 0, "fusion_lat": 0.0}, {"fusion_lon": 0.0, "bike_id": "edf31ebac26a660e6f117dd37bce4210", "name": "edf31ebac26a660e6f117dd37bce4210", "type": "electric_scooter", "lon": -77.02171966666667, "rental_uris": {"android": "https://dc.lft.to/lastmile_qr_scan", "ios": "https://dc.lft.to/lastmile_qr_scan"}, "lat": 38.942927, "is_reserved": 0, "is_disabled": 0, "fusion_lat": 0.0}, {"fusion_lon": 0.0, "bike_id": "f9a0f3b0dc0417878038530fe112d01f", "name": "f9a0f3b0dc0417878038530fe112d01f", "type": "electric_scooter", "lon": -77.02304083333334, "rental_uris": {"android": "https://dc.lft.to/lastmile_qr_scan", "ios": "https://dc.lft.to/lastmile_qr_scan"}, "lat": 38.9207095, "is_reserved": 0, "is_disabled": 0, "fusion_lat": 0.0}, {"fusion_lon": 0.0, "bike_id": "0245a7c3692871619fd43ade2495eb4f", "name": "0245a7c3692871619fd43ade2495eb4f", "type": "electric_scooter", "lon": -76.99078333333334, "rental_uris": {"android": "https://dc.lft.to/lastmile_qr_scan", "ios": "https://dc.lft.to/lastmile_qr_scan"}, "lat": 38.90422083333333, "is_reserved": 0, "is_disabled": 0, "fusion_lat": 0.0}, {"fusion_lon": 0.0, "bike_id": "56a5d987659ca647202affa44fc152e4", "name": "56a5d987659ca647202affa44fc152e4", "type": "electric_scooter", "lon": -77.04159783333333, "rental_uris": {"android": "https://dc.lft.to/lastmile_qr_scan", "ios": "https://dc.lft.to/lastmile_qr_scan"}, "lat": 38.915993666666665, "is_reserved": 0, "is_disabled": 0, "fusion_lat": 0.0}, {"fusion_lon": 0.0, "bike_id": "1ca36f4ee6e1cc0adb10ae56fa94c878", "name": "1ca36f4ee6e1cc0adb10ae56fa94c878", "type": "electric_scooter", "lon": -77.01207633333334, "rental_uris": {"android": "https://dc.lft.to/lastmile_qr_scan", "ios": "https://dc.lft.to/lastmile_qr_scan"}, "lat": 38.89329566666667, "is_reserved": 0, "is_disabled": 0, "fusion_lat": 0.0}, {"fusion_lon": 0.0, "bike_id": "58adfa2cc0e1df98107bd4c8df3353e2", "name": "58adfa2cc0e1df98107bd4c8df3353e2", "type": "electric_scooter", "lon": -76.93340783333333, "rental_uris": {"android": "https://dc.lft.to/lastmile_qr_scan", "ios": "https://dc.lft.to/lastmile_qr_scan"}, "lat": 38.899199833333334, "is_reserved": 0, "is_disabled": 0, "fusion_lat": 0.0}, {"fusion_lon": 0.0, "bike_id": "306d143260ef0fd02e89f6e46ac548a6", "name": "306d143260ef0fd02e89f6e46ac548a6", "type": "electric_scooter", "lon": -77.036501, "rental_uris": {"android": "https://dc.lft.to/lastmile_qr_scan", "ios": "https://dc.lft.to/lastmile_qr_scan"}, "lat": 38.91583516666667, "is_reserved": 0, "is_disabled": 0, "fusion_lat": 0.0}, {"fusion_lon": 0.0, "bike_id": "2018b4fdaee7ea6d7a437dc1ead81e02", "name": "2018b4fdaee7ea6d7a437dc1ead81e02", "type": "electric_bike", "lon": -76.9816325, "rental_uris": {"android": "https://dc.lft.to/lastmile_qr_scan", "ios": "https://dc.lft.to/lastmile_qr_scan"}, "lat": 38.95960816666667, "is_reserved": 0, "is_disabled": 0, "fusion_lat": 0.0}, {"fusion_lon": 0.0, "bike_id": "d7da6828466191d9d2e24498a81d3f87", "name": "d7da6828466191d9d2e24498a81d3f87", "type": "electric_scooter", "lon": -77.01184066666667, "rental_uris": {"android": "https://dc.lft.to/lastmile_qr_scan", "ios": "https://dc.lft.to/lastmile_qr_scan"}, "lat": 38.9064725, "is_reserved": 0, "is_disabled": 0, "fusion_lat": 0.0}, {"fusion_lon": 0.0, "bike_id": "d459813037dc9977c47e220310ce9702", "name": "d459813037dc9977c47e220310ce9702", "type": "electric_scooter", "lon": -77.01892816666667, "rental_uris": {"android": "https://dc.lft.to/lastmile_qr_scan", "ios": "https://dc.lft.to/lastmile_qr_scan"}, "lat": 38.94930183333334, "is_reserved": 0, "is_disabled": 0, "fusion_lat": 0.0}, {"fusion_lon": 0.0, "bike_id": "0a05f09daca60a64fc8363be1aac1933", "name": "0a05f09daca60a64fc8363be1aac1933", "type": "electric_scooter", "lon": -77.00192933333334, "rental_uris": {"android": "https://dc.lft.to/lastmile_qr_scan", "ios": "https://dc.lft.to/lastmile_qr_scan"}, "lat": 38.900319833333334, "is_reserved": 0, "is_disabled": 0, "fusion_lat": 0.0}, {"fusion_lon": 0.0, "bike_id": "9960156cabde2ade80a0b525195378ba", "name": "9960156cabde2ade80a0b525195378ba", "type": "electric_scooter", "lon": -77.03540733333334, "rental_uris": {"android": "https://dc.lft.to/lastmile_qr_scan", "ios": "https://dc.lft.to/lastmile_qr_scan"}, "lat": 38.935874, "is_reserved": 0, "is_disabled": 0, "fusion_lat": 0.0}, {"fusion_lon": 0.0, "bike_id": "7e8c2a620589850b75431e69e5a28bdf", "name": "7e8c2a620589850b75431e69e5a28bdf", "type": "electric_scooter", "lon": -76.9845715, "rental_uris": {"android": "https://dc.lft.to/lastmile_qr_scan", "ios": "https://dc.lft.to/lastmile_qr_scan"}, "lat": 38.880041, "is_reserved": 0, "is_disabled": 0, "fusion_lat": 0.0}, {"fusion_lon": 0.0, "bike_id": "cdb155b54b7d2b412b5ee33ff9b5a62d", "name": "cdb155b54b7d2b412b5ee33ff9b5a62d", "type": "electric_scooter", "lon": -77.04167583333333, "rental_uris": {"android": "https://dc.lft.to/lastmile_qr_scan", "ios": "https://dc.lft.to/lastmile_qr_scan"}, "lat": 38.91102733333334, "is_reserved": 0, "is_disabled": 0, "fusion_lat": 0.0}, {"fusion_lon": 0.0, "bike_id": "8528206885ed06bcca064f250f7ed8aa", "name": "8528206885ed06bcca064f250f7ed8aa", "type": "electric_scooter", "lon": -77.03205016666666, "rental_uris": {"android": "https://dc.lft.to/lastmile_qr_scan", "ios": "https://dc.lft.to/lastmile_qr_scan"}, "lat": 38.9258215, "is_reserved": 0, "is_disabled": 0, "fusion_lat": 0.0}, {"fusion_lon": 0.0, "bike_id": "d97459ec2752a5a46abd935ea031ad26", "name": "d97459ec2752a5a46abd935ea031ad26", "type": "electric_scooter", "lon": -77.02157533333333, "rental_uris": {"android": "https://dc.lft.to/lastmile_qr_scan", "ios": "https://dc.lft.to/lastmile_qr_scan"}, "lat": 38.92603416666667, "is_reserved": 0, "is_disabled": 0, "fusion_lat": 0.0}, {"fusion_lon": 0.0, "bike_id": "f8df2e5632bcfa8627922e075ceff328", "name": "f8df2e5632bcfa8627922e075ceff328", "type": "electric_scooter", "lon": -77.035351, "rental_uris": {"android": "https://dc.lft.to/lastmile_qr_scan", "ios": "https://dc.lft.to/lastmile_qr_scan"}, "lat": 38.924745, "is_reserved": 0, "is_disabled": 0, "fusion_lat": 0.0}, {"fusion_lon": 0.0, "bike_id": "e105983231c03a2ed417dfc27ff66339", "name": "e105983231c03a2ed417dfc27ff66339", "type": "electric_scooter", "lon": -77.00888633333334, "rental_uris": {"android": "https://dc.lft.to/lastmile_qr_scan", "ios": "https://dc.lft.to/lastmile_qr_scan"}, "lat": 38.87307716666667, "is_reserved": 0, "is_disabled": 0, "fusion_lat": 0.0}, {"fusion_lon": 0.0, "bike_id": "294101f3c7fc6dc963455f7381289c78", "name": "294101f3c7fc6dc963455f7381289c78", "type": "electric_scooter", "lon": -77.01698133333333, "rental_uris": {"android": "https://dc.lft.to/lastmile_qr_scan", "ios": "https://dc.lft.to/lastmile_qr_scan"}, "lat": 38.9052475, "is_reserved": 0, "is_disabled": 0, "fusion_lat": 0.0}, {"fusion_lon": 0.0, "bike_id": "375877c9304efc1ddfee34826da1cc49", "name": "375877c9304efc1ddfee34826da1cc49", "type": "electric_scooter", "lon": -76.98813216666667, "rental_uris": {"android": "https://dc.lft.to/lastmile_qr_scan", "ios": "https://dc.lft.to/lastmile_qr_scan"}, "lat": 38.8870865, "is_reserved": 0, "is_disabled": 0, "fusion_lat": 0.0}, {"fusion_lon": 0.0, "bike_id": "d9f5254ca98efee7d07121cd6dd13342", "name": "d9f5254ca98efee7d07121cd6dd13342", "type": "electric_scooter", "lon": -76.98713966666666, "rental_uris": {"android": "https://dc.lft.to/lastmile_qr_scan", "ios": "https://dc.lft.to/lastmile_qr_scan"}, "lat": 38.86700483333333, "is_reserved": 0, "is_disabled": 0, "fusion_lat": 0.0}, {"fusion_lon": 0.0, "bike_id": "5a1ae418838c011965ca9b08695e8b5e", "name": "5a1ae418838c011965ca9b08695e8b5e", "type": "electric_scooter", "lon": -77.047648, "rental_uris": {"android": "https://dc.lft.to/lastmile_qr_scan", "ios": "https://dc.lft.to/lastmile_qr_scan"}, "lat": 38.90855666666667, "is_reserved": 0, "is_disabled": 0, "fusion_lat": 0.0}, {"fusion_lon": 0.0, "bike_id": "abc461292e1e6205427259945d4a44fd", "name": "abc461292e1e6205427259945d4a44fd", "type": "electric_bike", "lon": -77.12503783333334, "rental_uris": {"android": "https://dc.lft.to/lastmile_qr_scan", "ios": "https://dc.lft.to/lastmile_qr_scan"}, "lat": 39.024258, "is_reserved": 0, "is_disabled": 0, "fusion_lat": 0.0}, {"fusion_lon": 0.0, "bike_id": "0fb08e32c78ada8b32588a19151cd1fd", "name": "0fb08e32c78ada8b32588a19151cd1fd", "type": "electric_bike", "lon": -76.99566533333333, "rental_uris": {"android": "https://dc.lft.to/lastmile_qr_scan", "ios": "https://dc.lft.to/lastmile_qr_scan"}, "lat": 39.0078625, "is_reserved": 0, "is_disabled": 0, "fusion_lat": 0.0}, {"fusion_lon": 0.0, "bike_id": "60447831f2ef645607bf072769b58b5a", "name": "60447831f2ef645607bf072769b58b5a", "type": "electric_bike", "lon": -77.0956185, "rental_uris": {"android": "https://dc.lft.to/lastmile_qr_scan", "ios": "https://dc.lft.to/lastmile_qr_scan"}, "lat": 38.91704083333333, "is_reserved": 0, "is_disabled": 0, "fusion_lat": 0.0}, {"fusion_lon": 0.0, "bike_id": "90cc2dea12557fe2e6b86c98163bbac1", "name": "90cc2dea12557fe2e6b86c98163bbac1", "type": "electric_scooter", "lon": -77.02645733333334, "rental_uris": {"android": "https://dc.lft.to/lastmile_qr_scan", "ios": "https://dc.lft.to/lastmile_qr_scan"}, "lat": 38.89589566666667, "is_reserved": 0, "is_disabled": 0, "fusion_lat": 0.0}, {"fusion_lon": 0.0, "bike_id": "4ec7a8320cb9a35bf56097f214cec09b", "name": "4ec7a8320cb9a35bf56097f214cec09b", "type": "electric_scooter", "lon": -77.01554616666667, "rental_uris": {"android": "https://dc.lft.to/lastmile_qr_scan", "ios": "https://dc.lft.to/lastmile_qr_scan"}, "lat": 38.91372633333334, "is_reserved": 0, "is_disabled": 0, "fusion_lat": 0.0}, {"fusion_lon": 0.0, "bike_id": "1e32dc3f117085ded17bd98cc97977b7", "name": "1e32dc3f117085ded17bd98cc97977b7", "type": "electric_scooter", "lon": -76.99217183333333, "rental_uris": {"android": "https://dc.lft.to/lastmile_qr_scan", "ios": "https://dc.lft.to/lastmile_qr_scan"}, "lat": 38.8952935, "is_reserved": 0, "is_disabled": 0, "fusion_lat": 0.0}, {"fusion_lon": 0.0, "bike_id": "3e96f6a0caa08ead26e868c0b65f957c", "name": "3e96f6a0caa08ead26e868c0b65f957c", "type": "electric_scooter", "lon": -77.06611016666666, "rental_uris": {"android": "https://dc.lft.to/lastmile_qr_scan", "ios": "https://dc.lft.to/lastmile_qr_scan"}, "lat": 38.90443916666667, "is_reserved": 0, "is_disabled": 0, "fusion_lat": 0.0}, {"fusion_lon": 0.0, "bike_id": "325265a544f99af4e26303270211ed05", "name": "325265a544f99af4e26303270211ed05", "type": "electric_scooter", "lon": -77.02101433333333, "rental_uris": {"android": "https://dc.lft.to/lastmile_qr_scan", "ios": "https://dc.lft.to/lastmile_qr_scan"}, "lat": 38.897569833333336, "is_reserved": 0, "is_disabled": 0, "fusion_lat": 0.0}, {"fusion_lon": 0.0, "bike_id": "07718b046078c6ab48062d369ba84d2a", "name": "07718b046078c6ab48062d369ba84d2a", "type": "electric_scooter", "lon": -77.03182333333334, "rental_uris": {"android": "https://dc.lft.to/lastmile_qr_scan", "ios": "https://dc.lft.to/lastmile_qr_scan"}, "lat": 38.91353816666667, "is_reserved": 0, "is_disabled": 0, "fusion_lat": 0.0}, {"fusion_lon": 0.0, "bike_id": "f83b1ec1b270124ff623465a742ea754", "name": "f83b1ec1b270124ff623465a742ea754", "type": "electric_scooter", "lon": -77.00539033333334, "rental_uris": {"android": "https://dc.lft.to/lastmile_qr_scan", "ios": "https://dc.lft.to/lastmile_qr_scan"}, "lat": 38.90264883333333, "is_reserved": 0, "is_disabled": 0, "fusion_lat": 0.0}, {"fusion_lon": 0.0, "bike_id": "59300c5779160b7ba33da1e3b01249e7", "name": "59300c5779160b7ba33da1e3b01249e7", "type": "electric_scooter", "lon": -77.01384933333334, "rental_uris": {"android": "https://dc.lft.to/lastmile_qr_scan", "ios": "https://dc.lft.to/lastmile_qr_scan"}, "lat": 38.91012166666667, "is_reserved": 0, "is_disabled": 0, "fusion_lat": 0.0}, {"fusion_lon": 0.0, "bike_id": "9d0db652dd55a2104d3abca2167568b7", "name": "9d0db652dd55a2104d3abca2167568b7", "type": "electric_scooter", "lon": -77.021527, "rental_uris": {"android": "https://dc.lft.to/lastmile_qr_scan", "ios": "https://dc.lft.to/lastmile_qr_scan"}, "lat": 38.92603833333333, "is_reserved": 0, "is_disabled": 0, "fusion_lat": 0.0}, {"fusion_lon": 0.0, "bike_id": "1aceb9c267e3b1c7f063b627eac45990", "name": "1aceb9c267e3b1c7f063b627eac45990", "type": "electric_scooter", "lon": -77.02183916666667, "rental_uris": {"android": "https://dc.lft.to/lastmile_qr_scan", "ios": "https://dc.lft.to/lastmile_qr_scan"}, "lat": 38.87921083333333, "is_reserved": 0, "is_disabled": 0, "fusion_lat": 0.0}, {"fusion_lon": 0.0, "bike_id": "f48e9038e856e3d9c355c6e3707698b3", "name": "f48e9038e856e3d9c355c6e3707698b3", "type": "electric_scooter", "lon": -77.03981116666667, "rental_uris": {"android": "https://dc.lft.to/lastmile_qr_scan", "ios": "https://dc.lft.to/lastmile_qr_scan"}, "lat": 38.901455, "is_reserved": 0, "is_disabled": 0, "fusion_lat": 0.0}, {"fusion_lon": 0.0, "bike_id": "7446ea538f84f0713f2fc79691b5e82b", "name": "7446ea538f84f0713f2fc79691b5e82b", "type": "electric_scooter", "lon": -77.04505033333334, "rental_uris": {"android": "https://dc.lft.to/lastmile_qr_scan", "ios": "https://dc.lft.to/lastmile_qr_scan"}, "lat": 38.90658633333334, "is_reserved": 0, "is_disabled": 0, "fusion_lat": 0.0}, {"fusion_lon": 0.0, "bike_id": "c6b91782f5b00203e2455f7c78baf5b6", "name": "c6b91782f5b00203e2455f7c78baf5b6", "type": "electric_scooter", "lon": -76.99865466666667, "rental_uris": {"android": "https://dc.lft.to/lastmile_qr_scan", "ios": "https://dc.lft.to/lastmile_qr_scan"}, "lat": 38.90898816666667, "is_reserved": 0, "is_disabled": 0, "fusion_lat": 0.0}, {"fusion_lon": 0.0, "bike_id": "d231edab31f21ca8d2d43cc9afe6d5ec", "name": "d231edab31f21ca8d2d43cc9afe6d5ec", "type": "electric_bike", "lon": -77.353071, "rental_uris": {"android": "https://dc.lft.to/lastmile_qr_scan", "ios": "https://dc.lft.to/lastmile_qr_scan"}, "lat": 38.950003, "is_reserved": 0, "is_disabled": 0, "fusion_lat": 0.0}, {"fusion_lon": 0.0, "bike_id": "f7ff433b2070f318c781a0caeb421668", "name": "f7ff433b2070f318c781a0caeb421668", "type": "electric_scooter", "lon": -77.0229615, "rental_uris": {"android": "https://dc.lft.to/lastmile_qr_scan", "ios": "https://dc.lft.to/lastmile_qr_scan"}, "lat": 38.91769033333333, "is_reserved": 0, "is_disabled": 0, "fusion_lat": 0.0}, {"fusion_lon": 0.0, "bike_id": "d4de9b78387ffe959ddb382eee02b9ab", "name": "d4de9b78387ffe959ddb382eee02b9ab", "type": "electric_scooter", "lon": -77.06346083333334, "rental_uris": {"android": "https://dc.lft.to/lastmile_qr_scan", "ios": "https://dc.lft.to/lastmile_qr_scan"}, "lat": 38.91339466666667, "is_reserved": 0, "is_disabled": 0, "fusion_lat": 0.0}, {"fusion_lon": 0.0, "bike_id": "2e11cc8ea2357290415bc8ef2e061e68", "name": "2e11cc8ea2357290415bc8ef2e061e68", "type": "electric_scooter", "lon": -77.03997983333333, "rental_uris": {"android": "https://dc.lft.to/lastmile_qr_scan", "ios": "https://dc.lft.to/lastmile_qr_scan"}, "lat": 38.91416516666666, "is_reserved": 0, "is_disabled": 0, "fusion_lat": 0.0}, {"fusion_lon": 0.0, "bike_id": "bbcb665f22d2ac2682b644d5b1ee210e", "name": "bbcb665f22d2ac2682b644d5b1ee210e", "type": "electric_scooter", "lon": -77.0226175, "rental_uris": {"android": "https://dc.lft.to/lastmile_qr_scan", "ios": "https://dc.lft.to/lastmile_qr_scan"}, "lat": 38.92738116666666, "is_reserved": 0, "is_disabled": 0, "fusion_lat": 0.0}, {"fusion_lon": 0.0, "bike_id": "feb446419eb9f88f17bb8478e3a05845", "name": "feb446419eb9f88f17bb8478e3a05845", "type": "electric_scooter", "lon": -77.02465233333334, "rental_uris": {"android": "https://dc.lft.to/lastmile_qr_scan", "ios": "https://dc.lft.to/lastmile_qr_scan"}, "lat": 38.93903733333333, "is_reserved": 0, "is_disabled": 0, "fusion_lat": 0.0}, {"fusion_lon": 0.0, "bike_id": "72d5b6dcd4033175f1b697451ee2efbe", "name": "72d5b6dcd4033175f1b697451ee2efbe", "type": "electric_scooter", "lon": -77.02295016666666, "rental_uris": {"android": "https://dc.lft.to/lastmile_qr_scan", "ios": "https://dc.lft.to/lastmile_qr_scan"}, "lat": 38.937615, "is_reserved": 0, "is_disabled": 0, "fusion_lat": 0.0}, {"fusion_lon": 0.0, "bike_id": "bd3740135f7da3bf4244fb4f57f61e75", "name": "bd3740135f7da3bf4244fb4f57f61e75", "type": "electric_scooter", "lon": -77.09441683333333, "rental_uris": {"android": "https://dc.lft.to/lastmile_qr_scan", "ios": "https://dc.lft.to/lastmile_qr_scan"}, "lat": 38.9178635, "is_reserved": 0, "is_disabled": 0, "fusion_lat": 0.0}, {"fusion_lon": 0.0, "bike_id": "043c2c146a94fe9b7ab71ae98ed41ba7", "name": "043c2c146a94fe9b7ab71ae98ed41ba7", "type": "electric_scooter", "lon": -77.02389683333334, "rental_uris": {"android": "https://dc.lft.to/lastmile_qr_scan", "ios": "https://dc.lft.to/lastmile_qr_scan"}, "lat": 38.9074435, "is_reserved": 0, "is_disabled": 0, "fusion_lat": 0.0}, {"fusion_lon": 0.0, "bike_id": "fd5d3ed33bec4ff76f5d48e5467ab59c", "name": "fd5d3ed33bec4ff76f5d48e5467ab59c", "type": "electric_scooter", "lon": -76.9478015, "rental_uris": {"android": "https://dc.lft.to/lastmile_qr_scan", "ios": "https://dc.lft.to/lastmile_qr_scan"}, "lat": 38.89640683333333, "is_reserved": 0, "is_disabled": 0, "fusion_lat": 0.0}, {"fusion_lon": 0.0, "bike_id": "d4af1a89ab4781e29b994fc24a01467a", "name": "d4af1a89ab4781e29b994fc24a01467a", "type": "electric_scooter", "lon": -76.94943616666667, "rental_uris": {"android": "https://dc.lft.to/lastmile_qr_scan", "ios": "https://dc.lft.to/lastmile_qr_scan"}, "lat": 38.883172, "is_reserved": 0, "is_disabled": 0, "fusion_lat": 0.0}, {"fusion_lon": 0.0, "bike_id": "6f9a91d7ce51e7f60c8c5f7c1e24ae3a", "name": "6f9a91d7ce51e7f60c8c5f7c1e24ae3a", "type": "electric_bike", "lon": -76.98839866666667, "rental_uris": {"android": "https://dc.lft.to/lastmile_qr_scan", "ios": "https://dc.lft.to/lastmile_qr_scan"}, "lat": 38.84274666666666, "is_reserved": 0, "is_disabled": 0, "fusion_lat": 0.0}, {"fusion_lon": 0.0, "bike_id": "bcfe2b94d76d8eb1e69d605faf570f68", "name": "bcfe2b94d76d8eb1e69d605faf570f68", "type": "electric_scooter", "lon": -77.00443616666666, "rental_uris": {"android": "https://dc.lft.to/lastmile_qr_scan", "ios": "https://dc.lft.to/lastmile_qr_scan"}, "lat": 38.90720533333333, "is_reserved": 0, "is_disabled": 0, "fusion_lat": 0.0}, {"fusion_lon": 0.0, "bike_id": "08e48d6ed2d41766c087386cde470a6d", "name": "08e48d6ed2d41766c087386cde470a6d", "type": "electric_scooter", "lon": -77.02301183333333, "rental_uris": {"android": "https://dc.lft.to/lastmile_qr_scan", "ios": "https://dc.lft.to/lastmile_qr_scan"}, "lat": 38.915676500000004, "is_reserved": 0, "is_disabled": 0, "fusion_lat": 0.0}, {"fusion_lon": 0.0, "bike_id": "3ee12483d22715939eb618985f10528d", "name": "3ee12483d22715939eb618985f10528d", "type": "electric_scooter", "lon": -77.05586416666667, "rental_uris": {"android": "https://dc.lft.to/lastmile_qr_scan", "ios": "https://dc.lft.to/lastmile_qr_scan"}, "lat": 38.93609683333333, "is_reserved": 0, "is_disabled": 0, "fusion_lat": 0.0}, {"fusion_lon": 0.0, "bike_id": "5731fadab420f6004a4cb3f2e3d5aab5", "name": "5731fadab420f6004a4cb3f2e3d5aab5", "type": "electric_bike", "lon": -77.0122525, "rental_uris": {"android": "https://dc.lft.to/lastmile_qr_scan", "ios": "https://dc.lft.to/lastmile_qr_scan"}, "lat": 38.89319166666667, "is_reserved": 0, "is_disabled": 0, "fusion_lat": 0.0}, {"fusion_lon": 0.0, "bike_id": "7b31202fa267e637c7c1a65d2ace00e5", "name": "7b31202fa267e637c7c1a65d2ace00e5", "type": "electric_scooter", "lon": -77.031732, "rental_uris": {"android": "https://dc.lft.to/lastmile_qr_scan", "ios": "https://dc.lft.to/lastmile_qr_scan"}, "lat": 38.887385, "is_reserved": 0, "is_disabled": 0, "fusion_lat": 0.0}, {"fusion_lon": 0.0, "bike_id": "56abe70cf2f58f00558ba551ea19e83d", "name": "56abe70cf2f58f00558ba551ea19e83d", "type": "electric_scooter", "lon": -77.01116866666666, "rental_uris": {"android": "https://dc.lft.to/lastmile_qr_scan", "ios": "https://dc.lft.to/lastmile_qr_scan"}, "lat": 38.90355733333333, "is_reserved": 0, "is_disabled": 0, "fusion_lat": 0.0}, {"fusion_lon": 0.0, "bike_id": "7e12da06526cd71824e723fd22f52124", "name": "7e12da06526cd71824e723fd22f52124", "type": "electric_scooter", "lon": -77.03378, "rental_uris": {"android": "https://dc.lft.to/lastmile_qr_scan", "ios": "https://dc.lft.to/lastmile_qr_scan"}, "lat": 38.921575833333335, "is_reserved": 0, "is_disabled": 0, "fusion_lat": 0.0}, {"fusion_lon": 0.0, "bike_id": "914c1918a9b0500ecb5da24808504dd1", "name": "914c1918a9b0500ecb5da24808504dd1", "type": "electric_bike", "lon": -77.0262135, "rental_uris": {"android": "https://dc.lft.to/lastmile_qr_scan", "ios": "https://dc.lft.to/lastmile_qr_scan"}, "lat": 38.9622415, "is_reserved": 0, "is_disabled": 0, "fusion_lat": 0.0}, {"fusion_lon": 0.0, "bike_id": "ab357ede0045ed7a606bc63245aa3284", "name": "ab357ede0045ed7a606bc63245aa3284", "type": "electric_bike", "lon": -77.085267, "rental_uris": {"android": "https://dc.lft.to/lastmile_qr_scan", "ios": "https://dc.lft.to/lastmile_qr_scan"}, "lat": 38.856524, "is_reserved": 0, "is_disabled": 0, "fusion_lat": 0.0}, {"fusion_lon": 0.0, "bike_id": "7f0f50b7cce6c387ae090fb692ba79b6", "name": "7f0f50b7cce6c387ae090fb692ba79b6", "type": "electric_scooter", "lon": -77.00069966666666, "rental_uris": {"android": "https://dc.lft.to/lastmile_qr_scan", "ios": "https://dc.lft.to/lastmile_qr_scan"}, "lat": 38.901376666666664, "is_reserved": 0, "is_disabled": 0, "fusion_lat": 0.0}, {"fusion_lon": 0.0, "bike_id": "c203e301d13bada4fb287c285b3cd496", "name": "c203e301d13bada4fb287c285b3cd496", "type": "electric_scooter", "lon": -77.0326885, "rental_uris": {"android": "https://dc.lft.to/lastmile_qr_scan", "ios": "https://dc.lft.to/lastmile_qr_scan"}, "lat": 38.90431183333333, "is_reserved": 0, "is_disabled": 0, "fusion_lat": 0.0}, {"fusion_lon": 0.0, "bike_id": "cb77fcd4dddd47c422e3e7bc18e52775", "name": "cb77fcd4dddd47c422e3e7bc18e52775", "type": "electric_scooter", "lon": -77.03178583333333, "rental_uris": {"android": "https://dc.lft.to/lastmile_qr_scan", "ios": "https://dc.lft.to/lastmile_qr_scan"}, "lat": 38.91198033333333, "is_reserved": 0, "is_disabled": 0, "fusion_lat": 0.0}, {"fusion_lon": 0.0, "bike_id": "86f7f44f96b834678dfcd63cb910be18", "name": "86f7f44f96b834678dfcd63cb910be18", "type": "electric_scooter", "lon": -77.0162605, "rental_uris": {"android": "https://dc.lft.to/lastmile_qr_scan", "ios": "https://dc.lft.to/lastmile_qr_scan"}, "lat": 38.87648433333333, "is_reserved": 0, "is_disabled": 0, "fusion_lat": 0.0}, {"fusion_lon": 0.0, "bike_id": "18f048e8d40705b03dd8eba8a6c6be19", "name": "18f048e8d40705b03dd8eba8a6c6be19", "type": "electric_scooter", "lon": -76.94630816666667, "rental_uris": {"android": "https://dc.lft.to/lastmile_qr_scan", "ios": "https://dc.lft.to/lastmile_qr_scan"}, "lat": 38.89835866666667, "is_reserved": 0, "is_disabled": 0, "fusion_lat": 0.0}, {"fusion_lon": 0.0, "bike_id": "ce42da76645cd5ec08e4c6d749e029bb", "name": "ce42da76645cd5ec08e4c6d749e029bb", "type": "electric_scooter", "lon": -77.03479566666667, "rental_uris": {"android": "https://dc.lft.to/lastmile_qr_scan", "ios": "https://dc.lft.to/lastmile_qr_scan"}, "lat": 38.92873483333333, "is_reserved": 0, "is_disabled": 0, "fusion_lat": 0.0}, {"fusion_lon": 0.0, "bike_id": "4faebc5c17998b301c04a40479e1af19", "name": "4faebc5c17998b301c04a40479e1af19", "type": "electric_scooter", "lon": -76.99856566666666, "rental_uris": {"android": "https://dc.lft.to/lastmile_qr_scan", "ios": "https://dc.lft.to/lastmile_qr_scan"}, "lat": 38.90893333333333, "is_reserved": 0, "is_disabled": 0, "fusion_lat": 0.0}, {"fusion_lon": 0.0, "bike_id": "f889b442da2377e0a16f25c4817ef943", "name": "f889b442da2377e0a16f25c4817ef943", "type": "electric_scooter", "lon": -77.0325815, "rental_uris": {"android": "https://dc.lft.to/lastmile_qr_scan", "ios": "https://dc.lft.to/lastmile_qr_scan"}, "lat": 38.9374895, "is_reserved": 0, "is_disabled": 0, "fusion_lat": 0.0}, {"fusion_lon": 0.0, "bike_id": "a0db3896448c75c05c56d885e445bada", "name": "a0db3896448c75c05c56d885e445bada", "type": "electric_scooter", "lon": -77.06392816666667, "rental_uris": {"android": "https://dc.lft.to/lastmile_qr_scan", "ios": "https://dc.lft.to/lastmile_qr_scan"}, "lat": 38.929078, "is_reserved": 0, "is_disabled": 0, "fusion_lat": 0.0}, {"fusion_lon": 0.0, "bike_id": "99f76cb0bfd36dba9a1e301c4bc754fe", "name": "99f76cb0bfd36dba9a1e301c4bc754fe", "type": "electric_scooter", "lon": -77.02434433333333, "rental_uris": {"android": "https://dc.lft.to/lastmile_qr_scan", "ios": "https://dc.lft.to/lastmile_qr_scan"}, "lat": 38.92658333333333, "is_reserved": 0, "is_disabled": 0, "fusion_lat": 0.0}, {"fusion_lon": 0.0, "bike_id": "36de533e2dea70b8b30b038ace7cff35", "name": "36de533e2dea70b8b30b038ace7cff35", "type": "electric_scooter", "lon": -77.0072085, "rental_uris": {"android": "https://dc.lft.to/lastmile_qr_scan", "ios": "https://dc.lft.to/lastmile_qr_scan"}, "lat": 38.8966375, "is_reserved": 0, "is_disabled": 0, "fusion_lat": 0.0}, {"fusion_lon": 0.0, "bike_id": "cb0d1cd6bcd817e718b1eecee7b717b5", "name": "cb0d1cd6bcd817e718b1eecee7b717b5", "type": "electric_scooter", "lon": -77.02756716666667, "rental_uris": {"android": "https://dc.lft.to/lastmile_qr_scan", "ios": "https://dc.lft.to/lastmile_qr_scan"}, "lat": 38.954153833333336, "is_reserved": 0, "is_disabled": 0, "fusion_lat": 0.0}, {"fusion_lon": 0.0, "bike_id": "24fb724b8804caeb2513a213213cf308", "name": "24fb724b8804caeb2513a213213cf308", "type": "electric_scooter", "lon": -77.04505316666666, "rental_uris": {"android": "https://dc.lft.to/lastmile_qr_scan", "ios": "https://dc.lft.to/lastmile_qr_scan"}, "lat": 38.912775333333336, "is_reserved": 0, "is_disabled": 0, "fusion_lat": 0.0}, {"fusion_lon": 0.0, "bike_id": "ac73319ad94ac245d979133751eca5f6", "name": "ac73319ad94ac245d979133751eca5f6", "type": "electric_scooter", "lon": -77.02306066666667, "rental_uris": {"android": "https://dc.lft.to/lastmile_qr_scan", "ios": "https://dc.lft.to/lastmile_qr_scan"}, "lat": 38.91613433333333, "is_reserved": 0, "is_disabled": 0, "fusion_lat": 0.0}, {"fusion_lon": 0.0, "bike_id": "f7e1d2b4c973e5a97242a42e4dbb0b28", "name": "f7e1d2b4c973e5a97242a42e4dbb0b28", "type": "electric_scooter", "lon": -77.027063, "rental_uris": {"android": "https://dc.lft.to/lastmile_qr_scan", "ios": "https://dc.lft.to/lastmile_qr_scan"}, "lat": 38.91801933333333, "is_reserved": 0, "is_disabled": 0, "fusion_lat": 0.0}, {"fusion_lon": 0.0, "bike_id": "9b8f08e9764872c0212beb69d27866bf", "name": "9b8f08e9764872c0212beb69d27866bf", "type": "electric_scooter", "lon": -77.06049016666667, "rental_uris": {"android": "https://dc.lft.to/lastmile_qr_scan", "ios": "https://dc.lft.to/lastmile_qr_scan"}, "lat": 38.939108833333336, "is_reserved": 0, "is_disabled": 0, "fusion_lat": 0.0}, {"fusion_lon": 0.0, "bike_id": "edbf02a95206afe98c01c8ad44cdd069", "name": "edbf02a95206afe98c01c8ad44cdd069", "type": "electric_scooter", "lon": -77.04243333333334, "rental_uris": {"android": "https://dc.lft.to/lastmile_qr_scan", "ios": "https://dc.lft.to/lastmile_qr_scan"}, "lat": 38.945534, "is_reserved": 0, "is_disabled": 0, "fusion_lat": 0.0}, {"fusion_lon": 0.0, "bike_id": "4bcbbf57f8d5e901e7d4381d4f88655a", "name": "4bcbbf57f8d5e901e7d4381d4f88655a", "type": "electric_scooter", "lon": -77.027432, "rental_uris": {"android": "https://dc.lft.to/lastmile_qr_scan", "ios": "https://dc.lft.to/lastmile_qr_scan"}, "lat": 38.932035, "is_reserved": 0, "is_disabled": 0, "fusion_lat": 0.0}, {"fusion_lon": 0.0, "bike_id": "44aca9f72eeb5dff80c85eee69583b6c", "name": "44aca9f72eeb5dff80c85eee69583b6c", "type": "electric_scooter", "lon": -77.051183, "rental_uris": {"android": "https://dc.lft.to/lastmile_qr_scan", "ios": "https://dc.lft.to/lastmile_qr_scan"}, "lat": 38.923452, "is_reserved": 0, "is_disabled": 0, "fusion_lat": 0.0}, {"fusion_lon": 0.0, "bike_id": "4c81c6312070fad3e20cf28b209b9a1b", "name": "4c81c6312070fad3e20cf28b209b9a1b", "type": "electric_scooter", "lon": -77.05159483333334, "rental_uris": {"android": "https://dc.lft.to/lastmile_qr_scan", "ios": "https://dc.lft.to/lastmile_qr_scan"}, "lat": 38.90081033333333, "is_reserved": 0, "is_disabled": 0, "fusion_lat": 0.0}, {"fusion_lon": 0.0, "bike_id": "d0b7680703d4000cfd29c9c2d0c6f75f", "name": "d0b7680703d4000cfd29c9c2d0c6f75f", "type": "electric_scooter", "lon": -76.99644516666666, "rental_uris": {"android": "https://dc.lft.to/lastmile_qr_scan", "ios": "https://dc.lft.to/lastmile_qr_scan"}, "lat": 38.93244283333333, "is_reserved": 0, "is_disabled": 0, "fusion_lat": 0.0}, {"fusion_lon": 0.0, "bike_id": "402671707a6736a99629c257cbf0a1d6", "name": "402671707a6736a99629c257cbf0a1d6", "type": "electric_scooter", "lon": -77.0281325, "rental_uris": {"android": "https://dc.lft.to/lastmile_qr_scan", "ios": "https://dc.lft.to/lastmile_qr_scan"}, "lat": 38.916312833333336, "is_reserved": 0, "is_disabled": 0, "fusion_lat": 0.0}, {"fusion_lon": 0.0, "bike_id": "bc7b424355c2cdf82b5ae3e1e6044deb", "name": "bc7b424355c2cdf82b5ae3e1e6044deb", "type": "electric_scooter", "lon": -77.01010183333334, "rental_uris": {"android": "https://dc.lft.to/lastmile_qr_scan", "ios": "https://dc.lft.to/lastmile_qr_scan"}, "lat": 38.8796925, "is_reserved": 0, "is_disabled": 0, "fusion_lat": 0.0}, {"fusion_lon": 0.0, "bike_id": "7392d51f046ca525d2711a34333b77e4", "name": "7392d51f046ca525d2711a34333b77e4", "type": "electric_scooter", "lon": -77.006497, "rental_uris": {"android": "https://dc.lft.to/lastmile_qr_scan", "ios": "https://dc.lft.to/lastmile_qr_scan"}, "lat": 38.87707533333333, "is_reserved": 0, "is_disabled": 0, "fusion_lat": 0.0}, {"fusion_lon": 0.0, "bike_id": "b83034c4991a50aec91838ddecd1048f", "name": "b83034c4991a50aec91838ddecd1048f", "type": "electric_scooter", "lon": -76.99057033333334, "rental_uris": {"android": "https://dc.lft.to/lastmile_qr_scan", "ios": "https://dc.lft.to/lastmile_qr_scan"}, "lat": 38.863647, "is_reserved": 0, "is_disabled": 0, "fusion_lat": 0.0}, {"fusion_lon": 0.0, "bike_id": "5c6a3916971b123e678876678c0698f9", "name": "5c6a3916971b123e678876678c0698f9", "type": "electric_scooter", "lon": -77.03363683333333, "rental_uris": {"android": "https://dc.lft.to/lastmile_qr_scan", "ios": "https://dc.lft.to/lastmile_qr_scan"}, "lat": 38.9097255, "is_reserved": 0, "is_disabled": 0, "fusion_lat": 0.0}, {"fusion_lon": 0.0, "bike_id": "1c175e6b71776bc6ef2fa39f9f479123", "name": "1c175e6b71776bc6ef2fa39f9f479123", "type": "electric_scooter", "lon": -76.99353233333333, "rental_uris": {"android": "https://dc.lft.to/lastmile_qr_scan", "ios": "https://dc.lft.to/lastmile_qr_scan"}, "lat": 38.896117333333336, "is_reserved": 0, "is_disabled": 0, "fusion_lat": 0.0}, {"fusion_lon": 0.0, "bike_id": "bb08ce037e3e8dc88907ab10b219175c", "name": "bb08ce037e3e8dc88907ab10b219175c", "type": "electric_scooter", "lon": -77.03467133333334, "rental_uris": {"android": "https://dc.lft.to/lastmile_qr_scan", "ios": "https://dc.lft.to/lastmile_qr_scan"}, "lat": 38.91805633333333, "is_reserved": 0, "is_disabled": 0, "fusion_lat": 0.0}, {"fusion_lon": 0.0, "bike_id": "5ec22a44a5b82cca90d252b2428b01f1", "name": "5ec22a44a5b82cca90d252b2428b01f1", "type": "electric_scooter", "lon": -77.07689983333333, "rental_uris": {"android": "https://dc.lft.to/lastmile_qr_scan", "ios": "https://dc.lft.to/lastmile_qr_scan"}, "lat": 38.92169283333333, "is_reserved": 0, "is_disabled": 0, "fusion_lat": 0.0}, {"fusion_lon": 0.0, "bike_id": "daa061211a5717116159a22d9e88a09c", "name": "daa061211a5717116159a22d9e88a09c", "type": "electric_scooter", "lon": -77.00346783333333, "rental_uris": {"android": "https://dc.lft.to/lastmile_qr_scan", "ios": "https://dc.lft.to/lastmile_qr_scan"}, "lat": 38.9134645, "is_reserved": 0, "is_disabled": 0, "fusion_lat": 0.0}, {"fusion_lon": 0.0, "bike_id": "1e341de99302929e1e06a3de7bfe7609", "name": "1e341de99302929e1e06a3de7bfe7609", "type": "electric_scooter", "lon": -77.04148966666666, "rental_uris": {"android": "https://dc.lft.to/lastmile_qr_scan", "ios": "https://dc.lft.to/lastmile_qr_scan"}, "lat": 38.914470333333334, "is_reserved": 0, "is_disabled": 0, "fusion_lat": 0.0}, {"fusion_lon": 0.0, "bike_id": "aa510f6faac8b86962f1cf2f2d25fab7", "name": "aa510f6faac8b86962f1cf2f2d25fab7", "type": "electric_scooter", "lon": -77.0277725, "rental_uris": {"android": "https://dc.lft.to/lastmile_qr_scan", "ios": "https://dc.lft.to/lastmile_qr_scan"}, "lat": 38.892189333333334, "is_reserved": 0, "is_disabled": 0, "fusion_lat": 0.0}, {"fusion_lon": 0.0, "bike_id": "763b95c2e9d548b2f5d0bcb33e8a95fb", "name": "763b95c2e9d548b2f5d0bcb33e8a95fb", "type": "electric_scooter", "lon": -77.0434155, "rental_uris": {"android": "https://dc.lft.to/lastmile_qr_scan", "ios": "https://dc.lft.to/lastmile_qr_scan"}, "lat": 38.9220625, "is_reserved": 0, "is_disabled": 0, "fusion_lat": 0.0}, {"fusion_lon": 0.0, "bike_id": "17bdd65c320cd549ce872d36a2245f10", "name": "17bdd65c320cd549ce872d36a2245f10", "type": "electric_scooter", "lon": -77.020084, "rental_uris": {"android": "https://dc.lft.to/lastmile_qr_scan", "ios": "https://dc.lft.to/lastmile_qr_scan"}, "lat": 38.924147166666664, "is_reserved": 0, "is_disabled": 0, "fusion_lat": 0.0}, {"fusion_lon": 0.0, "bike_id": "4bae0486587a9dcd3bbec66c45211d1b", "name": "4bae0486587a9dcd3bbec66c45211d1b", "type": "electric_scooter", "lon": -76.98104866666667, "rental_uris": {"android": "https://dc.lft.to/lastmile_qr_scan", "ios": "https://dc.lft.to/lastmile_qr_scan"}, "lat": 38.905734833333334, "is_reserved": 0, "is_disabled": 0, "fusion_lat": 0.0}, {"fusion_lon": 0.0, "bike_id": "e8b657de878b27f4cd3760177c5d2449", "name": "e8b657de878b27f4cd3760177c5d2449", "type": "electric_scooter", "lon": -77.02161616666666, "rental_uris": {"android": "https://dc.lft.to/lastmile_qr_scan", "ios": "https://dc.lft.to/lastmile_qr_scan"}, "lat": 38.89412466666667, "is_reserved": 0, "is_disabled": 0, "fusion_lat": 0.0}, {"fusion_lon": 0.0, "bike_id": "71560072300fe63882e05d6cda5eec2f", "name": "71560072300fe63882e05d6cda5eec2f", "type": "electric_scooter", "lon": -77.0033345, "rental_uris": {"android": "https://dc.lft.to/lastmile_qr_scan", "ios": "https://dc.lft.to/lastmile_qr_scan"}, "lat": 38.8749835, "is_reserved": 0, "is_disabled": 0, "fusion_lat": 0.0}, {"fusion_lon": 0.0, "bike_id": "67e8e5bbe8a2b9df9ebf0b0218126589", "name": "67e8e5bbe8a2b9df9ebf0b0218126589", "type": "electric_scooter", "lon": -77.03205666666666, "rental_uris": {"android": "https://dc.lft.to/lastmile_qr_scan", "ios": "https://dc.lft.to/lastmile_qr_scan"}, "lat": 38.9179735, "is_reserved": 0, "is_disabled": 0, "fusion_lat": 0.0}, {"fusion_lon": 0.0, "bike_id": "b96d08810fbbaf6e700b49dc929001fe", "name": "b96d08810fbbaf6e700b49dc929001fe", "type": "electric_scooter", "lon": -77.05423533333334, "rental_uris": {"android": "https://dc.lft.to/lastmile_qr_scan", "ios": "https://dc.lft.to/lastmile_qr_scan"}, "lat": 38.92811, "is_reserved": 0, "is_disabled": 0, "fusion_lat": 0.0}, {"fusion_lon": 0.0, "bike_id": "d24d007214d7dd0fcaa7e24827bbceee", "name": "d24d007214d7dd0fcaa7e24827bbceee", "type": "electric_scooter", "lon": -77.00646083333334, "rental_uris": {"android": "https://dc.lft.to/lastmile_qr_scan", "ios": "https://dc.lft.to/lastmile_qr_scan"}, "lat": 38.911795166666664, "is_reserved": 0, "is_disabled": 0, "fusion_lat": 0.0}, {"fusion_lon": 0.0, "bike_id": "020454f72639cbe313e3332ae84a5412", "name": "020454f72639cbe313e3332ae84a5412", "type": "electric_bike", "lon": -76.9820945, "rental_uris": {"android": "https://dc.lft.to/lastmile_qr_scan", "ios": "https://dc.lft.to/lastmile_qr_scan"}, "lat": 38.98505333333333, "is_reserved": 0, "is_disabled": 0, "fusion_lat": 0.0}, {"fusion_lon": 0.0, "bike_id": "5e09c9248db328ccfa48af79fb8cbe88", "name": "5e09c9248db328ccfa48af79fb8cbe88", "type": "electric_scooter", "lon": -77.02578633333333, "rental_uris": {"android": "https://dc.lft.to/lastmile_qr_scan", "ios": "https://dc.lft.to/lastmile_qr_scan"}, "lat": 38.942110666666665, "is_reserved": 0, "is_disabled": 0, "fusion_lat": 0.0}, {"fusion_lon": 0.0, "bike_id": "518fe7402e9eab9afcdb179970d8e807", "name": "518fe7402e9eab9afcdb179970d8e807", "type": "electric_scooter", "lon": -77.0314725, "rental_uris": {"android": "https://dc.lft.to/lastmile_qr_scan", "ios": "https://dc.lft.to/lastmile_qr_scan"}, "lat": 38.9272255, "is_reserved": 0, "is_disabled": 0, "fusion_lat": 0.0}, {"fusion_lon": 0.0, "bike_id": "ddbdc090cc9daa033e2452c8f60b70f1", "name": "ddbdc090cc9daa033e2452c8f60b70f1", "type": "electric_scooter", "lon": -77.03858816666667, "rental_uris": {"android": "https://dc.lft.to/lastmile_qr_scan", "ios": "https://dc.lft.to/lastmile_qr_scan"}, "lat": 38.91808666666667, "is_reserved": 0, "is_disabled": 0, "fusion_lat": 0.0}, {"fusion_lon": 0.0, "bike_id": "8e09f3f8036eaf23e984bf729aa034cc", "name": "8e09f3f8036eaf23e984bf729aa034cc", "type": "electric_scooter", "lon": -77.02688533333334, "rental_uris": {"android": "https://dc.lft.to/lastmile_qr_scan", "ios": "https://dc.lft.to/lastmile_qr_scan"}, "lat": 38.90735333333333, "is_reserved": 0, "is_disabled": 0, "fusion_lat": 0.0}, {"fusion_lon": 0.0, "bike_id": "92f3f9b97276c69191360089c22f55dc", "name": "92f3f9b97276c69191360089c22f55dc", "type": "electric_scooter", "lon": -77.00746216666667, "rental_uris": {"android": "https://dc.lft.to/lastmile_qr_scan", "ios": "https://dc.lft.to/lastmile_qr_scan"}, "lat": 38.876453166666664, "is_reserved": 0, "is_disabled": 0, "fusion_lat": 0.0}, {"fusion_lon": 0.0, "bike_id": "12f29781aea56411d9d15d02eb852eb0", "name": "12f29781aea56411d9d15d02eb852eb0", "type": "electric_scooter", "lon": -77.03258483333333, "rental_uris": {"android": "https://dc.lft.to/lastmile_qr_scan", "ios": "https://dc.lft.to/lastmile_qr_scan"}, "lat": 38.9321085, "is_reserved": 0, "is_disabled": 0, "fusion_lat": 0.0}, {"fusion_lon": 0.0, "bike_id": "ae4a925f5e73b5aab2c74e91d4e35f06", "name": "ae4a925f5e73b5aab2c74e91d4e35f06", "type": "electric_bike", "lon": -77.12265266666667, "rental_uris": {"android": "https://dc.lft.to/lastmile_qr_scan", "ios": "https://dc.lft.to/lastmile_qr_scan"}, "lat": 38.897376, "is_reserved": 0, "is_disabled": 0, "fusion_lat": 0.0}, {"fusion_lon": 0.0, "bike_id": "2ac1a0a34c11e8de503b3949a8ebaf01", "name": "2ac1a0a34c11e8de503b3949a8ebaf01", "type": "electric_bike", "lon": -76.91656733333333, "rental_uris": {"android": "https://dc.lft.to/lastmile_qr_scan", "ios": "https://dc.lft.to/lastmile_qr_scan"}, "lat": 38.868614666666666, "is_reserved": 0, "is_disabled": 0, "fusion_lat": 0.0}, {"fusion_lon": 0.0, "bike_id": "7ee256cc1d7ea3d9c5b8407e6082b987", "name": "7ee256cc1d7ea3d9c5b8407e6082b987", "type": "electric_scooter", "lon": -77.02402966666666, "rental_uris": {"android": "https://dc.lft.to/lastmile_qr_scan", "ios": "https://dc.lft.to/lastmile_qr_scan"}, "lat": 38.91510866666667, "is_reserved": 0, "is_disabled": 0, "fusion_lat": 0.0}, {"fusion_lon": 0.0, "bike_id": "f126d96df96a9c4b36a86dbc1c0f878b", "name": "f126d96df96a9c4b36a86dbc1c0f878b", "type": "electric_scooter", "lon": -76.94244866666666, "rental_uris": {"android": "https://dc.lft.to/lastmile_qr_scan", "ios": "https://dc.lft.to/lastmile_qr_scan"}, "lat": 38.8968145, "is_reserved": 0, "is_disabled": 0, "fusion_lat": 0.0}, {"fusion_lon": 0.0, "bike_id": "32ac1e9cda60d50400d966f565701c25", "name": "32ac1e9cda60d50400d966f565701c25", "type": "electric_scooter", "lon": -77.00215666666666, "rental_uris": {"android": "https://dc.lft.to/lastmile_qr_scan", "ios": "https://dc.lft.to/lastmile_qr_scan"}, "lat": 38.89086966666667, "is_reserved": 0, "is_disabled": 0, "fusion_lat": 0.0}, {"fusion_lon": 0.0, "bike_id": "f3f6af12223e9946f85b29bb5fe4c4b4", "name": "f3f6af12223e9946f85b29bb5fe4c4b4", "type": "electric_scooter", "lon": -77.039948, "rental_uris": {"android": "https://dc.lft.to/lastmile_qr_scan", "ios": "https://dc.lft.to/lastmile_qr_scan"}, "lat": 38.913355833333334, "is_reserved": 0, "is_disabled": 0, "fusion_lat": 0.0}, {"fusion_lon": 0.0, "bike_id": "2d75745df58930fbaf002d70124add64", "name": "2d75745df58930fbaf002d70124add64", "type": "electric_scooter", "lon": -77.02583533333333, "rental_uris": {"android": "https://dc.lft.to/lastmile_qr_scan", "ios": "https://dc.lft.to/lastmile_qr_scan"}, "lat": 38.895097666666665, "is_reserved": 0, "is_disabled": 0, "fusion_lat": 0.0}, {"fusion_lon": 0.0, "bike_id": "408094f9b756a58ca5d5add00dea639a", "name": "408094f9b756a58ca5d5add00dea639a", "type": "electric_scooter", "lon": -77.0419, "rental_uris": {"android": "https://dc.lft.to/lastmile_qr_scan", "ios": "https://dc.lft.to/lastmile_qr_scan"}, "lat": 38.92335883333333, "is_reserved": 0, "is_disabled": 0, "fusion_lat": 0.0}, {"fusion_lon": 0.0, "bike_id": "ed5967c9ae6f320bb17ace9a81877f24", "name": "ed5967c9ae6f320bb17ace9a81877f24", "type": "electric_bike", "lon": -77.0229445, "rental_uris": {"android": "https://dc.lft.to/lastmile_qr_scan", "ios": "https://dc.lft.to/lastmile_qr_scan"}, "lat": 38.965605833333335, "is_reserved": 0, "is_disabled": 0, "fusion_lat": 0.0}, {"fusion_lon": 0.0, "bike_id": "aa66ad2d5bca5d0fdbb001069953b123", "name": "aa66ad2d5bca5d0fdbb001069953b123", "type": "electric_scooter", "lon": -77.04881183333333, "rental_uris": {"android": "https://dc.lft.to/lastmile_qr_scan", "ios": "https://dc.lft.to/lastmile_qr_scan"}, "lat": 38.9035145, "is_reserved": 0, "is_disabled": 0, "fusion_lat": 0.0}, {"fusion_lon": 0.0, "bike_id": "cd445df4bf7c88714510996079097618", "name": "cd445df4bf7c88714510996079097618", "type": "electric_scooter", "lon": -77.07092866666666, "rental_uris": {"android": "https://dc.lft.to/lastmile_qr_scan", "ios": "https://dc.lft.to/lastmile_qr_scan"}, "lat": 38.91970283333333, "is_reserved": 0, "is_disabled": 0, "fusion_lat": 0.0}, {"fusion_lon": 0.0, "bike_id": "8077890a7a60213d122ae325f1f31b43", "name": "8077890a7a60213d122ae325f1f31b43", "type": "electric_scooter", "lon": -77.03825833333333, "rental_uris": {"android": "https://dc.lft.to/lastmile_qr_scan", "ios": "https://dc.lft.to/lastmile_qr_scan"}, "lat": 38.93133483333333, "is_reserved": 0, "is_disabled": 0, "fusion_lat": 0.0}, {"fusion_lon": 0.0, "bike_id": "f95aecc23db4bf43b5a739de0c93a02a", "name": "f95aecc23db4bf43b5a739de0c93a02a", "type": "electric_scooter", "lon": -77.026938, "rental_uris": {"android": "https://dc.lft.to/lastmile_qr_scan", "ios": "https://dc.lft.to/lastmile_qr_scan"}, "lat": 38.908424333333336, "is_reserved": 0, "is_disabled": 0, "fusion_lat": 0.0}, {"fusion_lon": 0.0, "bike_id": "80d096c05d62dc74a9a463e9d38317c0", "name": "80d096c05d62dc74a9a463e9d38317c0", "type": "electric_bike", "lon": -76.975014, "rental_uris": {"android": "https://dc.lft.to/lastmile_qr_scan", "ios": "https://dc.lft.to/lastmile_qr_scan"}, "lat": 38.9193495, "is_reserved": 0, "is_disabled": 0, "fusion_lat": 0.0}, {"fusion_lon": 0.0, "bike_id": "74bc2e52a8460f868cb58bfc75efd055", "name": "74bc2e52a8460f868cb58bfc75efd055", "type": "electric_scooter", "lon": -76.99136366666667, "rental_uris": {"android": "https://dc.lft.to/lastmile_qr_scan", "ios": "https://dc.lft.to/lastmile_qr_scan"}, "lat": 38.886833833333334, "is_reserved": 0, "is_disabled": 0, "fusion_lat": 0.0}, {"fusion_lon": 0.0, "bike_id": "27083c536dc76ef28e7e68feab2813b4", "name": "27083c536dc76ef28e7e68feab2813b4", "type": "electric_scooter", "lon": -76.9845935, "rental_uris": {"android": "https://dc.lft.to/lastmile_qr_scan", "ios": "https://dc.lft.to/lastmile_qr_scan"}, "lat": 38.8801165, "is_reserved": 0, "is_disabled": 0, "fusion_lat": 0.0}, {"fusion_lon": 0.0, "bike_id": "f1f180341e40ca029ca6f75353c4282b", "name": "f1f180341e40ca029ca6f75353c4282b", "type": "electric_scooter", "lon": -77.02607383333333, "rental_uris": {"android": "https://dc.lft.to/lastmile_qr_scan", "ios": "https://dc.lft.to/lastmile_qr_scan"}, "lat": 38.918508333333335, "is_reserved": 0, "is_disabled": 0, "fusion_lat": 0.0}, {"fusion_lon": 0.0, "bike_id": "040e270ac29cb560656a8739d452b232", "name": "040e270ac29cb560656a8739d452b232", "type": "electric_scooter", "lon": -77.0430575, "rental_uris": {"android": "https://dc.lft.to/lastmile_qr_scan", "ios": "https://dc.lft.to/lastmile_qr_scan"}, "lat": 38.9196585, "is_reserved": 0, "is_disabled": 0, "fusion_lat": 0.0}, {"fusion_lon": 0.0, "bike_id": "edc9776551da446f22888d945778ea39", "name": "edc9776551da446f22888d945778ea39", "type": "electric_scooter", "lon": -77.04473666666667, "rental_uris": {"android": "https://dc.lft.to/lastmile_qr_scan", "ios": "https://dc.lft.to/lastmile_qr_scan"}, "lat": 38.9108105, "is_reserved": 0, "is_disabled": 0, "fusion_lat": 0.0}, {"fusion_lon": 0.0, "bike_id": "1240ff1237f0f9a75a106b82f1ec9ab6", "name": "1240ff1237f0f9a75a106b82f1ec9ab6", "type": "electric_scooter", "lon": -77.024125, "rental_uris": {"android": "https://dc.lft.to/lastmile_qr_scan", "ios": "https://dc.lft.to/lastmile_qr_scan"}, "lat": 38.9573085, "is_reserved": 0, "is_disabled": 0, "fusion_lat": 0.0}, {"fusion_lon": 0.0, "bike_id": "cc53a79b8deea295caa1bc7fc401aad3", "name": "cc53a79b8deea295caa1bc7fc401aad3", "type": "electric_scooter", "lon": -76.97929166666667, "rental_uris": {"android": "https://dc.lft.to/lastmile_qr_scan", "ios": "https://dc.lft.to/lastmile_qr_scan"}, "lat": 38.9023955, "is_reserved": 0, "is_disabled": 0, "fusion_lat": 0.0}, {"fusion_lon": 0.0, "bike_id": "534e1c75756cda5e45f530d02d1f0d07", "name": "534e1c75756cda5e45f530d02d1f0d07", "type": "electric_scooter", "lon": -76.949438, "rental_uris": {"android": "https://dc.lft.to/lastmile_qr_scan", "ios": "https://dc.lft.to/lastmile_qr_scan"}, "lat": 38.89353333333333, "is_reserved": 0, "is_disabled": 0, "fusion_lat": 0.0}, {"fusion_lon": 0.0, "bike_id": "64c39ff38c7b0d21cf89e5f4f05a0b8d", "name": "64c39ff38c7b0d21cf89e5f4f05a0b8d", "type": "electric_scooter", "lon": -77.00885816666667, "rental_uris": {"android": "https://dc.lft.to/lastmile_qr_scan", "ios": "https://dc.lft.to/lastmile_qr_scan"}, "lat": 38.90580583333333, "is_reserved": 0, "is_disabled": 0, "fusion_lat": 0.0}, {"fusion_lon": 0.0, "bike_id": "30c59c43280a71723081a36bc2bd26da", "name": "30c59c43280a71723081a36bc2bd26da", "type": "electric_bike", "lon": -77.08435566666667, "rental_uris": {"android": "https://dc.lft.to/lastmile_qr_scan", "ios": "https://dc.lft.to/lastmile_qr_scan"}, "lat": 38.81029783333334, "is_reserved": 0, "is_disabled": 0, "fusion_lat": 0.0}, {"fusion_lon": 0.0, "bike_id": "f0ce2cdea5acb8956f68739f817fb6d5", "name": "f0ce2cdea5acb8956f68739f817fb6d5", "type": "electric_bike", "lon": -76.9095675, "rental_uris": {"android": "https://dc.lft.to/lastmile_qr_scan", "ios": "https://dc.lft.to/lastmile_qr_scan"}, "lat": 38.854259166666665, "is_reserved": 0, "is_disabled": 0, "fusion_lat": 0.0}, {"fusion_lon": 0.0, "bike_id": "80211866753f57e18d966325434b6a6b", "name": "80211866753f57e18d966325434b6a6b", "type": "electric_scooter", "lon": -77.06258116666666, "rental_uris": {"android": "https://dc.lft.to/lastmile_qr_scan", "ios": "https://dc.lft.to/lastmile_qr_scan"}, "lat": 38.90520716666666, "is_reserved": 0, "is_disabled": 0, "fusion_lat": 0.0}, {"fusion_lon": 0.0, "bike_id": "8744afe8cf18ea8d4d47002ed9793991", "name": "8744afe8cf18ea8d4d47002ed9793991", "type": "electric_scooter", "lon": -77.00730433333334, "rental_uris": {"android": "https://dc.lft.to/lastmile_qr_scan", "ios": "https://dc.lft.to/lastmile_qr_scan"}, "lat": 38.90347116666667, "is_reserved": 0, "is_disabled": 0, "fusion_lat": 0.0}, {"fusion_lon": 0.0, "bike_id": "35501930e02b36e06d3a901f287de47a", "name": "35501930e02b36e06d3a901f287de47a", "type": "electric_scooter", "lon": -77.06105633333334, "rental_uris": {"android": "https://dc.lft.to/lastmile_qr_scan", "ios": "https://dc.lft.to/lastmile_qr_scan"}, "lat": 38.943735833333335, "is_reserved": 0, "is_disabled": 0, "fusion_lat": 0.0}, {"fusion_lon": 0.0, "bike_id": "ed28d33013fab46aa15bc2e07c5b7680", "name": "ed28d33013fab46aa15bc2e07c5b7680", "type": "electric_scooter", "lon": -77.04164883333333, "rental_uris": {"android": "https://dc.lft.to/lastmile_qr_scan", "ios": "https://dc.lft.to/lastmile_qr_scan"}, "lat": 38.913388, "is_reserved": 0, "is_disabled": 0, "fusion_lat": 0.0}, {"fusion_lon": 0.0, "bike_id": "8e485e4b57afeb6838f94a2c18564207", "name": "8e485e4b57afeb6838f94a2c18564207", "type": "electric_scooter", "lon": -77.038557, "rental_uris": {"android": "https://dc.lft.to/lastmile_qr_scan", "ios": "https://dc.lft.to/lastmile_qr_scan"}, "lat": 38.912852666666666, "is_reserved": 0, "is_disabled": 0, "fusion_lat": 0.0}, {"fusion_lon": 0.0, "bike_id": "83e78e8b52cc6e27d022e17fc0406c9a", "name": "83e78e8b52cc6e27d022e17fc0406c9a", "type": "electric_scooter", "lon": -77.03657433333333, "rental_uris": {"android": "https://dc.lft.to/lastmile_qr_scan", "ios": "https://dc.lft.to/lastmile_qr_scan"}, "lat": 38.93632516666667, "is_reserved": 0, "is_disabled": 0, "fusion_lat": 0.0}, {"fusion_lon": 0.0, "bike_id": "8b9f8e3f854e24c641da9bfc4d21f56f", "name": "8b9f8e3f854e24c641da9bfc4d21f56f", "type": "electric_scooter", "lon": -77.032119, "rental_uris": {"android": "https://dc.lft.to/lastmile_qr_scan", "ios": "https://dc.lft.to/lastmile_qr_scan"}, "lat": 38.88737533333333, "is_reserved": 0, "is_disabled": 0, "fusion_lat": 0.0}, {"fusion_lon": 0.0, "bike_id": "cc67f9836b84aa18cfe71b1277230a6c", "name": "cc67f9836b84aa18cfe71b1277230a6c", "type": "electric_scooter", "lon": -76.93659033333333, "rental_uris": {"android": "https://dc.lft.to/lastmile_qr_scan", "ios": "https://dc.lft.to/lastmile_qr_scan"}, "lat": 38.88962816666667, "is_reserved": 0, "is_disabled": 0, "fusion_lat": 0.0}, {"fusion_lon": 0.0, "bike_id": "096e20b43efd21643cd383ef2ce06a59", "name": "096e20b43efd21643cd383ef2ce06a59", "type": "electric_scooter", "lon": -77.0306145, "rental_uris": {"android": "https://dc.lft.to/lastmile_qr_scan", "ios": "https://dc.lft.to/lastmile_qr_scan"}, "lat": 38.90119716666667, "is_reserved": 0, "is_disabled": 0, "fusion_lat": 0.0}, {"fusion_lon": 0.0, "bike_id": "f00953b0b464802ec4819998c47ff552", "name": "f00953b0b464802ec4819998c47ff552", "type": "electric_scooter", "lon": -77.01398033333334, "rental_uris": {"android": "https://dc.lft.to/lastmile_qr_scan", "ios": "https://dc.lft.to/lastmile_qr_scan"}, "lat": 38.928476333333336, "is_reserved": 0, "is_disabled": 0, "fusion_lat": 0.0}, {"fusion_lon": 0.0, "bike_id": "cde74a6e18d62e3edc1d493396651b8a", "name": "cde74a6e18d62e3edc1d493396651b8a", "type": "electric_scooter", "lon": -77.00960133333334, "rental_uris": {"android": "https://dc.lft.to/lastmile_qr_scan", "ios": "https://dc.lft.to/lastmile_qr_scan"}, "lat": 38.87664766666666, "is_reserved": 0, "is_disabled": 0, "fusion_lat": 0.0}, {"fusion_lon": 0.0, "bike_id": "eb534f09d6892ab5aa4e1cf65ba63c30", "name": "eb534f09d6892ab5aa4e1cf65ba63c30", "type": "electric_scooter", "lon": -77.03795266666667, "rental_uris": {"android": "https://dc.lft.to/lastmile_qr_scan", "ios": "https://dc.lft.to/lastmile_qr_scan"}, "lat": 38.935991666666666, "is_reserved": 0, "is_disabled": 0, "fusion_lat": 0.0}, {"fusion_lon": 0.0, "bike_id": "e604cb30f104136e9cc46a808263f0ea", "name": "e604cb30f104136e9cc46a808263f0ea", "type": "electric_scooter", "lon": -77.05139033333333, "rental_uris": {"android": "https://dc.lft.to/lastmile_qr_scan", "ios": "https://dc.lft.to/lastmile_qr_scan"}, "lat": 38.907110333333335, "is_reserved": 0, "is_disabled": 0, "fusion_lat": 0.0}, {"fusion_lon": 0.0, "bike_id": "653fc28054602b80f6de97814b8f6b38", "name": "653fc28054602b80f6de97814b8f6b38", "type": "electric_scooter", "lon": -77.0034305, "rental_uris": {"android": "https://dc.lft.to/lastmile_qr_scan", "ios": "https://dc.lft.to/lastmile_qr_scan"}, "lat": 38.922685333333334, "is_reserved": 0, "is_disabled": 0, "fusion_lat": 0.0}, {"fusion_lon": 0.0, "bike_id": "9668748da92c64e7516d9856a05525c5", "name": "9668748da92c64e7516d9856a05525c5", "type": "electric_scooter", "lon": -77.02583533333333, "rental_uris": {"android": "https://dc.lft.to/lastmile_qr_scan", "ios": "https://dc.lft.to/lastmile_qr_scan"}, "lat": 38.927928666666666, "is_reserved": 0, "is_disabled": 0, "fusion_lat": 0.0}, {"fusion_lon": 0.0, "bike_id": "327fb3c88cd3f004e79e8e40a8cdaed6", "name": "327fb3c88cd3f004e79e8e40a8cdaed6", "type": "electric_scooter", "lon": -76.94246266666667, "rental_uris": {"android": "https://dc.lft.to/lastmile_qr_scan", "ios": "https://dc.lft.to/lastmile_qr_scan"}, "lat": 38.8899985, "is_reserved": 0, "is_disabled": 0, "fusion_lat": 0.0}, {"fusion_lon": 0.0, "bike_id": "9e26b596643bcd85d81739b04a4a9190", "name": "9e26b596643bcd85d81739b04a4a9190", "type": "electric_scooter", "lon": -77.07247483333333, "rental_uris": {"android": "https://dc.lft.to/lastmile_qr_scan", "ios": "https://dc.lft.to/lastmile_qr_scan"}, "lat": 38.90780866666667, "is_reserved": 0, "is_disabled": 0, "fusion_lat": 0.0}, {"fusion_lon": 0.0, "bike_id": "0a7c6e9853e2ac5a599bbe7461d8851c", "name": "0a7c6e9853e2ac5a599bbe7461d8851c", "type": "electric_scooter", "lon": -77.00145866666666, "rental_uris": {"android": "https://dc.lft.to/lastmile_qr_scan", "ios": "https://dc.lft.to/lastmile_qr_scan"}, "lat": 38.87396066666667, "is_reserved": 0, "is_disabled": 0, "fusion_lat": 0.0}, {"fusion_lon": 0.0, "bike_id": "9c5a1ba7d1ee39462a9deaa9a5139341", "name": "9c5a1ba7d1ee39462a9deaa9a5139341", "type": "electric_scooter", "lon": -77.03832733333333, "rental_uris": {"android": "https://dc.lft.to/lastmile_qr_scan", "ios": "https://dc.lft.to/lastmile_qr_scan"}, "lat": 38.9156725, "is_reserved": 0, "is_disabled": 0, "fusion_lat": 0.0}, {"fusion_lon": 0.0, "bike_id": "f2edb8e4b3b2c89e0bf96602807f12b4", "name": "f2edb8e4b3b2c89e0bf96602807f12b4", "type": "electric_scooter", "lon": -77.02707733333334, "rental_uris": {"android": "https://dc.lft.to/lastmile_qr_scan", "ios": "https://dc.lft.to/lastmile_qr_scan"}, "lat": 38.90979466666667, "is_reserved": 0, "is_disabled": 0, "fusion_lat": 0.0}, {"fusion_lon": 0.0, "bike_id": "6328a7a48458f481606dc1541427eecd", "name": "6328a7a48458f481606dc1541427eecd", "type": "electric_scooter", "lon": -77.02221583333333, "rental_uris": {"android": "https://dc.lft.to/lastmile_qr_scan", "ios": "https://dc.lft.to/lastmile_qr_scan"}, "lat": 38.912678166666666, "is_reserved": 0, "is_disabled": 0, "fusion_lat": 0.0}, {"fusion_lon": 0.0, "bike_id": "3e64d989aecee4be649d7c8a235044fc", "name": "3e64d989aecee4be649d7c8a235044fc", "type": "electric_scooter", "lon": -77.01755533333333, "rental_uris": {"android": "https://dc.lft.to/lastmile_qr_scan", "ios": "https://dc.lft.to/lastmile_qr_scan"}, "lat": 38.902558666666664, "is_reserved": 0, "is_disabled": 0, "fusion_lat": 0.0}, {"fusion_lon": 0.0, "bike_id": "b8a3abfecf5e848057df3fc02f0a18fd", "name": "b8a3abfecf5e848057df3fc02f0a18fd", "type": "electric_scooter", "lon": -77.00295216666666, "rental_uris": {"android": "https://dc.lft.to/lastmile_qr_scan", "ios": "https://dc.lft.to/lastmile_qr_scan"}, "lat": 38.901277666666665, "is_reserved": 0, "is_disabled": 0, "fusion_lat": 0.0}, {"fusion_lon": 0.0, "bike_id": "e6f319c14300104fcda02ff02aba8e98", "name": "e6f319c14300104fcda02ff02aba8e98", "type": "electric_scooter", "lon": -76.9754195, "rental_uris": {"android": "https://dc.lft.to/lastmile_qr_scan", "ios": "https://dc.lft.to/lastmile_qr_scan"}, "lat": 38.90255716666667, "is_reserved": 0, "is_disabled": 0, "fusion_lat": 0.0}, {"fusion_lon": 0.0, "bike_id": "91990800354e3757d2cb0cfa0262aefd", "name": "91990800354e3757d2cb0cfa0262aefd", "type": "electric_scooter", "lon": -77.04828833333333, "rental_uris": {"android": "https://dc.lft.to/lastmile_qr_scan", "ios": "https://dc.lft.to/lastmile_qr_scan"}, "lat": 38.91049066666667, "is_reserved": 0, "is_disabled": 0, "fusion_lat": 0.0}, {"fusion_lon": 0.0, "bike_id": "7cf1a7357ba75ed47a6d966f782a2b9a", "name": "7cf1a7357ba75ed47a6d966f782a2b9a", "type": "electric_bike", "lon": -77.00668833333333, "rental_uris": {"android": "https://dc.lft.to/lastmile_qr_scan", "ios": "https://dc.lft.to/lastmile_qr_scan"}, "lat": 38.945080833333336, "is_reserved": 0, "is_disabled": 0, "fusion_lat": 0.0}, {"fusion_lon": 0.0, "bike_id": "da84007e9e80ec7dc7204381e9166a6c", "name": "da84007e9e80ec7dc7204381e9166a6c", "type": "electric_scooter", "lon": -76.9832795, "rental_uris": {"android": "https://dc.lft.to/lastmile_qr_scan", "ios": "https://dc.lft.to/lastmile_qr_scan"}, "lat": 38.889863, "is_reserved": 0, "is_disabled": 0, "fusion_lat": 0.0}, {"fusion_lon": 0.0, "bike_id": "090ba7874e8a8c9df58c1e421942076c", "name": "090ba7874e8a8c9df58c1e421942076c", "type": "electric_scooter", "lon": -77.023721, "rental_uris": {"android": "https://dc.lft.to/lastmile_qr_scan", "ios": "https://dc.lft.to/lastmile_qr_scan"}, "lat": 38.9520485, "is_reserved": 0, "is_disabled": 0, "fusion_lat": 0.0}, {"fusion_lon": 0.0, "bike_id": "9aefd12b111d673a25c37b83c4d6ed99", "name": "9aefd12b111d673a25c37b83c4d6ed99", "type": "electric_scooter", "lon": -77.0195515, "rental_uris": {"android": "https://dc.lft.to/lastmile_qr_scan", "ios": "https://dc.lft.to/lastmile_qr_scan"}, "lat": 38.90571333333333, "is_reserved": 0, "is_disabled": 0, "fusion_lat": 0.0}, {"fusion_lon": 0.0, "bike_id": "680350e0bfb59d0637e2a054f42a348a", "name": "680350e0bfb59d0637e2a054f42a348a", "type": "electric_scooter", "lon": -77.0275575, "rental_uris": {"android": "https://dc.lft.to/lastmile_qr_scan", "ios": "https://dc.lft.to/lastmile_qr_scan"}, "lat": 38.925802833333336, "is_reserved": 0, "is_disabled": 0, "fusion_lat": 0.0}, {"fusion_lon": 0.0, "bike_id": "e722ba53684feba7d8204446469de99f", "name": "e722ba53684feba7d8204446469de99f", "type": "electric_scooter", "lon": -77.04151316666666, "rental_uris": {"android": "https://dc.lft.to/lastmile_qr_scan", "ios": "https://dc.lft.to/lastmile_qr_scan"}, "lat": 38.91559916666667, "is_reserved": 0, "is_disabled": 0, "fusion_lat": 0.0}, {"fusion_lon": 0.0, "bike_id": "c1b39e1834b740bcac86fb6c0de231d2", "name": "c1b39e1834b740bcac86fb6c0de231d2", "type": "electric_scooter", "lon": -77.02778716666667, "rental_uris": {"android": "https://dc.lft.to/lastmile_qr_scan", "ios": "https://dc.lft.to/lastmile_qr_scan"}, "lat": 38.89222816666667, "is_reserved": 0, "is_disabled": 0, "fusion_lat": 0.0}, {"fusion_lon": 0.0, "bike_id": "1014e3c45c386a85802909553d3ae8e9", "name": "1014e3c45c386a85802909553d3ae8e9", "type": "electric_scooter", "lon": -76.9643405, "rental_uris": {"android": "https://dc.lft.to/lastmile_qr_scan", "ios": "https://dc.lft.to/lastmile_qr_scan"}, "lat": 38.9346595, "is_reserved": 0, "is_disabled": 0, "fusion_lat": 0.0}, {"fusion_lon": 0.0, "bike_id": "7a9e838e2892536fc3fc18154a579274", "name": "7a9e838e2892536fc3fc18154a579274", "type": "electric_scooter", "lon": -77.0388575, "rental_uris": {"android": "https://dc.lft.to/lastmile_qr_scan", "ios": "https://dc.lft.to/lastmile_qr_scan"}, "lat": 38.9343035, "is_reserved": 0, "is_disabled": 0, "fusion_lat": 0.0}, {"fusion_lon": 0.0, "bike_id": "8d27ab164156f8ca3067ae7ddff8094c", "name": "8d27ab164156f8ca3067ae7ddff8094c", "type": "electric_bike", "lon": -77.0510265, "rental_uris": {"android": "https://dc.lft.to/lastmile_qr_scan", "ios": "https://dc.lft.to/lastmile_qr_scan"}, "lat": 38.9456705, "is_reserved": 0, "is_disabled": 0, "fusion_lat": 0.0}, {"fusion_lon": 0.0, "bike_id": "8a295b44717b26d52ed31ca76caa7a9a", "name": "8a295b44717b26d52ed31ca76caa7a9a", "type": "electric_bike", "lon": -77.00001633333333, "rental_uris": {"android": "https://dc.lft.to/lastmile_qr_scan", "ios": "https://dc.lft.to/lastmile_qr_scan"}, "lat": 38.923933166666664, "is_reserved": 0, "is_disabled": 0, "fusion_lat": 0.0}, {"fusion_lon": 0.0, "bike_id": "e9fb7a965b30afcecad0f0862692e6b4", "name": "e9fb7a965b30afcecad0f0862692e6b4", "type": "electric_scooter", "lon": -76.989099, "rental_uris": {"android": "https://dc.lft.to/lastmile_qr_scan", "ios": "https://dc.lft.to/lastmile_qr_scan"}, "lat": 38.88213733333333, "is_reserved": 0, "is_disabled": 0, "fusion_lat": 0.0}, {"fusion_lon": 0.0, "bike_id": "c84e6ad92d1d2be876c43308509e0205", "name": "c84e6ad92d1d2be876c43308509e0205", "type": "electric_bike", "lon": -77.10721583333333, "rental_uris": {"android": "https://dc.lft.to/lastmile_qr_scan", "ios": "https://dc.lft.to/lastmile_qr_scan"}, "lat": 38.855388166666664, "is_reserved": 0, "is_disabled": 0, "fusion_lat": 0.0}, {"fusion_lon": 0.0, "bike_id": "a72e9e8fd8a8af08e69dde725e91f4d3", "name": "a72e9e8fd8a8af08e69dde725e91f4d3", "type": "electric_bike", "lon": -77.0541, "rental_uris": {"android": "https://dc.lft.to/lastmile_qr_scan", "ios": "https://dc.lft.to/lastmile_qr_scan"}, "lat": 38.8489, "is_reserved": 0, "is_disabled": 0, "fusion_lat": 0.0}, {"fusion_lon": 0.0, "bike_id": "7314a975edcca0a6c316371ae5fb3266", "name": "7314a975edcca0a6c316371ae5fb3266", "type": "electric_scooter", "lon": -77.039288, "rental_uris": {"android": "https://dc.lft.to/lastmile_qr_scan", "ios": "https://dc.lft.to/lastmile_qr_scan"}, "lat": 38.9249065, "is_reserved": 0, "is_disabled": 0, "fusion_lat": 0.0}, {"fusion_lon": 0.0, "bike_id": "278f446ffbeca686774b9f8a0c675009", "name": "278f446ffbeca686774b9f8a0c675009", "type": "electric_scooter", "lon": -77.06360316666667, "rental_uris": {"android": "https://dc.lft.to/lastmile_qr_scan", "ios": "https://dc.lft.to/lastmile_qr_scan"}, "lat": 38.9441905, "is_reserved": 0, "is_disabled": 0, "fusion_lat": 0.0}, {"fusion_lon": 0.0, "bike_id": "bb8d81dbb9175b953dcc7621d289ddc9", "name": "bb8d81dbb9175b953dcc7621d289ddc9", "type": "electric_scooter", "lon": -77.0320835, "rental_uris": {"android": "https://dc.lft.to/lastmile_qr_scan", "ios": "https://dc.lft.to/lastmile_qr_scan"}, "lat": 38.912637833333335, "is_reserved": 0, "is_disabled": 0, "fusion_lat": 0.0}, {"fusion_lon": 0.0, "bike_id": "53836ba2162ddf391d7d355f7eec5595", "name": "53836ba2162ddf391d7d355f7eec5595", "type": "electric_scooter", "lon": -77.0444685, "rental_uris": {"android": "https://dc.lft.to/lastmile_qr_scan", "ios": "https://dc.lft.to/lastmile_qr_scan"}, "lat": 38.90990516666667, "is_reserved": 0, "is_disabled": 0, "fusion_lat": 0.0}, {"fusion_lon": 0.0, "bike_id": "1075d84245d3208e72acefa5eae1091e", "name": "1075d84245d3208e72acefa5eae1091e", "type": "electric_scooter", "lon": -76.98613416666667, "rental_uris": {"android": "https://dc.lft.to/lastmile_qr_scan", "ios": "https://dc.lft.to/lastmile_qr_scan"}, "lat": 38.854628, "is_reserved": 0, "is_disabled": 0, "fusion_lat": 0.0}, {"fusion_lon": 0.0, "bike_id": "9e90c64268c814835b59aeb805b5c18d", "name": "9e90c64268c814835b59aeb805b5c18d", "type": "electric_scooter", "lon": -77.007114, "rental_uris": {"android": "https://dc.lft.to/lastmile_qr_scan", "ios": "https://dc.lft.to/lastmile_qr_scan"}, "lat": 38.884907, "is_reserved": 0, "is_disabled": 0, "fusion_lat": 0.0}, {"fusion_lon": 0.0, "bike_id": "647edfceecb22ae3ef77b22bc965cad2", "name": "647edfceecb22ae3ef77b22bc965cad2", "type": "electric_scooter", "lon": -77.0456625, "rental_uris": {"android": "https://dc.lft.to/lastmile_qr_scan", "ios": "https://dc.lft.to/lastmile_qr_scan"}, "lat": 38.920775166666665, "is_reserved": 0, "is_disabled": 0, "fusion_lat": 0.0}, {"fusion_lon": 0.0, "bike_id": "0fdbe5595c9033cf77fc8fdd35f75696", "name": "0fdbe5595c9033cf77fc8fdd35f75696", "type": "electric_scooter", "lon": -77.01569183333334, "rental_uris": {"android": "https://dc.lft.to/lastmile_qr_scan", "ios": "https://dc.lft.to/lastmile_qr_scan"}, "lat": 38.872592833333336, "is_reserved": 0, "is_disabled": 0, "fusion_lat": 0.0}, {"fusion_lon": 0.0, "bike_id": "b94695812eb2917acddf9da03e877c45", "name": "b94695812eb2917acddf9da03e877c45", "type": "electric_scooter", "lon": -76.9755215, "rental_uris": {"android": "https://dc.lft.to/lastmile_qr_scan", "ios": "https://dc.lft.to/lastmile_qr_scan"}, "lat": 38.902572, "is_reserved": 0, "is_disabled": 0, "fusion_lat": 0.0}, {"fusion_lon": 0.0, "bike_id": "ed0efab750a1e2083f267df6ed3c585a", "name": "ed0efab750a1e2083f267df6ed3c585a", "type": "electric_scooter", "lon": -77.04875633333333, "rental_uris": {"android": "https://dc.lft.to/lastmile_qr_scan", "ios": "https://dc.lft.to/lastmile_qr_scan"}, "lat": 38.90355866666667, "is_reserved": 0, "is_disabled": 0, "fusion_lat": 0.0}, {"fusion_lon": 0.0, "bike_id": "61ee877193538b495b11f2823f23a5d2", "name": "61ee877193538b495b11f2823f23a5d2", "type": "electric_scooter", "lon": -77.02396216666666, "rental_uris": {"android": "https://dc.lft.to/lastmile_qr_scan", "ios": "https://dc.lft.to/lastmile_qr_scan"}, "lat": 38.93097933333333, "is_reserved": 0, "is_disabled": 0, "fusion_lat": 0.0}, {"fusion_lon": 0.0, "bike_id": "009c8945232ecbf0791638e7e61c9e6c", "name": "009c8945232ecbf0791638e7e61c9e6c", "type": "electric_scooter", "lon": -77.03855233333333, "rental_uris": {"android": "https://dc.lft.to/lastmile_qr_scan", "ios": "https://dc.lft.to/lastmile_qr_scan"}, "lat": 38.91194983333333, "is_reserved": 0, "is_disabled": 0, "fusion_lat": 0.0}, {"fusion_lon": 0.0, "bike_id": "43dac297da9ccd4d09e04f271191b150", "name": "43dac297da9ccd4d09e04f271191b150", "type": "electric_bike", "lon": -77.039857, "rental_uris": {"android": "https://dc.lft.to/lastmile_qr_scan", "ios": "https://dc.lft.to/lastmile_qr_scan"}, "lat": 38.802982666666665, "is_reserved": 0, "is_disabled": 0, "fusion_lat": 0.0}, {"fusion_lon": 0.0, "bike_id": "cb5f50ad09e1fb5dcd87b11118242264", "name": "cb5f50ad09e1fb5dcd87b11118242264", "type": "electric_scooter", "lon": -77.04177716666666, "rental_uris": {"android": "https://dc.lft.to/lastmile_qr_scan", "ios": "https://dc.lft.to/lastmile_qr_scan"}, "lat": 38.90729433333333, "is_reserved": 0, "is_disabled": 0, "fusion_lat": 0.0}, {"fusion_lon": 0.0, "bike_id": "2051f4bd6fcc144c9240117e8209a6b6", "name": "2051f4bd6fcc144c9240117e8209a6b6", "type": "electric_scooter", "lon": -77.05258633333334, "rental_uris": {"android": "https://dc.lft.to/lastmile_qr_scan", "ios": "https://dc.lft.to/lastmile_qr_scan"}, "lat": 38.92571483333333, "is_reserved": 0, "is_disabled": 0, "fusion_lat": 0.0}, {"fusion_lon": 0.0, "bike_id": "660beb6330c9f4ddb047f3461c5035bd", "name": "660beb6330c9f4ddb047f3461c5035bd", "type": "electric_scooter", "lon": -77.0238715, "rental_uris": {"android": "https://dc.lft.to/lastmile_qr_scan", "ios": "https://dc.lft.to/lastmile_qr_scan"}, "lat": 38.90746466666667, "is_reserved": 0, "is_disabled": 0, "fusion_lat": 0.0}, {"fusion_lon": 0.0, "bike_id": "2874e7798276f35c2abde857003cc4d2", "name": "2874e7798276f35c2abde857003cc4d2", "type": "electric_scooter", "lon": -77.001359, "rental_uris": {"android": "https://dc.lft.to/lastmile_qr_scan", "ios": "https://dc.lft.to/lastmile_qr_scan"}, "lat": 38.907409666666666, "is_reserved": 0, "is_disabled": 0, "fusion_lat": 0.0}, {"fusion_lon": 0.0, "bike_id": "cd2edf86dc286fbfc8935c69fe3c6cff", "name": "cd2edf86dc286fbfc8935c69fe3c6cff", "type": "electric_bike", "lon": -77.02711433333333, "rental_uris": {"android": "https://dc.lft.to/lastmile_qr_scan", "ios": "https://dc.lft.to/lastmile_qr_scan"}, "lat": 38.92296416666667, "is_reserved": 0, "is_disabled": 0, "fusion_lat": 0.0}, {"fusion_lon": 0.0, "bike_id": "9ccdd296c0ff9c1779cb2380447072e1", "name": "9ccdd296c0ff9c1779cb2380447072e1", "type": "electric_scooter", "lon": -77.023841, "rental_uris": {"android": "https://dc.lft.to/lastmile_qr_scan", "ios": "https://dc.lft.to/lastmile_qr_scan"}, "lat": 38.9173835, "is_reserved": 0, "is_disabled": 0, "fusion_lat": 0.0}, {"fusion_lon": 0.0, "bike_id": "76b9597494f70e0868ba1e0cfc9cafe0", "name": "76b9597494f70e0868ba1e0cfc9cafe0", "type": "electric_bike", "lon": -77.070392, "rental_uris": {"android": "https://dc.lft.to/lastmile_qr_scan", "ios": "https://dc.lft.to/lastmile_qr_scan"}, "lat": 38.824461, "is_reserved": 0, "is_disabled": 0, "fusion_lat": 0.0}, {"fusion_lon": 0.0, "bike_id": "4ac095867f0e0c4470ea350b72ae8122", "name": "4ac095867f0e0c4470ea350b72ae8122", "type": "electric_scooter", "lon": -77.00186, "rental_uris": {"android": "https://dc.lft.to/lastmile_qr_scan", "ios": "https://dc.lft.to/lastmile_qr_scan"}, "lat": 38.90382433333333, "is_reserved": 0, "is_disabled": 0, "fusion_lat": 0.0}, {"fusion_lon": 0.0, "bike_id": "4f8024460fa8cb0256053c337da23004", "name": "4f8024460fa8cb0256053c337da23004", "type": "electric_scooter", "lon": -77.063893, "rental_uris": {"android": "https://dc.lft.to/lastmile_qr_scan", "ios": "https://dc.lft.to/lastmile_qr_scan"}, "lat": 38.92910066666666, "is_reserved": 0, "is_disabled": 0, "fusion_lat": 0.0}, {"fusion_lon": 0.0, "bike_id": "18ed024ef4b4ade6825d6f7d22caf7dc", "name": "18ed024ef4b4ade6825d6f7d22caf7dc", "type": "electric_bike", "lon": -77.129837, "rental_uris": {"android": "https://dc.lft.to/lastmile_qr_scan", "ios": "https://dc.lft.to/lastmile_qr_scan"}, "lat": 38.799862166666664, "is_reserved": 0, "is_disabled": 0, "fusion_lat": 0.0}, {"fusion_lon": 0.0, "bike_id": "e35ee8d0ee2e18e5d7d74bcf2a23596f", "name": "e35ee8d0ee2e18e5d7d74bcf2a23596f", "type": "electric_bike", "lon": -77.12815233333333, "rental_uris": {"android": "https://dc.lft.to/lastmile_qr_scan", "ios": "https://dc.lft.to/lastmile_qr_scan"}, "lat": 38.865343333333335, "is_reserved": 0, "is_disabled": 0, "fusion_lat": 0.0}, {"fusion_lon": 0.0, "bike_id": "ae9e5a327f42cc3efba6e2253eed234c", "name": "ae9e5a327f42cc3efba6e2253eed234c", "type": "electric_scooter", "lon": -77.0231355, "rental_uris": {"android": "https://dc.lft.to/lastmile_qr_scan", "ios": "https://dc.lft.to/lastmile_qr_scan"}, "lat": 38.91776216666667, "is_reserved": 0, "is_disabled": 0, "fusion_lat": 0.0}, {"fusion_lon": 0.0, "bike_id": "75239b588e7a3553cfc585a28cd7278f", "name": "75239b588e7a3553cfc585a28cd7278f", "type": "electric_scooter", "lon": -77.03163616666667, "rental_uris": {"android": "https://dc.lft.to/lastmile_qr_scan", "ios": "https://dc.lft.to/lastmile_qr_scan"}, "lat": 38.900970666666666, "is_reserved": 0, "is_disabled": 0, "fusion_lat": 0.0}, {"fusion_lon": 0.0, "bike_id": "b689d38ba659b48081b8f932f65cc732", "name": "b689d38ba659b48081b8f932f65cc732", "type": "electric_scooter", "lon": -76.98707616666667, "rental_uris": {"android": "https://dc.lft.to/lastmile_qr_scan", "ios": "https://dc.lft.to/lastmile_qr_scan"}, "lat": 38.865368, "is_reserved": 0, "is_disabled": 0, "fusion_lat": 0.0}, {"fusion_lon": 0.0, "bike_id": "569550490efef1daa37800c5d16f7383", "name": "569550490efef1daa37800c5d16f7383", "type": "electric_scooter", "lon": -76.994416, "rental_uris": {"android": "https://dc.lft.to/lastmile_qr_scan", "ios": "https://dc.lft.to/lastmile_qr_scan"}, "lat": 38.90517633333333, "is_reserved": 0, "is_disabled": 0, "fusion_lat": 0.0}, {"fusion_lon": 0.0, "bike_id": "b84406af0b7b1d7385409627fe6d7f89", "name": "b84406af0b7b1d7385409627fe6d7f89", "type": "electric_scooter", "lon": -77.04216783333334, "rental_uris": {"android": "https://dc.lft.to/lastmile_qr_scan", "ios": "https://dc.lft.to/lastmile_qr_scan"}, "lat": 38.921711, "is_reserved": 0, "is_disabled": 0, "fusion_lat": 0.0}, {"fusion_lon": 0.0, "bike_id": "450225b9299f3e23354671533664e296", "name": "450225b9299f3e23354671533664e296", "type": "electric_scooter", "lon": -77.027114, "rental_uris": {"android": "https://dc.lft.to/lastmile_qr_scan", "ios": "https://dc.lft.to/lastmile_qr_scan"}, "lat": 38.909813166666666, "is_reserved": 0, "is_disabled": 0, "fusion_lat": 0.0}, {"fusion_lon": 0.0, "bike_id": "9e17bd1a130b394b064b97a60765c332", "name": "9e17bd1a130b394b064b97a60765c332", "type": "electric_scooter", "lon": -76.9855725, "rental_uris": {"android": "https://dc.lft.to/lastmile_qr_scan", "ios": "https://dc.lft.to/lastmile_qr_scan"}, "lat": 38.90037433333333, "is_reserved": 0, "is_disabled": 0, "fusion_lat": 0.0}, {"fusion_lon": 0.0, "bike_id": "7ecb714fc075fbec2865db2fa845819e", "name": "7ecb714fc075fbec2865db2fa845819e", "type": "electric_scooter", "lon": -77.00073816666666, "rental_uris": {"android": "https://dc.lft.to/lastmile_qr_scan", "ios": "https://dc.lft.to/lastmile_qr_scan"}, "lat": 38.91955683333333, "is_reserved": 0, "is_disabled": 0, "fusion_lat": 0.0}, {"fusion_lon": 0.0, "bike_id": "9a62816279f028ed076e4aba611f2dbb", "name": "9a62816279f028ed076e4aba611f2dbb", "type": "electric_scooter", "lon": -76.94884133333333, "rental_uris": {"android": "https://dc.lft.to/lastmile_qr_scan", "ios": "https://dc.lft.to/lastmile_qr_scan"}, "lat": 38.895100166666666, "is_reserved": 0, "is_disabled": 0, "fusion_lat": 0.0}, {"fusion_lon": 0.0, "bike_id": "3e14d839ea0416708584b2cc92d0d481", "name": "3e14d839ea0416708584b2cc92d0d481", "type": "electric_scooter", "lon": -77.014741, "rental_uris": {"android": "https://dc.lft.to/lastmile_qr_scan", "ios": "https://dc.lft.to/lastmile_qr_scan"}, "lat": 38.876464666666664, "is_reserved": 0, "is_disabled": 0, "fusion_lat": 0.0}, {"fusion_lon": 0.0, "bike_id": "5cbafd91e5ba09a7b019c44c43d14d0f", "name": "5cbafd91e5ba09a7b019c44c43d14d0f", "type": "electric_scooter", "lon": -77.0027785, "rental_uris": {"android": "https://dc.lft.to/lastmile_qr_scan", "ios": "https://dc.lft.to/lastmile_qr_scan"}, "lat": 38.93917833333333, "is_reserved": 0, "is_disabled": 0, "fusion_lat": 0.0}, {"fusion_lon": 0.0, "bike_id": "f142ad767493589738a60d666f6b0c99", "name": "f142ad767493589738a60d666f6b0c99", "type": "electric_scooter", "lon": -77.005178, "rental_uris": {"android": "https://dc.lft.to/lastmile_qr_scan", "ios": "https://dc.lft.to/lastmile_qr_scan"}, "lat": 38.874725, "is_reserved": 0, "is_disabled": 0, "fusion_lat": 0.0}, {"fusion_lon": 0.0, "bike_id": "0b050a2650674d3ec19c41319059a4d2", "name": "0b050a2650674d3ec19c41319059a4d2", "type": "electric_scooter", "lon": -77.04703533333333, "rental_uris": {"android": "https://dc.lft.to/lastmile_qr_scan", "ios": "https://dc.lft.to/lastmile_qr_scan"}, "lat": 38.9126875, "is_reserved": 0, "is_disabled": 0, "fusion_lat": 0.0}, {"fusion_lon": 0.0, "bike_id": "5d0a05a944cfe6561e2766835ee3ec82", "name": "5d0a05a944cfe6561e2766835ee3ec82", "type": "electric_scooter", "lon": -77.01441283333334, "rental_uris": {"android": "https://dc.lft.to/lastmile_qr_scan", "ios": "https://dc.lft.to/lastmile_qr_scan"}, "lat": 38.912537666666665, "is_reserved": 0, "is_disabled": 0, "fusion_lat": 0.0}, {"fusion_lon": 0.0, "bike_id": "feb10312cc8225cfb5b6437d49f4da35", "name": "feb10312cc8225cfb5b6437d49f4da35", "type": "electric_scooter", "lon": -76.99378566666667, "rental_uris": {"android": "https://dc.lft.to/lastmile_qr_scan", "ios": "https://dc.lft.to/lastmile_qr_scan"}, "lat": 38.921017166666665, "is_reserved": 0, "is_disabled": 0, "fusion_lat": 0.0}, {"fusion_lon": 0.0, "bike_id": "683699e3c34b733c8c78777a73cff164", "name": "683699e3c34b733c8c78777a73cff164", "type": "electric_scooter", "lon": -76.99944016666667, "rental_uris": {"android": "https://dc.lft.to/lastmile_qr_scan", "ios": "https://dc.lft.to/lastmile_qr_scan"}, "lat": 38.90058166666667, "is_reserved": 0, "is_disabled": 0, "fusion_lat": 0.0}, {"fusion_lon": 0.0, "bike_id": "3df3afdaff0982a7ff278f48f213de92", "name": "3df3afdaff0982a7ff278f48f213de92", "type": "electric_scooter", "lon": -76.98846766666666, "rental_uris": {"android": "https://dc.lft.to/lastmile_qr_scan", "ios": "https://dc.lft.to/lastmile_qr_scan"}, "lat": 38.900277333333335, "is_reserved": 0, "is_disabled": 0, "fusion_lat": 0.0}, {"fusion_lon": 0.0, "bike_id": "1c946e69fb1804b36763f2e79a25fb4c", "name": "1c946e69fb1804b36763f2e79a25fb4c", "type": "electric_scooter", "lon": -77.04220566666666, "rental_uris": {"android": "https://dc.lft.to/lastmile_qr_scan", "ios": "https://dc.lft.to/lastmile_qr_scan"}, "lat": 38.921800833333336, "is_reserved": 0, "is_disabled": 0, "fusion_lat": 0.0}, {"fusion_lon": 0.0, "bike_id": "83ebba1ee52a3a8e483eb69ac2b5298b", "name": "83ebba1ee52a3a8e483eb69ac2b5298b", "type": "electric_scooter", "lon": -77.0237515, "rental_uris": {"android": "https://dc.lft.to/lastmile_qr_scan", "ios": "https://dc.lft.to/lastmile_qr_scan"}, "lat": 38.90583733333333, "is_reserved": 0, "is_disabled": 0, "fusion_lat": 0.0}, {"fusion_lon": 0.0, "bike_id": "2b297a7a5b78ecd19ceca733c3f272af", "name": "2b297a7a5b78ecd19ceca733c3f272af", "type": "electric_scooter", "lon": -77.04151883333333, "rental_uris": {"android": "https://dc.lft.to/lastmile_qr_scan", "ios": "https://dc.lft.to/lastmile_qr_scan"}, "lat": 38.91788433333333, "is_reserved": 0, "is_disabled": 0, "fusion_lat": 0.0}, {"fusion_lon": 0.0, "bike_id": "2611704055bcad5ba8f052c4e8260ea9", "name": "2611704055bcad5ba8f052c4e8260ea9", "type": "electric_scooter", "lon": -77.03470116666666, "rental_uris": {"android": "https://dc.lft.to/lastmile_qr_scan", "ios": "https://dc.lft.to/lastmile_qr_scan"}, "lat": 38.917201666666664, "is_reserved": 0, "is_disabled": 0, "fusion_lat": 0.0}, {"fusion_lon": 0.0, "bike_id": "3fb2461f8920e10faf1a0baec55c1785", "name": "3fb2461f8920e10faf1a0baec55c1785", "type": "electric_scooter", "lon": -77.03828383333334, "rental_uris": {"android": "https://dc.lft.to/lastmile_qr_scan", "ios": "https://dc.lft.to/lastmile_qr_scan"}, "lat": 38.91566566666667, "is_reserved": 0, "is_disabled": 0, "fusion_lat": 0.0}, {"fusion_lon": 0.0, "bike_id": "5c9f949135f124cfa48b73b70f114308", "name": "5c9f949135f124cfa48b73b70f114308", "type": "electric_scooter", "lon": -76.94281566666666, "rental_uris": {"android": "https://dc.lft.to/lastmile_qr_scan", "ios": "https://dc.lft.to/lastmile_qr_scan"}, "lat": 38.8829995, "is_reserved": 0, "is_disabled": 0, "fusion_lat": 0.0}, {"fusion_lon": 0.0, "bike_id": "e79faf58342a7bbeae8e649b54c10a0e", "name": "e79faf58342a7bbeae8e649b54c10a0e", "type": "electric_bike", "lon": -77.08939783333334, "rental_uris": {"android": "https://dc.lft.to/lastmile_qr_scan", "ios": "https://dc.lft.to/lastmile_qr_scan"}, "lat": 38.841045666666666, "is_reserved": 0, "is_disabled": 0, "fusion_lat": 0.0}, {"fusion_lon": 0.0, "bike_id": "c8687651b3b0b8956af234794920e9c9", "name": "c8687651b3b0b8956af234794920e9c9", "type": "electric_scooter", "lon": -76.98336566666667, "rental_uris": {"android": "https://dc.lft.to/lastmile_qr_scan", "ios": "https://dc.lft.to/lastmile_qr_scan"}, "lat": 38.86255383333334, "is_reserved": 0, "is_disabled": 0, "fusion_lat": 0.0}, {"fusion_lon": 0.0, "bike_id": "6c1d415316269a4e19d2da1f6436363d", "name": "6c1d415316269a4e19d2da1f6436363d", "type": "electric_scooter", "lon": -76.99156583333334, "rental_uris": {"android": "https://dc.lft.to/lastmile_qr_scan", "ios": "https://dc.lft.to/lastmile_qr_scan"}, "lat": 38.89773183333333, "is_reserved": 0, "is_disabled": 0, "fusion_lat": 0.0}, {"fusion_lon": 0.0, "bike_id": "3965905c1efcbb42d6a774772913643a", "name": "3965905c1efcbb42d6a774772913643a", "type": "electric_scooter", "lon": -77.036641, "rental_uris": {"android": "https://dc.lft.to/lastmile_qr_scan", "ios": "https://dc.lft.to/lastmile_qr_scan"}, "lat": 38.9270385, "is_reserved": 0, "is_disabled": 0, "fusion_lat": 0.0}, {"fusion_lon": 0.0, "bike_id": "64989775bdb859b2db3d2b6583e3abf0", "name": "64989775bdb859b2db3d2b6583e3abf0", "type": "electric_scooter", "lon": -76.99440633333333, "rental_uris": {"android": "https://dc.lft.to/lastmile_qr_scan", "ios": "https://dc.lft.to/lastmile_qr_scan"}, "lat": 38.922914166666665, "is_reserved": 0, "is_disabled": 0, "fusion_lat": 0.0}, {"fusion_lon": 0.0, "bike_id": "3df5b46d728e4519ad8b94f15386dd08", "name": "3df5b46d728e4519ad8b94f15386dd08", "type": "electric_scooter", "lon": -77.04674633333333, "rental_uris": {"android": "https://dc.lft.to/lastmile_qr_scan", "ios": "https://dc.lft.to/lastmile_qr_scan"}, "lat": 38.90720866666667, "is_reserved": 0, "is_disabled": 0, "fusion_lat": 0.0}, {"fusion_lon": 0.0, "bike_id": "455cd05b7bf70185c32520caacf17332", "name": "455cd05b7bf70185c32520caacf17332", "type": "electric_scooter", "lon": -76.98772283333334, "rental_uris": {"android": "https://dc.lft.to/lastmile_qr_scan", "ios": "https://dc.lft.to/lastmile_qr_scan"}, "lat": 38.88309816666667, "is_reserved": 0, "is_disabled": 0, "fusion_lat": 0.0}, {"fusion_lon": 0.0, "bike_id": "9980b1de227f34e27308d394779a3bff", "name": "9980b1de227f34e27308d394779a3bff", "type": "electric_scooter", "lon": -77.03794933333333, "rental_uris": {"android": "https://dc.lft.to/lastmile_qr_scan", "ios": "https://dc.lft.to/lastmile_qr_scan"}, "lat": 38.933192166666664, "is_reserved": 0, "is_disabled": 0, "fusion_lat": 0.0},