{"data": {"bikes": [{"type": "electric_scooter", "bike_id": "3f599eb3c03b558a66e654dccabe275f", "is_disabled": 0, "name": "3f599eb3c03b558a66e654dccabe275f", "lon": -77.02131216666666, "is_reserved": 0, "fusion_lon": 0.0, "lat": 38.923625666666666, "rental_uris": {"android": "https://dc.lft.to/lastmile_qr_scan", "ios": "https://dc.lft.to/lastmile_qr_scan"}, "fusion_lat": 0.0}, {"type": "electric_scooter", "bike_id": "a4c88f9263dacc269348dd5b511b0f0c", "is_disabled": 0, "name": "a4c88f9263dacc269348dd5b511b0f0c", "lon": -76.98372183333333, "is_reserved": 0, "fusion_lon": 0.0, "lat": 38.8926475, "rental_uris": {"android": "https://dc.lft.to/lastmile_qr_scan", "ios": "https://dc.lft.to/lastmile_qr_scan"}, "fusion_lat": 0.0}, {"type": "electric_scooter", "bike_id": "1e6b0f4708ff92bd02b28ab57690de4e", "is_disabled": 0, "name": "1e6b0f4708ff92bd02b28ab57690de4e", "lon": -77.07326133333333, "is_reserved": 0, "fusion_lon": 0.0, "lat": 38.921936, "rental_uris": {"android": "https://dc.lft.to/lastmile_qr_scan", "ios": "https://dc.lft.to/lastmile_qr_scan"}, "fusion_lat": 0.0}, {"type": "electric_scooter", "bike_id": "a7505c7605ff76ec812f5b8c1dfcfac8", "is_disabled": 0, "name": "a7505c7605ff76ec812f5b8c1dfcfac8", "lon": -77.04245666666667, "is_reserved": 0, "fusion_lon": 0.0, "lat": 38.903624666666666, "rental_uris": {"android": "https://dc.lft.to/lastmile_qr_scan", "ios": "https://dc.lft.to/lastmile_qr_scan"}, "fusion_lat": 0.0}, {"type": "electric_scooter", "bike_id": "930e68d2dd33cc4ed1ae7a232a7c5818", "is_disabled": 0, "name": "930e68d2dd33cc4ed1ae7a232a7c5818", "lon": -76.99346366666667, "is_reserved": 0, "fusion_lon": 0.0, "lat": 38.90008533333334, "rental_uris": {"android": "https://dc.lft.to/lastmile_qr_scan", "ios": "https://dc.lft.to/lastmile_qr_scan"}, "fusion_lat": 0.0}, {"type": "electric_scooter", "bike_id": "5b2e8cdd2f760d186caf52e37fb1dbd0", "is_disabled": 0, "name": "5b2e8cdd2f760d186caf52e37fb1dbd0", "lon": -77.0266445, "is_reserved": 0, "fusion_lon": 0.0, "lat": 38.921777166666665, "rental_uris": {"android": "https://dc.lft.to/lastmile_qr_scan", "ios": "https://dc.lft.to/lastmile_qr_scan"}, "fusion_lat": 0.0}, {"type": "electric_scooter", "bike_id": "56a652fff22a91395605ed53fb269aff", "is_disabled": 0, "name": "56a652fff22a91395605ed53fb269aff", "lon": -77.01193083333334, "is_reserved": 0, "fusion_lon": 0.0, "lat": 38.89997316666667, "rental_uris": {"android": "https://dc.lft.to/lastmile_qr_scan", "ios": "https://dc.lft.to/lastmile_qr_scan"}, "fusion_lat": 0.0}, {"type": "electric_scooter", "bike_id": "fdca3c03a768b8fa68013af53ee272f8", "is_disabled": 0, "name": "fdca3c03a768b8fa68013af53ee272f8", "lon": -77.04901983333333, "is_reserved": 0, "fusion_lon": 0.0, "lat": 38.905440166666665, "rental_uris": {"android": "https://dc.lft.to/lastmile_qr_scan", "ios": "https://dc.lft.to/lastmile_qr_scan"}, "fusion_lat": 0.0}, {"type": "electric_bike", "bike_id": "652c47e5615359a76f5d2ade88e40312", "is_disabled": 0, "name": "652c47e5615359a76f5d2ade88e40312", "lon": -77.0775155, "is_reserved": 0, "fusion_lon": 0.0, "lat": 38.84193833333333, "rental_uris": {"android": "https://dc.lft.to/lastmile_qr_scan", "ios": "https://dc.lft.to/lastmile_qr_scan"}, "fusion_lat": 0.0}, {"type": "electric_scooter", "bike_id": "2bd0b61389868c82eb001608284aeed5", "is_disabled": 0, "name": "2bd0b61389868c82eb001608284aeed5", "lon": -77.0293645, "is_reserved": 0, "fusion_lon": 0.0, "lat": 38.907130333333335, "rental_uris": {"android": "https://dc.lft.to/lastmile_qr_scan", "ios": "https://dc.lft.to/lastmile_qr_scan"}, "fusion_lat": 0.0}, {"type": "electric_scooter", "bike_id": "4c2fab58230c2ca91f8ef51c44a7b91e", "is_disabled": 0, "name": "4c2fab58230c2ca91f8ef51c44a7b91e", "lon": -77.033847, "is_reserved": 0, "fusion_lon": 0.0, "lat": 38.92463, "rental_uris": {"android": "https://dc.lft.to/lastmile_qr_scan", "ios": "https://dc.lft.to/lastmile_qr_scan"}, "fusion_lat": 0.0}, {"type": "electric_scooter", "bike_id": "289a453dd84004444eb9416364a8f100", "is_disabled": 0, "name": "289a453dd84004444eb9416364a8f100", "lon": -77.0433865, "is_reserved": 0, "fusion_lon": 0.0, "lat": 38.91776866666667, "rental_uris": {"android": "https://dc.lft.to/lastmile_qr_scan", "ios": "https://dc.lft.to/lastmile_qr_scan"}, "fusion_lat": 0.0}, {"type": "electric_scooter", "bike_id": "64bcfe276d60c22d49259bf6796ace3e", "is_disabled": 0, "name": "64bcfe276d60c22d49259bf6796ace3e", "lon": -77.04083016666667, "is_reserved": 0, "fusion_lon": 0.0, "lat": 38.905190166666664, "rental_uris": {"android": "https://dc.lft.to/lastmile_qr_scan", "ios": "https://dc.lft.to/lastmile_qr_scan"}, "fusion_lat": 0.0}, {"type": "electric_scooter", "bike_id": "c67b033dfe910c3fca8617a90f7ab83c", "is_disabled": 0, "name": "c67b033dfe910c3fca8617a90f7ab83c", "lon": -77.01172483333333, "is_reserved": 0, "fusion_lon": 0.0, "lat": 38.900296166666664, "rental_uris": {"android": "https://dc.lft.to/lastmile_qr_scan", "ios": "https://dc.lft.to/lastmile_qr_scan"}, "fusion_lat": 0.0}, {"type": "electric_scooter", "bike_id": "01882227f6d4b531337a6063c2fc90e7", "is_disabled": 0, "name": "01882227f6d4b531337a6063c2fc90e7", "lon": -77.0152345, "is_reserved": 0, "fusion_lon": 0.0, "lat": 38.893238, "rental_uris": {"android": "https://dc.lft.to/lastmile_qr_scan", "ios": "https://dc.lft.to/lastmile_qr_scan"}, "fusion_lat": 0.0}, {"type": "electric_scooter", "bike_id": "980917f1c45f17e3e15b7260c2c27209", "is_disabled": 0, "name": "980917f1c45f17e3e15b7260c2c27209", "lon": -77.03457716666666, "is_reserved": 0, "fusion_lon": 0.0, "lat": 38.91176566666667, "rental_uris": {"android": "https://dc.lft.to/lastmile_qr_scan", "ios": "https://dc.lft.to/lastmile_qr_scan"}, "fusion_lat": 0.0}, {"type": "electric_scooter", "bike_id": "dc3dfcc008f4ad3d0f6d8a1ecc4733ee", "is_disabled": 0, "name": "dc3dfcc008f4ad3d0f6d8a1ecc4733ee", "lon": -77.04229966666666, "is_reserved": 0, "fusion_lon": 0.0, "lat": 38.922814, "rental_uris": {"android": "https://dc.lft.to/lastmile_qr_scan", "ios": "https://dc.lft.to/lastmile_qr_scan"}, "fusion_lat": 0.0}, {"type": "electric_scooter", "bike_id": "e11ae6acf8298a953409248d963bfa3e", "is_disabled": 0, "name": "e11ae6acf8298a953409248d963bfa3e", "lon": -76.95740316666667, "is_reserved": 0, "fusion_lon": 0.0, "lat": 38.88394916666667, "rental_uris": {"android": "https://dc.lft.to/lastmile_qr_scan", "ios": "https://dc.lft.to/lastmile_qr_scan"}, "fusion_lat": 0.0}, {"type": "electric_scooter", "bike_id": "903bbded2e2c5849512d2ac7c2503c7c", "is_disabled": 0, "name": "903bbded2e2c5849512d2ac7c2503c7c", "lon": -77.0231545, "is_reserved": 0, "fusion_lon": 0.0, "lat": 38.894614833333335, "rental_uris": {"android": "https://dc.lft.to/lastmile_qr_scan", "ios": "https://dc.lft.to/lastmile_qr_scan"}, "fusion_lat": 0.0}, {"type": "electric_bike", "bike_id": "451e476924a41c04499145e0df9a3749", "is_disabled": 0, "name": "451e476924a41c04499145e0df9a3749", "lon": -77.02007533333334, "is_reserved": 0, "fusion_lon": 0.0, "lat": 39.026227666666664, "rental_uris": {"android": "https://dc.lft.to/lastmile_qr_scan", "ios": "https://dc.lft.to/lastmile_qr_scan"}, "fusion_lat": 0.0}, {"type": "electric_scooter", "bike_id": "a561d0bf09fd69d9a567c2cf1f241e76", "is_disabled": 0, "name": "a561d0bf09fd69d9a567c2cf1f241e76", "lon": -77.03242716666666, "is_reserved": 0, "fusion_lon": 0.0, "lat": 38.928826666666666, "rental_uris": {"android": "https://dc.lft.to/lastmile_qr_scan", "ios": "https://dc.lft.to/lastmile_qr_scan"}, "fusion_lat": 0.0}, {"type": "electric_bike", "bike_id": "85a83207e8d9a20a0274172e2bb7fd08", "is_disabled": 0, "name": "85a83207e8d9a20a0274172e2bb7fd08", "lon": -77.112866, "is_reserved": 0, "fusion_lon": 0.0, "lat": 38.8310325, "rental_uris": {"android": "https://dc.lft.to/lastmile_qr_scan", "ios": "https://dc.lft.to/lastmile_qr_scan"}, "fusion_lat": 0.0}, {"type": "electric_scooter", "bike_id": "5a231d9a57bcbb07ada509438219865a", "is_disabled": 0, "name": "5a231d9a57bcbb07ada509438219865a", "lon": -77.00819216666666, "is_reserved": 0, "fusion_lon": 0.0, "lat": 38.915694, "rental_uris": {"android": "https://dc.lft.to/lastmile_qr_scan", "ios": "https://dc.lft.to/lastmile_qr_scan"}, "fusion_lat": 0.0}, {"type": "electric_scooter", "bike_id": "cb7cabc0c7c1db3fce2b1a2130c4a398", "is_disabled": 0, "name": "cb7cabc0c7c1db3fce2b1a2130c4a398", "lon": -77.02694416666667, "is_reserved": 0, "fusion_lon": 0.0, "lat": 38.930834, "rental_uris": {"android": "https://dc.lft.to/lastmile_qr_scan", "ios": "https://dc.lft.to/lastmile_qr_scan"}, "fusion_lat": 0.0}, {"type": "electric_scooter", "bike_id": "7df79b7a64dfc70da22f3562d2138d5b", "is_disabled": 0, "name": "7df79b7a64dfc70da22f3562d2138d5b", "lon": -77.018213, "is_reserved": 0, "fusion_lon": 0.0, "lat": 38.921443333333336, "rental_uris": {"android": "https://dc.lft.to/lastmile_qr_scan", "ios": "https://dc.lft.to/lastmile_qr_scan"}, "fusion_lat": 0.0}, {"type": "electric_bike", "bike_id": "ad89f57bb63bfab47023d34df4ba2b1f", "is_disabled": 0, "name": "ad89f57bb63bfab47023d34df4ba2b1f", "lon": -76.99548533333333, "is_reserved": 0, "fusion_lon": 0.0, "lat": 38.862021666666664, "rental_uris": {"android": "https://dc.lft.to/lastmile_qr_scan", "ios": "https://dc.lft.to/lastmile_qr_scan"}, "fusion_lat": 0.0}, {"type": "electric_scooter", "bike_id": "f886a31bfe6837528ddcacea651ac692", "is_disabled": 0, "name": "f886a31bfe6837528ddcacea651ac692", "lon": -77.0365875, "is_reserved": 0, "fusion_lon": 0.0, "lat": 38.9179975, "rental_uris": {"android": "https://dc.lft.to/lastmile_qr_scan", "ios": "https://dc.lft.to/lastmile_qr_scan"}, "fusion_lat": 0.0}, {"type": "electric_scooter", "bike_id": "6a6f8d4d917d75134b0f165680389d6f", "is_disabled": 0, "name": "6a6f8d4d917d75134b0f165680389d6f", "lon": -77.034296, "is_reserved": 0, "fusion_lon": 0.0, "lat": 38.91412233333333, "rental_uris": {"android": "https://dc.lft.to/lastmile_qr_scan", "ios": "https://dc.lft.to/lastmile_qr_scan"}, "fusion_lat": 0.0}, {"type": "electric_scooter", "bike_id": "6825a06e91a831d3ba2c51837382086e", "is_disabled": 0, "name": "6825a06e91a831d3ba2c51837382086e", "lon": -77.0169085, "is_reserved": 0, "fusion_lon": 0.0, "lat": 38.920424, "rental_uris": {"android": "https://dc.lft.to/lastmile_qr_scan", "ios": "https://dc.lft.to/lastmile_qr_scan"}, "fusion_lat": 0.0}, {"type": "electric_scooter", "bike_id": "39ca0b03e336c129878a07503e658034", "is_disabled": 0, "name": "39ca0b03e336c129878a07503e658034", "lon": -77.02805333333333, "is_reserved": 0, "fusion_lon": 0.0, "lat": 38.91055016666667, "rental_uris": {"android": "https://dc.lft.to/lastmile_qr_scan", "ios": "https://dc.lft.to/lastmile_qr_scan"}, "fusion_lat": 0.0}, {"type": "electric_scooter", "bike_id": "b490991806953fbb8048052cc3e221e6", "is_disabled": 0, "name": "b490991806953fbb8048052cc3e221e6", "lon": -77.01889433333334, "is_reserved": 0, "fusion_lon": 0.0, "lat": 38.89747083333334, "rental_uris": {"android": "https://dc.lft.to/lastmile_qr_scan", "ios": "https://dc.lft.to/lastmile_qr_scan"}, "fusion_lat": 0.0}, {"type": "electric_scooter", "bike_id": "eddd25d00b4253f01d763731b469763f", "is_disabled": 0, "name": "eddd25d00b4253f01d763731b469763f", "lon": -77.02661933333333, "is_reserved": 0, "fusion_lon": 0.0, "lat": 38.9310085, "rental_uris": {"android": "https://dc.lft.to/lastmile_qr_scan", "ios": "https://dc.lft.to/lastmile_qr_scan"}, "fusion_lat": 0.0}, {"type": "electric_scooter", "bike_id": "fe1786c5a7a7f6ddd77c2ce88a621ecc", "is_disabled": 0, "name": "fe1786c5a7a7f6ddd77c2ce88a621ecc", "lon": -77.03092083333334, "is_reserved": 0, "fusion_lon": 0.0, "lat": 38.923796833333334, "rental_uris": {"android": "https://dc.lft.to/lastmile_qr_scan", "ios": "https://dc.lft.to/lastmile_qr_scan"}, "fusion_lat": 0.0}, {"type": "electric_scooter", "bike_id": "5e2c634bf37e7304967509a3d5bb3d85", "is_disabled": 0, "name": "5e2c634bf37e7304967509a3d5bb3d85", "lon": -77.0195495, "is_reserved": 0, "fusion_lon": 0.0, "lat": 38.923246666666664, "rental_uris": {"android": "https://dc.lft.to/lastmile_qr_scan", "ios": "https://dc.lft.to/lastmile_qr_scan"}, "fusion_lat": 0.0}, {"type": "electric_scooter", "bike_id": "e2154710337d01419872b18019630976", "is_disabled": 0, "name": "e2154710337d01419872b18019630976", "lon": -77.04335383333333, "is_reserved": 0, "fusion_lon": 0.0, "lat": 38.9108525, "rental_uris": {"android": "https://dc.lft.to/lastmile_qr_scan", "ios": "https://dc.lft.to/lastmile_qr_scan"}, "fusion_lat": 0.0}, {"type": "electric_scooter", "bike_id": "459b26cc3e13a174ae033e57be4d36c4", "is_disabled": 0, "name": "459b26cc3e13a174ae033e57be4d36c4", "lon": -77.02712566666666, "is_reserved": 0, "fusion_lon": 0.0, "lat": 38.91651, "rental_uris": {"android": "https://dc.lft.to/lastmile_qr_scan", "ios": "https://dc.lft.to/lastmile_qr_scan"}, "fusion_lat": 0.0}, {"type": "electric_scooter", "bike_id": "db9d668f0b4f55b30b28a296cfc028dd", "is_disabled": 0, "name": "db9d668f0b4f55b30b28a296cfc028dd", "lon": -77.029766, "is_reserved": 0, "fusion_lon": 0.0, "lat": 38.9168185, "rental_uris": {"android": "https://dc.lft.to/lastmile_qr_scan", "ios": "https://dc.lft.to/lastmile_qr_scan"}, "fusion_lat": 0.0}, {"type": "electric_scooter", "bike_id": "a21ac9d5a3a84d30145e680d2527e24f", "is_disabled": 0, "name": "a21ac9d5a3a84d30145e680d2527e24f", "lon": -77.03256, "is_reserved": 0, "fusion_lon": 0.0, "lat": 38.9315915, "rental_uris": {"android": "https://dc.lft.to/lastmile_qr_scan", "ios": "https://dc.lft.to/lastmile_qr_scan"}, "fusion_lat": 0.0}, {"type": "electric_scooter", "bike_id": "6f56f7987ae5c8c13677c9bbe9532c46", "is_disabled": 0, "name": "6f56f7987ae5c8c13677c9bbe9532c46", "lon": -77.03709133333334, "is_reserved": 0, "fusion_lon": 0.0, "lat": 38.926382, "rental_uris": {"android": "https://dc.lft.to/lastmile_qr_scan", "ios": "https://dc.lft.to/lastmile_qr_scan"}, "fusion_lat": 0.0}, {"type": "electric_scooter", "bike_id": "7e750a8138c95280d0367a99781032c3", "is_disabled": 0, "name": "7e750a8138c95280d0367a99781032c3", "lon": -76.98536666666666, "is_reserved": 0, "fusion_lon": 0.0, "lat": 38.858574, "rental_uris": {"android": "https://dc.lft.to/lastmile_qr_scan", "ios": "https://dc.lft.to/lastmile_qr_scan"}, "fusion_lat": 0.0}, {"type": "electric_scooter", "bike_id": "17acf99a4634469ef0b395716a142ac2", "is_disabled": 0, "name": "17acf99a4634469ef0b395716a142ac2", "lon": -76.99343583333334, "is_reserved": 0, "fusion_lon": 0.0, "lat": 38.881237166666665, "rental_uris": {"android": "https://dc.lft.to/lastmile_qr_scan", "ios": "https://dc.lft.to/lastmile_qr_scan"}, "fusion_lat": 0.0}, {"type": "electric_scooter", "bike_id": "e921a39a757ae3eabff21acdedba744e", "is_disabled": 0, "name": "e921a39a757ae3eabff21acdedba744e", "lon": -77.03168383333333, "is_reserved": 0, "fusion_lon": 0.0, "lat": 38.92909183333333, "rental_uris": {"android": "https://dc.lft.to/lastmile_qr_scan", "ios": "https://dc.lft.to/lastmile_qr_scan"}, "fusion_lat": 0.0}, {"type": "electric_scooter", "bike_id": "96ca563b1cdffe8cd6e4ffa963aaf18a", "is_disabled": 0, "name": "96ca563b1cdffe8cd6e4ffa963aaf18a", "lon": -77.04149733333334, "is_reserved": 0, "fusion_lon": 0.0, "lat": 38.902610833333334, "rental_uris": {"android": "https://dc.lft.to/lastmile_qr_scan", "ios": "https://dc.lft.to/lastmile_qr_scan"}, "fusion_lat": 0.0}, {"type": "electric_scooter", "bike_id": "525980ff4755e24e0ad43b4ecdb848d3", "is_disabled": 0, "name": "525980ff4755e24e0ad43b4ecdb848d3", "lon": -77.04163833333334, "is_reserved": 0, "fusion_lon": 0.0, "lat": 38.9125295, "rental_uris": {"android": "https://dc.lft.to/lastmile_qr_scan", "ios": "https://dc.lft.to/lastmile_qr_scan"}, "fusion_lat": 0.0}, {"type": "electric_scooter", "bike_id": "ace977f3174a6aa2fa64abf3b0507839", "is_disabled": 0, "name": "ace977f3174a6aa2fa64abf3b0507839", "lon": -77.04142216666666, "is_reserved": 0, "fusion_lon": 0.0, "lat": 38.8999425, "rental_uris": {"android": "https://dc.lft.to/lastmile_qr_scan", "ios": "https://dc.lft.to/lastmile_qr_scan"}, "fusion_lat": 0.0}, {"type": "electric_scooter", "bike_id": "f2188c2a886ac8451a7838608882e939", "is_disabled": 0, "name": "f2188c2a886ac8451a7838608882e939", "lon": -77.03641516666667, "is_reserved": 0, "fusion_lon": 0.0, "lat": 38.9246185, "rental_uris": {"android": "https://dc.lft.to/lastmile_qr_scan", "ios": "https://dc.lft.to/lastmile_qr_scan"}, "fusion_lat": 0.0}, {"type": "electric_scooter", "bike_id": "ffa232d8c365fe204f10fe71256f49e4", "is_disabled": 0, "name": "ffa232d8c365fe204f10fe71256f49e4", "lon": -76.9950505, "is_reserved": 0, "fusion_lon": 0.0, "lat": 38.882372, "rental_uris": {"android": "https://dc.lft.to/lastmile_qr_scan", "ios": "https://dc.lft.to/lastmile_qr_scan"}, "fusion_lat": 0.0}, {"type": "electric_scooter", "bike_id": "79b5e7133c05678a293b917a08ee4286", "is_disabled": 0, "name": "79b5e7133c05678a293b917a08ee4286", "lon": -77.03158316666666, "is_reserved": 0, "fusion_lon": 0.0, "lat": 38.91257516666667, "rental_uris": {"android": "https://dc.lft.to/lastmile_qr_scan", "ios": "https://dc.lft.to/lastmile_qr_scan"}, "fusion_lat": 0.0}, {"type": "electric_bike", "bike_id": "d719535dffefbb699a22446b3d578883", "is_disabled": 0, "name": "d719535dffefbb699a22446b3d578883", "lon": -77.1485925, "is_reserved": 0, "fusion_lon": 0.0, "lat": 38.877585, "rental_uris": {"android": "https://dc.lft.to/lastmile_qr_scan", "ios": "https://dc.lft.to/lastmile_qr_scan"}, "fusion_lat": 0.0}, {"type": "electric_scooter", "bike_id": "04ba21bfe6cc31f5c7bbfbad55dee571", "is_disabled": 0, "name": "04ba21bfe6cc31f5c7bbfbad55dee571", "lon": -77.02409733333333, "is_reserved": 0, "fusion_lon": 0.0, "lat": 38.920872, "rental_uris": {"android": "https://dc.lft.to/lastmile_qr_scan", "ios": "https://dc.lft.to/lastmile_qr_scan"}, "fusion_lat": 0.0}, {"type": "electric_scooter", "bike_id": "5aa206ac56c4bcb3761efb1594a9ef96", "is_disabled": 0, "name": "5aa206ac56c4bcb3761efb1594a9ef96", "lon": -76.94652833333333, "is_reserved": 0, "fusion_lon": 0.0, "lat": 38.89827283333333, "rental_uris": {"android": "https://dc.lft.to/lastmile_qr_scan", "ios": "https://dc.lft.to/lastmile_qr_scan"}, "fusion_lat": 0.0}, {"type": "electric_scooter", "bike_id": "bd35119caa1ae9f5fc0cde27cd595279", "is_disabled": 0, "name": "bd35119caa1ae9f5fc0cde27cd595279", "lon": -77.024041, "is_reserved": 0, "fusion_lon": 0.0, "lat": 38.915613666666665, "rental_uris": {"android": "https://dc.lft.to/lastmile_qr_scan", "ios": "https://dc.lft.to/lastmile_qr_scan"}, "fusion_lat": 0.0}, {"type": "electric_scooter", "bike_id": "24df830ba7967e942cefd577df4c3561", "is_disabled": 0, "name": "24df830ba7967e942cefd577df4c3561", "lon": -77.02152066666666, "is_reserved": 0, "fusion_lon": 0.0, "lat": 38.941303833333336, "rental_uris": {"android": "https://dc.lft.to/lastmile_qr_scan", "ios": "https://dc.lft.to/lastmile_qr_scan"}, "fusion_lat": 0.0}, {"type": "electric_scooter", "bike_id": "f49f856e99d785223d11f15f864d18bb", "is_disabled": 0, "name": "f49f856e99d785223d11f15f864d18bb", "lon": -77.07136716666666, "is_reserved": 0, "fusion_lon": 0.0, "lat": 38.92623066666667, "rental_uris": {"android": "https://dc.lft.to/lastmile_qr_scan", "ios": "https://dc.lft.to/lastmile_qr_scan"}, "fusion_lat": 0.0}, {"type": "electric_scooter", "bike_id": "aba5a1fb610ae12471e683ac26979536", "is_disabled": 0, "name": "aba5a1fb610ae12471e683ac26979536", "lon": -77.0455425, "is_reserved": 0, "fusion_lon": 0.0, "lat": 38.90210166666667, "rental_uris": {"android": "https://dc.lft.to/lastmile_qr_scan", "ios": "https://dc.lft.to/lastmile_qr_scan"}, "fusion_lat": 0.0}, {"type": "electric_scooter", "bike_id": "d8b2fb487551535a2c72b676131d8c68", "is_disabled": 0, "name": "d8b2fb487551535a2c72b676131d8c68", "lon": -77.0376185, "is_reserved": 0, "fusion_lon": 0.0, "lat": 38.916943333333336, "rental_uris": {"android": "https://dc.lft.to/lastmile_qr_scan", "ios": "https://dc.lft.to/lastmile_qr_scan"}, "fusion_lat": 0.0}, {"type": "electric_scooter", "bike_id": "f5b7297d04763b501c245af53a92d945", "is_disabled": 0, "name": "f5b7297d04763b501c245af53a92d945", "lon": -77.0191785, "is_reserved": 0, "fusion_lon": 0.0, "lat": 38.92377883333333, "rental_uris": {"android": "https://dc.lft.to/lastmile_qr_scan", "ios": "https://dc.lft.to/lastmile_qr_scan"}, "fusion_lat": 0.0}, {"type": "electric_scooter", "bike_id": "c6f5447ebd2007cb8ee12c41129fe63e", "is_disabled": 0, "name": "c6f5447ebd2007cb8ee12c41129fe63e", "lon": -77.07165816666667, "is_reserved": 0, "fusion_lon": 0.0, "lat": 38.9077445, "rental_uris": {"android": "https://dc.lft.to/lastmile_qr_scan", "ios": "https://dc.lft.to/lastmile_qr_scan"}, "fusion_lat": 0.0}, {"type": "electric_scooter", "bike_id": "f11bca9c6fb65802066a5af247da40e4", "is_disabled": 0, "name": "f11bca9c6fb65802066a5af247da40e4", "lon": -77.03663683333333, "is_reserved": 0, "fusion_lon": 0.0, "lat": 38.923811, "rental_uris": {"android": "https://dc.lft.to/lastmile_qr_scan", "ios": "https://dc.lft.to/lastmile_qr_scan"}, "fusion_lat": 0.0}, {"type": "electric_scooter", "bike_id": "7861e4417954e2f2c62691c12e6facda", "is_disabled": 0, "name": "7861e4417954e2f2c62691c12e6facda", "lon": -77.03441866666667, "is_reserved": 0, "fusion_lon": 0.0, "lat": 38.902727666666664, "rental_uris": {"android": "https://dc.lft.to/lastmile_qr_scan", "ios": "https://dc.lft.to/lastmile_qr_scan"}, "fusion_lat": 0.0}, {"type": "electric_bike", "bike_id": "658d735b47ca0fdc3f64e94fba354f8c", "is_disabled": 0, "name": "658d735b47ca0fdc3f64e94fba354f8c", "lon": -77.04080883333333, "is_reserved": 0, "fusion_lon": 0.0, "lat": 38.830645, "rental_uris": {"android": "https://dc.lft.to/lastmile_qr_scan", "ios": "https://dc.lft.to/lastmile_qr_scan"}, "fusion_lat": 0.0}, {"type": "electric_scooter", "bike_id": "af755a4e9f2fa19663c7fb33f79a38eb", "is_disabled": 0, "name": "af755a4e9f2fa19663c7fb33f79a38eb", "lon": -77.01192766666667, "is_reserved": 0, "fusion_lon": 0.0, "lat": 38.90011416666667, "rental_uris": {"android": "https://dc.lft.to/lastmile_qr_scan", "ios": "https://dc.lft.to/lastmile_qr_scan"}, "fusion_lat": 0.0}, {"type": "electric_scooter", "bike_id": "d262b0d1fb03774f255e3b83b4864789", "is_disabled": 0, "name": "d262b0d1fb03774f255e3b83b4864789", "lon": -77.013013, "is_reserved": 0, "fusion_lon": 0.0, "lat": 38.8777385, "rental_uris": {"android": "https://dc.lft.to/lastmile_qr_scan", "ios": "https://dc.lft.to/lastmile_qr_scan"}, "fusion_lat": 0.0}, {"type": "electric_scooter", "bike_id": "bf8982d914da1b7db76cfc7837090271", "is_disabled": 0, "name": "bf8982d914da1b7db76cfc7837090271", "lon": -77.0318625, "is_reserved": 0, "fusion_lon": 0.0, "lat": 38.9116165, "rental_uris": {"android": "https://dc.lft.to/lastmile_qr_scan", "ios": "https://dc.lft.to/lastmile_qr_scan"}, "fusion_lat": 0.0}, {"type": "electric_scooter", "bike_id": "542a2a65430846141295924c1b738c36", "is_disabled": 0, "name": "542a2a65430846141295924c1b738c36", "lon": -77.03671, "is_reserved": 0, "fusion_lon": 0.0, "lat": 38.9361085, "rental_uris": {"android": "https://dc.lft.to/lastmile_qr_scan", "ios": "https://dc.lft.to/lastmile_qr_scan"}, "fusion_lat": 0.0}, {"type": "electric_scooter", "bike_id": "0846c0f32056ea6411953eefc34e0d53", "is_disabled": 0, "name": "0846c0f32056ea6411953eefc34e0d53", "lon": -76.997265, "is_reserved": 0, "fusion_lon": 0.0, "lat": 38.84546266666667, "rental_uris": {"android": "https://dc.lft.to/lastmile_qr_scan", "ios": "https://dc.lft.to/lastmile_qr_scan"}, "fusion_lat": 0.0}, {"type": "electric_scooter", "bike_id": "53e5f5a66a4c4612ed3b148316596cf7", "is_disabled": 0, "name": "53e5f5a66a4c4612ed3b148316596cf7", "lon": -77.01889616666666, "is_reserved": 0, "fusion_lon": 0.0, "lat": 38.8974375, "rental_uris": {"android": "https://dc.lft.to/lastmile_qr_scan", "ios": "https://dc.lft.to/lastmile_qr_scan"}, "fusion_lat": 0.0}, {"type": "electric_scooter", "bike_id": "fc4a98b19eab0fb9f78b0963eef0d1c5", "is_disabled": 0, "name": "fc4a98b19eab0fb9f78b0963eef0d1c5", "lon": -77.017662, "is_reserved": 0, "fusion_lon": 0.0, "lat": 38.900455666666666, "rental_uris": {"android": "https://dc.lft.to/lastmile_qr_scan", "ios": "https://dc.lft.to/lastmile_qr_scan"}, "fusion_lat": 0.0}, {"type": "electric_scooter", "bike_id": "c276ade71aaea95813e37ea247830d16", "is_disabled": 0, "name": "c276ade71aaea95813e37ea247830d16", "lon": -77.00321616666666, "is_reserved": 0, "fusion_lon": 0.0, "lat": 38.8772715, "rental_uris": {"android": "https://dc.lft.to/lastmile_qr_scan", "ios": "https://dc.lft.to/lastmile_qr_scan"}, "fusion_lat": 0.0}, {"type": "electric_scooter", "bike_id": "5e30075ffe7097ebe5d5856f888ad636", "is_disabled": 0, "name": "5e30075ffe7097ebe5d5856f888ad636", "lon": -77.058125, "is_reserved": 0, "fusion_lon": 0.0, "lat": 38.92905783333333, "rental_uris": {"android": "https://dc.lft.to/lastmile_qr_scan", "ios": "https://dc.lft.to/lastmile_qr_scan"}, "fusion_lat": 0.0}, {"type": "electric_scooter", "bike_id": "7a60a1be6c6663fc346c2bcc8d688323", "is_disabled": 0, "name": "7a60a1be6c6663fc346c2bcc8d688323", "lon": -77.02099466666667, "is_reserved": 0, "fusion_lon": 0.0, "lat": 38.92713416666667, "rental_uris": {"android": "https://dc.lft.to/lastmile_qr_scan", "ios": "https://dc.lft.to/lastmile_qr_scan"}, "fusion_lat": 0.0}, {"type": "electric_scooter", "bike_id": "53dca431312ac45c16d13d38ad7e0fee", "is_disabled": 0, "name": "53dca431312ac45c16d13d38ad7e0fee", "lon": -77.05024933333333, "is_reserved": 0, "fusion_lon": 0.0, "lat": 38.905216333333335, "rental_uris": {"android": "https://dc.lft.to/lastmile_qr_scan", "ios": "https://dc.lft.to/lastmile_qr_scan"}, "fusion_lat": 0.0}, {"type": "electric_scooter", "bike_id": "747e7659c9060db2bea31793f0a38d3e", "is_disabled": 0, "name": "747e7659c9060db2bea31793f0a38d3e", "lon": -77.05510766666667, "is_reserved": 0, "fusion_lon": 0.0, "lat": 38.928371, "rental_uris": {"android": "https://dc.lft.to/lastmile_qr_scan", "ios": "https://dc.lft.to/lastmile_qr_scan"}, "fusion_lat": 0.0}, {"type": "electric_scooter", "bike_id": "5035bd3950c6ffe3b44b52b0cf0cd8b0", "is_disabled": 0, "name": "5035bd3950c6ffe3b44b52b0cf0cd8b0", "lon": -77.00121733333333, "is_reserved": 0, "fusion_lon": 0.0, "lat": 38.87885633333333, "rental_uris": {"android": "https://dc.lft.to/lastmile_qr_scan", "ios": "https://dc.lft.to/lastmile_qr_scan"}, "fusion_lat": 0.0}, {"type": "electric_scooter", "bike_id": "66b4646e56fa430329a41c7b3a905518", "is_disabled": 0, "name": "66b4646e56fa430329a41c7b3a905518", "lon": -77.0219235, "is_reserved": 0, "fusion_lon": 0.0, "lat": 38.908186, "rental_uris": {"android": "https://dc.lft.to/lastmile_qr_scan", "ios": "https://dc.lft.to/lastmile_qr_scan"}, "fusion_lat": 0.0}, {"type": "electric_scooter", "bike_id": "979765f113f9ac97753c66f81ff6d1ad", "is_disabled": 0, "name": "979765f113f9ac97753c66f81ff6d1ad", "lon": -77.01976766666667, "is_reserved": 0, "fusion_lon": 0.0, "lat": 38.8857355, "rental_uris": {"android": "https://dc.lft.to/lastmile_qr_scan", "ios": "https://dc.lft.to/lastmile_qr_scan"}, "fusion_lat": 0.0}, {"type": "electric_scooter", "bike_id": "6b09d5ae389c7fbbc50c73645a6d8ef6", "is_disabled": 0, "name": "6b09d5ae389c7fbbc50c73645a6d8ef6", "lon": -77.03462683333333, "is_reserved": 0, "fusion_lon": 0.0, "lat": 38.91569783333333, "rental_uris": {"android": "https://dc.lft.to/lastmile_qr_scan", "ios": "https://dc.lft.to/lastmile_qr_scan"}, "fusion_lat": 0.0}, {"type": "electric_scooter", "bike_id": "685d6b6bebefac678c0272eab5a1a4e8", "is_disabled": 0, "name": "685d6b6bebefac678c0272eab5a1a4e8", "lon": -77.01189716666667, "is_reserved": 0, "fusion_lon": 0.0, "lat": 38.90017816666666, "rental_uris": {"android": "https://dc.lft.to/lastmile_qr_scan", "ios": "https://dc.lft.to/lastmile_qr_scan"}, "fusion_lat": 0.0}, {"type": "electric_scooter", "bike_id": "0614a3bf8a4d30c65526abbc4255a1d2", "is_disabled": 0, "name": "0614a3bf8a4d30c65526abbc4255a1d2", "lon": -77.033432, "is_reserved": 0, "fusion_lon": 0.0, "lat": 38.91706766666667, "rental_uris": {"android": "https://dc.lft.to/lastmile_qr_scan", "ios": "https://dc.lft.to/lastmile_qr_scan"}, "fusion_lat": 0.0}, {"type": "electric_scooter", "bike_id": "8747c55fe15be097378266d8db1c9b94", "is_disabled": 0, "name": "8747c55fe15be097378266d8db1c9b94", "lon": -77.03480816666666, "is_reserved": 0, "fusion_lon": 0.0, "lat": 38.935733, "rental_uris": {"android": "https://dc.lft.to/lastmile_qr_scan", "ios": "https://dc.lft.to/lastmile_qr_scan"}, "fusion_lat": 0.0}, {"type": "electric_scooter", "bike_id": "c690d64df933b3976579053259227628", "is_disabled": 0, "name": "c690d64df933b3976579053259227628", "lon": -77.03868683333333, "is_reserved": 0, "fusion_lon": 0.0, "lat": 38.909712666666664, "rental_uris": {"android": "https://dc.lft.to/lastmile_qr_scan", "ios": "https://dc.lft.to/lastmile_qr_scan"}, "fusion_lat": 0.0}, {"type": "electric_scooter", "bike_id": "2b3a8558be1fcfd99642bd6fdecb5baa", "is_disabled": 0, "name": "2b3a8558be1fcfd99642bd6fdecb5baa", "lon": -77.07270383333334, "is_reserved": 0, "fusion_lon": 0.0, "lat": 38.93477333333333, "rental_uris": {"android": "https://dc.lft.to/lastmile_qr_scan", "ios": "https://dc.lft.to/lastmile_qr_scan"}, "fusion_lat": 0.0}, {"type": "electric_scooter", "bike_id": "9e616639f5975831312b8fba6a3d168c", "is_disabled": 0, "name": "9e616639f5975831312b8fba6a3d168c", "lon": -76.94464333333333, "is_reserved": 0, "fusion_lon": 0.0, "lat": 38.89032666666667, "rental_uris": {"android": "https://dc.lft.to/lastmile_qr_scan", "ios": "https://dc.lft.to/lastmile_qr_scan"}, "fusion_lat": 0.0}, {"type": "electric_scooter", "bike_id": "197826fee31991e0d72b53954fa3ba8c", "is_disabled": 0, "name": "197826fee31991e0d72b53954fa3ba8c", "lon": -77.04619, "is_reserved": 0, "fusion_lon": 0.0, "lat": 38.902450333333334, "rental_uris": {"android": "https://dc.lft.to/lastmile_qr_scan", "ios": "https://dc.lft.to/lastmile_qr_scan"}, "fusion_lat": 0.0}, {"type": "electric_scooter", "bike_id": "7e4cacc5e94c728339ff09421861b195", "is_disabled": 0, "name": "7e4cacc5e94c728339ff09421861b195", "lon": -77.02014516666667, "is_reserved": 0, "fusion_lon": 0.0, "lat": 38.92419266666667, "rental_uris": {"android": "https://dc.lft.to/lastmile_qr_scan", "ios": "https://dc.lft.to/lastmile_qr_scan"}, "fusion_lat": 0.0}, {"type": "electric_scooter", "bike_id": "2fdf9ae70b517498dbf14b998512921e", "is_disabled": 0, "name": "2fdf9ae70b517498dbf14b998512921e", "lon": -77.03404466666667, "is_reserved": 0, "fusion_lon": 0.0, "lat": 38.92443266666667, "rental_uris": {"android": "https://dc.lft.to/lastmile_qr_scan", "ios": "https://dc.lft.to/lastmile_qr_scan"}, "fusion_lat": 0.0}, {"type": "electric_scooter", "bike_id": "1eaa7dbd208ab035cf8291a9025ca666", "is_disabled": 0, "name": "1eaa7dbd208ab035cf8291a9025ca666", "lon": -77.04538883333333, "is_reserved": 0, "fusion_lon": 0.0, "lat": 38.8961625, "rental_uris": {"android": "https://dc.lft.to/lastmile_qr_scan", "ios": "https://dc.lft.to/lastmile_qr_scan"}, "fusion_lat": 0.0}, {"type": "electric_scooter", "bike_id": "d75cd6a767b8a82002636c42c3caf83f", "is_disabled": 0, "name": "d75cd6a767b8a82002636c42c3caf83f", "lon": -77.04606033333333, "is_reserved": 0, "fusion_lon": 0.0, "lat": 38.93287883333333, "rental_uris": {"android": "https://dc.lft.to/lastmile_qr_scan", "ios": "https://dc.lft.to/lastmile_qr_scan"}, "fusion_lat": 0.0}, {"type": "electric_scooter", "bike_id": "c171d214bedb581c183663931b913e54", "is_disabled": 0, "name": "c171d214bedb581c183663931b913e54", "lon": -77.01949383333333, "is_reserved": 0, "fusion_lon": 0.0, "lat": 38.923309, "rental_uris": {"android": "https://dc.lft.to/lastmile_qr_scan", "ios": "https://dc.lft.to/lastmile_qr_scan"}, "fusion_lat": 0.0}, {"type": "electric_bike", "bike_id": "b951283d0750c47b65f6f73302e63d59", "is_disabled": 0, "name": "b951283d0750c47b65f6f73302e63d59", "lon": -77.079211, "is_reserved": 0, "fusion_lon": 0.0, "lat": 38.83822383333333, "rental_uris": {"android": "https://dc.lft.to/lastmile_qr_scan", "ios": "https://dc.lft.to/lastmile_qr_scan"}, "fusion_lat": 0.0}, {"type": "electric_scooter", "bike_id": "6bee7fc671c0182ba0d3df4e45b6772b", "is_disabled": 0, "name": "6bee7fc671c0182ba0d3df4e45b6772b", "lon": -77.0256525, "is_reserved": 0, "fusion_lon": 0.0, "lat": 38.9485915, "rental_uris": {"android": "https://dc.lft.to/lastmile_qr_scan", "ios": "https://dc.lft.to/lastmile_qr_scan"}, "fusion_lat": 0.0}, {"type": "electric_scooter", "bike_id": "b017a05bd95fed596134660cf3e2bfbe", "is_disabled": 0, "name": "b017a05bd95fed596134660cf3e2bfbe", "lon": -77.02413666666666, "is_reserved": 0, "fusion_lon": 0.0, "lat": 38.92094983333333, "rental_uris": {"android": "https://dc.lft.to/lastmile_qr_scan", "ios": "https://dc.lft.to/lastmile_qr_scan"}, "fusion_lat": 0.0}, {"type": "electric_scooter", "bike_id": "c17dacf7589809eceb302c54268d2f1b", "is_disabled": 0, "name": "c17dacf7589809eceb302c54268d2f1b", "lon": -77.006081, "is_reserved": 0, "fusion_lon": 0.0, "lat": 38.911138666666666, "rental_uris": {"android": "https://dc.lft.to/lastmile_qr_scan", "ios": "https://dc.lft.to/lastmile_qr_scan"}, "fusion_lat": 0.0}, {"type": "electric_scooter", "bike_id": "7c9901bd4b6f843a41e25427f3b57c65", "is_disabled": 0, "name": "7c9901bd4b6f843a41e25427f3b57c65", "lon": -77.00049233333333, "is_reserved": 0, "fusion_lon": 0.0, "lat": 38.900251833333336, "rental_uris": {"android": "https://dc.lft.to/lastmile_qr_scan", "ios": "https://dc.lft.to/lastmile_qr_scan"}, "fusion_lat": 0.0}, {"type": "electric_scooter", "bike_id": "62cdb3abcd3d277af2a3abc620c61b58", "is_disabled": 0, "name": "62cdb3abcd3d277af2a3abc620c61b58", "lon": -77.032536, "is_reserved": 0, "fusion_lon": 0.0, "lat": 38.919874666666665, "rental_uris": {"android": "https://dc.lft.to/lastmile_qr_scan", "ios": "https://dc.lft.to/lastmile_qr_scan"}, "fusion_lat": 0.0}, {"type": "electric_scooter", "bike_id": "6f5250a83f14c0e26610db2cf07d57c3", "is_disabled": 0, "name": "6f5250a83f14c0e26610db2cf07d57c3", "lon": -77.033586, "is_reserved": 0, "fusion_lon": 0.0, "lat": 38.9357455, "rental_uris": {"android": "https://dc.lft.to/lastmile_qr_scan", "ios": "https://dc.lft.to/lastmile_qr_scan"}, "fusion_lat": 0.0}, {"type": "electric_scooter", "bike_id": "58f34eefae30031b79f262e8d52ee058", "is_disabled": 0, "name": "58f34eefae30031b79f262e8d52ee058", "lon": -77.04529716666667, "is_reserved": 0, "fusion_lon": 0.0, "lat": 38.91803816666667, "rental_uris": {"android": "https://dc.lft.to/lastmile_qr_scan", "ios": "https://dc.lft.to/lastmile_qr_scan"}, "fusion_lat": 0.0}, {"type": "electric_scooter", "bike_id": "38f3c288be27008391309f0b94299d83", "is_disabled": 0, "name": "38f3c288be27008391309f0b94299d83", "lon": -77.01205116666667, "is_reserved": 0, "fusion_lon": 0.0, "lat": 38.914981166666664, "rental_uris": {"android": "https://dc.lft.to/lastmile_qr_scan", "ios": "https://dc.lft.to/lastmile_qr_scan"}, "fusion_lat": 0.0}, {"type": "electric_bike", "bike_id": "bff6d30028795fa3822e266787ec439f", "is_disabled": 0, "name": "bff6d30028795fa3822e266787ec439f", "lon": -76.97958466666667, "is_reserved": 0, "fusion_lon": 0.0, "lat": 38.9203405, "rental_uris": {"android": "https://dc.lft.to/lastmile_qr_scan", "ios": "https://dc.lft.to/lastmile_qr_scan"}, "fusion_lat": 0.0}, {"type": "electric_bike", "bike_id": "4b412fcda78259a4abf86b7c0f08c31d", "is_disabled": 0, "name": "4b412fcda78259a4abf86b7c0f08c31d", "lon": -77.10292983333333, "is_reserved": 0, "fusion_lon": 0.0, "lat": 38.852547, "rental_uris": {"android": "https://dc.lft.to/lastmile_qr_scan", "ios": "https://dc.lft.to/lastmile_qr_scan"}, "fusion_lat": 0.0}, {"type": "electric_scooter", "bike_id": "ba69dd62912acc0d6a7a782ad39d5433", "is_disabled": 0, "name": "ba69dd62912acc0d6a7a782ad39d5433", "lon": -76.93364433333333, "is_reserved": 0, "fusion_lon": 0.0, "lat": 38.8983935, "rental_uris": {"android": "https://dc.lft.to/lastmile_qr_scan", "ios": "https://dc.lft.to/lastmile_qr_scan"}, "fusion_lat": 0.0}, {"type": "electric_bike", "bike_id": "f857fbe173a12349418abe34dfda023d", "is_disabled": 0, "name": "f857fbe173a12349418abe34dfda023d", "lon": -77.23178016666667, "is_reserved": 0, "fusion_lon": 0.0, "lat": 38.928932833333334, "rental_uris": {"android": "https://dc.lft.to/lastmile_qr_scan", "ios": "https://dc.lft.to/lastmile_qr_scan"}, "fusion_lat": 0.0}, {"type": "electric_scooter", "bike_id": "3548c32fd7ab84630d7a6ffcfa0b7d80", "is_disabled": 0, "name": "3548c32fd7ab84630d7a6ffcfa0b7d80", "lon": -77.044832, "is_reserved": 0, "fusion_lon": 0.0, "lat": 38.913453833333335, "rental_uris": {"android": "https://dc.lft.to/lastmile_qr_scan", "ios": "https://dc.lft.to/lastmile_qr_scan"}, "fusion_lat": 0.0}, {"type": "electric_scooter", "bike_id": "2d7e61dbb560da2f2731aec0879d9db9", "is_disabled": 0, "name": "2d7e61dbb560da2f2731aec0879d9db9", "lon": -76.98358183333333, "is_reserved": 0, "fusion_lon": 0.0, "lat": 38.887355666666664, "rental_uris": {"android": "https://dc.lft.to/lastmile_qr_scan", "ios": "https://dc.lft.to/lastmile_qr_scan"}, "fusion_lat": 0.0}, {"type": "electric_scooter", "bike_id": "3c2ade081761c8db173697e8468cd3e3", "is_disabled": 0, "name": "3c2ade081761c8db173697e8468cd3e3", "lon": -77.038107, "is_reserved": 0, "fusion_lon": 0.0, "lat": 38.91039133333334, "rental_uris": {"android": "https://dc.lft.to/lastmile_qr_scan", "ios": "https://dc.lft.to/lastmile_qr_scan"}, "fusion_lat": 0.0}, {"type": "electric_scooter", "bike_id": "71e1bb982f62bd42350a4aeed217dcb5", "is_disabled": 0, "name": "71e1bb982f62bd42350a4aeed217dcb5", "lon": -77.02174216666667, "is_reserved": 0, "fusion_lon": 0.0, "lat": 38.89886683333334, "rental_uris": {"android": "https://dc.lft.to/lastmile_qr_scan", "ios": "https://dc.lft.to/lastmile_qr_scan"}, "fusion_lat": 0.0}, {"type": "electric_scooter", "bike_id": "43822fe6678bc9d3b505fb438cc391c3", "is_disabled": 0, "name": "43822fe6678bc9d3b505fb438cc391c3", "lon": -77.025925, "is_reserved": 0, "fusion_lon": 0.0, "lat": 38.90430166666667, "rental_uris": {"android": "https://dc.lft.to/lastmile_qr_scan", "ios": "https://dc.lft.to/lastmile_qr_scan"}, "fusion_lat": 0.0}, {"type": "electric_scooter", "bike_id": "a8d8ceefb1173b6a359fd6c69d212c10", "is_disabled": 0, "name": "a8d8ceefb1173b6a359fd6c69d212c10", "lon": -77.032106, "is_reserved": 0, "fusion_lon": 0.0, "lat": 38.9181115, "rental_uris": {"android": "https://dc.lft.to/lastmile_qr_scan", "ios": "https://dc.lft.to/lastmile_qr_scan"}, "fusion_lat": 0.0}, {"type": "electric_scooter", "bike_id": "668229a0ec91f0276638210c6498f9c0", "is_disabled": 0, "name": "668229a0ec91f0276638210c6498f9c0", "lon": -77.04898483333334, "is_reserved": 0, "fusion_lon": 0.0, "lat": 38.9006085, "rental_uris": {"android": "https://dc.lft.to/lastmile_qr_scan", "ios": "https://dc.lft.to/lastmile_qr_scan"}, "fusion_lat": 0.0}, {"type": "electric_bike", "bike_id": "7e8c44e853f3690542ed7c50024f4508", "is_disabled": 0, "name": "7e8c44e853f3690542ed7c50024f4508", "lon": -77.12711116666667, "is_reserved": 0, "fusion_lon": 0.0, "lat": 38.895666166666665, "rental_uris": {"android": "https://dc.lft.to/lastmile_qr_scan", "ios": "https://dc.lft.to/lastmile_qr_scan"}, "fusion_lat": 0.0}, {"type": "electric_scooter", "bike_id": "30ae6a73cd907b7312949d9b26b856f6", "is_disabled": 0, "name": "30ae6a73cd907b7312949d9b26b856f6", "lon": -77.0385235, "is_reserved": 0, "fusion_lon": 0.0, "lat": 38.919656333333336, "rental_uris": {"android": "https://dc.lft.to/lastmile_qr_scan", "ios": "https://dc.lft.to/lastmile_qr_scan"}, "fusion_lat": 0.0}, {"type": "electric_scooter", "bike_id": "600a0abd5f455c012e0d1f8f2d4bef50", "is_disabled": 0, "name": "600a0abd5f455c012e0d1f8f2d4bef50", "lon": -77.03213183333334, "is_reserved": 0, "fusion_lon": 0.0, "lat": 38.918344, "rental_uris": {"android": "https://dc.lft.to/lastmile_qr_scan", "ios": "https://dc.lft.to/lastmile_qr_scan"}, "fusion_lat": 0.0}, {"type": "electric_scooter", "bike_id": "f0c891e51c2a529cbbbd3fd085f67496", "is_disabled": 0, "name": "f0c891e51c2a529cbbbd3fd085f67496", "lon": -76.94702483333333, "is_reserved": 0, "fusion_lon": 0.0, "lat": 38.897312666666664, "rental_uris": {"android": "https://dc.lft.to/lastmile_qr_scan", "ios": "https://dc.lft.to/lastmile_qr_scan"}, "fusion_lat": 0.0}, {"type": "electric_scooter", "bike_id": "d3f377282ac273a05d9a19d0f389b102", "is_disabled": 0, "name": "d3f377282ac273a05d9a19d0f389b102", "lon": -77.009279, "is_reserved": 0, "fusion_lon": 0.0, "lat": 38.87447983333333, "rental_uris": {"android": "https://dc.lft.to/lastmile_qr_scan", "ios": "https://dc.lft.to/lastmile_qr_scan"}, "fusion_lat": 0.0}, {"type": "electric_scooter", "bike_id": "85d45ec771e33a693a56062d80fb32ff", "is_disabled": 0, "name": "85d45ec771e33a693a56062d80fb32ff", "lon": -77.02343166666667, "is_reserved": 0, "fusion_lon": 0.0, "lat": 38.944807833333336, "rental_uris": {"android": "https://dc.lft.to/lastmile_qr_scan", "ios": "https://dc.lft.to/lastmile_qr_scan"}, "fusion_lat": 0.0}, {"type": "electric_bike", "bike_id": "70155747edfc055b67dab97fb9f61256", "is_disabled": 0, "name": "70155747edfc055b67dab97fb9f61256", "lon": -76.96891283333333, "is_reserved": 0, "fusion_lon": 0.0, "lat": 38.869821, "rental_uris": {"android": "https://dc.lft.to/lastmile_qr_scan", "ios": "https://dc.lft.to/lastmile_qr_scan"}, "fusion_lat": 0.0}, {"type": "electric_scooter", "bike_id": "b9efbe5d3f603789437809630d0b79dc", "is_disabled": 0, "name": "b9efbe5d3f603789437809630d0b79dc", "lon": -77.05051116666667, "is_reserved": 0, "fusion_lon": 0.0, "lat": 38.902945, "rental_uris": {"android": "https://dc.lft.to/lastmile_qr_scan", "ios": "https://dc.lft.to/lastmile_qr_scan"}, "fusion_lat": 0.0}, {"type": "electric_scooter", "bike_id": "7fca91a6c414cb5a45403303a9f19717", "is_disabled": 0, "name": "7fca91a6c414cb5a45403303a9f19717", "lon": -77.04344116666667, "is_reserved": 0, "fusion_lon": 0.0, "lat": 38.91030683333334, "rental_uris": {"android": "https://dc.lft.to/lastmile_qr_scan", "ios": "https://dc.lft.to/lastmile_qr_scan"}, "fusion_lat": 0.0}, {"type": "electric_scooter", "bike_id": "ec7133f553eb8fe7afce37a99283dc73", "is_disabled": 0, "name": "ec7133f553eb8fe7afce37a99283dc73", "lon": -77.0467995, "is_reserved": 0, "fusion_lon": 0.0, "lat": 38.902780666666665, "rental_uris": {"android": "https://dc.lft.to/lastmile_qr_scan", "ios": "https://dc.lft.to/lastmile_qr_scan"}, "fusion_lat": 0.0}, {"type": "electric_scooter", "bike_id": "78ba2a2abd9ebc438322114ba4250e63", "is_disabled": 0, "name": "78ba2a2abd9ebc438322114ba4250e63", "lon": -77.0400955, "is_reserved": 0, "fusion_lon": 0.0, "lat": 38.93427483333333, "rental_uris": {"android": "https://dc.lft.to/lastmile_qr_scan", "ios": "https://dc.lft.to/lastmile_qr_scan"}, "fusion_lat": 0.0}, {"type": "electric_scooter", "bike_id": "3e0c7b2f02d8af3306b4da425935d642", "is_disabled": 0, "name": "3e0c7b2f02d8af3306b4da425935d642", "lon": -77.02014983333333, "is_reserved": 0, "fusion_lon": 0.0, "lat": 38.9015705, "rental_uris": {"android": "https://dc.lft.to/lastmile_qr_scan", "ios": "https://dc.lft.to/lastmile_qr_scan"}, "fusion_lat": 0.0}, {"type": "electric_scooter", "bike_id": "367493f99f0f2c39ec2f1e4f4c95a79d", "is_disabled": 0, "name": "367493f99f0f2c39ec2f1e4f4c95a79d", "lon": -77.01899466666667, "is_reserved": 0, "fusion_lon": 0.0, "lat": 38.9233155, "rental_uris": {"android": "https://dc.lft.to/lastmile_qr_scan", "ios": "https://dc.lft.to/lastmile_qr_scan"}, "fusion_lat": 0.0}, {"type": "electric_scooter", "bike_id": "f29853a2ec40ee9da85edcf20cab3747", "is_disabled": 0, "name": "f29853a2ec40ee9da85edcf20cab3747", "lon": -77.01956266666667, "is_reserved": 0, "fusion_lon": 0.0, "lat": 38.92333416666666, "rental_uris": {"android": "https://dc.lft.to/lastmile_qr_scan", "ios": "https://dc.lft.to/lastmile_qr_scan"}, "fusion_lat": 0.0}, {"type": "electric_scooter", "bike_id": "6e77e718ef015b9fe35e14080fc3a997", "is_disabled": 0, "name": "6e77e718ef015b9fe35e14080fc3a997", "lon": -76.991413, "is_reserved": 0, "fusion_lon": 0.0, "lat": 38.873365666666665, "rental_uris": {"android": "https://dc.lft.to/lastmile_qr_scan", "ios": "https://dc.lft.to/lastmile_qr_scan"}, "fusion_lat": 0.0}, {"type": "electric_bike", "bike_id": "1a2f9ad0a4d313dd5f190481f6b02ec3", "is_disabled": 0, "name": "1a2f9ad0a4d313dd5f190481f6b02ec3", "lon": -77.12886983333334, "is_reserved": 0, "fusion_lon": 0.0, "lat": 38.90605933333333, "rental_uris": {"android": "https://dc.lft.to/lastmile_qr_scan", "ios": "https://dc.lft.to/lastmile_qr_scan"}, "fusion_lat": 0.0}, {"type": "electric_scooter", "bike_id": "ff2ac48156ae5da3f6768149d09726bd", "is_disabled": 0, "name": "ff2ac48156ae5da3f6768149d09726bd", "lon": -76.99624166666666, "is_reserved": 0, "fusion_lon": 0.0, "lat": 38.8773355, "rental_uris": {"android": "https://dc.lft.to/lastmile_qr_scan", "ios": "https://dc.lft.to/lastmile_qr_scan"}, "fusion_lat": 0.0}, {"type": "electric_scooter", "bike_id": "4e7287e640f34b31c633d564c2691f1c", "is_disabled": 0, "name": "4e7287e640f34b31c633d564c2691f1c", "lon": -77.02709316666666, "is_reserved": 0, "fusion_lon": 0.0, "lat": 38.916497, "rental_uris": {"android": "https://dc.lft.to/lastmile_qr_scan", "ios": "https://dc.lft.to/lastmile_qr_scan"}, "fusion_lat": 0.0}, {"type": "electric_scooter", "bike_id": "3f6c60f0ff84bc945b573fb4d617bc2f", "is_disabled": 0, "name": "3f6c60f0ff84bc945b573fb4d617bc2f", "lon": -77.03887416666667, "is_reserved": 0, "fusion_lon": 0.0, "lat": 38.90630216666667, "rental_uris": {"android": "https://dc.lft.to/lastmile_qr_scan", "ios": "https://dc.lft.to/lastmile_qr_scan"}, "fusion_lat": 0.0}, {"type": "electric_scooter", "bike_id": "89053ec4d3b422a304a0147d8f14f57b", "is_disabled": 0, "name": "89053ec4d3b422a304a0147d8f14f57b", "lon": -76.98704133333334, "is_reserved": 0, "fusion_lon": 0.0, "lat": 38.888363166666664, "rental_uris": {"android": "https://dc.lft.to/lastmile_qr_scan", "ios": "https://dc.lft.to/lastmile_qr_scan"}, "fusion_lat": 0.0}, {"type": "electric_scooter", "bike_id": "cd73effa57690c4b59a184076e80a171", "is_disabled": 0, "name": "cd73effa57690c4b59a184076e80a171", "lon": -77.028232, "is_reserved": 0, "fusion_lon": 0.0, "lat": 38.904546, "rental_uris": {"android": "https://dc.lft.to/lastmile_qr_scan", "ios": "https://dc.lft.to/lastmile_qr_scan"}, "fusion_lat": 0.0}, {"type": "electric_scooter", "bike_id": "db9f707b9d618fee8b48c8ec3784d07b", "is_disabled": 0, "name": "db9f707b9d618fee8b48c8ec3784d07b", "lon": -77.01557666666666, "is_reserved": 0, "fusion_lon": 0.0, "lat": 38.927916333333336, "rental_uris": {"android": "https://dc.lft.to/lastmile_qr_scan", "ios": "https://dc.lft.to/lastmile_qr_scan"}, "fusion_lat": 0.0}, {"type": "electric_scooter", "bike_id": "af4708d30f185eda503d601772dae119", "is_disabled": 0, "name": "af4708d30f185eda503d601772dae119", "lon": -77.022815, "is_reserved": 0, "fusion_lon": 0.0, "lat": 38.92681116666667, "rental_uris": {"android": "https://dc.lft.to/lastmile_qr_scan", "ios": "https://dc.lft.to/lastmile_qr_scan"}, "fusion_lat": 0.0}, {"type": "electric_scooter", "bike_id": "702c7298dd4f62918eade10679ec88ce", "is_disabled": 0, "name": "702c7298dd4f62918eade10679ec88ce", "lon": -77.020228, "is_reserved": 0, "fusion_lon": 0.0, "lat": 38.924374666666665, "rental_uris": {"android": "https://dc.lft.to/lastmile_qr_scan", "ios": "https://dc.lft.to/lastmile_qr_scan"}, "fusion_lat": 0.0}, {"type": "electric_bike", "bike_id": "fe7b4fcbe5d2379da88d0c75632dcfc8", "is_disabled": 0, "name": "fe7b4fcbe5d2379da88d0c75632dcfc8", "lon": -77.099632, "is_reserved": 0, "fusion_lon": 0.0, "lat": 38.858028833333336, "rental_uris": {"android": "https://dc.lft.to/lastmile_qr_scan", "ios": "https://dc.lft.to/lastmile_qr_scan"}, "fusion_lat": 0.0}, {"type": "electric_scooter", "bike_id": "9019669789892aec6668060348465cca", "is_disabled": 0, "name": "9019669789892aec6668060348465cca", "lon": -77.03439766666666, "is_reserved": 0, "fusion_lon": 0.0, "lat": 38.902569666666665, "rental_uris": {"android": "https://dc.lft.to/lastmile_qr_scan", "ios": "https://dc.lft.to/lastmile_qr_scan"}, "fusion_lat": 0.0}, {"type": "electric_scooter", "bike_id": "fd379fc9c982d798a606c0c4f7a9d9b8", "is_disabled": 0, "name": "fd379fc9c982d798a606c0c4f7a9d9b8", "lon": -77.0356755, "is_reserved": 0, "fusion_lon": 0.0, "lat": 38.9247105, "rental_uris": {"android": "https://dc.lft.to/lastmile_qr_scan", "ios": "https://dc.lft.to/lastmile_qr_scan"}, "fusion_lat": 0.0}, {"type": "electric_scooter", "bike_id": "cdcb70c1b6bd0b03ad46cc4551b9deeb", "is_disabled": 0, "name": "cdcb70c1b6bd0b03ad46cc4551b9deeb", "lon": -77.03381516666667, "is_reserved": 0, "fusion_lon": 0.0, "lat": 38.90037816666667, "rental_uris": {"android": "https://dc.lft.to/lastmile_qr_scan", "ios": "https://dc.lft.to/lastmile_qr_scan"}, "fusion_lat": 0.0}, {"type": "electric_bike", "bike_id": "47248f6bab169f8613940dad4f956fdf", "is_disabled": 0, "name": "47248f6bab169f8613940dad4f956fdf", "lon": -76.977044, "is_reserved": 0, "fusion_lon": 0.0, "lat": 38.822014, "rental_uris": {"android": "https://dc.lft.to/lastmile_qr_scan", "ios": "https://dc.lft.to/lastmile_qr_scan"}, "fusion_lat": 0.0}, {"type": "electric_scooter", "bike_id": "0eb9047217d28167f5e8514ce53379d4", "is_disabled": 0, "name": "0eb9047217d28167f5e8514ce53379d4", "lon": -77.03522466666666, "is_reserved": 0, "fusion_lon": 0.0, "lat": 38.90784133333333, "rental_uris": {"android": "https://dc.lft.to/lastmile_qr_scan", "ios": "https://dc.lft.to/lastmile_qr_scan"}, "fusion_lat": 0.0}, {"type": "electric_scooter", "bike_id": "62a25db7a74b8df8db76f436fceb36bf", "is_disabled": 0, "name": "62a25db7a74b8df8db76f436fceb36bf", "lon": -77.011839, "is_reserved": 0, "fusion_lon": 0.0, "lat": 38.900269, "rental_uris": {"android": "https://dc.lft.to/lastmile_qr_scan", "ios": "https://dc.lft.to/lastmile_qr_scan"}, "fusion_lat": 0.0}, {"type": "electric_scooter", "bike_id": "1191e1527c9bf19092d098ac71c8592d", "is_disabled": 0, "name": "1191e1527c9bf19092d098ac71c8592d", "lon": -77.04148383333333, "is_reserved": 0, "fusion_lon": 0.0, "lat": 38.9225625, "rental_uris": {"android": "https://dc.lft.to/lastmile_qr_scan", "ios": "https://dc.lft.to/lastmile_qr_scan"}, "fusion_lat": 0.0}, {"type": "electric_scooter", "bike_id": "82373eb90aea28ae682ae60fea8eb03c", "is_disabled": 0, "name": "82373eb90aea28ae682ae60fea8eb03c", "lon": -77.03203183333333, "is_reserved": 0, "fusion_lon": 0.0, "lat": 38.916721333333335, "rental_uris": {"android": "https://dc.lft.to/lastmile_qr_scan", "ios": "https://dc.lft.to/lastmile_qr_scan"}, "fusion_lat": 0.0}, {"type": "electric_scooter", "bike_id": "9895d8ed00d6fd1341da63297a849bed", "is_disabled": 0, "name": "9895d8ed00d6fd1341da63297a849bed", "lon": -77.026928, "is_reserved": 0, "fusion_lon": 0.0, "lat": 38.90873716666667, "rental_uris": {"android": "https://dc.lft.to/lastmile_qr_scan", "ios": "https://dc.lft.to/lastmile_qr_scan"}, "fusion_lat": 0.0}, {"type": "electric_bike", "bike_id": "4bc656b35bd4baa87b8d197405be411a", "is_disabled": 0, "name": "4bc656b35bd4baa87b8d197405be411a", "lon": -77.0832, "is_reserved": 0, "fusion_lon": 0.0, "lat": 38.8544455, "rental_uris": {"android": "https://dc.lft.to/lastmile_qr_scan", "ios": "https://dc.lft.to/lastmile_qr_scan"}, "fusion_lat": 0.0}, {"type": "electric_scooter", "bike_id": "d7b64cb041f0b2f74709999cd97a3897", "is_disabled": 0, "name": "d7b64cb041f0b2f74709999cd97a3897", "lon": -76.99737783333333, "is_reserved": 0, "fusion_lon": 0.0, "lat": 38.92043283333334, "rental_uris": {"android": "https://dc.lft.to/lastmile_qr_scan", "ios": "https://dc.lft.to/lastmile_qr_scan"}, "fusion_lat": 0.0}, {"type": "electric_scooter", "bike_id": "e0ff8a5bd0897562151d84747a25e1c1", "is_disabled": 0, "name": "e0ff8a5bd0897562151d84747a25e1c1", "lon": -76.93524216666667, "is_reserved": 0, "fusion_lon": 0.0, "lat": 38.878977166666665, "rental_uris": {"android": "https://dc.lft.to/lastmile_qr_scan", "ios": "https://dc.lft.to/lastmile_qr_scan"}, "fusion_lat": 0.0}, {"type": "electric_scooter", "bike_id": "ea0f17f20c492715b490b3e7328b89c8", "is_disabled": 0, "name": "ea0f17f20c492715b490b3e7328b89c8", "lon": -77.04523333333333, "is_reserved": 0, "fusion_lon": 0.0, "lat": 38.90523316666667, "rental_uris": {"android": "https://dc.lft.to/lastmile_qr_scan", "ios": "https://dc.lft.to/lastmile_qr_scan"}, "fusion_lat": 0.0}, {"type": "electric_scooter", "bike_id": "2243e18e2c46610c059c707c05aa30a7", "is_disabled": 0, "name": "2243e18e2c46610c059c707c05aa30a7", "lon": -77.0285005, "is_reserved": 0, "fusion_lon": 0.0, "lat": 38.93062483333333, "rental_uris": {"android": "https://dc.lft.to/lastmile_qr_scan", "ios": "https://dc.lft.to/lastmile_qr_scan"}, "fusion_lat": 0.0}, {"type": "electric_scooter", "bike_id": "d4792178f2685201fff56a472d87e1ce", "is_disabled": 0, "name": "d4792178f2685201fff56a472d87e1ce", "lon": -77.01232916666666, "is_reserved": 0, "fusion_lon": 0.0, "lat": 38.897615333333334, "rental_uris": {"android": "https://dc.lft.to/lastmile_qr_scan", "ios": "https://dc.lft.to/lastmile_qr_scan"}, "fusion_lat": 0.0}, {"type": "electric_scooter", "bike_id": "b68b7f89b2cc98a571a917cff7e9c0ee", "is_disabled": 0, "name": "b68b7f89b2cc98a571a917cff7e9c0ee", "lon": -77.0502655, "is_reserved": 0, "fusion_lon": 0.0, "lat": 38.90524666666666, "rental_uris": {"android": "https://dc.lft.to/lastmile_qr_scan", "ios": "https://dc.lft.to/lastmile_qr_scan"}, "fusion_lat": 0.0}, {"type": "electric_scooter", "bike_id": "8e9a161468fd0010bc485e9e10494632", "is_disabled": 0, "name": "8e9a161468fd0010bc485e9e10494632", "lon": -77.040164, "is_reserved": 0, "fusion_lon": 0.0, "lat": 38.907243666666666, "rental_uris": {"android": "https://dc.lft.to/lastmile_qr_scan", "ios": "https://dc.lft.to/lastmile_qr_scan"}, "fusion_lat": 0.0}, {"type": "electric_scooter", "bike_id": "e5a2141c8726e85ec1db2513940157bb", "is_disabled": 0, "name": "e5a2141c8726e85ec1db2513940157bb", "lon": -77.03577916666667, "is_reserved": 0, "fusion_lon": 0.0, "lat": 38.90814066666667, "rental_uris": {"android": "https://dc.lft.to/lastmile_qr_scan", "ios": "https://dc.lft.to/lastmile_qr_scan"}, "fusion_lat": 0.0}, {"type": "electric_scooter", "bike_id": "9a20f5f6847ddde4840ae8d36416f033", "is_disabled": 0, "name": "9a20f5f6847ddde4840ae8d36416f033", "lon": -77.04614, "is_reserved": 0, "fusion_lon": 0.0, "lat": 38.902628, "rental_uris": {"android": "https://dc.lft.to/lastmile_qr_scan", "ios": "https://dc.lft.to/lastmile_qr_scan"}, "fusion_lat": 0.0}, {"type": "electric_scooter", "bike_id": "8c9ac1413311cf72b7680fb44e8172be", "is_disabled": 0, "name": "8c9ac1413311cf72b7680fb44e8172be", "lon": -76.93188983333333, "is_reserved": 0, "fusion_lon": 0.0, "lat": 38.89855083333333, "rental_uris": {"android": "https://dc.lft.to/lastmile_qr_scan", "ios": "https://dc.lft.to/lastmile_qr_scan"}, "fusion_lat": 0.0}, {"type": "electric_scooter", "bike_id": "272cab283eb909b4729631dc951a31fa", "is_disabled": 0, "name": "272cab283eb909b4729631dc951a31fa", "lon": -77.0576385, "is_reserved": 0, "fusion_lon": 0.0, "lat": 38.92442166666667, "rental_uris": {"android": "https://dc.lft.to/lastmile_qr_scan", "ios": "https://dc.lft.to/lastmile_qr_scan"}, "fusion_lat": 0.0}, {"type": "electric_scooter", "bike_id": "bd66200667ef3e6b7c099b3b498637a1", "is_disabled": 0, "name": "bd66200667ef3e6b7c099b3b498637a1", "lon": -77.01016233333333, "is_reserved": 0, "fusion_lon": 0.0, "lat": 38.91268083333333, "rental_uris": {"android": "https://dc.lft.to/lastmile_qr_scan", "ios": "https://dc.lft.to/lastmile_qr_scan"}, "fusion_lat": 0.0}, {"type": "electric_scooter", "bike_id": "97759cd17d4676c90151db4d650e9bbb", "is_disabled": 0, "name": "97759cd17d4676c90151db4d650e9bbb", "lon": -77.01561783333334, "is_reserved": 0, "fusion_lon": 0.0, "lat": 38.885925666666665, "rental_uris": {"android": "https://dc.lft.to/lastmile_qr_scan", "ios": "https://dc.lft.to/lastmile_qr_scan"}, "fusion_lat": 0.0}, {"type": "electric_scooter", "bike_id": "50d61e9063e2a6760baf3f93cec09044", "is_disabled": 0, "name": "50d61e9063e2a6760baf3f93cec09044", "lon": -77.05173766666667, "is_reserved": 0, "fusion_lon": 0.0, "lat": 38.90304316666667, "rental_uris": {"android": "https://dc.lft.to/lastmile_qr_scan", "ios": "https://dc.lft.to/lastmile_qr_scan"}, "fusion_lat": 0.0}, {"type": "electric_scooter", "bike_id": "27e90eafc93a7549742ecbf433f4a776", "is_disabled": 0, "name": "27e90eafc93a7549742ecbf433f4a776", "lon": -77.02172883333333, "is_reserved": 0, "fusion_lon": 0.0, "lat": 38.94293783333333, "rental_uris": {"android": "https://dc.lft.to/lastmile_qr_scan", "ios": "https://dc.lft.to/lastmile_qr_scan"}, "fusion_lat": 0.0}, {"type": "electric_scooter", "bike_id": "51d5f951bf44556ba4733db05099ade4", "is_disabled": 0, "name": "51d5f951bf44556ba4733db05099ade4", "lon": -77.0118485, "is_reserved": 0, "fusion_lon": 0.0, "lat": 38.900135166666665, "rental_uris": {"android": "https://dc.lft.to/lastmile_qr_scan", "ios": "https://dc.lft.to/lastmile_qr_scan"}, "fusion_lat": 0.0}, {"type": "electric_scooter", "bike_id": "10df61c7f355c64dc8281c5c50f52bec", "is_disabled": 0, "name": "10df61c7f355c64dc8281c5c50f52bec", "lon": -76.996663, "is_reserved": 0, "fusion_lon": 0.0, "lat": 38.9323825, "rental_uris": {"android": "https://dc.lft.to/lastmile_qr_scan", "ios": "https://dc.lft.to/lastmile_qr_scan"}, "fusion_lat": 0.0}, {"type": "electric_scooter", "bike_id": "a0926ce94ed11c464d4ab8680fdf8f1f", "is_disabled": 0, "name": "a0926ce94ed11c464d4ab8680fdf8f1f", "lon": -77.03214933333334, "is_reserved": 0, "fusion_lon": 0.0, "lat": 38.918335, "rental_uris": {"android": "https://dc.lft.to/lastmile_qr_scan", "ios": "https://dc.lft.to/lastmile_qr_scan"}, "fusion_lat": 0.0}, {"type": "electric_scooter", "bike_id": "21bb02e775d334290b59e8edc97870c0", "is_disabled": 0, "name": "21bb02e775d334290b59e8edc97870c0", "lon": -77.0473725, "is_reserved": 0, "fusion_lon": 0.0, "lat": 38.8955685, "rental_uris": {"android": "https://dc.lft.to/lastmile_qr_scan", "ios": "https://dc.lft.to/lastmile_qr_scan"}, "fusion_lat": 0.0}, {"type": "electric_scooter", "bike_id": "bd58a3eb8bf1dbaabdb3156f598103dc", "is_disabled": 0, "name": "bd58a3eb8bf1dbaabdb3156f598103dc", "lon": -77.02328966666667, "is_reserved": 0, "fusion_lon": 0.0, "lat": 38.89726616666667, "rental_uris": {"android": "https://dc.lft.to/lastmile_qr_scan", "ios": "https://dc.lft.to/lastmile_qr_scan"}, "fusion_lat": 0.0}, {"type": "electric_scooter", "bike_id": "1ae22fc068637bab827bf557c957a6b7", "is_disabled": 0, "name": "1ae22fc068637bab827bf557c957a6b7", "lon": -77.0698385, "is_reserved": 0, "fusion_lon": 0.0, "lat": 38.95519516666667, "rental_uris": {"android": "https://dc.lft.to/lastmile_qr_scan", "ios": "https://dc.lft.to/lastmile_qr_scan"}, "fusion_lat": 0.0}, {"type": "electric_scooter", "bike_id": "24a129de7deba86fdbb0d0bbb36dee7a", "is_disabled": 0, "name": "24a129de7deba86fdbb0d0bbb36dee7a", "lon": -77.04990883333333, "is_reserved": 0, "fusion_lon": 0.0, "lat": 38.905121, "rental_uris": {"android": "https://dc.lft.to/lastmile_qr_scan", "ios": "https://dc.lft.to/lastmile_qr_scan"}, "fusion_lat": 0.0}, {"type": "electric_bike", "bike_id": "668c0cc930f4c87d9b7e215142e73a26", "is_disabled": 0, "name": "668c0cc930f4c87d9b7e215142e73a26", "lon": -76.99370883333333, "is_reserved": 0, "fusion_lon": 0.0, "lat": 38.991023166666665, "rental_uris": {"android": "https://dc.lft.to/lastmile_qr_scan", "ios": "https://dc.lft.to/lastmile_qr_scan"}, "fusion_lat": 0.0}, {"type": "electric_scooter", "bike_id": "5cbb5e735e2e67c28586b1a7df43113b", "is_disabled": 0, "name": "5cbb5e735e2e67c28586b1a7df43113b", "lon": -77.00809783333334, "is_reserved": 0, "fusion_lon": 0.0, "lat": 38.87577266666667, "rental_uris": {"android": "https://dc.lft.to/lastmile_qr_scan", "ios": "https://dc.lft.to/lastmile_qr_scan"}, "fusion_lat": 0.0}, {"type": "electric_scooter", "bike_id": "3cddf8eac5c409b50dcf2784e3c065be", "is_disabled": 0, "name": "3cddf8eac5c409b50dcf2784e3c065be", "lon": -77.04190166666666, "is_reserved": 0, "fusion_lon": 0.0, "lat": 38.920566666666666, "rental_uris": {"android": "https://dc.lft.to/lastmile_qr_scan", "ios": "https://dc.lft.to/lastmile_qr_scan"}, "fusion_lat": 0.0}, {"type": "electric_scooter", "bike_id": "a41090fc3719cae7a8f2f61bd0f4fa9b", "is_disabled": 0, "name": "a41090fc3719cae7a8f2f61bd0f4fa9b", "lon": -77.01904033333334, "is_reserved": 0, "fusion_lon": 0.0, "lat": 38.92334016666667, "rental_uris": {"android": "https://dc.lft.to/lastmile_qr_scan", "ios": "https://dc.lft.to/lastmile_qr_scan"}, "fusion_lat": 0.0}, {"type": "electric_scooter", "bike_id": "dcd7ec947da18d395978f1fd805c6292", "is_disabled": 0, "name": "dcd7ec947da18d395978f1fd805c6292", "lon": -76.99738533333333, "is_reserved": 0, "fusion_lon": 0.0, "lat": 38.922623333333334, "rental_uris": {"android": "https://dc.lft.to/lastmile_qr_scan", "ios": "https://dc.lft.to/lastmile_qr_scan"}, "fusion_lat": 0.0}, {"type": "electric_scooter", "bike_id": "aba91db5227d9c3097e129c7170bcc4a", "is_disabled": 0, "name": "aba91db5227d9c3097e129c7170bcc4a", "lon": -76.93632966666667, "is_reserved": 0, "fusion_lon": 0.0, "lat": 38.88352866666666, "rental_uris": {"android": "https://dc.lft.to/lastmile_qr_scan", "ios": "https://dc.lft.to/lastmile_qr_scan"}, "fusion_lat": 0.0}, {"type": "electric_bike", "bike_id": "378eb5032a66691564182712a09c39d5", "is_disabled": 0, "name": "378eb5032a66691564182712a09c39d5", "lon": -76.942353, "is_reserved": 0, "fusion_lon": 0.0, "lat": 38.89055316666666, "rental_uris": {"android": "https://dc.lft.to/lastmile_qr_scan", "ios": "https://dc.lft.to/lastmile_qr_scan"}, "fusion_lat": 0.0}, {"type": "electric_bike", "bike_id": "0fd20711310c333e778edb795d8d9f70", "is_disabled": 0, "name": "0fd20711310c333e778edb795d8d9f70", "lon": -77.06701383333333, "is_reserved": 0, "fusion_lon": 0.0, "lat": 38.831707, "rental_uris": {"android": "https://dc.lft.to/lastmile_qr_scan", "ios": "https://dc.lft.to/lastmile_qr_scan"}, "fusion_lat": 0.0}, {"type": "electric_scooter", "bike_id": "e02e040479f3db055b8fa43f38d222fb", "is_disabled": 0, "name": "e02e040479f3db055b8fa43f38d222fb", "lon": -77.0211995, "is_reserved": 0, "fusion_lon": 0.0, "lat": 38.92350233333333, "rental_uris": {"android": "https://dc.lft.to/lastmile_qr_scan", "ios": "https://dc.lft.to/lastmile_qr_scan"}, "fusion_lat": 0.0}, {"type": "electric_scooter", "bike_id": "b1852a89b201df61b3bb01fb99e87d34", "is_disabled": 0, "name": "b1852a89b201df61b3bb01fb99e87d34", "lon": -77.029149, "is_reserved": 0, "fusion_lon": 0.0, "lat": 38.900287166666665, "rental_uris": {"android": "https://dc.lft.to/lastmile_qr_scan", "ios": "https://dc.lft.to/lastmile_qr_scan"}, "fusion_lat": 0.0}, {"type": "electric_scooter", "bike_id": "956a0655d7e02bbc849da4e44757a9f3", "is_disabled": 0, "name": "956a0655d7e02bbc849da4e44757a9f3", "lon": -77.03637283333333, "is_reserved": 0, "fusion_lon": 0.0, "lat": 38.930604333333335, "rental_uris": {"android": "https://dc.lft.to/lastmile_qr_scan", "ios": "https://dc.lft.to/lastmile_qr_scan"}, "fusion_lat": 0.0}, {"type": "electric_scooter", "bike_id": "2c352c91fa19535df5ad91a8b645eddc", "is_disabled": 0, "name": "2c352c91fa19535df5ad91a8b645eddc", "lon": -77.01442, "is_reserved": 0, "fusion_lon": 0.0, "lat": 38.909578333333336, "rental_uris": {"android": "https://dc.lft.to/lastmile_qr_scan", "ios": "https://dc.lft.to/lastmile_qr_scan"}, "fusion_lat": 0.0}, {"type": "electric_scooter", "bike_id": "a9c21dd9de72ccb897faf23c31412f13", "is_disabled": 0, "name": "a9c21dd9de72ccb897faf23c31412f13", "lon": -76.9703535, "is_reserved": 0, "fusion_lon": 0.0, "lat": 38.8731785, "rental_uris": {"android": "https://dc.lft.to/lastmile_qr_scan", "ios": "https://dc.lft.to/lastmile_qr_scan"}, "fusion_lat": 0.0}, {"type": "electric_scooter", "bike_id": "0427926f406ff9bb3acc123183050083", "is_disabled": 0, "name": "0427926f406ff9bb3acc123183050083", "lon": -77.00345816666666, "is_reserved": 0, "fusion_lon": 0.0, "lat": 38.87780683333333, "rental_uris": {"android": "https://dc.lft.to/lastmile_qr_scan", "ios": "https://dc.lft.to/lastmile_qr_scan"}, "fusion_lat": 0.0}, {"type": "electric_scooter", "bike_id": "b0ec570037f15a56cda9eddd8ff412ec", "is_disabled": 0, "name": "b0ec570037f15a56cda9eddd8ff412ec", "lon": -77.04003216666666, "is_reserved": 0, "fusion_lon": 0.0, "lat": 38.934264166666665, "rental_uris": {"android": "https://dc.lft.to/lastmile_qr_scan", "ios": "https://dc.lft.to/lastmile_qr_scan"}, "fusion_lat": 0.0}, {"type": "electric_scooter", "bike_id": "f8b8474e9d0243f2c6973cf42855aaf5", "is_disabled": 0, "name": "f8b8474e9d0243f2c6973cf42855aaf5", "lon": -77.02785633333333, "is_reserved": 0, "fusion_lon": 0.0, "lat": 38.9619215, "rental_uris": {"android": "https://dc.lft.to/lastmile_qr_scan", "ios": "https://dc.lft.to/lastmile_qr_scan"}, "fusion_lat": 0.0}, {"type": "electric_scooter", "bike_id": "af9c645eaf545d48c511ff683f570d73", "is_disabled": 0, "name": "af9c645eaf545d48c511ff683f570d73", "lon": -77.0384425, "is_reserved": 0, "fusion_lon": 0.0, "lat": 38.90971533333333, "rental_uris": {"android": "https://dc.lft.to/lastmile_qr_scan", "ios": "https://dc.lft.to/lastmile_qr_scan"}, "fusion_lat": 0.0}, {"type": "electric_scooter", "bike_id": "4201b2548d60aaf2f0d5d24eeb718789", "is_disabled": 0, "name": "4201b2548d60aaf2f0d5d24eeb718789", "lon": -77.02072666666666, "is_reserved": 0, "fusion_lon": 0.0, "lat": 38.881908, "rental_uris": {"android": "https://dc.lft.to/lastmile_qr_scan", "ios": "https://dc.lft.to/lastmile_qr_scan"}, "fusion_lat": 0.0}, {"type": "electric_scooter", "bike_id": "a4cd95a7f2703df7964a495185581491", "is_disabled": 0, "name": "a4cd95a7f2703df7964a495185581491", "lon": -77.01798333333333, "is_reserved": 0, "fusion_lon": 0.0, "lat": 38.919411, "rental_uris": {"android": "https://dc.lft.to/lastmile_qr_scan", "ios": "https://dc.lft.to/lastmile_qr_scan"}, "fusion_lat": 0.0}, {"type": "electric_bike", "bike_id": "b82d5ac77596368eeabe15a6730b4c24", "is_disabled": 0, "name": "b82d5ac77596368eeabe15a6730b4c24", "lon": -76.9809655, "is_reserved": 0, "fusion_lon": 0.0, "lat": 38.95347833333334, "rental_uris": {"android": "https://dc.lft.to/lastmile_qr_scan", "ios": "https://dc.lft.to/lastmile_qr_scan"}, "fusion_lat": 0.0}, {"type": "electric_scooter", "bike_id": "f975f2eada31a24fd20837fc479929c7", "is_disabled": 0, "name": "f975f2eada31a24fd20837fc479929c7", "lon": -76.96209333333333, "is_reserved": 0, "fusion_lon": 0.0, "lat": 38.932317, "rental_uris": {"android": "https://dc.lft.to/lastmile_qr_scan", "ios": "https://dc.lft.to/lastmile_qr_scan"}, "fusion_lat": 0.0}, {"type": "electric_scooter", "bike_id": "6d15e3844959f010f1268d5f4d496cdf", "is_disabled": 0, "name": "6d15e3844959f010f1268d5f4d496cdf", "lon": -77.03663866666666, "is_reserved": 0, "fusion_lon": 0.0, "lat": 38.9318235, "rental_uris": {"android": "https://dc.lft.to/lastmile_qr_scan", "ios": "https://dc.lft.to/lastmile_qr_scan"}, "fusion_lat": 0.0}, {"type": "electric_scooter", "bike_id": "c0335ecd55b4e6eff9d34201542e677b", "is_disabled": 0, "name": "c0335ecd55b4e6eff9d34201542e677b", "lon": -77.04865266666667, "is_reserved": 0, "fusion_lon": 0.0, "lat": 38.900440333333336, "rental_uris": {"android": "https://dc.lft.to/lastmile_qr_scan", "ios": "https://dc.lft.to/lastmile_qr_scan"}, "fusion_lat": 0.0}, {"type": "electric_scooter", "bike_id": "415cf9bc5689597c709f4f1be80eb05d", "is_disabled": 0, "name": "415cf9bc5689597c709f4f1be80eb05d", "lon": -77.02119733333333, "is_reserved": 0, "fusion_lon": 0.0, "lat": 38.92323483333333, "rental_uris": {"android": "https://dc.lft.to/lastmile_qr_scan", "ios": "https://dc.lft.to/lastmile_qr_scan"}, "fusion_lat": 0.0}, {"type": "electric_scooter", "bike_id": "304b0c6067743028fedc46442e94c3c2", "is_disabled": 0, "name": "304b0c6067743028fedc46442e94c3c2", "lon": -76.98620883333334, "is_reserved": 0, "fusion_lon": 0.0, "lat": 38.938315, "rental_uris": {"android": "https://dc.lft.to/lastmile_qr_scan", "ios": "https://dc.lft.to/lastmile_qr_scan"}, "fusion_lat": 0.0}, {"type": "electric_scooter", "bike_id": "8f22c4eb606d5c04264700a5a4ec8dbc", "is_disabled": 0, "name": "8f22c4eb606d5c04264700a5a4ec8dbc", "lon": -77.02730766666667, "is_reserved": 0, "fusion_lon": 0.0, "lat": 38.898398, "rental_uris": {"android": "https://dc.lft.to/lastmile_qr_scan", "ios": "https://dc.lft.to/lastmile_qr_scan"}, "fusion_lat": 0.0}, {"type": "electric_scooter", "bike_id": "b1b5d28f9859bcf8af4c59d23cbe4e05", "is_disabled": 0, "name": "b1b5d28f9859bcf8af4c59d23cbe4e05", "lon": -77.03281166666666, "is_reserved": 0, "fusion_lon": 0.0, "lat": 38.89890333333334, "rental_uris": {"android": "https://dc.lft.to/lastmile_qr_scan", "ios": "https://dc.lft.to/lastmile_qr_scan"}, "fusion_lat": 0.0}, {"type": "electric_scooter", "bike_id": "4cf595fdd9b4286fb9b047b4b6d70e8f", "is_disabled": 0, "name": "4cf595fdd9b4286fb9b047b4b6d70e8f", "lon": -77.03885983333333, "is_reserved": 0, "fusion_lon": 0.0, "lat": 38.9184795, "rental_uris": {"android": "https://dc.lft.to/lastmile_qr_scan", "ios": "https://dc.lft.to/lastmile_qr_scan"}, "fusion_lat": 0.0}, {"type": "electric_scooter", "bike_id": "72ef3d7270d4df86ac70940bdd1b7b4d", "is_disabled": 0, "name": "72ef3d7270d4df86ac70940bdd1b7b4d", "lon": -77.02616066666667, "is_reserved": 0, "fusion_lon": 0.0, "lat": 38.90407916666667, "rental_uris": {"android": "https://dc.lft.to/lastmile_qr_scan", "ios": "https://dc.lft.to/lastmile_qr_scan"}, "fusion_lat": 0.0}, {"type": "electric_bike", "bike_id": "320cf785b45093a6e38f1037f6c48e62", "is_disabled": 0, "name": "320cf785b45093a6e38f1037f6c48e62", "lon": -76.986416, "is_reserved": 0, "fusion_lon": 0.0, "lat": 38.83211333333333, "rental_uris": {"android": "https://dc.lft.to/lastmile_qr_scan", "ios": "https://dc.lft.to/lastmile_qr_scan"}, "fusion_lat": 0.0}, {"type": "electric_scooter", "bike_id": "19acaac4561cd169fe870dc04bbb33e7", "is_disabled": 0, "name": "19acaac4561cd169fe870dc04bbb33e7", "lon": -77.01514066666667, "is_reserved": 0, "fusion_lon": 0.0, "lat": 38.887368333333335, "rental_uris": {"android": "https://dc.lft.to/lastmile_qr_scan", "ios": "https://dc.lft.to/lastmile_qr_scan"}, "fusion_lat": 0.0}, {"type": "electric_scooter", "bike_id": "8023cddf8989ac02297ada3dcb25d558", "is_disabled": 0, "name": "8023cddf8989ac02297ada3dcb25d558", "lon": -77.0465895, "is_reserved": 0, "fusion_lon": 0.0, "lat": 38.893423, "rental_uris": {"android": "https://dc.lft.to/lastmile_qr_scan", "ios": "https://dc.lft.to/lastmile_qr_scan"}, "fusion_lat": 0.0}, {"type": "electric_scooter", "bike_id": "7dca983c1816ec04795283f1bf30c220", "is_disabled": 0, "name": "7dca983c1816ec04795283f1bf30c220", "lon": -77.0209645, "is_reserved": 0, "fusion_lon": 0.0, "lat": 38.92364383333334, "rental_uris": {"android": "https://dc.lft.to/lastmile_qr_scan", "ios": "https://dc.lft.to/lastmile_qr_scan"}, "fusion_lat": 0.0}, {"type": "electric_scooter", "bike_id": "93f06e8ff307af8b54096b8d2b7961e9", "is_disabled": 0, "name": "93f06e8ff307af8b54096b8d2b7961e9", "lon": -77.02811083333333, "is_reserved": 0, "fusion_lon": 0.0, "lat": 38.91749933333333, "rental_uris": {"android": "https://dc.lft.to/lastmile_qr_scan", "ios": "https://dc.lft.to/lastmile_qr_scan"}, "fusion_lat": 0.0}, {"type": "electric_scooter", "bike_id": "5b06a39e3948d9fa45eaeb7138e4aa43", "is_disabled": 0, "name": "5b06a39e3948d9fa45eaeb7138e4aa43", "lon": -77.02979166666667, "is_reserved": 0, "fusion_lon": 0.0, "lat": 38.94292266666667, "rental_uris": {"android": "https://dc.lft.to/lastmile_qr_scan", "ios": "https://dc.lft.to/lastmile_qr_scan"}, "fusion_lat": 0.0}, {"type": "electric_scooter", "bike_id": "146df1aba0a4d2eeb3854f2008675f6a", "is_disabled": 0, "name": "146df1aba0a4d2eeb3854f2008675f6a", "lon": -77.032942, "is_reserved": 0, "fusion_lon": 0.0, "lat": 38.92345183333333, "rental_uris": {"android": "https://dc.lft.to/lastmile_qr_scan", "ios": "https://dc.lft.to/lastmile_qr_scan"}, "fusion_lat": 0.0}, {"type": "electric_scooter", "bike_id": "de2016d1ba576a366e0a44185dff2855", "is_disabled": 0, "name": "de2016d1ba576a366e0a44185dff2855", "lon": -77.045172, "is_reserved": 0, "fusion_lon": 0.0, "lat": 38.896137333333336, "rental_uris": {"android": "https://dc.lft.to/lastmile_qr_scan", "ios": "https://dc.lft.to/lastmile_qr_scan"}, "fusion_lat": 0.0}, {"type": "electric_scooter", "bike_id": "47b05f1cff015c777732ba2633826496", "is_disabled": 0, "name": "47b05f1cff015c777732ba2633826496", "lon": -77.04336516666666, "is_reserved": 0, "fusion_lon": 0.0, "lat": 38.90370466666667, "rental_uris": {"android": "https://dc.lft.to/lastmile_qr_scan", "ios": "https://dc.lft.to/lastmile_qr_scan"}, "fusion_lat": 0.0}, {"type": "electric_scooter", "bike_id": "bfadb482d8c452f64eab0a4da2fa7834", "is_disabled": 0, "name": "bfadb482d8c452f64eab0a4da2fa7834", "lon": -77.04463416666667, "is_reserved": 0, "fusion_lon": 0.0, "lat": 38.924591666666664, "rental_uris": {"android": "https://dc.lft.to/lastmile_qr_scan", "ios": "https://dc.lft.to/lastmile_qr_scan"}, "fusion_lat": 0.0}, {"type": "electric_scooter", "bike_id": "d12dd58b571b0529cd1d5d42835cee2d", "is_disabled": 0, "name": "d12dd58b571b0529cd1d5d42835cee2d", "lon": -77.02369016666667, "is_reserved": 0, "fusion_lon": 0.0, "lat": 38.89222683333333, "rental_uris": {"android": "https://dc.lft.to/lastmile_qr_scan", "ios": "https://dc.lft.to/lastmile_qr_scan"}, "fusion_lat": 0.0}, {"type": "electric_scooter", "bike_id": "8fa644109e5a88c09e05061e196961b0", "is_disabled": 0, "name": "8fa644109e5a88c09e05061e196961b0", "lon": -77.01978433333333, "is_reserved": 0, "fusion_lon": 0.0, "lat": 38.88723516666667, "rental_uris": {"android": "https://dc.lft.to/lastmile_qr_scan", "ios": "https://dc.lft.to/lastmile_qr_scan"}, "fusion_lat": 0.0}, {"type": "electric_scooter", "bike_id": "5f2a96b60fb805bed34d362deca49580", "is_disabled": 0, "name": "5f2a96b60fb805bed34d362deca49580", "lon": -77.03181, "is_reserved": 0, "fusion_lon": 0.0, "lat": 38.902058333333336, "rental_uris": {"android": "https://dc.lft.to/lastmile_qr_scan", "ios": "https://dc.lft.to/lastmile_qr_scan"}, "fusion_lat": 0.0}, {"type": "electric_bike", "bike_id": "54fdc82756fe835d09bb0758806d6a38", "is_disabled": 0, "name": "54fdc82756fe835d09bb0758806d6a38", "lon": -76.95565683333334, "is_reserved": 0, "fusion_lon": 0.0, "lat": 38.985010333333335, "rental_uris": {"android": "https://dc.lft.to/lastmile_qr_scan", "ios": "https://dc.lft.to/lastmile_qr_scan"}, "fusion_lat": 0.0}, {"type": "electric_scooter", "bike_id": "b5a30b1ebb33c7267f7cbcbb28ee1c50", "is_disabled": 0, "name": "b5a30b1ebb33c7267f7cbcbb28ee1c50", "lon": -77.011221, "is_reserved": 0, "fusion_lon": 0.0, "lat": 38.8951525, "rental_uris": {"android": "https://dc.lft.to/lastmile_qr_scan", "ios": "https://dc.lft.to/lastmile_qr_scan"}, "fusion_lat": 0.0}, {"type": "electric_scooter", "bike_id": "41699f61581253c70540479758d59800", "is_disabled": 0, "name": "41699f61581253c70540479758d59800", "lon": -77.02544533333334, "is_reserved": 0, "fusion_lon": 0.0, "lat": 38.9206155, "rental_uris": {"android": "https://dc.lft.to/lastmile_qr_scan", "ios": "https://dc.lft.to/lastmile_qr_scan"}, "fusion_lat": 0.0}, {"type": "electric_bike", "bike_id": "c2ff0d07cc4d9f40510a1c0d2f34950c", "is_disabled": 0, "name": "c2ff0d07cc4d9f40510a1c0d2f34950c", "lon": -77.01201583333334, "is_reserved": 0, "fusion_lon": 0.0, "lat": 38.95076566666667, "rental_uris": {"android": "https://dc.lft.to/lastmile_qr_scan", "ios": "https://dc.lft.to/lastmile_qr_scan"}, "fusion_lat": 0.0}, {"type": "electric_scooter", "bike_id": "13c7ece9724eb3677fd55b60d5fdc863", "is_disabled": 0, "name": "13c7ece9724eb3677fd55b60d5fdc863", "lon": -77.03441283333333, "is_reserved": 0, "fusion_lon": 0.0, "lat": 38.90507066666667, "rental_uris": {"android": "https://dc.lft.to/lastmile_qr_scan", "ios": "https://dc.lft.to/lastmile_qr_scan"}, "fusion_lat": 0.0}, {"type": "electric_scooter", "bike_id": "6df8d65312b481ed4c1c2cb626223c16", "is_disabled": 0, "name": "6df8d65312b481ed4c1c2cb626223c16", "lon": -77.063015, "is_reserved": 0, "fusion_lon": 0.0, "lat": 38.90395433333333, "rental_uris": {"android": "https://dc.lft.to/lastmile_qr_scan", "ios": "https://dc.lft.to/lastmile_qr_scan"}, "fusion_lat": 0.0}, {"type": "electric_scooter", "bike_id": "d3bab94d0dd35c125586e100d214ac8f", "is_disabled": 0, "name": "d3bab94d0dd35c125586e100d214ac8f", "lon": -77.02545983333333, "is_reserved": 0, "fusion_lon": 0.0, "lat": 38.91633683333333, "rental_uris": {"android": "https://dc.lft.to/lastmile_qr_scan", "ios": "https://dc.lft.to/lastmile_qr_scan"}, "fusion_lat": 0.0}, {"type": "electric_scooter", "bike_id": "0f5175ca7cb692d944a8decef654c813", "is_disabled": 0, "name": "0f5175ca7cb692d944a8decef654c813", "lon": -77.01540933333334, "is_reserved": 0, "fusion_lon": 0.0, "lat": 38.89165833333333, "rental_uris": {"android": "https://dc.lft.to/lastmile_qr_scan", "ios": "https://dc.lft.to/lastmile_qr_scan"}, "fusion_lat": 0.0}, {"type": "electric_scooter", "bike_id": "9ee35a1761d5ef4234c6b2ea9942656c", "is_disabled": 0, "name": "9ee35a1761d5ef4234c6b2ea9942656c", "lon": -77.024431, "is_reserved": 0, "fusion_lon": 0.0, "lat": 38.918588, "rental_uris": {"android": "https://dc.lft.to/lastmile_qr_scan", "ios": "https://dc.lft.to/lastmile_qr_scan"}, "fusion_lat": 0.0}, {"type": "electric_scooter", "bike_id": "ea6f33de89e7f128819909975c6b2064", "is_disabled": 0, "name": "ea6f33de89e7f128819909975c6b2064", "lon": -77.022125, "is_reserved": 0, "fusion_lon": 0.0, "lat": 38.91049866666667, "rental_uris": {"android": "https://dc.lft.to/lastmile_qr_scan", "ios": "https://dc.lft.to/lastmile_qr_scan"}, "fusion_lat": 0.0}, {"type": "electric_scooter", "bike_id": "babebad6e4d8fecfd9b6094abb8889c0", "is_disabled": 0, "name": "babebad6e4d8fecfd9b6094abb8889c0", "lon": -77.02832516666666, "is_reserved": 0, "fusion_lon": 0.0, "lat": 38.89930366666667, "rental_uris": {"android": "https://dc.lft.to/lastmile_qr_scan", "ios": "https://dc.lft.to/lastmile_qr_scan"}, "fusion_lat": 0.0}, {"type": "electric_bike", "bike_id": "34e890f11331d9ab831fc525aa72c5f7", "is_disabled": 0, "name": "34e890f11331d9ab831fc525aa72c5f7", "lon": -77.003773, "is_reserved": 0, "fusion_lon": 0.0, "lat": 38.83609366666666, "rental_uris": {"android": "https://dc.lft.to/lastmile_qr_scan", "ios": "https://dc.lft.to/lastmile_qr_scan"}, "fusion_lat": 0.0}, {"type": "electric_scooter", "bike_id": "3564660510c211ed9650e4a19d400d1a", "is_disabled": 0, "name": "3564660510c211ed9650e4a19d400d1a", "lon": -77.01856066666667, "is_reserved": 0, "fusion_lon": 0.0, "lat": 38.949155166666664, "rental_uris": {"android": "https://dc.lft.to/lastmile_qr_scan", "ios": "https://dc.lft.to/lastmile_qr_scan"}, "fusion_lat": 0.0}, {"type": "electric_scooter", "bike_id": "c3c4a7113db091bea39238265e45e19c", "is_disabled": 0, "name": "c3c4a7113db091bea39238265e45e19c", "lon": -77.01383466666667, "is_reserved": 0, "fusion_lon": 0.0, "lat": 38.87602666666667, "rental_uris": {"android": "https://dc.lft.to/lastmile_qr_scan", "ios": "https://dc.lft.to/lastmile_qr_scan"}, "fusion_lat": 0.0}, {"type": "electric_scooter", "bike_id": "475f1bb9db7e43943f8d3a838271d03f", "is_disabled": 0, "name": "475f1bb9db7e43943f8d3a838271d03f", "lon": -77.03729233333334, "is_reserved": 0, "fusion_lon": 0.0, "lat": 38.92029183333333, "rental_uris": {"android": "https://dc.lft.to/lastmile_qr_scan", "ios": "https://dc.lft.to/lastmile_qr_scan"}, "fusion_lat": 0.0}, {"type": "electric_scooter", "bike_id": "2407e76061992dc4e887d24294135a5c", "is_disabled": 0, "name": "2407e76061992dc4e887d24294135a5c", "lon": -77.02079833333333, "is_reserved": 0, "fusion_lon": 0.0, "lat": 38.930308833333335, "rental_uris": {"android": "https://dc.lft.to/lastmile_qr_scan", "ios": "https://dc.lft.to/lastmile_qr_scan"}, "fusion_lat": 0.0}, {"type": "electric_bike", "bike_id": "98a48f1515577777d07fdea5f2c7e0c6", "is_disabled": 0, "name": "98a48f1515577777d07fdea5f2c7e0c6", "lon": -76.96323033333333, "is_reserved": 0, "fusion_lon": 0.0, "lat": 38.93894266666667, "rental_uris": {"android": "https://dc.lft.to/lastmile_qr_scan", "ios": "https://dc.lft.to/lastmile_qr_scan"}, "fusion_lat": 0.0}, {"type": "electric_scooter", "bike_id": "7dac7f56798bce04092a124f032cbf89", "is_disabled": 0, "name": "7dac7f56798bce04092a124f032cbf89", "lon": -77.02093233333333, "is_reserved": 0, "fusion_lon": 0.0, "lat": 38.921446333333336, "rental_uris": {"android": "https://dc.lft.to/lastmile_qr_scan", "ios": "https://dc.lft.to/lastmile_qr_scan"}, "fusion_lat": 0.0}, {"type": "electric_scooter", "bike_id": "a1216654f7dabdc3991a6b8ba3ad46b8", "is_disabled": 0, "name": "a1216654f7dabdc3991a6b8ba3ad46b8", "lon": -77.00042366666666, "is_reserved": 0, "fusion_lon": 0.0, "lat": 38.88123866666667, "rental_uris": {"android": "https://dc.lft.to/lastmile_qr_scan", "ios": "https://dc.lft.to/lastmile_qr_scan"}, "fusion_lat": 0.0}, {"type": "electric_scooter", "bike_id": "626622ab709d4f68b8ee96d4f833b858", "is_disabled": 0, "name": "626622ab709d4f68b8ee96d4f833b858", "lon": -76.98698016666667, "is_reserved": 0, "fusion_lon": 0.0, "lat": 38.900145333333334, "rental_uris": {"android": "https://dc.lft.to/lastmile_qr_scan", "ios": "https://dc.lft.to/lastmile_qr_scan"}, "fusion_lat": 0.0}, {"type": "electric_bike", "bike_id": "7685d6d10cabe94cd6b44f0b056dc6c0", "is_disabled": 0, "name": "7685d6d10cabe94cd6b44f0b056dc6c0", "lon": -77.00283366666666, "is_reserved": 0, "fusion_lon": 0.0, "lat": 38.838339833333336, "rental_uris": {"android": "https://dc.lft.to/lastmile_qr_scan", "ios": "https://dc.lft.to/lastmile_qr_scan"}, "fusion_lat": 0.0}, {"type": "electric_scooter", "bike_id": "bd1a50edc570be3251d5090f8bdd9efa", "is_disabled": 0, "name": "bd1a50edc570be3251d5090f8bdd9efa", "lon": -77.0346925, "is_reserved": 0, "fusion_lon": 0.0, "lat": 38.9215595, "rental_uris": {"android": "https://dc.lft.to/lastmile_qr_scan", "ios": "https://dc.lft.to/lastmile_qr_scan"}, "fusion_lat": 0.0}, {"type": "electric_scooter", "bike_id": "cf31d9b2d1efcd4cc736d955cf419571", "is_disabled": 0, "name": "cf31d9b2d1efcd4cc736d955cf419571", "lon": -77.02567033333334, "is_reserved": 0, "fusion_lon": 0.0, "lat": 38.921038333333335, "rental_uris": {"android": "https://dc.lft.to/lastmile_qr_scan", "ios": "https://dc.lft.to/lastmile_qr_scan"}, "fusion_lat": 0.0}, {"type": "electric_bike", "bike_id": "6df2e73da705815ae39938a0620b79d4", "is_disabled": 0, "name": "6df2e73da705815ae39938a0620b79d4", "lon": -77.038808, "is_reserved": 0, "fusion_lon": 0.0, "lat": 39.02623083333334, "rental_uris": {"android": "https://dc.lft.to/lastmile_qr_scan", "ios": "https://dc.lft.to/lastmile_qr_scan"}, "fusion_lat": 0.0}, {"type": "electric_scooter", "bike_id": "5390cb0945505413280fb9e66c426713", "is_disabled": 0, "name": "5390cb0945505413280fb9e66c426713", "lon": -76.9458065, "is_reserved": 0, "fusion_lon": 0.0, "lat": 38.899306833333334, "rental_uris": {"android": "https://dc.lft.to/lastmile_qr_scan", "ios": "https://dc.lft.to/lastmile_qr_scan"}, "fusion_lat": 0.0}, {"type": "electric_scooter", "bike_id": "016e771871ebe097faace667c26883c2", "is_disabled": 0, "name": "016e771871ebe097faace667c26883c2", "lon": -77.00389083333333, "is_reserved": 0, "fusion_lon": 0.0, "lat": 38.907493333333335, "rental_uris": {"android": "https://dc.lft.to/lastmile_qr_scan", "ios": "https://dc.lft.to/lastmile_qr_scan"}, "fusion_lat": 0.0}, {"type": "electric_scooter", "bike_id": "63d4acd562badbc34a7f7a94033df0cf", "is_disabled": 0, "name": "63d4acd562badbc34a7f7a94033df0cf", "lon": -77.04100333333334, "is_reserved": 0, "fusion_lon": 0.0, "lat": 38.91839933333333, "rental_uris": {"android": "https://dc.lft.to/lastmile_qr_scan", "ios": "https://dc.lft.to/lastmile_qr_scan"}, "fusion_lat": 0.0}, {"type": "electric_scooter", "bike_id": "8100e758f0e2467a9a7bc9486ffff07b", "is_disabled": 0, "name": "8100e758f0e2467a9a7bc9486ffff07b", "lon": -77.01180816666667, "is_reserved": 0, "fusion_lon": 0.0, "lat": 38.89627183333333, "rental_uris": {"android": "https://dc.lft.to/lastmile_qr_scan", "ios": "https://dc.lft.to/lastmile_qr_scan"}, "fusion_lat": 0.0}, {"type": "electric_bike", "bike_id": "a7efaa42c62a25d01640fe54394b8999", "is_disabled": 0, "name": "a7efaa42c62a25d01640fe54394b8999", "lon": -77.12740616666666, "is_reserved": 0, "fusion_lon": 0.0, "lat": 38.8956225, "rental_uris": {"android": "https://dc.lft.to/lastmile_qr_scan", "ios": "https://dc.lft.to/lastmile_qr_scan"}, "fusion_lat": 0.0}, {"type": "electric_scooter", "bike_id": "b793aec9f0a0e610a262154613d0cbfd", "is_disabled": 0, "name": "b793aec9f0a0e610a262154613d0cbfd", "lon": -77.02385366666667, "is_reserved": 0, "fusion_lon": 0.0, "lat": 38.891979, "rental_uris": {"android": "https://dc.lft.to/lastmile_qr_scan", "ios": "https://dc.lft.to/lastmile_qr_scan"}, "fusion_lat": 0.0}, {"type": "electric_scooter", "bike_id": "2ab394d984aab038ada0ac8a81210a88", "is_disabled": 0, "name": "2ab394d984aab038ada0ac8a81210a88", "lon": -77.02701933333333, "is_reserved": 0, "fusion_lon": 0.0, "lat": 38.94061416666667, "rental_uris": {"android": "https://dc.lft.to/lastmile_qr_scan", "ios": "https://dc.lft.to/lastmile_qr_scan"}, "fusion_lat": 0.0}, {"type": "electric_scooter", "bike_id": "a5ddace8fc3b945d26a19412319ca4cb", "is_disabled": 0, "name": "a5ddace8fc3b945d26a19412319ca4cb", "lon": -77.07257433333334, "is_reserved": 0, "fusion_lon": 0.0, "lat": 38.908952166666666, "rental_uris": {"android": "https://dc.lft.to/lastmile_qr_scan", "ios": "https://dc.lft.to/lastmile_qr_scan"}, "fusion_lat": 0.0}, {"type": "electric_scooter", "bike_id": "71cd83ec31a0d0342e2e015d2485e3e3", "is_disabled": 0, "name": "71cd83ec31a0d0342e2e015d2485e3e3", "lon": -77.0387235, "is_reserved": 0, "fusion_lon": 0.0, "lat": 38.9171225, "rental_uris": {"android": "https://dc.lft.to/lastmile_qr_scan", "ios": "https://dc.lft.to/lastmile_qr_scan"}, "fusion_lat": 0.0}, {"type": "electric_scooter", "bike_id": "25c736da3f33d0e4c14bdf2f85cba5c9", "is_disabled": 0, "name": "25c736da3f33d0e4c14bdf2f85cba5c9", "lon": -77.07305983333333, "is_reserved": 0, "fusion_lon": 0.0, "lat": 38.92270766666667, "rental_uris": {"android": "https://dc.lft.to/lastmile_qr_scan", "ios": "https://dc.lft.to/lastmile_qr_scan"}, "fusion_lat": 0.0}, {"type": "electric_scooter", "bike_id": "d1d3445aae748a5619ee747969fd9f96", "is_disabled": 0, "name": "d1d3445aae748a5619ee747969fd9f96", "lon": -77.01228266666666, "is_reserved": 0, "fusion_lon": 0.0, "lat": 38.89764816666667, "rental_uris": {"android": "https://dc.lft.to/lastmile_qr_scan", "ios": "https://dc.lft.to/lastmile_qr_scan"}, "fusion_lat": 0.0}, {"type": "electric_scooter", "bike_id": "4136ad29076d5aa5153a1ec28f64d093", "is_disabled": 0, "name": "4136ad29076d5aa5153a1ec28f64d093", "lon": -77.01265566666666, "is_reserved": 0, "fusion_lon": 0.0, "lat": 38.897128333333335, "rental_uris": {"android": "https://dc.lft.to/lastmile_qr_scan", "ios": "https://dc.lft.to/lastmile_qr_scan"}, "fusion_lat": 0.0}, {"type": "electric_scooter", "bike_id": "6a7a8a68a51f60fd8e5001304485deb0", "is_disabled": 0, "name": "6a7a8a68a51f60fd8e5001304485deb0", "lon": -77.00766316666666, "is_reserved": 0, "fusion_lon": 0.0, "lat": 38.9004345, "rental_uris": {"android": "https://dc.lft.to/lastmile_qr_scan", "ios": "https://dc.lft.to/lastmile_qr_scan"}, "fusion_lat": 0.0}, {"type": "electric_scooter", "bike_id": "75f0c90e9e1a1dbbde24f53a4dfac87a", "is_disabled": 0, "name": "75f0c90e9e1a1dbbde24f53a4dfac87a", "lon": -77.04648733333333, "is_reserved": 0, "fusion_lon": 0.0, "lat": 38.9036305, "rental_uris": {"android": "https://dc.lft.to/lastmile_qr_scan", "ios": "https://dc.lft.to/lastmile_qr_scan"}, "fusion_lat": 0.0}, {"type": "electric_scooter", "bike_id": "92ccdc6f3d4a738d514add6b334e71c2", "is_disabled": 0, "name": "92ccdc6f3d4a738d514add6b334e71c2", "lon": -76.988899, "is_reserved": 0, "fusion_lon": 0.0, "lat": 38.93472, "rental_uris": {"android": "https://dc.lft.to/lastmile_qr_scan", "ios": "https://dc.lft.to/lastmile_qr_scan"}, "fusion_lat": 0.0}, {"type": "electric_scooter", "bike_id": "cd85432e3c79bc42fc20b13846906544", "is_disabled": 0, "name": "cd85432e3c79bc42fc20b13846906544", "lon": -77.02814183333334, "is_reserved": 0, "fusion_lon": 0.0, "lat": 38.90270783333333, "rental_uris": {"android": "https://dc.lft.to/lastmile_qr_scan", "ios": "https://dc.lft.to/lastmile_qr_scan"}, "fusion_lat": 0.0}, {"type": "electric_scooter", "bike_id": "3fdcf30f0fac21440bb286fb41d88e0d", "is_disabled": 0, "name": "3fdcf30f0fac21440bb286fb41d88e0d", "lon": -77.039913, "is_reserved": 0, "fusion_lon": 0.0, "lat": 38.8990595, "rental_uris": {"android": "https://dc.lft.to/lastmile_qr_scan", "ios": "https://dc.lft.to/lastmile_qr_scan"}, "fusion_lat": 0.0}, {"type": "electric_scooter", "bike_id": "c639175a8d7b1f16b683f5e8621d182e", "is_disabled": 0, "name": "c639175a8d7b1f16b683f5e8621d182e", "lon": -77.02811783333334, "is_reserved": 0, "fusion_lon": 0.0, "lat": 38.914331833333335, "rental_uris": {"android": "https://dc.lft.to/lastmile_qr_scan", "ios": "https://dc.lft.to/lastmile_qr_scan"}, "fusion_lat": 0.0}, {"type": "electric_scooter", "bike_id": "735c018bb0bdd43dede01c42ee2b3ea5", "is_disabled": 0, "name": "735c018bb0bdd43dede01c42ee2b3ea5", "lon": -77.04351833333334, "is_reserved": 0, "fusion_lon": 0.0, "lat": 38.92128983333333, "rental_uris": {"android": "https://dc.lft.to/lastmile_qr_scan", "ios": "https://dc.lft.to/lastmile_qr_scan"}, "fusion_lat": 0.0}, {"type": "electric_scooter", "bike_id": "9eb0000c838c46804d8a3ff7362ffd56", "is_disabled": 0, "name": "9eb0000c838c46804d8a3ff7362ffd56", "lon": -77.032098, "is_reserved": 0, "fusion_lon": 0.0, "lat": 38.884664666666666, "rental_uris": {"android": "https://dc.lft.to/lastmile_qr_scan", "ios": "https://dc.lft.to/lastmile_qr_scan"}, "fusion_lat": 0.0}, {"type": "electric_bike", "bike_id": "cbee9edbc943e2fc5644b545cb075f96", "is_disabled": 0, "name": "cbee9edbc943e2fc5644b545cb075f96", "lon": -76.9075195, "is_reserved": 0, "fusion_lon": 0.0, "lat": 38.89620766666667, "rental_uris": {"android": "https://dc.lft.to/lastmile_qr_scan", "ios": "https://dc.lft.to/lastmile_qr_scan"}, "fusion_lat": 0.0}, {"type": "electric_scooter", "bike_id": "3c39a114a30c9f10403a87ef4557319e", "is_disabled": 0, "name": "3c39a114a30c9f10403a87ef4557319e", "lon": -77.005341, "is_reserved": 0, "fusion_lon": 0.0, "lat": 38.87470716666667, "rental_uris": {"android": "https://dc.lft.to/lastmile_qr_scan", "ios": "https://dc.lft.to/lastmile_qr_scan"}, "fusion_lat": 0.0}, {"type": "electric_scooter", "bike_id": "b2575e55bdf3f68219e84ed23a886ad7", "is_disabled": 0, "name": "b2575e55bdf3f68219e84ed23a886ad7", "lon": -77.02809766666667, "is_reserved": 0, "fusion_lon": 0.0, "lat": 38.93074766666667, "rental_uris": {"android": "https://dc.lft.to/lastmile_qr_scan", "ios": "https://dc.lft.to/lastmile_qr_scan"}, "fusion_lat": 0.0}, {"type": "electric_scooter", "bike_id": "e302aa2a119f7dd7b772b13953751add", "is_disabled": 0, "name": "e302aa2a119f7dd7b772b13953751add", "lon": -77.03841333333334, "is_reserved": 0, "fusion_lon": 0.0, "lat": 38.9072535, "rental_uris": {"android": "https://dc.lft.to/lastmile_qr_scan", "ios": "https://dc.lft.to/lastmile_qr_scan"}, "fusion_lat": 0.0}, {"type": "electric_scooter", "bike_id": "74950ed5fbf1f6f0bbfcff33c064fb7e", "is_disabled": 0, "name": "74950ed5fbf1f6f0bbfcff33c064fb7e", "lon": -77.00834583333334, "is_reserved": 0, "fusion_lon": 0.0, "lat": 38.91361766666667, "rental_uris": {"android": "https://dc.lft.to/lastmile_qr_scan", "ios": "https://dc.lft.to/lastmile_qr_scan"}, "fusion_lat": 0.0}, {"type": "electric_scooter", "bike_id": "42bdca733648109ebe1a09aae585ef40", "is_disabled": 0, "name": "42bdca733648109ebe1a09aae585ef40", "lon": -77.05172916666666, "is_reserved": 0, "fusion_lon": 0.0, "lat": 38.902442666666666, "rental_uris": {"android": "https://dc.lft.to/lastmile_qr_scan", "ios": "https://dc.lft.to/lastmile_qr_scan"}, "fusion_lat": 0.0}, {"type": "electric_scooter", "bike_id": "f069e611a4d93a1bcf671d41dd2da5ab", "is_disabled": 0, "name": "f069e611a4d93a1bcf671d41dd2da5ab", "lon": -77.0273275, "is_reserved": 0, "fusion_lon": 0.0, "lat": 38.923865666666664, "rental_uris": {"android": "https://dc.lft.to/lastmile_qr_scan", "ios": "https://dc.lft.to/lastmile_qr_scan"}, "fusion_lat": 0.0}, {"type": "electric_scooter", "bike_id": "4cc20f5d1af36557b8e037a2162ca19a", "is_disabled": 0, "name": "4cc20f5d1af36557b8e037a2162ca19a", "lon": -77.02061783333333, "is_reserved": 0, "fusion_lon": 0.0, "lat": 38.908492333333335, "rental_uris": {"android": "https://dc.lft.to/lastmile_qr_scan", "ios": "https://dc.lft.to/lastmile_qr_scan"}, "fusion_lat": 0.0}, {"type": "electric_scooter", "bike_id": "3803377d1b2ae540b74f52a0963d641d", "is_disabled": 0, "name": "3803377d1b2ae540b74f52a0963d641d", "lon": -77.02399866666667, "is_reserved": 0, "fusion_lon": 0.0, "lat": 38.91713033333333, "rental_uris": {"android": "https://dc.lft.to/lastmile_qr_scan", "ios": "https://dc.lft.to/lastmile_qr_scan"}, "fusion_lat": 0.0}, {"type": "electric_bike", "bike_id": "b762e6e50308e67c833ffbce64a31a95", "is_disabled": 0, "name": "b762e6e50308e67c833ffbce64a31a95", "lon": -77.0646665, "is_reserved": 0, "fusion_lon": 0.0, "lat": 38.94649116666667, "rental_uris": {"android": "https://dc.lft.to/lastmile_qr_scan", "ios": "https://dc.lft.to/lastmile_qr_scan"}, "fusion_lat": 0.0}, {"type": "electric_scooter", "bike_id": "54f88b7bd92a974e278a2afb9bf5e7f0", "is_disabled": 0, "name": "54f88b7bd92a974e278a2afb9bf5e7f0", "lon": -77.0449865, "is_reserved": 0, "fusion_lon": 0.0, "lat": 38.897435, "rental_uris": {"android": "https://dc.lft.to/lastmile_qr_scan", "ios": "https://dc.lft.to/lastmile_qr_scan"}, "fusion_lat": 0.0}, {"type": "electric_scooter", "bike_id": "54d2fd69adae9210e062779fa477db11", "is_disabled": 0, "name": "54d2fd69adae9210e062779fa477db11", "lon": -77.00334483333333, "is_reserved": 0, "fusion_lon": 0.0, "lat": 38.89363216666667, "rental_uris": {"android": "https://dc.lft.to/lastmile_qr_scan", "ios": "https://dc.lft.to/lastmile_qr_scan"}, "fusion_lat": 0.0}, {"type": "electric_bike", "bike_id": "6b83d187a2512aabf560997c39aa2e20", "is_disabled": 0, "name": "6b83d187a2512aabf560997c39aa2e20", "lon": -77.03853766666667, "is_reserved": 0, "fusion_lon": 0.0, "lat": 38.91706816666667, "rental_uris": {"android": "https://dc.lft.to/lastmile_qr_scan", "ios": "https://dc.lft.to/lastmile_qr_scan"}, "fusion_lat": 0.0}, {"type": "electric_scooter", "bike_id": "c5df6b3390fd282cdd0a9cf15e6a65b5", "is_disabled": 0, "name": "c5df6b3390fd282cdd0a9cf15e6a65b5", "lon": -77.040401, "is_reserved": 0, "fusion_lon": 0.0, "lat": 38.918382333333334, "rental_uris": {"android": "https://dc.lft.to/lastmile_qr_scan", "ios": "https://dc.lft.to/lastmile_qr_scan"}, "fusion_lat": 0.0}, {"type": "electric_scooter", "bike_id": "ab9a1152097f7ff8bd1d9015fcdc15ee", "is_disabled": 0, "name": "ab9a1152097f7ff8bd1d9015fcdc15ee", "lon": -77.02566683333333, "is_reserved": 0, "fusion_lon": 0.0, "lat": 38.887417166666665, "rental_uris": {"android": "https://dc.lft.to/lastmile_qr_scan", "ios": "https://dc.lft.to/lastmile_qr_scan"}, "fusion_lat": 0.0}, {"type": "electric_scooter", "bike_id": "fbcbae246bd7cc7a33a9c35a0e5e80de", "is_disabled": 0, "name": "fbcbae246bd7cc7a33a9c35a0e5e80de", "lon": -77.02246433333333, "is_reserved": 0, "fusion_lon": 0.0, "lat": 38.89865283333334, "rental_uris": {"android": "https://dc.lft.to/lastmile_qr_scan", "ios": "https://dc.lft.to/lastmile_qr_scan"}, "fusion_lat": 0.0}, {"type": "electric_scooter", "bike_id": "d266816b0c60f93f0ca34e183aff8e86", "is_disabled": 0, "name": "d266816b0c60f93f0ca34e183aff8e86", "lon": -77.0298805, "is_reserved": 0, "fusion_lon": 0.0, "lat": 38.901373666666665, "rental_uris": {"android": "https://dc.lft.to/lastmile_qr_scan", "ios": "https://dc.lft.to/lastmile_qr_scan"}, "fusion_lat": 0.0}, {"type": "electric_scooter", "bike_id": "d601a9566d4d2e190abff9df074cdf52", "is_disabled": 0, "name": "d601a9566d4d2e190abff9df074cdf52", "lon": -77.029926, "is_reserved": 0, "fusion_lon": 0.0, "lat": 38.8832055, "rental_uris": {"android": "https://dc.lft.to/lastmile_qr_scan", "ios": "https://dc.lft.to/lastmile_qr_scan"}, "fusion_lat": 0.0}, {"type": "electric_scooter", "bike_id": "0784ae5e9170a729ee1a1d56ffb02f87", "is_disabled": 0, "name": "0784ae5e9170a729ee1a1d56ffb02f87", "lon": -77.0202125, "is_reserved": 0, "fusion_lon": 0.0, "lat": 38.92444583333333, "rental_uris": {"android": "https://dc.lft.to/lastmile_qr_scan", "ios": "https://dc.lft.to/lastmile_qr_scan"}, "fusion_lat": 0.0}, {"type": "electric_scooter", "bike_id": "4277bb3cfaae1c1d6d5c8df69284a03d", "is_disabled": 0, "name": "4277bb3cfaae1c1d6d5c8df69284a03d", "lon": -77.04150716666666, "is_reserved": 0, "fusion_lon": 0.0, "lat": 38.906402, "rental_uris": {"android": "https://dc.lft.to/lastmile_qr_scan", "ios": "https://dc.lft.to/lastmile_qr_scan"}, "fusion_lat": 0.0}, {"type": "electric_scooter", "bike_id": "f9ca8e6aeccaa01a90d87d8e392bce1c", "is_disabled": 0, "name": "f9ca8e6aeccaa01a90d87d8e392bce1c", "lon": -77.021094, "is_reserved": 0, "fusion_lon": 0.0, "lat": 38.921674333333335, "rental_uris": {"android": "https://dc.lft.to/lastmile_qr_scan", "ios": "https://dc.lft.to/lastmile_qr_scan"}, "fusion_lat": 0.0}, {"type": "electric_scooter", "bike_id": "faf671b0a4a23ff9a0512301f0ea038b", "is_disabled": 0, "name": "faf671b0a4a23ff9a0512301f0ea038b", "lon": -77.0187765, "is_reserved": 0, "fusion_lon": 0.0, "lat": 38.91417283333333, "rental_uris": {"android": "https://dc.lft.to/lastmile_qr_scan", "ios": "https://dc.lft.to/lastmile_qr_scan"}, "fusion_lat": 0.0}, {"type": "electric_scooter", "bike_id": "78e12420815517133d059f94596fd546", "is_disabled": 0, "name": "78e12420815517133d059f94596fd546", "lon": -77.0281865, "is_reserved": 0, "fusion_lon": 0.0, "lat": 38.89613033333333, "rental_uris": {"android": "https://dc.lft.to/lastmile_qr_scan", "ios": "https://dc.lft.to/lastmile_qr_scan"}, "fusion_lat": 0.0}, {"type": "electric_scooter", "bike_id": "1e21c7f3f4fea0c5333dc505232dc65b", "is_disabled": 0, "name": "1e21c7f3f4fea0c5333dc505232dc65b", "lon": -77.02571833333333, "is_reserved": 0, "fusion_lon": 0.0, "lat": 38.920953, "rental_uris": {"android": "https://dc.lft.to/lastmile_qr_scan", "ios": "https://dc.lft.to/lastmile_qr_scan"}, "fusion_lat": 0.0}, {"type": "electric_scooter", "bike_id": "bd55f10e66e367895f37cf2d1570874d", "is_disabled": 0, "name": "bd55f10e66e367895f37cf2d1570874d", "lon": -77.04032033333333, "is_reserved": 0, "fusion_lon": 0.0, "lat": 38.91803816666667, "rental_uris": {"android": "https://dc.lft.to/lastmile_qr_scan", "ios": "https://dc.lft.to/lastmile_qr_scan"}, "fusion_lat": 0.0}, {"type": "electric_scooter", "bike_id": "3ed806d5f56f909ba26c5943a7680610", "is_disabled": 0, "name": "3ed806d5f56f909ba26c5943a7680610", "lon": -77.036262, "is_reserved": 0, "fusion_lon": 0.0, "lat": 38.93671666666667, "rental_uris": {"android": "https://dc.lft.to/lastmile_qr_scan", "ios": "https://dc.lft.to/lastmile_qr_scan"}, "fusion_lat": 0.0}, {"type": "electric_scooter", "bike_id": "21230018441948e6800c447acfe0f865", "is_disabled": 0, "name": "21230018441948e6800c447acfe0f865", "lon": -77.00627316666667, "is_reserved": 0, "fusion_lon": 0.0, "lat": 38.8719035, "rental_uris": {"android": "https://dc.lft.to/lastmile_qr_scan", "ios": "https://dc.lft.to/lastmile_qr_scan"}, "fusion_lat": 0.0}, {"type": "electric_scooter", "bike_id": "fc50bfd07a519728ead54542d343ff3e", "is_disabled": 0, "name": "fc50bfd07a519728ead54542d343ff3e", "lon": -77.02884633333333, "is_reserved": 0, "fusion_lon": 0.0, "lat": 38.903286333333334, "rental_uris": {"android": "https://dc.lft.to/lastmile_qr_scan", "ios": "https://dc.lft.to/lastmile_qr_scan"}, "fusion_lat": 0.0}, {"type": "electric_scooter", "bike_id": "43fc32c7ed08603d90753e0c9f7946ed", "is_disabled": 0, "name": "43fc32c7ed08603d90753e0c9f7946ed", "lon": -77.05721783333334, "is_reserved": 0, "fusion_lon": 0.0, "lat": 38.93375133333333, "rental_uris": {"android": "https://dc.lft.to/lastmile_qr_scan", "ios": "https://dc.lft.to/lastmile_qr_scan"}, "fusion_lat": 0.0}, {"type": "electric_scooter", "bike_id": "6bf35d32e8c4c8805ca16884eaaf5fda", "is_disabled": 0, "name": "6bf35d32e8c4c8805ca16884eaaf5fda", "lon": -77.04878783333334, "is_reserved": 0, "fusion_lon": 0.0, "lat": 38.9001375, "rental_uris": {"android": "https://dc.lft.to/lastmile_qr_scan", "ios": "https://dc.lft.to/lastmile_qr_scan"}, "fusion_lat": 0.0},