{"data": {"bikes": [{"lat": 38.9650355, "fusion_lat": 0.0, "type": "electric_bike", "bike_id": "992390b3cae2477c7051e6c6ecac3d3d", "is_reserved": 0, "rental_uris": {"ios": "https://dc.lft.to/lastmile_qr_scan", "android": "https://dc.lft.to/lastmile_qr_scan"}, "is_disabled": 0, "lon": -77.02000783333334, "name": "992390b3cae2477c7051e6c6ecac3d3d", "fusion_lon": 0.0}, {"lat": 38.90493516666667, "fusion_lat": 0.0, "type": "electric_scooter", "bike_id": "4ba6f938d1bd4240efa1e313b714ab08", "is_reserved": 0, "rental_uris": {"ios": "https://dc.lft.to/lastmile_qr_scan", "android": "https://dc.lft.to/lastmile_qr_scan"}, "is_disabled": 0, "lon": -76.94972733333333, "name": "4ba6f938d1bd4240efa1e313b714ab08", "fusion_lon": 0.0}, {"lat": 38.951752, "fusion_lat": 0.0, "type": "electric_bike", "bike_id": "00e2e9c102a4dbb4a81d65d929a4428e", "is_reserved": 0, "rental_uris": {"ios": "https://dc.lft.to/lastmile_qr_scan", "android": "https://dc.lft.to/lastmile_qr_scan"}, "is_disabled": 0, "lon": -76.97728733333334, "name": "00e2e9c102a4dbb4a81d65d929a4428e", "fusion_lon": 0.0}, {"lat": 38.921506, "fusion_lat": 0.0, "type": "electric_scooter", "bike_id": "da73e2c68ab50d3be472f433f80d2077", "is_reserved": 0, "rental_uris": {"ios": "https://dc.lft.to/lastmile_qr_scan", "android": "https://dc.lft.to/lastmile_qr_scan"}, "is_disabled": 0, "lon": -77.01808333333334, "name": "da73e2c68ab50d3be472f433f80d2077", "fusion_lon": 0.0}, {"lat": 38.907313333333335, "fusion_lat": 0.0, "type": "electric_scooter", "bike_id": "b5e52db697121c5adc73939f0ec1e0b3", "is_reserved": 0, "rental_uris": {"ios": "https://dc.lft.to/lastmile_qr_scan", "android": "https://dc.lft.to/lastmile_qr_scan"}, "is_disabled": 0, "lon": -77.00768033333334, "name": "b5e52db697121c5adc73939f0ec1e0b3", "fusion_lon": 0.0}, {"lat": 38.92864616666667, "fusion_lat": 0.0, "type": "electric_scooter", "bike_id": "a23a9426a16e094170b8861396dcffe4", "is_reserved": 0, "rental_uris": {"ios": "https://dc.lft.to/lastmile_qr_scan", "android": "https://dc.lft.to/lastmile_qr_scan"}, "is_disabled": 0, "lon": -77.01359733333334, "name": "a23a9426a16e094170b8861396dcffe4", "fusion_lon": 0.0}, {"lat": 38.90529316666667, "fusion_lat": 0.0, "type": "electric_scooter", "bike_id": "75c021d0a1f9f3c26a625d4cdf64c91e", "is_reserved": 0, "rental_uris": {"ios": "https://dc.lft.to/lastmile_qr_scan", "android": "https://dc.lft.to/lastmile_qr_scan"}, "is_disabled": 0, "lon": -77.061373, "name": "75c021d0a1f9f3c26a625d4cdf64c91e", "fusion_lon": 0.0}, {"lat": 38.896119666666664, "fusion_lat": 0.0, "type": "electric_scooter", "bike_id": "4ab7b6f81b46c5be8ce2b84e0d9d945f", "is_reserved": 0, "rental_uris": {"ios": "https://dc.lft.to/lastmile_qr_scan", "android": "https://dc.lft.to/lastmile_qr_scan"}, "is_disabled": 0, "lon": -77.02208383333334, "name": "4ab7b6f81b46c5be8ce2b84e0d9d945f", "fusion_lon": 0.0}, {"lat": 38.905096, "fusion_lat": 0.0, "type": "electric_scooter", "bike_id": "63cf6fe6220d1e8fb65c3530d744b3f4", "is_reserved": 0, "rental_uris": {"ios": "https://dc.lft.to/lastmile_qr_scan", "android": "https://dc.lft.to/lastmile_qr_scan"}, "is_disabled": 0, "lon": -77.06010716666667, "name": "63cf6fe6220d1e8fb65c3530d744b3f4", "fusion_lon": 0.0}, {"lat": 38.918178833333336, "fusion_lat": 0.0, "type": "electric_scooter", "bike_id": "fb9adc73367fb606a916e8ce792f5e48", "is_reserved": 0, "rental_uris": {"ios": "https://dc.lft.to/lastmile_qr_scan", "android": "https://dc.lft.to/lastmile_qr_scan"}, "is_disabled": 0, "lon": -77.0895945, "name": "fb9adc73367fb606a916e8ce792f5e48", "fusion_lon": 0.0}, {"lat": 38.91910683333333, "fusion_lat": 0.0, "type": "electric_scooter", "bike_id": "7af4323e23ea7b63f06c5244798ae214", "is_reserved": 0, "rental_uris": {"ios": "https://dc.lft.to/lastmile_qr_scan", "android": "https://dc.lft.to/lastmile_qr_scan"}, "is_disabled": 0, "lon": -77.01539366666667, "name": "7af4323e23ea7b63f06c5244798ae214", "fusion_lon": 0.0}, {"lat": 38.9631915, "fusion_lat": 0.0, "type": "electric_bike", "bike_id": "8a2a7abb29b555e95797a217dac43c54", "is_reserved": 0, "rental_uris": {"ios": "https://dc.lft.to/lastmile_qr_scan", "android": "https://dc.lft.to/lastmile_qr_scan"}, "is_disabled": 0, "lon": -76.973579, "name": "8a2a7abb29b555e95797a217dac43c54", "fusion_lon": 0.0}, {"lat": 38.923472, "fusion_lat": 0.0, "type": "electric_scooter", "bike_id": "e14a3f5dd303562d2c1028b6802a3c4c", "is_reserved": 0, "rental_uris": {"ios": "https://dc.lft.to/lastmile_qr_scan", "android": "https://dc.lft.to/lastmile_qr_scan"}, "is_disabled": 0, "lon": -77.0415745, "name": "e14a3f5dd303562d2c1028b6802a3c4c", "fusion_lon": 0.0}, {"lat": 38.963030333333336, "fusion_lat": 0.0, "type": "electric_bike", "bike_id": "cd7c6b4f55f54451f63479ad8e94713d", "is_reserved": 0, "rental_uris": {"ios": "https://dc.lft.to/lastmile_qr_scan", "android": "https://dc.lft.to/lastmile_qr_scan"}, "is_disabled": 0, "lon": -77.01117833333333, "name": "cd7c6b4f55f54451f63479ad8e94713d", "fusion_lon": 0.0}, {"lat": 38.90509633333333, "fusion_lat": 0.0, "type": "electric_scooter", "bike_id": "e3f9ae568c1e683c739a4cdd6c5d4424", "is_reserved": 0, "rental_uris": {"ios": "https://dc.lft.to/lastmile_qr_scan", "android": "https://dc.lft.to/lastmile_qr_scan"}, "is_disabled": 0, "lon": -77.07015816666667, "name": "e3f9ae568c1e683c739a4cdd6c5d4424", "fusion_lon": 0.0}, {"lat": 38.91678733333333, "fusion_lat": 0.0, "type": "electric_scooter", "bike_id": "ca1af9438c4d058c255560695ec56b82", "is_reserved": 0, "rental_uris": {"ios": "https://dc.lft.to/lastmile_qr_scan", "android": "https://dc.lft.to/lastmile_qr_scan"}, "is_disabled": 0, "lon": -77.01577183333333, "name": "ca1af9438c4d058c255560695ec56b82", "fusion_lon": 0.0}, {"lat": 38.955325, "fusion_lat": 0.0, "type": "electric_bike", "bike_id": "fe2b50ef73e448f765a1004856ea2d1d", "is_reserved": 0, "rental_uris": {"ios": "https://dc.lft.to/lastmile_qr_scan", "android": "https://dc.lft.to/lastmile_qr_scan"}, "is_disabled": 0, "lon": -76.968274, "name": "fe2b50ef73e448f765a1004856ea2d1d", "fusion_lon": 0.0}, {"lat": 38.921305833333335, "fusion_lat": 0.0, "type": "electric_scooter", "bike_id": "95066fb560a08095a1a53effaec00427", "is_reserved": 0, "rental_uris": {"ios": "https://dc.lft.to/lastmile_qr_scan", "android": "https://dc.lft.to/lastmile_qr_scan"}, "is_disabled": 0, "lon": -77.01818116666666, "name": "95066fb560a08095a1a53effaec00427", "fusion_lon": 0.0}, {"lat": 38.8904595, "fusion_lat": 0.0, "type": "electric_scooter", "bike_id": "61aa57df1b8e72ba9651f9977d3dfe76", "is_reserved": 0, "rental_uris": {"ios": "https://dc.lft.to/lastmile_qr_scan", "android": "https://dc.lft.to/lastmile_qr_scan"}, "is_disabled": 0, "lon": -76.95133716666666, "name": "61aa57df1b8e72ba9651f9977d3dfe76", "fusion_lon": 0.0}, {"lat": 38.900475666666665, "fusion_lat": 0.0, "type": "electric_scooter", "bike_id": "06b3e9242bf3ef6847e5bd03e87e6212", "is_reserved": 0, "rental_uris": {"ios": "https://dc.lft.to/lastmile_qr_scan", "android": "https://dc.lft.to/lastmile_qr_scan"}, "is_disabled": 0, "lon": -77.02391433333334, "name": "06b3e9242bf3ef6847e5bd03e87e6212", "fusion_lon": 0.0}, {"lat": 38.90270566666667, "fusion_lat": 0.0, "type": "electric_scooter", "bike_id": "0c062fe618a3bb5ac2a4c431db13fbda", "is_reserved": 0, "rental_uris": {"ios": "https://dc.lft.to/lastmile_qr_scan", "android": "https://dc.lft.to/lastmile_qr_scan"}, "is_disabled": 0, "lon": -77.039516, "name": "0c062fe618a3bb5ac2a4c431db13fbda", "fusion_lon": 0.0}, {"lat": 38.90992816666667, "fusion_lat": 0.0, "type": "electric_scooter", "bike_id": "f4cc34c0ed5196d11b867b3715d196d5", "is_reserved": 0, "rental_uris": {"ios": "https://dc.lft.to/lastmile_qr_scan", "android": "https://dc.lft.to/lastmile_qr_scan"}, "is_disabled": 0, "lon": -77.031918, "name": "f4cc34c0ed5196d11b867b3715d196d5", "fusion_lon": 0.0}, {"lat": 38.90275416666667, "fusion_lat": 0.0, "type": "electric_scooter", "bike_id": "cc3c27c436b95ee309b73867552e0159", "is_reserved": 0, "rental_uris": {"ios": "https://dc.lft.to/lastmile_qr_scan", "android": "https://dc.lft.to/lastmile_qr_scan"}, "is_disabled": 0, "lon": -77.0320885, "name": "cc3c27c436b95ee309b73867552e0159", "fusion_lon": 0.0}, {"lat": 38.908668, "fusion_lat": 0.0, "type": "electric_bike", "bike_id": "2ee4b429a43833130bfdfff5c0b79fe9", "is_reserved": 0, "rental_uris": {"ios": "https://dc.lft.to/lastmile_qr_scan", "android": "https://dc.lft.to/lastmile_qr_scan"}, "is_disabled": 0, "lon": -76.9914135, "name": "2ee4b429a43833130bfdfff5c0b79fe9", "fusion_lon": 0.0}, {"lat": 38.9094155, "fusion_lat": 0.0, "type": "electric_scooter", "bike_id": "b62be55d3e15d29fe6e8986bbb9a0d4c", "is_reserved": 0, "rental_uris": {"ios": "https://dc.lft.to/lastmile_qr_scan", "android": "https://dc.lft.to/lastmile_qr_scan"}, "is_disabled": 0, "lon": -77.04490533333333, "name": "b62be55d3e15d29fe6e8986bbb9a0d4c", "fusion_lon": 0.0}, {"lat": 38.873580833333335, "fusion_lat": 0.0, "type": "electric_scooter", "bike_id": "99be1052a5ceb7fad03d0fadc2c968cf", "is_reserved": 0, "rental_uris": {"ios": "https://dc.lft.to/lastmile_qr_scan", "android": "https://dc.lft.to/lastmile_qr_scan"}, "is_disabled": 0, "lon": -77.0057505, "name": "99be1052a5ceb7fad03d0fadc2c968cf", "fusion_lon": 0.0}, {"lat": 38.935945833333335, "fusion_lat": 0.0, "type": "electric_scooter", "bike_id": "ec23dd7aaa5e5dd918e956fdfc680bea", "is_reserved": 0, "rental_uris": {"ios": "https://dc.lft.to/lastmile_qr_scan", "android": "https://dc.lft.to/lastmile_qr_scan"}, "is_disabled": 0, "lon": -77.03735033333334, "name": "ec23dd7aaa5e5dd918e956fdfc680bea", "fusion_lon": 0.0}, {"lat": 38.90401716666667, "fusion_lat": 0.0, "type": "electric_scooter", "bike_id": "fa9b7341ff213326b1b9c39dfcadc0c3", "is_reserved": 0, "rental_uris": {"ios": "https://dc.lft.to/lastmile_qr_scan", "android": "https://dc.lft.to/lastmile_qr_scan"}, "is_disabled": 0, "lon": -77.065021, "name": "fa9b7341ff213326b1b9c39dfcadc0c3", "fusion_lon": 0.0}, {"lat": 38.90007383333333, "fusion_lat": 0.0, "type": "electric_scooter", "bike_id": "e34deeeea42a3aa64acf439891149f75", "is_reserved": 0, "rental_uris": {"ios": "https://dc.lft.to/lastmile_qr_scan", "android": "https://dc.lft.to/lastmile_qr_scan"}, "is_disabled": 0, "lon": -76.99624166666666, "name": "e34deeeea42a3aa64acf439891149f75", "fusion_lon": 0.0}, {"lat": 38.952601, "fusion_lat": 0.0, "type": "electric_scooter", "bike_id": "c14f90e9e273820542bc652d6ca145e9", "is_reserved": 0, "rental_uris": {"ios": "https://dc.lft.to/lastmile_qr_scan", "android": "https://dc.lft.to/lastmile_qr_scan"}, "is_disabled": 0, "lon": -77.00206633333333, "name": "c14f90e9e273820542bc652d6ca145e9", "fusion_lon": 0.0}, {"lat": 38.874789, "fusion_lat": 0.0, "type": "electric_bike", "bike_id": "0a57c72617cc324350ee8e30acd13a43", "is_reserved": 0, "rental_uris": {"ios": "https://dc.lft.to/lastmile_qr_scan", "android": "https://dc.lft.to/lastmile_qr_scan"}, "is_disabled": 0, "lon": -76.96527, "name": "0a57c72617cc324350ee8e30acd13a43", "fusion_lon": 0.0}, {"lat": 38.89614866666667, "fusion_lat": 0.0, "type": "electric_scooter", "bike_id": "f682c91674682fec7be986f22ab1aac9", "is_reserved": 0, "rental_uris": {"ios": "https://dc.lft.to/lastmile_qr_scan", "android": "https://dc.lft.to/lastmile_qr_scan"}, "is_disabled": 0, "lon": -76.981113, "name": "f682c91674682fec7be986f22ab1aac9", "fusion_lon": 0.0}, {"lat": 38.91289716666667, "fusion_lat": 0.0, "type": "electric_scooter", "bike_id": "45070585671942d6a0db0cfb7ff41d11", "is_reserved": 0, "rental_uris": {"ios": "https://dc.lft.to/lastmile_qr_scan", "android": "https://dc.lft.to/lastmile_qr_scan"}, "is_disabled": 0, "lon": -77.02383233333333, "name": "45070585671942d6a0db0cfb7ff41d11", "fusion_lon": 0.0}, {"lat": 38.89609816666667, "fusion_lat": 0.0, "type": "electric_scooter", "bike_id": "fcb40a195dc4586af0e41ef5d1f595f3", "is_reserved": 0, "rental_uris": {"ios": "https://dc.lft.to/lastmile_qr_scan", "android": "https://dc.lft.to/lastmile_qr_scan"}, "is_disabled": 0, "lon": -77.01601516666666, "name": "fcb40a195dc4586af0e41ef5d1f595f3", "fusion_lon": 0.0}, {"lat": 38.89612183333333, "fusion_lat": 0.0, "type": "electric_scooter", "bike_id": "78e0384873608e99e4e0bdd171d7ad84", "is_reserved": 0, "rental_uris": {"ios": "https://dc.lft.to/lastmile_qr_scan", "android": "https://dc.lft.to/lastmile_qr_scan"}, "is_disabled": 0, "lon": -77.0220075, "name": "78e0384873608e99e4e0bdd171d7ad84", "fusion_lon": 0.0}, {"lat": 38.91026633333333, "fusion_lat": 0.0, "type": "electric_scooter", "bike_id": "bda9200a41da0fdb8a09c2b50219169d", "is_reserved": 0, "rental_uris": {"ios": "https://dc.lft.to/lastmile_qr_scan", "android": "https://dc.lft.to/lastmile_qr_scan"}, "is_disabled": 0, "lon": -77.05281733333334, "name": "bda9200a41da0fdb8a09c2b50219169d", "fusion_lon": 0.0}, {"lat": 38.90723533333333, "fusion_lat": 0.0, "type": "electric_scooter", "bike_id": "5ec78ce33b9ceabee1377dbf084c25b6", "is_reserved": 0, "rental_uris": {"ios": "https://dc.lft.to/lastmile_qr_scan", "android": "https://dc.lft.to/lastmile_qr_scan"}, "is_disabled": 0, "lon": -77.02889516666667, "name": "5ec78ce33b9ceabee1377dbf084c25b6", "fusion_lon": 0.0}, {"lat": 38.90218866666667, "fusion_lat": 0.0, "type": "electric_scooter", "bike_id": "5d3d313f359a583876e7d51b80cac939", "is_reserved": 0, "rental_uris": {"ios": "https://dc.lft.to/lastmile_qr_scan", "android": "https://dc.lft.to/lastmile_qr_scan"}, "is_disabled": 0, "lon": -77.02382166666666, "name": "5d3d313f359a583876e7d51b80cac939", "fusion_lon": 0.0}, {"lat": 38.900607666666666, "fusion_lat": 0.0, "type": "electric_scooter", "bike_id": "c90564ba382618cf9f647bf48f5f69e2", "is_reserved": 0, "rental_uris": {"ios": "https://dc.lft.to/lastmile_qr_scan", "android": "https://dc.lft.to/lastmile_qr_scan"}, "is_disabled": 0, "lon": -77.048365, "name": "c90564ba382618cf9f647bf48f5f69e2", "fusion_lon": 0.0}, {"lat": 38.914568333333335, "fusion_lat": 0.0, "type": "electric_scooter", "bike_id": "dd938f049c434dd222dee104dd378030", "is_reserved": 0, "rental_uris": {"ios": "https://dc.lft.to/lastmile_qr_scan", "android": "https://dc.lft.to/lastmile_qr_scan"}, "is_disabled": 0, "lon": -77.02207983333334, "name": "dd938f049c434dd222dee104dd378030", "fusion_lon": 0.0}, {"lat": 38.923999333333335, "fusion_lat": 0.0, "type": "electric_scooter", "bike_id": "7a56b6bfbd17a90b1097eb636f708701", "is_reserved": 0, "rental_uris": {"ios": "https://dc.lft.to/lastmile_qr_scan", "android": "https://dc.lft.to/lastmile_qr_scan"}, "is_disabled": 0, "lon": -77.02422383333334, "name": "7a56b6bfbd17a90b1097eb636f708701", "fusion_lon": 0.0}, {"lat": 38.906858166666666, "fusion_lat": 0.0, "type": "electric_scooter", "bike_id": "a83057fa8b34a872fe5810ea4a2ca955", "is_reserved": 0, "rental_uris": {"ios": "https://dc.lft.to/lastmile_qr_scan", "android": "https://dc.lft.to/lastmile_qr_scan"}, "is_disabled": 0, "lon": -77.05332483333333, "name": "a83057fa8b34a872fe5810ea4a2ca955", "fusion_lon": 0.0}, {"lat": 38.90722783333333, "fusion_lat": 0.0, "type": "electric_scooter", "bike_id": "435deefe03f1893ae3ce3cb5087d0966", "is_reserved": 0, "rental_uris": {"ios": "https://dc.lft.to/lastmile_qr_scan", "android": "https://dc.lft.to/lastmile_qr_scan"}, "is_disabled": 0, "lon": -77.0148245, "name": "435deefe03f1893ae3ce3cb5087d0966", "fusion_lon": 0.0}, {"lat": 38.892222833333335, "fusion_lat": 0.0, "type": "electric_scooter", "bike_id": "fad614d4322450f1067cbf9651eb36c3", "is_reserved": 0, "rental_uris": {"ios": "https://dc.lft.to/lastmile_qr_scan", "android": "https://dc.lft.to/lastmile_qr_scan"}, "is_disabled": 0, "lon": -77.02227183333333, "name": "fad614d4322450f1067cbf9651eb36c3", "fusion_lon": 0.0}, {"lat": 38.90828233333333, "fusion_lat": 0.0, "type": "electric_bike", "bike_id": "9e7382fc7f0e229fea95ec3b3d6b0e87", "is_reserved": 0, "rental_uris": {"ios": "https://dc.lft.to/lastmile_qr_scan", "android": "https://dc.lft.to/lastmile_qr_scan"}, "is_disabled": 0, "lon": -76.94156083333333, "name": "9e7382fc7f0e229fea95ec3b3d6b0e87", "fusion_lon": 0.0}, {"lat": 38.949011666666664, "fusion_lat": 0.0, "type": "electric_bike", "bike_id": "973e2ac520b579436ced683c86c8f259", "is_reserved": 0, "rental_uris": {"ios": "https://dc.lft.to/lastmile_qr_scan", "android": "https://dc.lft.to/lastmile_qr_scan"}, "is_disabled": 0, "lon": -76.96373733333333, "name": "973e2ac520b579436ced683c86c8f259", "fusion_lon": 0.0}, {"lat": 38.902791666666666, "fusion_lat": 0.0, "type": "electric_scooter", "bike_id": "601f328fa8e45d6022140ef788d23c2d", "is_reserved": 0, "rental_uris": {"ios": "https://dc.lft.to/lastmile_qr_scan", "android": "https://dc.lft.to/lastmile_qr_scan"}, "is_disabled": 0, "lon": -77.03320433333333, "name": "601f328fa8e45d6022140ef788d23c2d", "fusion_lon": 0.0}, {"lat": 38.89222816666667, "fusion_lat": 0.0, "type": "electric_scooter", "bike_id": "f9a230048991a6b40e79ca544e6699d1", "is_reserved": 0, "rental_uris": {"ios": "https://dc.lft.to/lastmile_qr_scan", "android": "https://dc.lft.to/lastmile_qr_scan"}, "is_disabled": 0, "lon": -77.03338533333333, "name": "f9a230048991a6b40e79ca544e6699d1", "fusion_lon": 0.0}, {"lat": 38.9282305, "fusion_lat": 0.0, "type": "electric_scooter", "bike_id": "7811b87ce2a2f53079e5d33ec6255ce8", "is_reserved": 0, "rental_uris": {"ios": "https://dc.lft.to/lastmile_qr_scan", "android": "https://dc.lft.to/lastmile_qr_scan"}, "is_disabled": 0, "lon": -77.022592, "name": "7811b87ce2a2f53079e5d33ec6255ce8", "fusion_lon": 0.0}, {"lat": 38.920975, "fusion_lat": 0.0, "type": "electric_scooter", "bike_id": "07789a5c8c61b7c70c3df98e96939994", "is_reserved": 0, "rental_uris": {"ios": "https://dc.lft.to/lastmile_qr_scan", "android": "https://dc.lft.to/lastmile_qr_scan"}, "is_disabled": 0, "lon": -77.039118, "name": "07789a5c8c61b7c70c3df98e96939994", "fusion_lon": 0.0}, {"lat": 38.90270566666667, "fusion_lat": 0.0, "type": "electric_scooter", "bike_id": "1dec43e121654bf42b9495cdcd5ea9eb", "is_reserved": 0, "rental_uris": {"ios": "https://dc.lft.to/lastmile_qr_scan", "android": "https://dc.lft.to/lastmile_qr_scan"}, "is_disabled": 0, "lon": -77.036277, "name": "1dec43e121654bf42b9495cdcd5ea9eb", "fusion_lon": 0.0}, {"lat": 38.885049333333335, "fusion_lat": 0.0, "type": "electric_scooter", "bike_id": "6bfd4d1af3e4242ecd554e047b594064", "is_reserved": 0, "rental_uris": {"ios": "https://dc.lft.to/lastmile_qr_scan", "android": "https://dc.lft.to/lastmile_qr_scan"}, "is_disabled": 0, "lon": -76.97709266666666, "name": "6bfd4d1af3e4242ecd554e047b594064", "fusion_lon": 0.0}, {"lat": 38.9098245, "fusion_lat": 0.0, "type": "electric_scooter", "bike_id": "892ff060c1d3f29fd148b8e3383c74c8", "is_reserved": 0, "rental_uris": {"ios": "https://dc.lft.to/lastmile_qr_scan", "android": "https://dc.lft.to/lastmile_qr_scan"}, "is_disabled": 0, "lon": -77.03447383333334, "name": "892ff060c1d3f29fd148b8e3383c74c8", "fusion_lon": 0.0}, {"lat": 38.897605666666664, "fusion_lat": 0.0, "type": "electric_scooter", "bike_id": "9214a1f1e71a0987232ce52cf4d09b1f", "is_reserved": 0, "rental_uris": {"ios": "https://dc.lft.to/lastmile_qr_scan", "android": "https://dc.lft.to/lastmile_qr_scan"}, "is_disabled": 0, "lon": -77.027065, "name": "9214a1f1e71a0987232ce52cf4d09b1f", "fusion_lon": 0.0}, {"lat": 38.90403716666667, "fusion_lat": 0.0, "type": "electric_scooter", "bike_id": "01275a42ed77877c671c42bc4121da36", "is_reserved": 0, "rental_uris": {"ios": "https://dc.lft.to/lastmile_qr_scan", "android": "https://dc.lft.to/lastmile_qr_scan"}, "is_disabled": 0, "lon": -77.03251766666666, "name": "01275a42ed77877c671c42bc4121da36", "fusion_lon": 0.0}, {"lat": 38.91728966666667, "fusion_lat": 0.0, "type": "electric_scooter", "bike_id": "f13fc66ad4961ae69d7154dbdf25471c", "is_reserved": 0, "rental_uris": {"ios": "https://dc.lft.to/lastmile_qr_scan", "android": "https://dc.lft.to/lastmile_qr_scan"}, "is_disabled": 0, "lon": -77.02510433333333, "name": "f13fc66ad4961ae69d7154dbdf25471c", "fusion_lon": 0.0}, {"lat": 38.90569933333333, "fusion_lat": 0.0, "type": "electric_scooter", "bike_id": "65fbf5ced4b7618a1c1d2fa916b29a79", "is_reserved": 0, "rental_uris": {"ios": "https://dc.lft.to/lastmile_qr_scan", "android": "https://dc.lft.to/lastmile_qr_scan"}, "is_disabled": 0, "lon": -77.00711016666666, "name": "65fbf5ced4b7618a1c1d2fa916b29a79", "fusion_lon": 0.0}, {"lat": 38.8839695, "fusion_lat": 0.0, "type": "electric_bike", "bike_id": "d32c1e872d6146443e50a242b3019eca", "is_reserved": 0, "rental_uris": {"ios": "https://dc.lft.to/lastmile_qr_scan", "android": "https://dc.lft.to/lastmile_qr_scan"}, "is_disabled": 0, "lon": -76.96059833333334, "name": "d32c1e872d6146443e50a242b3019eca", "fusion_lon": 0.0}, {"lat": 38.9069115, "fusion_lat": 0.0, "type": "electric_scooter", "bike_id": "9b3a65c20667d4673725b6f6faee41e2", "is_reserved": 0, "rental_uris": {"ios": "https://dc.lft.to/lastmile_qr_scan", "android": "https://dc.lft.to/lastmile_qr_scan"}, "is_disabled": 0, "lon": -77.04324516666667, "name": "9b3a65c20667d4673725b6f6faee41e2", "fusion_lon": 0.0}, {"lat": 38.8577395, "fusion_lat": 0.0, "type": "electric_bike", "bike_id": "52479bfd062a9a33154125955d1059cf", "is_reserved": 0, "rental_uris": {"ios": "https://dc.lft.to/lastmile_qr_scan", "android": "https://dc.lft.to/lastmile_qr_scan"}, "is_disabled": 0, "lon": -76.9876365, "name": "52479bfd062a9a33154125955d1059cf", "fusion_lon": 0.0}, {"lat": 38.9228245, "fusion_lat": 0.0, "type": "electric_scooter", "bike_id": "0ddaae334de2ebbcad0dc8c42f77c5b7", "is_reserved": 0, "rental_uris": {"ios": "https://dc.lft.to/lastmile_qr_scan", "android": "https://dc.lft.to/lastmile_qr_scan"}, "is_disabled": 0, "lon": -77.02229383333334, "name": "0ddaae334de2ebbcad0dc8c42f77c5b7", "fusion_lon": 0.0}, {"lat": 38.898917, "fusion_lat": 0.0, "type": "electric_scooter", "bike_id": "5af862a922ff344941a16b341c61b0e4", "is_reserved": 0, "rental_uris": {"ios": "https://dc.lft.to/lastmile_qr_scan", "android": "https://dc.lft.to/lastmile_qr_scan"}, "is_disabled": 0, "lon": -76.976885, "name": "5af862a922ff344941a16b341c61b0e4", "fusion_lon": 0.0}, {"lat": 38.87474, "fusion_lat": 0.0, "type": "electric_scooter", "bike_id": "00a357743c7fa9a08cc3a2cccd6cbe21", "is_reserved": 0, "rental_uris": {"ios": "https://dc.lft.to/lastmile_qr_scan", "android": "https://dc.lft.to/lastmile_qr_scan"}, "is_disabled": 0, "lon": -77.00558866666667, "name": "00a357743c7fa9a08cc3a2cccd6cbe21", "fusion_lon": 0.0}, {"lat": 38.906695, "fusion_lat": 0.0, "type": "electric_scooter", "bike_id": "0341871931bf6914dd59541ad6e26b77", "is_reserved": 0, "rental_uris": {"ios": "https://dc.lft.to/lastmile_qr_scan", "android": "https://dc.lft.to/lastmile_qr_scan"}, "is_disabled": 0, "lon": -77.0746765, "name": "0341871931bf6914dd59541ad6e26b77", "fusion_lon": 0.0}, {"lat": 38.929662, "fusion_lat": 0.0, "type": "electric_scooter", "bike_id": "76e7395cbebe1266f9ca4508cd798b28", "is_reserved": 0, "rental_uris": {"ios": "https://dc.lft.to/lastmile_qr_scan", "android": "https://dc.lft.to/lastmile_qr_scan"}, "is_disabled": 0, "lon": -77.0294495, "name": "76e7395cbebe1266f9ca4508cd798b28", "fusion_lon": 0.0}, {"lat": 38.838078833333334, "fusion_lat": 0.0, "type": "electric_bike", "bike_id": "52fc9dc6672452c6e8806af1e7d48c0f", "is_reserved": 0, "rental_uris": {"ios": "https://dc.lft.to/lastmile_qr_scan", "android": "https://dc.lft.to/lastmile_qr_scan"}, "is_disabled": 0, "lon": -77.09520866666666, "name": "52fc9dc6672452c6e8806af1e7d48c0f", "fusion_lon": 0.0}, {"lat": 38.88761616666667, "fusion_lat": 0.0, "type": "electric_scooter", "bike_id": "e4f213407dd812e1934cdfef7311750e", "is_reserved": 0, "rental_uris": {"ios": "https://dc.lft.to/lastmile_qr_scan", "android": "https://dc.lft.to/lastmile_qr_scan"}, "is_disabled": 0, "lon": -76.99604666666667, "name": "e4f213407dd812e1934cdfef7311750e", "fusion_lon": 0.0}, {"lat": 38.9079535, "fusion_lat": 0.0, "type": "electric_scooter", "bike_id": "3b54a7fa65e27a49ad3d116470a5195d", "is_reserved": 0, "rental_uris": {"ios": "https://dc.lft.to/lastmile_qr_scan", "android": "https://dc.lft.to/lastmile_qr_scan"}, "is_disabled": 0, "lon": -77.03667916666667, "name": "3b54a7fa65e27a49ad3d116470a5195d", "fusion_lon": 0.0}, {"lat": 38.92119266666667, "fusion_lat": 0.0, "type": "electric_scooter", "bike_id": "240696118c1a4a4f69fe890b5dbb2c07", "is_reserved": 0, "rental_uris": {"ios": "https://dc.lft.to/lastmile_qr_scan", "android": "https://dc.lft.to/lastmile_qr_scan"}, "is_disabled": 0, "lon": -77.04381, "name": "240696118c1a4a4f69fe890b5dbb2c07", "fusion_lon": 0.0}, {"lat": 38.955313, "fusion_lat": 0.0, "type": "electric_scooter", "bike_id": "7fa37bafd16aaee8de893475cfcd7dd2", "is_reserved": 0, "rental_uris": {"ios": "https://dc.lft.to/lastmile_qr_scan", "android": "https://dc.lft.to/lastmile_qr_scan"}, "is_disabled": 0, "lon": -77.027761, "name": "7fa37bafd16aaee8de893475cfcd7dd2", "fusion_lon": 0.0}, {"lat": 38.91526133333333, "fusion_lat": 0.0, "type": "electric_scooter", "bike_id": "18b4fb5c400705ba0f1431285bf891f3", "is_reserved": 0, "rental_uris": {"ios": "https://dc.lft.to/lastmile_qr_scan", "android": "https://dc.lft.to/lastmile_qr_scan"}, "is_disabled": 0, "lon": -77.03851366666666, "name": "18b4fb5c400705ba0f1431285bf891f3", "fusion_lon": 0.0}, {"lat": 38.9111685, "fusion_lat": 0.0, "type": "electric_scooter", "bike_id": "77ecc06a3a4fac71e216900e1c3a4af0", "is_reserved": 0, "rental_uris": {"ios": "https://dc.lft.to/lastmile_qr_scan", "android": "https://dc.lft.to/lastmile_qr_scan"}, "is_disabled": 0, "lon": -77.03831733333334, "name": "77ecc06a3a4fac71e216900e1c3a4af0", "fusion_lon": 0.0}, {"lat": 38.91988933333333, "fusion_lat": 0.0, "type": "electric_scooter", "bike_id": "350fe243648d5022b2cfb6cda9e223ee", "is_reserved": 0, "rental_uris": {"ios": "https://dc.lft.to/lastmile_qr_scan", "android": "https://dc.lft.to/lastmile_qr_scan"}, "is_disabled": 0, "lon": -77.02369116666667, "name": "350fe243648d5022b2cfb6cda9e223ee", "fusion_lon": 0.0}, {"lat": 38.926031333333334, "fusion_lat": 0.0, "type": "electric_bike", "bike_id": "4019d38947be221ca4888a4a06a65efc", "is_reserved": 0, "rental_uris": {"ios": "https://dc.lft.to/lastmile_qr_scan", "android": "https://dc.lft.to/lastmile_qr_scan"}, "is_disabled": 0, "lon": -77.0528655, "name": "4019d38947be221ca4888a4a06a65efc", "fusion_lon": 0.0}, {"lat": 38.903646333333334, "fusion_lat": 0.0, "type": "electric_scooter", "bike_id": "42248b88d6c705fece39c9b2ba11f7b9", "is_reserved": 0, "rental_uris": {"ios": "https://dc.lft.to/lastmile_qr_scan", "android": "https://dc.lft.to/lastmile_qr_scan"}, "is_disabled": 0, "lon": -77.04298833333333, "name": "42248b88d6c705fece39c9b2ba11f7b9", "fusion_lon": 0.0}, {"lat": 38.911214333333334, "fusion_lat": 0.0, "type": "electric_scooter", "bike_id": "1b3b5d6c8b1c442a7daafb3d03ae727c", "is_reserved": 0, "rental_uris": {"ios": "https://dc.lft.to/lastmile_qr_scan", "android": "https://dc.lft.to/lastmile_qr_scan"}, "is_disabled": 0, "lon": -77.033132, "name": "1b3b5d6c8b1c442a7daafb3d03ae727c", "fusion_lon": 0.0}, {"lat": 38.9147785, "fusion_lat": 0.0, "type": "electric_scooter", "bike_id": "b0b71becad0ca9a7827344647cb9c6d1", "is_reserved": 0, "rental_uris": {"ios": "https://dc.lft.to/lastmile_qr_scan", "android": "https://dc.lft.to/lastmile_qr_scan"}, "is_disabled": 0, "lon": -77.04532383333333, "name": "b0b71becad0ca9a7827344647cb9c6d1", "fusion_lon": 0.0}, {"lat": 38.90737633333333, "fusion_lat": 0.0, "type": "electric_scooter", "bike_id": "50a6d29191b559f5eefb9f98f01c3697", "is_reserved": 0, "rental_uris": {"ios": "https://dc.lft.to/lastmile_qr_scan", "android": "https://dc.lft.to/lastmile_qr_scan"}, "is_disabled": 0, "lon": -77.02806833333334, "name": "50a6d29191b559f5eefb9f98f01c3697", "fusion_lon": 0.0}, {"lat": 38.865179833333336, "fusion_lat": 0.0, "type": "electric_bike", "bike_id": "1a7ae43a601c01d5bc3430f4c55d1638", "is_reserved": 0, "rental_uris": {"ios": "https://dc.lft.to/lastmile_qr_scan", "android": "https://dc.lft.to/lastmile_qr_scan"}, "is_disabled": 0, "lon": -76.9733145, "name": "1a7ae43a601c01d5bc3430f4c55d1638", "fusion_lon": 0.0}, {"lat": 38.901804166666665, "fusion_lat": 0.0, "type": "electric_scooter", "bike_id": "24737281d87e36b7173cf7abfd7435df", "is_reserved": 0, "rental_uris": {"ios": "https://dc.lft.to/lastmile_qr_scan", "android": "https://dc.lft.to/lastmile_qr_scan"}, "is_disabled": 0, "lon": -76.98306133333334, "name": "24737281d87e36b7173cf7abfd7435df", "fusion_lon": 0.0}, {"lat": 38.91969316666667, "fusion_lat": 0.0, "type": "electric_scooter", "bike_id": "d487cebae5b85bb771bf63a5b9421b0e", "is_reserved": 0, "rental_uris": {"ios": "https://dc.lft.to/lastmile_qr_scan", "android": "https://dc.lft.to/lastmile_qr_scan"}, "is_disabled": 0, "lon": -77.02509583333334, "name": "d487cebae5b85bb771bf63a5b9421b0e", "fusion_lon": 0.0}, {"lat": 38.90080616666667, "fusion_lat": 0.0, "type": "electric_scooter", "bike_id": "a30926c0c4e1eaf5b40bc0b48e02fe09", "is_reserved": 0, "rental_uris": {"ios": "https://dc.lft.to/lastmile_qr_scan", "android": "https://dc.lft.to/lastmile_qr_scan"}, "is_disabled": 0, "lon": -77.049861, "name": "a30926c0c4e1eaf5b40bc0b48e02fe09", "fusion_lon": 0.0}, {"lat": 38.91916833333333, "fusion_lat": 0.0, "type": "electric_scooter", "bike_id": "ac59741a8800ba2172185a08c6cde339", "is_reserved": 0, "rental_uris": {"ios": "https://dc.lft.to/lastmile_qr_scan", "android": "https://dc.lft.to/lastmile_qr_scan"}, "is_disabled": 0, "lon": -77.03388866666667, "name": "ac59741a8800ba2172185a08c6cde339", "fusion_lon": 0.0}, {"lat": 38.92328533333333, "fusion_lat": 0.0, "type": "electric_scooter", "bike_id": "2a0b5663ccd5e3a7bb9bfe4d165efe77", "is_reserved": 0, "rental_uris": {"ios": "https://dc.lft.to/lastmile_qr_scan", "android": "https://dc.lft.to/lastmile_qr_scan"}, "is_disabled": 0, "lon": -77.02126683333333, "name": "2a0b5663ccd5e3a7bb9bfe4d165efe77", "fusion_lon": 0.0}, {"lat": 38.906386, "fusion_lat": 0.0, "type": "electric_scooter", "bike_id": "ad8afcc95acbdcbba8756d18351faf9f", "is_reserved": 0, "rental_uris": {"ios": "https://dc.lft.to/lastmile_qr_scan", "android": "https://dc.lft.to/lastmile_qr_scan"}, "is_disabled": 0, "lon": -77.03842466666667, "name": "ad8afcc95acbdcbba8756d18351faf9f", "fusion_lon": 0.0}, {"lat": 38.90408983333333, "fusion_lat": 0.0, "type": "electric_scooter", "bike_id": "ab5631ef195c1f62b90d0d18f3f087b5", "is_reserved": 0, "rental_uris": {"ios": "https://dc.lft.to/lastmile_qr_scan", "android": "https://dc.lft.to/lastmile_qr_scan"}, "is_disabled": 0, "lon": -76.9732965, "name": "ab5631ef195c1f62b90d0d18f3f087b5", "fusion_lon": 0.0}, {"lat": 38.91304233333334, "fusion_lat": 0.0, "type": "electric_scooter", "bike_id": "d26c57721a6c27807c95c141e4389501", "is_reserved": 0, "rental_uris": {"ios": "https://dc.lft.to/lastmile_qr_scan", "android": "https://dc.lft.to/lastmile_qr_scan"}, "is_disabled": 0, "lon": -77.06684216666666, "name": "d26c57721a6c27807c95c141e4389501", "fusion_lon": 0.0}, {"lat": 38.921742333333334, "fusion_lat": 0.0, "type": "electric_scooter", "bike_id": "30fc609d72738f8509e03e6ff5649cc1", "is_reserved": 0, "rental_uris": {"ios": "https://dc.lft.to/lastmile_qr_scan", "android": "https://dc.lft.to/lastmile_qr_scan"}, "is_disabled": 0, "lon": -77.019151, "name": "30fc609d72738f8509e03e6ff5649cc1", "fusion_lon": 0.0}, {"lat": 38.95735483333333, "fusion_lat": 0.0, "type": "electric_scooter", "bike_id": "b9cf21bfd2b1ad5cc84f207cfa95a06b", "is_reserved": 0, "rental_uris": {"ios": "https://dc.lft.to/lastmile_qr_scan", "android": "https://dc.lft.to/lastmile_qr_scan"}, "is_disabled": 0, "lon": -77.02402183333334, "name": "b9cf21bfd2b1ad5cc84f207cfa95a06b", "fusion_lon": 0.0}, {"lat": 38.951569, "fusion_lat": 0.0, "type": "electric_scooter", "bike_id": "4871bca8bd201bdf81a7d1ad0d896bef", "is_reserved": 0, "rental_uris": {"ios": "https://dc.lft.to/lastmile_qr_scan", "android": "https://dc.lft.to/lastmile_qr_scan"}, "is_disabled": 0, "lon": -77.01871, "name": "4871bca8bd201bdf81a7d1ad0d896bef", "fusion_lon": 0.0}, {"lat": 38.91704383333333, "fusion_lat": 0.0, "type": "electric_scooter", "bike_id": "31ec46e518a1d8688bc4b66f9c4ad269", "is_reserved": 0, "rental_uris": {"ios": "https://dc.lft.to/lastmile_qr_scan", "android": "https://dc.lft.to/lastmile_qr_scan"}, "is_disabled": 0, "lon": -77.0958005, "name": "31ec46e518a1d8688bc4b66f9c4ad269", "fusion_lon": 0.0}, {"lat": 38.893573, "fusion_lat": 0.0, "type": "electric_scooter", "bike_id": "dd8e4adca4b6522d092e961670defc31", "is_reserved": 0, "rental_uris": {"ios": "https://dc.lft.to/lastmile_qr_scan", "android": "https://dc.lft.to/lastmile_qr_scan"}, "is_disabled": 0, "lon": -77.020047, "name": "dd8e4adca4b6522d092e961670defc31", "fusion_lon": 0.0}, {"lat": 38.9086305, "fusion_lat": 0.0, "type": "electric_scooter", "bike_id": "2f9b373a045e232bd2af536fb7adb718", "is_reserved": 0, "rental_uris": {"ios": "https://dc.lft.to/lastmile_qr_scan", "android": "https://dc.lft.to/lastmile_qr_scan"}, "is_disabled": 0, "lon": -77.02351366666667, "name": "2f9b373a045e232bd2af536fb7adb718", "fusion_lon": 0.0}, {"lat": 38.90976916666666, "fusion_lat": 0.0, "type": "electric_bike", "bike_id": "8b73e2941ad316a6ffbca9100fd9dee1", "is_reserved": 0, "rental_uris": {"ios": "https://dc.lft.to/lastmile_qr_scan", "android": "https://dc.lft.to/lastmile_qr_scan"}, "is_disabled": 0, "lon": -77.04607, "name": "8b73e2941ad316a6ffbca9100fd9dee1", "fusion_lon": 0.0}, {"lat": 38.89827966666667, "fusion_lat": 0.0, "type": "electric_scooter", "bike_id": "4523b33e403e40b84b1ebb6e1ed2a05c", "is_reserved": 0, "rental_uris": {"ios": "https://dc.lft.to/lastmile_qr_scan", "android": "https://dc.lft.to/lastmile_qr_scan"}, "is_disabled": 0, "lon": -77.0257825, "name": "4523b33e403e40b84b1ebb6e1ed2a05c", "fusion_lon": 0.0}, {"lat": 38.91790616666667, "fusion_lat": 0.0, "type": "electric_scooter", "bike_id": "91e167dc97d75c44506acb08f03a082a", "is_reserved": 0, "rental_uris": {"ios": "https://dc.lft.to/lastmile_qr_scan", "android": "https://dc.lft.to/lastmile_qr_scan"}, "is_disabled": 0, "lon": -77.04215066666667, "name": "91e167dc97d75c44506acb08f03a082a", "fusion_lon": 0.0}, {"lat": 38.900305333333336, "fusion_lat": 0.0, "type": "electric_scooter", "bike_id": "dfdf4da7268700371da4c4f4f4fd2d76", "is_reserved": 0, "rental_uris": {"ios": "https://dc.lft.to/lastmile_qr_scan", "android": "https://dc.lft.to/lastmile_qr_scan"}, "is_disabled": 0, "lon": -76.99557916666667, "name": "dfdf4da7268700371da4c4f4f4fd2d76", "fusion_lon": 0.0}, {"lat": 38.90430383333333, "fusion_lat": 0.0, "type": "electric_scooter", "bike_id": "abc77fc47599ddf4bd154c40ec0536b7", "is_reserved": 0, "rental_uris": {"ios": "https://dc.lft.to/lastmile_qr_scan", "android": "https://dc.lft.to/lastmile_qr_scan"}, "is_disabled": 0, "lon": -77.0501955, "name": "abc77fc47599ddf4bd154c40ec0536b7", "fusion_lon": 0.0}, {"lat": 38.866908333333335, "fusion_lat": 0.0, "type": "electric_scooter", "bike_id": "7de647481dd8d760dbaa8a60512868b1", "is_reserved": 0, "rental_uris": {"ios": "https://dc.lft.to/lastmile_qr_scan", "android": "https://dc.lft.to/lastmile_qr_scan"}, "is_disabled": 0, "lon": -76.98567233333333, "name": "7de647481dd8d760dbaa8a60512868b1", "fusion_lon": 0.0}, {"lat": 38.90526966666667, "fusion_lat": 0.0, "type": "electric_scooter", "bike_id": "9213bd8b22c9c14f7aa97f65dbe25302", "is_reserved": 0, "rental_uris": {"ios": "https://dc.lft.to/lastmile_qr_scan", "android": "https://dc.lft.to/lastmile_qr_scan"}, "is_disabled": 0, "lon": -77.06524316666666, "name": "9213bd8b22c9c14f7aa97f65dbe25302", "fusion_lon": 0.0}, {"lat": 38.8950465, "fusion_lat": 0.0, "type": "electric_scooter", "bike_id": "bb563bb2977104058358ad8003bed17d", "is_reserved": 0, "rental_uris": {"ios": "https://dc.lft.to/lastmile_qr_scan", "android": "https://dc.lft.to/lastmile_qr_scan"}, "is_disabled": 0, "lon": -76.93475916666667, "name": "bb563bb2977104058358ad8003bed17d", "fusion_lon": 0.0}, {"lat": 38.90579566666667, "fusion_lat": 0.0, "type": "electric_scooter", "bike_id": "c6332f83f38952a6cd220909bda7c5a7", "is_reserved": 0, "rental_uris": {"ios": "https://dc.lft.to/lastmile_qr_scan", "android": "https://dc.lft.to/lastmile_qr_scan"}, "is_disabled": 0, "lon": -77.03439416666667, "name": "c6332f83f38952a6cd220909bda7c5a7", "fusion_lon": 0.0}, {"lat": 38.919141833333335, "fusion_lat": 0.0, "type": "electric_bike", "bike_id": "157ac00913354964617ff4a6aae14ef5", "is_reserved": 0, "rental_uris": {"ios": "https://dc.lft.to/lastmile_qr_scan", "android": "https://dc.lft.to/lastmile_qr_scan"}, "is_disabled": 0, "lon": -77.02005216666667, "name": "157ac00913354964617ff4a6aae14ef5", "fusion_lon": 0.0}, {"lat": 38.90243483333333, "fusion_lat": 0.0, "type": "electric_scooter", "bike_id": "16a519412ca1579f031751df5f093f67", "is_reserved": 0, "rental_uris": {"ios": "https://dc.lft.to/lastmile_qr_scan", "android": "https://dc.lft.to/lastmile_qr_scan"}, "is_disabled": 0, "lon": -77.04325733333333, "name": "16a519412ca1579f031751df5f093f67", "fusion_lon": 0.0}, {"lat": 38.988497333333335, "fusion_lat": 0.0, "type": "electric_bike", "bike_id": "a8311247330511212cfdfc31048985cc", "is_reserved": 0, "rental_uris": {"ios": "https://dc.lft.to/lastmile_qr_scan", "android": "https://dc.lft.to/lastmile_qr_scan"}, "is_disabled": 0, "lon": -77.09562816666667, "name": "a8311247330511212cfdfc31048985cc", "fusion_lon": 0.0}, {"lat": 38.922349833333335, "fusion_lat": 0.0, "type": "electric_scooter", "bike_id": "55c846cb2ada10e87ee3c7689bdc0356", "is_reserved": 0, "rental_uris": {"ios": "https://dc.lft.to/lastmile_qr_scan", "android": "https://dc.lft.to/lastmile_qr_scan"}, "is_disabled": 0, "lon": -77.0335455, "name": "55c846cb2ada10e87ee3c7689bdc0356", "fusion_lon": 0.0}, {"lat": 38.92623016666667, "fusion_lat": 0.0, "type": "electric_scooter", "bike_id": "9d89bf506c97120e691ade85eaa24ad5", "is_reserved": 0, "rental_uris": {"ios": "https://dc.lft.to/lastmile_qr_scan", "android": "https://dc.lft.to/lastmile_qr_scan"}, "is_disabled": 0, "lon": -77.0432195, "name": "9d89bf506c97120e691ade85eaa24ad5", "fusion_lon": 0.0}, {"lat": 38.88217516666667, "fusion_lat": 0.0, "type": "electric_bike", "bike_id": "f8f36b6f23800c3801e5d7dc2293ba0a", "is_reserved": 0, "rental_uris": {"ios": "https://dc.lft.to/lastmile_qr_scan", "android": "https://dc.lft.to/lastmile_qr_scan"}, "is_disabled": 0, "lon": -77.11733866666667, "name": "f8f36b6f23800c3801e5d7dc2293ba0a", "fusion_lon": 0.0}, {"lat": 38.91563766666667, "fusion_lat": 0.0, "type": "electric_scooter", "bike_id": "dedf1f6445f5e603cf5ea42ed8cb9721", "is_reserved": 0, "rental_uris": {"ios": "https://dc.lft.to/lastmile_qr_scan", "android": "https://dc.lft.to/lastmile_qr_scan"}, "is_disabled": 0, "lon": -77.039532, "name": "dedf1f6445f5e603cf5ea42ed8cb9721", "fusion_lon": 0.0}, {"lat": 38.88498666666667, "fusion_lat": 0.0, "type": "electric_scooter", "bike_id": "d04ce48d60dbffabd79a3c59d97ebbc7", "is_reserved": 0, "rental_uris": {"ios": "https://dc.lft.to/lastmile_qr_scan", "android": "https://dc.lft.to/lastmile_qr_scan"}, "is_disabled": 0, "lon": -77.01516, "name": "d04ce48d60dbffabd79a3c59d97ebbc7", "fusion_lon": 0.0}, {"lat": 38.90835083333333, "fusion_lat": 0.0, "type": "electric_scooter", "bike_id": "da385148a4f6e71ed26fbb30aaab9e16", "is_reserved": 0, "rental_uris": {"ios": "https://dc.lft.to/lastmile_qr_scan", "android": "https://dc.lft.to/lastmile_qr_scan"}, "is_disabled": 0, "lon": -77.00921466666667, "name": "da385148a4f6e71ed26fbb30aaab9e16", "fusion_lon": 0.0}, {"lat": 38.90214666666667, "fusion_lat": 0.0, "type": "electric_scooter", "bike_id": "380688b0a622de2f93bd797484bdc2a0", "is_reserved": 0, "rental_uris": {"ios": "https://dc.lft.to/lastmile_qr_scan", "android": "https://dc.lft.to/lastmile_qr_scan"}, "is_disabled": 0, "lon": -77.02437116666667, "name": "380688b0a622de2f93bd797484bdc2a0", "fusion_lon": 0.0}, {"lat": 38.90651416666667, "fusion_lat": 0.0, "type": "electric_scooter", "bike_id": "3be332b29e0a7d53116c747851f7406e", "is_reserved": 0, "rental_uris": {"ios": "https://dc.lft.to/lastmile_qr_scan", "android": "https://dc.lft.to/lastmile_qr_scan"}, "is_disabled": 0, "lon": -77.0513145, "name": "3be332b29e0a7d53116c747851f7406e", "fusion_lon": 0.0}, {"lat": 38.874696666666665, "fusion_lat": 0.0, "type": "electric_scooter", "bike_id": "4408e97c298c1650ed3eb3fdba18fcf5", "is_reserved": 0, "rental_uris": {"ios": "https://dc.lft.to/lastmile_qr_scan", "android": "https://dc.lft.to/lastmile_qr_scan"}, "is_disabled": 0, "lon": -77.01896216666667, "name": "4408e97c298c1650ed3eb3fdba18fcf5", "fusion_lon": 0.0}, {"lat": 38.9207325, "fusion_lat": 0.0, "type": "electric_scooter", "bike_id": "30f1e06c5da2cec4aed0c4f0529a7213", "is_reserved": 0, "rental_uris": {"ios": "https://dc.lft.to/lastmile_qr_scan", "android": "https://dc.lft.to/lastmile_qr_scan"}, "is_disabled": 0, "lon": -77.02209716666667, "name": "30f1e06c5da2cec4aed0c4f0529a7213", "fusion_lon": 0.0}, {"lat": 38.91707366666667, "fusion_lat": 0.0, "type": "electric_scooter", "bike_id": "d6432e65f93284785528ecd1d30117ed", "is_reserved": 0, "rental_uris": {"ios": "https://dc.lft.to/lastmile_qr_scan", "android": "https://dc.lft.to/lastmile_qr_scan"}, "is_disabled": 0, "lon": -77.02889683333333, "name": "d6432e65f93284785528ecd1d30117ed", "fusion_lon": 0.0}, {"lat": 38.89821116666667, "fusion_lat": 0.0, "type": "electric_scooter", "bike_id": "c4ce2fc3bdc0d28927e91d885db82132", "is_reserved": 0, "rental_uris": {"ios": "https://dc.lft.to/lastmile_qr_scan", "android": "https://dc.lft.to/lastmile_qr_scan"}, "is_disabled": 0, "lon": -77.03333233333333, "name": "c4ce2fc3bdc0d28927e91d885db82132", "fusion_lon": 0.0}, {"lat": 38.92015933333333, "fusion_lat": 0.0, "type": "electric_scooter", "bike_id": "4d1fe029e06e4730610a3330322e7c80", "is_reserved": 0, "rental_uris": {"ios": "https://dc.lft.to/lastmile_qr_scan", "android": "https://dc.lft.to/lastmile_qr_scan"}, "is_disabled": 0, "lon": -77.02043016666667, "name": "4d1fe029e06e4730610a3330322e7c80", "fusion_lon": 0.0}, {"lat": 38.91068716666667, "fusion_lat": 0.0, "type": "electric_scooter", "bike_id": "99303b0cbea558473494b5bb6ce3a555", "is_reserved": 0, "rental_uris": {"ios": "https://dc.lft.to/lastmile_qr_scan", "android": "https://dc.lft.to/lastmile_qr_scan"}, "is_disabled": 0, "lon": -77.037255, "name": "99303b0cbea558473494b5bb6ce3a555", "fusion_lon": 0.0}, {"lat": 38.86712516666667, "fusion_lat": 0.0, "type": "electric_scooter", "bike_id": "7432951c4304cbf783a4e9f97628e371", "is_reserved": 0, "rental_uris": {"ios": "https://dc.lft.to/lastmile_qr_scan", "android": "https://dc.lft.to/lastmile_qr_scan"}, "is_disabled": 0, "lon": -76.98724716666666, "name": "7432951c4304cbf783a4e9f97628e371", "fusion_lon": 0.0}, {"lat": 38.930685833333335, "fusion_lat": 0.0, "type": "electric_scooter", "bike_id": "8df9a97da1859f0c05ba289f366bf25f", "is_reserved": 0, "rental_uris": {"ios": "https://dc.lft.to/lastmile_qr_scan", "android": "https://dc.lft.to/lastmile_qr_scan"}, "is_disabled": 0, "lon": -77.02160783333333, "name": "8df9a97da1859f0c05ba289f366bf25f", "fusion_lon": 0.0}, {"lat": 38.902219833333334, "fusion_lat": 0.0, "type": "electric_scooter", "bike_id": "749fe2598dddec16ffb181b14393b7a4", "is_reserved": 0, "rental_uris": {"ios": "https://dc.lft.to/lastmile_qr_scan", "android": "https://dc.lft.to/lastmile_qr_scan"}, "is_disabled": 0, "lon": -77.033282, "name": "749fe2598dddec16ffb181b14393b7a4", "fusion_lon": 0.0}, {"lat": 38.95683916666667, "fusion_lat": 0.0, "type": "electric_scooter", "bike_id": "f574e0cbb43ec6c06c1feb12b308719c", "is_reserved": 0, "rental_uris": {"ios": "https://dc.lft.to/lastmile_qr_scan", "android": "https://dc.lft.to/lastmile_qr_scan"}, "is_disabled": 0, "lon": -77.02400716666666, "name": "f574e0cbb43ec6c06c1feb12b308719c", "fusion_lon": 0.0}, {"lat": 38.90248616666667, "fusion_lat": 0.0, "type": "electric_scooter", "bike_id": "66225ece7641c251fe379096a5b1c414", "is_reserved": 0, "rental_uris": {"ios": "https://dc.lft.to/lastmile_qr_scan", "android": "https://dc.lft.to/lastmile_qr_scan"}, "is_disabled": 0, "lon": -77.02820866666667, "name": "66225ece7641c251fe379096a5b1c414", "fusion_lon": 0.0}, {"lat": 38.9038015, "fusion_lat": 0.0, "type": "electric_scooter", "bike_id": "a136b9ff245a3b6e639d8724fc385e26", "is_reserved": 0, "rental_uris": {"ios": "https://dc.lft.to/lastmile_qr_scan", "android": "https://dc.lft.to/lastmile_qr_scan"}, "is_disabled": 0, "lon": -77.0448525, "name": "a136b9ff245a3b6e639d8724fc385e26", "fusion_lon": 0.0}, {"lat": 38.909495666666665, "fusion_lat": 0.0, "type": "electric_scooter", "bike_id": "b536ebc514ac1aa5c61cb925b4d4a932", "is_reserved": 0, "rental_uris": {"ios": "https://dc.lft.to/lastmile_qr_scan", "android": "https://dc.lft.to/lastmile_qr_scan"}, "is_disabled": 0, "lon": -77.03194183333333, "name": "b536ebc514ac1aa5c61cb925b4d4a932", "fusion_lon": 0.0}, {"lat": 38.90000533333333, "fusion_lat": 0.0, "type": "electric_scooter", "bike_id": "c58839a66ccb9ff03a4557e28455b80e", "is_reserved": 0, "rental_uris": {"ios": "https://dc.lft.to/lastmile_qr_scan", "android": "https://dc.lft.to/lastmile_qr_scan"}, "is_disabled": 0, "lon": -77.0239215, "name": "c58839a66ccb9ff03a4557e28455b80e", "fusion_lon": 0.0}, {"lat": 38.9338545, "fusion_lat": 0.0, "type": "electric_scooter", "bike_id": "8f972af11a9e7656dfb74745b56daeda", "is_reserved": 0, "rental_uris": {"ios": "https://dc.lft.to/lastmile_qr_scan", "android": "https://dc.lft.to/lastmile_qr_scan"}, "is_disabled": 0, "lon": -77.03096216666667, "name": "8f972af11a9e7656dfb74745b56daeda", "fusion_lon": 0.0}, {"lat": 38.905875333333334, "fusion_lat": 0.0, "type": "electric_scooter", "bike_id": "598d49788be7e8579c73b3af30ed9955", "is_reserved": 0, "rental_uris": {"ios": "https://dc.lft.to/lastmile_qr_scan", "android": "https://dc.lft.to/lastmile_qr_scan"}, "is_disabled": 0, "lon": -77.05138466666666, "name": "598d49788be7e8579c73b3af30ed9955", "fusion_lon": 0.0}, {"lat": 38.89675166666667, "fusion_lat": 0.0, "type": "electric_scooter", "bike_id": "e88588ff0ded0053161a9ea53a400425", "is_reserved": 0, "rental_uris": {"ios": "https://dc.lft.to/lastmile_qr_scan", "android": "https://dc.lft.to/lastmile_qr_scan"}, "is_disabled": 0, "lon": -77.03217366666667, "name": "e88588ff0ded0053161a9ea53a400425", "fusion_lon": 0.0}, {"lat": 38.90368083333333, "fusion_lat": 0.0, "type": "electric_scooter", "bike_id": "2dfaa3eb6ec8941d81728747efe76477", "is_reserved": 0, "rental_uris": {"ios": "https://dc.lft.to/lastmile_qr_scan", "android": "https://dc.lft.to/lastmile_qr_scan"}, "is_disabled": 0, "lon": -77.04495983333334, "name": "2dfaa3eb6ec8941d81728747efe76477", "fusion_lon": 0.0}, {"lat": 38.907795, "fusion_lat": 0.0, "type": "electric_scooter", "bike_id": "7563daec8940244e0cf30a32eef0ae84", "is_reserved": 0, "rental_uris": {"ios": "https://dc.lft.to/lastmile_qr_scan", "android": "https://dc.lft.to/lastmile_qr_scan"}, "is_disabled": 0, "lon": -77.034624, "name": "7563daec8940244e0cf30a32eef0ae84", "fusion_lon": 0.0}, {"lat": 38.893580666666665, "fusion_lat": 0.0, "type": "electric_scooter", "bike_id": "ed721a3a4423ca5b7a535ee2d1892d8e", "is_reserved": 0, "rental_uris": {"ios": "https://dc.lft.to/lastmile_qr_scan", "android": "https://dc.lft.to/lastmile_qr_scan"}, "is_disabled": 0, "lon": -77.003337, "name": "ed721a3a4423ca5b7a535ee2d1892d8e", "fusion_lon": 0.0}, {"lat": 38.8984015, "fusion_lat": 0.0, "type": "electric_scooter", "bike_id": "fac193bdac6eaea5c8a7c22b9f429623", "is_reserved": 0, "rental_uris": {"ios": "https://dc.lft.to/lastmile_qr_scan", "android": "https://dc.lft.to/lastmile_qr_scan"}, "is_disabled": 0, "lon": -77.03335516666667, "name": "fac193bdac6eaea5c8a7c22b9f429623", "fusion_lon": 0.0}, {"lat": 38.93362533333333, "fusion_lat": 0.0, "type": "electric_scooter", "bike_id": "b203432940c730f5bee039dcfc17e771", "is_reserved": 0, "rental_uris": {"ios": "https://dc.lft.to/lastmile_qr_scan", "android": "https://dc.lft.to/lastmile_qr_scan"}, "is_disabled": 0, "lon": -77.08857533333334, "name": "b203432940c730f5bee039dcfc17e771", "fusion_lon": 0.0}, {"lat": 38.8042635, "fusion_lat": 0.0, "type": "electric_bike", "bike_id": "0170cbd0049f7c85e172550669b2a335", "is_reserved": 0, "rental_uris": {"ios": "https://dc.lft.to/lastmile_qr_scan", "android": "https://dc.lft.to/lastmile_qr_scan"}, "is_disabled": 0, "lon": -77.05569483333333, "name": "0170cbd0049f7c85e172550669b2a335", "fusion_lon": 0.0}, {"lat": 38.87730116666667, "fusion_lat": 0.0, "type": "electric_bike", "bike_id": "da05acfd89feaa77a5a7f8d2451d665e", "is_reserved": 0, "rental_uris": {"ios": "https://dc.lft.to/lastmile_qr_scan", "android": "https://dc.lft.to/lastmile_qr_scan"}, "is_disabled": 0, "lon": -77.11848683333334, "name": "da05acfd89feaa77a5a7f8d2451d665e", "fusion_lon": 0.0}, {"lat": 38.9095955, "fusion_lat": 0.0, "type": "electric_scooter", "bike_id": "408eb41f1a9e8ad9946511ea0856e61d", "is_reserved": 0, "rental_uris": {"ios": "https://dc.lft.to/lastmile_qr_scan", "android": "https://dc.lft.to/lastmile_qr_scan"}, "is_disabled": 0, "lon": -77.0268985, "name": "408eb41f1a9e8ad9946511ea0856e61d", "fusion_lon": 0.0}, {"lat": 38.936388, "fusion_lat": 0.0, "type": "electric_scooter", "bike_id": "b7934a5f936e58027b1b530353100ff4", "is_reserved": 0, "rental_uris": {"ios": "https://dc.lft.to/lastmile_qr_scan", "android": "https://dc.lft.to/lastmile_qr_scan"}, "is_disabled": 0, "lon": -77.05883433333334, "name": "b7934a5f936e58027b1b530353100ff4", "fusion_lon": 0.0}, {"lat": 38.916592333333334, "fusion_lat": 0.0, "type": "electric_scooter", "bike_id": "5e3cee15409a07ce465fbdc2dc612f26", "is_reserved": 0, "rental_uris": {"ios": "https://dc.lft.to/lastmile_qr_scan", "android": "https://dc.lft.to/lastmile_qr_scan"}, "is_disabled": 0, "lon": -77.02961566666667, "name": "5e3cee15409a07ce465fbdc2dc612f26", "fusion_lon": 0.0}, {"lat": 38.8956265, "fusion_lat": 0.0, "type": "electric_scooter", "bike_id": "ac06d823f3575a84bc0ddff323576cea", "is_reserved": 0, "rental_uris": {"ios": "https://dc.lft.to/lastmile_qr_scan", "android": "https://dc.lft.to/lastmile_qr_scan"}, "is_disabled": 0, "lon": -77.01108433333333, "name": "ac06d823f3575a84bc0ddff323576cea", "fusion_lon": 0.0}, {"lat": 38.904272, "fusion_lat": 0.0, "type": "electric_scooter", "bike_id": "9d5e446ee331651ce7d3a8ecedb9fe3d", "is_reserved": 0, "rental_uris": {"ios": "https://dc.lft.to/lastmile_qr_scan", "android": "https://dc.lft.to/lastmile_qr_scan"}, "is_disabled": 0, "lon": -77.050109, "name": "9d5e446ee331651ce7d3a8ecedb9fe3d", "fusion_lon": 0.0}, {"lat": 38.862452833333336, "fusion_lat": 0.0, "type": "electric_scooter", "bike_id": "7026f63c520fe744f0a9c51a9fb05ffe", "is_reserved": 0, "rental_uris": {"ios": "https://dc.lft.to/lastmile_qr_scan", "android": "https://dc.lft.to/lastmile_qr_scan"}, "is_disabled": 0, "lon": -76.99498233333334, "name": "7026f63c520fe744f0a9c51a9fb05ffe", "fusion_lon": 0.0}, {"lat": 38.87662533333334, "fusion_lat": 0.0, "type": "electric_scooter", "bike_id": "d8d4755c0eca1a4ab17c17465c3cb622", "is_reserved": 0, "rental_uris": {"ios": "https://dc.lft.to/lastmile_qr_scan", "android": "https://dc.lft.to/lastmile_qr_scan"}, "is_disabled": 0, "lon": -77.01827466666667, "name": "d8d4755c0eca1a4ab17c17465c3cb622", "fusion_lon": 0.0}, {"lat": 38.92016, "fusion_lat": 0.0, "type": "electric_scooter", "bike_id": "1e0abc3b939a2fc4e07e0c813b3011fe", "is_reserved": 0, "rental_uris": {"ios": "https://dc.lft.to/lastmile_qr_scan", "android": "https://dc.lft.to/lastmile_qr_scan"}, "is_disabled": 0, "lon": -77.03875483333333, "name": "1e0abc3b939a2fc4e07e0c813b3011fe", "fusion_lon": 0.0}, {"lat": 38.9055145, "fusion_lat": 0.0, "type": "electric_scooter", "bike_id": "9a88836291826cd8e38ee44f2187d686", "is_reserved": 0, "rental_uris": {"ios": "https://dc.lft.to/lastmile_qr_scan", "android": "https://dc.lft.to/lastmile_qr_scan"}, "is_disabled": 0, "lon": -76.99621066666667, "name": "9a88836291826cd8e38ee44f2187d686", "fusion_lon": 0.0}, {"lat": 38.9491945, "fusion_lat": 0.0, "type": "electric_bike", "bike_id": "e9e73f88b1b7c851d8d6f757efd712b8", "is_reserved": 0, "rental_uris": {"ios": "https://dc.lft.to/lastmile_qr_scan", "android": "https://dc.lft.to/lastmile_qr_scan"}, "is_disabled": 0, "lon": -77.0079915, "name": "e9e73f88b1b7c851d8d6f757efd712b8", "fusion_lon": 0.0}, {"lat": 38.91900116666667, "fusion_lat": 0.0, "type": "electric_scooter", "bike_id": "57afce64d53e5200f1ed52820ad17ac9", "is_reserved": 0, "rental_uris": {"ios": "https://dc.lft.to/lastmile_qr_scan", "android": "https://dc.lft.to/lastmile_qr_scan"}, "is_disabled": 0, "lon": -77.0248005, "name": "57afce64d53e5200f1ed52820ad17ac9", "fusion_lon": 0.0}, {"lat": 38.923603, "fusion_lat": 0.0, "type": "electric_scooter", "bike_id": "2d96832310ce6c3124a5ace260acd57b", "is_reserved": 0, "rental_uris": {"ios": "https://dc.lft.to/lastmile_qr_scan", "android": "https://dc.lft.to/lastmile_qr_scan"}, "is_disabled": 0, "lon": -77.042514, "name": "2d96832310ce6c3124a5ace260acd57b", "fusion_lon": 0.0}, {"lat": 38.904354833333336, "fusion_lat": 0.0, "type": "electric_scooter", "bike_id": "b975349868d3acff63cd269ed086bbc6", "is_reserved": 0, "rental_uris": {"ios": "https://dc.lft.to/lastmile_qr_scan", "android": "https://dc.lft.to/lastmile_qr_scan"}, "is_disabled": 0, "lon": -77.04347416666667, "name": "b975349868d3acff63cd269ed086bbc6", "fusion_lon": 0.0}, {"lat": 38.90502766666667, "fusion_lat": 0.0, "type": "electric_scooter", "bike_id": "cf9b48a1b08f2643133f8fd719ebeed8", "is_reserved": 0, "rental_uris": {"ios": "https://dc.lft.to/lastmile_qr_scan", "android": "https://dc.lft.to/lastmile_qr_scan"}, "is_disabled": 0, "lon": -77.0612475, "name": "cf9b48a1b08f2643133f8fd719ebeed8", "fusion_lon": 0.0}, {"lat": 38.97883216666666, "fusion_lat": 0.0, "type": "electric_bike", "bike_id": "3689e11591ddfcdedbc9b6727efe2e95", "is_reserved": 0, "rental_uris": {"ios": "https://dc.lft.to/lastmile_qr_scan", "android": "https://dc.lft.to/lastmile_qr_scan"}, "is_disabled": 0, "lon": -77.060296, "name": "3689e11591ddfcdedbc9b6727efe2e95", "fusion_lon": 0.0}, {"lat": 38.9148925, "fusion_lat": 0.0, "type": "electric_scooter", "bike_id": "aa10ce6bad869c9133d90f403dfadec4", "is_reserved": 0, "rental_uris": {"ios": "https://dc.lft.to/lastmile_qr_scan", "android": "https://dc.lft.to/lastmile_qr_scan"}, "is_disabled": 0, "lon": -77.01870033333333, "name": "aa10ce6bad869c9133d90f403dfadec4", "fusion_lon": 0.0}, {"lat": 38.91242116666667, "fusion_lat": 0.0, "type": "electric_scooter", "bike_id": "b2f86a44cbe69deacca9099aae350c24", "is_reserved": 0, "rental_uris": {"ios": "https://dc.lft.to/lastmile_qr_scan", "android": "https://dc.lft.to/lastmile_qr_scan"}, "is_disabled": 0, "lon": -77.03408416666667, "name": "b2f86a44cbe69deacca9099aae350c24", "fusion_lon": 0.0}, {"lat": 38.90693433333333, "fusion_lat": 0.0, "type": "electric_scooter", "bike_id": "0de48d11ef5a27cdd92ce1283fad5882", "is_reserved": 0, "rental_uris": {"ios": "https://dc.lft.to/lastmile_qr_scan", "android": "https://dc.lft.to/lastmile_qr_scan"}, "is_disabled": 0, "lon": -77.02600683333333, "name": "0de48d11ef5a27cdd92ce1283fad5882", "fusion_lon": 0.0}, {"lat": 38.90988083333333, "fusion_lat": 0.0, "type": "electric_scooter", "bike_id": "59e0716cbee79190fcb9d42f7692db07", "is_reserved": 0, "rental_uris": {"ios": "https://dc.lft.to/lastmile_qr_scan", "android": "https://dc.lft.to/lastmile_qr_scan"}, "is_disabled": 0, "lon": -77.03434466666667, "name": "59e0716cbee79190fcb9d42f7692db07", "fusion_lon": 0.0}, {"lat": 38.916571, "fusion_lat": 0.0, "type": "electric_scooter", "bike_id": "7f464ee4d4d85a7a52660990d9c32f09", "is_reserved": 0, "rental_uris": {"ios": "https://dc.lft.to/lastmile_qr_scan", "android": "https://dc.lft.to/lastmile_qr_scan"}, "is_disabled": 0, "lon": -77.03441233333334, "name": "7f464ee4d4d85a7a52660990d9c32f09", "fusion_lon": 0.0}, {"lat": 38.918884, "fusion_lat": 0.0, "type": "electric_scooter", "bike_id": "fa844e0b198afca3491ee5344026fe25", "is_reserved": 0, "rental_uris": {"ios": "https://dc.lft.to/lastmile_qr_scan", "android": "https://dc.lft.to/lastmile_qr_scan"}, "is_disabled": 0, "lon": -77.02473966666666, "name": "fa844e0b198afca3491ee5344026fe25", "fusion_lon": 0.0}, {"lat": 38.83173516666667, "fusion_lat": 0.0, "type": "electric_scooter", "bike_id": "6b99e6000b95c03f949ea0971eb3b908", "is_reserved": 0, "rental_uris": {"ios": "https://dc.lft.to/lastmile_qr_scan", "android": "https://dc.lft.to/lastmile_qr_scan"}, "is_disabled": 0, "lon": -77.05130333333334, "name": "6b99e6000b95c03f949ea0971eb3b908", "fusion_lon": 0.0}, {"lat": 38.80125066666667, "fusion_lat": 0.0, "type": "electric_bike", "bike_id": "67ba0a674a2eb5d6248ec2e1c625ea5c", "is_reserved": 0, "rental_uris": {"ios": "https://dc.lft.to/lastmile_qr_scan", "android": "https://dc.lft.to/lastmile_qr_scan"}, "is_disabled": 0, "lon": -77.070513, "name": "67ba0a674a2eb5d6248ec2e1c625ea5c", "fusion_lon": 0.0}, {"lat": 38.93634333333333, "fusion_lat": 0.0, "type": "electric_bike", "bike_id": "2d85c6e9c9311c0cfea2e1c174f5c12b", "is_reserved": 0, "rental_uris": {"ios": "https://dc.lft.to/lastmile_qr_scan", "android": "https://dc.lft.to/lastmile_qr_scan"}, "is_disabled": 0, "lon": -77.09012533333333, "name": "2d85c6e9c9311c0cfea2e1c174f5c12b", "fusion_lon": 0.0}, {"lat": 38.879380166666664, "fusion_lat": 0.0, "type": "electric_scooter", "bike_id": "b65e3876443e8e6e0613541c6d67c411", "is_reserved": 0, "rental_uris": {"ios": "https://dc.lft.to/lastmile_qr_scan", "android": "https://dc.lft.to/lastmile_qr_scan"}, "is_disabled": 0, "lon": -77.0006525, "name": "b65e3876443e8e6e0613541c6d67c411", "fusion_lon": 0.0}, {"lat": 38.899618333333336, "fusion_lat": 0.0, "type": "electric_bike", "bike_id": "d84bec57edcd08f3625a7224e7dcb0ea", "is_reserved": 0, "rental_uris": {"ios": "https://dc.lft.to/lastmile_qr_scan", "android": "https://dc.lft.to/lastmile_qr_scan"}, "is_disabled": 0, "lon": -76.98679433333334, "name": "d84bec57edcd08f3625a7224e7dcb0ea", "fusion_lon": 0.0}, {"lat": 38.90734366666667, "fusion_lat": 0.0, "type": "electric_scooter", "bike_id": "e917fffd96dce1640a3eac35b1899622", "is_reserved": 0, "rental_uris": {"ios": "https://dc.lft.to/lastmile_qr_scan", "android": "https://dc.lft.to/lastmile_qr_scan"}, "is_disabled": 0, "lon": -76.9796745, "name": "e917fffd96dce1640a3eac35b1899622", "fusion_lon": 0.0}, {"lat": 38.8988185, "fusion_lat": 0.0, "type": "electric_scooter", "bike_id": "41ef9ee9facf2ab5a7027e3772d957d0", "is_reserved": 0, "rental_uris": {"ios": "https://dc.lft.to/lastmile_qr_scan", "android": "https://dc.lft.to/lastmile_qr_scan"}, "is_disabled": 0, "lon": -77.03989583333333, "name": "41ef9ee9facf2ab5a7027e3772d957d0", "fusion_lon": 0.0}, {"lat": 38.86387933333334, "fusion_lat": 0.0, "type": "electric_scooter", "bike_id": "ec6698c459821923590fdad804d2ae66", "is_reserved": 0, "rental_uris": {"ios": "https://dc.lft.to/lastmile_qr_scan", "android": "https://dc.lft.to/lastmile_qr_scan"}, "is_disabled": 0, "lon": -76.99042216666666, "name": "ec6698c459821923590fdad804d2ae66", "fusion_lon": 0.0}, {"lat": 38.909612, "fusion_lat": 0.0, "type": "electric_scooter", "bike_id": "8e6a21b66e2fa4be049fe06b6f6aa62d", "is_reserved": 0, "rental_uris": {"ios": "https://dc.lft.to/lastmile_qr_scan", "android": "https://dc.lft.to/lastmile_qr_scan"}, "is_disabled": 0, "lon": -77.02684333333333, "name": "8e6a21b66e2fa4be049fe06b6f6aa62d", "fusion_lon": 0.0}, {"lat": 38.900501166666665, "fusion_lat": 0.0, "type": "electric_scooter", "bike_id": "756ee6d2b815f99c00470aaad062cd10", "is_reserved": 0, "rental_uris": {"ios": "https://dc.lft.to/lastmile_qr_scan", "android": "https://dc.lft.to/lastmile_qr_scan"}, "is_disabled": 0, "lon": -76.91931666666666, "name": "756ee6d2b815f99c00470aaad062cd10", "fusion_lon": 0.0}, {"lat": 38.92870283333333, "fusion_lat": 0.0, "type": "electric_scooter", "bike_id": "39a5267f6ba86ba414f8260a2dfea72b", "is_reserved": 0, "rental_uris": {"ios": "https://dc.lft.to/lastmile_qr_scan", "android": "https://dc.lft.to/lastmile_qr_scan"}, "is_disabled": 0, "lon": -77.03294366666667, "name": "39a5267f6ba86ba414f8260a2dfea72b", "fusion_lon": 0.0}, {"lat": 38.927676, "fusion_lat": 0.0, "type": "electric_bike", "bike_id": "48a9d1817d1952814d556036b8b40efb", "is_reserved": 0, "rental_uris": {"ios": "https://dc.lft.to/lastmile_qr_scan", "android": "https://dc.lft.to/lastmile_qr_scan"}, "is_disabled": 0, "lon": -77.07008133333333, "name": "48a9d1817d1952814d556036b8b40efb", "fusion_lon": 0.0}, {"lat": 38.90558266666667, "fusion_lat": 0.0, "type": "electric_scooter", "bike_id": "c96ee2a3ac6ca693283aa800ce6f17d2", "is_reserved": 0, "rental_uris": {"ios": "https://dc.lft.to/lastmile_qr_scan", "android": "https://dc.lft.to/lastmile_qr_scan"}, "is_disabled": 0, "lon": -77.041999, "name": "c96ee2a3ac6ca693283aa800ce6f17d2", "fusion_lon": 0.0}, {"lat": 38.925067166666665, "fusion_lat": 0.0, "type": "electric_scooter", "bike_id": "e289acccb4fdd24afe941f68d1913c6f", "is_reserved": 0, "rental_uris": {"ios": "https://dc.lft.to/lastmile_qr_scan", "android": "https://dc.lft.to/lastmile_qr_scan"}, "is_disabled": 0, "lon": -77.0235595, "name": "e289acccb4fdd24afe941f68d1913c6f", "fusion_lon": 0.0}, {"lat": 38.916984, "fusion_lat": 0.0, "type": "electric_scooter", "bike_id": "00dc5256f14b1048e55d9272a5d1c7a1", "is_reserved": 0, "rental_uris": {"ios": "https://dc.lft.to/lastmile_qr_scan", "android": "https://dc.lft.to/lastmile_qr_scan"}, "is_disabled": 0, "lon": -77.04263333333333, "name": "00dc5256f14b1048e55d9272a5d1c7a1", "fusion_lon": 0.0}, {"lat": 38.9156215, "fusion_lat": 0.0, "type": "electric_scooter", "bike_id": "3d5fac01166d22a8c53c4bf5ce39c8a9", "is_reserved": 0, "rental_uris": {"ios": "https://dc.lft.to/lastmile_qr_scan", "android": "https://dc.lft.to/lastmile_qr_scan"}, "is_disabled": 0, "lon": -77.03237416666667, "name": "3d5fac01166d22a8c53c4bf5ce39c8a9", "fusion_lon": 0.0}, {"lat": 38.8979005, "fusion_lat": 0.0, "type": "electric_scooter", "bike_id": "b6d3e19f0755484ff18f5dbbc7d3f2a6", "is_reserved": 0, "rental_uris": {"ios": "https://dc.lft.to/lastmile_qr_scan", "android": "https://dc.lft.to/lastmile_qr_scan"}, "is_disabled": 0, "lon": -77.00912283333334, "name": "b6d3e19f0755484ff18f5dbbc7d3f2a6", "fusion_lon": 0.0}, {"lat": 38.91140133333333, "fusion_lat": 0.0, "type": "electric_scooter", "bike_id": "223318c76080572052e32e49274073b0", "is_reserved": 0, "rental_uris": {"ios": "https://dc.lft.to/lastmile_qr_scan", "android": "https://dc.lft.to/lastmile_qr_scan"}, "is_disabled": 0, "lon": -77.03183966666667, "name": "223318c76080572052e32e49274073b0", "fusion_lon": 0.0}, {"lat": 38.91769683333333, "fusion_lat": 0.0, "type": "electric_scooter", "bike_id": "3c6e529950d7439a52fbd42e48d271c6", "is_reserved": 0, "rental_uris": {"ios": "https://dc.lft.to/lastmile_qr_scan", "android": "https://dc.lft.to/lastmile_qr_scan"}, "is_disabled": 0, "lon": -77.04056, "name": "3c6e529950d7439a52fbd42e48d271c6", "fusion_lon": 0.0}, {"lat": 38.92790633333333, "fusion_lat": 0.0, "type": "electric_scooter", "bike_id": "417f066afa1e582113ff1f1df2279985", "is_reserved": 0, "rental_uris": {"ios": "https://dc.lft.to/lastmile_qr_scan", "android": "https://dc.lft.to/lastmile_qr_scan"}, "is_disabled": 0, "lon": -77.02207816666666, "name": "417f066afa1e582113ff1f1df2279985", "fusion_lon": 0.0}, {"lat": 38.91112316666667, "fusion_lat": 0.0, "type": "electric_scooter", "bike_id": "1e6b1fa7a8f92ae80efae427b54980c0", "is_reserved": 0, "rental_uris": {"ios": "https://dc.lft.to/lastmile_qr_scan", "android": "https://dc.lft.to/lastmile_qr_scan"}, "is_disabled": 0, "lon": -77.0391045, "name": "1e6b1fa7a8f92ae80efae427b54980c0", "fusion_lon": 0.0}, {"lat": 38.87888916666667, "fusion_lat": 0.0, "type": "electric_bike", "bike_id": "c471eb42e4fe81fa4aede904a107bcf8", "is_reserved": 0, "rental_uris": {"ios": "https://dc.lft.to/lastmile_qr_scan", "android": "https://dc.lft.to/lastmile_qr_scan"}, "is_disabled": 0, "lon": -77.09613066666667, "name": "c471eb42e4fe81fa4aede904a107bcf8", "fusion_lon": 0.0}, {"lat": 38.891691, "fusion_lat": 0.0, "type": "electric_scooter", "bike_id": "1449435a998232b0b9faddeaae156923", "is_reserved": 0, "rental_uris": {"ios": "https://dc.lft.to/lastmile_qr_scan", "android": "https://dc.lft.to/lastmile_qr_scan"}, "is_disabled": 0, "lon": -77.02012933333333, "name": "1449435a998232b0b9faddeaae156923", "fusion_lon": 0.0}, {"lat": 38.90581566666667, "fusion_lat": 0.0, "type": "electric_scooter", "bike_id": "34174a157f83cc788db975cf3ae7edaa", "is_reserved": 0, "rental_uris": {"ios": "https://dc.lft.to/lastmile_qr_scan", "android": "https://dc.lft.to/lastmile_qr_scan"}, "is_disabled": 0, "lon": -77.0701795, "name": "34174a157f83cc788db975cf3ae7edaa", "fusion_lon": 0.0}, {"lat": 38.92407166666667, "fusion_lat": 0.0, "type": "electric_scooter", "bike_id": "592d5e88e0866ed4cf7378ccb26ef7b7", "is_reserved": 0, "rental_uris": {"ios": "https://dc.lft.to/lastmile_qr_scan", "android": "https://dc.lft.to/lastmile_qr_scan"}, "is_disabled": 0, "lon": -77.0209075, "name": "592d5e88e0866ed4cf7378ccb26ef7b7", "fusion_lon": 0.0}, {"lat": 38.84618183333333, "fusion_lat": 0.0, "type": "electric_scooter", "bike_id": "cf335ffdb47d4a76c83c79f7ae96ca87", "is_reserved": 0, "rental_uris": {"ios": "https://dc.lft.to/lastmile_qr_scan", "android": "https://dc.lft.to/lastmile_qr_scan"}, "is_disabled": 0, "lon": -76.98155583333333, "name": "cf335ffdb47d4a76c83c79f7ae96ca87", "fusion_lon": 0.0}, {"lat": 38.85695916666667, "fusion_lat": 0.0, "type": "electric_scooter", "bike_id": "442b25e7726a2b79ec3313cf99ee7296", "is_reserved": 0, "rental_uris": {"ios": "https://dc.lft.to/lastmile_qr_scan", "android": "https://dc.lft.to/lastmile_qr_scan"}, "is_disabled": 0, "lon": -76.989781, "name": "442b25e7726a2b79ec3313cf99ee7296", "fusion_lon": 0.0}, {"lat": 38.9301145, "fusion_lat": 0.0, "type": "electric_scooter", "bike_id": "ef44c1246318f028e49de482ea4698ca", "is_reserved": 0, "rental_uris": {"ios": "https://dc.lft.to/lastmile_qr_scan", "android": "https://dc.lft.to/lastmile_qr_scan"}, "is_disabled": 0, "lon": -77.014314, "name": "ef44c1246318f028e49de482ea4698ca", "fusion_lon": 0.0}, {"lat": 39.057882, "fusion_lat": 0.0, "type": "electric_bike", "bike_id": "814586500c6ca905d72b253913e67763", "is_reserved": 0, "rental_uris": {"ios": "https://dc.lft.to/lastmile_qr_scan", "android": "https://dc.lft.to/lastmile_qr_scan"}, "is_disabled": 0, "lon": -77.15021683333333, "name": "814586500c6ca905d72b253913e67763", "fusion_lon": 0.0}, {"lat": 38.90060966666667, "fusion_lat": 0.0, "type": "electric_scooter", "bike_id": "8c194bd38c195d849774e28134226f63", "is_reserved": 0, "rental_uris": {"ios": "https://dc.lft.to/lastmile_qr_scan", "android": "https://dc.lft.to/lastmile_qr_scan"}, "is_disabled": 0, "lon": -76.934764, "name": "8c194bd38c195d849774e28134226f63", "fusion_lon": 0.0}, {"lat": 38.922562, "fusion_lat": 0.0, "type": "electric_scooter", "bike_id": "d3e23b1fe26d6908da99fe6ed21e1b17", "is_reserved": 0, "rental_uris": {"ios": "https://dc.lft.to/lastmile_qr_scan", "android": "https://dc.lft.to/lastmile_qr_scan"}, "is_disabled": 0, "lon": -77.019685, "name": "d3e23b1fe26d6908da99fe6ed21e1b17", "fusion_lon": 0.0}, {"lat": 38.911966166666666, "fusion_lat": 0.0, "type": "electric_scooter", "bike_id": "875942ccb26bf5864ca9a7b6f92d5784", "is_reserved": 0, "rental_uris": {"ios": "https://dc.lft.to/lastmile_qr_scan", "android": "https://dc.lft.to/lastmile_qr_scan"}, "is_disabled": 0, "lon": -77.02343683333334, "name": "875942ccb26bf5864ca9a7b6f92d5784", "fusion_lon": 0.0}, {"lat": 38.9183555, "fusion_lat": 0.0, "type": "electric_scooter", "bike_id": "1e78863ba0e2e3807e08cc61656cbb59", "is_reserved": 0, "rental_uris": {"ios": "https://dc.lft.to/lastmile_qr_scan", "android": "https://dc.lft.to/lastmile_qr_scan"}, "is_disabled": 0, "lon": -77.02686166666666, "name": "1e78863ba0e2e3807e08cc61656cbb59", "fusion_lon": 0.0}, {"lat": 38.92875933333333, "fusion_lat": 0.0, "type": "electric_scooter", "bike_id": "e2955eee2a9b94eab8d78fc290678106", "is_reserved": 0, "rental_uris": {"ios": "https://dc.lft.to/lastmile_qr_scan", "android": "https://dc.lft.to/lastmile_qr_scan"}, "is_disabled": 0, "lon": -77.01230066666666, "name": "e2955eee2a9b94eab8d78fc290678106", "fusion_lon": 0.0}, {"lat": 38.873891666666665, "fusion_lat": 0.0, "type": "electric_scooter", "bike_id": "efff5c99f8648aba6526caae55aa6f62", "is_reserved": 0, "rental_uris": {"ios": "https://dc.lft.to/lastmile_qr_scan", "android": "https://dc.lft.to/lastmile_qr_scan"}, "is_disabled": 0, "lon": -77.0002985, "name": "efff5c99f8648aba6526caae55aa6f62", "fusion_lon": 0.0}, {"lat": 38.9212215, "fusion_lat": 0.0, "type": "electric_scooter", "bike_id": "77052c43aa759cbf95d7d60d7ccfb74d", "is_reserved": 0, "rental_uris": {"ios": "https://dc.lft.to/lastmile_qr_scan", "android": "https://dc.lft.to/lastmile_qr_scan"}, "is_disabled": 0, "lon": -77.01211966666666, "name": "77052c43aa759cbf95d7d60d7ccfb74d", "fusion_lon": 0.0}, {"lat": 39.014788333333335, "fusion_lat": 0.0, "type": "electric_bike", "bike_id": "65a3545433953ec1d9338005ff4d9053", "is_reserved": 0, "rental_uris": {"ios": "https://dc.lft.to/lastmile_qr_scan", "android": "https://dc.lft.to/lastmile_qr_scan"}, "is_disabled": 0, "lon": -77.05495466666666, "name": "65a3545433953ec1d9338005ff4d9053", "fusion_lon": 0.0}, {"lat": 38.920563333333334, "fusion_lat": 0.0, "type": "electric_scooter", "bike_id": "262ed40b541382709cf6c62645c948db", "is_reserved": 0, "rental_uris": {"ios": "https://dc.lft.to/lastmile_qr_scan", "android": "https://dc.lft.to/lastmile_qr_scan"}, "is_disabled": 0, "lon": -77.02396416666667, "name": "262ed40b541382709cf6c62645c948db", "fusion_lon": 0.0}, {"lat": 38.9110885, "fusion_lat": 0.0, "type": "electric_scooter", "bike_id": "ab43ddafd0402b698189ef80c182710b", "is_reserved": 0, "rental_uris": {"ios": "https://dc.lft.to/lastmile_qr_scan", "android": "https://dc.lft.to/lastmile_qr_scan"}, "is_disabled": 0, "lon": -77.03812933333333, "name": "ab43ddafd0402b698189ef80c182710b", "fusion_lon": 0.0}, {"lat": 38.903430666666665, "fusion_lat": 0.0, "type": "electric_scooter", "bike_id": "ad86e77eec325c15f43927b93520c2bb", "is_reserved": 0, "rental_uris": {"ios": "https://dc.lft.to/lastmile_qr_scan", "android": "https://dc.lft.to/lastmile_qr_scan"}, "is_disabled": 0, "lon": -77.05316533333334, "name": "ad86e77eec325c15f43927b93520c2bb", "fusion_lon": 0.0}, {"lat": 38.931906166666664, "fusion_lat": 0.0, "type": "electric_scooter", "bike_id": "524dc6cab4b34d6b6539140ee24fa1a4", "is_reserved": 0, "rental_uris": {"ios": "https://dc.lft.to/lastmile_qr_scan", "android": "https://dc.lft.to/lastmile_qr_scan"}, "is_disabled": 0, "lon": -77.04531366666667, "name": "524dc6cab4b34d6b6539140ee24fa1a4", "fusion_lon": 0.0}, {"lat": 38.9071345, "fusion_lat": 0.0, "type": "electric_scooter", "bike_id": "9ee4bafd7880dc10ec09561f3fe6f7d8", "is_reserved": 0, "rental_uris": {"ios": "https://dc.lft.to/lastmile_qr_scan", "android": "https://dc.lft.to/lastmile_qr_scan"}, "is_disabled": 0, "lon": -77.02943083333334, "name": "9ee4bafd7880dc10ec09561f3fe6f7d8", "fusion_lon": 0.0}, {"lat": 38.914156166666665, "fusion_lat": 0.0, "type": "electric_scooter", "bike_id": "3ba3726e785baa3560d7ed5cbdff9c0d", "is_reserved": 0, "rental_uris": {"ios": "https://dc.lft.to/lastmile_qr_scan", "android": "https://dc.lft.to/lastmile_qr_scan"}, "is_disabled": 0, "lon": -77.04917733333333, "name": "3ba3726e785baa3560d7ed5cbdff9c0d", "fusion_lon": 0.0}, {"lat": 38.874786, "fusion_lat": 0.0, "type": "electric_bike", "bike_id": "e4708df8154d8a1a68ce52606840b13d", "is_reserved": 0, "rental_uris": {"ios": "https://dc.lft.to/lastmile_qr_scan", "android": "https://dc.lft.to/lastmile_qr_scan"}, "is_disabled": 0, "lon": -76.96514183333333, "name": "e4708df8154d8a1a68ce52606840b13d", "fusion_lon": 0.0}, {"lat": 38.928651, "fusion_lat": 0.0, "type": "electric_scooter", "bike_id": "45c0754e742b975fb9b4691bbadf1ca9", "is_reserved": 0, "rental_uris": {"ios": "https://dc.lft.to/lastmile_qr_scan", "android": "https://dc.lft.to/lastmile_qr_scan"}, "is_disabled": 0, "lon": -77.03403133333333, "name": "45c0754e742b975fb9b4691bbadf1ca9", "fusion_lon": 0.0}, {"lat": 38.897378333333336, "fusion_lat": 0.0, "type": "electric_scooter", "bike_id": "b3ad990c9dcf8cd28f7f906f249a5892", "is_reserved": 0, "rental_uris": {"ios": "https://dc.lft.to/lastmile_qr_scan", "android": "https://dc.lft.to/lastmile_qr_scan"}, "is_disabled": 0, "lon": -76.997567, "name": "b3ad990c9dcf8cd28f7f906f249a5892", "fusion_lon": 0.0}, {"lat": 38.897358, "fusion_lat": 0.0, "type": "electric_scooter", "bike_id": "810f2d536472104e747839639cb80b1b", "is_reserved": 0, "rental_uris": {"ios": "https://dc.lft.to/lastmile_qr_scan", "android": "https://dc.lft.to/lastmile_qr_scan"}, "is_disabled": 0, "lon": -77.00374216666667, "name": "810f2d536472104e747839639cb80b1b", "fusion_lon": 0.0}, {"lat": 38.92357916666667, "fusion_lat": 0.0, "type": "electric_scooter", "bike_id": "d8e755b24215efc653e5c7f2cb0eb78a", "is_reserved": 0, "rental_uris": {"ios": "https://dc.lft.to/lastmile_qr_scan", "android": "https://dc.lft.to/lastmile_qr_scan"}, "is_disabled": 0, "lon": -77.05103183333334, "name": "d8e755b24215efc653e5c7f2cb0eb78a", "fusion_lon": 0.0}, {"lat": 38.917416, "fusion_lat": 0.0, "type": "electric_scooter", "bike_id": "ae64ccd008369b482248b4012f0e93af", "is_reserved": 0, "rental_uris": {"ios": "https://dc.lft.to/lastmile_qr_scan", "android": "https://dc.lft.to/lastmile_qr_scan"}, "is_disabled": 0, "lon": -77.02810933333333, "name": "ae64ccd008369b482248b4012f0e93af", "fusion_lon": 0.0}, {"lat": 38.874725, "fusion_lat": 0.0, "type": "electric_scooter", "bike_id": "618c5d179740ba801d3c58f907e8a430", "is_reserved": 0, "rental_uris": {"ios": "https://dc.lft.to/lastmile_qr_scan", "android": "https://dc.lft.to/lastmile_qr_scan"}, "is_disabled": 0, "lon": -77.00560433333334, "name": "618c5d179740ba801d3c58f907e8a430", "fusion_lon": 0.0}, {"lat": 38.90752716666667, "fusion_lat": 0.0, "type": "electric_scooter", "bike_id": "32b4f28218dc74bb807c5aecaf1e8aa8", "is_reserved": 0, "rental_uris": {"ios": "https://dc.lft.to/lastmile_qr_scan", "android": "https://dc.lft.to/lastmile_qr_scan"}, "is_disabled": 0, "lon": -77.03182466666667, "name": "32b4f28218dc74bb807c5aecaf1e8aa8", "fusion_lon": 0.0}, {"lat": 38.901703166666664, "fusion_lat": 0.0, "type": "electric_scooter", "bike_id": "24d4e40c13d3f65ca40af9787b5df5df", "is_reserved": 0, "rental_uris": {"ios": "https://dc.lft.to/lastmile_qr_scan", "android": "https://dc.lft.to/lastmile_qr_scan"}, "is_disabled": 0, "lon": -76.930263, "name": "24d4e40c13d3f65ca40af9787b5df5df", "fusion_lon": 0.0}, {"lat": 38.924133166666664, "fusion_lat": 0.0, "type": "electric_scooter", "bike_id": "04ee65fe4048a8cf39351bdc8a1cdc8a", "is_reserved": 0, "rental_uris": {"ios": "https://dc.lft.to/lastmile_qr_scan", "android": "https://dc.lft.to/lastmile_qr_scan"}, "is_disabled": 0, "lon": -77.05063116666666, "name": "04ee65fe4048a8cf39351bdc8a1cdc8a", "fusion_lon": 0.0}, {"lat": 38.916835166666665, "fusion_lat": 0.0, "type": "electric_scooter", "bike_id": "bb89002970066f101b23edc9b7d97006", "is_reserved": 0, "rental_uris": {"ios": "https://dc.lft.to/lastmile_qr_scan", "android": "https://dc.lft.to/lastmile_qr_scan"}, "is_disabled": 0, "lon": -77.02527683333334, "name": "bb89002970066f101b23edc9b7d97006", "fusion_lon": 0.0}, {"lat": 38.83205183333333, "fusion_lat": 0.0, "type": "electric_scooter", "bike_id": "7f9c3d69124efc9452b41a40c42fc8a7", "is_reserved": 0, "rental_uris": {"ios": "https://dc.lft.to/lastmile_qr_scan", "android": "https://dc.lft.to/lastmile_qr_scan"}, "is_disabled": 0, "lon": -77.0079485, "name": "7f9c3d69124efc9452b41a40c42fc8a7", "fusion_lon": 0.0}, {"lat": 38.905444333333335, "fusion_lat": 0.0, "type": "electric_scooter", "bike_id": "51e01f4bd1c5d72cdab23bb6f7becf1b", "is_reserved": 0, "rental_uris": {"ios": "https://dc.lft.to/lastmile_qr_scan", "android": "https://dc.lft.to/lastmile_qr_scan"}, "is_disabled": 0, "lon": -76.98103416666666, "name": "51e01f4bd1c5d72cdab23bb6f7becf1b", "fusion_lon": 0.0}, {"lat": 38.89696716666667, "fusion_lat": 0.0, "type": "electric_scooter", "bike_id": "125f488159e323b8104ecd61f349bab9", "is_reserved": 0, "rental_uris": {"ios": "https://dc.lft.to/lastmile_qr_scan", "android": "https://dc.lft.to/lastmile_qr_scan"}, "is_disabled": 0, "lon": -77.00329283333333, "name": "125f488159e323b8104ecd61f349bab9", "fusion_lon": 0.0}, {"lat": 38.8878455, "fusion_lat": 0.0, "type": "electric_scooter", "bike_id": "1d4a220695f667fff1ca106b7ce7874f", "is_reserved": 0, "rental_uris": {"ios": "https://dc.lft.to/lastmile_qr_scan", "android": "https://dc.lft.to/lastmile_qr_scan"}, "is_disabled": 0, "lon": -76.95535916666667, "name": "1d4a220695f667fff1ca106b7ce7874f", "fusion_lon": 0.0}, {"lat": 38.8606375, "fusion_lat": 0.0, "type": "electric_scooter", "bike_id": "dd2198350a93d72103572cab38b3f7eb", "is_reserved": 0, "rental_uris": {"ios": "https://dc.lft.to/lastmile_qr_scan", "android": "https://dc.lft.to/lastmile_qr_scan"}, "is_disabled": 0, "lon": -76.984252, "name": "dd2198350a93d72103572cab38b3f7eb", "fusion_lon": 0.0}, {"lat": 38.89956, "fusion_lat": 0.0, "type": "electric_scooter", "bike_id": "bc625f87688ab87cfaca0b447770efa9", "is_reserved": 0, "rental_uris": {"ios": "https://dc.lft.to/lastmile_qr_scan", "android": "https://dc.lft.to/lastmile_qr_scan"}, "is_disabled": 0, "lon": -77.01636666666667, "name": "bc625f87688ab87cfaca0b447770efa9", "fusion_lon": 0.0}, {"lat": 38.887407833333334, "fusion_lat": 0.0, "type": "electric_scooter", "bike_id": "1da0513e19878827332b0d38c34229f8", "is_reserved": 0, "rental_uris": {"ios": "https://dc.lft.to/lastmile_qr_scan", "android": "https://dc.lft.to/lastmile_qr_scan"}, "is_disabled": 0, "lon": -77.01529033333334, "name": "1da0513e19878827332b0d38c34229f8", "fusion_lon": 0.0}, {"lat": 38.8763885, "fusion_lat": 0.0, "type": "electric_scooter", "bike_id": "84417d0301156a9eb50ddc11b69fd61b", "is_reserved": 0, "rental_uris": {"ios": "https://dc.lft.to/lastmile_qr_scan", "android": "https://dc.lft.to/lastmile_qr_scan"}, "is_disabled": 0, "lon": -77.00456383333334, "name": "84417d0301156a9eb50ddc11b69fd61b", "fusion_lon": 0.0}, {"lat": 38.89274983333333, "fusion_lat": 0.0, "type": "electric_scooter", "bike_id": "deb718dadce6086849336683818d5caa", "is_reserved": 0, "rental_uris": {"ios": "https://dc.lft.to/lastmile_qr_scan", "android": "https://dc.lft.to/lastmile_qr_scan"}, "is_disabled": 0, "lon": -77.00340883333334, "name": "deb718dadce6086849336683818d5caa", "fusion_lon": 0.0}, {"lat": 38.87573966666667, "fusion_lat": 0.0, "type": "electric_scooter", "bike_id": "5402e89d9744f149da1433e0fe86cd0c", "is_reserved": 0, "rental_uris": {"ios": "https://dc.lft.to/lastmile_qr_scan", "android": "https://dc.lft.to/lastmile_qr_scan"}, "is_disabled": 0, "lon": -77.00604083333333, "name": "5402e89d9744f149da1433e0fe86cd0c", "fusion_lon": 0.0}, {"lat": 38.92454716666667, "fusion_lat": 0.0, "type": "electric_scooter", "bike_id": "6ad3e5c3e790573fb5260df9e5bf3336", "is_reserved": 0, "rental_uris": {"ios": "https://dc.lft.to/lastmile_qr_scan", "android": "https://dc.lft.to/lastmile_qr_scan"}, "is_disabled": 0, "lon": -77.04109433333333, "name": "6ad3e5c3e790573fb5260df9e5bf3336", "fusion_lon": 0.0}, {"lat": 38.893905, "fusion_lat": 0.0, "type": "electric_scooter", "bike_id": "4d5df227df9c269551479c670fe6b40b", "is_reserved": 0, "rental_uris": {"ios": "https://dc.lft.to/lastmile_qr_scan", "android": "https://dc.lft.to/lastmile_qr_scan"}, "is_disabled": 0, "lon": -77.03169383333334, "name": "4d5df227df9c269551479c670fe6b40b", "fusion_lon": 0.0}, {"lat": 38.89472133333334, "fusion_lat": 0.0, "type": "electric_scooter", "bike_id": "11ea3353bba545f98227628cf985cc4c", "is_reserved": 0, "rental_uris": {"ios": "https://dc.lft.to/lastmile_qr_scan", "android": "https://dc.lft.to/lastmile_qr_scan"}, "is_disabled": 0, "lon": -77.02804116666667, "name": "11ea3353bba545f98227628cf985cc4c", "fusion_lon": 0.0}, {"lat": 38.925052666666666, "fusion_lat": 0.0, "type": "electric_scooter", "bike_id": "f0d91292467c187564f84e66a797ebb1", "is_reserved": 0, "rental_uris": {"ios": "https://dc.lft.to/lastmile_qr_scan", "android": "https://dc.lft.to/lastmile_qr_scan"}, "is_disabled": 0, "lon": -77.00888433333333, "name": "f0d91292467c187564f84e66a797ebb1", "fusion_lon": 0.0}, {"lat": 38.9148715, "fusion_lat": 0.0, "type": "electric_scooter", "bike_id": "11e82f56be151830682962cc7d2bdef8", "is_reserved": 0, "rental_uris": {"ios": "https://dc.lft.to/lastmile_qr_scan", "android": "https://dc.lft.to/lastmile_qr_scan"}, "is_disabled": 0, "lon": -76.9857205, "name": "11e82f56be151830682962cc7d2bdef8", "fusion_lon": 0.0}, {"lat": 38.907835166666665, "fusion_lat": 0.0, "type": "electric_scooter", "bike_id": "ca7b779befdba408b9685674a0b81963", "is_reserved": 0, "rental_uris": {"ios": "https://dc.lft.to/lastmile_qr_scan", "android": "https://dc.lft.to/lastmile_qr_scan"}, "is_disabled": 0, "lon": -77.0383205, "name": "ca7b779befdba408b9685674a0b81963", "fusion_lon": 0.0}, {"lat": 38.9198985, "fusion_lat": 0.0, "type": "electric_scooter", "bike_id": "036973e3372664786cedcf7e03d09867", "is_reserved": 0, "rental_uris": {"ios": "https://dc.lft.to/lastmile_qr_scan", "android": "https://dc.lft.to/lastmile_qr_scan"}, "is_disabled": 0, "lon": -76.973051, "name": "036973e3372664786cedcf7e03d09867", "fusion_lon": 0.0}, {"lat": 38.92120933333333, "fusion_lat": 0.0, "type": "electric_scooter", "bike_id": "747f8380b8bd40a6c05a696748f8c36d", "is_reserved": 0, "rental_uris": {"ios": "https://dc.lft.to/lastmile_qr_scan", "android": "https://dc.lft.to/lastmile_qr_scan"}, "is_disabled": 0, "lon": -77.03334433333333, "name": "747f8380b8bd40a6c05a696748f8c36d", "fusion_lon": 0.0}, {"lat": 38.91155783333333, "fusion_lat": 0.0, "type": "electric_scooter", "bike_id": "ae7a0e2047664ae4a9fc17b67aede52f", "is_reserved": 0, "rental_uris": {"ios": "https://dc.lft.to/lastmile_qr_scan", "android": "https://dc.lft.to/lastmile_qr_scan"}, "is_disabled": 0, "lon": -77.038423, "name": "ae7a0e2047664ae4a9fc17b67aede52f", "fusion_lon": 0.0}, {"lat": 38.90022533333333, "fusion_lat": 0.0, "type": "electric_scooter", "bike_id": "82d3b6e1bfd4ea85c48b3b49b359d008", "is_reserved": 0, "rental_uris": {"ios": "https://dc.lft.to/lastmile_qr_scan", "android": "https://dc.lft.to/lastmile_qr_scan"}, "is_disabled": 0, "lon": -76.98082333333333, "name": "82d3b6e1bfd4ea85c48b3b49b359d008", "fusion_lon": 0.0}, {"lat": 38.9056525, "fusion_lat": 0.0, "type": "electric_scooter", "bike_id": "ee4edbdf886377390a7e272f18db9af1", "is_reserved": 0, "rental_uris": {"ios": "https://dc.lft.to/lastmile_qr_scan", "android": "https://dc.lft.to/lastmile_qr_scan"}, "is_disabled": 0, "lon": -77.02491216666667, "name": "ee4edbdf886377390a7e272f18db9af1", "fusion_lon": 0.0}, {"lat": 38.935443, "fusion_lat": 0.0, "type": "electric_scooter", "bike_id": "e3d0dc5974e999017b57f7427b1c1fdf", "is_reserved": 0, "rental_uris": {"ios": "https://dc.lft.to/lastmile_qr_scan", "android": "https://dc.lft.to/lastmile_qr_scan"}, "is_disabled": 0, "lon": -77.054541, "name": "e3d0dc5974e999017b57f7427b1c1fdf", "fusion_lon": 0.0}, {"lat": 38.8746055, "fusion_lat": 0.0, "type": "electric_scooter", "bike_id": "016522c4bd763d80539a1f08b56ac7d8", "is_reserved": 0, "rental_uris": {"ios": "https://dc.lft.to/lastmile_qr_scan", "android": "https://dc.lft.to/lastmile_qr_scan"}, "is_disabled": 0, "lon": -77.00539483333333, "name": "016522c4bd763d80539a1f08b56ac7d8", "fusion_lon": 0.0}, {"lat": 38.92362266666667, "fusion_lat": 0.0, "type": "electric_scooter", "bike_id": "c19e52fbfa007403692c52e0ac37c3f3", "is_reserved": 0, "rental_uris": {"ios": "https://dc.lft.to/lastmile_qr_scan", "android": "https://dc.lft.to/lastmile_qr_scan"}, "is_disabled": 0, "lon": -77.05075533333333, "name": "c19e52fbfa007403692c52e0ac37c3f3", "fusion_lon": 0.0}, {"lat": 38.86215933333333, "fusion_lat": 0.0, "type": "electric_scooter", "bike_id": "fe5cad50188b12ad7681e9ad8667c3e4", "is_reserved": 0, "rental_uris": {"ios": "https://dc.lft.to/lastmile_qr_scan", "android": "https://dc.lft.to/lastmile_qr_scan"}, "is_disabled": 0, "lon": -76.994822, "name": "fe5cad50188b12ad7681e9ad8667c3e4", "fusion_lon": 0.0}, {"lat": 38.91794516666667, "fusion_lat": 0.0, "type": "electric_scooter", "bike_id": "e9058e0603ed18895c38a6e7e3a05626", "is_reserved": 0, "rental_uris": {"ios": "https://dc.lft.to/lastmile_qr_scan", "android": "https://dc.lft.to/lastmile_qr_scan"}, "is_disabled": 0, "lon": -77.03217366666667, "name": "e9058e0603ed18895c38a6e7e3a05626", "fusion_lon": 0.0}, {"lat": 38.9023385, "fusion_lat": 0.0, "type": "electric_scooter", "bike_id": "83f6562d8cce584cba7a5b4b591e6aed", "is_reserved": 0, "rental_uris": {"ios": "https://dc.lft.to/lastmile_qr_scan", "android": "https://dc.lft.to/lastmile_qr_scan"}, "is_disabled": 0, "lon": -76.9741165, "name": "83f6562d8cce584cba7a5b4b591e6aed", "fusion_lon": 0.0}, {"lat": 38.900771666666664, "fusion_lat": 0.0, "type": "electric_scooter", "bike_id": "8b78aa6579f472b60a0fafa80d4be544", "is_reserved": 0, "rental_uris": {"ios": "https://dc.lft.to/lastmile_qr_scan", "android": "https://dc.lft.to/lastmile_qr_scan"}, "is_disabled": 0, "lon": -77.03196033333333, "name": "8b78aa6579f472b60a0fafa80d4be544", "fusion_lon": 0.0}, {"lat": 38.90909383333333, "fusion_lat": 0.0, "type": "electric_scooter", "bike_id": "b60a6269883ac013aede58ae16710726", "is_reserved": 0, "rental_uris": {"ios": "https://dc.lft.to/lastmile_qr_scan", "android": "https://dc.lft.to/lastmile_qr_scan"}, "is_disabled": 0, "lon": -77.07280883333334, "name": "b60a6269883ac013aede58ae16710726", "fusion_lon": 0.0}, {"lat": 38.9039225, "fusion_lat": 0.0, "type": "electric_scooter", "bike_id": "6f516223c994db792a5efef96eaab41c", "is_reserved": 0, "rental_uris": {"ios": "https://dc.lft.to/lastmile_qr_scan", "android": "https://dc.lft.to/lastmile_qr_scan"}, "is_disabled": 0, "lon": -77.01618483333333, "name": "6f516223c994db792a5efef96eaab41c", "fusion_lon": 0.0}, {"lat": 38.87840033333333, "fusion_lat": 0.0, "type": "electric_scooter", "bike_id": "3d7ec3c94420b6d4ec4e9ec5d48eed84", "is_reserved": 0, "rental_uris": {"ios": "https://dc.lft.to/lastmile_qr_scan", "android": "https://dc.lft.to/lastmile_qr_scan"}, "is_disabled": 0, "lon": -77.0221625, "name": "3d7ec3c94420b6d4ec4e9ec5d48eed84", "fusion_lon": 0.0}, {"lat": 38.922116, "fusion_lat": 0.0, "type": "electric_scooter", "bike_id": "0763cf6e6be9cd98a9a7ddf5160f482f", "is_reserved": 0, "rental_uris": {"ios": "https://dc.lft.to/lastmile_qr_scan", "android": "https://dc.lft.to/lastmile_qr_scan"}, "is_disabled": 0, "lon": -77.0328785, "name": "0763cf6e6be9cd98a9a7ddf5160f482f", "fusion_lon": 0.0}, {"lat": 38.88732433333333, "fusion_lat": 0.0, "type": "electric_scooter", "bike_id": "5977cb27f5146ec610994239e3dbc45e", "is_reserved": 0, "rental_uris": {"ios": "https://dc.lft.to/lastmile_qr_scan", "android": "https://dc.lft.to/lastmile_qr_scan"}, "is_disabled": 0, "lon": -77.03186733333334, "name": "5977cb27f5146ec610994239e3dbc45e", "fusion_lon": 0.0}, {"lat": 38.904321, "fusion_lat": 0.0, "type": "electric_scooter", "bike_id": "26d2af09880a611ce6e8b6212bb1fedc", "is_reserved": 0, "rental_uris": {"ios": "https://dc.lft.to/lastmile_qr_scan", "android": "https://dc.lft.to/lastmile_qr_scan"}, "is_disabled": 0, "lon": -77.0239935, "name": "26d2af09880a611ce6e8b6212bb1fedc", "fusion_lon": 0.0}, {"lat": 38.928986, "fusion_lat": 0.0, "type": "electric_scooter", "bike_id": "4b04ee41acc37b81b11d1a3b773a0d39", "is_reserved": 0, "rental_uris": {"ios": "https://dc.lft.to/lastmile_qr_scan", "android": "https://dc.lft.to/lastmile_qr_scan"}, "is_disabled": 0, "lon": -77.03228416666667, "name": "4b04ee41acc37b81b11d1a3b773a0d39", "fusion_lon": 0.0}, {"lat": 38.91883, "fusion_lat": 0.0, "type": "electric_scooter", "bike_id": "cfd1448666f369e612e554e4c5a5e829", "is_reserved": 0, "rental_uris": {"ios": "https://dc.lft.to/lastmile_qr_scan", "android": "https://dc.lft.to/lastmile_qr_scan"}, "is_disabled": 0, "lon": -77.02949833333334, "name": "cfd1448666f369e612e554e4c5a5e829", "fusion_lon": 0.0}, {"lat": 38.9216845, "fusion_lat": 0.0, "type": "electric_scooter", "bike_id": "a7531a3b83a65a1b478fff0b683a52d8", "is_reserved": 0, "rental_uris": {"ios": "https://dc.lft.to/lastmile_qr_scan", "android": "https://dc.lft.to/lastmile_qr_scan"}, "is_disabled": 0, "lon": -77.03262083333334, "name": "a7531a3b83a65a1b478fff0b683a52d8", "fusion_lon": 0.0}, {"lat": 38.94526483333333, "fusion_lat": 0.0, "type": "electric_scooter", "bike_id": "8c1f456304b45b9c89df73c6d56d100c", "is_reserved": 0, "rental_uris": {"ios": "https://dc.lft.to/lastmile_qr_scan", "android": "https://dc.lft.to/lastmile_qr_scan"}, "is_disabled": 0, "lon": -77.02088866666666, "name": "8c1f456304b45b9c89df73c6d56d100c", "fusion_lon": 0.0}, {"lat": 38.918081666666666, "fusion_lat": 0.0, "type": "electric_scooter", "bike_id": "1c0bc31fcd5bc36a9361a2f289098e85", "is_reserved": 0, "rental_uris": {"ios": "https://dc.lft.to/lastmile_qr_scan", "android": "https://dc.lft.to/lastmile_qr_scan"}, "is_disabled": 0, "lon": -77.00185883333333, "name": "1c0bc31fcd5bc36a9361a2f289098e85", "fusion_lon": 0.0}, {"lat": 38.91726416666667, "fusion_lat": 0.0, "type": "electric_scooter", "bike_id": "df65a08af52dc2a2ffe05913b1ac92e8", "is_reserved": 0, "rental_uris": {"ios": "https://dc.lft.to/lastmile_qr_scan", "android": "https://dc.lft.to/lastmile_qr_scan"}, "is_disabled": 0, "lon": -77.02961216666667, "name": "df65a08af52dc2a2ffe05913b1ac92e8", "fusion_lon": 0.0}, {"lat": 38.917500833333335, "fusion_lat": 0.0, "type": "electric_scooter", "bike_id": "ed6bd967db58c0988d6c74b005479b94", "is_reserved": 0, "rental_uris": {"ios": "https://dc.lft.to/lastmile_qr_scan", "android": "https://dc.lft.to/lastmile_qr_scan"}, "is_disabled": 0, "lon": -77.0415415, "name": "ed6bd967db58c0988d6c74b005479b94", "fusion_lon": 0.0}, {"lat": 38.90845633333333, "fusion_lat": 0.0, "type": "electric_scooter", "bike_id": "d55f9c304a75566101a0afe921e257a5", "is_reserved": 0, "rental_uris": {"ios": "https://dc.lft.to/lastmile_qr_scan", "android": "https://dc.lft.to/lastmile_qr_scan"}, "is_disabled": 0, "lon": -77.0434845, "name": "d55f9c304a75566101a0afe921e257a5", "fusion_lon": 0.0}, {"lat": 38.909494, "fusion_lat": 0.0, "type": "electric_scooter", "bike_id": "5096b6fc8400d1bef40c65e5934a7c00", "is_reserved": 0, "rental_uris": {"ios": "https://dc.lft.to/lastmile_qr_scan", "android": "https://dc.lft.to/lastmile_qr_scan"}, "is_disabled": 0, "lon": -77.03190483333333, "name": "5096b6fc8400d1bef40c65e5934a7c00", "fusion_lon": 0.0}, {"lat": 38.89740883333333, "fusion_lat": 0.0, "type": "electric_bike", "bike_id": "8167136fcec8a90b3c4a01288c2ab089", "is_reserved": 0, "rental_uris": {"ios": "https://dc.lft.to/lastmile_qr_scan", "android": "https://dc.lft.to/lastmile_qr_scan"}, "is_disabled": 0, "lon": -76.92044283333334, "name": "8167136fcec8a90b3c4a01288c2ab089", "fusion_lon": 0.0}, {"lat": 38.90420616666667, "fusion_lat": 0.0, "type": "electric_scooter", "bike_id": "9ab65b46f84b30591b2d6c74aefc8ae6", "is_reserved": 0, "rental_uris": {"ios": "https://dc.lft.to/lastmile_qr_scan", "android": "https://dc.lft.to/lastmile_qr_scan"}, "is_disabled": 0, "lon": -77.02738316666667, "name": "9ab65b46f84b30591b2d6c74aefc8ae6", "fusion_lon": 0.0}, {"lat": 38.90273233333333, "fusion_lat": 0.0, "type": "electric_scooter", "bike_id": "c53b8c544bd26d297e83dcac2274a409", "is_reserved": 0, "rental_uris": {"ios": "https://dc.lft.to/lastmile_qr_scan", "android": "https://dc.lft.to/lastmile_qr_scan"}, "is_disabled": 0, "lon": -77.03973733333333, "name": "c53b8c544bd26d297e83dcac2274a409", "fusion_lon": 0.0}, {"lat": 38.863711333333335, "fusion_lat": 0.0, "type": "electric_scooter", "bike_id": "f81cb8427dae9ed7a16e73e4bd4393c1", "is_reserved": 0, "rental_uris": {"ios": "https://dc.lft.to/lastmile_qr_scan", "android": "https://dc.lft.to/lastmile_qr_scan"}, "is_disabled": 0, "lon": -76.99057766666667, "name": "f81cb8427dae9ed7a16e73e4bd4393c1", "fusion_lon": 0.0}, {"lat": 38.90848033333333, "fusion_lat": 0.0, "type": "electric_scooter", "bike_id": "ebbd04cff921221afa0cd1a7f9a011a1", "is_reserved": 0, "rental_uris": {"ios": "https://dc.lft.to/lastmile_qr_scan", "android": "https://dc.lft.to/lastmile_qr_scan"}, "is_disabled": 0, "lon": -76.997966, "name": "ebbd04cff921221afa0cd1a7f9a011a1", "fusion_lon": 0.0}, {"lat": 38.883736166666665, "fusion_lat": 0.0, "type": "electric_scooter", "bike_id": "5d3e93d369cda5c547c2fa2f79b46ef0", "is_reserved": 0, "rental_uris": {"ios": "https://dc.lft.to/lastmile_qr_scan", "android": "https://dc.lft.to/lastmile_qr_scan"}, "is_disabled": 0, "lon": -76.99521066666667, "name": "5d3e93d369cda5c547c2fa2f79b46ef0", "fusion_lon": 0.0}, {"lat": 38.891957, "fusion_lat": 0.0, "type": "electric_scooter", "bike_id": "bad001f74370fa2b880dd8d919a40d89", "is_reserved": 0, "rental_uris": {"ios": "https://dc.lft.to/lastmile_qr_scan", "android": "https://dc.lft.to/lastmile_qr_scan"}, "is_disabled": 0, "lon": -77.002963, "name": "bad001f74370fa2b880dd8d919a40d89", "fusion_lon": 0.0}, {"lat": 38.866839166666665, "fusion_lat": 0.0, "type": "electric_scooter", "bike_id": "51d1adf5d571b95b6eba4f3de9378bd9", "is_reserved": 0, "rental_uris": {"ios": "https://dc.lft.to/lastmile_qr_scan", "android": "https://dc.lft.to/lastmile_qr_scan"}, "is_disabled": 0, "lon": -76.9856125, "name": "51d1adf5d571b95b6eba4f3de9378bd9", "fusion_lon": 0.0}, {"lat": 38.91319433333334, "fusion_lat": 0.0, "type": "electric_bike", "bike_id": "28a4521dc770808ef750e2aaf3d56a3f", "is_reserved": 0, "rental_uris": {"ios": "https://dc.lft.to/lastmile_qr_scan", "android": "https://dc.lft.to/lastmile_qr_scan"}, "is_disabled": 0, "lon": -77.22317066666666, "name": "28a4521dc770808ef750e2aaf3d56a3f", "fusion_lon": 0.0}, {"lat": 38.92101483333333, "fusion_lat": 0.0, "type": "electric_scooter", "bike_id": "25736eec36b1ddbf6f4ff21c59e7cddf", "is_reserved": 0, "rental_uris": {"ios": "https://dc.lft.to/lastmile_qr_scan", "android": "https://dc.lft.to/lastmile_qr_scan"}, "is_disabled": 0, "lon": -77.0304555, "name": "25736eec36b1ddbf6f4ff21c59e7cddf", "fusion_lon": 0.0}, {"lat": 38.9047745, "fusion_lat": 0.0, "type": "electric_scooter", "bike_id": "33e7a8707d8657e5424d8b95c3312682", "is_reserved": 0, "rental_uris": {"ios": "https://dc.lft.to/lastmile_qr_scan", "android": "https://dc.lft.to/lastmile_qr_scan"}, "is_disabled": 0, "lon": -77.05334716666667, "name": "33e7a8707d8657e5424d8b95c3312682", "fusion_lon": 0.0}, {"lat": 38.912632333333335, "fusion_lat": 0.0, "type": "electric_scooter", "bike_id": "d27b08ac98a55c747babbe58823866b9", "is_reserved": 0, "rental_uris": {"ios": "https://dc.lft.to/lastmile_qr_scan", "android": "https://dc.lft.to/lastmile_qr_scan"}, "is_disabled": 0, "lon": -77.02514716666667, "name": "d27b08ac98a55c747babbe58823866b9", "fusion_lon": 0.0}, {"lat": 38.93186216666667, "fusion_lat": 0.0, "type": "electric_scooter", "bike_id": "cbdf18e6b0a0c7dca9f3a6685ccd3d50", "is_reserved": 0, "rental_uris": {"ios": "https://dc.lft.to/lastmile_qr_scan", "android": "https://dc.lft.to/lastmile_qr_scan"}, "is_disabled": 0, "lon": -77.03871333333333, "name": "cbdf18e6b0a0c7dca9f3a6685ccd3d50", "fusion_lon": 0.0}, {"lat": 38.91926866666667, "fusion_lat": 0.0, "type": "electric_scooter", "bike_id": "915acf0e18237c3371cd8b9d98b3bd89", "is_reserved": 0, "rental_uris": {"ios": "https://dc.lft.to/lastmile_qr_scan", "android": "https://dc.lft.to/lastmile_qr_scan"}, "is_disabled": 0, "lon": -77.042454, "name": "915acf0e18237c3371cd8b9d98b3bd89", "fusion_lon": 0.0}, {"lat": 38.914264333333335, "fusion_lat": 0.0, "type": "electric_scooter", "bike_id": "32fe4d254b8d5a9638891dc832130940", "is_reserved": 0, "rental_uris": {"ios": "https://dc.lft.to/lastmile_qr_scan", "android": "https://dc.lft.to/lastmile_qr_scan"}, "is_disabled": 0, "lon": -77.04490233333334, "name": "32fe4d254b8d5a9638891dc832130940", "fusion_lon": 0.0}, {"lat": 38.88762766666667, "fusion_lat": 0.0, "type": "electric_scooter", "bike_id": "57cdc1970d893117f114ad0b1dd0f36a", "is_reserved": 0, "rental_uris": {"ios": "https://dc.lft.to/lastmile_qr_scan", "android": "https://dc.lft.to/lastmile_qr_scan"}, "is_disabled": 0, "lon": -76.95596733333333, "name": "57cdc1970d893117f114ad0b1dd0f36a", "fusion_lon": 0.0}, {"lat": 38.92909216666666, "fusion_lat": 0.0, "type": "electric_scooter", "bike_id": "7e35cd0f239a3c8ea25b1d55cb6d5d62", "is_reserved": 0, "rental_uris": {"ios": "https://dc.lft.to/lastmile_qr_scan", "android": "https://dc.lft.to/lastmile_qr_scan"}, "is_disabled": 0, "lon": -77.0361865, "name": "7e35cd0f239a3c8ea25b1d55cb6d5d62", "fusion_lon": 0.0}, {"lat": 38.9054965, "fusion_lat": 0.0, "type": "electric_scooter", "bike_id": "f81d8ad48881f09ed265cdadb8f0cbcb", "is_reserved": 0, "rental_uris": {"ios": "https://dc.lft.to/lastmile_qr_scan", "android": "https://dc.lft.to/lastmile_qr_scan"}, "is_disabled": 0, "lon": -77.046515, "name": "f81d8ad48881f09ed265cdadb8f0cbcb", "fusion_lon": 0.0}, {"lat": 38.947867, "fusion_lat": 0.0, "type": "electric_bike", "bike_id": "a9a777c565d13af2f41a3598b9f666dc", "is_reserved": 0, "rental_uris": {"ios": "https://dc.lft.to/lastmile_qr_scan", "android": "https://dc.lft.to/lastmile_qr_scan"}, "is_disabled": 0, "lon": -76.9721085, "name": "a9a777c565d13af2f41a3598b9f666dc", "fusion_lon": 0.0}, {"lat": 38.9047315, "fusion_lat": 0.0, "type": "electric_scooter", "bike_id": "dd78da49dccea78ae55a996a0a492291", "is_reserved": 0, "rental_uris": {"ios": "https://dc.lft.to/lastmile_qr_scan", "android": "https://dc.lft.to/lastmile_qr_scan"}, "is_disabled": 0, "lon": -77.05329183333333, "name": "dd78da49dccea78ae55a996a0a492291", "fusion_lon": 0.0}, {"lat": 38.905689, "fusion_lat": 0.0, "type": "electric_scooter", "bike_id": "b0472adc91fe790ac7fe829e66bc654a", "is_reserved": 0, "rental_uris": {"ios": "https://dc.lft.to/lastmile_qr_scan", "android": "https://dc.lft.to/lastmile_qr_scan"}, "is_disabled": 0, "lon": -77.04478666666667, "name": "b0472adc91fe790ac7fe829e66bc654a", "fusion_lon": 0.0}, {"lat": 39.024347, "fusion_lat": 0.0, "type": "electric_bike", "bike_id": "4211d087a99ed59926864008eada35d4", "is_reserved": 0, "rental_uris": {"ios": "https://dc.lft.to/lastmile_qr_scan", "android": "https://dc.lft.to/lastmile_qr_scan"}, "is_disabled": 0, "lon": -77.1309995, "name": "4211d087a99ed59926864008eada35d4", "fusion_lon": 0.0}, {"lat": 38.919157166666665, "fusion_lat": 0.0, "type": "electric_scooter", "bike_id": "afed891b12d55236bece83dc297bfd06", "is_reserved": 0, "rental_uris": {"ios": "https://dc.lft.to/lastmile_qr_scan", "android": "https://dc.lft.to/lastmile_qr_scan"}, "is_disabled": 0, "lon": -77.03183283333334, "name": "afed891b12d55236bece83dc297bfd06", "fusion_lon": 0.0}, {"lat": 38.90966233333333, "fusion_lat": 0.0, "type": "electric_scooter", "bike_id": "95be63c37cb39d2307d42c0b697b6d7b", "is_reserved": 0, "rental_uris": {"ios": "https://dc.lft.to/lastmile_qr_scan", "android": "https://dc.lft.to/lastmile_qr_scan"}, "is_disabled": 0, "lon": -77.03387183333334, "name": "95be63c37cb39d2307d42c0b697b6d7b", "fusion_lon": 0.0}, {"lat": 38.900127833333336, "fusion_lat": 0.0, "type": "electric_scooter", "bike_id": "d647f109094af3cf63f37c8e1f2ba34f", "is_reserved": 0, "rental_uris": {"ios": "https://dc.lft.to/lastmile_qr_scan", "android": "https://dc.lft.to/lastmile_qr_scan"}, "is_disabled": 0, "lon": -77.04268933333333, "name": "d647f109094af3cf63f37c8e1f2ba34f", "fusion_lon": 0.0}, {"lat": 38.855064666666664, "fusion_lat": 0.0, "type": "electric_bike", "bike_id": "31b5bbca21e02c80c6089e8ff7ac4e71", "is_reserved": 0, "rental_uris": {"ios": "https://dc.lft.to/lastmile_qr_scan", "android": "https://dc.lft.to/lastmile_qr_scan"}, "is_disabled": 0, "lon": -76.9842205, "name": "31b5bbca21e02c80c6089e8ff7ac4e71", "fusion_lon": 0.0}, {"lat": 38.874615666666664, "fusion_lat": 0.0, "type": "electric_scooter", "bike_id": "c6ddc7b19733f9f3b18d01aeeaafd742", "is_reserved": 0, "rental_uris": {"ios": "https://dc.lft.to/lastmile_qr_scan", "android": "https://dc.lft.to/lastmile_qr_scan"}, "is_disabled": 0, "lon": -77.00941116666667, "name": "c6ddc7b19733f9f3b18d01aeeaafd742", "fusion_lon": 0.0},