{"data": {"bikes": [{"rental_uris": {"android": "https://dc.lft.to/lastmile_qr_scan", "ios": "https://dc.lft.to/lastmile_qr_scan"}, "type": "electric_scooter", "lon": -76.975564, "name": "718c61e6dd2a3618cf9eddbc746e4437", "bike_id": "718c61e6dd2a3618cf9eddbc746e4437", "fusion_lat": 0.0, "is_reserved": 0, "lat": 38.90436583333333, "fusion_lon": 0.0, "is_disabled": 0}, {"rental_uris": {"android": "https://dc.lft.to/lastmile_qr_scan", "ios": "https://dc.lft.to/lastmile_qr_scan"}, "type": "electric_scooter", "lon": -77.018121, "name": "09ae0699654be763333d41a1e5d85ed8", "bike_id": "09ae0699654be763333d41a1e5d85ed8", "fusion_lat": 0.0, "is_reserved": 0, "lat": 38.886367, "fusion_lon": 0.0, "is_disabled": 0}, {"rental_uris": {"android": "https://dc.lft.to/lastmile_qr_scan", "ios": "https://dc.lft.to/lastmile_qr_scan"}, "type": "electric_scooter", "lon": -77.041568, "name": "e9f41708490dbdf14f56f3e46c7770ce", "bike_id": "e9f41708490dbdf14f56f3e46c7770ce", "fusion_lat": 0.0, "is_reserved": 0, "lat": 38.91925716666667, "fusion_lon": 0.0, "is_disabled": 0}, {"rental_uris": {"android": "https://dc.lft.to/lastmile_qr_scan", "ios": "https://dc.lft.to/lastmile_qr_scan"}, "type": "electric_scooter", "lon": -77.04676266666667, "name": "c8cb853129431e1b7e6e35f2adf72f6b", "bike_id": "c8cb853129431e1b7e6e35f2adf72f6b", "fusion_lat": 0.0, "is_reserved": 0, "lat": 38.91057833333333, "fusion_lon": 0.0, "is_disabled": 0}, {"rental_uris": {"android": "https://dc.lft.to/lastmile_qr_scan", "ios": "https://dc.lft.to/lastmile_qr_scan"}, "type": "electric_scooter", "lon": -76.97930066666666, "name": "92e7fb36df69df1cb73169197172b32a", "bike_id": "92e7fb36df69df1cb73169197172b32a", "fusion_lat": 0.0, "is_reserved": 0, "lat": 38.902342833333336, "fusion_lon": 0.0, "is_disabled": 0}, {"rental_uris": {"android": "https://dc.lft.to/lastmile_qr_scan", "ios": "https://dc.lft.to/lastmile_qr_scan"}, "type": "electric_scooter", "lon": -77.02478316666667, "name": "e4a69583fa075d7c87b1ae2866426494", "bike_id": "e4a69583fa075d7c87b1ae2866426494", "fusion_lat": 0.0, "is_reserved": 0, "lat": 38.936232, "fusion_lon": 0.0, "is_disabled": 0}, {"rental_uris": {"android": "https://dc.lft.to/lastmile_qr_scan", "ios": "https://dc.lft.to/lastmile_qr_scan"}, "type": "electric_scooter", "lon": -76.947242, "name": "b4e564e0184df9de3ae15c014e3fe20d", "bike_id": "b4e564e0184df9de3ae15c014e3fe20d", "fusion_lat": 0.0, "is_reserved": 0, "lat": 38.897385166666666, "fusion_lon": 0.0, "is_disabled": 0}, {"rental_uris": {"android": "https://dc.lft.to/lastmile_qr_scan", "ios": "https://dc.lft.to/lastmile_qr_scan"}, "type": "electric_scooter", "lon": -76.9845345, "name": "bd123f89ce0485a1a5e76f741c359004", "bike_id": "bd123f89ce0485a1a5e76f741c359004", "fusion_lat": 0.0, "is_reserved": 0, "lat": 38.88012483333333, "fusion_lon": 0.0, "is_disabled": 0}, {"rental_uris": {"android": "https://dc.lft.to/lastmile_qr_scan", "ios": "https://dc.lft.to/lastmile_qr_scan"}, "type": "electric_bike", "lon": -77.0843685, "name": "27ee7516dc0cac1788be339fced49dab", "bike_id": "27ee7516dc0cac1788be339fced49dab", "fusion_lat": 0.0, "is_reserved": 0, "lat": 38.810288166666666, "fusion_lon": 0.0, "is_disabled": 0}, {"rental_uris": {"android": "https://dc.lft.to/lastmile_qr_scan", "ios": "https://dc.lft.to/lastmile_qr_scan"}, "type": "electric_bike", "lon": -76.97498933333334, "name": "1b0ce40cb3b40ea19bac9fadc32677e3", "bike_id": "1b0ce40cb3b40ea19bac9fadc32677e3", "fusion_lat": 0.0, "is_reserved": 0, "lat": 38.91933683333333, "fusion_lon": 0.0, "is_disabled": 0}, {"rental_uris": {"android": "https://dc.lft.to/lastmile_qr_scan", "ios": "https://dc.lft.to/lastmile_qr_scan"}, "type": "electric_scooter", "lon": -76.99490516666667, "name": "e7a25b446fd2e308e54a10c8d4340da1", "bike_id": "e7a25b446fd2e308e54a10c8d4340da1", "fusion_lat": 0.0, "is_reserved": 0, "lat": 38.862438166666664, "fusion_lon": 0.0, "is_disabled": 0}, {"rental_uris": {"android": "https://dc.lft.to/lastmile_qr_scan", "ios": "https://dc.lft.to/lastmile_qr_scan"}, "type": "electric_scooter", "lon": -77.032029, "name": "d24537bc5df3df8ebbae9459c1081afe", "bike_id": "d24537bc5df3df8ebbae9459c1081afe", "fusion_lat": 0.0, "is_reserved": 0, "lat": 38.89617666666667, "fusion_lon": 0.0, "is_disabled": 0}, {"rental_uris": {"android": "https://dc.lft.to/lastmile_qr_scan", "ios": "https://dc.lft.to/lastmile_qr_scan"}, "type": "electric_scooter", "lon": -77.03233133333333, "name": "e37e88f0d553980d1a11d51fd9f31b94", "bike_id": "e37e88f0d553980d1a11d51fd9f31b94", "fusion_lat": 0.0, "is_reserved": 0, "lat": 38.92983183333333, "fusion_lon": 0.0, "is_disabled": 0}, {"rental_uris": {"android": "https://dc.lft.to/lastmile_qr_scan", "ios": "https://dc.lft.to/lastmile_qr_scan"}, "type": "electric_scooter", "lon": -76.990177, "name": "4d8ed1e1082b38b346cc98a98a740424", "bike_id": "4d8ed1e1082b38b346cc98a98a740424", "fusion_lat": 0.0, "is_reserved": 0, "lat": 38.89910066666667, "fusion_lon": 0.0, "is_disabled": 0}, {"rental_uris": {"android": "https://dc.lft.to/lastmile_qr_scan", "ios": "https://dc.lft.to/lastmile_qr_scan"}, "type": "electric_scooter", "lon": -76.990211, "name": "0c89074c5be9d0759c6aa75adbcc3ecb", "bike_id": "0c89074c5be9d0759c6aa75adbcc3ecb", "fusion_lat": 0.0, "is_reserved": 0, "lat": 38.858677166666666, "fusion_lon": 0.0, "is_disabled": 0}, {"rental_uris": {"android": "https://dc.lft.to/lastmile_qr_scan", "ios": "https://dc.lft.to/lastmile_qr_scan"}, "type": "electric_scooter", "lon": -77.02954366666667, "name": "abf6f4c90eea74a35e233d3a2c06797e", "bike_id": "abf6f4c90eea74a35e233d3a2c06797e", "fusion_lat": 0.0, "is_reserved": 0, "lat": 38.905026666666664, "fusion_lon": 0.0, "is_disabled": 0}, {"rental_uris": {"android": "https://dc.lft.to/lastmile_qr_scan", "ios": "https://dc.lft.to/lastmile_qr_scan"}, "type": "electric_scooter", "lon": -77.06114733333334, "name": "f4feb184b24556f702ca9c99a474f57d", "bike_id": "f4feb184b24556f702ca9c99a474f57d", "fusion_lat": 0.0, "is_reserved": 0, "lat": 38.943183833333336, "fusion_lon": 0.0, "is_disabled": 0}, {"rental_uris": {"android": "https://dc.lft.to/lastmile_qr_scan", "ios": "https://dc.lft.to/lastmile_qr_scan"}, "type": "electric_scooter", "lon": -77.039084, "name": "2cf110a1b75be171331c1c0dae753a3a", "bike_id": "2cf110a1b75be171331c1c0dae753a3a", "fusion_lat": 0.0, "is_reserved": 0, "lat": 38.91420983333333, "fusion_lon": 0.0, "is_disabled": 0}, {"rental_uris": {"android": "https://dc.lft.to/lastmile_qr_scan", "ios": "https://dc.lft.to/lastmile_qr_scan"}, "type": "electric_scooter", "lon": -76.99762216666667, "name": "4221cf7a6f42248472fb49ea2b7c0f98", "bike_id": "4221cf7a6f42248472fb49ea2b7c0f98", "fusion_lat": 0.0, "is_reserved": 0, "lat": 38.92192, "fusion_lon": 0.0, "is_disabled": 0}, {"rental_uris": {"android": "https://dc.lft.to/lastmile_qr_scan", "ios": "https://dc.lft.to/lastmile_qr_scan"}, "type": "electric_scooter", "lon": -76.93754366666667, "name": "a66fc26c1f1439162f1358ae54776d97", "bike_id": "a66fc26c1f1439162f1358ae54776d97", "fusion_lat": 0.0, "is_reserved": 0, "lat": 38.8904735, "fusion_lon": 0.0, "is_disabled": 0}, {"rental_uris": {"android": "https://dc.lft.to/lastmile_qr_scan", "ios": "https://dc.lft.to/lastmile_qr_scan"}, "type": "electric_scooter", "lon": -77.03200283333334, "name": "6786610b737f702aee4d27df9f29d81b", "bike_id": "6786610b737f702aee4d27df9f29d81b", "fusion_lat": 0.0, "is_reserved": 0, "lat": 38.9074865, "fusion_lon": 0.0, "is_disabled": 0}, {"rental_uris": {"android": "https://dc.lft.to/lastmile_qr_scan", "ios": "https://dc.lft.to/lastmile_qr_scan"}, "type": "electric_scooter", "lon": -77.03197833333333, "name": "76f951160d84b74d53d68c545d7272a8", "bike_id": "76f951160d84b74d53d68c545d7272a8", "fusion_lat": 0.0, "is_reserved": 0, "lat": 38.9075645, "fusion_lon": 0.0, "is_disabled": 0}, {"rental_uris": {"android": "https://dc.lft.to/lastmile_qr_scan", "ios": "https://dc.lft.to/lastmile_qr_scan"}, "type": "electric_scooter", "lon": -77.02470716666667, "name": "94d8de920397ca89bacaae6494911ddc", "bike_id": "94d8de920397ca89bacaae6494911ddc", "fusion_lat": 0.0, "is_reserved": 0, "lat": 38.93909883333333, "fusion_lon": 0.0, "is_disabled": 0}, {"rental_uris": {"android": "https://dc.lft.to/lastmile_qr_scan", "ios": "https://dc.lft.to/lastmile_qr_scan"}, "type": "electric_scooter", "lon": -77.04003683333333, "name": "7ff005f5af4560b923ff81ffe656b787", "bike_id": "7ff005f5af4560b923ff81ffe656b787", "fusion_lat": 0.0, "is_reserved": 0, "lat": 38.918099166666664, "fusion_lon": 0.0, "is_disabled": 0}, {"rental_uris": {"android": "https://dc.lft.to/lastmile_qr_scan", "ios": "https://dc.lft.to/lastmile_qr_scan"}, "type": "electric_scooter", "lon": -77.023097, "name": "bcf294efc1c28fbe09170093bc091b71", "bike_id": "bcf294efc1c28fbe09170093bc091b71", "fusion_lat": 0.0, "is_reserved": 0, "lat": 38.9181685, "fusion_lon": 0.0, "is_disabled": 0}, {"rental_uris": {"android": "https://dc.lft.to/lastmile_qr_scan", "ios": "https://dc.lft.to/lastmile_qr_scan"}, "type": "electric_scooter", "lon": -77.00281083333333, "name": "c1b667ebbeead4a7b32a61f6b6473116", "bike_id": "c1b667ebbeead4a7b32a61f6b6473116", "fusion_lat": 0.0, "is_reserved": 0, "lat": 38.91483266666667, "fusion_lon": 0.0, "is_disabled": 0}, {"rental_uris": {"android": "https://dc.lft.to/lastmile_qr_scan", "ios": "https://dc.lft.to/lastmile_qr_scan"}, "type": "electric_scooter", "lon": -77.02547383333334, "name": "fa9579d85ba96164280d022f8e1c013c", "bike_id": "fa9579d85ba96164280d022f8e1c013c", "fusion_lat": 0.0, "is_reserved": 0, "lat": 38.89221583333333, "fusion_lon": 0.0, "is_disabled": 0}, {"rental_uris": {"android": "https://dc.lft.to/lastmile_qr_scan", "ios": "https://dc.lft.to/lastmile_qr_scan"}, "type": "electric_scooter", "lon": -76.98493983333333, "name": "432b7ccea06c42992f54ca01149c72e1", "bike_id": "432b7ccea06c42992f54ca01149c72e1", "fusion_lat": 0.0, "is_reserved": 0, "lat": 38.8604595, "fusion_lon": 0.0, "is_disabled": 0}, {"rental_uris": {"android": "https://dc.lft.to/lastmile_qr_scan", "ios": "https://dc.lft.to/lastmile_qr_scan"}, "type": "electric_bike", "lon": -77.18295416666666, "name": "de5169ced7817956564284ee25941bfe", "bike_id": "de5169ced7817956564284ee25941bfe", "fusion_lat": 0.0, "is_reserved": 0, "lat": 38.8834465, "fusion_lon": 0.0, "is_disabled": 0}, {"rental_uris": {"android": "https://dc.lft.to/lastmile_qr_scan", "ios": "https://dc.lft.to/lastmile_qr_scan"}, "type": "electric_scooter", "lon": -77.024598, "name": "17a896e740a7798013af5c11999e1e5f", "bike_id": "17a896e740a7798013af5c11999e1e5f", "fusion_lat": 0.0, "is_reserved": 0, "lat": 38.938575166666666, "fusion_lon": 0.0, "is_disabled": 0}, {"rental_uris": {"android": "https://dc.lft.to/lastmile_qr_scan", "ios": "https://dc.lft.to/lastmile_qr_scan"}, "type": "electric_scooter", "lon": -77.03277716666666, "name": "83e3d56b35890126f8325a9f2578c121", "bike_id": "83e3d56b35890126f8325a9f2578c121", "fusion_lat": 0.0, "is_reserved": 0, "lat": 38.89635783333333, "fusion_lon": 0.0, "is_disabled": 0}, {"rental_uris": {"android": "https://dc.lft.to/lastmile_qr_scan", "ios": "https://dc.lft.to/lastmile_qr_scan"}, "type": "electric_scooter", "lon": -77.04258716666666, "name": "924ea02d684909ebcebeabd4b736fa5d", "bike_id": "924ea02d684909ebcebeabd4b736fa5d", "fusion_lat": 0.0, "is_reserved": 0, "lat": 38.9219785, "fusion_lon": 0.0, "is_disabled": 0}, {"rental_uris": {"android": "https://dc.lft.to/lastmile_qr_scan", "ios": "https://dc.lft.to/lastmile_qr_scan"}, "type": "electric_scooter", "lon": -76.9931265, "name": "9c619914ede3dfbd1ee77ee232e6ae08", "bike_id": "9c619914ede3dfbd1ee77ee232e6ae08", "fusion_lat": 0.0, "is_reserved": 0, "lat": 38.8576735, "fusion_lon": 0.0, "is_disabled": 0}, {"rental_uris": {"android": "https://dc.lft.to/lastmile_qr_scan", "ios": "https://dc.lft.to/lastmile_qr_scan"}, "type": "electric_scooter", "lon": -77.02441266666666, "name": "074df7b468a683c4d17c05395faac713", "bike_id": "074df7b468a683c4d17c05395faac713", "fusion_lat": 0.0, "is_reserved": 0, "lat": 38.93291266666667, "fusion_lon": 0.0, "is_disabled": 0}, {"rental_uris": {"android": "https://dc.lft.to/lastmile_qr_scan", "ios": "https://dc.lft.to/lastmile_qr_scan"}, "type": "electric_scooter", "lon": -77.01499016666666, "name": "6d865bb2365fe8621e4646bc04616a98", "bike_id": "6d865bb2365fe8621e4646bc04616a98", "fusion_lat": 0.0, "is_reserved": 0, "lat": 38.91766533333333, "fusion_lon": 0.0, "is_disabled": 0}, {"rental_uris": {"android": "https://dc.lft.to/lastmile_qr_scan", "ios": "https://dc.lft.to/lastmile_qr_scan"}, "type": "electric_bike", "lon": -77.13099083333333, "name": "94b6a9c337148d41be0d0b88944f2592", "bike_id": "94b6a9c337148d41be0d0b88944f2592", "fusion_lat": 0.0, "is_reserved": 0, "lat": 38.86162266666667, "fusion_lon": 0.0, "is_disabled": 0}, {"rental_uris": {"android": "https://dc.lft.to/lastmile_qr_scan", "ios": "https://dc.lft.to/lastmile_qr_scan"}, "type": "electric_scooter", "lon": -77.03178166666666, "name": "5470e53093848b4064118e7c817eea9b", "bike_id": "5470e53093848b4064118e7c817eea9b", "fusion_lat": 0.0, "is_reserved": 0, "lat": 38.897412, "fusion_lon": 0.0, "is_disabled": 0}, {"rental_uris": {"android": "https://dc.lft.to/lastmile_qr_scan", "ios": "https://dc.lft.to/lastmile_qr_scan"}, "type": "electric_scooter", "lon": -77.0058005, "name": "57757cb6e727ddd9599156c14c0eb162", "bike_id": "57757cb6e727ddd9599156c14c0eb162", "fusion_lat": 0.0, "is_reserved": 0, "lat": 38.90566233333333, "fusion_lon": 0.0, "is_disabled": 0}, {"rental_uris": {"android": "https://dc.lft.to/lastmile_qr_scan", "ios": "https://dc.lft.to/lastmile_qr_scan"}, "type": "electric_scooter", "lon": -77.00724083333333, "name": "de04c51b3ee95a214579ca0190418e18", "bike_id": "de04c51b3ee95a214579ca0190418e18", "fusion_lat": 0.0, "is_reserved": 0, "lat": 38.876731166666666, "fusion_lon": 0.0, "is_disabled": 0}, {"rental_uris": {"android": "https://dc.lft.to/lastmile_qr_scan", "ios": "https://dc.lft.to/lastmile_qr_scan"}, "type": "electric_scooter", "lon": -77.03834133333334, "name": "d1d98801ecd2a466d3fd184cc03748d3", "bike_id": "d1d98801ecd2a466d3fd184cc03748d3", "fusion_lat": 0.0, "is_reserved": 0, "lat": 38.91553916666667, "fusion_lon": 0.0, "is_disabled": 0}, {"rental_uris": {"android": "https://dc.lft.to/lastmile_qr_scan", "ios": "https://dc.lft.to/lastmile_qr_scan"}, "type": "electric_scooter", "lon": -77.05451283333333, "name": "b04e5352cc160f349557155ccec1154f", "bike_id": "b04e5352cc160f349557155ccec1154f", "fusion_lat": 0.0, "is_reserved": 0, "lat": 38.928498166666664, "fusion_lon": 0.0, "is_disabled": 0}, {"rental_uris": {"android": "https://dc.lft.to/lastmile_qr_scan", "ios": "https://dc.lft.to/lastmile_qr_scan"}, "type": "electric_scooter", "lon": -77.0218055, "name": "5326e2b8c326e30e3c96637cb3579a72", "bike_id": "5326e2b8c326e30e3c96637cb3579a72", "fusion_lat": 0.0, "is_reserved": 0, "lat": 38.943107833333336, "fusion_lon": 0.0, "is_disabled": 0}, {"rental_uris": {"android": "https://dc.lft.to/lastmile_qr_scan", "ios": "https://dc.lft.to/lastmile_qr_scan"}, "type": "electric_scooter", "lon": -77.05455716666667, "name": "909ded36c6fa6e47ccf62fc2d7c3c5b0", "bike_id": "909ded36c6fa6e47ccf62fc2d7c3c5b0", "fusion_lat": 0.0, "is_reserved": 0, "lat": 38.928499, "fusion_lon": 0.0, "is_disabled": 0}, {"rental_uris": {"android": "https://dc.lft.to/lastmile_qr_scan", "ios": "https://dc.lft.to/lastmile_qr_scan"}, "type": "electric_scooter", "lon": -77.05287066666666, "name": "855d3203ac623e3603c022424bc4a6fa", "bike_id": "855d3203ac623e3603c022424bc4a6fa", "fusion_lat": 0.0, "is_reserved": 0, "lat": 38.91055983333333, "fusion_lon": 0.0, "is_disabled": 0}, {"rental_uris": {"android": "https://dc.lft.to/lastmile_qr_scan", "ios": "https://dc.lft.to/lastmile_qr_scan"}, "type": "electric_scooter", "lon": -76.99548433333334, "name": "cf9737f049787968b7906aefcf3839b5", "bike_id": "cf9737f049787968b7906aefcf3839b5", "fusion_lat": 0.0, "is_reserved": 0, "lat": 38.88421433333333, "fusion_lon": 0.0, "is_disabled": 0}, {"rental_uris": {"android": "https://dc.lft.to/lastmile_qr_scan", "ios": "https://dc.lft.to/lastmile_qr_scan"}, "type": "electric_scooter", "lon": -77.03639816666667, "name": "23a2527a91d3639b474944abbd43d459", "bike_id": "23a2527a91d3639b474944abbd43d459", "fusion_lat": 0.0, "is_reserved": 0, "lat": 38.90267083333333, "fusion_lon": 0.0, "is_disabled": 0}, {"rental_uris": {"android": "https://dc.lft.to/lastmile_qr_scan", "ios": "https://dc.lft.to/lastmile_qr_scan"}, "type": "electric_scooter", "lon": -77.03466566666667, "name": "900a2b32166b075c303baf65a232e158", "bike_id": "900a2b32166b075c303baf65a232e158", "fusion_lat": 0.0, "is_reserved": 0, "lat": 38.91470783333333, "fusion_lon": 0.0, "is_disabled": 0}, {"rental_uris": {"android": "https://dc.lft.to/lastmile_qr_scan", "ios": "https://dc.lft.to/lastmile_qr_scan"}, "type": "electric_scooter", "lon": -76.98854966666667, "name": "a1516d36cbb1e4363d97164c275751d8", "bike_id": "a1516d36cbb1e4363d97164c275751d8", "fusion_lat": 0.0, "is_reserved": 0, "lat": 38.90028916666667, "fusion_lon": 0.0, "is_disabled": 0}, {"rental_uris": {"android": "https://dc.lft.to/lastmile_qr_scan", "ios": "https://dc.lft.to/lastmile_qr_scan"}, "type": "electric_scooter", "lon": -77.04212766666667, "name": "65bb11ed42e294bdc9ced8b68800dc4d", "bike_id": "65bb11ed42e294bdc9ced8b68800dc4d", "fusion_lat": 0.0, "is_reserved": 0, "lat": 38.921284166666666, "fusion_lon": 0.0, "is_disabled": 0}, {"rental_uris": {"android": "https://dc.lft.to/lastmile_qr_scan", "ios": "https://dc.lft.to/lastmile_qr_scan"}, "type": "electric_scooter", "lon": -77.04582333333333, "name": "5556209582c43892c5693c0cce01f611", "bike_id": "5556209582c43892c5693c0cce01f611", "fusion_lat": 0.0, "is_reserved": 0, "lat": 38.92129583333333, "fusion_lon": 0.0, "is_disabled": 0}, {"rental_uris": {"android": "https://dc.lft.to/lastmile_qr_scan", "ios": "https://dc.lft.to/lastmile_qr_scan"}, "type": "electric_bike", "lon": -77.0952315, "name": "3f2df7c19ea18eb2424f5edcaaef47ee", "bike_id": "3f2df7c19ea18eb2424f5edcaaef47ee", "fusion_lat": 0.0, "is_reserved": 0, "lat": 38.838103, "fusion_lon": 0.0, "is_disabled": 0}, {"rental_uris": {"android": "https://dc.lft.to/lastmile_qr_scan", "ios": "https://dc.lft.to/lastmile_qr_scan"}, "type": "electric_scooter", "lon": -77.02409133333333, "name": "acc28d00e7508823143b1713118f0482", "bike_id": "acc28d00e7508823143b1713118f0482", "fusion_lat": 0.0, "is_reserved": 0, "lat": 38.920852833333335, "fusion_lon": 0.0, "is_disabled": 0}, {"rental_uris": {"android": "https://dc.lft.to/lastmile_qr_scan", "ios": "https://dc.lft.to/lastmile_qr_scan"}, "type": "electric_scooter", "lon": -77.0417945, "name": "1a67a79af8e95082fe7c278b543e8aa6", "bike_id": "1a67a79af8e95082fe7c278b543e8aa6", "fusion_lat": 0.0, "is_reserved": 0, "lat": 38.91587533333333, "fusion_lon": 0.0, "is_disabled": 0}, {"rental_uris": {"android": "https://dc.lft.to/lastmile_qr_scan", "ios": "https://dc.lft.to/lastmile_qr_scan"}, "type": "electric_scooter", "lon": -76.97463783333333, "name": "4bed8e9676b4bfc88e4f8bb2490fcd83", "bike_id": "4bed8e9676b4bfc88e4f8bb2490fcd83", "fusion_lat": 0.0, "is_reserved": 0, "lat": 38.88395283333333, "fusion_lon": 0.0, "is_disabled": 0}, {"rental_uris": {"android": "https://dc.lft.to/lastmile_qr_scan", "ios": "https://dc.lft.to/lastmile_qr_scan"}, "type": "electric_scooter", "lon": -77.034413, "name": "7e2abd6d6a311019edc32f5e98510f21", "bike_id": "7e2abd6d6a311019edc32f5e98510f21", "fusion_lat": 0.0, "is_reserved": 0, "lat": 38.902686833333334, "fusion_lon": 0.0, "is_disabled": 0}, {"rental_uris": {"android": "https://dc.lft.to/lastmile_qr_scan", "ios": "https://dc.lft.to/lastmile_qr_scan"}, "type": "electric_scooter", "lon": -77.02695033333333, "name": "42d9d67538ce7fdc421a92ccfc2b6974", "bike_id": "42d9d67538ce7fdc421a92ccfc2b6974", "fusion_lat": 0.0, "is_reserved": 0, "lat": 38.90842383333333, "fusion_lon": 0.0, "is_disabled": 0}, {"rental_uris": {"android": "https://dc.lft.to/lastmile_qr_scan", "ios": "https://dc.lft.to/lastmile_qr_scan"}, "type": "electric_scooter", "lon": -76.9471755, "name": "ab1c03a69aa33c52fba90657663bca76", "bike_id": "ab1c03a69aa33c52fba90657663bca76", "fusion_lat": 0.0, "is_reserved": 0, "lat": 38.89735733333333, "fusion_lon": 0.0, "is_disabled": 0}, {"rental_uris": {"android": "https://dc.lft.to/lastmile_qr_scan", "ios": "https://dc.lft.to/lastmile_qr_scan"}, "type": "electric_scooter", "lon": -77.03519266666666, "name": "469bcdc8cb4b1ef51c3e6550485d5407", "bike_id": "469bcdc8cb4b1ef51c3e6550485d5407", "fusion_lat": 0.0, "is_reserved": 0, "lat": 38.923337833333335, "fusion_lon": 0.0, "is_disabled": 0}, {"rental_uris": {"android": "https://dc.lft.to/lastmile_qr_scan", "ios": "https://dc.lft.to/lastmile_qr_scan"}, "type": "electric_scooter", "lon": -76.99144966666667, "name": "a10753c3eeee35130d9332efb959113f", "bike_id": "a10753c3eeee35130d9332efb959113f", "fusion_lat": 0.0, "is_reserved": 0, "lat": 38.897304, "fusion_lon": 0.0, "is_disabled": 0}, {"rental_uris": {"android": "https://dc.lft.to/lastmile_qr_scan", "ios": "https://dc.lft.to/lastmile_qr_scan"}, "type": "electric_scooter", "lon": -77.04346116666666, "name": "8fddae5dd156277781101e024846a35d", "bike_id": "8fddae5dd156277781101e024846a35d", "fusion_lat": 0.0, "is_reserved": 0, "lat": 38.93131966666667, "fusion_lon": 0.0, "is_disabled": 0}, {"rental_uris": {"android": "https://dc.lft.to/lastmile_qr_scan", "ios": "https://dc.lft.to/lastmile_qr_scan"}, "type": "electric_scooter", "lon": -76.99838983333333, "name": "8a7c951ba2b16db4d180ef0c29ffaefd", "bike_id": "8a7c951ba2b16db4d180ef0c29ffaefd", "fusion_lat": 0.0, "is_reserved": 0, "lat": 38.95370483333333, "fusion_lon": 0.0, "is_disabled": 0}, {"rental_uris": {"android": "https://dc.lft.to/lastmile_qr_scan", "ios": "https://dc.lft.to/lastmile_qr_scan"}, "type": "electric_scooter", "lon": -77.0437845, "name": "15208ae7954818a0c97d26668a1f4e51", "bike_id": "15208ae7954818a0c97d26668a1f4e51", "fusion_lat": 0.0, "is_reserved": 0, "lat": 38.920677833333336, "fusion_lon": 0.0, "is_disabled": 0}, {"rental_uris": {"android": "https://dc.lft.to/lastmile_qr_scan", "ios": "https://dc.lft.to/lastmile_qr_scan"}, "type": "electric_scooter", "lon": -77.06826466666666, "name": "fe35576fe0c8509054d60e135d5a8732", "bike_id": "fe35576fe0c8509054d60e135d5a8732", "fusion_lat": 0.0, "is_reserved": 0, "lat": 38.952073, "fusion_lon": 0.0, "is_disabled": 0}, {"rental_uris": {"android": "https://dc.lft.to/lastmile_qr_scan", "ios": "https://dc.lft.to/lastmile_qr_scan"}, "type": "electric_scooter", "lon": -77.02360533333334, "name": "2c063345df763e83e2c8d4e74ff01b56", "bike_id": "2c063345df763e83e2c8d4e74ff01b56", "fusion_lat": 0.0, "is_reserved": 0, "lat": 38.925052666666666, "fusion_lon": 0.0, "is_disabled": 0}, {"rental_uris": {"android": "https://dc.lft.to/lastmile_qr_scan", "ios": "https://dc.lft.to/lastmile_qr_scan"}, "type": "electric_scooter", "lon": -77.02782666666667, "name": "6d95796176e92b7423a394dcb4dba00e", "bike_id": "6d95796176e92b7423a394dcb4dba00e", "fusion_lat": 0.0, "is_reserved": 0, "lat": 38.926792, "fusion_lon": 0.0, "is_disabled": 0}, {"rental_uris": {"android": "https://dc.lft.to/lastmile_qr_scan", "ios": "https://dc.lft.to/lastmile_qr_scan"}, "type": "electric_bike", "lon": -77.079036, "name": "1fb3289e753077c78682d663336a7c06", "bike_id": "1fb3289e753077c78682d663336a7c06", "fusion_lat": 0.0, "is_reserved": 0, "lat": 38.83935016666667, "fusion_lon": 0.0, "is_disabled": 0}, {"rental_uris": {"android": "https://dc.lft.to/lastmile_qr_scan", "ios": "https://dc.lft.to/lastmile_qr_scan"}, "type": "electric_bike", "lon": -76.94471716666666, "name": "9b270693e46f884b9724c071847abe48", "bike_id": "9b270693e46f884b9724c071847abe48", "fusion_lat": 0.0, "is_reserved": 0, "lat": 38.945590333333335, "fusion_lon": 0.0, "is_disabled": 0}, {"rental_uris": {"android": "https://dc.lft.to/lastmile_qr_scan", "ios": "https://dc.lft.to/lastmile_qr_scan"}, "type": "electric_scooter", "lon": -77.028265, "name": "fa4da71a4c87c88c56e716ea855359c5", "bike_id": "fa4da71a4c87c88c56e716ea855359c5", "fusion_lat": 0.0, "is_reserved": 0, "lat": 38.91552516666667, "fusion_lon": 0.0, "is_disabled": 0}, {"rental_uris": {"android": "https://dc.lft.to/lastmile_qr_scan", "ios": "https://dc.lft.to/lastmile_qr_scan"}, "type": "electric_bike", "lon": -77.05087716666667, "name": "8590f0f5a51e8025f1e1eebf7519723d", "bike_id": "8590f0f5a51e8025f1e1eebf7519723d", "fusion_lat": 0.0, "is_reserved": 0, "lat": 38.81325866666667, "fusion_lon": 0.0, "is_disabled": 0}, {"rental_uris": {"android": "https://dc.lft.to/lastmile_qr_scan", "ios": "https://dc.lft.to/lastmile_qr_scan"}, "type": "electric_scooter", "lon": -76.983633, "name": "273e1fb5432afd5e7a9605cb5086f6e7", "bike_id": "273e1fb5432afd5e7a9605cb5086f6e7", "fusion_lat": 0.0, "is_reserved": 0, "lat": 38.861046333333334, "fusion_lon": 0.0, "is_disabled": 0}, {"rental_uris": {"android": "https://dc.lft.to/lastmile_qr_scan", "ios": "https://dc.lft.to/lastmile_qr_scan"}, "type": "electric_scooter", "lon": -77.02353166666667, "name": "d95985d0f562887aa38df140dda05171", "bike_id": "d95985d0f562887aa38df140dda05171", "fusion_lat": 0.0, "is_reserved": 0, "lat": 38.892223333333334, "fusion_lon": 0.0, "is_disabled": 0}, {"rental_uris": {"android": "https://dc.lft.to/lastmile_qr_scan", "ios": "https://dc.lft.to/lastmile_qr_scan"}, "type": "electric_bike", "lon": -77.0724505, "name": "5fa9530b607a1dc40f4298f7579ab85e", "bike_id": "5fa9530b607a1dc40f4298f7579ab85e", "fusion_lat": 0.0, "is_reserved": 0, "lat": 38.95914, "fusion_lon": 0.0, "is_disabled": 0}, {"rental_uris": {"android": "https://dc.lft.to/lastmile_qr_scan", "ios": "https://dc.lft.to/lastmile_qr_scan"}, "type": "electric_scooter", "lon": -77.02261016666667, "name": "c9def089bc32a673d3a5b05feddcda37", "bike_id": "c9def089bc32a673d3a5b05feddcda37", "fusion_lat": 0.0, "is_reserved": 0, "lat": 38.92823416666667, "fusion_lon": 0.0, "is_disabled": 0}, {"rental_uris": {"android": "https://dc.lft.to/lastmile_qr_scan", "ios": "https://dc.lft.to/lastmile_qr_scan"}, "type": "electric_scooter", "lon": -77.03262383333333, "name": "a17a984ac9177579e8ab649926a7494e", "bike_id": "a17a984ac9177579e8ab649926a7494e", "fusion_lat": 0.0, "is_reserved": 0, "lat": 38.932559833333336, "fusion_lon": 0.0, "is_disabled": 0}, {"rental_uris": {"android": "https://dc.lft.to/lastmile_qr_scan", "ios": "https://dc.lft.to/lastmile_qr_scan"}, "type": "electric_bike", "lon": -77.1009835, "name": "1dc18445d7a9409090fae63cc0816b22", "bike_id": "1dc18445d7a9409090fae63cc0816b22", "fusion_lat": 0.0, "is_reserved": 0, "lat": 38.858621166666666, "fusion_lon": 0.0, "is_disabled": 0}, {"rental_uris": {"android": "https://dc.lft.to/lastmile_qr_scan", "ios": "https://dc.lft.to/lastmile_qr_scan"}, "type": "electric_scooter", "lon": -77.03636816666666, "name": "2ccf8d37c3efee532ff253690059f06a", "bike_id": "2ccf8d37c3efee532ff253690059f06a", "fusion_lat": 0.0, "is_reserved": 0, "lat": 38.936314833333334, "fusion_lon": 0.0, "is_disabled": 0}, {"rental_uris": {"android": "https://dc.lft.to/lastmile_qr_scan", "ios": "https://dc.lft.to/lastmile_qr_scan"}, "type": "electric_scooter", "lon": -76.98405066666666, "name": "cd48b1af41ee4a6feee30e3098ee829f", "bike_id": "cd48b1af41ee4a6feee30e3098ee829f", "fusion_lat": 0.0, "is_reserved": 0, "lat": 38.85959533333333, "fusion_lon": 0.0, "is_disabled": 0}, {"rental_uris": {"android": "https://dc.lft.to/lastmile_qr_scan", "ios": "https://dc.lft.to/lastmile_qr_scan"}, "type": "electric_scooter", "lon": -77.0424905, "name": "74a46abbb3c3354339de408c3bf69787", "bike_id": "74a46abbb3c3354339de408c3bf69787", "fusion_lat": 0.0, "is_reserved": 0, "lat": 38.917873666666665, "fusion_lon": 0.0, "is_disabled": 0}, {"rental_uris": {"android": "https://dc.lft.to/lastmile_qr_scan", "ios": "https://dc.lft.to/lastmile_qr_scan"}, "type": "electric_scooter", "lon": -77.007633, "name": "346f18e9ffb9e8804434c02bceea8e97", "bike_id": "346f18e9ffb9e8804434c02bceea8e97", "fusion_lat": 0.0, "is_reserved": 0, "lat": 38.879181833333334, "fusion_lon": 0.0, "is_disabled": 0}, {"rental_uris": {"android": "https://dc.lft.to/lastmile_qr_scan", "ios": "https://dc.lft.to/lastmile_qr_scan"}, "type": "electric_scooter", "lon": -77.02762666666666, "name": "7d009cf7af533e0201fd7a681b9c70e7", "bike_id": "7d009cf7af533e0201fd7a681b9c70e7", "fusion_lat": 0.0, "is_reserved": 0, "lat": 38.942900333333334, "fusion_lon": 0.0, "is_disabled": 0}, {"rental_uris": {"android": "https://dc.lft.to/lastmile_qr_scan", "ios": "https://dc.lft.to/lastmile_qr_scan"}, "type": "electric_scooter", "lon": -77.02950716666666, "name": "67baee08bd6ab54ed917675bc8246c74", "bike_id": "67baee08bd6ab54ed917675bc8246c74", "fusion_lat": 0.0, "is_reserved": 0, "lat": 38.907815666666664, "fusion_lon": 0.0, "is_disabled": 0}, {"rental_uris": {"android": "https://dc.lft.to/lastmile_qr_scan", "ios": "https://dc.lft.to/lastmile_qr_scan"}, "type": "electric_bike", "lon": -77.095483, "name": "7ca2a425ec527268502962ebbe4e9732", "bike_id": "7ca2a425ec527268502962ebbe4e9732", "fusion_lat": 0.0, "is_reserved": 0, "lat": 38.83805666666667, "fusion_lon": 0.0, "is_disabled": 0}, {"rental_uris": {"android": "https://dc.lft.to/lastmile_qr_scan", "ios": "https://dc.lft.to/lastmile_qr_scan"}, "type": "electric_scooter", "lon": -77.04988916666667, "name": "eb1943182df1a58fbdc3956d3d5bbc7b", "bike_id": "eb1943182df1a58fbdc3956d3d5bbc7b", "fusion_lat": 0.0, "is_reserved": 0, "lat": 38.900968, "fusion_lon": 0.0, "is_disabled": 0}, {"rental_uris": {"android": "https://dc.lft.to/lastmile_qr_scan", "ios": "https://dc.lft.to/lastmile_qr_scan"}, "type": "electric_scooter", "lon": -77.0394365, "name": "a81075429ab0e1e15c7b76c41f033eea", "bike_id": "a81075429ab0e1e15c7b76c41f033eea", "fusion_lat": 0.0, "is_reserved": 0, "lat": 38.904276333333335, "fusion_lon": 0.0, "is_disabled": 0}, {"rental_uris": {"android": "https://dc.lft.to/lastmile_qr_scan", "ios": "https://dc.lft.to/lastmile_qr_scan"}, "type": "electric_scooter", "lon": -77.00451916666667, "name": "5cc3170d548d7c018d62a2c5586b7bba", "bike_id": "5cc3170d548d7c018d62a2c5586b7bba", "fusion_lat": 0.0, "is_reserved": 0, "lat": 38.9289865, "fusion_lon": 0.0, "is_disabled": 0}, {"rental_uris": {"android": "https://dc.lft.to/lastmile_qr_scan", "ios": "https://dc.lft.to/lastmile_qr_scan"}, "type": "electric_scooter", "lon": -77.02244616666667, "name": "6a117bde8b165e8f37c76b3a6a1ffc40", "bike_id": "6a117bde8b165e8f37c76b3a6a1ffc40", "fusion_lat": 0.0, "is_reserved": 0, "lat": 38.913537833333336, "fusion_lon": 0.0, "is_disabled": 0}, {"rental_uris": {"android": "https://dc.lft.to/lastmile_qr_scan", "ios": "https://dc.lft.to/lastmile_qr_scan"}, "type": "electric_scooter", "lon": -77.04707033333334, "name": "4083317e6145344d216d37c55f9ff157", "bike_id": "4083317e6145344d216d37c55f9ff157", "fusion_lat": 0.0, "is_reserved": 0, "lat": 38.9125675, "fusion_lon": 0.0, "is_disabled": 0}, {"rental_uris": {"android": "https://dc.lft.to/lastmile_qr_scan", "ios": "https://dc.lft.to/lastmile_qr_scan"}, "type": "electric_scooter", "lon": -77.02795466666667, "name": "004c65e9aff5d39202632c8301cb0788", "bike_id": "004c65e9aff5d39202632c8301cb0788", "fusion_lat": 0.0, "is_reserved": 0, "lat": 38.96146616666667, "fusion_lon": 0.0, "is_disabled": 0}, {"rental_uris": {"android": "https://dc.lft.to/lastmile_qr_scan", "ios": "https://dc.lft.to/lastmile_qr_scan"}, "type": "electric_scooter", "lon": -77.04644716666667, "name": "06bcaf0ad234edaeb307ae837a265b3c", "bike_id": "06bcaf0ad234edaeb307ae837a265b3c", "fusion_lat": 0.0, "is_reserved": 0, "lat": 38.904925, "fusion_lon": 0.0, "is_disabled": 0}, {"rental_uris": {"android": "https://dc.lft.to/lastmile_qr_scan", "ios": "https://dc.lft.to/lastmile_qr_scan"}, "type": "electric_scooter", "lon": -77.03395583333334, "name": "c43d23c7eedbea2d0b2a8921e1945f20", "bike_id": "c43d23c7eedbea2d0b2a8921e1945f20", "fusion_lat": 0.0, "is_reserved": 0, "lat": 38.921541, "fusion_lon": 0.0, "is_disabled": 0}, {"rental_uris": {"android": "https://dc.lft.to/lastmile_qr_scan", "ios": "https://dc.lft.to/lastmile_qr_scan"}, "type": "electric_scooter", "lon": -77.03283583333334, "name": "6def3f9625fbf53abd95634a6a105aff", "bike_id": "6def3f9625fbf53abd95634a6a105aff", "fusion_lat": 0.0, "is_reserved": 0, "lat": 38.93986316666667, "fusion_lon": 0.0, "is_disabled": 0}, {"rental_uris": {"android": "https://dc.lft.to/lastmile_qr_scan", "ios": "https://dc.lft.to/lastmile_qr_scan"}, "type": "electric_bike", "lon": -77.00597166666667, "name": "a6d8f61461accf44024824f21ef64351", "bike_id": "a6d8f61461accf44024824f21ef64351", "fusion_lat": 0.0, "is_reserved": 0, "lat": 38.87643883333333, "fusion_lon": 0.0, "is_disabled": 0}, {"rental_uris": {"android": "https://dc.lft.to/lastmile_qr_scan", "ios": "https://dc.lft.to/lastmile_qr_scan"}, "type": "electric_scooter", "lon": -77.05627483333333, "name": "9c856f8a24e6f94c6297ea4d3626460a", "bike_id": "9c856f8a24e6f94c6297ea4d3626460a", "fusion_lat": 0.0, "is_reserved": 0, "lat": 38.9241495, "fusion_lon": 0.0, "is_disabled": 0}, {"rental_uris": {"android": "https://dc.lft.to/lastmile_qr_scan", "ios": "https://dc.lft.to/lastmile_qr_scan"}, "type": "electric_scooter", "lon": -77.02734533333333, "name": "37a36dc12fd16a5bd13bb5b965401313", "bike_id": "37a36dc12fd16a5bd13bb5b965401313", "fusion_lat": 0.0, "is_reserved": 0, "lat": 38.93401083333333, "fusion_lon": 0.0, "is_disabled": 0}, {"rental_uris": {"android": "https://dc.lft.to/lastmile_qr_scan", "ios": "https://dc.lft.to/lastmile_qr_scan"}, "type": "electric_scooter", "lon": -77.03206166666666, "name": "43bb5e26bdc1b21e84ec3be0bb394660", "bike_id": "43bb5e26bdc1b21e84ec3be0bb394660", "fusion_lat": 0.0, "is_reserved": 0, "lat": 38.90918583333333, "fusion_lon": 0.0, "is_disabled": 0}, {"rental_uris": {"android": "https://dc.lft.to/lastmile_qr_scan", "ios": "https://dc.lft.to/lastmile_qr_scan"}, "type": "electric_scooter", "lon": -77.02593783333333, "name": "9e8e747474775f6e7abeffc497e16277", "bike_id": "9e8e747474775f6e7abeffc497e16277", "fusion_lat": 0.0, "is_reserved": 0, "lat": 38.90492883333334, "fusion_lon": 0.0, "is_disabled": 0}, {"rental_uris": {"android": "https://dc.lft.to/lastmile_qr_scan", "ios": "https://dc.lft.to/lastmile_qr_scan"}, "type": "electric_scooter", "lon": -77.092162, "name": "0f33b9030e1a5f08089306508849caa6", "bike_id": "0f33b9030e1a5f08089306508849caa6", "fusion_lat": 0.0, "is_reserved": 0, "lat": 38.9170685, "fusion_lon": 0.0, "is_disabled": 0}, {"rental_uris": {"android": "https://dc.lft.to/lastmile_qr_scan", "ios": "https://dc.lft.to/lastmile_qr_scan"}, "type": "electric_scooter", "lon": -77.0243265, "name": "3b74f9bc888c31744206bbdd188e6a22", "bike_id": "3b74f9bc888c31744206bbdd188e6a22", "fusion_lat": 0.0, "is_reserved": 0, "lat": 38.927473666666664, "fusion_lon": 0.0, "is_disabled": 0}, {"rental_uris": {"android": "https://dc.lft.to/lastmile_qr_scan", "ios": "https://dc.lft.to/lastmile_qr_scan"}, "type": "electric_scooter", "lon": -77.02756883333333, "name": "388b1c935e4ac3daf9f0bca3d1d21664", "bike_id": "388b1c935e4ac3daf9f0bca3d1d21664", "fusion_lat": 0.0, "is_reserved": 0, "lat": 38.923866333333336, "fusion_lon": 0.0, "is_disabled": 0}, {"rental_uris": {"android": "https://dc.lft.to/lastmile_qr_scan", "ios": "https://dc.lft.to/lastmile_qr_scan"}, "type": "electric_bike", "lon": -77.0243415, "name": "670d093e57ae0be9ec1aef6170cae43d", "bike_id": "670d093e57ae0be9ec1aef6170cae43d", "fusion_lat": 0.0, "is_reserved": 0, "lat": 38.9260245, "fusion_lon": 0.0, "is_disabled": 0}, {"rental_uris": {"android": "https://dc.lft.to/lastmile_qr_scan", "ios": "https://dc.lft.to/lastmile_qr_scan"}, "type": "electric_scooter", "lon": -77.03322483333334, "name": "7e7cc0332a30cc4d92305343063af71e", "bike_id": "7e7cc0332a30cc4d92305343063af71e", "fusion_lat": 0.0, "is_reserved": 0, "lat": 38.89230766666667, "fusion_lon": 0.0, "is_disabled": 0}, {"rental_uris": {"android": "https://dc.lft.to/lastmile_qr_scan", "ios": "https://dc.lft.to/lastmile_qr_scan"}, "type": "electric_scooter", "lon": -77.0365715, "name": "cdb83bc5c81fc683fa4f509a713a8af1", "bike_id": "cdb83bc5c81fc683fa4f509a713a8af1", "fusion_lat": 0.0, "is_reserved": 0, "lat": 38.92245066666667, "fusion_lon": 0.0, "is_disabled": 0}, {"rental_uris": {"android": "https://dc.lft.to/lastmile_qr_scan", "ios": "https://dc.lft.to/lastmile_qr_scan"}, "type": "electric_scooter", "lon": -77.00337583333334, "name": "bdee2f8a0e0af37bd41d87e82ed058e8", "bike_id": "bdee2f8a0e0af37bd41d87e82ed058e8", "fusion_lat": 0.0, "is_reserved": 0, "lat": 38.90621516666667, "fusion_lon": 0.0, "is_disabled": 0}, {"rental_uris": {"android": "https://dc.lft.to/lastmile_qr_scan", "ios": "https://dc.lft.to/lastmile_qr_scan"}, "type": "electric_scooter", "lon": -77.0049885, "name": "b114f6c7060aa440f57aa06c89ebbb38", "bike_id": "b114f6c7060aa440f57aa06c89ebbb38", "fusion_lat": 0.0, "is_reserved": 0, "lat": 38.8967735, "fusion_lon": 0.0, "is_disabled": 0}, {"rental_uris": {"android": "https://dc.lft.to/lastmile_qr_scan", "ios": "https://dc.lft.to/lastmile_qr_scan"}, "type": "electric_scooter", "lon": -77.0328635, "name": "48c21932f3ae47e7c8f55c4452d41fd3", "bike_id": "48c21932f3ae47e7c8f55c4452d41fd3", "fusion_lat": 0.0, "is_reserved": 0, "lat": 38.95645733333333, "fusion_lon": 0.0, "is_disabled": 0}, {"rental_uris": {"android": "https://dc.lft.to/lastmile_qr_scan", "ios": "https://dc.lft.to/lastmile_qr_scan"}, "type": "electric_scooter", "lon": -77.04122266666667, "name": "7deecf3b3a6256a4e39d7f7d11c4d4d4", "bike_id": "7deecf3b3a6256a4e39d7f7d11c4d4d4", "fusion_lat": 0.0, "is_reserved": 0, "lat": 38.925232666666666, "fusion_lon": 0.0, "is_disabled": 0}, {"rental_uris": {"android": "https://dc.lft.to/lastmile_qr_scan", "ios": "https://dc.lft.to/lastmile_qr_scan"}, "type": "electric_scooter", "lon": -77.03873816666666, "name": "273c78007e80d3b9e0700cd45820a75c", "bike_id": "273c78007e80d3b9e0700cd45820a75c", "fusion_lat": 0.0, "is_reserved": 0, "lat": 38.91267883333333, "fusion_lon": 0.0, "is_disabled": 0}, {"rental_uris": {"android": "https://dc.lft.to/lastmile_qr_scan", "ios": "https://dc.lft.to/lastmile_qr_scan"}, "type": "electric_scooter", "lon": -77.02286333333333, "name": "04c0f810f6a90ab0cea37730730e84c0", "bike_id": "04c0f810f6a90ab0cea37730730e84c0", "fusion_lat": 0.0, "is_reserved": 0, "lat": 38.926873, "fusion_lon": 0.0, "is_disabled": 0}, {"rental_uris": {"android": "https://dc.lft.to/lastmile_qr_scan", "ios": "https://dc.lft.to/lastmile_qr_scan"}, "type": "electric_scooter", "lon": -76.99626933333333, "name": "bf1c9d3774d5e372aa6ba65070de7cfb", "bike_id": "bf1c9d3774d5e372aa6ba65070de7cfb", "fusion_lat": 0.0, "is_reserved": 0, "lat": 38.88029816666667, "fusion_lon": 0.0, "is_disabled": 0}, {"rental_uris": {"android": "https://dc.lft.to/lastmile_qr_scan", "ios": "https://dc.lft.to/lastmile_qr_scan"}, "type": "electric_scooter", "lon": -76.990941, "name": "ba3695edb9cc45e69f8f60ba61260c7f", "bike_id": "ba3695edb9cc45e69f8f60ba61260c7f", "fusion_lat": 0.0, "is_reserved": 0, "lat": 38.92950316666666, "fusion_lon": 0.0, "is_disabled": 0}, {"rental_uris": {"android": "https://dc.lft.to/lastmile_qr_scan", "ios": "https://dc.lft.to/lastmile_qr_scan"}, "type": "electric_scooter", "lon": -77.01799633333333, "name": "5165a7c2d26fe6e810685a1cb3e8ea0f", "bike_id": "5165a7c2d26fe6e810685a1cb3e8ea0f", "fusion_lat": 0.0, "is_reserved": 0, "lat": 38.90388883333333, "fusion_lon": 0.0, "is_disabled": 0}, {"rental_uris": {"android": "https://dc.lft.to/lastmile_qr_scan", "ios": "https://dc.lft.to/lastmile_qr_scan"}, "type": "electric_scooter", "lon": -76.98939133333333, "name": "de22adfe78faa3a6d192fab486870dd9", "bike_id": "de22adfe78faa3a6d192fab486870dd9", "fusion_lat": 0.0, "is_reserved": 0, "lat": 38.86591416666667, "fusion_lon": 0.0, "is_disabled": 0}, {"rental_uris": {"android": "https://dc.lft.to/lastmile_qr_scan", "ios": "https://dc.lft.to/lastmile_qr_scan"}, "type": "electric_scooter", "lon": -76.99500666666667, "name": "a819f658cae119bb5ef2d4005b438126", "bike_id": "a819f658cae119bb5ef2d4005b438126", "fusion_lat": 0.0, "is_reserved": 0, "lat": 38.8446345, "fusion_lon": 0.0, "is_disabled": 0}, {"rental_uris": {"android": "https://dc.lft.to/lastmile_qr_scan", "ios": "https://dc.lft.to/lastmile_qr_scan"}, "type": "electric_scooter", "lon": -77.02390066666666, "name": "9411540c2b7d2a0c3ae55c23637997cb", "bike_id": "9411540c2b7d2a0c3ae55c23637997cb", "fusion_lat": 0.0, "is_reserved": 0, "lat": 38.920718, "fusion_lon": 0.0, "is_disabled": 0}, {"rental_uris": {"android": "https://dc.lft.to/lastmile_qr_scan", "ios": "https://dc.lft.to/lastmile_qr_scan"}, "type": "electric_scooter", "lon": -77.00622733333333, "name": "a0748d7f32b0e3bf738b90ed646a8ec1", "bike_id": "a0748d7f32b0e3bf738b90ed646a8ec1", "fusion_lat": 0.0, "is_reserved": 0, "lat": 38.905598, "fusion_lon": 0.0, "is_disabled": 0}, {"rental_uris": {"android": "https://dc.lft.to/lastmile_qr_scan", "ios": "https://dc.lft.to/lastmile_qr_scan"}, "type": "electric_bike", "lon": -77.03987816666667, "name": "731d08d3dc4a13283615b7ae8503bc20", "bike_id": "731d08d3dc4a13283615b7ae8503bc20", "fusion_lat": 0.0, "is_reserved": 0, "lat": 38.802961833333335, "fusion_lon": 0.0, "is_disabled": 0}, {"rental_uris": {"android": "https://dc.lft.to/lastmile_qr_scan", "ios": "https://dc.lft.to/lastmile_qr_scan"}, "type": "electric_scooter", "lon": -77.01878783333333, "name": "ac9794b373fb32838557affea4352653", "bike_id": "ac9794b373fb32838557affea4352653", "fusion_lat": 0.0, "is_reserved": 0, "lat": 38.9176575, "fusion_lon": 0.0, "is_disabled": 0}, {"rental_uris": {"android": "https://dc.lft.to/lastmile_qr_scan", "ios": "https://dc.lft.to/lastmile_qr_scan"}, "type": "electric_scooter", "lon": -77.020528, "name": "076cd307fc869822939931a47d00509f", "bike_id": "076cd307fc869822939931a47d00509f", "fusion_lat": 0.0, "is_reserved": 0, "lat": 38.958724, "fusion_lon": 0.0, "is_disabled": 0}, {"rental_uris": {"android": "https://dc.lft.to/lastmile_qr_scan", "ios": "https://dc.lft.to/lastmile_qr_scan"}, "type": "electric_scooter", "lon": -77.01822866666667, "name": "641ac8a8383b343f7305e442f6b2e185", "bike_id": "641ac8a8383b343f7305e442f6b2e185", "fusion_lat": 0.0, "is_reserved": 0, "lat": 38.91948583333333, "fusion_lon": 0.0, "is_disabled": 0}, {"rental_uris": {"android": "https://dc.lft.to/lastmile_qr_scan", "ios": "https://dc.lft.to/lastmile_qr_scan"}, "type": "electric_scooter", "lon": -77.03035483333333, "name": "c8ee4efdd28beddca8f00b528724a388", "bike_id": "c8ee4efdd28beddca8f00b528724a388", "fusion_lat": 0.0, "is_reserved": 0, "lat": 38.939752666666664, "fusion_lon": 0.0, "is_disabled": 0}, {"rental_uris": {"android": "https://dc.lft.to/lastmile_qr_scan", "ios": "https://dc.lft.to/lastmile_qr_scan"}, "type": "electric_bike", "lon": -77.027797, "name": "fa99c4dbecd6edd6dbb8ef9419f8d375", "bike_id": "fa99c4dbecd6edd6dbb8ef9419f8d375", "fusion_lat": 0.0, "is_reserved": 0, "lat": 38.96522566666667, "fusion_lon": 0.0, "is_disabled": 0}, {"rental_uris": {"android": "https://dc.lft.to/lastmile_qr_scan", "ios": "https://dc.lft.to/lastmile_qr_scan"}, "type": "electric_bike", "lon": -76.9721885, "name": "d23656428771b70fde8dd16243769872", "bike_id": "d23656428771b70fde8dd16243769872", "fusion_lat": 0.0, "is_reserved": 0, "lat": 38.84478416666666, "fusion_lon": 0.0, "is_disabled": 0}, {"rental_uris": {"android": "https://dc.lft.to/lastmile_qr_scan", "ios": "https://dc.lft.to/lastmile_qr_scan"}, "type": "electric_scooter", "lon": -77.038422, "name": "448b267ead1e8c6cabad36deabd32112", "bike_id": "448b267ead1e8c6cabad36deabd32112", "fusion_lat": 0.0, "is_reserved": 0, "lat": 38.915585666666665, "fusion_lon": 0.0, "is_disabled": 0}, {"rental_uris": {"android": "https://dc.lft.to/lastmile_qr_scan", "ios": "https://dc.lft.to/lastmile_qr_scan"}, "type": "electric_scooter", "lon": -77.06761, "name": "928731c7e60f948f2c0b6f5718410d0f", "bike_id": "928731c7e60f948f2c0b6f5718410d0f", "fusion_lat": 0.0, "is_reserved": 0, "lat": 38.9497685, "fusion_lon": 0.0, "is_disabled": 0}, {"rental_uris": {"android": "https://dc.lft.to/lastmile_qr_scan", "ios": "https://dc.lft.to/lastmile_qr_scan"}, "type": "electric_scooter", "lon": -77.04540983333334, "name": "3f83e6039f42cb54ccf255105f1126f9", "bike_id": "3f83e6039f42cb54ccf255105f1126f9", "fusion_lat": 0.0, "is_reserved": 0, "lat": 38.9204945, "fusion_lon": 0.0, "is_disabled": 0}, {"rental_uris": {"android": "https://dc.lft.to/lastmile_qr_scan", "ios": "https://dc.lft.to/lastmile_qr_scan"}, "type": "electric_scooter", "lon": -77.04154516666667, "name": "907b76bccca4edf765c2d4a01cd4bdf9", "bike_id": "907b76bccca4edf765c2d4a01cd4bdf9", "fusion_lat": 0.0, "is_reserved": 0, "lat": 38.91420866666667, "fusion_lon": 0.0, "is_disabled": 0}, {"rental_uris": {"android": "https://dc.lft.to/lastmile_qr_scan", "ios": "https://dc.lft.to/lastmile_qr_scan"}, "type": "electric_scooter", "lon": -77.03517466666666, "name": "d88a911d7ef4a52f95a694a04beeb183", "bike_id": "d88a911d7ef4a52f95a694a04beeb183", "fusion_lat": 0.0, "is_reserved": 0, "lat": 38.9214385, "fusion_lon": 0.0, "is_disabled": 0}, {"rental_uris": {"android": "https://dc.lft.to/lastmile_qr_scan", "ios": "https://dc.lft.to/lastmile_qr_scan"}, "type": "electric_scooter", "lon": -77.03207833333333, "name": "8ea0e7646353f17abd6cc72a50e3e2c3", "bike_id": "8ea0e7646353f17abd6cc72a50e3e2c3", "fusion_lat": 0.0, "is_reserved": 0, "lat": 38.93966866666667, "fusion_lon": 0.0, "is_disabled": 0}, {"rental_uris": {"android": "https://dc.lft.to/lastmile_qr_scan", "ios": "https://dc.lft.to/lastmile_qr_scan"}, "type": "electric_scooter", "lon": -77.02156016666666, "name": "65cfd02cc9b08f4c1d737a97fb2157da", "bike_id": "65cfd02cc9b08f4c1d737a97fb2157da", "fusion_lat": 0.0, "is_reserved": 0, "lat": 38.92601783333333, "fusion_lon": 0.0, "is_disabled": 0}, {"rental_uris": {"android": "https://dc.lft.to/lastmile_qr_scan", "ios": "https://dc.lft.to/lastmile_qr_scan"}, "type": "electric_scooter", "lon": -77.02593083333333, "name": "2830fb4cd33dde7e4d5d3476a46c3900", "bike_id": "2830fb4cd33dde7e4d5d3476a46c3900", "fusion_lat": 0.0, "is_reserved": 0, "lat": 38.90837916666667, "fusion_lon": 0.0, "is_disabled": 0}, {"rental_uris": {"android": "https://dc.lft.to/lastmile_qr_scan", "ios": "https://dc.lft.to/lastmile_qr_scan"}, "type": "electric_scooter", "lon": -77.03065866666667, "name": "1aacbbe0e9fa32690f30ae5f683becef", "bike_id": "1aacbbe0e9fa32690f30ae5f683becef", "fusion_lat": 0.0, "is_reserved": 0, "lat": 38.880431333333334, "fusion_lon": 0.0, "is_disabled": 0}, {"rental_uris": {"android": "https://dc.lft.to/lastmile_qr_scan", "ios": "https://dc.lft.to/lastmile_qr_scan"}, "type": "electric_bike", "lon": -77.13181533333334, "name": "933d16895caf45afa4598d0556de6770", "bike_id": "933d16895caf45afa4598d0556de6770", "fusion_lat": 0.0, "is_reserved": 0, "lat": 38.869058833333334, "fusion_lon": 0.0, "is_disabled": 0}, {"rental_uris": {"android": "https://dc.lft.to/lastmile_qr_scan", "ios": "https://dc.lft.to/lastmile_qr_scan"}, "type": "electric_bike", "lon": -76.997622, "name": "17eb6c4d4df46961f42d4d3ed9cf9b6e", "bike_id": "17eb6c4d4df46961f42d4d3ed9cf9b6e", "fusion_lat": 0.0, "is_reserved": 0, "lat": 39.00592066666667, "fusion_lon": 0.0, "is_disabled": 0}, {"rental_uris": {"android": "https://dc.lft.to/lastmile_qr_scan", "ios": "https://dc.lft.to/lastmile_qr_scan"}, "type": "electric_scooter", "lon": -77.04673583333333, "name": "3747d4123669f177b6737d58f0bf7a99", "bike_id": "3747d4123669f177b6737d58f0bf7a99", "fusion_lat": 0.0, "is_reserved": 0, "lat": 38.91567416666667, "fusion_lon": 0.0, "is_disabled": 0}, {"rental_uris": {"android": "https://dc.lft.to/lastmile_qr_scan", "ios": "https://dc.lft.to/lastmile_qr_scan"}, "type": "electric_scooter", "lon": -76.991362, "name": "936360395da35001b85251b1672795e5", "bike_id": "936360395da35001b85251b1672795e5", "fusion_lat": 0.0, "is_reserved": 0, "lat": 38.87904533333333, "fusion_lon": 0.0, "is_disabled": 0}, {"rental_uris": {"android": "https://dc.lft.to/lastmile_qr_scan", "ios": "https://dc.lft.to/lastmile_qr_scan"}, "type": "electric_scooter", "lon": -76.92958366666667, "name": "7bfd38d4dc62da38f72f0121ccfeb719", "bike_id": "7bfd38d4dc62da38f72f0121ccfeb719", "fusion_lat": 0.0, "is_reserved": 0, "lat": 38.89875116666666, "fusion_lon": 0.0, "is_disabled": 0}, {"rental_uris": {"android": "https://dc.lft.to/lastmile_qr_scan", "ios": "https://dc.lft.to/lastmile_qr_scan"}, "type": "electric_scooter", "lon": -77.05016, "name": "9ca5c939560d74cbc2b282309873bc4e", "bike_id": "9ca5c939560d74cbc2b282309873bc4e", "fusion_lat": 0.0, "is_reserved": 0, "lat": 38.900948, "fusion_lon": 0.0, "is_disabled": 0}, {"rental_uris": {"android": "https://dc.lft.to/lastmile_qr_scan", "ios": "https://dc.lft.to/lastmile_qr_scan"}, "type": "electric_scooter", "lon": -77.038557, "name": "36538148eb6b81d5a10b48ffe0256742", "bike_id": "36538148eb6b81d5a10b48ffe0256742", "fusion_lat": 0.0, "is_reserved": 0, "lat": 38.915377666666664, "fusion_lon": 0.0, "is_disabled": 0}, {"rental_uris": {"android": "https://dc.lft.to/lastmile_qr_scan", "ios": "https://dc.lft.to/lastmile_qr_scan"}, "type": "electric_scooter", "lon": -77.03417216666666, "name": "11eb04a102116064a5ac843ddb7404fc", "bike_id": "11eb04a102116064a5ac843ddb7404fc", "fusion_lat": 0.0, "is_reserved": 0, "lat": 38.92942683333333, "fusion_lon": 0.0, "is_disabled": 0}, {"rental_uris": {"android": "https://dc.lft.to/lastmile_qr_scan", "ios": "https://dc.lft.to/lastmile_qr_scan"}, "type": "electric_scooter", "lon": -77.012079, "name": "35edd014623f4315d2260eec173da7ad", "bike_id": "35edd014623f4315d2260eec173da7ad", "fusion_lat": 0.0, "is_reserved": 0, "lat": 38.893313, "fusion_lon": 0.0, "is_disabled": 0}, {"rental_uris": {"android": "https://dc.lft.to/lastmile_qr_scan", "ios": "https://dc.lft.to/lastmile_qr_scan"}, "type": "electric_scooter", "lon": -77.00385083333333, "name": "6a828ebd5688f1eec6dbf2f25818a6ee", "bike_id": "6a828ebd5688f1eec6dbf2f25818a6ee", "fusion_lat": 0.0, "is_reserved": 0, "lat": 38.897303666666666, "fusion_lon": 0.0, "is_disabled": 0}, {"rental_uris": {"android": "https://dc.lft.to/lastmile_qr_scan", "ios": "https://dc.lft.to/lastmile_qr_scan"}, "type": "electric_scooter", "lon": -77.03661433333333, "name": "ac6232ba06a5656b03b7c55c332a680f", "bike_id": "ac6232ba06a5656b03b7c55c332a680f", "fusion_lat": 0.0, "is_reserved": 0, "lat": 38.920969166666666, "fusion_lon": 0.0, "is_disabled": 0}, {"rental_uris": {"android": "https://dc.lft.to/lastmile_qr_scan", "ios": "https://dc.lft.to/lastmile_qr_scan"}, "type": "electric_scooter", "lon": -77.02595666666667, "name": "a86e98c84e1d30536772a3c4044feeeb", "bike_id": "a86e98c84e1d30536772a3c4044feeeb", "fusion_lat": 0.0, "is_reserved": 0, "lat": 38.897073166666665, "fusion_lon": 0.0, "is_disabled": 0}, {"rental_uris": {"android": "https://dc.lft.to/lastmile_qr_scan", "ios": "https://dc.lft.to/lastmile_qr_scan"}, "type": "electric_scooter", "lon": -77.0348155, "name": "84e96df5fdf873ee8b34422f60903936", "bike_id": "84e96df5fdf873ee8b34422f60903936", "fusion_lat": 0.0, "is_reserved": 0, "lat": 38.902686, "fusion_lon": 0.0, "is_disabled": 0}, {"rental_uris": {"android": "https://dc.lft.to/lastmile_qr_scan", "ios": "https://dc.lft.to/lastmile_qr_scan"}, "type": "electric_bike", "lon": -76.9973875, "name": "d2e8b94866fe708ed0f3f9e611053c6a", "bike_id": "d2e8b94866fe708ed0f3f9e611053c6a", "fusion_lat": 0.0, "is_reserved": 0, "lat": 38.8908725, "fusion_lon": 0.0, "is_disabled": 0}, {"rental_uris": {"android": "https://dc.lft.to/lastmile_qr_scan", "ios": "https://dc.lft.to/lastmile_qr_scan"}, "type": "electric_scooter", "lon": -77.0344425, "name": "8bbf0e2e924547d09ab9c9e9d718c08b", "bike_id": "8bbf0e2e924547d09ab9c9e9d718c08b", "fusion_lat": 0.0, "is_reserved": 0, "lat": 38.918036, "fusion_lon": 0.0, "is_disabled": 0}, {"rental_uris": {"android": "https://dc.lft.to/lastmile_qr_scan", "ios": "https://dc.lft.to/lastmile_qr_scan"}, "type": "electric_scooter", "lon": -77.03176066666667, "name": "ebd9cbd1d65a028ca9f49e0e55b42274", "bike_id": "ebd9cbd1d65a028ca9f49e0e55b42274", "fusion_lat": 0.0, "is_reserved": 0, "lat": 38.914157833333334, "fusion_lon": 0.0, "is_disabled": 0}, {"rental_uris": {"android": "https://dc.lft.to/lastmile_qr_scan", "ios": "https://dc.lft.to/lastmile_qr_scan"}, "type": "electric_scooter", "lon": -77.0088095, "name": "e12c9a720bff75eda70b08fc586183d3", "bike_id": "e12c9a720bff75eda70b08fc586183d3", "fusion_lat": 0.0, "is_reserved": 0, "lat": 38.87627116666667, "fusion_lon": 0.0, "is_disabled": 0}, {"rental_uris": {"android": "https://dc.lft.to/lastmile_qr_scan", "ios": "https://dc.lft.to/lastmile_qr_scan"}, "type": "electric_scooter", "lon": -77.012077, "name": "3dc4596c99121d7fdd5e0505939a8358", "bike_id": "3dc4596c99121d7fdd5e0505939a8358", "fusion_lat": 0.0, "is_reserved": 0, "lat": 38.87150616666667, "fusion_lon": 0.0, "is_disabled": 0}, {"rental_uris": {"android": "https://dc.lft.to/lastmile_qr_scan", "ios": "https://dc.lft.to/lastmile_qr_scan"}, "type": "electric_scooter", "lon": -76.99906833333333, "name": "9595c3165e45af5f4ea09c635f857307", "bike_id": "9595c3165e45af5f4ea09c635f857307", "fusion_lat": 0.0, "is_reserved": 0, "lat": 38.900196, "fusion_lon": 0.0, "is_disabled": 0}, {"rental_uris": {"android": "https://dc.lft.to/lastmile_qr_scan", "ios": "https://dc.lft.to/lastmile_qr_scan"}, "type": "electric_scooter", "lon": -77.04179233333333, "name": "c419d58246f369551417bb8698bc0f81", "bike_id": "c419d58246f369551417bb8698bc0f81", "fusion_lat": 0.0, "is_reserved": 0, "lat": 38.91970166666667, "fusion_lon": 0.0, "is_disabled": 0}, {"rental_uris": {"android": "https://dc.lft.to/lastmile_qr_scan", "ios": "https://dc.lft.to/lastmile_qr_scan"}, "type": "electric_scooter", "lon": -77.03888233333333, "name": "542f2f91e8b6b63d22cf2ee912b68f83", "bike_id": "542f2f91e8b6b63d22cf2ee912b68f83", "fusion_lat": 0.0, "is_reserved": 0, "lat": 38.91484283333333, "fusion_lon": 0.0, "is_disabled": 0}, {"rental_uris": {"android": "https://dc.lft.to/lastmile_qr_scan", "ios": "https://dc.lft.to/lastmile_qr_scan"}, "type": "electric_scooter", "lon": -76.991522, "name": "3e0c483da66fbe90a726b30df6975bf3", "bike_id": "3e0c483da66fbe90a726b30df6975bf3", "fusion_lat": 0.0, "is_reserved": 0, "lat": 38.87316283333333, "fusion_lon": 0.0, "is_disabled": 0}, {"rental_uris": {"android": "https://dc.lft.to/lastmile_qr_scan", "ios": "https://dc.lft.to/lastmile_qr_scan"}, "type": "electric_scooter", "lon": -77.02722333333334, "name": "5a4d537968dd3fbb10ffe642bd772eb6", "bike_id": "5a4d537968dd3fbb10ffe642bd772eb6", "fusion_lat": 0.0, "is_reserved": 0, "lat": 38.93449416666667, "fusion_lon": 0.0, "is_disabled": 0}, {"rental_uris": {"android": "https://dc.lft.to/lastmile_qr_scan", "ios": "https://dc.lft.to/lastmile_qr_scan"}, "type": "electric_scooter", "lon": -77.01210533333334, "name": "5ed01215279ab9258f79cd3241439b2c", "bike_id": "5ed01215279ab9258f79cd3241439b2c", "fusion_lat": 0.0, "is_reserved": 0, "lat": 38.918247666666666, "fusion_lon": 0.0, "is_disabled": 0}, {"rental_uris": {"android": "https://dc.lft.to/lastmile_qr_scan", "ios": "https://dc.lft.to/lastmile_qr_scan"}, "type": "electric_scooter", "lon": -77.00281383333333, "name": "3c2dbea948a742a991f141af0f25db53", "bike_id": "3c2dbea948a742a991f141af0f25db53", "fusion_lat": 0.0, "is_reserved": 0, "lat": 38.939181, "fusion_lon": 0.0, "is_disabled": 0}, {"rental_uris": {"android": "https://dc.lft.to/lastmile_qr_scan", "ios": "https://dc.lft.to/lastmile_qr_scan"}, "type": "electric_scooter", "lon": -76.93740266666667, "name": "163c2d661f7754612eb02eac4270d8ae", "bike_id": "163c2d661f7754612eb02eac4270d8ae", "fusion_lat": 0.0, "is_reserved": 0, "lat": 38.890149666666666, "fusion_lon": 0.0, "is_disabled": 0}, {"rental_uris": {"android": "https://dc.lft.to/lastmile_qr_scan", "ios": "https://dc.lft.to/lastmile_qr_scan"}, "type": "electric_bike", "lon": -76.93188533333333, "name": "40a808381b5445a3ebcc673ed2ddfdd7", "bike_id": "40a808381b5445a3ebcc673ed2ddfdd7", "fusion_lat": 0.0, "is_reserved": 0, "lat": 38.898471, "fusion_lon": 0.0, "is_disabled": 0}, {"rental_uris": {"android": "https://dc.lft.to/lastmile_qr_scan", "ios": "https://dc.lft.to/lastmile_qr_scan"}, "type": "electric_scooter", "lon": -76.97411583333333, "name": "880a2d73554028afb37b54f5e1599f66", "bike_id": "880a2d73554028afb37b54f5e1599f66", "fusion_lat": 0.0, "is_reserved": 0, "lat": 38.865558666666665, "fusion_lon": 0.0, "is_disabled": 0}, {"rental_uris": {"android": "https://dc.lft.to/lastmile_qr_scan", "ios": "https://dc.lft.to/lastmile_qr_scan"}, "type": "electric_scooter", "lon": -76.99083683333333, "name": "378c00f18040a0948abde0c61fc42fe4", "bike_id": "378c00f18040a0948abde0c61fc42fe4", "fusion_lat": 0.0, "is_reserved": 0, "lat": 38.900244, "fusion_lon": 0.0, "is_disabled": 0}, {"rental_uris": {"android": "https://dc.lft.to/lastmile_qr_scan", "ios": "https://dc.lft.to/lastmile_qr_scan"}, "type": "electric_scooter", "lon": -77.03788516666667, "name": "5f9af005ef155cb205045eea95b79c38", "bike_id": "5f9af005ef155cb205045eea95b79c38", "fusion_lat": 0.0, "is_reserved": 0, "lat": 38.92470983333333, "fusion_lon": 0.0, "is_disabled": 0}, {"rental_uris": {"android": "https://dc.lft.to/lastmile_qr_scan", "ios": "https://dc.lft.to/lastmile_qr_scan"}, "type": "electric_scooter", "lon": -77.0329945, "name": "671960da9ee6563b6f57582a09beccf2", "bike_id": "671960da9ee6563b6f57582a09beccf2", "fusion_lat": 0.0, "is_reserved": 0, "lat": 38.9084275, "fusion_lon": 0.0, "is_disabled": 0}, {"rental_uris": {"android": "https://dc.lft.to/lastmile_qr_scan", "ios": "https://dc.lft.to/lastmile_qr_scan"}, "type": "electric_scooter", "lon": -77.03351683333334, "name": "19f1bb6b686a95fecf05bb506914d18b", "bike_id": "19f1bb6b686a95fecf05bb506914d18b", "fusion_lat": 0.0, "is_reserved": 0, "lat": 38.92058766666667, "fusion_lon": 0.0, "is_disabled": 0}, {"rental_uris": {"android": "https://dc.lft.to/lastmile_qr_scan", "ios": "https://dc.lft.to/lastmile_qr_scan"}, "type": "electric_scooter", "lon": -77.04255016666667, "name": "2cd3253fb4a03817fe057673dc44e211", "bike_id": "2cd3253fb4a03817fe057673dc44e211", "fusion_lat": 0.0, "is_reserved": 0, "lat": 38.917963666666665, "fusion_lon": 0.0, "is_disabled": 0}, {"rental_uris": {"android": "https://dc.lft.to/lastmile_qr_scan", "ios": "https://dc.lft.to/lastmile_qr_scan"}, "type": "electric_bike", "lon": -76.91122733333333, "name": "538d81be6907093919abb2c498af5c7f", "bike_id": "538d81be6907093919abb2c498af5c7f", "fusion_lat": 0.0, "is_reserved": 0, "lat": 39.01037266666667, "fusion_lon": 0.0, "is_disabled": 0}, {"rental_uris": {"android": "https://dc.lft.to/lastmile_qr_scan", "ios": "https://dc.lft.to/lastmile_qr_scan"}, "type": "electric_scooter", "lon": -77.043413, "name": "5e251443d8b1ff0acf62635a87873cbc", "bike_id": "5e251443d8b1ff0acf62635a87873cbc", "fusion_lat": 0.0, "is_reserved": 0, "lat": 38.913759166666665, "fusion_lon": 0.0, "is_disabled": 0}, {"rental_uris": {"android": "https://dc.lft.to/lastmile_qr_scan", "ios": "https://dc.lft.to/lastmile_qr_scan"}, "type": "electric_scooter", "lon": -77.013533, "name": "5b2ca32feeb678d2e411ceb8f8f37a03", "bike_id": "5b2ca32feeb678d2e411ceb8f8f37a03", "fusion_lat": 0.0, "is_reserved": 0, "lat": 38.903872, "fusion_lon": 0.0, "is_disabled": 0}, {"rental_uris": {"android": "https://dc.lft.to/lastmile_qr_scan", "ios": "https://dc.lft.to/lastmile_qr_scan"}, "type": "electric_scooter", "lon": -77.036593, "name": "cb4b9636835550bee56a1cacb5a69d56", "bike_id": "cb4b9636835550bee56a1cacb5a69d56", "fusion_lat": 0.0, "is_reserved": 0, "lat": 38.921371, "fusion_lon": 0.0, "is_disabled": 0}, {"rental_uris": {"android": "https://dc.lft.to/lastmile_qr_scan", "ios": "https://dc.lft.to/lastmile_qr_scan"}, "type": "electric_scooter", "lon": -77.03868083333333, "name": "df22fe5f21e4493e294ea71f885483e6", "bike_id": "df22fe5f21e4493e294ea71f885483e6", "fusion_lat": 0.0, "is_reserved": 0, "lat": 38.911948833333334, "fusion_lon": 0.0, "is_disabled": 0}, {"rental_uris": {"android": "https://dc.lft.to/lastmile_qr_scan", "ios": "https://dc.lft.to/lastmile_qr_scan"}, "type": "electric_bike", "lon": -77.0241835, "name": "3596ebc716b83f5aa25dbb8fb07562c6", "bike_id": "3596ebc716b83f5aa25dbb8fb07562c6", "fusion_lat": 0.0, "is_reserved": 0, "lat": 38.9490785, "fusion_lon": 0.0, "is_disabled": 0}, {"rental_uris": {"android": "https://dc.lft.to/lastmile_qr_scan", "ios": "https://dc.lft.to/lastmile_qr_scan"}, "type": "electric_scooter", "lon": -76.99014433333333, "name": "98c774b972c579454f8eadf992328180", "bike_id": "98c774b972c579454f8eadf992328180", "fusion_lat": 0.0, "is_reserved": 0, "lat": 38.9113845, "fusion_lon": 0.0, "is_disabled": 0}, {"rental_uris": {"android": "https://dc.lft.to/lastmile_qr_scan", "ios": "https://dc.lft.to/lastmile_qr_scan"}, "type": "electric_scooter", "lon": -77.01040866666666, "name": "a29b6944a6c5d1c01e5203014a909591", "bike_id": "a29b6944a6c5d1c01e5203014a909591", "fusion_lat": 0.0, "is_reserved": 0, "lat": 38.884487, "fusion_lon": 0.0, "is_disabled": 0}, {"rental_uris": {"android": "https://dc.lft.to/lastmile_qr_scan", "ios": "https://dc.lft.to/lastmile_qr_scan"}, "type": "electric_scooter", "lon": -77.0257085, "name": "09937d214a8632bb6bf5d88176983182", "bike_id": "09937d214a8632bb6bf5d88176983182", "fusion_lat": 0.0, "is_reserved": 0, "lat": 38.925740166666664, "fusion_lon": 0.0, "is_disabled": 0}, {"rental_uris": {"android": "https://dc.lft.to/lastmile_qr_scan", "ios": "https://dc.lft.to/lastmile_qr_scan"}, "type": "electric_scooter", "lon": -77.05275016666667, "name": "67289a113934cda1342f139bcd51b063", "bike_id": "67289a113934cda1342f139bcd51b063", "fusion_lat": 0.0, "is_reserved": 0, "lat": 38.9275925, "fusion_lon": 0.0, "is_disabled": 0}, {"rental_uris": {"android": "https://dc.lft.to/lastmile_qr_scan", "ios": "https://dc.lft.to/lastmile_qr_scan"}, "type": "electric_scooter", "lon": -76.97909216666666, "name": "bb3d44f7f4d4b47e92c1382f3270d7a4", "bike_id": "bb3d44f7f4d4b47e92c1382f3270d7a4", "fusion_lat": 0.0, "is_reserved": 0, "lat": 38.9039125, "fusion_lon": 0.0, "is_disabled": 0}, {"rental_uris": {"android": "https://dc.lft.to/lastmile_qr_scan", "ios": "https://dc.lft.to/lastmile_qr_scan"}, "type": "electric_scooter", "lon": -76.94305233333333, "name": "63dc9295dc021f84a10f38e39ffc330f", "bike_id": "63dc9295dc021f84a10f38e39ffc330f", "fusion_lat": 0.0, "is_reserved": 0, "lat": 38.890889, "fusion_lon": 0.0, "is_disabled": 0}, {"rental_uris": {"android": "https://dc.lft.to/lastmile_qr_scan", "ios": "https://dc.lft.to/lastmile_qr_scan"}, "type": "electric_scooter", "lon": -76.98593733333334, "name": "27ee50e87e5d180b44a058600145e5e5", "bike_id": "27ee50e87e5d180b44a058600145e5e5", "fusion_lat": 0.0, "is_reserved": 0, "lat": 38.8896775, "fusion_lon": 0.0, "is_disabled": 0}, {"rental_uris": {"android": "https://dc.lft.to/lastmile_qr_scan", "ios": "https://dc.lft.to/lastmile_qr_scan"}, "type": "electric_scooter", "lon": -77.03175283333333, "name": "8804f92690da691ed6d37189ac9d39c2", "bike_id": "8804f92690da691ed6d37189ac9d39c2", "fusion_lat": 0.0, "is_reserved": 0, "lat": 38.91895866666667, "fusion_lon": 0.0, "is_disabled": 0}, {"rental_uris": {"android": "https://dc.lft.to/lastmile_qr_scan", "ios": "https://dc.lft.to/lastmile_qr_scan"}, "type": "electric_bike", "lon": -76.93413816666667, "name": "187e93120449ad207f3b5c5631c6a7f0", "bike_id": "187e93120449ad207f3b5c5631c6a7f0", "fusion_lat": 0.0, "is_reserved": 0, "lat": 38.946226833333334, "fusion_lon": 0.0, "is_disabled": 0}, {"rental_uris": {"android": "https://dc.lft.to/lastmile_qr_scan", "ios": "https://dc.lft.to/lastmile_qr_scan"}, "type": "electric_scooter", "lon": -76.97348633333333, "name": "453bb1a3b085d909c17fa79a10a7261f", "bike_id": "453bb1a3b085d909c17fa79a10a7261f", "fusion_lat": 0.0, "is_reserved": 0, "lat": 38.865125666666664, "fusion_lon": 0.0, "is_disabled": 0}, {"rental_uris": {"android": "https://dc.lft.to/lastmile_qr_scan", "ios": "https://dc.lft.to/lastmile_qr_scan"}, "type": "electric_scooter", "lon": -76.92405133333334, "name": "f6e5d46028340558e00c2361f346cc1f", "bike_id": "f6e5d46028340558e00c2361f346cc1f", "fusion_lat": 0.0, "is_reserved": 0, "lat": 38.88986633333333, "fusion_lon": 0.0, "is_disabled": 0}, {"rental_uris": {"android": "https://dc.lft.to/lastmile_qr_scan", "ios": "https://dc.lft.to/lastmile_qr_scan"}, "type": "electric_scooter", "lon": -77.02308983333333, "name": "053f4b2572afbc68fab55fd0d7ba5a3c", "bike_id": "053f4b2572afbc68fab55fd0d7ba5a3c", "fusion_lat": 0.0, "is_reserved": 0, "lat": 38.9288535, "fusion_lon": 0.0, "is_disabled": 0}, {"rental_uris": {"android": "https://dc.lft.to/lastmile_qr_scan", "ios": "https://dc.lft.to/lastmile_qr_scan"}, "type": "electric_scooter", "lon": -77.02716316666667, "name": "32d187ca72dff7813f7ca78926c968a6", "bike_id": "32d187ca72dff7813f7ca78926c968a6", "fusion_lat": 0.0, "is_reserved": 0, "lat": 38.9090805, "fusion_lon": 0.0, "is_disabled": 0}, {"rental_uris": {"android": "https://dc.lft.to/lastmile_qr_scan", "ios": "https://dc.lft.to/lastmile_qr_scan"}, "type": "electric_scooter", "lon": -77.02954533333333, "name": "8ebc98876215f82eb007ecb9173fbe9e", "bike_id": "8ebc98876215f82eb007ecb9173fbe9e", "fusion_lat": 0.0, "is_reserved": 0, "lat": 38.893232166666664, "fusion_lon": 0.0, "is_disabled": 0}, {"rental_uris": {"android": "https://dc.lft.to/lastmile_qr_scan", "ios": "https://dc.lft.to/lastmile_qr_scan"}, "type": "electric_scooter", "lon": -77.022142, "name": "cb831c32c994cb060a653577c0aa0954", "bike_id": "cb831c32c994cb060a653577c0aa0954", "fusion_lat": 0.0, "is_reserved": 0, "lat": 38.90576216666667, "fusion_lon": 0.0, "is_disabled": 0}, {"rental_uris": {"android": "https://dc.lft.to/lastmile_qr_scan", "ios": "https://dc.lft.to/lastmile_qr_scan"}, "type": "electric_scooter", "lon": -76.99162433333333, "name": "32e78ef574cab4289824a4b510ae4ff9", "bike_id": "32e78ef574cab4289824a4b510ae4ff9", "fusion_lat": 0.0, "is_reserved": 0, "lat": 38.87917683333333, "fusion_lon": 0.0, "is_disabled": 0}, {"rental_uris": {"android": "https://dc.lft.to/lastmile_qr_scan", "ios": "https://dc.lft.to/lastmile_qr_scan"}, "type": "electric_scooter", "lon": -77.0470905, "name": "c2b1d50e16664d875443c5271ac6d565", "bike_id": "c2b1d50e16664d875443c5271ac6d565", "fusion_lat": 0.0, "is_reserved": 0, "lat": 38.912572, "fusion_lon": 0.0, "is_disabled": 0}, {"rental_uris": {"android": "https://dc.lft.to/lastmile_qr_scan", "ios": "https://dc.lft.to/lastmile_qr_scan"}, "type": "electric_scooter", "lon": -77.038783, "name": "2bb46f1c9f87982b15ef5381f0c67a1a", "bike_id": "2bb46f1c9f87982b15ef5381f0c67a1a", "fusion_lat": 0.0, "is_reserved": 0, "lat": 38.934279833333335, "fusion_lon": 0.0, "is_disabled": 0}, {"rental_uris": {"android": "https://dc.lft.to/lastmile_qr_scan", "ios": "https://dc.lft.to/lastmile_qr_scan"}, "type": "electric_scooter", "lon": -77.05013133333334, "name": "325bd74c463d702d040a0d4c7a82fc00", "bike_id": "325bd74c463d702d040a0d4c7a82fc00", "fusion_lat": 0.0, "is_reserved": 0, "lat": 38.9076275, "fusion_lon": 0.0, "is_disabled": 0}, {"rental_uris": {"android": "https://dc.lft.to/lastmile_qr_scan", "ios": "https://dc.lft.to/lastmile_qr_scan"}, "type": "electric_scooter", "lon": -77.02656883333333, "name": "225e8b6b27c7d11e80b721fc1d88288a", "bike_id": "225e8b6b27c7d11e80b721fc1d88288a", "fusion_lat": 0.0, "is_reserved": 0, "lat": 38.90256083333333, "fusion_lon": 0.0, "is_disabled": 0}, {"rental_uris": {"android": "https://dc.lft.to/lastmile_qr_scan", "ios": "https://dc.lft.to/lastmile_qr_scan"}, "type": "electric_bike", "lon": -77.10713683333333, "name": "7778676ad14d8a031650c695f0d262a8", "bike_id": "7778676ad14d8a031650c695f0d262a8", "fusion_lat": 0.0, "is_reserved": 0, "lat": 38.855494166666666, "fusion_lon": 0.0, "is_disabled": 0}, {"rental_uris": {"android": "https://dc.lft.to/lastmile_qr_scan", "ios": "https://dc.lft.to/lastmile_qr_scan"}, "type": "electric_scooter", "lon": -77.02122516666667, "name": "dadd151f3d06c76389b67877bf91bb23", "bike_id": "dadd151f3d06c76389b67877bf91bb23", "fusion_lat": 0.0, "is_reserved": 0, "lat": 38.93014483333333, "fusion_lon": 0.0, "is_disabled": 0}, {"rental_uris": {"android": "https://dc.lft.to/lastmile_qr_scan", "ios": "https://dc.lft.to/lastmile_qr_scan"}, "type": "electric_bike", "lon": -77.0512055, "name": "0d5a717be6a825c0d4750d35acf06dee", "bike_id": "0d5a717be6a825c0d4750d35acf06dee", "fusion_lat": 0.0, "is_reserved": 0, "lat": 38.94558, "fusion_lon": 0.0, "is_disabled": 0}, {"rental_uris": {"android": "https://dc.lft.to/lastmile_qr_scan", "ios": "https://dc.lft.to/lastmile_qr_scan"}, "type": "electric_scooter", "lon": -77.02976366666667, "name": "0294e65e934eaaa31d9fea3630b65b46", "bike_id": "0294e65e934eaaa31d9fea3630b65b46", "fusion_lat": 0.0, "is_reserved": 0, "lat": 38.94066766666667, "fusion_lon": 0.0, "is_disabled": 0}, {"rental_uris": {"android": "https://dc.lft.to/lastmile_qr_scan", "ios": "https://dc.lft.to/lastmile_qr_scan"}, "type": "electric_bike", "lon": -76.98165116666667, "name": "9552ddb43c88e037569ab03d195febbc", "bike_id": "9552ddb43c88e037569ab03d195febbc", "fusion_lat": 0.0, "is_reserved": 0, "lat": 38.88497816666667, "fusion_lon": 0.0, "is_disabled": 0}, {"rental_uris": {"android": "https://dc.lft.to/lastmile_qr_scan", "ios": "https://dc.lft.to/lastmile_qr_scan"}, "type": "electric_scooter", "lon": -77.03465833333334, "name": "aec1de6d9664ec3f171b741fd981ae5d", "bike_id": "aec1de6d9664ec3f171b741fd981ae5d", "fusion_lat": 0.0, "is_reserved": 0, "lat": 38.92151766666667, "fusion_lon": 0.0, "is_disabled": 0}, {"rental_uris": {"android": "https://dc.lft.to/lastmile_qr_scan", "ios": "https://dc.lft.to/lastmile_qr_scan"}, "type": "electric_scooter", "lon": -77.02174666666667, "name": "5fb24eed1704a8b3d5322b600d29baaf", "bike_id": "5fb24eed1704a8b3d5322b600d29baaf", "fusion_lat": 0.0, "is_reserved": 0, "lat": 38.94294133333333, "fusion_lon": 0.0, "is_disabled": 0}, {"rental_uris": {"android": "https://dc.lft.to/lastmile_qr_scan", "ios": "https://dc.lft.to/lastmile_qr_scan"}, "type": "electric_bike", "lon": -77.3609115, "name": "a728a383f19508dd32882d154898ffb0", "bike_id": "a728a383f19508dd32882d154898ffb0", "fusion_lat": 0.0, "is_reserved": 0, "lat": 38.93960833333333, "fusion_lon": 0.0, "is_disabled": 0}, {"rental_uris": {"android": "https://dc.lft.to/lastmile_qr_scan", "ios": "https://dc.lft.to/lastmile_qr_scan"}, "type": "electric_scooter", "lon": -77.04058216666667, "name": "321cb0007878fd24b1000da803c37a2d", "bike_id": "321cb0007878fd24b1000da803c37a2d", "fusion_lat": 0.0, "is_reserved": 0, "lat": 38.9000575, "fusion_lon": 0.0, "is_disabled": 0}, {"rental_uris": {"android": "https://dc.lft.to/lastmile_qr_scan", "ios": "https://dc.lft.to/lastmile_qr_scan"}, "type": "electric_scooter", "lon": -76.99013466666666, "name": "34d0d9e11bf0d80dc102b8eec88dd727", "bike_id": "34d0d9e11bf0d80dc102b8eec88dd727", "fusion_lat": 0.0, "is_reserved": 0, "lat": 38.886192333333334, "fusion_lon": 0.0, "is_disabled": 0}, {"rental_uris": {"android": "https://dc.lft.to/lastmile_qr_scan", "ios": "https://dc.lft.to/lastmile_qr_scan"}, "type": "electric_scooter", "lon": -77.035811, "name": "738c02bd79afece8a367c71e497f824c", "bike_id": "738c02bd79afece8a367c71e497f824c", "fusion_lat": 0.0, "is_reserved": 0, "lat": 38.934756666666665, "fusion_lon": 0.0, "is_disabled": 0}, {"rental_uris": {"android": "https://dc.lft.to/lastmile_qr_scan", "ios": "https://dc.lft.to/lastmile_qr_scan"}, "type": "electric_scooter", "lon": -77.014154, "name": "b08369559950be92753be8530c54ebc1", "bike_id": "b08369559950be92753be8530c54ebc1", "fusion_lat": 0.0, "is_reserved": 0, "lat": 38.87892183333334, "fusion_lon": 0.0, "is_disabled": 0}, {"rental_uris": {"android": "https://dc.lft.to/lastmile_qr_scan", "ios": "https://dc.lft.to/lastmile_qr_scan"}, "type": "electric_scooter", "lon": -77.03836516666667, "name": "e302fe4add64b5c8da37b63e54e9b1f8", "bike_id": "e302fe4add64b5c8da37b63e54e9b1f8", "fusion_lat": 0.0, "is_reserved": 0, "lat": 38.921768166666666, "fusion_lon": 0.0, "is_disabled": 0}, {"rental_uris": {"android": "https://dc.lft.to/lastmile_qr_scan", "ios": "https://dc.lft.to/lastmile_qr_scan"}, "type": "electric_scooter", "lon": -77.03295966666667, "name": "37f28a9c7afc38457e047cb58deb9b11", "bike_id": "37f28a9c7afc38457e047cb58deb9b11", "fusion_lat": 0.0, "is_reserved": 0, "lat": 38.92216716666667, "fusion_lon": 0.0, "is_disabled": 0}, {"rental_uris": {"android": "https://dc.lft.to/lastmile_qr_scan", "ios": "https://dc.lft.to/lastmile_qr_scan"}, "type": "electric_scooter", "lon": -77.0211975, "name": "f4d38d919db595f300dd2b78b14a963f", "bike_id": "f4d38d919db595f300dd2b78b14a963f", "fusion_lat": 0.0, "is_reserved": 0, "lat": 38.91737766666667, "fusion_lon": 0.0, "is_disabled": 0}, {"rental_uris": {"android": "https://dc.lft.to/lastmile_qr_scan", "ios": "https://dc.lft.to/lastmile_qr_scan"}, "type": "electric_scooter", "lon": -77.04210033333334, "name": "13a6d5ed16f7f230e76be8ec1b824b11", "bike_id": "13a6d5ed16f7f230e76be8ec1b824b11", "fusion_lat": 0.0, "is_reserved": 0, "lat": 38.91126766666667, "fusion_lon": 0.0, "is_disabled": 0}, {"rental_uris": {"android": "https://dc.lft.to/lastmile_qr_scan", "ios": "https://dc.lft.to/lastmile_qr_scan"}, "type": "electric_scooter", "lon": -77.00124116666667, "name": "b151da320a85d69df12b4cabbaec36c1", "bike_id": "b151da320a85d69df12b4cabbaec36c1", "fusion_lat": 0.0, "is_reserved": 0, "lat": 38.877896, "fusion_lon": 0.0, "is_disabled": 0}, {"rental_uris": {"android": "https://dc.lft.to/lastmile_qr_scan", "ios": "https://dc.lft.to/lastmile_qr_scan"}, "type": "electric_scooter", "lon": -77.01944783333333, "name": "7e1eab0af1d7e7b3b04586e35605d8cc", "bike_id": "7e1eab0af1d7e7b3b04586e35605d8cc", "fusion_lat": 0.0, "is_reserved": 0, "lat": 38.902716, "fusion_lon": 0.0, "is_disabled": 0}, {"rental_uris": {"android": "https://dc.lft.to/lastmile_qr_scan", "ios": "https://dc.lft.to/lastmile_qr_scan"}, "type": "electric_scooter", "lon": -77.037906, "name": "10bcf285c407d1f850d719d0d49da523", "bike_id": "10bcf285c407d1f850d719d0d49da523", "fusion_lat": 0.0, "is_reserved": 0, "lat": 38.905700833333334, "fusion_lon": 0.0, "is_disabled": 0}, {"rental_uris": {"android": "https://dc.lft.to/lastmile_qr_scan", "ios": "https://dc.lft.to/lastmile_qr_scan"}, "type": "electric_scooter", "lon": -77.03447466666667, "name": "144d69027ad6d18c42aa4d7d061f7fc7", "bike_id": "144d69027ad6d18c42aa4d7d061f7fc7", "fusion_lat": 0.0, "is_reserved": 0, "lat": 38.934320666666665, "fusion_lon": 0.0, "is_disabled": 0}, {"rental_uris": {"android": "https://dc.lft.to/lastmile_qr_scan", "ios": "https://dc.lft.to/lastmile_qr_scan"}, "type": "electric_scooter", "lon": -76.9902775, "name": "7f2a5249d9c1fd1c4694f884ea08e06e", "bike_id": "7f2a5249d9c1fd1c4694f884ea08e06e", "fusion_lat": 0.0, "is_reserved": 0, "lat": 38.8640555, "fusion_lon": 0.0, "is_disabled": 0}, {"rental_uris": {"android": "https://dc.lft.to/lastmile_qr_scan", "ios": "https://dc.lft.to/lastmile_qr_scan"}, "type": "electric_scooter", "lon": -77.04772333333334, "name": "8ec9507cfa7224ea90c560fdc77eeb90", "bike_id": "8ec9507cfa7224ea90c560fdc77eeb90", "fusion_lat": 0.0, "is_reserved": 0, "lat": 38.91753766666667, "fusion_lon": 0.0, "is_disabled": 0}, {"rental_uris": {"android": "https://dc.lft.to/lastmile_qr_scan", "ios": "https://dc.lft.to/lastmile_qr_scan"}, "type": "electric_scooter", "lon": -77.04019033333333, "name": "ebd294af1e4162b489c0f9f79de50200", "bike_id": "ebd294af1e4162b489c0f9f79de50200", "fusion_lat": 0.0, "is_reserved": 0, "lat": 38.924591166666666, "fusion_lon": 0.0, "is_disabled": 0}, {"rental_uris": {"android": "https://dc.lft.to/lastmile_qr_scan", "ios": "https://dc.lft.to/lastmile_qr_scan"}, "type": "electric_scooter", "lon": -77.03909916666667, "name": "01a75b05e3cffbdd2e6e553908b50fa2", "bike_id": "01a75b05e3cffbdd2e6e553908b50fa2", "fusion_lat": 0.0, "is_reserved": 0, "lat": 38.91420683333333, "fusion_lon": 0.0, "is_disabled": 0}, {"rental_uris": {"android": "https://dc.lft.to/lastmile_qr_scan", "ios": "https://dc.lft.to/lastmile_qr_scan"}, "type": "electric_scooter", "lon": -76.99725383333333, "name": "1f52e0e5591ce5822fcaee982649040d", "bike_id": "1f52e0e5591ce5822fcaee982649040d", "fusion_lat": 0.0, "is_reserved": 0, "lat": 38.898992, "fusion_lon": 0.0, "is_disabled": 0}, {"rental_uris": {"android": "https://dc.lft.to/lastmile_qr_scan", "ios": "https://dc.lft.to/lastmile_qr_scan"}, "type": "electric_scooter", "lon": -77.041612, "name": "f443de09413d06dc8937fc6734bbd093", "bike_id": "f443de09413d06dc8937fc6734bbd093", "fusion_lat": 0.0, "is_reserved": 0, "lat": 38.919622333333336, "fusion_lon": 0.0, "is_disabled": 0}, {"rental_uris": {"android": "https://dc.lft.to/lastmile_qr_scan", "ios": "https://dc.lft.to/lastmile_qr_scan"}, "type": "electric_scooter", "lon": -77.03051366666666, "name": "6a0208d0d5a6670eb76fdd4eda4c7708", "bike_id": "6a0208d0d5a6670eb76fdd4eda4c7708", "fusion_lat": 0.0, "is_reserved": 0, "lat": 38.88408866666666, "fusion_lon": 0.0, "is_disabled": 0}, {"rental_uris": {"android": "https://dc.lft.to/lastmile_qr_scan", "ios": "https://dc.lft.to/lastmile_qr_scan"}, "type": "electric_scooter", "lon": -77.06771833333333, "name": "b3135753de9aca00c7124ccac8040ec7", "bike_id": "b3135753de9aca00c7124ccac8040ec7", "fusion_lat": 0.0, "is_reserved": 0, "lat": 38.90364983333333, "fusion_lon": 0.0, "is_disabled": 0}, {"rental_uris": {"android": "https://dc.lft.to/lastmile_qr_scan", "ios": "https://dc.lft.to/lastmile_qr_scan"}, "type": "electric_scooter", "lon": -77.00599866666667, "name": "12d96ecc01b215774a4eede55b083c70", "bike_id": "12d96ecc01b215774a4eede55b083c70", "fusion_lat": 0.0, "is_reserved": 0, "lat": 38.90819366666667, "fusion_lon": 0.0, "is_disabled": 0}, {"rental_uris": {"android": "https://dc.lft.to/lastmile_qr_scan", "ios": "https://dc.lft.to/lastmile_qr_scan"}, "type": "electric_scooter", "lon": -77.04860966666666, "name": "4d1c9fffdd1d8a017d634ec324a1568d", "bike_id": "4d1c9fffdd1d8a017d634ec324a1568d", "fusion_lat": 0.0, "is_reserved": 0, "lat": 38.900922, "fusion_lon": 0.0, "is_disabled": 0}, {"rental_uris": {"android": "https://dc.lft.to/lastmile_qr_scan", "ios": "https://dc.lft.to/lastmile_qr_scan"}, "type": "electric_scooter", "lon": -77.0611275, "name": "c3550d84f9fa04651062c36901589249", "bike_id": "c3550d84f9fa04651062c36901589249", "fusion_lat": 0.0, "is_reserved": 0, "lat": 38.943577166666664, "fusion_lon": 0.0, "is_disabled": 0}, {"rental_uris": {"android": "https://dc.lft.to/lastmile_qr_scan", "ios": "https://dc.lft.to/lastmile_qr_scan"}, "type": "electric_scooter", "lon": -77.0140285, "name": "2af0274c315454bd44733d7104c21e0f", "bike_id": "2af0274c315454bd44733d7104c21e0f", "fusion_lat": 0.0, "is_reserved": 0, "lat": 38.928041666666665, "fusion_lon": 0.0, "is_disabled": 0}, {"rental_uris": {"android": "https://dc.lft.to/lastmile_qr_scan", "ios": "https://dc.lft.to/lastmile_qr_scan"}, "type": "electric_scooter", "lon": -77.036725, "name": "ea3a13201dc5896fbd96541d999a7a72", "bike_id": "ea3a13201dc5896fbd96541d999a7a72", "fusion_lat": 0.0, "is_reserved": 0, "lat": 38.902736833333336, "fusion_lon": 0.0, "is_disabled": 0}, {"rental_uris": {"android": "https://dc.lft.to/lastmile_qr_scan", "ios": "https://dc.lft.to/lastmile_qr_scan"}, "type": "electric_scooter", "lon": -77.02025783333333, "name": "c96c15f6adb81c6a4f29813f0c336400", "bike_id": "c96c15f6adb81c6a4f29813f0c336400", "fusion_lat": 0.0, "is_reserved": 0, "lat": 38.924415333333336, "fusion_lon": 0.0, "is_disabled": 0}, {"rental_uris": {"android": "https://dc.lft.to/lastmile_qr_scan", "ios": "https://dc.lft.to/lastmile_qr_scan"}, "type": "electric_bike", "lon": -77.0779515, "name": "c455cb8e00500c279382d428d1bd3675", "bike_id": "c455cb8e00500c279382d428d1bd3675", "fusion_lat": 0.0, "is_reserved": 0, "lat": 38.845134333333334, "fusion_lon": 0.0, "is_disabled": 0}, {"rental_uris": {"android": "https://dc.lft.to/lastmile_qr_scan", "ios": "https://dc.lft.to/lastmile_qr_scan"}, "type": "electric_scooter", "lon": -77.03283583333334, "name": "8505ece1585f5e77ec309b7723ebd5c3", "bike_id": "8505ece1585f5e77ec309b7723ebd5c3", "fusion_lat": 0.0, "is_reserved": 0, "lat": 38.9368645, "fusion_lon": 0.0, "is_disabled": 0}, {"rental_uris": {"android": "https://dc.lft.to/lastmile_qr_scan", "ios": "https://dc.lft.to/lastmile_qr_scan"}, "type": "electric_scooter", "lon": -76.98747416666667, "name": "6ae96e8bd40d412126236ff90cd3ff4d", "bike_id": "6ae96e8bd40d412126236ff90cd3ff4d", "fusion_lat": 0.0, "is_reserved": 0, "lat": 38.90799716666667, "fusion_lon": 0.0, "is_disabled": 0}, {"rental_uris": {"android": "https://dc.lft.to/lastmile_qr_scan", "ios": "https://dc.lft.to/lastmile_qr_scan"}, "type": "electric_scooter", "lon": -77.0160615, "name": "a70c5241f8336bf31f806ce375af2584", "bike_id": "a70c5241f8336bf31f806ce375af2584", "fusion_lat": 0.0, "is_reserved": 0, "lat": 38.917563666666666, "fusion_lon": 0.0, "is_disabled": 0}, {"rental_uris": {"android": "https://dc.lft.to/lastmile_qr_scan", "ios": "https://dc.lft.to/lastmile_qr_scan"}, "type": "electric_scooter", "lon": -77.03132133333334, "name": "752c5d86dfa26d47291d8b5b0a46d07b", "bike_id": "752c5d86dfa26d47291d8b5b0a46d07b", "fusion_lat": 0.0, "is_reserved": 0, "lat": 38.923734333333336, "fusion_lon": 0.0, "is_disabled": 0}, {"rental_uris": {"android": "https://dc.lft.to/lastmile_qr_scan", "ios": "https://dc.lft.to/lastmile_qr_scan"}, "type": "electric_scooter", "lon": -76.9995315, "name": "30a064f94001708c5dcab86ddfdf81af", "bike_id": "30a064f94001708c5dcab86ddfdf81af", "fusion_lat": 0.0, "is_reserved": 0, "lat": 38.8428915, "fusion_lon": 0.0, "is_disabled": 0}, {"rental_uris": {"android": "https://dc.lft.to/lastmile_qr_scan", "ios": "https://dc.lft.to/lastmile_qr_scan"}, "type": "electric_scooter", "lon": -76.98335983333334, "name": "0fa1d2555ff03739009fb1d6cc776029", "bike_id": "0fa1d2555ff03739009fb1d6cc776029", "fusion_lat": 0.0, "is_reserved": 0, "lat": 38.8625005, "fusion_lon": 0.0, "is_disabled": 0}, {"rental_uris": {"android": "https://dc.lft.to/lastmile_qr_scan", "ios": "https://dc.lft.to/lastmile_qr_scan"}, "type": "electric_scooter", "lon": -77.02405533333334, "name": "8d89b6294b6456044acbad60ac72b637", "bike_id": "8d89b6294b6456044acbad60ac72b637", "fusion_lat": 0.0, "is_reserved": 0, "lat": 38.95731516666667, "fusion_lon": 0.0, "is_disabled": 0}, {"rental_uris": {"android": "https://dc.lft.to/lastmile_qr_scan", "ios": "https://dc.lft.to/lastmile_qr_scan"}, "type": "electric_scooter", "lon": -76.9948915, "name": "630b5c1a2035163883d24873b23080c6", "bike_id": "630b5c1a2035163883d24873b23080c6", "fusion_lat": 0.0, "is_reserved": 0, "lat": 38.900912, "fusion_lon": 0.0, "is_disabled": 0}, {"rental_uris": {"android": "https://dc.lft.to/lastmile_qr_scan", "ios": "https://dc.lft.to/lastmile_qr_scan"}, "type": "electric_scooter", "lon": -77.04025283333333, "name": "b175d9aab9e66241e497ec2b9055e224", "bike_id": "b175d9aab9e66241e497ec2b9055e224", "fusion_lat": 0.0, "is_reserved": 0, "lat": 38.9027995, "fusion_lon": 0.0, "is_disabled": 0}, {"rental_uris": {"android": "https://dc.lft.to/lastmile_qr_scan", "ios": "https://dc.lft.to/lastmile_qr_scan"}, "type": "electric_scooter", "lon": -77.04535183333333, "name": "e262a0fcc0e52a03dea6f73aba1e703b", "bike_id": "e262a0fcc0e52a03dea6f73aba1e703b", "fusion_lat": 0.0, "is_reserved": 0, "lat": 38.917931333333335, "fusion_lon": 0.0, "is_disabled": 0}, {"rental_uris": {"android": "https://dc.lft.to/lastmile_qr_scan", "ios": "https://dc.lft.to/lastmile_qr_scan"}, "type": "electric_scooter", "lon": -76.99387066666667, "name": "0f349ee25feb83f73d0ee4fad935994b", "bike_id": "0f349ee25feb83f73d0ee4fad935994b", "fusion_lat": 0.0, "is_reserved": 0, "lat": 38.886958, "fusion_lon": 0.0, "is_disabled": 0}, {"rental_uris": {"android": "https://dc.lft.to/lastmile_qr_scan", "ios": "https://dc.lft.to/lastmile_qr_scan"}, "type": "electric_scooter", "lon": -77.06822566666666, "name": "acec7627accf89e8b1455b0ab084ec1a", "bike_id": "acec7627accf89e8b1455b0ab084ec1a", "fusion_lat": 0.0, "is_reserved": 0, "lat": 38.916401, "fusion_lon": 0.0, "is_disabled": 0}, {"rental_uris": {"android": "https://dc.lft.to/lastmile_qr_scan", "ios": "https://dc.lft.to/lastmile_qr_scan"}, "type": "electric_scooter", "lon": -77.02607183333333, "name": "db034aff8fec986a23d62c6596bd075e", "bike_id": "db034aff8fec986a23d62c6596bd075e", "fusion_lat": 0.0, "is_reserved": 0, "lat": 38.900121666666664, "fusion_lon": 0.0, "is_disabled": 0}, {"rental_uris": {"android": "https://dc.lft.to/lastmile_qr_scan", "ios": "https://dc.lft.to/lastmile_qr_scan"}, "type": "electric_scooter", "lon": -77.05800633333334, "name": "d4414422c36d6bbbcde8c6ce1457e649", "bike_id": "d4414422c36d6bbbcde8c6ce1457e649", "fusion_lat": 0.0, "is_reserved": 0, "lat": 38.9037005, "fusion_lon": 0.0, "is_disabled": 0}, {"rental_uris": {"android": "https://dc.lft.to/lastmile_qr_scan", "ios": "https://dc.lft.to/lastmile_qr_scan"}, "type": "electric_scooter", "lon": -77.032557, "name": "22d56923fd5ed084ddec9a03f13f00dd", "bike_id": "22d56923fd5ed084ddec9a03f13f00dd", "fusion_lat": 0.0, "is_reserved": 0, "lat": 38.92644383333333, "fusion_lon": 0.0, "is_disabled": 0}, {"rental_uris": {"android": "https://dc.lft.to/lastmile_qr_scan", "ios": "https://dc.lft.to/lastmile_qr_scan"}, "type": "electric_bike", "lon": -77.13230416666667, "name": "0b80f2f1a65c1281433d829b00c5046f", "bike_id": "0b80f2f1a65c1281433d829b00c5046f", "fusion_lat": 0.0, "is_reserved": 0, "lat": 38.869726, "fusion_lon": 0.0, "is_disabled": 0}, {"rental_uris": {"android": "https://dc.lft.to/lastmile_qr_scan", "ios": "https://dc.lft.to/lastmile_qr_scan"}, "type": "electric_scooter", "lon": -77.02095733333333, "name": "2756b07764dd8db12d69a66acc2a4c7f", "bike_id": "2756b07764dd8db12d69a66acc2a4c7f", "fusion_lat": 0.0, "is_reserved": 0, "lat": 38.91104, "fusion_lon": 0.0, "is_disabled": 0}, {"rental_uris": {"android": "https://dc.lft.to/lastmile_qr_scan", "ios": "https://dc.lft.to/lastmile_qr_scan"}, "type": "electric_scooter", "lon": -77.00591816666666, "name": "0ce3b632004e75ebd15d88ede9f0c5ce", "bike_id": "0ce3b632004e75ebd15d88ede9f0c5ce", "fusion_lat": 0.0, "is_reserved": 0, "lat": 38.876445, "fusion_lon": 0.0, "is_disabled": 0}, {"rental_uris": {"android": "https://dc.lft.to/lastmile_qr_scan", "ios": "https://dc.lft.to/lastmile_qr_scan"}, "type": "electric_scooter", "lon": -77.071882, "name": "5baf3209807f34fac28b3fa53892a4af", "bike_id": "5baf3209807f34fac28b3fa53892a4af", "fusion_lat": 0.0, "is_reserved": 0, "lat": 38.92097416666667, "fusion_lon": 0.0, "is_disabled": 0}, {"rental_uris": {"android": "https://dc.lft.to/lastmile_qr_scan", "ios": "https://dc.lft.to/lastmile_qr_scan"}, "type": "electric_scooter", "lon": -77.03641816666666, "name": "06efda4383d7b58b0202260c4c3adbd8", "bike_id": "06efda4383d7b58b0202260c4c3adbd8", "fusion_lat": 0.0, "is_reserved": 0, "lat": 38.9130745, "fusion_lon": 0.0, "is_disabled": 0}, {"rental_uris": {"android": "https://dc.lft.to/lastmile_qr_scan", "ios": "https://dc.lft.to/lastmile_qr_scan"}, "type": "electric_scooter", "lon": -76.98690483333333, "name": "146d86c58407a4d85259582d86beddf2", "bike_id": "146d86c58407a4d85259582d86beddf2", "fusion_lat": 0.0, "is_reserved": 0, "lat": 38.904919, "fusion_lon": 0.0, "is_disabled": 0}, {"rental_uris": {"android": "https://dc.lft.to/lastmile_qr_scan", "ios": "https://dc.lft.to/lastmile_qr_scan"}, "type": "electric_scooter", "lon": -76.97335783333334, "name": "b3a8a4ff65ac1988421af0aa8cda5cd0", "bike_id": "b3a8a4ff65ac1988421af0aa8cda5cd0", "fusion_lat": 0.0, "is_reserved": 0, "lat": 38.90480733333333, "fusion_lon": 0.0, "is_disabled": 0}, {"rental_uris": {"android": "https://dc.lft.to/lastmile_qr_scan", "ios": "https://dc.lft.to/lastmile_qr_scan"}, "type": "electric_bike", "lon": -77.01101033333333, "name": "4720c2d5993b92fa4e499c4701c0cdc7", "bike_id": "4720c2d5993b92fa4e499c4701c0cdc7", "fusion_lat": 0.0, "is_reserved": 0, "lat": 38.963053333333335, "fusion_lon": 0.0, "is_disabled": 0}, {"rental_uris": {"android": "https://dc.lft.to/lastmile_qr_scan", "ios": "https://dc.lft.to/lastmile_qr_scan"}, "type": "electric_scooter", "lon": -77.04157266666667, "name": "7156381afa6c0e3021941174c34a5ecf", "bike_id": "7156381afa6c0e3021941174c34a5ecf", "fusion_lat": 0.0, "is_reserved": 0, "lat": 38.9102125, "fusion_lon": 0.0, "is_disabled": 0}, {"rental_uris": {"android": "https://dc.lft.to/lastmile_qr_scan", "ios": "https://dc.lft.to/lastmile_qr_scan"}, "type": "electric_scooter", "lon": -77.04997416666667, "name": "5b73996c9e2f8038cfef76e14e55693b", "bike_id": "5b73996c9e2f8038cfef76e14e55693b", "fusion_lat": 0.0, "is_reserved": 0, "lat": 38.9051385, "fusion_lon": 0.0, "is_disabled": 0}, {"rental_uris": {"android": "https://dc.lft.to/lastmile_qr_scan", "ios": "https://dc.lft.to/lastmile_qr_scan"}, "type": "electric_scooter", "lon": -77.04391283333334, "name": "21e328d737b53a173d3a4c5579cbb5d9", "bike_id": "21e328d737b53a173d3a4c5579cbb5d9", "fusion_lat": 0.0, "is_reserved": 0, "lat": 38.90629933333334, "fusion_lon": 0.0, "is_disabled": 0}, {"rental_uris": {"android": "https://dc.lft.to/lastmile_qr_scan", "ios": "https://dc.lft.to/lastmile_qr_scan"}, "type": "electric_scooter", "lon": -77.0401225, "name": "4cc1c1222903aa2315a00da051e1343e", "bike_id": "4cc1c1222903aa2315a00da051e1343e", "fusion_lat": 0.0, "is_reserved": 0, "lat": 38.913071333333335, "fusion_lon": 0.0, "is_disabled": 0}, {"rental_uris": {"android": "https://dc.lft.to/lastmile_qr_scan", "ios": "https://dc.lft.to/lastmile_qr_scan"}, "type": "electric_scooter", "lon": -77.07347683333333, "name": "f25d7e79536922cde2787a14b0031740", "bike_id": "f25d7e79536922cde2787a14b0031740", "fusion_lat": 0.0, "is_reserved": 0, "lat": 38.9110125, "fusion_lon": 0.0, "is_disabled": 0}, {"rental_uris": {"android": "https://dc.lft.to/lastmile_qr_scan", "ios": "https://dc.lft.to/lastmile_qr_scan"}, "type": "electric_bike", "lon": -77.23290483333334, "name": "d692dcf9dd4501249b8006370f6cf377", "bike_id": "d692dcf9dd4501249b8006370f6cf377", "fusion_lat": 0.0, "is_reserved": 0, "lat": 38.92524133333333, "fusion_lon": 0.0, "is_disabled": 0}, {"rental_uris": {"android": "https://dc.lft.to/lastmile_qr_scan", "ios": "https://dc.lft.to/lastmile_qr_scan"}, "type": "electric_scooter", "lon": -77.04809066666667, "name": "4d2ee33910528347f23525cbc3ffb6f4", "bike_id": "4d2ee33910528347f23525cbc3ffb6f4", "fusion_lat": 0.0, "is_reserved": 0, "lat": 38.911041, "fusion_lon": 0.0, "is_disabled": 0}, {"rental_uris": {"android": "https://dc.lft.to/lastmile_qr_scan", "ios": "https://dc.lft.to/lastmile_qr_scan"}, "type": "electric_bike", "lon": -76.9165715, "name": "e421bdd2154d9df0f5d05f736d22b0e4", "bike_id": "e421bdd2154d9df0f5d05f736d22b0e4", "fusion_lat": 0.0, "is_reserved": 0, "lat": 38.868573, "fusion_lon": 0.0, "is_disabled": 0}, {"rental_uris": {"android": "https://dc.lft.to/lastmile_qr_scan", "ios": "https://dc.lft.to/lastmile_qr_scan"}, "type": "electric_scooter", "lon": -76.94251583333333, "name": "da1d35ad6ee1c7aca0ecf669aa49a086", "bike_id": "da1d35ad6ee1c7aca0ecf669aa49a086", "fusion_lat": 0.0, "is_reserved": 0, "lat": 38.89679483333333, "fusion_lon": 0.0, "is_disabled": 0}, {"rental_uris": {"android": "https://dc.lft.to/lastmile_qr_scan", "ios": "https://dc.lft.to/lastmile_qr_scan"}, "type": "electric_bike", "lon": -77.12264683333333, "name": "33d55023f40e63ef2a5bd5572cde470b", "bike_id": "33d55023f40e63ef2a5bd5572cde470b", "fusion_lat": 0.0, "is_reserved": 0, "lat": 38.8973345, "fusion_lon": 0.0, "is_disabled": 0}, {"rental_uris": {"android": "https://dc.lft.to/lastmile_qr_scan", "ios": "https://dc.lft.to/lastmile_qr_scan"}, "type": "electric_scooter", "lon": -77.02576833333333, "name": "f8cdea3468c438657cfec346157c0d6a", "bike_id": "f8cdea3468c438657cfec346157c0d6a", "fusion_lat": 0.0, "is_reserved": 0, "lat": 38.925068, "fusion_lon": 0.0, "is_disabled": 0}, {"rental_uris": {"android": "https://dc.lft.to/lastmile_qr_scan", "ios": "https://dc.lft.to/lastmile_qr_scan"}, "type": "electric_scooter", "lon": -77.06077533333334, "name": "e97c08a6de45258e6e82e874825cb9b9", "bike_id": "e97c08a6de45258e6e82e874825cb9b9", "fusion_lat": 0.0, "is_reserved": 0, "lat": 38.90525133333333, "fusion_lon": 0.0, "is_disabled": 0}, {"rental_uris": {"android": "https://dc.lft.to/lastmile_qr_scan", "ios": "https://dc.lft.to/lastmile_qr_scan"}, "type": "electric_scooter", "lon": -76.95407366666667, "name": "46c1489a111d1b6cff892d06e7166f03", "bike_id": "46c1489a111d1b6cff892d06e7166f03", "fusion_lat": 0.0, "is_reserved": 0, "lat": 38.8915655, "fusion_lon": 0.0, "is_disabled": 0}, {"rental_uris": {"android": "https://dc.lft.to/lastmile_qr_scan", "ios": "https://dc.lft.to/lastmile_qr_scan"}, "type": "electric_scooter", "lon": -77.033468, "name": "2a97fa3b3935e63313af1a5c13f528bb", "bike_id": "2a97fa3b3935e63313af1a5c13f528bb", "fusion_lat": 0.0, "is_reserved": 0, "lat": 38.92240316666667, "fusion_lon": 0.0, "is_disabled": 0}, {"rental_uris": {"android": "https://dc.lft.to/lastmile_qr_scan", "ios": "https://dc.lft.to/lastmile_qr_scan"}, "type": "electric_scooter", "lon": -77.021631, "name": "1b80d053b82f20beba0d4c02f8aedafc", "bike_id": "1b80d053b82f20beba0d4c02f8aedafc", "fusion_lat": 0.0, "is_reserved": 0, "lat": 38.89708016666667, "fusion_lon": 0.0, "is_disabled": 0}, {"rental_uris": {"android": "https://dc.lft.to/lastmile_qr_scan", "ios": "https://dc.lft.to/lastmile_qr_scan"}, "type": "electric_bike", "lon": -76.98745916666667, "name": "5e0080d6f43005ad78dc0f9e77e05f68", "bike_id": "5e0080d6f43005ad78dc0f9e77e05f68", "fusion_lat": 0.0, "is_reserved": 0, "lat": 38.857905333333335, "fusion_lon": 0.0, "is_disabled": 0}, {"rental_uris": {"android": "https://dc.lft.to/lastmile_qr_scan", "ios": "https://dc.lft.to/lastmile_qr_scan"}, "type": "electric_scooter", "lon": -77.03287633333333, "name": "d87a529728bb6893ba545d4a1246ffcf", "bike_id": "d87a529728bb6893ba545d4a1246ffcf", "fusion_lat": 0.0, "is_reserved": 0, "lat": 38.9205305, "fusion_lon": 0.0, "is_disabled": 0}, {"rental_uris": {"android": "https://dc.lft.to/lastmile_qr_scan", "ios": "https://dc.lft.to/lastmile_qr_scan"}, "type": "electric_scooter", "lon": -77.02238066666666, "name": "9fa43a855701704de6b3b2421e8404c5", "bike_id": "9fa43a855701704de6b3b2421e8404c5", "fusion_lat": 0.0, "is_reserved": 0, "lat": 38.91564066666667, "fusion_lon": 0.0, "is_disabled": 0}, {"rental_uris": {"android": "https://dc.lft.to/lastmile_qr_scan", "ios": "https://dc.lft.to/lastmile_qr_scan"}, "type": "electric_scooter", "lon": -77.02966616666667, "name": "98696b9f21d909560dffcb57987795db", "bike_id": "98696b9f21d909560dffcb57987795db", "fusion_lat": 0.0, "is_reserved": 0, "lat": 38.892275166666664, "fusion_lon": 0.0, "is_disabled": 0}, {"rental_uris": {"android": "https://dc.lft.to/lastmile_qr_scan", "ios": "https://dc.lft.to/lastmile_qr_scan"}, "type": "electric_bike", "lon": -77.12626433333334, "name": "ff8973960432a8835db459627d85b56c", "bike_id": "ff8973960432a8835db459627d85b56c", "fusion_lat": 0.0, "is_reserved": 0, "lat": 39.0581145, "fusion_lon": 0.0, "is_disabled": 0}, {"rental_uris": {"android": "https://dc.lft.to/lastmile_qr_scan", "ios": "https://dc.lft.to/lastmile_qr_scan"}, "type": "electric_scooter", "lon": -77.0387135, "name": "b12eaa50ec2321241d7a75dca1d58e84", "bike_id": "b12eaa50ec2321241d7a75dca1d58e84", "fusion_lat": 0.0, "is_reserved": 0, "lat": 38.93243416666667, "fusion_lon": 0.0, "is_disabled": 0}, {"rental_uris": {"android": "https://dc.lft.to/lastmile_qr_scan", "ios": "https://dc.lft.to/lastmile_qr_scan"}, "type": "electric_scooter", "lon": -77.01732083333333, "name": "ef3ef684e5314ea8b8b90235e519f7f5", "bike_id": "ef3ef684e5314ea8b8b90235e519f7f5", "fusion_lat": 0.0, "is_reserved": 0, "lat": 38.942056666666666, "fusion_lon": 0.0, "is_disabled": 0}, {"rental_uris": {"android": "https://dc.lft.to/lastmile_qr_scan", "ios": "https://dc.lft.to/lastmile_qr_scan"}, "type": "electric_scooter", "lon": -77.0346205, "name": "caee909c69a5747a5dbc5a7354ab83af", "bike_id": "caee909c69a5747a5dbc5a7354ab83af", "fusion_lat": 0.0, "is_reserved": 0, "lat": 38.9072645, "fusion_lon": 0.0, "is_disabled": 0}, {"rental_uris": {"android": "https://dc.lft.to/lastmile_qr_scan", "ios": "https://dc.lft.to/lastmile_qr_scan"}, "type": "electric_scooter", "lon": -77.03459983333333, "name": "5a1d745f5e8ed79b500f3eafca2f0c2e", "bike_id": "5a1d745f5e8ed79b500f3eafca2f0c2e", "fusion_lat": 0.0, "is_reserved": 0, "lat": 38.907229666666666, "fusion_lon": 0.0, "is_disabled": 0}, {"rental_uris": {"android": "https://dc.lft.to/lastmile_qr_scan", "ios": "https://dc.lft.to/lastmile_qr_scan"}, "type": "electric_bike", "lon": -76.9808485, "name": "7b14cd0c89083960ebb75026f00d2b2b", "bike_id": "7b14cd0c89083960ebb75026f00d2b2b", "fusion_lat": 0.0, "is_reserved": 0, "lat": 38.95351983333333, "fusion_lon": 0.0, "is_disabled": 0}, {"rental_uris": {"android": "https://dc.lft.to/lastmile_qr_scan", "ios": "https://dc.lft.to/lastmile_qr_scan"}, "type": "electric_scooter", "lon": -77.04807383333333, "name": "fb941907397c274d709d1e3ec781feed", "bike_id": "fb941907397c274d709d1e3ec781feed", "fusion_lat": 0.0, "is_reserved": 0, "lat": 38.919162, "fusion_lon": 0.0, "is_disabled": 0}, {"rental_uris": {"android": "https://dc.lft.to/lastmile_qr_scan", "ios": "https://dc.lft.to/lastmile_qr_scan"}, "type": "electric_scooter", "lon": -76.94771316666667, "name": "263d9dd15f785e3ee121306bb0428b00", "bike_id": "263d9dd15f785e3ee121306bb0428b00", "fusion_lat": 0.0, "is_reserved": 0, "lat": 38.89676383333333, "fusion_lon": 0.0, "is_disabled": 0}, {"rental_uris": {"android": "https://dc.lft.to/lastmile_qr_scan", "ios": "https://dc.lft.to/lastmile_qr_scan"}, "type": "electric_scooter", "lon": -77.06984766666666, "name": "a30fee5fa5d2f70a59977821734a35a9", "bike_id": "a30fee5fa5d2f70a59977821734a35a9", "fusion_lat": 0.0, "is_reserved": 0, "lat": 38.952841666666664, "fusion_lon": 0.0, "is_disabled": 0}, {"rental_uris": {"android": "https://dc.lft.to/lastmile_qr_scan", "ios": "https://dc.lft.to/lastmile_qr_scan"}, "type": "electric_scooter", "lon": -77.01604366666666, "name": "bda191dfc31ff21f0d39e9036f963333", "bike_id": "bda191dfc31ff21f0d39e9036f963333", "fusion_lat": 0.0, "is_reserved": 0, "lat": 38.899585333333334, "fusion_lon": 0.0, "is_disabled": 0}, {"rental_uris": {"android": "https://dc.lft.to/lastmile_qr_scan", "ios": "https://dc.lft.to/lastmile_qr_scan"}, "type": "electric_scooter", "lon": -77.04008033333334, "name": "28f13ec8ab6f0bc5d26cf25362a246b6", "bike_id": "28f13ec8ab6f0bc5d26cf25362a246b6", "fusion_lat": 0.0, "is_reserved": 0, "lat": 38.903557166666666, "fusion_lon": 0.0, "is_disabled": 0}, {"rental_uris": {"android": "https://dc.lft.to/lastmile_qr_scan", "ios": "https://dc.lft.to/lastmile_qr_scan"}, "type": "electric_scooter", "lon": -77.00224216666666, "name": "096b7ace966a89d1a7e723abdf2e8a69", "bike_id": "096b7ace966a89d1a7e723abdf2e8a69", "fusion_lat": 0.0, "is_reserved": 0, "lat": 38.90837716666667, "fusion_lon": 0.0, "is_disabled": 0}, {"rental_uris": {"android": "https://dc.lft.to/lastmile_qr_scan", "ios": "https://dc.lft.to/lastmile_qr_scan"}, "type": "electric_scooter", "lon": -77.03859766666666, "name": "68bd2a02765e9f9c077d469e100373b0", "bike_id": "68bd2a02765e9f9c077d469e100373b0", "fusion_lat": 0.0, "is_reserved": 0, "lat": 38.91715533333333, "fusion_lon": 0.0, "is_disabled": 0}, {"rental_uris": {"android": "https://dc.lft.to/lastmile_qr_scan", "ios": "https://dc.lft.to/lastmile_qr_scan"}, "type": "electric_scooter", "lon": -77.019734, "name": "8a35dc022355c7a1c632b9cdd8b1946a", "bike_id": "8a35dc022355c7a1c632b9cdd8b1946a", "fusion_lat": 0.0, "is_reserved": 0, "lat": 38.883740333333336, "fusion_lon": 0.0, "is_disabled": 0}, {"rental_uris": {"android": "https://dc.lft.to/lastmile_qr_scan", "ios": "https://dc.lft.to/lastmile_qr_scan"}, "type": "electric_scooter", "lon": -77.01160616666667, "name": "015121f0d0e0d29028436fdf3b0d6c06", "bike_id": "015121f0d0e0d29028436fdf3b0d6c06", "fusion_lat": 0.0, "is_reserved": 0, "lat": 38.912717666666666, "fusion_lon": 0.0, "is_disabled": 0},