{"data": {"bikes": [{"lon": -77.02511783333334, "bike_id": "a4488de7c0181db9aefdc4af917e80ee", "lat": 38.939829, "fusion_lon": 0.0, "fusion_lat": 0.0, "type": "electric_scooter", "name": "a4488de7c0181db9aefdc4af917e80ee", "is_disabled": 0, "rental_uris": {"ios": "https://dc.lft.to/lastmile_qr_scan", "android": "https://dc.lft.to/lastmile_qr_scan"}, "is_reserved": 0}, {"lon": -77.00684483333333, "bike_id": "fcbc2b512116f9519faf86a91e5c84ec", "lat": 38.8349335, "fusion_lon": 0.0, "fusion_lat": 0.0, "type": "electric_scooter", "name": "fcbc2b512116f9519faf86a91e5c84ec", "is_disabled": 0, "rental_uris": {"ios": "https://dc.lft.to/lastmile_qr_scan", "android": "https://dc.lft.to/lastmile_qr_scan"}, "is_reserved": 0}, {"lon": -77.034745, "bike_id": "25a9c32b6526ef77bbd871f54eda7c99", "lat": 38.88485266666667, "fusion_lon": 0.0, "fusion_lat": 0.0, "type": "electric_scooter", "name": "25a9c32b6526ef77bbd871f54eda7c99", "is_disabled": 0, "rental_uris": {"ios": "https://dc.lft.to/lastmile_qr_scan", "android": "https://dc.lft.to/lastmile_qr_scan"}, "is_reserved": 0}, {"lon": -77.05291933333334, "bike_id": "db625064acc0e7dad53f9bd450fbdba8", "lat": 38.90338716666667, "fusion_lon": 0.0, "fusion_lat": 0.0, "type": "electric_scooter", "name": "db625064acc0e7dad53f9bd450fbdba8", "is_disabled": 0, "rental_uris": {"ios": "https://dc.lft.to/lastmile_qr_scan", "android": "https://dc.lft.to/lastmile_qr_scan"}, "is_reserved": 0}, {"lon": -77.00344766666667, "bike_id": "ca95e98bea8adeed818104e3ace5a462", "lat": 38.9036205, "fusion_lon": 0.0, "fusion_lat": 0.0, "type": "electric_scooter", "name": "ca95e98bea8adeed818104e3ace5a462", "is_disabled": 0, "rental_uris": {"ios": "https://dc.lft.to/lastmile_qr_scan", "android": "https://dc.lft.to/lastmile_qr_scan"}, "is_reserved": 0}, {"lon": -76.94132766666667, "bike_id": "d02f6b345b346181225dd0d057571afd", "lat": 38.908288166666665, "fusion_lon": 0.0, "fusion_lat": 0.0, "type": "electric_scooter", "name": "d02f6b345b346181225dd0d057571afd", "is_disabled": 0, "rental_uris": {"ios": "https://dc.lft.to/lastmile_qr_scan", "android": "https://dc.lft.to/lastmile_qr_scan"}, "is_reserved": 0}, {"lon": -77.03400983333333, "bike_id": "f9f6b57b4c5df330ba279282b8749506", "lat": 38.93861416666667, "fusion_lon": 0.0, "fusion_lat": 0.0, "type": "electric_scooter", "name": "f9f6b57b4c5df330ba279282b8749506", "is_disabled": 0, "rental_uris": {"ios": "https://dc.lft.to/lastmile_qr_scan", "android": "https://dc.lft.to/lastmile_qr_scan"}, "is_reserved": 0}, {"lon": -77.0071565, "bike_id": "57bec6b3e6316a32838497975c44c75c", "lat": 38.884885, "fusion_lon": 0.0, "fusion_lat": 0.0, "type": "electric_scooter", "name": "57bec6b3e6316a32838497975c44c75c", "is_disabled": 0, "rental_uris": {"ios": "https://dc.lft.to/lastmile_qr_scan", "android": "https://dc.lft.to/lastmile_qr_scan"}, "is_reserved": 0}, {"lon": -77.03083033333333, "bike_id": "c830bd675d4ff9dfe736268b1e29f220", "lat": 38.90755566666667, "fusion_lon": 0.0, "fusion_lat": 0.0, "type": "electric_scooter", "name": "c830bd675d4ff9dfe736268b1e29f220", "is_disabled": 0, "rental_uris": {"ios": "https://dc.lft.to/lastmile_qr_scan", "android": "https://dc.lft.to/lastmile_qr_scan"}, "is_reserved": 0}, {"lon": -77.03850416666667, "bike_id": "d7a94a328803d4c414aa003cc569e074", "lat": 38.9158055, "fusion_lon": 0.0, "fusion_lat": 0.0, "type": "electric_scooter", "name": "d7a94a328803d4c414aa003cc569e074", "is_disabled": 0, "rental_uris": {"ios": "https://dc.lft.to/lastmile_qr_scan", "android": "https://dc.lft.to/lastmile_qr_scan"}, "is_reserved": 0}, {"lon": -76.94815, "bike_id": "20917e6fc2fb3206e164d1997839839b", "lat": 38.8618825, "fusion_lon": 0.0, "fusion_lat": 0.0, "type": "electric_bike", "name": "20917e6fc2fb3206e164d1997839839b", "is_disabled": 0, "rental_uris": {"ios": "https://dc.lft.to/lastmile_qr_scan", "android": "https://dc.lft.to/lastmile_qr_scan"}, "is_reserved": 0}, {"lon": -77.03203516666666, "bike_id": "be7b34cbc3eefff38d358a194d93b6a0", "lat": 38.89717783333333, "fusion_lon": 0.0, "fusion_lat": 0.0, "type": "electric_scooter", "name": "be7b34cbc3eefff38d358a194d93b6a0", "is_disabled": 0, "rental_uris": {"ios": "https://dc.lft.to/lastmile_qr_scan", "android": "https://dc.lft.to/lastmile_qr_scan"}, "is_reserved": 0}, {"lon": -77.01717716666667, "bike_id": "9ee1c44d33702bf8716522602de897cb", "lat": 38.91744683333334, "fusion_lon": 0.0, "fusion_lat": 0.0, "type": "electric_scooter", "name": "9ee1c44d33702bf8716522602de897cb", "is_disabled": 0, "rental_uris": {"ios": "https://dc.lft.to/lastmile_qr_scan", "android": "https://dc.lft.to/lastmile_qr_scan"}, "is_reserved": 0}, {"lon": -77.04376566666667, "bike_id": "d2329e977f0249295dbec4932ffb3a0e", "lat": 38.910138333333336, "fusion_lon": 0.0, "fusion_lat": 0.0, "type": "electric_scooter", "name": "d2329e977f0249295dbec4932ffb3a0e", "is_disabled": 0, "rental_uris": {"ios": "https://dc.lft.to/lastmile_qr_scan", "android": "https://dc.lft.to/lastmile_qr_scan"}, "is_reserved": 0}, {"lon": -77.01891816666667, "bike_id": "dd59ae975d5a187884411bb83e9770f6", "lat": 38.87465516666666, "fusion_lon": 0.0, "fusion_lat": 0.0, "type": "electric_scooter", "name": "dd59ae975d5a187884411bb83e9770f6", "is_disabled": 0, "rental_uris": {"ios": "https://dc.lft.to/lastmile_qr_scan", "android": "https://dc.lft.to/lastmile_qr_scan"}, "is_reserved": 0}, {"lon": -77.044932, "bike_id": "3f381e7112dac3f346d8a1e274e3aea8", "lat": 38.8981875, "fusion_lon": 0.0, "fusion_lat": 0.0, "type": "electric_scooter", "name": "3f381e7112dac3f346d8a1e274e3aea8", "is_disabled": 0, "rental_uris": {"ios": "https://dc.lft.to/lastmile_qr_scan", "android": "https://dc.lft.to/lastmile_qr_scan"}, "is_reserved": 0}, {"lon": -77.02028683333333, "bike_id": "fd9c22b3d57cf7c3b6fc9b73ab69f7ee", "lat": 38.91655383333333, "fusion_lon": 0.0, "fusion_lat": 0.0, "type": "electric_scooter", "name": "fd9c22b3d57cf7c3b6fc9b73ab69f7ee", "is_disabled": 0, "rental_uris": {"ios": "https://dc.lft.to/lastmile_qr_scan", "android": "https://dc.lft.to/lastmile_qr_scan"}, "is_reserved": 0}, {"lon": -77.00678816666667, "bike_id": "708c13acae1b33da1e45c9972274559f", "lat": 38.900153, "fusion_lon": 0.0, "fusion_lat": 0.0, "type": "electric_scooter", "name": "708c13acae1b33da1e45c9972274559f", "is_disabled": 0, "rental_uris": {"ios": "https://dc.lft.to/lastmile_qr_scan", "android": "https://dc.lft.to/lastmile_qr_scan"}, "is_reserved": 0}, {"lon": -77.11920033333334, "bike_id": "9fd58d2d4a444c29ee9dea611674405b", "lat": 38.87635566666667, "fusion_lon": 0.0, "fusion_lat": 0.0, "type": "electric_bike", "name": "9fd58d2d4a444c29ee9dea611674405b", "is_disabled": 0, "rental_uris": {"ios": "https://dc.lft.to/lastmile_qr_scan", "android": "https://dc.lft.to/lastmile_qr_scan"}, "is_reserved": 0}, {"lon": -77.02349983333333, "bike_id": "b6f574ce6ca4b4de406a63f1f3364771", "lat": 38.911679166666666, "fusion_lon": 0.0, "fusion_lat": 0.0, "type": "electric_scooter", "name": "b6f574ce6ca4b4de406a63f1f3364771", "is_disabled": 0, "rental_uris": {"ios": "https://dc.lft.to/lastmile_qr_scan", "android": "https://dc.lft.to/lastmile_qr_scan"}, "is_reserved": 0}, {"lon": -77.02634316666666, "bike_id": "0eb9c59ed756838384aab16c3975b2a7", "lat": 38.90045683333334, "fusion_lon": 0.0, "fusion_lat": 0.0, "type": "electric_scooter", "name": "0eb9c59ed756838384aab16c3975b2a7", "is_disabled": 0, "rental_uris": {"ios": "https://dc.lft.to/lastmile_qr_scan", "android": "https://dc.lft.to/lastmile_qr_scan"}, "is_reserved": 0}, {"lon": -77.01051933333333, "bike_id": "0bfa4ac42b5d87676b1590aeef27b8fb", "lat": 38.96341816666666, "fusion_lon": 0.0, "fusion_lat": 0.0, "type": "electric_scooter", "name": "0bfa4ac42b5d87676b1590aeef27b8fb", "is_disabled": 0, "rental_uris": {"ios": "https://dc.lft.to/lastmile_qr_scan", "android": "https://dc.lft.to/lastmile_qr_scan"}, "is_reserved": 0}, {"lon": -77.02578266666667, "bike_id": "8b206cd92fcb436cfccb626db0a5a159", "lat": 38.92577933333333, "fusion_lon": 0.0, "fusion_lat": 0.0, "type": "electric_scooter", "name": "8b206cd92fcb436cfccb626db0a5a159", "is_disabled": 0, "rental_uris": {"ios": "https://dc.lft.to/lastmile_qr_scan", "android": "https://dc.lft.to/lastmile_qr_scan"}, "is_reserved": 0}, {"lon": -76.98109433333333, "bike_id": "5ad8587feceb6986f4b754bf040b155d", "lat": 38.877302666666665, "fusion_lon": 0.0, "fusion_lat": 0.0, "type": "electric_bike", "name": "5ad8587feceb6986f4b754bf040b155d", "is_disabled": 0, "rental_uris": {"ios": "https://dc.lft.to/lastmile_qr_scan", "android": "https://dc.lft.to/lastmile_qr_scan"}, "is_reserved": 0}, {"lon": -76.98245883333334, "bike_id": "29b0ee4bd40745db4e2f2cfa83445376", "lat": 38.8646215, "fusion_lon": 0.0, "fusion_lat": 0.0, "type": "electric_scooter", "name": "29b0ee4bd40745db4e2f2cfa83445376", "is_disabled": 0, "rental_uris": {"ios": "https://dc.lft.to/lastmile_qr_scan", "android": "https://dc.lft.to/lastmile_qr_scan"}, "is_reserved": 0}, {"lon": -77.0029635, "bike_id": "96e341d846e650cc6ac8e5d08d66a80a", "lat": 38.90122733333333, "fusion_lon": 0.0, "fusion_lat": 0.0, "type": "electric_scooter", "name": "96e341d846e650cc6ac8e5d08d66a80a", "is_disabled": 0, "rental_uris": {"ios": "https://dc.lft.to/lastmile_qr_scan", "android": "https://dc.lft.to/lastmile_qr_scan"}, "is_reserved": 0}, {"lon": -77.046905, "bike_id": "1384bd250642caabcb5a730f51e314b1", "lat": 38.919013, "fusion_lon": 0.0, "fusion_lat": 0.0, "type": "electric_scooter", "name": "1384bd250642caabcb5a730f51e314b1", "is_disabled": 0, "rental_uris": {"ios": "https://dc.lft.to/lastmile_qr_scan", "android": "https://dc.lft.to/lastmile_qr_scan"}, "is_reserved": 0}, {"lon": -76.99872616666667, "bike_id": "ec12630bc11366a96da2a2d0d8ab9c46", "lat": 38.90022866666666, "fusion_lon": 0.0, "fusion_lat": 0.0, "type": "electric_scooter", "name": "ec12630bc11366a96da2a2d0d8ab9c46", "is_disabled": 0, "rental_uris": {"ios": "https://dc.lft.to/lastmile_qr_scan", "android": "https://dc.lft.to/lastmile_qr_scan"}, "is_reserved": 0}, {"lon": -76.9494385, "bike_id": "e0a623251145c5aa35fdbe6542c1caa2", "lat": 38.903661, "fusion_lon": 0.0, "fusion_lat": 0.0, "type": "electric_scooter", "name": "e0a623251145c5aa35fdbe6542c1caa2", "is_disabled": 0, "rental_uris": {"ios": "https://dc.lft.to/lastmile_qr_scan", "android": "https://dc.lft.to/lastmile_qr_scan"}, "is_reserved": 0}, {"lon": -77.03162883333333, "bike_id": "a5a168c9cff70bd7d94f8d882fb31b2f", "lat": 38.917133, "fusion_lon": 0.0, "fusion_lat": 0.0, "type": "electric_scooter", "name": "a5a168c9cff70bd7d94f8d882fb31b2f", "is_disabled": 0, "rental_uris": {"ios": "https://dc.lft.to/lastmile_qr_scan", "android": "https://dc.lft.to/lastmile_qr_scan"}, "is_reserved": 0}, {"lon": -77.00114, "bike_id": "d7871c599fbe3a1063c3c03848c6598e", "lat": 38.919700166666665, "fusion_lon": 0.0, "fusion_lat": 0.0, "type": "electric_scooter", "name": "d7871c599fbe3a1063c3c03848c6598e", "is_disabled": 0, "rental_uris": {"ios": "https://dc.lft.to/lastmile_qr_scan", "android": "https://dc.lft.to/lastmile_qr_scan"}, "is_reserved": 0}, {"lon": -77.03216, "bike_id": "fbc997eb59058c7290cd2aed15d8bab3", "lat": 38.9148265, "fusion_lon": 0.0, "fusion_lat": 0.0, "type": "electric_scooter", "name": "fbc997eb59058c7290cd2aed15d8bab3", "is_disabled": 0, "rental_uris": {"ios": "https://dc.lft.to/lastmile_qr_scan", "android": "https://dc.lft.to/lastmile_qr_scan"}, "is_reserved": 0}, {"lon": -77.032651, "bike_id": "7ce6a36133a9b86f45251b15bc72dc44", "lat": 38.932352333333334, "fusion_lon": 0.0, "fusion_lat": 0.0, "type": "electric_scooter", "name": "7ce6a36133a9b86f45251b15bc72dc44", "is_disabled": 0, "rental_uris": {"ios": "https://dc.lft.to/lastmile_qr_scan", "android": "https://dc.lft.to/lastmile_qr_scan"}, "is_reserved": 0}, {"lon": -77.0019065, "bike_id": "90a30744a4437bcf1500933e6cffcb0a", "lat": 38.89474833333333, "fusion_lon": 0.0, "fusion_lat": 0.0, "type": "electric_scooter", "name": "90a30744a4437bcf1500933e6cffcb0a", "is_disabled": 0, "rental_uris": {"ios": "https://dc.lft.to/lastmile_qr_scan", "android": "https://dc.lft.to/lastmile_qr_scan"}, "is_reserved": 0}, {"lon": -77.05861333333333, "bike_id": "bd7eca20138dce26a156f329b6883fdf", "lat": 38.936049833333335, "fusion_lon": 0.0, "fusion_lat": 0.0, "type": "electric_scooter", "name": "bd7eca20138dce26a156f329b6883fdf", "is_disabled": 0, "rental_uris": {"ios": "https://dc.lft.to/lastmile_qr_scan", "android": "https://dc.lft.to/lastmile_qr_scan"}, "is_reserved": 0}, {"lon": -76.997865, "bike_id": "669ccd6fa758f0e2459e0e24b667c02c", "lat": 38.89092466666666, "fusion_lon": 0.0, "fusion_lat": 0.0, "type": "electric_scooter", "name": "669ccd6fa758f0e2459e0e24b667c02c", "is_disabled": 0, "rental_uris": {"ios": "https://dc.lft.to/lastmile_qr_scan", "android": "https://dc.lft.to/lastmile_qr_scan"}, "is_reserved": 0}, {"lon": -77.0150485, "bike_id": "cdf86d74818442f1b33839e79d4246f6", "lat": 38.945324, "fusion_lon": 0.0, "fusion_lat": 0.0, "type": "electric_scooter", "name": "cdf86d74818442f1b33839e79d4246f6", "is_disabled": 0, "rental_uris": {"ios": "https://dc.lft.to/lastmile_qr_scan", "android": "https://dc.lft.to/lastmile_qr_scan"}, "is_reserved": 0}, {"lon": -77.02694983333333, "bike_id": "6e361ed5edf75fe5aef18aa7be7390a9", "lat": 38.92338016666667, "fusion_lon": 0.0, "fusion_lat": 0.0, "type": "electric_scooter", "name": "6e361ed5edf75fe5aef18aa7be7390a9", "is_disabled": 0, "rental_uris": {"ios": "https://dc.lft.to/lastmile_qr_scan", "android": "https://dc.lft.to/lastmile_qr_scan"}, "is_reserved": 0}, {"lon": -77.03730883333333, "bike_id": "25e34b24451546d3ece5f12b375ccaa3", "lat": 38.9283335, "fusion_lon": 0.0, "fusion_lat": 0.0, "type": "electric_scooter", "name": "25e34b24451546d3ece5f12b375ccaa3", "is_disabled": 0, "rental_uris": {"ios": "https://dc.lft.to/lastmile_qr_scan", "android": "https://dc.lft.to/lastmile_qr_scan"}, "is_reserved": 0}, {"lon": -77.0061875, "bike_id": "5b8580e6d4bad927a1f4899085abdb21", "lat": 38.90028516666667, "fusion_lon": 0.0, "fusion_lat": 0.0, "type": "electric_scooter", "name": "5b8580e6d4bad927a1f4899085abdb21", "is_disabled": 0, "rental_uris": {"ios": "https://dc.lft.to/lastmile_qr_scan", "android": "https://dc.lft.to/lastmile_qr_scan"}, "is_reserved": 0}, {"lon": -77.00245683333333, "bike_id": "7d05584b4fcebbf9f296249f4456e6e2", "lat": 38.88509616666666, "fusion_lon": 0.0, "fusion_lat": 0.0, "type": "electric_scooter", "name": "7d05584b4fcebbf9f296249f4456e6e2", "is_disabled": 0, "rental_uris": {"ios": "https://dc.lft.to/lastmile_qr_scan", "android": "https://dc.lft.to/lastmile_qr_scan"}, "is_reserved": 0}, {"lon": -76.983302, "bike_id": "96beff29ae18f0d260ea22d773e933bc", "lat": 38.90092583333333, "fusion_lon": 0.0, "fusion_lat": 0.0, "type": "electric_scooter", "name": "96beff29ae18f0d260ea22d773e933bc", "is_disabled": 0, "rental_uris": {"ios": "https://dc.lft.to/lastmile_qr_scan", "android": "https://dc.lft.to/lastmile_qr_scan"}, "is_reserved": 0}, {"lon": -77.08822666666667, "bike_id": "740519a80fc7f1461f6f6028d2473202", "lat": 38.909773666666666, "fusion_lon": 0.0, "fusion_lat": 0.0, "type": "electric_scooter", "name": "740519a80fc7f1461f6f6028d2473202", "is_disabled": 0, "rental_uris": {"ios": "https://dc.lft.to/lastmile_qr_scan", "android": "https://dc.lft.to/lastmile_qr_scan"}, "is_reserved": 0}, {"lon": -76.9926505, "bike_id": "0aba991794d4f3c4218e6542773dd3dd", "lat": 38.897671833333334, "fusion_lon": 0.0, "fusion_lat": 0.0, "type": "electric_scooter", "name": "0aba991794d4f3c4218e6542773dd3dd", "is_disabled": 0, "rental_uris": {"ios": "https://dc.lft.to/lastmile_qr_scan", "android": "https://dc.lft.to/lastmile_qr_scan"}, "is_reserved": 0}, {"lon": -77.02166733333334, "bike_id": "a474d7fdacd33cfc64ed1c7f87a0b505", "lat": 38.892159, "fusion_lon": 0.0, "fusion_lat": 0.0, "type": "electric_scooter", "name": "a474d7fdacd33cfc64ed1c7f87a0b505", "is_disabled": 0, "rental_uris": {"ios": "https://dc.lft.to/lastmile_qr_scan", "android": "https://dc.lft.to/lastmile_qr_scan"}, "is_reserved": 0}, {"lon": -77.02129983333333, "bike_id": "5800c12defcbe237d1fc0a3e1efd7e1b", "lat": 38.924613, "fusion_lon": 0.0, "fusion_lat": 0.0, "type": "electric_scooter", "name": "5800c12defcbe237d1fc0a3e1efd7e1b", "is_disabled": 0, "rental_uris": {"ios": "https://dc.lft.to/lastmile_qr_scan", "android": "https://dc.lft.to/lastmile_qr_scan"}, "is_reserved": 0}, {"lon": -77.0235475, "bike_id": "ed34b286edaad654653b2d1e3a1af6f7", "lat": 38.93199366666666, "fusion_lon": 0.0, "fusion_lat": 0.0, "type": "electric_scooter", "name": "ed34b286edaad654653b2d1e3a1af6f7", "is_disabled": 0, "rental_uris": {"ios": "https://dc.lft.to/lastmile_qr_scan", "android": "https://dc.lft.to/lastmile_qr_scan"}, "is_reserved": 0}, {"lon": -77.014521, "bike_id": "93f953f80f4946913d3b73fcbc9f6eca", "lat": 38.899408666666666, "fusion_lon": 0.0, "fusion_lat": 0.0, "type": "electric_scooter", "name": "93f953f80f4946913d3b73fcbc9f6eca", "is_disabled": 0, "rental_uris": {"ios": "https://dc.lft.to/lastmile_qr_scan", "android": "https://dc.lft.to/lastmile_qr_scan"}, "is_reserved": 0}, {"lon": -76.94161016666666, "bike_id": "bccfe32dfe2158677da7888ff6c472d6", "lat": 38.8791265, "fusion_lon": 0.0, "fusion_lat": 0.0, "type": "electric_scooter", "name": "bccfe32dfe2158677da7888ff6c472d6", "is_disabled": 0, "rental_uris": {"ios": "https://dc.lft.to/lastmile_qr_scan", "android": "https://dc.lft.to/lastmile_qr_scan"}, "is_reserved": 0}, {"lon": -77.02372183333334, "bike_id": "e19bcffce30c557e4a12249c7cfaac99", "lat": 38.919599833333336, "fusion_lon": 0.0, "fusion_lat": 0.0, "type": "electric_scooter", "name": "e19bcffce30c557e4a12249c7cfaac99", "is_disabled": 0, "rental_uris": {"ios": "https://dc.lft.to/lastmile_qr_scan", "android": "https://dc.lft.to/lastmile_qr_scan"}, "is_reserved": 0}, {"lon": -77.046098, "bike_id": "dcf31478cf15beb5dccb8f6b63654f19", "lat": 38.92185333333333, "fusion_lon": 0.0, "fusion_lat": 0.0, "type": "electric_scooter", "name": "dcf31478cf15beb5dccb8f6b63654f19", "is_disabled": 0, "rental_uris": {"ios": "https://dc.lft.to/lastmile_qr_scan", "android": "https://dc.lft.to/lastmile_qr_scan"}, "is_reserved": 0}, {"lon": -77.00712266666666, "bike_id": "a694349e84f69b694af7bc98bc578b95", "lat": 38.884920666666666, "fusion_lon": 0.0, "fusion_lat": 0.0, "type": "electric_scooter", "name": "a694349e84f69b694af7bc98bc578b95", "is_disabled": 0, "rental_uris": {"ios": "https://dc.lft.to/lastmile_qr_scan", "android": "https://dc.lft.to/lastmile_qr_scan"}, "is_reserved": 0}, {"lon": -77.02093916666666, "bike_id": "4d6619d2fb3a599a863a47b450d8e6f6", "lat": 38.90151066666667, "fusion_lon": 0.0, "fusion_lat": 0.0, "type": "electric_scooter", "name": "4d6619d2fb3a599a863a47b450d8e6f6", "is_disabled": 0, "rental_uris": {"ios": "https://dc.lft.to/lastmile_qr_scan", "android": "https://dc.lft.to/lastmile_qr_scan"}, "is_reserved": 0}, {"lon": -77.04418033333333, "bike_id": "937e9a288a6890912d096f711be529b8", "lat": 38.921267, "fusion_lon": 0.0, "fusion_lat": 0.0, "type": "electric_scooter", "name": "937e9a288a6890912d096f711be529b8", "is_disabled": 0, "rental_uris": {"ios": "https://dc.lft.to/lastmile_qr_scan", "android": "https://dc.lft.to/lastmile_qr_scan"}, "is_reserved": 0}, {"lon": -77.04441816666667, "bike_id": "555a6130015372e885fef87952f0cf69", "lat": 38.92162, "fusion_lon": 0.0, "fusion_lat": 0.0, "type": "electric_scooter", "name": "555a6130015372e885fef87952f0cf69", "is_disabled": 0, "rental_uris": {"ios": "https://dc.lft.to/lastmile_qr_scan", "android": "https://dc.lft.to/lastmile_qr_scan"}, "is_reserved": 0}, {"lon": -76.9772695, "bike_id": "f571a760cdb3524706975f2471fbc545", "lat": 38.872907833333336, "fusion_lon": 0.0, "fusion_lat": 0.0, "type": "electric_scooter", "name": "f571a760cdb3524706975f2471fbc545", "is_disabled": 0, "rental_uris": {"ios": "https://dc.lft.to/lastmile_qr_scan", "android": "https://dc.lft.to/lastmile_qr_scan"}, "is_reserved": 0}, {"lon": -77.01400916666667, "bike_id": "45a8fe6dc535e0cfeaca5f6c854a145b", "lat": 38.92802416666667, "fusion_lon": 0.0, "fusion_lat": 0.0, "type": "electric_scooter", "name": "45a8fe6dc535e0cfeaca5f6c854a145b", "is_disabled": 0, "rental_uris": {"ios": "https://dc.lft.to/lastmile_qr_scan", "android": "https://dc.lft.to/lastmile_qr_scan"}, "is_reserved": 0}, {"lon": -77.03853116666667, "bike_id": "319659beaa22e3f48b9f10783b6acb48", "lat": 38.93202433333333, "fusion_lon": 0.0, "fusion_lat": 0.0, "type": "electric_scooter", "name": "319659beaa22e3f48b9f10783b6acb48", "is_disabled": 0, "rental_uris": {"ios": "https://dc.lft.to/lastmile_qr_scan", "android": "https://dc.lft.to/lastmile_qr_scan"}, "is_reserved": 0}, {"lon": -77.03193783333333, "bike_id": "715cb8442db14c827ae49545f3104167", "lat": 38.9106315, "fusion_lon": 0.0, "fusion_lat": 0.0, "type": "electric_scooter", "name": "715cb8442db14c827ae49545f3104167", "is_disabled": 0, "rental_uris": {"ios": "https://dc.lft.to/lastmile_qr_scan", "android": "https://dc.lft.to/lastmile_qr_scan"}, "is_reserved": 0}, {"lon": -77.03203216666667, "bike_id": "2759c40461e483a909b49aab3638880a", "lat": 38.9397025, "fusion_lon": 0.0, "fusion_lat": 0.0, "type": "electric_scooter", "name": "2759c40461e483a909b49aab3638880a", "is_disabled": 0, "rental_uris": {"ios": "https://dc.lft.to/lastmile_qr_scan", "android": "https://dc.lft.to/lastmile_qr_scan"}, "is_reserved": 0}, {"lon": -77.03853316666667, "bike_id": "b891ac3b0d6770fc66e818810113ae18", "lat": 38.9157845, "fusion_lon": 0.0, "fusion_lat": 0.0, "type": "electric_scooter", "name": "b891ac3b0d6770fc66e818810113ae18", "is_disabled": 0, "rental_uris": {"ios": "https://dc.lft.to/lastmile_qr_scan", "android": "https://dc.lft.to/lastmile_qr_scan"}, "is_reserved": 0}, {"lon": -77.05415466666666, "bike_id": "4bd614e32c64c290ccf7f071947dcd5b", "lat": 38.901435166666666, "fusion_lon": 0.0, "fusion_lat": 0.0, "type": "electric_scooter", "name": "4bd614e32c64c290ccf7f071947dcd5b", "is_disabled": 0, "rental_uris": {"ios": "https://dc.lft.to/lastmile_qr_scan", "android": "https://dc.lft.to/lastmile_qr_scan"}, "is_reserved": 0}, {"lon": -77.03201633333333, "bike_id": "130bff67020e91a4ffc8fee8c636c3a1", "lat": 38.94409666666667, "fusion_lon": 0.0, "fusion_lat": 0.0, "type": "electric_scooter", "name": "130bff67020e91a4ffc8fee8c636c3a1", "is_disabled": 0, "rental_uris": {"ios": "https://dc.lft.to/lastmile_qr_scan", "android": "https://dc.lft.to/lastmile_qr_scan"}, "is_reserved": 0}, {"lon": -77.02017566666666, "bike_id": "c65a67ca1c7445e8e6b2fea1af7c5769", "lat": 38.90149383333333, "fusion_lon": 0.0, "fusion_lat": 0.0, "type": "electric_scooter", "name": "c65a67ca1c7445e8e6b2fea1af7c5769", "is_disabled": 0, "rental_uris": {"ios": "https://dc.lft.to/lastmile_qr_scan", "android": "https://dc.lft.to/lastmile_qr_scan"}, "is_reserved": 0}, {"lon": -77.03366516666667, "bike_id": "9d8992cac221ab08216e1a86642ba0d1", "lat": 38.90303083333333, "fusion_lon": 0.0, "fusion_lat": 0.0, "type": "electric_scooter", "name": "9d8992cac221ab08216e1a86642ba0d1", "is_disabled": 0, "rental_uris": {"ios": "https://dc.lft.to/lastmile_qr_scan", "android": "https://dc.lft.to/lastmile_qr_scan"}, "is_reserved": 0}, {"lon": -76.98885816666666, "bike_id": "7faf69302429c1278fc99194a8104232", "lat": 38.8665755, "fusion_lon": 0.0, "fusion_lat": 0.0, "type": "electric_scooter", "name": "7faf69302429c1278fc99194a8104232", "is_disabled": 0, "rental_uris": {"ios": "https://dc.lft.to/lastmile_qr_scan", "android": "https://dc.lft.to/lastmile_qr_scan"}, "is_reserved": 0}, {"lon": -77.03768783333334, "bike_id": "7d78e863afdb9a40ca782be6b534b76a", "lat": 38.92943116666667, "fusion_lon": 0.0, "fusion_lat": 0.0, "type": "electric_scooter", "name": "7d78e863afdb9a40ca782be6b534b76a", "is_disabled": 0, "rental_uris": {"ios": "https://dc.lft.to/lastmile_qr_scan", "android": "https://dc.lft.to/lastmile_qr_scan"}, "is_reserved": 0}, {"lon": -77.00047766666667, "bike_id": "354fd2b6d038c01a79f48355e3bb2e6d", "lat": 38.96831483333333, "fusion_lon": 0.0, "fusion_lat": 0.0, "type": "electric_bike", "name": "354fd2b6d038c01a79f48355e3bb2e6d", "is_disabled": 0, "rental_uris": {"ios": "https://dc.lft.to/lastmile_qr_scan", "android": "https://dc.lft.to/lastmile_qr_scan"}, "is_reserved": 0}, {"lon": -77.04158166666667, "bike_id": "e3f77badf57c8889737698e1aea5be5b", "lat": 38.8955705, "fusion_lon": 0.0, "fusion_lat": 0.0, "type": "electric_scooter", "name": "e3f77badf57c8889737698e1aea5be5b", "is_disabled": 0, "rental_uris": {"ios": "https://dc.lft.to/lastmile_qr_scan", "android": "https://dc.lft.to/lastmile_qr_scan"}, "is_reserved": 0}, {"lon": -76.97684783333334, "bike_id": "5d47e939528ffd11d9f82dc85e0dee73", "lat": 38.896169, "fusion_lon": 0.0, "fusion_lat": 0.0, "type": "electric_scooter", "name": "5d47e939528ffd11d9f82dc85e0dee73", "is_disabled": 0, "rental_uris": {"ios": "https://dc.lft.to/lastmile_qr_scan", "android": "https://dc.lft.to/lastmile_qr_scan"}, "is_reserved": 0}, {"lon": -77.04426316666667, "bike_id": "0776c51578dc95018b879ca22d9e3386", "lat": 38.90943983333333, "fusion_lon": 0.0, "fusion_lat": 0.0, "type": "electric_scooter", "name": "0776c51578dc95018b879ca22d9e3386", "is_disabled": 0, "rental_uris": {"ios": "https://dc.lft.to/lastmile_qr_scan", "android": "https://dc.lft.to/lastmile_qr_scan"}, "is_reserved": 0}, {"lon": -76.98653583333333, "bike_id": "ec0537edd2958b5220435d56dd8868e1", "lat": 38.90137, "fusion_lon": 0.0, "fusion_lat": 0.0, "type": "electric_scooter", "name": "ec0537edd2958b5220435d56dd8868e1", "is_disabled": 0, "rental_uris": {"ios": "https://dc.lft.to/lastmile_qr_scan", "android": "https://dc.lft.to/lastmile_qr_scan"}, "is_reserved": 0}, {"lon": -76.98704716666667, "bike_id": "e0163d39a659d6e7e0eb0450b197e518", "lat": 38.909282833333336, "fusion_lon": 0.0, "fusion_lat": 0.0, "type": "electric_scooter", "name": "e0163d39a659d6e7e0eb0450b197e518", "is_disabled": 0, "rental_uris": {"ios": "https://dc.lft.to/lastmile_qr_scan", "android": "https://dc.lft.to/lastmile_qr_scan"}, "is_reserved": 0}, {"lon": -77.028291, "bike_id": "adc63e3d8a9b00f9f1307f01c1003603", "lat": 38.91705983333333, "fusion_lon": 0.0, "fusion_lat": 0.0, "type": "electric_scooter", "name": "adc63e3d8a9b00f9f1307f01c1003603", "is_disabled": 0, "rental_uris": {"ios": "https://dc.lft.to/lastmile_qr_scan", "android": "https://dc.lft.to/lastmile_qr_scan"}, "is_reserved": 0}, {"lon": -77.0489005, "bike_id": "382879a27ed1e3a624d44d78974f513f", "lat": 38.90375316666667, "fusion_lon": 0.0, "fusion_lat": 0.0, "type": "electric_scooter", "name": "382879a27ed1e3a624d44d78974f513f", "is_disabled": 0, "rental_uris": {"ios": "https://dc.lft.to/lastmile_qr_scan", "android": "https://dc.lft.to/lastmile_qr_scan"}, "is_reserved": 0}, {"lon": -77.04858416666667, "bike_id": "fac61f825354fa6673b5c9d7324b2ec1", "lat": 38.90953733333333, "fusion_lon": 0.0, "fusion_lat": 0.0, "type": "electric_scooter", "name": "fac61f825354fa6673b5c9d7324b2ec1", "is_disabled": 0, "rental_uris": {"ios": "https://dc.lft.to/lastmile_qr_scan", "android": "https://dc.lft.to/lastmile_qr_scan"}, "is_reserved": 0}, {"lon": -77.03182366666667, "bike_id": "b6d036f5cb5fc611088b2ba519c7682e", "lat": 38.9082835, "fusion_lon": 0.0, "fusion_lat": 0.0, "type": "electric_scooter", "name": "b6d036f5cb5fc611088b2ba519c7682e", "is_disabled": 0, "rental_uris": {"ios": "https://dc.lft.to/lastmile_qr_scan", "android": "https://dc.lft.to/lastmile_qr_scan"}, "is_reserved": 0}, {"lon": -77.05118466666667, "bike_id": "272ff3a91a10f864b40cad125837d4e0", "lat": 38.896501666666666, "fusion_lon": 0.0, "fusion_lat": 0.0, "type": "electric_scooter", "name": "272ff3a91a10f864b40cad125837d4e0", "is_disabled": 0, "rental_uris": {"ios": "https://dc.lft.to/lastmile_qr_scan", "android": "https://dc.lft.to/lastmile_qr_scan"}, "is_reserved": 0}, {"lon": -77.010015, "bike_id": "b1f5b1da7857bd2e92ba274b3a9c73f6", "lat": 38.9192305, "fusion_lon": 0.0, "fusion_lat": 0.0, "type": "electric_scooter", "name": "b1f5b1da7857bd2e92ba274b3a9c73f6", "is_disabled": 0, "rental_uris": {"ios": "https://dc.lft.to/lastmile_qr_scan", "android": "https://dc.lft.to/lastmile_qr_scan"}, "is_reserved": 0}, {"lon": -76.93352583333333, "bike_id": "ba6281686f0e436f0858dcd22121b4ea", "lat": 38.887995, "fusion_lon": 0.0, "fusion_lat": 0.0, "type": "electric_scooter", "name": "ba6281686f0e436f0858dcd22121b4ea", "is_disabled": 0, "rental_uris": {"ios": "https://dc.lft.to/lastmile_qr_scan", "android": "https://dc.lft.to/lastmile_qr_scan"}, "is_reserved": 0}, {"lon": -77.02401316666666, "bike_id": "3c2a167364bd4dff5f327e902b63fffd", "lat": 38.92072983333333, "fusion_lon": 0.0, "fusion_lat": 0.0, "type": "electric_scooter", "name": "3c2a167364bd4dff5f327e902b63fffd", "is_disabled": 0, "rental_uris": {"ios": "https://dc.lft.to/lastmile_qr_scan", "android": "https://dc.lft.to/lastmile_qr_scan"}, "is_reserved": 0}, {"lon": -77.03281733333333, "bike_id": "9d2aaea49ae44812987e402d547919de", "lat": 38.93881583333334, "fusion_lon": 0.0, "fusion_lat": 0.0, "type": "electric_scooter", "name": "9d2aaea49ae44812987e402d547919de", "is_disabled": 0, "rental_uris": {"ios": "https://dc.lft.to/lastmile_qr_scan", "android": "https://dc.lft.to/lastmile_qr_scan"}, "is_reserved": 0}, {"lon": -76.94877016666666, "bike_id": "5e1798b440913d400ddff062909adb62", "lat": 38.89550366666667, "fusion_lon": 0.0, "fusion_lat": 0.0, "type": "electric_scooter", "name": "5e1798b440913d400ddff062909adb62", "is_disabled": 0, "rental_uris": {"ios": "https://dc.lft.to/lastmile_qr_scan", "android": "https://dc.lft.to/lastmile_qr_scan"}, "is_reserved": 0}, {"lon": -77.009712, "bike_id": "30221a4c894b5eb87f3f530b4afdd28e", "lat": 38.897336, "fusion_lon": 0.0, "fusion_lat": 0.0, "type": "electric_scooter", "name": "30221a4c894b5eb87f3f530b4afdd28e", "is_disabled": 0, "rental_uris": {"ios": "https://dc.lft.to/lastmile_qr_scan", "android": "https://dc.lft.to/lastmile_qr_scan"}, "is_reserved": 0}, {"lon": -76.98402566666667, "bike_id": "dcea11a36859750ed29d27625243cda2", "lat": 38.906288333333336, "fusion_lon": 0.0, "fusion_lat": 0.0, "type": "electric_scooter", "name": "dcea11a36859750ed29d27625243cda2", "is_disabled": 0, "rental_uris": {"ios": "https://dc.lft.to/lastmile_qr_scan", "android": "https://dc.lft.to/lastmile_qr_scan"}, "is_reserved": 0}, {"lon": -77.037699, "bike_id": "839c56d5067ac55a47df5f02ee0ce8c0", "lat": 38.929641333333336, "fusion_lon": 0.0, "fusion_lat": 0.0, "type": "electric_scooter", "name": "839c56d5067ac55a47df5f02ee0ce8c0", "is_disabled": 0, "rental_uris": {"ios": "https://dc.lft.to/lastmile_qr_scan", "android": "https://dc.lft.to/lastmile_qr_scan"}, "is_reserved": 0}, {"lon": -77.0499135, "bike_id": "dec583857baa6a4b13ede1713b36b1c3", "lat": 38.9005815, "fusion_lon": 0.0, "fusion_lat": 0.0, "type": "electric_scooter", "name": "dec583857baa6a4b13ede1713b36b1c3", "is_disabled": 0, "rental_uris": {"ios": "https://dc.lft.to/lastmile_qr_scan", "android": "https://dc.lft.to/lastmile_qr_scan"}, "is_reserved": 0}, {"lon": -77.03344416666667, "bike_id": "950ee3745664abccc4a977f31df98db3", "lat": 38.91710716666667, "fusion_lon": 0.0, "fusion_lat": 0.0, "type": "electric_scooter", "name": "950ee3745664abccc4a977f31df98db3", "is_disabled": 0, "rental_uris": {"ios": "https://dc.lft.to/lastmile_qr_scan", "android": "https://dc.lft.to/lastmile_qr_scan"}, "is_reserved": 0}, {"lon": -77.02447983333333, "bike_id": "c6edd3365ea4fc87e310212549a5cef2", "lat": 38.920533666666664, "fusion_lon": 0.0, "fusion_lat": 0.0, "type": "electric_scooter", "name": "c6edd3365ea4fc87e310212549a5cef2", "is_disabled": 0, "rental_uris": {"ios": "https://dc.lft.to/lastmile_qr_scan", "android": "https://dc.lft.to/lastmile_qr_scan"}, "is_reserved": 0}, {"lon": -76.9893605, "bike_id": "46816a1d4a409f0845c7c9303cd647b3", "lat": 38.91831233333333, "fusion_lon": 0.0, "fusion_lat": 0.0, "type": "electric_scooter", "name": "46816a1d4a409f0845c7c9303cd647b3", "is_disabled": 0, "rental_uris": {"ios": "https://dc.lft.to/lastmile_qr_scan", "android": "https://dc.lft.to/lastmile_qr_scan"}, "is_reserved": 0}, {"lon": -77.0188825, "bike_id": "97c2aae7f325820b169bf49fe4cdd357", "lat": 38.90277966666667, "fusion_lon": 0.0, "fusion_lat": 0.0, "type": "electric_scooter", "name": "97c2aae7f325820b169bf49fe4cdd357", "is_disabled": 0, "rental_uris": {"ios": "https://dc.lft.to/lastmile_qr_scan", "android": "https://dc.lft.to/lastmile_qr_scan"}, "is_reserved": 0}, {"lon": -77.02595833333334, "bike_id": "930456b1a590de521d758ac2cd598ce5", "lat": 38.900622, "fusion_lon": 0.0, "fusion_lat": 0.0, "type": "electric_scooter", "name": "930456b1a590de521d758ac2cd598ce5", "is_disabled": 0, "rental_uris": {"ios": "https://dc.lft.to/lastmile_qr_scan", "android": "https://dc.lft.to/lastmile_qr_scan"}, "is_reserved": 0}, {"lon": -77.043309, "bike_id": "1e2c165a35de7339460db6c7528d160c", "lat": 38.908791666666666, "fusion_lon": 0.0, "fusion_lat": 0.0, "type": "electric_scooter", "name": "1e2c165a35de7339460db6c7528d160c", "is_disabled": 0, "rental_uris": {"ios": "https://dc.lft.to/lastmile_qr_scan", "android": "https://dc.lft.to/lastmile_qr_scan"}, "is_reserved": 0}, {"lon": -77.02396916666666, "bike_id": "d0bb27cc6db509418fb6634891e0c050", "lat": 38.920807833333335, "fusion_lon": 0.0, "fusion_lat": 0.0, "type": "electric_scooter", "name": "d0bb27cc6db509418fb6634891e0c050", "is_disabled": 0, "rental_uris": {"ios": "https://dc.lft.to/lastmile_qr_scan", "android": "https://dc.lft.to/lastmile_qr_scan"}, "is_reserved": 0}, {"lon": -77.04351283333334, "bike_id": "115c281617235f2a80b81d2580da5168", "lat": 38.907782, "fusion_lon": 0.0, "fusion_lat": 0.0, "type": "electric_scooter", "name": "115c281617235f2a80b81d2580da5168", "is_disabled": 0, "rental_uris": {"ios": "https://dc.lft.to/lastmile_qr_scan", "android": "https://dc.lft.to/lastmile_qr_scan"}, "is_reserved": 0}, {"lon": -77.03190966666666, "bike_id": "541fff8272925b709192f3dd31572990", "lat": 38.90872666666667, "fusion_lon": 0.0, "fusion_lat": 0.0, "type": "electric_scooter", "name": "541fff8272925b709192f3dd31572990", "is_disabled": 0, "rental_uris": {"ios": "https://dc.lft.to/lastmile_qr_scan", "android": "https://dc.lft.to/lastmile_qr_scan"}, "is_reserved": 0}, {"lon": -77.03839366666666, "bike_id": "fcf9b07c3261b0961d0ce2c0781c6a2d", "lat": 38.91137883333333, "fusion_lon": 0.0, "fusion_lat": 0.0, "type": "electric_scooter", "name": "fcf9b07c3261b0961d0ce2c0781c6a2d", "is_disabled": 0, "rental_uris": {"ios": "https://dc.lft.to/lastmile_qr_scan", "android": "https://dc.lft.to/lastmile_qr_scan"}, "is_reserved": 0}, {"lon": -77.0238035, "bike_id": "c6a8b4ba7d0b825d5145fc3a588c3226", "lat": 38.92661233333333, "fusion_lon": 0.0, "fusion_lat": 0.0, "type": "electric_scooter", "name": "c6a8b4ba7d0b825d5145fc3a588c3226", "is_disabled": 0, "rental_uris": {"ios": "https://dc.lft.to/lastmile_qr_scan", "android": "https://dc.lft.to/lastmile_qr_scan"}, "is_reserved": 0}, {"lon": -77.03343833333334, "bike_id": "6ea1196afebfc7993a8947e0b074b029", "lat": 38.899707, "fusion_lon": 0.0, "fusion_lat": 0.0, "type": "electric_scooter", "name": "6ea1196afebfc7993a8947e0b074b029", "is_disabled": 0, "rental_uris": {"ios": "https://dc.lft.to/lastmile_qr_scan", "android": "https://dc.lft.to/lastmile_qr_scan"}, "is_reserved": 0}, {"lon": -76.99544716666666, "bike_id": "4671d5fc20f269c302c375cb0829cbe5", "lat": 38.926710166666666, "fusion_lon": 0.0, "fusion_lat": 0.0, "type": "electric_scooter", "name": "4671d5fc20f269c302c375cb0829cbe5", "is_disabled": 0, "rental_uris": {"ios": "https://dc.lft.to/lastmile_qr_scan", "android": "https://dc.lft.to/lastmile_qr_scan"}, "is_reserved": 0}, {"lon": -77.011031, "bike_id": "075c57cbf98c75edba809394f8ebd324", "lat": 38.903834333333336, "fusion_lon": 0.0, "fusion_lat": 0.0, "type": "electric_scooter", "name": "075c57cbf98c75edba809394f8ebd324", "is_disabled": 0, "rental_uris": {"ios": "https://dc.lft.to/lastmile_qr_scan", "android": "https://dc.lft.to/lastmile_qr_scan"}, "is_reserved": 0}, {"lon": -77.02679216666667, "bike_id": "f1af2914ca7416408339e21f8981dd10", "lat": 38.89730866666667, "fusion_lon": 0.0, "fusion_lat": 0.0, "type": "electric_scooter", "name": "f1af2914ca7416408339e21f8981dd10", "is_disabled": 0, "rental_uris": {"ios": "https://dc.lft.to/lastmile_qr_scan", "android": "https://dc.lft.to/lastmile_qr_scan"}, "is_reserved": 0}, {"lon": -77.00635466666667, "bike_id": "0bb536e83e71e10fc0b2846571cce45d", "lat": 38.9560245, "fusion_lon": 0.0, "fusion_lat": 0.0, "type": "electric_scooter", "name": "0bb536e83e71e10fc0b2846571cce45d", "is_disabled": 0, "rental_uris": {"ios": "https://dc.lft.to/lastmile_qr_scan", "android": "https://dc.lft.to/lastmile_qr_scan"}, "is_reserved": 0}, {"lon": -77.0254385, "bike_id": "bcdeb72563132a4f6d39f4d00993a87a", "lat": 38.920738, "fusion_lon": 0.0, "fusion_lat": 0.0, "type": "electric_scooter", "name": "bcdeb72563132a4f6d39f4d00993a87a", "is_disabled": 0, "rental_uris": {"ios": "https://dc.lft.to/lastmile_qr_scan", "android": "https://dc.lft.to/lastmile_qr_scan"}, "is_reserved": 0}, {"lon": -77.02694066666666, "bike_id": "7b60d23c219eb49ba2a87a7c3bb38a86", "lat": 38.906559666666666, "fusion_lon": 0.0, "fusion_lat": 0.0, "type": "electric_scooter", "name": "7b60d23c219eb49ba2a87a7c3bb38a86", "is_disabled": 0, "rental_uris": {"ios": "https://dc.lft.to/lastmile_qr_scan", "android": "https://dc.lft.to/lastmile_qr_scan"}, "is_reserved": 0}, {"lon": -77.00968366666666, "bike_id": "dd2689c6c66cf130bc98796c14dcc092", "lat": 38.914167666666664, "fusion_lon": 0.0, "fusion_lat": 0.0, "type": "electric_scooter", "name": "dd2689c6c66cf130bc98796c14dcc092", "is_disabled": 0, "rental_uris": {"ios": "https://dc.lft.to/lastmile_qr_scan", "android": "https://dc.lft.to/lastmile_qr_scan"}, "is_reserved": 0}, {"lon": -76.93735516666666, "bike_id": "dc4754365434cdd203be507a6f105467", "lat": 38.890384833333336, "fusion_lon": 0.0, "fusion_lat": 0.0, "type": "electric_scooter", "name": "dc4754365434cdd203be507a6f105467", "is_disabled": 0, "rental_uris": {"ios": "https://dc.lft.to/lastmile_qr_scan", "android": "https://dc.lft.to/lastmile_qr_scan"}, "is_reserved": 0}, {"lon": -77.03720366666667, "bike_id": "bdadde89bb229676ffc7c38389cefef3", "lat": 38.91484966666667, "fusion_lon": 0.0, "fusion_lat": 0.0, "type": "electric_scooter", "name": "bdadde89bb229676ffc7c38389cefef3", "is_disabled": 0, "rental_uris": {"ios": "https://dc.lft.to/lastmile_qr_scan", "android": "https://dc.lft.to/lastmile_qr_scan"}, "is_reserved": 0}, {"lon": -77.035986, "bike_id": "41f24181aa2e5cd56faa7f68e2bff037", "lat": 38.9268235, "fusion_lon": 0.0, "fusion_lat": 0.0, "type": "electric_scooter", "name": "41f24181aa2e5cd56faa7f68e2bff037", "is_disabled": 0, "rental_uris": {"ios": "https://dc.lft.to/lastmile_qr_scan", "android": "https://dc.lft.to/lastmile_qr_scan"}, "is_reserved": 0}, {"lon": -76.99622, "bike_id": "b151b986da3d032d7ab77c315ef89b94", "lat": 38.909371666666665, "fusion_lon": 0.0, "fusion_lat": 0.0, "type": "electric_scooter", "name": "b151b986da3d032d7ab77c315ef89b94", "is_disabled": 0, "rental_uris": {"ios": "https://dc.lft.to/lastmile_qr_scan", "android": "https://dc.lft.to/lastmile_qr_scan"}, "is_reserved": 0}, {"lon": -77.0373385, "bike_id": "76c34c2fdb5c6addd5b702b86ce88766", "lat": 38.928415333333334, "fusion_lon": 0.0, "fusion_lat": 0.0, "type": "electric_scooter", "name": "76c34c2fdb5c6addd5b702b86ce88766", "is_disabled": 0, "rental_uris": {"ios": "https://dc.lft.to/lastmile_qr_scan", "android": "https://dc.lft.to/lastmile_qr_scan"}, "is_reserved": 0}, {"lon": -77.02318266666667, "bike_id": "9358d5fdfd4f7aa9ca0f936b670d822c", "lat": 38.878814, "fusion_lon": 0.0, "fusion_lat": 0.0, "type": "electric_scooter", "name": "9358d5fdfd4f7aa9ca0f936b670d822c", "is_disabled": 0, "rental_uris": {"ios": "https://dc.lft.to/lastmile_qr_scan", "android": "https://dc.lft.to/lastmile_qr_scan"}, "is_reserved": 0}, {"lon": -77.04322966666666, "bike_id": "b94eb7891d83a18295ee67de40f7af88", "lat": 38.922080666666666, "fusion_lon": 0.0, "fusion_lat": 0.0, "type": "electric_scooter", "name": "b94eb7891d83a18295ee67de40f7af88", "is_disabled": 0, "rental_uris": {"ios": "https://dc.lft.to/lastmile_qr_scan", "android": "https://dc.lft.to/lastmile_qr_scan"}, "is_reserved": 0}, {"lon": -77.11608533333333, "bike_id": "297c981d5d59163c506cef9dfc56735f", "lat": 38.85484916666667, "fusion_lon": 0.0, "fusion_lat": 0.0, "type": "electric_bike", "name": "297c981d5d59163c506cef9dfc56735f", "is_disabled": 0, "rental_uris": {"ios": "https://dc.lft.to/lastmile_qr_scan", "android": "https://dc.lft.to/lastmile_qr_scan"}, "is_reserved": 0}, {"lon": -76.98537216666666, "bike_id": "4d03acd801d688798f92be880dd7b573", "lat": 38.899549666666665, "fusion_lon": 0.0, "fusion_lat": 0.0, "type": "electric_scooter", "name": "4d03acd801d688798f92be880dd7b573", "is_disabled": 0, "rental_uris": {"ios": "https://dc.lft.to/lastmile_qr_scan", "android": "https://dc.lft.to/lastmile_qr_scan"}, "is_reserved": 0}, {"lon": -76.94660566666667, "bike_id": "c19fcb935087f9cde6fc0866447ebf92", "lat": 38.93695816666666, "fusion_lon": 0.0, "fusion_lat": 0.0, "type": "electric_bike", "name": "c19fcb935087f9cde6fc0866447ebf92", "is_disabled": 0, "rental_uris": {"ios": "https://dc.lft.to/lastmile_qr_scan", "android": "https://dc.lft.to/lastmile_qr_scan"}, "is_reserved": 0}, {"lon": -77.02371283333333, "bike_id": "39029ac3e38e445513806636358129f0", "lat": 38.906274833333335, "fusion_lon": 0.0, "fusion_lat": 0.0, "type": "electric_scooter", "name": "39029ac3e38e445513806636358129f0", "is_disabled": 0, "rental_uris": {"ios": "https://dc.lft.to/lastmile_qr_scan", "android": "https://dc.lft.to/lastmile_qr_scan"}, "is_reserved": 0}, {"lon": -76.99646116666666, "bike_id": "8984bd7d416339f7aabacfeed5ea0849", "lat": 38.88719533333333, "fusion_lon": 0.0, "fusion_lat": 0.0, "type": "electric_scooter", "name": "8984bd7d416339f7aabacfeed5ea0849", "is_disabled": 0, "rental_uris": {"ios": "https://dc.lft.to/lastmile_qr_scan", "android": "https://dc.lft.to/lastmile_qr_scan"}, "is_reserved": 0}, {"lon": -77.0248145, "bike_id": "b377bf654136270967e60097b3b618f4", "lat": 38.90255483333333, "fusion_lon": 0.0, "fusion_lat": 0.0, "type": "electric_scooter", "name": "b377bf654136270967e60097b3b618f4", "is_disabled": 0, "rental_uris": {"ios": "https://dc.lft.to/lastmile_qr_scan", "android": "https://dc.lft.to/lastmile_qr_scan"}, "is_reserved": 0}, {"lon": -77.01625516666667, "bike_id": "bf80b32047b0512c267164a3e39e9a94", "lat": 38.90242533333333, "fusion_lon": 0.0, "fusion_lat": 0.0, "type": "electric_scooter", "name": "bf80b32047b0512c267164a3e39e9a94", "is_disabled": 0, "rental_uris": {"ios": "https://dc.lft.to/lastmile_qr_scan", "android": "https://dc.lft.to/lastmile_qr_scan"}, "is_reserved": 0}, {"lon": -77.0384715, "bike_id": "e712a481e354ed6cc429e81da83355da", "lat": 38.912123333333334, "fusion_lon": 0.0, "fusion_lat": 0.0, "type": "electric_scooter", "name": "e712a481e354ed6cc429e81da83355da", "is_disabled": 0, "rental_uris": {"ios": "https://dc.lft.to/lastmile_qr_scan", "android": "https://dc.lft.to/lastmile_qr_scan"}, "is_reserved": 0}, {"lon": -77.03514166666666, "bike_id": "61a44664f10d46b243d9f2a093b953f6", "lat": 38.914841333333335, "fusion_lon": 0.0, "fusion_lat": 0.0, "type": "electric_scooter", "name": "61a44664f10d46b243d9f2a093b953f6", "is_disabled": 0, "rental_uris": {"ios": "https://dc.lft.to/lastmile_qr_scan", "android": "https://dc.lft.to/lastmile_qr_scan"}, "is_reserved": 0}, {"lon": -77.02321833333333, "bike_id": "125347aa598d3b3429653aadb6ec1e9c", "lat": 38.95527166666667, "fusion_lon": 0.0, "fusion_lat": 0.0, "type": "electric_scooter", "name": "125347aa598d3b3429653aadb6ec1e9c", "is_disabled": 0, "rental_uris": {"ios": "https://dc.lft.to/lastmile_qr_scan", "android": "https://dc.lft.to/lastmile_qr_scan"}, "is_reserved": 0}, {"lon": -77.03867866666667, "bike_id": "4fa93c5014c2668380a6a9b64ec96945", "lat": 38.9141525, "fusion_lon": 0.0, "fusion_lat": 0.0, "type": "electric_scooter", "name": "4fa93c5014c2668380a6a9b64ec96945", "is_disabled": 0, "rental_uris": {"ios": "https://dc.lft.to/lastmile_qr_scan", "android": "https://dc.lft.to/lastmile_qr_scan"}, "is_reserved": 0}, {"lon": -77.00569733333333, "bike_id": "631dab0f228e9be4bfc32cf1444888ff", "lat": 38.8744175, "fusion_lon": 0.0, "fusion_lat": 0.0, "type": "electric_scooter", "name": "631dab0f228e9be4bfc32cf1444888ff", "is_disabled": 0, "rental_uris": {"ios": "https://dc.lft.to/lastmile_qr_scan", "android": "https://dc.lft.to/lastmile_qr_scan"}, "is_reserved": 0}, {"lon": -77.04318916666666, "bike_id": "90f3932a921cac3de8ca24a79992c9a4", "lat": 38.918795833333334, "fusion_lon": 0.0, "fusion_lat": 0.0, "type": "electric_scooter", "name": "90f3932a921cac3de8ca24a79992c9a4", "is_disabled": 0, "rental_uris": {"ios": "https://dc.lft.to/lastmile_qr_scan", "android": "https://dc.lft.to/lastmile_qr_scan"}, "is_reserved": 0}, {"lon": -77.02713233333333, "bike_id": "b85bbf7130955d82e00f5f166b6187f4", "lat": 38.9007715, "fusion_lon": 0.0, "fusion_lat": 0.0, "type": "electric_scooter", "name": "b85bbf7130955d82e00f5f166b6187f4", "is_disabled": 0, "rental_uris": {"ios": "https://dc.lft.to/lastmile_qr_scan", "android": "https://dc.lft.to/lastmile_qr_scan"}, "is_reserved": 0}, {"lon": -77.0144405, "bike_id": "af8c388045ba33ef96c0ffbd5892f8f8", "lat": 38.912585666666665, "fusion_lon": 0.0, "fusion_lat": 0.0, "type": "electric_scooter", "name": "af8c388045ba33ef96c0ffbd5892f8f8", "is_disabled": 0, "rental_uris": {"ios": "https://dc.lft.to/lastmile_qr_scan", "android": "https://dc.lft.to/lastmile_qr_scan"}, "is_reserved": 0}, {"lon": -77.0251155, "bike_id": "90af4ffc02ebae8d8c59f329bcfd4aeb", "lat": 38.9398565, "fusion_lon": 0.0, "fusion_lat": 0.0, "type": "electric_scooter", "name": "90af4ffc02ebae8d8c59f329bcfd4aeb", "is_disabled": 0, "rental_uris": {"ios": "https://dc.lft.to/lastmile_qr_scan", "android": "https://dc.lft.to/lastmile_qr_scan"}, "is_reserved": 0}, {"lon": -77.0008425, "bike_id": "4aa1b5eb9acd6f1465c8f0dbc8836356", "lat": 38.89474716666667, "fusion_lon": 0.0, "fusion_lat": 0.0, "type": "electric_scooter", "name": "4aa1b5eb9acd6f1465c8f0dbc8836356", "is_disabled": 0, "rental_uris": {"ios": "https://dc.lft.to/lastmile_qr_scan", "android": "https://dc.lft.to/lastmile_qr_scan"}, "is_reserved": 0}, {"lon": -77.0162105, "bike_id": "3599f4fccca3fbcf295bf12feffacb5b", "lat": 38.90611833333333, "fusion_lon": 0.0, "fusion_lat": 0.0, "type": "electric_scooter", "name": "3599f4fccca3fbcf295bf12feffacb5b", "is_disabled": 0, "rental_uris": {"ios": "https://dc.lft.to/lastmile_qr_scan", "android": "https://dc.lft.to/lastmile_qr_scan"}, "is_reserved": 0}, {"lon": -76.98337533333333, "bike_id": "c96e498589e403f9340ed72452e1fd2e", "lat": 38.86643383333333, "fusion_lon": 0.0, "fusion_lat": 0.0, "type": "electric_scooter", "name": "c96e498589e403f9340ed72452e1fd2e", "is_disabled": 0, "rental_uris": {"ios": "https://dc.lft.to/lastmile_qr_scan", "android": "https://dc.lft.to/lastmile_qr_scan"}, "is_reserved": 0}, {"lon": -77.01631716666667, "bike_id": "c73ba9bc09716e0ac7f03b713821eb16", "lat": 38.903559, "fusion_lon": 0.0, "fusion_lat": 0.0, "type": "electric_scooter", "name": "c73ba9bc09716e0ac7f03b713821eb16", "is_disabled": 0, "rental_uris": {"ios": "https://dc.lft.to/lastmile_qr_scan", "android": "https://dc.lft.to/lastmile_qr_scan"}, "is_reserved": 0}, {"lon": -77.041953, "bike_id": "d4f06e97b374b4061a0f6b1f5da809af", "lat": 38.9075365, "fusion_lon": 0.0, "fusion_lat": 0.0, "type": "electric_scooter", "name": "d4f06e97b374b4061a0f6b1f5da809af", "is_disabled": 0, "rental_uris": {"ios": "https://dc.lft.to/lastmile_qr_scan", "android": "https://dc.lft.to/lastmile_qr_scan"}, "is_reserved": 0}, {"lon": -77.05265, "bike_id": "25223fbd2c82a3f1f749148d603e6107", "lat": 38.9277535, "fusion_lon": 0.0, "fusion_lat": 0.0, "type": "electric_scooter", "name": "25223fbd2c82a3f1f749148d603e6107", "is_disabled": 0, "rental_uris": {"ios": "https://dc.lft.to/lastmile_qr_scan", "android": "https://dc.lft.to/lastmile_qr_scan"}, "is_reserved": 0}, {"lon": -77.06397733333333, "bike_id": "6d74e3f645707f8fba1cbf153f00c4b6", "lat": 38.94323966666666, "fusion_lon": 0.0, "fusion_lat": 0.0, "type": "electric_scooter", "name": "6d74e3f645707f8fba1cbf153f00c4b6", "is_disabled": 0, "rental_uris": {"ios": "https://dc.lft.to/lastmile_qr_scan", "android": "https://dc.lft.to/lastmile_qr_scan"}, "is_reserved": 0}, {"lon": -76.990371, "bike_id": "d430b9fad42e08086c6dc8f6e9738854", "lat": 38.90286033333334, "fusion_lon": 0.0, "fusion_lat": 0.0, "type": "electric_scooter", "name": "d430b9fad42e08086c6dc8f6e9738854", "is_disabled": 0, "rental_uris": {"ios": "https://dc.lft.to/lastmile_qr_scan", "android": "https://dc.lft.to/lastmile_qr_scan"}, "is_reserved": 0}, {"lon": -77.04182116666667, "bike_id": "6748ea47eb775e412cd9a703f4b0a724", "lat": 38.9155255, "fusion_lon": 0.0, "fusion_lat": 0.0, "type": "electric_scooter", "name": "6748ea47eb775e412cd9a703f4b0a724", "is_disabled": 0, "rental_uris": {"ios": "https://dc.lft.to/lastmile_qr_scan", "android": "https://dc.lft.to/lastmile_qr_scan"}, "is_reserved": 0}, {"lon": -77.034423, "bike_id": "2ead1d588b15ca4d3a7277576b499123", "lat": 38.9184445, "fusion_lon": 0.0, "fusion_lat": 0.0, "type": "electric_scooter", "name": "2ead1d588b15ca4d3a7277576b499123", "is_disabled": 0, "rental_uris": {"ios": "https://dc.lft.to/lastmile_qr_scan", "android": "https://dc.lft.to/lastmile_qr_scan"}, "is_reserved": 0}, {"lon": -77.02716383333333, "bike_id": "3c997956ad63e19e9d18154eea92d25b", "lat": 38.9288015, "fusion_lon": 0.0, "fusion_lat": 0.0, "type": "electric_scooter", "name": "3c997956ad63e19e9d18154eea92d25b", "is_disabled": 0, "rental_uris": {"ios": "https://dc.lft.to/lastmile_qr_scan", "android": "https://dc.lft.to/lastmile_qr_scan"}, "is_reserved": 0}, {"lon": -76.99884083333333, "bike_id": "a93971477270f1c9df7e6331b46799ad", "lat": 38.92054783333333, "fusion_lon": 0.0, "fusion_lat": 0.0, "type": "electric_scooter", "name": "a93971477270f1c9df7e6331b46799ad", "is_disabled": 0, "rental_uris": {"ios": "https://dc.lft.to/lastmile_qr_scan", "android": "https://dc.lft.to/lastmile_qr_scan"}, "is_reserved": 0}, {"lon": -77.04025433333334, "bike_id": "91b8f8725cb3b49e638d8f1c8b2a18e0", "lat": 38.90450283333333, "fusion_lon": 0.0, "fusion_lat": 0.0, "type": "electric_scooter", "name": "91b8f8725cb3b49e638d8f1c8b2a18e0", "is_disabled": 0, "rental_uris": {"ios": "https://dc.lft.to/lastmile_qr_scan", "android": "https://dc.lft.to/lastmile_qr_scan"}, "is_reserved": 0}, {"lon": -77.03457866666666, "bike_id": "943d7237961741929d8df94d59f7c825", "lat": 38.93426816666667, "fusion_lon": 0.0, "fusion_lat": 0.0, "type": "electric_scooter", "name": "943d7237961741929d8df94d59f7c825", "is_disabled": 0, "rental_uris": {"ios": "https://dc.lft.to/lastmile_qr_scan", "android": "https://dc.lft.to/lastmile_qr_scan"}, "is_reserved": 0}, {"lon": -77.04600166666667, "bike_id": "32128b8df8722c987f5936c61bd33387", "lat": 38.9076505, "fusion_lon": 0.0, "fusion_lat": 0.0, "type": "electric_scooter", "name": "32128b8df8722c987f5936c61bd33387", "is_disabled": 0, "rental_uris": {"ios": "https://dc.lft.to/lastmile_qr_scan", "android": "https://dc.lft.to/lastmile_qr_scan"}, "is_reserved": 0}, {"lon": -76.954715, "bike_id": "313aa6d0da48357964ce503cf1c4adc7", "lat": 38.88659616666666, "fusion_lon": 0.0, "fusion_lat": 0.0, "type": "electric_scooter", "name": "313aa6d0da48357964ce503cf1c4adc7", "is_disabled": 0, "rental_uris": {"ios": "https://dc.lft.to/lastmile_qr_scan", "android": "https://dc.lft.to/lastmile_qr_scan"}, "is_reserved": 0}, {"lon": -77.00569533333334, "bike_id": "25ebb494c9cf9797a6d6ce75032b8b06", "lat": 38.874751333333336, "fusion_lon": 0.0, "fusion_lat": 0.0, "type": "electric_scooter", "name": "25ebb494c9cf9797a6d6ce75032b8b06", "is_disabled": 0, "rental_uris": {"ios": "https://dc.lft.to/lastmile_qr_scan", "android": "https://dc.lft.to/lastmile_qr_scan"}, "is_reserved": 0}, {"lon": -77.032795, "bike_id": "5ea8484767042e4b6df5d1bf20712bf0", "lat": 38.93458583333334, "fusion_lon": 0.0, "fusion_lat": 0.0, "type": "electric_scooter", "name": "5ea8484767042e4b6df5d1bf20712bf0", "is_disabled": 0, "rental_uris": {"ios": "https://dc.lft.to/lastmile_qr_scan", "android": "https://dc.lft.to/lastmile_qr_scan"}, "is_reserved": 0}, {"lon": -76.98660583333333, "bike_id": "06fbd57b6ee9adcff1300e5e2ea0b581", "lat": 38.86750383333333, "fusion_lon": 0.0, "fusion_lat": 0.0, "type": "electric_scooter", "name": "06fbd57b6ee9adcff1300e5e2ea0b581", "is_disabled": 0, "rental_uris": {"ios": "https://dc.lft.to/lastmile_qr_scan", "android": "https://dc.lft.to/lastmile_qr_scan"}, "is_reserved": 0}, {"lon": -77.030828, "bike_id": "f74f866a41de1be2fbab5d75bb37c8e3", "lat": 38.915551, "fusion_lon": 0.0, "fusion_lat": 0.0, "type": "electric_scooter", "name": "f74f866a41de1be2fbab5d75bb37c8e3", "is_disabled": 0, "rental_uris": {"ios": "https://dc.lft.to/lastmile_qr_scan", "android": "https://dc.lft.to/lastmile_qr_scan"}, "is_reserved": 0}, {"lon": -77.0249575, "bike_id": "2d44849adf3083fe39c1531940420410", "lat": 38.925907333333335, "fusion_lon": 0.0, "fusion_lat": 0.0, "type": "electric_scooter", "name": "2d44849adf3083fe39c1531940420410", "is_disabled": 0, "rental_uris": {"ios": "https://dc.lft.to/lastmile_qr_scan", "android": "https://dc.lft.to/lastmile_qr_scan"}, "is_reserved": 0}, {"lon": -77.056863, "bike_id": "48f60610526a0ffcf522778c12913a9c", "lat": 38.905001666666664, "fusion_lon": 0.0, "fusion_lat": 0.0, "type": "electric_scooter", "name": "48f60610526a0ffcf522778c12913a9c", "is_disabled": 0, "rental_uris": {"ios": "https://dc.lft.to/lastmile_qr_scan", "android": "https://dc.lft.to/lastmile_qr_scan"}, "is_reserved": 0}, {"lon": -77.0412105, "bike_id": "e10afc50582387733a492f38f8449aa4", "lat": 38.9440985, "fusion_lon": 0.0, "fusion_lat": 0.0, "type": "electric_bike", "name": "e10afc50582387733a492f38f8449aa4", "is_disabled": 0, "rental_uris": {"ios": "https://dc.lft.to/lastmile_qr_scan", "android": "https://dc.lft.to/lastmile_qr_scan"}, "is_reserved": 0}, {"lon": -77.052044, "bike_id": "aa583869592cf629cf9656f06163fdaf", "lat": 38.92436283333333, "fusion_lon": 0.0, "fusion_lat": 0.0, "type": "electric_scooter", "name": "aa583869592cf629cf9656f06163fdaf", "is_disabled": 0, "rental_uris": {"ios": "https://dc.lft.to/lastmile_qr_scan", "android": "https://dc.lft.to/lastmile_qr_scan"}, "is_reserved": 0}, {"lon": -76.98560666666667, "bike_id": "41cc6da25c865e48d70e7e56b9e1dd71", "lat": 38.91035183333334, "fusion_lon": 0.0, "fusion_lat": 0.0, "type": "electric_scooter", "name": "41cc6da25c865e48d70e7e56b9e1dd71", "is_disabled": 0, "rental_uris": {"ios": "https://dc.lft.to/lastmile_qr_scan", "android": "https://dc.lft.to/lastmile_qr_scan"}, "is_reserved": 0}, {"lon": -76.998144, "bike_id": "5bb66e84f9f90424aa8f74570fe4c170", "lat": 38.90724433333333, "fusion_lon": 0.0, "fusion_lat": 0.0, "type": "electric_scooter", "name": "5bb66e84f9f90424aa8f74570fe4c170", "is_disabled": 0, "rental_uris": {"ios": "https://dc.lft.to/lastmile_qr_scan", "android": "https://dc.lft.to/lastmile_qr_scan"}, "is_reserved": 0}, {"lon": -77.0239195, "bike_id": "26a7e37f736b2a8dcb462733dbf02ec5", "lat": 38.9030805, "fusion_lon": 0.0, "fusion_lat": 0.0, "type": "electric_scooter", "name": "26a7e37f736b2a8dcb462733dbf02ec5", "is_disabled": 0, "rental_uris": {"ios": "https://dc.lft.to/lastmile_qr_scan", "android": "https://dc.lft.to/lastmile_qr_scan"}, "is_reserved": 0}, {"lon": -77.05211783333333, "bike_id": "9f9e5188a40ca5a1025f0b6ebd102101", "lat": 38.92481383333333, "fusion_lon": 0.0, "fusion_lat": 0.0, "type": "electric_scooter", "name": "9f9e5188a40ca5a1025f0b6ebd102101", "is_disabled": 0, "rental_uris": {"ios": "https://dc.lft.to/lastmile_qr_scan", "android": "https://dc.lft.to/lastmile_qr_scan"}, "is_reserved": 0}, {"lon": -77.03837916666667, "bike_id": "08712556eeb81c65284037590f330bf1", "lat": 38.911846, "fusion_lon": 0.0, "fusion_lat": 0.0, "type": "electric_scooter", "name": "08712556eeb81c65284037590f330bf1", "is_disabled": 0, "rental_uris": {"ios": "https://dc.lft.to/lastmile_qr_scan", "android": "https://dc.lft.to/lastmile_qr_scan"}, "is_reserved": 0}, {"lon": -77.038052, "bike_id": "1a7059abcdf4b4e6b9971d2d0e2f7e85", "lat": 38.920710666666665, "fusion_lon": 0.0, "fusion_lat": 0.0, "type": "electric_scooter", "name": "1a7059abcdf4b4e6b9971d2d0e2f7e85", "is_disabled": 0, "rental_uris": {"ios": "https://dc.lft.to/lastmile_qr_scan", "android": "https://dc.lft.to/lastmile_qr_scan"}, "is_reserved": 0}, {"lon": -77.03192816666666, "bike_id": "e4ba471d96d8c78ea73ba2a64dca3076", "lat": 38.93060783333333, "fusion_lon": 0.0, "fusion_lat": 0.0, "type": "electric_scooter", "name": "e4ba471d96d8c78ea73ba2a64dca3076", "is_disabled": 0, "rental_uris": {"ios": "https://dc.lft.to/lastmile_qr_scan", "android": "https://dc.lft.to/lastmile_qr_scan"}, "is_reserved": 0}, {"lon": -77.05361, "bike_id": "88aeb760bbeea62a10a48e990c337a75", "lat": 38.9272725, "fusion_lon": 0.0, "fusion_lat": 0.0, "type": "electric_scooter", "name": "88aeb760bbeea62a10a48e990c337a75", "is_disabled": 0, "rental_uris": {"ios": "https://dc.lft.to/lastmile_qr_scan", "android": "https://dc.lft.to/lastmile_qr_scan"}, "is_reserved": 0}, {"lon": -76.9882355, "bike_id": "2e1fd8002fc86f720dcd3d7c620399dc", "lat": 38.8907345, "fusion_lon": 0.0, "fusion_lat": 0.0, "type": "electric_scooter", "name": "2e1fd8002fc86f720dcd3d7c620399dc", "is_disabled": 0, "rental_uris": {"ios": "https://dc.lft.to/lastmile_qr_scan", "android": "https://dc.lft.to/lastmile_qr_scan"}, "is_reserved": 0}, {"lon": -77.0136685, "bike_id": "ea755afcc851fda46ef5417588a6d4e7", "lat": 38.88705683333333, "fusion_lon": 0.0, "fusion_lat": 0.0, "type": "electric_scooter", "name": "ea755afcc851fda46ef5417588a6d4e7", "is_disabled": 0, "rental_uris": {"ios": "https://dc.lft.to/lastmile_qr_scan", "android": "https://dc.lft.to/lastmile_qr_scan"}, "is_reserved": 0}, {"lon": -77.05442766666667, "bike_id": "77c1dc51c5efe952c3e36240bd5365d3", "lat": 38.94359166666667, "fusion_lon": 0.0, "fusion_lat": 0.0, "type": "electric_bike", "name": "77c1dc51c5efe952c3e36240bd5365d3", "is_disabled": 0, "rental_uris": {"ios": "https://dc.lft.to/lastmile_qr_scan", "android": "https://dc.lft.to/lastmile_qr_scan"}, "is_reserved": 0}, {"lon": -77.04601116666667, "bike_id": "60f1b875e022e08153b4a4bfc9875b76", "lat": 38.916040333333335, "fusion_lon": 0.0, "fusion_lat": 0.0, "type": "electric_scooter", "name": "60f1b875e022e08153b4a4bfc9875b76", "is_disabled": 0, "rental_uris": {"ios": "https://dc.lft.to/lastmile_qr_scan", "android": "https://dc.lft.to/lastmile_qr_scan"}, "is_reserved": 0}, {"lon": -77.02400033333333, "bike_id": "d9d30c14282a31bffcacc7734a1be8a8", "lat": 38.919984166666666, "fusion_lon": 0.0, "fusion_lat": 0.0, "type": "electric_scooter", "name": "d9d30c14282a31bffcacc7734a1be8a8", "is_disabled": 0, "rental_uris": {"ios": "https://dc.lft.to/lastmile_qr_scan", "android": "https://dc.lft.to/lastmile_qr_scan"}, "is_reserved": 0}, {"lon": -77.02950183333333, "bike_id": "dfffb2818ae68c9e271d0c667de8f661", "lat": 38.898094, "fusion_lon": 0.0, "fusion_lat": 0.0, "type": "electric_scooter", "name": "dfffb2818ae68c9e271d0c667de8f661", "is_disabled": 0, "rental_uris": {"ios": "https://dc.lft.to/lastmile_qr_scan", "android": "https://dc.lft.to/lastmile_qr_scan"}, "is_reserved": 0}, {"lon": -77.02694866666667, "bike_id": "dffb5205a1713ea79f7431adecf7ad05", "lat": 38.90844633333333, "fusion_lon": 0.0, "fusion_lat": 0.0, "type": "electric_scooter", "name": "dffb5205a1713ea79f7431adecf7ad05", "is_disabled": 0, "rental_uris": {"ios": "https://dc.lft.to/lastmile_qr_scan", "android": "https://dc.lft.to/lastmile_qr_scan"}, "is_reserved": 0}, {"lon": -77.06336033333334, "bike_id": "1e6917e1e909c08076113f136b2b0e1b", "lat": 38.905274666666664, "fusion_lon": 0.0, "fusion_lat": 0.0, "type": "electric_scooter", "name": "1e6917e1e909c08076113f136b2b0e1b", "is_disabled": 0, "rental_uris": {"ios": "https://dc.lft.to/lastmile_qr_scan", "android": "https://dc.lft.to/lastmile_qr_scan"}, "is_reserved": 0}, {"lon": -77.02273283333334, "bike_id": "2224121aa0e067764d63cf915a68c549", "lat": 38.887366166666666, "fusion_lon": 0.0, "fusion_lat": 0.0, "type": "electric_scooter", "name": "2224121aa0e067764d63cf915a68c549", "is_disabled": 0, "rental_uris": {"ios": "https://dc.lft.to/lastmile_qr_scan", "android": "https://dc.lft.to/lastmile_qr_scan"}, "is_reserved": 0}, {"lon": -77.04328333333333, "bike_id": "9df16c978748e3bc93da35cf264bb823", "lat": 38.907443, "fusion_lon": 0.0, "fusion_lat": 0.0, "type": "electric_scooter", "name": "9df16c978748e3bc93da35cf264bb823", "is_disabled": 0, "rental_uris": {"ios": "https://dc.lft.to/lastmile_qr_scan", "android": "https://dc.lft.to/lastmile_qr_scan"}, "is_reserved": 0}, {"lon": -77.02628316666667, "bike_id": "94422faaca924adcad184843b7fe28f3", "lat": 38.962143, "fusion_lon": 0.0, "fusion_lat": 0.0, "type": "electric_bike", "name": "94422faaca924adcad184843b7fe28f3", "is_disabled": 0, "rental_uris": {"ios": "https://dc.lft.to/lastmile_qr_scan", "android": "https://dc.lft.to/lastmile_qr_scan"}, "is_reserved": 0}, {"lon": -77.0191105, "bike_id": "8cafcb1637d86b02bc8522892003d364", "lat": 38.88599416666667, "fusion_lon": 0.0, "fusion_lat": 0.0, "type": "electric_scooter", "name": "8cafcb1637d86b02bc8522892003d364", "is_disabled": 0, "rental_uris": {"ios": "https://dc.lft.to/lastmile_qr_scan", "android": "https://dc.lft.to/lastmile_qr_scan"}, "is_reserved": 0}, {"lon": -77.0092375, "bike_id": "0d05c18142d4370852d9e0ef06fe6363", "lat": 38.8960575, "fusion_lon": 0.0, "fusion_lat": 0.0, "type": "electric_scooter", "name": "0d05c18142d4370852d9e0ef06fe6363", "is_disabled": 0, "rental_uris": {"ios": "https://dc.lft.to/lastmile_qr_scan", "android": "https://dc.lft.to/lastmile_qr_scan"}, "is_reserved": 0}, {"lon": -77.0364115, "bike_id": "e23418accdb85bf4572046ff59cbe65b", "lat": 38.924125333333336, "fusion_lon": 0.0, "fusion_lat": 0.0, "type": "electric_scooter", "name": "e23418accdb85bf4572046ff59cbe65b", "is_disabled": 0, "rental_uris": {"ios": "https://dc.lft.to/lastmile_qr_scan", "android": "https://dc.lft.to/lastmile_qr_scan"}, "is_reserved": 0}, {"lon": -77.01104066666667, "bike_id": "7342bc48d02f2eee2bd71add3e0f19aa", "lat": 38.894822166666664, "fusion_lon": 0.0, "fusion_lat": 0.0, "type": "electric_scooter", "name": "7342bc48d02f2eee2bd71add3e0f19aa", "is_disabled": 0, "rental_uris": {"ios": "https://dc.lft.to/lastmile_qr_scan", "android": "https://dc.lft.to/lastmile_qr_scan"}, "is_reserved": 0}, {"lon": -77.038357, "bike_id": "c87309542e9d2fc17f51974b407f572e", "lat": 38.9112105, "fusion_lon": 0.0, "fusion_lat": 0.0, "type": "electric_scooter", "name": "c87309542e9d2fc17f51974b407f572e", "is_disabled": 0, "rental_uris": {"ios": "https://dc.lft.to/lastmile_qr_scan", "android": "https://dc.lft.to/lastmile_qr_scan"}, "is_reserved": 0}, {"lon": -76.97891166666666, "bike_id": "a978f46a601e4cba847e6576efe7b2ac", "lat": 38.885381333333335, "fusion_lon": 0.0, "fusion_lat": 0.0, "type": "electric_scooter", "name": "a978f46a601e4cba847e6576efe7b2ac", "is_disabled": 0, "rental_uris": {"ios": "https://dc.lft.to/lastmile_qr_scan", "android": "https://dc.lft.to/lastmile_qr_scan"}, "is_reserved": 0}, {"lon": -76.98552083333334, "bike_id": "dac9fff712502a874e619c91f8ad9cec", "lat": 38.907225833333335, "fusion_lon": 0.0, "fusion_lat": 0.0, "type": "electric_scooter", "name": "dac9fff712502a874e619c91f8ad9cec", "is_disabled": 0, "rental_uris": {"ios": "https://dc.lft.to/lastmile_qr_scan", "android": "https://dc.lft.to/lastmile_qr_scan"}, "is_reserved": 0}, {"lon": -77.02759866666666, "bike_id": "d4345288acfc2651d28c39bb5e6ffb0d", "lat": 38.927707166666664, "fusion_lon": 0.0, "fusion_lat": 0.0, "type": "electric_scooter", "name": "d4345288acfc2651d28c39bb5e6ffb0d", "is_disabled": 0, "rental_uris": {"ios": "https://dc.lft.to/lastmile_qr_scan", "android": "https://dc.lft.to/lastmile_qr_scan"}, "is_reserved": 0}, {"lon": -76.98338733333334, "bike_id": "3b3a3fb62f649feac97e89341b0ad1bb", "lat": 38.89545666666667, "fusion_lon": 0.0, "fusion_lat": 0.0, "type": "electric_scooter", "name": "3b3a3fb62f649feac97e89341b0ad1bb", "is_disabled": 0, "rental_uris": {"ios": "https://dc.lft.to/lastmile_qr_scan", "android": "https://dc.lft.to/lastmile_qr_scan"}, "is_reserved": 0}, {"lon": -77.02960683333333, "bike_id": "ec8fb3588a4bef024e3b128d2c20fe44", "lat": 38.912765666666665, "fusion_lon": 0.0, "fusion_lat": 0.0, "type": "electric_scooter", "name": "ec8fb3588a4bef024e3b128d2c20fe44", "is_disabled": 0, "rental_uris": {"ios": "https://dc.lft.to/lastmile_qr_scan", "android": "https://dc.lft.to/lastmile_qr_scan"}, "is_reserved": 0}, {"lon": -76.979957, "bike_id": "8fa33d6d09f4ffbc0f126832219f50ca", "lat": 38.89936266666667, "fusion_lon": 0.0, "fusion_lat": 0.0, "type": "electric_scooter", "name": "8fa33d6d09f4ffbc0f126832219f50ca", "is_disabled": 0, "rental_uris": {"ios": "https://dc.lft.to/lastmile_qr_scan", "android": "https://dc.lft.to/lastmile_qr_scan"}, "is_reserved": 0}, {"lon": -77.01654733333334, "bike_id": "dd697ac8507b4d55c6c2181e5d987b21", "lat": 38.912568, "fusion_lon": 0.0, "fusion_lat": 0.0, "type": "electric_scooter", "name": "dd697ac8507b4d55c6c2181e5d987b21", "is_disabled": 0, "rental_uris": {"ios": "https://dc.lft.to/lastmile_qr_scan", "android": "https://dc.lft.to/lastmile_qr_scan"}, "is_reserved": 0}, {"lon": -77.01836766666666, "bike_id": "f00e511ce00b1ee5b6f4eb4cafa81827", "lat": 38.909343666666665, "fusion_lon": 0.0, "fusion_lat": 0.0, "type": "electric_scooter", "name": "f00e511ce00b1ee5b6f4eb4cafa81827", "is_disabled": 0, "rental_uris": {"ios": "https://dc.lft.to/lastmile_qr_scan", "android": "https://dc.lft.to/lastmile_qr_scan"}, "is_reserved": 0}, {"lon": -77.02759033333334, "bike_id": "591d4d17c95656a8e67dab5b3f213fe4", "lat": 38.92387333333333, "fusion_lon": 0.0, "fusion_lat": 0.0, "type": "electric_scooter", "name": "591d4d17c95656a8e67dab5b3f213fe4", "is_disabled": 0, "rental_uris": {"ios": "https://dc.lft.to/lastmile_qr_scan", "android": "https://dc.lft.to/lastmile_qr_scan"}, "is_reserved": 0}, {"lon": -77.02511683333333, "bike_id": "376c6330ce924b07499450781cb3386e", "lat": 38.942077833333336, "fusion_lon": 0.0, "fusion_lat": 0.0, "type": "electric_scooter", "name": "376c6330ce924b07499450781cb3386e", "is_disabled": 0, "rental_uris": {"ios": "https://dc.lft.to/lastmile_qr_scan", "android": "https://dc.lft.to/lastmile_qr_scan"}, "is_reserved": 0}, {"lon": -76.99703633333333, "bike_id": "eb567bcc673250e820e45870884cbff3", "lat": 38.84430233333333, "fusion_lon": 0.0, "fusion_lat": 0.0, "type": "electric_scooter", "name": "eb567bcc673250e820e45870884cbff3", "is_disabled": 0, "rental_uris": {"ios": "https://dc.lft.to/lastmile_qr_scan", "android": "https://dc.lft.to/lastmile_qr_scan"}, "is_reserved": 0}, {"lon": -77.01758, "bike_id": "f055ca2153ba76fed96e26297cf29368", "lat": 38.881956833333334, "fusion_lon": 0.0, "fusion_lat": 0.0, "type": "electric_scooter", "name": "f055ca2153ba76fed96e26297cf29368", "is_disabled": 0, "rental_uris": {"ios": "https://dc.lft.to/lastmile_qr_scan", "android": "https://dc.lft.to/lastmile_qr_scan"}, "is_reserved": 0}, {"lon": -77.0054015, "bike_id": "e6b8cfcb8d0269c1377bfe18a6324d45", "lat": 38.87545466666667, "fusion_lon": 0.0, "fusion_lat": 0.0, "type": "electric_scooter", "name": "e6b8cfcb8d0269c1377bfe18a6324d45", "is_disabled": 0, "rental_uris": {"ios": "https://dc.lft.to/lastmile_qr_scan", "android": "https://dc.lft.to/lastmile_qr_scan"}, "is_reserved": 0}, {"lon": -77.11914633333333, "bike_id": "8752ac96fac817d2aed11318fe537c16", "lat": 38.88095966666667, "fusion_lon": 0.0, "fusion_lat": 0.0, "type": "electric_bike", "name": "8752ac96fac817d2aed11318fe537c16", "is_disabled": 0, "rental_uris": {"ios": "https://dc.lft.to/lastmile_qr_scan", "android": "https://dc.lft.to/lastmile_qr_scan"}, "is_reserved": 0}, {"lon": -77.055683, "bike_id": "ade49bab0e0bdca2cf75ca29bede11be", "lat": 38.909370333333335, "fusion_lon": 0.0, "fusion_lat": 0.0, "type": "electric_scooter", "name": "ade49bab0e0bdca2cf75ca29bede11be", "is_disabled": 0, "rental_uris": {"ios": "https://dc.lft.to/lastmile_qr_scan", "android": "https://dc.lft.to/lastmile_qr_scan"}, "is_reserved": 0}, {"lon": -77.02655116666666, "bike_id": "61f118e20d691f070b23bcf5e5a86e0f", "lat": 38.98814333333333, "fusion_lon": 0.0, "fusion_lat": 0.0, "type": "electric_bike", "name": "61f118e20d691f070b23bcf5e5a86e0f", "is_disabled": 0, "rental_uris": {"ios": "https://dc.lft.to/lastmile_qr_scan", "android": "https://dc.lft.to/lastmile_qr_scan"}, "is_reserved": 0}, {"lon": -77.03255216666666, "bike_id": "870f3f3435296a3f8ec7cd7b3adf3460", "lat": 38.935604, "fusion_lon": 0.0, "fusion_lat": 0.0, "type": "electric_scooter", "name": "870f3f3435296a3f8ec7cd7b3adf3460", "is_disabled": 0, "rental_uris": {"ios": "https://dc.lft.to/lastmile_qr_scan", "android": "https://dc.lft.to/lastmile_qr_scan"}, "is_reserved": 0}, {"lon": -77.01372166666667, "bike_id": "ff39d9b8b2bb618bbe2e78d98a3ce9a2", "lat": 38.88676783333333, "fusion_lon": 0.0, "fusion_lat": 0.0, "type": "electric_scooter", "name": "ff39d9b8b2bb618bbe2e78d98a3ce9a2", "is_disabled": 0, "rental_uris": {"ios": "https://dc.lft.to/lastmile_qr_scan", "android": "https://dc.lft.to/lastmile_qr_scan"}, "is_reserved": 0}, {"lon": -76.987105, "bike_id": "95faf06bed59963f75103baa9571236a", "lat": 38.866286333333335, "fusion_lon": 0.0, "fusion_lat": 0.0, "type": "electric_scooter", "name": "95faf06bed59963f75103baa9571236a", "is_disabled": 0, "rental_uris": {"ios": "https://dc.lft.to/lastmile_qr_scan", "android": "https://dc.lft.to/lastmile_qr_scan"}, "is_reserved": 0}, {"lon": -77.01427333333334, "bike_id": "c79ebcabbca84f9d3b8adfe795661857", "lat": 38.9146765, "fusion_lon": 0.0, "fusion_lat": 0.0, "type": "electric_scooter", "name": "c79ebcabbca84f9d3b8adfe795661857", "is_disabled": 0, "rental_uris": {"ios": "https://dc.lft.to/lastmile_qr_scan", "android": "https://dc.lft.to/lastmile_qr_scan"}, "is_reserved": 0}, {"lon": -77.05864333333334, "bike_id": "59d4604898baf1de61b6cf48a235314e", "lat": 38.9360825, "fusion_lon": 0.0, "fusion_lat": 0.0, "type": "electric_scooter", "name": "59d4604898baf1de61b6cf48a235314e", "is_disabled": 0, "rental_uris": {"ios": "https://dc.lft.to/lastmile_qr_scan", "android": "https://dc.lft.to/lastmile_qr_scan"}, "is_reserved": 0}, {"lon": -77.020304, "bike_id": "96006c768e6345c8fca42685413a029d", "lat": 38.92441733333333, "fusion_lon": 0.0, "fusion_lat": 0.0, "type": "electric_scooter", "name": "96006c768e6345c8fca42685413a029d", "is_disabled": 0, "rental_uris": {"ios": "https://dc.lft.to/lastmile_qr_scan", "android": "https://dc.lft.to/lastmile_qr_scan"}, "is_reserved": 0}, {"lon": -77.0235905, "bike_id": "a04577666dde083ef14ec2f42775c46f", "lat": 38.8961195, "fusion_lon": 0.0, "fusion_lat": 0.0, "type": "electric_scooter", "name": "a04577666dde083ef14ec2f42775c46f", "is_disabled": 0, "rental_uris": {"ios": "https://dc.lft.to/lastmile_qr_scan", "android": "https://dc.lft.to/lastmile_qr_scan"}, "is_reserved": 0}, {"lon": -76.94810266666667, "bike_id": "07f7a83c35ee21ce11b31330679ed81b", "lat": 38.89355666666667, "fusion_lon": 0.0, "fusion_lat": 0.0, "type": "electric_scooter", "name": "07f7a83c35ee21ce11b31330679ed81b", "is_disabled": 0, "rental_uris": {"ios": "https://dc.lft.to/lastmile_qr_scan", "android": "https://dc.lft.to/lastmile_qr_scan"}, "is_reserved": 0}, {"lon": -76.983503, "bike_id": "4e1296f015868f54751fa18bb633f03f", "lat": 38.904545666666664, "fusion_lon": 0.0, "fusion_lat": 0.0, "type": "electric_scooter", "name": "4e1296f015868f54751fa18bb633f03f", "is_disabled": 0, "rental_uris": {"ios": "https://dc.lft.to/lastmile_qr_scan", "android": "https://dc.lft.to/lastmile_qr_scan"}, "is_reserved": 0}, {"lon": -77.0743425, "bike_id": "e6e1831feb51920f14516d1cde5297fa", "lat": 38.999473, "fusion_lon": 0.0, "fusion_lat": 0.0, "type": "electric_bike", "name": "e6e1831feb51920f14516d1cde5297fa", "is_disabled": 0, "rental_uris": {"ios": "https://dc.lft.to/lastmile_qr_scan", "android": "https://dc.lft.to/lastmile_qr_scan"}, "is_reserved": 0}, {"lon": -77.03010816666666, "bike_id": "cdbac751e5e10fe0077464224d1ad14e", "lat": 38.93113433333333, "fusion_lon": 0.0, "fusion_lat": 0.0, "type": "electric_scooter", "name": "cdbac751e5e10fe0077464224d1ad14e", "is_disabled": 0, "rental_uris": {"ios": "https://dc.lft.to/lastmile_qr_scan", "android": "https://dc.lft.to/lastmile_qr_scan"}, "is_reserved": 0}, {"lon": -77.05063866666667, "bike_id": "9a48c23900a36064ade32d8dd9f9c64c", "lat": 38.9070535, "fusion_lon": 0.0, "fusion_lat": 0.0, "type": "electric_scooter", "name": "9a48c23900a36064ade32d8dd9f9c64c", "is_disabled": 0, "rental_uris": {"ios": "https://dc.lft.to/lastmile_qr_scan", "android": "https://dc.lft.to/lastmile_qr_scan"}, "is_reserved": 0}, {"lon": -77.04368083333334, "bike_id": "3c194265327e1eea5804660246ead933", "lat": 38.90238466666667, "fusion_lon": 0.0, "fusion_lat": 0.0, "type": "electric_scooter", "name": "3c194265327e1eea5804660246ead933", "is_disabled": 0, "rental_uris": {"ios": "https://dc.lft.to/lastmile_qr_scan", "android": "https://dc.lft.to/lastmile_qr_scan"}, "is_reserved": 0}, {"lon": -77.0475805, "bike_id": "0e190739d608dff59024cd5884807710", "lat": 38.9095225, "fusion_lon": 0.0, "fusion_lat": 0.0, "type": "electric_scooter", "name": "0e190739d608dff59024cd5884807710", "is_disabled": 0, "rental_uris": {"ios": "https://dc.lft.to/lastmile_qr_scan", "android": "https://dc.lft.to/lastmile_qr_scan"}, "is_reserved": 0}, {"lon": -77.02869, "bike_id": "7e0f4023d21990ee5823f53697411a3a", "lat": 38.928186833333335, "fusion_lon": 0.0, "fusion_lat": 0.0, "type": "electric_scooter", "name": "7e0f4023d21990ee5823f53697411a3a", "is_disabled": 0, "rental_uris": {"ios": "https://dc.lft.to/lastmile_qr_scan", "android": "https://dc.lft.to/lastmile_qr_scan"}, "is_reserved": 0}, {"lon": -77.02107733333334, "bike_id": "ac014e647d3a903fec2f55842fc843cc", "lat": 38.8972225, "fusion_lon": 0.0, "fusion_lat": 0.0, "type": "electric_scooter", "name": "ac014e647d3a903fec2f55842fc843cc", "is_disabled": 0, "rental_uris": {"ios": "https://dc.lft.to/lastmile_qr_scan", "android": "https://dc.lft.to/lastmile_qr_scan"}, "is_reserved": 0}, {"lon": -77.03653316666667, "bike_id": "f78051a7eed5b4c77f65330a897b3807", "lat": 38.94092033333333, "fusion_lon": 0.0, "fusion_lat": 0.0, "type": "electric_scooter", "name": "f78051a7eed5b4c77f65330a897b3807", "is_disabled": 0, "rental_uris": {"ios": "https://dc.lft.to/lastmile_qr_scan", "android": "https://dc.lft.to/lastmile_qr_scan"}, "is_reserved": 0}, {"lon": -76.9968455, "bike_id": "7bbc5a98c5c60e17da127aed461bd447", "lat": 38.860262, "fusion_lon": 0.0, "fusion_lat": 0.0, "type": "electric_scooter", "name": "7bbc5a98c5c60e17da127aed461bd447", "is_disabled": 0, "rental_uris": {"ios": "https://dc.lft.to/lastmile_qr_scan", "android": "https://dc.lft.to/lastmile_qr_scan"}, "is_reserved": 0}, {"lon": -77.043369, "bike_id": "59653c4c0592615924f7a88d89888ef3", "lat": 38.9177535, "fusion_lon": 0.0, "fusion_lat": 0.0, "type": "electric_scooter", "name": "59653c4c0592615924f7a88d89888ef3", "is_disabled": 0, "rental_uris": {"ios": "https://dc.lft.to/lastmile_qr_scan", "android": "https://dc.lft.to/lastmile_qr_scan"}, "is_reserved": 0}, {"lon": -77.00772716666667, "bike_id": "481fa23b00fc1829904caee26d692898", "lat": 38.983905, "fusion_lon": 0.0, "fusion_lat": 0.0, "type": "electric_bike", "name": "481fa23b00fc1829904caee26d692898", "is_disabled": 0, "rental_uris": {"ios": "https://dc.lft.to/lastmile_qr_scan", "android": "https://dc.lft.to/lastmile_qr_scan"}, "is_reserved": 0}, {"lon": -77.02378166666666, "bike_id": "5c2a3512f3708425fb9ca08cc0481660", "lat": 38.892169333333335, "fusion_lon": 0.0, "fusion_lat": 0.0, "type": "electric_scooter", "name": "5c2a3512f3708425fb9ca08cc0481660", "is_disabled": 0, "rental_uris": {"ios": "https://dc.lft.to/lastmile_qr_scan", "android": "https://dc.lft.to/lastmile_qr_scan"}, "is_reserved": 0}, {"lon": -77.02380066666667, "bike_id": "122ad9bdad7f25a67b18349f739c8e74", "lat": 38.90959266666667, "fusion_lon": 0.0, "fusion_lat": 0.0, "type": "electric_scooter", "name": "122ad9bdad7f25a67b18349f739c8e74", "is_disabled": 0, "rental_uris": {"ios": "https://dc.lft.to/lastmile_qr_scan", "android": "https://dc.lft.to/lastmile_qr_scan"}, "is_reserved": 0}, {"lon": -77.0365455, "bike_id": "190ed834ff88463db5d82bd68010d08c", "lat": 38.912928, "fusion_lon": 0.0, "fusion_lat": 0.0, "type": "electric_scooter", "name": "190ed834ff88463db5d82bd68010d08c", "is_disabled": 0, "rental_uris": {"ios": "https://dc.lft.to/lastmile_qr_scan", "android": "https://dc.lft.to/lastmile_qr_scan"}, "is_reserved": 0}, {"lon": -76.976033, "bike_id": "cc91fa7828e9a424c8180d37a4598aa7", "lat": 38.905682166666665, "fusion_lon": 0.0, "fusion_lat": 0.0, "type": "electric_scooter", "name": "cc91fa7828e9a424c8180d37a4598aa7", "is_disabled": 0, "rental_uris": {"ios": "https://dc.lft.to/lastmile_qr_scan", "android": "https://dc.lft.to/lastmile_qr_scan"}, "is_reserved": 0}, {"lon": -77.00570966666666, "bike_id": "598b016dcce4755d43382c47e5b372eb", "lat": 38.87440483333334, "fusion_lon": 0.0, "fusion_lat": 0.0, "type": "electric_scooter", "name": "598b016dcce4755d43382c47e5b372eb", "is_disabled": 0, "rental_uris": {"ios": "https://dc.lft.to/lastmile_qr_scan", "android": "https://dc.lft.to/lastmile_qr_scan"}, "is_reserved": 0}, {"lon": -76.97321933333333, "bike_id": "34e83809c37d624d86a0cb7db6d60721", "lat": 38.91773333333333, "fusion_lon": 0.0, "fusion_lat": 0.0, "type": "electric_scooter", "name": "34e83809c37d624d86a0cb7db6d60721", "is_disabled": 0, "rental_uris": {"ios": "https://dc.lft.to/lastmile_qr_scan", "android": "https://dc.lft.to/lastmile_qr_scan"}, "is_reserved": 0}, {"lon": -77.00536183333334, "bike_id": "2632681cea6500495466fe5dfb301657", "lat": 38.929749, "fusion_lon": 0.0, "fusion_lat": 0.0, "type": "electric_scooter", "name": "2632681cea6500495466fe5dfb301657", "is_disabled": 0, "rental_uris": {"ios": "https://dc.lft.to/lastmile_qr_scan", "android": "https://dc.lft.to/lastmile_qr_scan"}, "is_reserved": 0}, {"lon": -77.03461683333333, "bike_id": "13759a4ce2c21a08817b7d0bfe12cddc", "lat": 38.917036, "fusion_lon": 0.0, "fusion_lat": 0.0, "type": "electric_scooter", "name": "13759a4ce2c21a08817b7d0bfe12cddc", "is_disabled": 0, "rental_uris": {"ios": "https://dc.lft.to/lastmile_qr_scan", "android": "https://dc.lft.to/lastmile_qr_scan"}, "is_reserved": 0}, {"lon": -77.0020265, "bike_id": "8933d0eab16e64fd8f3339c9974e47e2", "lat": 38.8954085, "fusion_lon": 0.0, "fusion_lat": 0.0, "type": "electric_scooter", "name": "8933d0eab16e64fd8f3339c9974e47e2", "is_disabled": 0, "rental_uris": {"ios": "https://dc.lft.to/lastmile_qr_scan", "android": "https://dc.lft.to/lastmile_qr_scan"}, "is_reserved": 0}, {"lon": -77.02267583333334, "bike_id": "3e218f659139d046a6d867a1ceb75a8e", "lat": 38.93762516666666, "fusion_lon": 0.0, "fusion_lat": 0.0, "type": "electric_scooter", "name": "3e218f659139d046a6d867a1ceb75a8e", "is_disabled": 0, "rental_uris": {"ios": "https://dc.lft.to/lastmile_qr_scan", "android": "https://dc.lft.to/lastmile_qr_scan"}, "is_reserved": 0}, {"lon": -77.03205633333333, "bike_id": "9204e86e2431cbddd7d95ee4149c3a8d", "lat": 38.88407566666667, "fusion_lon": 0.0, "fusion_lat": 0.0, "type": "electric_scooter", "name": "9204e86e2431cbddd7d95ee4149c3a8d", "is_disabled": 0, "rental_uris": {"ios": "https://dc.lft.to/lastmile_qr_scan", "android": "https://dc.lft.to/lastmile_qr_scan"}, "is_reserved": 0}, {"lon": -76.93733416666667, "bike_id": "e1a6a107de9daa0943d54de25165b599", "lat": 38.890131, "fusion_lon": 0.0, "fusion_lat": 0.0, "type": "electric_scooter", "name": "e1a6a107de9daa0943d54de25165b599", "is_disabled": 0, "rental_uris": {"ios": "https://dc.lft.to/lastmile_qr_scan", "android": "https://dc.lft.to/lastmile_qr_scan"}, "is_reserved": 0}, {"lon": -77.06485483333333, "bike_id": "2224caa45e39a48560ec34a96e7b2739", "lat": 38.9464605, "fusion_lon": 0.0, "fusion_lat": 0.0, "type": "electric_scooter", "name": "2224caa45e39a48560ec34a96e7b2739", "is_disabled": 0, "rental_uris": {"ios": "https://dc.lft.to/lastmile_qr_scan", "android": "https://dc.lft.to/lastmile_qr_scan"}, "is_reserved": 0}, {"lon": -77.02213683333333, "bike_id": "e3cfa6786a5f25d9e0444fe59c036d5c", "lat": 38.91270433333333, "fusion_lon": 0.0, "fusion_lat": 0.0, "type": "electric_scooter", "name": "e3cfa6786a5f25d9e0444fe59c036d5c", "is_disabled": 0, "rental_uris": {"ios": "https://dc.lft.to/lastmile_qr_scan", "android": "https://dc.lft.to/lastmile_qr_scan"}, "is_reserved": 0}, {"lon": -76.99561266666667, "bike_id": "fc9a756b1ae8ac894bde31cd69821afa", "lat": 38.900343, "fusion_lon": 0.0, "fusion_lat": 0.0, "type": "electric_scooter", "name": "fc9a756b1ae8ac894bde31cd69821afa", "is_disabled": 0, "rental_uris": {"ios": "https://dc.lft.to/lastmile_qr_scan", "android": "https://dc.lft.to/lastmile_qr_scan"}, "is_reserved": 0}, {"lon": -76.9869785, "bike_id": "6ba5ea58c3284fc04d794181102aa7b2", "lat": 38.8625145, "fusion_lon": 0.0, "fusion_lat": 0.0, "type": "electric_scooter", "name": "6ba5ea58c3284fc04d794181102aa7b2", "is_disabled": 0, "rental_uris": {"ios": "https://dc.lft.to/lastmile_qr_scan", "android": "https://dc.lft.to/lastmile_qr_scan"}, "is_reserved": 0}, {"lon": -77.03165033333333, "bike_id": "7851670f2d95f887458a42a7435ca76a", "lat": 38.91557316666667, "fusion_lon": 0.0, "fusion_lat": 0.0, "type": "electric_scooter", "name": "7851670f2d95f887458a42a7435ca76a", "is_disabled": 0, "rental_uris": {"ios": "https://dc.lft.to/lastmile_qr_scan", "android": "https://dc.lft.to/lastmile_qr_scan"}, "is_reserved": 0}, {"lon": -77.029719, "bike_id": "b2c632803fcbbd400722361bceb7b9c6", "lat": 38.917256333333334, "fusion_lon": 0.0, "fusion_lat": 0.0, "type": "electric_scooter", "name": "b2c632803fcbbd400722361bceb7b9c6", "is_disabled": 0, "rental_uris": {"ios": "https://dc.lft.to/lastmile_qr_scan", "android": "https://dc.lft.to/lastmile_qr_scan"}, "is_reserved": 0}, {"lon": -77.0371705, "bike_id": "d4b4cd9ec573d4af6e60fce4e5b8d3af", "lat": 38.926402, "fusion_lon": 0.0, "fusion_lat": 0.0, "type": "electric_scooter", "name": "d4b4cd9ec573d4af6e60fce4e5b8d3af", "is_disabled": 0, "rental_uris": {"ios": "https://dc.lft.to/lastmile_qr_scan", "android": "https://dc.lft.to/lastmile_qr_scan"}, "is_reserved": 0}, {"lon": -77.02097716666667, "bike_id": "0446ce7f3097a417e59c758cf8afa166", "lat": 38.90970133333333, "fusion_lon": 0.0, "fusion_lat": 0.0, "type": "electric_scooter", "name": "0446ce7f3097a417e59c758cf8afa166", "is_disabled": 0, "rental_uris": {"ios": "https://dc.lft.to/lastmile_qr_scan", "android": "https://dc.lft.to/lastmile_qr_scan"}, "is_reserved": 0}, {"lon": -76.99550416666666, "bike_id": "77b7997a2a105503b13ae24bfee716db", "lat": 38.862485666666664, "fusion_lon": 0.0, "fusion_lat": 0.0, "type": "electric_scooter", "name": "77b7997a2a105503b13ae24bfee716db", "is_disabled": 0, "rental_uris": {"ios": "https://dc.lft.to/lastmile_qr_scan", "android": "https://dc.lft.to/lastmile_qr_scan"}, "is_reserved": 0}, {"lon": -77.02307666666667, "bike_id": "fb8f7d3b038aa518cc80454744c86adb", "lat": 38.909595333333336, "fusion_lon": 0.0, "fusion_lat": 0.0, "type": "electric_scooter", "name": "fb8f7d3b038aa518cc80454744c86adb", "is_disabled": 0, "rental_uris": {"ios": "https://dc.lft.to/lastmile_qr_scan", "android": "https://dc.lft.to/lastmile_qr_scan"}, "is_reserved": 0}, {"lon": -77.03440533333334, "bike_id": "ff3efb67ab15c89f10ae6a5aa4debc90", "lat": 38.90289883333333, "fusion_lon": 0.0, "fusion_lat": 0.0, "type": "electric_scooter", "name": "ff3efb67ab15c89f10ae6a5aa4debc90", "is_disabled": 0, "rental_uris": {"ios": "https://dc.lft.to/lastmile_qr_scan", "android": "https://dc.lft.to/lastmile_qr_scan"}, "is_reserved": 0}, {"lon": -77.02188833333334, "bike_id": "71f13ebfbf77188792f170e97ecfce65", "lat": 38.90419716666667, "fusion_lon": 0.0, "fusion_lat": 0.0, "type": "electric_scooter", "name": "71f13ebfbf77188792f170e97ecfce65", "is_disabled": 0, "rental_uris": {"ios": "https://dc.lft.to/lastmile_qr_scan", "android": "https://dc.lft.to/lastmile_qr_scan"}, "is_reserved": 0}, {"lon": -77.0333345, "bike_id": "acab38857fbb2afbcdbb8be1893e79f8", "lat": 38.9604955, "fusion_lon": 0.0, "fusion_lat": 0.0, "type": "electric_scooter", "name": "acab38857fbb2afbcdbb8be1893e79f8", "is_disabled": 0, "rental_uris": {"ios": "https://dc.lft.to/lastmile_qr_scan", "android": "https://dc.lft.to/lastmile_qr_scan"}, "is_reserved": 0}, {"lon": -76.963765, "bike_id": "de8ef34386d1f08decabd918e512cdb7", "lat": 38.951747, "fusion_lon": 0.0, "fusion_lat": 0.0, "type": "electric_bike", "name": "de8ef34386d1f08decabd918e512cdb7", "is_disabled": 0, "rental_uris": {"ios": "https://dc.lft.to/lastmile_qr_scan", "android": "https://dc.lft.to/lastmile_qr_scan"}, "is_reserved": 0}, {"lon": -77.02792783333334, "bike_id": "b84d86e6846fd8d321bbb955c6dca0f8", "lat": 38.953980333333334, "fusion_lon": 0.0, "fusion_lat": 0.0, "type": "electric_scooter", "name": "b84d86e6846fd8d321bbb955c6dca0f8", "is_disabled": 0, "rental_uris": {"ios": "https://dc.lft.to/lastmile_qr_scan", "android": "https://dc.lft.to/lastmile_qr_scan"}, "is_reserved": 0}, {"lon": -76.9912595, "bike_id": "b647c5658e6264817bbb855bc1faa002", "lat": 38.92268, "fusion_lon": 0.0, "fusion_lat": 0.0, "type": "electric_scooter", "name": "b647c5658e6264817bbb855bc1faa002", "is_disabled": 0, "rental_uris": {"ios": "https://dc.lft.to/lastmile_qr_scan", "android": "https://dc.lft.to/lastmile_qr_scan"}, "is_reserved": 0}, {"lon": -77.03869233333333, "bike_id": "c04e5479aa14a7e1f771d74b8bc44341", "lat": 38.91416733333333, "fusion_lon": 0.0, "fusion_lat": 0.0, "type": "electric_scooter", "name": "c04e5479aa14a7e1f771d74b8bc44341", "is_disabled": 0, "rental_uris": {"ios": "https://dc.lft.to/lastmile_qr_scan", "android": "https://dc.lft.to/lastmile_qr_scan"}, "is_reserved": 0}, {"lon": -77.02010516666667, "bike_id": "3fe81017387b01dafec2ce72329ad9c9", "lat": 38.904560333333336, "fusion_lon": 0.0, "fusion_lat": 0.0, "type": "electric_scooter", "name": "3fe81017387b01dafec2ce72329ad9c9", "is_disabled": 0, "rental_uris": {"ios": "https://dc.lft.to/lastmile_qr_scan", "android": "https://dc.lft.to/lastmile_qr_scan"}, "is_reserved": 0}, {"lon": -77.0268275, "bike_id": "42041f8c368d864a2916dc5d97853b8f", "lat": 38.9845755, "fusion_lon": 0.0, "fusion_lat": 0.0, "type": "electric_scooter", "name": "42041f8c368d864a2916dc5d97853b8f", "is_disabled": 0, "rental_uris": {"ios": "https://dc.lft.to/lastmile_qr_scan", "android": "https://dc.lft.to/lastmile_qr_scan"}, "is_reserved": 0}, {"lon": -77.021672, "bike_id": "66d675d1b977659d5cc437bb27c0bb13", "lat": 38.9109285, "fusion_lon": 0.0, "fusion_lat": 0.0, "type": "electric_scooter", "name": "66d675d1b977659d5cc437bb27c0bb13", "is_disabled": 0, "rental_uris": {"ios": "https://dc.lft.to/lastmile_qr_scan", "android": "https://dc.lft.to/lastmile_qr_scan"}, "is_reserved": 0}, {"lon": -77.012054, "bike_id": "7f70bb4b576b56927c06914948985463", "lat": 38.870836, "fusion_lon": 0.0, "fusion_lat": 0.0, "type": "electric_bike", "name": "7f70bb4b576b56927c06914948985463", "is_disabled": 0, "rental_uris": {"ios": "https://dc.lft.to/lastmile_qr_scan", "android": "https://dc.lft.to/lastmile_qr_scan"}, "is_reserved": 0}, {"lon": -77.04110366666667, "bike_id": "4c8b7b57e92f05c5b1342dbea2de6de8", "lat": 38.93467533333333, "fusion_lon": 0.0, "fusion_lat": 0.0, "type": "electric_scooter", "name": "4c8b7b57e92f05c5b1342dbea2de6de8", "is_disabled": 0, "rental_uris": {"ios": "https://dc.lft.to/lastmile_qr_scan", "android": "https://dc.lft.to/lastmile_qr_scan"}, "is_reserved": 0}, {"lon": -77.036245, "bike_id": "6d0fea6f33c5e79b526fd5ec2b795843", "lat": 38.94492833333334, "fusion_lon": 0.0, "fusion_lat": 0.0, "type": "electric_scooter", "name": "6d0fea6f33c5e79b526fd5ec2b795843", "is_disabled": 0, "rental_uris": {"ios": "https://dc.lft.to/lastmile_qr_scan", "android": "https://dc.lft.to/lastmile_qr_scan"}, "is_reserved": 0}, {"lon": -77.04892916666667, "bike_id": "833d4b083d9f82f627c1dd1e8d39fd73", "lat": 38.90459633333333, "fusion_lon": 0.0, "fusion_lat": 0.0, "type": "electric_scooter", "name": "833d4b083d9f82f627c1dd1e8d39fd73", "is_disabled": 0, "rental_uris": {"ios": "https://dc.lft.to/lastmile_qr_scan", "android": "https://dc.lft.to/lastmile_qr_scan"}, "is_reserved": 0}, {"lon": -76.98628316666667, "bike_id": "3b328e418ead82a49e4f4d1c2557b66d", "lat": 38.90161916666667, "fusion_lon": 0.0, "fusion_lat": 0.0, "type": "electric_scooter", "name": "3b328e418ead82a49e4f4d1c2557b66d", "is_disabled": 0, "rental_uris": {"ios": "https://dc.lft.to/lastmile_qr_scan", "android": "https://dc.lft.to/lastmile_qr_scan"}, "is_reserved": 0}, {"lon": -77.02243683333333, "bike_id": "122fdc227c2c41c9de727ac9a8bac098", "lat": 38.92275683333333, "fusion_lon": 0.0, "fusion_lat": 0.0, "type": "electric_scooter", "name": "122fdc227c2c41c9de727ac9a8bac098", "is_disabled": 0, "rental_uris": {"ios": "https://dc.lft.to/lastmile_qr_scan", "android": "https://dc.lft.to/lastmile_qr_scan"}, "is_reserved": 0}, {"lon": -77.033623, "bike_id": "9162f99512558f1952bfb95276cc7847", "lat": 38.93575366666666, "fusion_lon": 0.0, "fusion_lat": 0.0, "type": "electric_scooter", "name": "9162f99512558f1952bfb95276cc7847", "is_disabled": 0, "rental_uris": {"ios": "https://dc.lft.to/lastmile_qr_scan", "android": "https://dc.lft.to/lastmile_qr_scan"}, "is_reserved": 0}, {"lon": -77.0090085, "bike_id": "6f79d2798cef5026313c888ad2088ab7", "lat": 38.8976105, "fusion_lon": 0.0, "fusion_lat": 0.0, "type": "electric_scooter", "name": "6f79d2798cef5026313c888ad2088ab7", "is_disabled": 0, "rental_uris": {"ios": "https://dc.lft.to/lastmile_qr_scan", "android": "https://dc.lft.to/lastmile_qr_scan"}, "is_reserved": 0}, {"lon": -76.98535316666667, "bike_id": "48b1d27dffe2b112c5422645a918f05a", "lat": 38.88081483333333, "fusion_lon": 0.0, "fusion_lat": 0.0, "type": "electric_scooter", "name": "48b1d27dffe2b112c5422645a918f05a", "is_disabled": 0, "rental_uris": {"ios": "https://dc.lft.to/lastmile_qr_scan", "android": "https://dc.lft.to/lastmile_qr_scan"}, "is_reserved": 0}, {"lon": -77.00792833333334, "bike_id": "a39eebafa095144639e103c7edee6f82", "lat": 38.8964515, "fusion_lon": 0.0, "fusion_lat": 0.0, "type": "electric_scooter", "name": "a39eebafa095144639e103c7edee6f82", "is_disabled": 0, "rental_uris": {"ios": "https://dc.lft.to/lastmile_qr_scan", "android": "https://dc.lft.to/lastmile_qr_scan"}, "is_reserved": 0}, {"lon": -77.02652416666666, "bike_id": "73b1cc81621d0797747e9ca2e3269173", "lat": 38.97813083333333, "fusion_lon": 0.0, "fusion_lat": 0.0, "type": "electric_scooter", "name": "73b1cc81621d0797747e9ca2e3269173", "is_disabled": 0, "rental_uris": {"ios": "https://dc.lft.to/lastmile_qr_scan", "android": "https://dc.lft.to/lastmile_qr_scan"}, "is_reserved": 0}, {"lon": -77.0450425, "bike_id": "cba7748ee3a990531edac2a85fc06513", "lat": 38.903606833333335, "fusion_lon": 0.0, "fusion_lat": 0.0, "type": "electric_scooter", "name": "cba7748ee3a990531edac2a85fc06513", "is_disabled": 0, "rental_uris": {"ios": "https://dc.lft.to/lastmile_qr_scan", "android": "https://dc.lft.to/lastmile_qr_scan"}, "is_reserved": 0}, {"lon": -76.9810525, "bike_id": "5fedcd1e7df98768c9b4ca11b7a82411", "lat": 38.904078166666665, "fusion_lon": 0.0, "fusion_lat": 0.0, "type": "electric_scooter", "name": "5fedcd1e7df98768c9b4ca11b7a82411", "is_disabled": 0, "rental_uris": {"ios": "https://dc.lft.to/lastmile_qr_scan", "android": "https://dc.lft.to/lastmile_qr_scan"}, "is_reserved": 0}, {"lon": -77.02198216666666, "bike_id": "65896f88134ae5b59893f005f8d11798", "lat": 38.9112215, "fusion_lon": 0.0, "fusion_lat": 0.0, "type": "electric_scooter", "name": "65896f88134ae5b59893f005f8d11798", "is_disabled": 0, "rental_uris": {"ios": "https://dc.lft.to/lastmile_qr_scan", "android": "https://dc.lft.to/lastmile_qr_scan"}, "is_reserved": 0}, {"lon": -76.97870216666666, "bike_id": "bdebe6b752fc7e859e07383287e1b004", "lat": 38.883028333333336, "fusion_lon": 0.0, "fusion_lat": 0.0, "type": "electric_scooter", "name": "bdebe6b752fc7e859e07383287e1b004", "is_disabled": 0, "rental_uris": {"ios": "https://dc.lft.to/lastmile_qr_scan", "android": "https://dc.lft.to/lastmile_qr_scan"}, "is_reserved": 0}, {"lon": -77.00581983333333, "bike_id": "15de6822d19828cec2a2123b9cf40749", "lat": 38.88439833333333, "fusion_lon": 0.0, "fusion_lat": 0.0, "type": "electric_scooter", "name": "15de6822d19828cec2a2123b9cf40749", "is_disabled": 0, "rental_uris": {"ios": "https://dc.lft.to/lastmile_qr_scan", "android": "https://dc.lft.to/lastmile_qr_scan"}, "is_reserved": 0}, {"lon": -77.03865433333333, "bike_id": "d0667382e16900abb3ccb88dd03c2f52", "lat": 38.945023666666664, "fusion_lon": 0.0, "fusion_lat": 0.0, "type": "electric_scooter", "name": "d0667382e16900abb3ccb88dd03c2f52", "is_disabled": 0, "rental_uris": {"ios": "https://dc.lft.to/lastmile_qr_scan", "android": "https://dc.lft.to/lastmile_qr_scan"}, "is_reserved": 0}, {"lon": -76.9983605, "bike_id": "bfc73e8e4dd38f09b1b5d81860868abe", "lat": 38.90215033333333, "fusion_lon": 0.0, "fusion_lat": 0.0, "type": "electric_scooter", "name": "bfc73e8e4dd38f09b1b5d81860868abe", "is_disabled": 0, "rental_uris": {"ios": "https://dc.lft.to/lastmile_qr_scan", "android": "https://dc.lft.to/lastmile_qr_scan"}, "is_reserved": 0}, {"lon": -77.0347765, "bike_id": "cb78c58de37c435d4d8fb7a180d27970", "lat": 38.928729, "fusion_lon": 0.0, "fusion_lat": 0.0, "type": "electric_scooter", "name": "cb78c58de37c435d4d8fb7a180d27970", "is_disabled": 0, "rental_uris": {"ios": "https://dc.lft.to/lastmile_qr_scan", "android": "https://dc.lft.to/lastmile_qr_scan"}, "is_reserved": 0}, {"lon": -77.03886833333334, "bike_id": "c5bf7193983dd0ba40e31d9a3321f7c1", "lat": 38.909977, "fusion_lon": 0.0, "fusion_lat": 0.0, "type": "electric_scooter", "name": "c5bf7193983dd0ba40e31d9a3321f7c1", "is_disabled": 0, "rental_uris": {"ios": "https://dc.lft.to/lastmile_qr_scan", "android": "https://dc.lft.to/lastmile_qr_scan"}, "is_reserved": 0}, {"lon": -76.953664, "bike_id": "7d65ca4728a7f44f21f31162833d0a98", "lat": 38.89203283333333, "fusion_lon": 0.0, "fusion_lat": 0.0, "type": "electric_scooter", "name": "7d65ca4728a7f44f21f31162833d0a98", "is_disabled": 0, "rental_uris": {"ios": "https://dc.lft.to/lastmile_qr_scan", "android": "https://dc.lft.to/lastmile_qr_scan"}, "is_reserved": 0}, {"lon": -76.99855666666667, "bike_id": "33525b2019af14bb7e08c30188a33a14", "lat": 38.900318666666664, "fusion_lon": 0.0, "fusion_lat": 0.0, "type": "electric_scooter", "name": "33525b2019af14bb7e08c30188a33a14", "is_disabled": 0, "rental_uris": {"ios": "https://dc.lft.to/lastmile_qr_scan", "android": "https://dc.lft.to/lastmile_qr_scan"}, "is_reserved": 0}, {"lon": -76.9615075, "bike_id": "fe3a5927f9f0453cec212d614a76d308", "lat": 38.883571333333336, "fusion_lon": 0.0, "fusion_lat": 0.0, "type": "electric_scooter", "name": "fe3a5927f9f0453cec212d614a76d308", "is_disabled": 0, "rental_uris": {"ios": "https://dc.lft.to/lastmile_qr_scan", "android": "https://dc.lft.to/lastmile_qr_scan"}, "is_reserved": 0}, {"lon": -76.98100783333334, "bike_id": "514a3187db756a2fc7904aa0725058ca", "lat": 38.89550216666667, "fusion_lon": 0.0, "fusion_lat": 0.0, "type": "electric_scooter", "name": "514a3187db756a2fc7904aa0725058ca", "is_disabled": 0, "rental_uris": {"ios": "https://dc.lft.to/lastmile_qr_scan", "android": "https://dc.lft.to/lastmile_qr_scan"}, "is_reserved": 0}, {"lon": -77.04212483333333, "bike_id": "1f139d8805c25c05dc324989517ef925", "lat": 38.912616666666665, "fusion_lon": 0.0, "fusion_lat": 0.0, "type": "electric_scooter", "name": "1f139d8805c25c05dc324989517ef925", "is_disabled": 0, "rental_uris": {"ios": "https://dc.lft.to/lastmile_qr_scan", "android": "https://dc.lft.to/lastmile_qr_scan"}, "is_reserved": 0}, {"lon": -77.02680066666667, "bike_id": "c9b4000cafc0575914c00d0eec1c7ab5", "lat": 38.9125685, "fusion_lon": 0.0, "fusion_lat": 0.0, "type": "electric_scooter", "name": "c9b4000cafc0575914c00d0eec1c7ab5", "is_disabled": 0, "rental_uris": {"ios": "https://dc.lft.to/lastmile_qr_scan", "android": "https://dc.lft.to/lastmile_qr_scan"}, "is_reserved": 0}, {"lon": -77.02308166666667, "bike_id": "f43b4b882661cb00faaec57fa88cb43a", "lat": 38.90961166666666, "fusion_lon": 0.0, "fusion_lat": 0.0, "type": "electric_scooter", "name": "f43b4b882661cb00faaec57fa88cb43a", "is_disabled": 0, "rental_uris": {"ios": "https://dc.lft.to/lastmile_qr_scan", "android": "https://dc.lft.to/lastmile_qr_scan"}, "is_reserved": 0}, {"lon": -77.01711, "bike_id": "bc0e0cd7aed2a52d91ff56e4ae828c66", "lat": 38.9174215, "fusion_lon": 0.0, "fusion_lat": 0.0, "type": "electric_scooter", "name": "bc0e0cd7aed2a52d91ff56e4ae828c66", "is_disabled": 0, "rental_uris": {"ios": "https://dc.lft.to/lastmile_qr_scan", "android": "https://dc.lft.to/lastmile_qr_scan"}, "is_reserved": 0}, {"lon": -77.03364583333334, "bike_id": "c5caeb4a190a215c381cfbe6d7c732bb", "lat": 38.935338, "fusion_lon": 0.0, "fusion_lat": 0.0, "type": "electric_scooter", "name": "c5caeb4a190a215c381cfbe6d7c732bb", "is_disabled": 0, "rental_uris": {"ios": "https://dc.lft.to/lastmile_qr_scan", "android": "https://dc.lft.to/lastmile_qr_scan"}, "is_reserved": 0}, {"lon": -77.022776, "bike_id": "058c1e2d7aafbf3479cdb31a37aca8a7", "lat": 38.926855, "fusion_lon": 0.0, "fusion_lat": 0.0, "type": "electric_scooter", "name": "058c1e2d7aafbf3479cdb31a37aca8a7", "is_disabled": 0, "rental_uris": {"ios": "https://dc.lft.to/lastmile_qr_scan", "android": "https://dc.lft.to/lastmile_qr_scan"}, "is_reserved": 0}, {"lon": -77.023789, "bike_id": "07f698916fd99e4b022b9489729e90c0", "lat": 38.89847833333334, "fusion_lon": 0.0, "fusion_lat": 0.0, "type": "electric_scooter", "name": "07f698916fd99e4b022b9489729e90c0", "is_disabled": 0, "rental_uris": {"ios": "https://dc.lft.to/lastmile_qr_scan", "android": "https://dc.lft.to/lastmile_qr_scan"}, "is_reserved": 0}, {"lon": -77.03325483333333, "bike_id": "f08e51377125b61c10b18a36d3eeda30", "lat": 38.93903566666667, "fusion_lon": 0.0, "fusion_lat": 0.0, "type": "electric_scooter", "name": "f08e51377125b61c10b18a36d3eeda30", "is_disabled": 0, "rental_uris": {"ios": "https://dc.lft.to/lastmile_qr_scan", "android": "https://dc.lft.to/lastmile_qr_scan"}, "is_reserved": 0}, {"lon": -77.01528633333334, "bike_id": "07aeb3b87596016957e2be10463674e0", "lat": 38.887399, "fusion_lon": 0.0, "fusion_lat": 0.0, "type": "electric_scooter", "name": "07aeb3b87596016957e2be10463674e0", "is_disabled": 0, "rental_uris": {"ios": "https://dc.lft.to/lastmile_qr_scan", "android": "https://dc.lft.to/lastmile_qr_scan"}, "is_reserved": 0}, {"lon": -76.96216133333333, "bike_id": "ce5d262843f9436c9e7cb1b8c48527f0", "lat": 38.87785066666667, "fusion_lon": 0.0, "fusion_lat": 0.0, "type": "electric_scooter", "name": "ce5d262843f9436c9e7cb1b8c48527f0", "is_disabled": 0, "rental_uris": {"ios": "https://dc.lft.to/lastmile_qr_scan", "android": "https://dc.lft.to/lastmile_qr_scan"}, "is_reserved": 0}, {"lon": -77.07327383333333, "bike_id": "efefead4090aab6650cad66be38caa22", "lat": 38.9139685, "fusion_lon": 0.0, "fusion_lat": 0.0, "type": "electric_scooter", "name": "efefead4090aab6650cad66be38caa22", "is_disabled": 0, "rental_uris": {"ios": "https://dc.lft.to/lastmile_qr_scan", "android": "https://dc.lft.to/lastmile_qr_scan"}, "is_reserved": 0}, {"lon": -77.01213566666667, "bike_id": "454e0b5d956a164aee9c8c091273987b", "lat": 38.9182255, "fusion_lon": 0.0, "fusion_lat": 0.0, "type": "electric_scooter", "name": "454e0b5d956a164aee9c8c091273987b", "is_disabled": 0, "rental_uris": {"ios": "https://dc.lft.to/lastmile_qr_scan", "android": "https://dc.lft.to/lastmile_qr_scan"}, "is_reserved": 0}, {"lon": -77.05572133333334, "bike_id": "92ea8e1914acc39d3277b6384d99d160", "lat": 38.897265, "fusion_lon": 0.0, "fusion_lat": 0.0, "type": "electric_scooter", "name": "92ea8e1914acc39d3277b6384d99d160", "is_disabled": 0, "rental_uris": {"ios": "https://dc.lft.to/lastmile_qr_scan", "android": "https://dc.lft.to/lastmile_qr_scan"}, "is_reserved": 0},