{"data": {"bikes": [{"rental_uris": {"ios": "https://dc.lft.to/lastmile_qr_scan", "android": "https://dc.lft.to/lastmile_qr_scan"}, "type": "electric_scooter", "name": "4c74239945d0fa396746aa746ae05872", "is_reserved": 0, "lon": -77.0028735, "is_disabled": 0, "fusion_lat": 0.0, "lat": 38.901221, "bike_id": "4c74239945d0fa396746aa746ae05872", "fusion_lon": 0.0}, {"rental_uris": {"ios": "https://dc.lft.to/lastmile_qr_scan", "android": "https://dc.lft.to/lastmile_qr_scan"}, "type": "electric_scooter", "name": "2a4b50c1908db303a8a2a0314d0d692c", "is_reserved": 0, "lon": -77.00165083333333, "is_disabled": 0, "fusion_lat": 0.0, "lat": 38.873885666666666, "bike_id": "2a4b50c1908db303a8a2a0314d0d692c", "fusion_lon": 0.0}, {"rental_uris": {"ios": "https://dc.lft.to/lastmile_qr_scan", "android": "https://dc.lft.to/lastmile_qr_scan"}, "type": "electric_scooter", "name": "e90eed9c80d2fc8412a2858e09427213", "is_reserved": 0, "lon": -77.01650633333334, "is_disabled": 0, "fusion_lat": 0.0, "lat": 38.92936383333333, "bike_id": "e90eed9c80d2fc8412a2858e09427213", "fusion_lon": 0.0}, {"rental_uris": {"ios": "https://dc.lft.to/lastmile_qr_scan", "android": "https://dc.lft.to/lastmile_qr_scan"}, "type": "electric_scooter", "name": "3a839ff0e52013672403f6ecb4f90a73", "is_reserved": 0, "lon": -77.02922516666666, "is_disabled": 0, "fusion_lat": 0.0, "lat": 38.934554166666665, "bike_id": "3a839ff0e52013672403f6ecb4f90a73", "fusion_lon": 0.0}, {"rental_uris": {"ios": "https://dc.lft.to/lastmile_qr_scan", "android": "https://dc.lft.to/lastmile_qr_scan"}, "type": "electric_scooter", "name": "90f3c90897f8aa9552d2aa44976e4eaa", "is_reserved": 0, "lon": -77.0364295, "is_disabled": 0, "fusion_lat": 0.0, "lat": 38.90622066666667, "bike_id": "90f3c90897f8aa9552d2aa44976e4eaa", "fusion_lon": 0.0}, {"rental_uris": {"ios": "https://dc.lft.to/lastmile_qr_scan", "android": "https://dc.lft.to/lastmile_qr_scan"}, "type": "electric_scooter", "name": "11db018c2f1bcd6f15c12ecda0293ab0", "is_reserved": 0, "lon": -77.06691283333333, "is_disabled": 0, "fusion_lat": 0.0, "lat": 38.9097765, "bike_id": "11db018c2f1bcd6f15c12ecda0293ab0", "fusion_lon": 0.0}, {"rental_uris": {"ios": "https://dc.lft.to/lastmile_qr_scan", "android": "https://dc.lft.to/lastmile_qr_scan"}, "type": "electric_scooter", "name": "783c5eae7bcbad36744cb790defb1b06", "is_reserved": 0, "lon": -77.03345083333333, "is_disabled": 0, "fusion_lat": 0.0, "lat": 38.89735783333333, "bike_id": "783c5eae7bcbad36744cb790defb1b06", "fusion_lon": 0.0}, {"rental_uris": {"ios": "https://dc.lft.to/lastmile_qr_scan", "android": "https://dc.lft.to/lastmile_qr_scan"}, "type": "electric_scooter", "name": "5c12711197eb6e43292cd590f0aaba8a", "is_reserved": 0, "lon": -76.986998, "is_disabled": 0, "fusion_lat": 0.0, "lat": 38.91295, "bike_id": "5c12711197eb6e43292cd590f0aaba8a", "fusion_lon": 0.0}, {"rental_uris": {"ios": "https://dc.lft.to/lastmile_qr_scan", "android": "https://dc.lft.to/lastmile_qr_scan"}, "type": "electric_bike", "name": "c479ff058b0e799500aea67efb70f9c5", "is_reserved": 0, "lon": -76.9868975, "is_disabled": 0, "fusion_lat": 0.0, "lat": 38.94471683333333, "bike_id": "c479ff058b0e799500aea67efb70f9c5", "fusion_lon": 0.0}, {"rental_uris": {"ios": "https://dc.lft.to/lastmile_qr_scan", "android": "https://dc.lft.to/lastmile_qr_scan"}, "type": "electric_bike", "name": "94d9bf18a7b78fc7424bc918a6b07fdb", "is_reserved": 0, "lon": -77.10216316666667, "is_disabled": 0, "fusion_lat": 0.0, "lat": 38.91996733333333, "bike_id": "94d9bf18a7b78fc7424bc918a6b07fdb", "fusion_lon": 0.0}, {"rental_uris": {"ios": "https://dc.lft.to/lastmile_qr_scan", "android": "https://dc.lft.to/lastmile_qr_scan"}, "type": "electric_bike", "name": "44708b01655a7e3c739360e36d7cb591", "is_reserved": 0, "lon": -77.036279, "is_disabled": 0, "fusion_lat": 0.0, "lat": 38.97292433333333, "bike_id": "44708b01655a7e3c739360e36d7cb591", "fusion_lon": 0.0}, {"rental_uris": {"ios": "https://dc.lft.to/lastmile_qr_scan", "android": "https://dc.lft.to/lastmile_qr_scan"}, "type": "electric_scooter", "name": "b5b13f8c6a347d8ba59de6616511cc3c", "is_reserved": 0, "lon": -77.0448055, "is_disabled": 0, "fusion_lat": 0.0, "lat": 38.903578, "bike_id": "b5b13f8c6a347d8ba59de6616511cc3c", "fusion_lon": 0.0}, {"rental_uris": {"ios": "https://dc.lft.to/lastmile_qr_scan", "android": "https://dc.lft.to/lastmile_qr_scan"}, "type": "electric_scooter", "name": "a35af7daf207ab0d2d430e86b4ac5485", "is_reserved": 0, "lon": -76.99620966666667, "is_disabled": 0, "fusion_lat": 0.0, "lat": 38.889702166666666, "bike_id": "a35af7daf207ab0d2d430e86b4ac5485", "fusion_lon": 0.0}, {"rental_uris": {"ios": "https://dc.lft.to/lastmile_qr_scan", "android": "https://dc.lft.to/lastmile_qr_scan"}, "type": "electric_scooter", "name": "34275d2ccbffe968ddd1f41e07707028", "is_reserved": 0, "lon": -77.0259175, "is_disabled": 0, "fusion_lat": 0.0, "lat": 38.9581905, "bike_id": "34275d2ccbffe968ddd1f41e07707028", "fusion_lon": 0.0}, {"rental_uris": {"ios": "https://dc.lft.to/lastmile_qr_scan", "android": "https://dc.lft.to/lastmile_qr_scan"}, "type": "electric_scooter", "name": "9d63a0dba767083f244761731fcd24d6", "is_reserved": 0, "lon": -77.03865333333333, "is_disabled": 0, "fusion_lat": 0.0, "lat": 38.91174316666667, "bike_id": "9d63a0dba767083f244761731fcd24d6", "fusion_lon": 0.0}, {"rental_uris": {"ios": "https://dc.lft.to/lastmile_qr_scan", "android": "https://dc.lft.to/lastmile_qr_scan"}, "type": "electric_scooter", "name": "8e03726bf975353635af289cdb8887fd", "is_reserved": 0, "lon": -77.03172666666667, "is_disabled": 0, "fusion_lat": 0.0, "lat": 38.9133385, "bike_id": "8e03726bf975353635af289cdb8887fd", "fusion_lon": 0.0}, {"rental_uris": {"ios": "https://dc.lft.to/lastmile_qr_scan", "android": "https://dc.lft.to/lastmile_qr_scan"}, "type": "electric_bike", "name": "82f257378331e896861d054604afab4b", "is_reserved": 0, "lon": -76.96260033333333, "is_disabled": 0, "fusion_lat": 0.0, "lat": 38.967839833333336, "bike_id": "82f257378331e896861d054604afab4b", "fusion_lon": 0.0}, {"rental_uris": {"ios": "https://dc.lft.to/lastmile_qr_scan", "android": "https://dc.lft.to/lastmile_qr_scan"}, "type": "electric_scooter", "name": "d3113e58536a0e57352a7b594252907a", "is_reserved": 0, "lon": -77.00346833333333, "is_disabled": 0, "fusion_lat": 0.0, "lat": 38.917737833333334, "bike_id": "d3113e58536a0e57352a7b594252907a", "fusion_lon": 0.0}, {"rental_uris": {"ios": "https://dc.lft.to/lastmile_qr_scan", "android": "https://dc.lft.to/lastmile_qr_scan"}, "type": "electric_scooter", "name": "ef27b5f61741cbd78d6c79cfcc32feec", "is_reserved": 0, "lon": -76.98840083333333, "is_disabled": 0, "fusion_lat": 0.0, "lat": 38.84296233333333, "bike_id": "ef27b5f61741cbd78d6c79cfcc32feec", "fusion_lon": 0.0}, {"rental_uris": {"ios": "https://dc.lft.to/lastmile_qr_scan", "android": "https://dc.lft.to/lastmile_qr_scan"}, "type": "electric_scooter", "name": "5cec347fa96d4d65b46e88741c726ba9", "is_reserved": 0, "lon": -77.04673133333333, "is_disabled": 0, "fusion_lat": 0.0, "lat": 38.91249633333334, "bike_id": "5cec347fa96d4d65b46e88741c726ba9", "fusion_lon": 0.0}, {"rental_uris": {"ios": "https://dc.lft.to/lastmile_qr_scan", "android": "https://dc.lft.to/lastmile_qr_scan"}, "type": "electric_scooter", "name": "3557bd854f9ddd089c378e5299bfd704", "is_reserved": 0, "lon": -77.00585783333334, "is_disabled": 0, "fusion_lat": 0.0, "lat": 38.9056365, "bike_id": "3557bd854f9ddd089c378e5299bfd704", "fusion_lon": 0.0}, {"rental_uris": {"ios": "https://dc.lft.to/lastmile_qr_scan", "android": "https://dc.lft.to/lastmile_qr_scan"}, "type": "electric_scooter", "name": "746a154202cacec31279619bb94c7ca1", "is_reserved": 0, "lon": -77.06089716666666, "is_disabled": 0, "fusion_lat": 0.0, "lat": 38.939888333333336, "bike_id": "746a154202cacec31279619bb94c7ca1", "fusion_lon": 0.0}, {"rental_uris": {"ios": "https://dc.lft.to/lastmile_qr_scan", "android": "https://dc.lft.to/lastmile_qr_scan"}, "type": "electric_scooter", "name": "115e82c8e2846ff64e7ae94b1a8caaff", "is_reserved": 0, "lon": -76.946545, "is_disabled": 0, "fusion_lat": 0.0, "lat": 38.8983015, "bike_id": "115e82c8e2846ff64e7ae94b1a8caaff", "fusion_lon": 0.0}, {"rental_uris": {"ios": "https://dc.lft.to/lastmile_qr_scan", "android": "https://dc.lft.to/lastmile_qr_scan"}, "type": "electric_scooter", "name": "97dcbf3bdcd95836352c92e2c5929436", "is_reserved": 0, "lon": -77.021034, "is_disabled": 0, "fusion_lat": 0.0, "lat": 38.966707166666666, "bike_id": "97dcbf3bdcd95836352c92e2c5929436", "fusion_lon": 0.0}, {"rental_uris": {"ios": "https://dc.lft.to/lastmile_qr_scan", "android": "https://dc.lft.to/lastmile_qr_scan"}, "type": "electric_bike", "name": "dcd54865fa2165f3e75ea3df47a4b842", "is_reserved": 0, "lon": -77.01918466666666, "is_disabled": 0, "fusion_lat": 0.0, "lat": 38.97669033333333, "bike_id": "dcd54865fa2165f3e75ea3df47a4b842", "fusion_lon": 0.0}, {"rental_uris": {"ios": "https://dc.lft.to/lastmile_qr_scan", "android": "https://dc.lft.to/lastmile_qr_scan"}, "type": "electric_scooter", "name": "1e91cee434249f95165954344e44eada", "is_reserved": 0, "lon": -77.045065, "is_disabled": 0, "fusion_lat": 0.0, "lat": 38.892235166666666, "bike_id": "1e91cee434249f95165954344e44eada", "fusion_lon": 0.0}, {"rental_uris": {"ios": "https://dc.lft.to/lastmile_qr_scan", "android": "https://dc.lft.to/lastmile_qr_scan"}, "type": "electric_bike", "name": "c9d5f44021ed679e139ab21064ac397b", "is_reserved": 0, "lon": -77.07661483333334, "is_disabled": 0, "fusion_lat": 0.0, "lat": 38.80979166666667, "bike_id": "c9d5f44021ed679e139ab21064ac397b", "fusion_lon": 0.0}, {"rental_uris": {"ios": "https://dc.lft.to/lastmile_qr_scan", "android": "https://dc.lft.to/lastmile_qr_scan"}, "type": "electric_scooter", "name": "1aab229c4fb47fe9fe13683dd6bd0486", "is_reserved": 0, "lon": -76.9902745, "is_disabled": 0, "fusion_lat": 0.0, "lat": 38.8888345, "bike_id": "1aab229c4fb47fe9fe13683dd6bd0486", "fusion_lon": 0.0}, {"rental_uris": {"ios": "https://dc.lft.to/lastmile_qr_scan", "android": "https://dc.lft.to/lastmile_qr_scan"}, "type": "electric_scooter", "name": "bee8686f392e4b93659792880105110a", "is_reserved": 0, "lon": -76.999723, "is_disabled": 0, "fusion_lat": 0.0, "lat": 38.908581833333336, "bike_id": "bee8686f392e4b93659792880105110a", "fusion_lon": 0.0}, {"rental_uris": {"ios": "https://dc.lft.to/lastmile_qr_scan", "android": "https://dc.lft.to/lastmile_qr_scan"}, "type": "electric_bike", "name": "64444f50ce4d20e4f9ca57101f71d1bf", "is_reserved": 0, "lon": -77.02070033333334, "is_disabled": 0, "fusion_lat": 0.0, "lat": 38.964416666666665, "bike_id": "64444f50ce4d20e4f9ca57101f71d1bf", "fusion_lon": 0.0}, {"rental_uris": {"ios": "https://dc.lft.to/lastmile_qr_scan", "android": "https://dc.lft.to/lastmile_qr_scan"}, "type": "electric_scooter", "name": "4a4e6c89ae63f020fc4682a1586dfcfc", "is_reserved": 0, "lon": -77.060265, "is_disabled": 0, "fusion_lat": 0.0, "lat": 38.938813, "bike_id": "4a4e6c89ae63f020fc4682a1586dfcfc", "fusion_lon": 0.0}, {"rental_uris": {"ios": "https://dc.lft.to/lastmile_qr_scan", "android": "https://dc.lft.to/lastmile_qr_scan"}, "type": "electric_scooter", "name": "6ff83811dad3e116d9c844dcdcdd3d02", "is_reserved": 0, "lon": -77.03264116666666, "is_disabled": 0, "fusion_lat": 0.0, "lat": 38.92548883333333, "bike_id": "6ff83811dad3e116d9c844dcdcdd3d02", "fusion_lon": 0.0}, {"rental_uris": {"ios": "https://dc.lft.to/lastmile_qr_scan", "android": "https://dc.lft.to/lastmile_qr_scan"}, "type": "electric_scooter", "name": "57f848ec7ca85f0fc893d8284bcebb45", "is_reserved": 0, "lon": -76.97719616666667, "is_disabled": 0, "fusion_lat": 0.0, "lat": 38.88823283333333, "bike_id": "57f848ec7ca85f0fc893d8284bcebb45", "fusion_lon": 0.0}, {"rental_uris": {"ios": "https://dc.lft.to/lastmile_qr_scan", "android": "https://dc.lft.to/lastmile_qr_scan"}, "type": "electric_scooter", "name": "f7488729cd727796293d747ad61e00bf", "is_reserved": 0, "lon": -77.03488116666666, "is_disabled": 0, "fusion_lat": 0.0, "lat": 38.90550183333333, "bike_id": "f7488729cd727796293d747ad61e00bf", "fusion_lon": 0.0}, {"rental_uris": {"ios": "https://dc.lft.to/lastmile_qr_scan", "android": "https://dc.lft.to/lastmile_qr_scan"}, "type": "electric_scooter", "name": "eed824ea4389df364754fc9e1c00b933", "is_reserved": 0, "lon": -77.03817466666666, "is_disabled": 0, "fusion_lat": 0.0, "lat": 38.93113966666667, "bike_id": "eed824ea4389df364754fc9e1c00b933", "fusion_lon": 0.0}, {"rental_uris": {"ios": "https://dc.lft.to/lastmile_qr_scan", "android": "https://dc.lft.to/lastmile_qr_scan"}, "type": "electric_scooter", "name": "6ca506db77fa58ba3180294d6b1692cb", "is_reserved": 0, "lon": -77.0335165, "is_disabled": 0, "fusion_lat": 0.0, "lat": 38.90107166666667, "bike_id": "6ca506db77fa58ba3180294d6b1692cb", "fusion_lon": 0.0}, {"rental_uris": {"ios": "https://dc.lft.to/lastmile_qr_scan", "android": "https://dc.lft.to/lastmile_qr_scan"}, "type": "electric_scooter", "name": "551e2c93ae9466c62ae8a8b906bb2db3", "is_reserved": 0, "lon": -77.01288616666666, "is_disabled": 0, "fusion_lat": 0.0, "lat": 38.910331666666664, "bike_id": "551e2c93ae9466c62ae8a8b906bb2db3", "fusion_lon": 0.0}, {"rental_uris": {"ios": "https://dc.lft.to/lastmile_qr_scan", "android": "https://dc.lft.to/lastmile_qr_scan"}, "type": "electric_scooter", "name": "036eef6debee7bf1c81bca2d81f44c5a", "is_reserved": 0, "lon": -77.02425483333333, "is_disabled": 0, "fusion_lat": 0.0, "lat": 38.90417466666667, "bike_id": "036eef6debee7bf1c81bca2d81f44c5a", "fusion_lon": 0.0}, {"rental_uris": {"ios": "https://dc.lft.to/lastmile_qr_scan", "android": "https://dc.lft.to/lastmile_qr_scan"}, "type": "electric_bike", "name": "1e65db431b4f417e398703870570ca65", "is_reserved": 0, "lon": -76.95253683333334, "is_disabled": 0, "fusion_lat": 0.0, "lat": 38.906937166666665, "bike_id": "1e65db431b4f417e398703870570ca65", "fusion_lon": 0.0}, {"rental_uris": {"ios": "https://dc.lft.to/lastmile_qr_scan", "android": "https://dc.lft.to/lastmile_qr_scan"}, "type": "electric_scooter", "name": "1248e06a6b6eec4de40c065bf983106b", "is_reserved": 0, "lon": -77.03344933333334, "is_disabled": 0, "fusion_lat": 0.0, "lat": 38.9002445, "bike_id": "1248e06a6b6eec4de40c065bf983106b", "fusion_lon": 0.0}, {"rental_uris": {"ios": "https://dc.lft.to/lastmile_qr_scan", "android": "https://dc.lft.to/lastmile_qr_scan"}, "type": "electric_bike", "name": "73c11871877bf33c1f14b1028b923701", "is_reserved": 0, "lon": -77.02452133333334, "is_disabled": 0, "fusion_lat": 0.0, "lat": 38.957284, "bike_id": "73c11871877bf33c1f14b1028b923701", "fusion_lon": 0.0}, {"rental_uris": {"ios": "https://dc.lft.to/lastmile_qr_scan", "android": "https://dc.lft.to/lastmile_qr_scan"}, "type": "electric_scooter", "name": "65e9236229a3f3690d69028fcca801f1", "is_reserved": 0, "lon": -77.03480683333333, "is_disabled": 0, "fusion_lat": 0.0, "lat": 38.9067935, "bike_id": "65e9236229a3f3690d69028fcca801f1", "fusion_lon": 0.0}, {"rental_uris": {"ios": "https://dc.lft.to/lastmile_qr_scan", "android": "https://dc.lft.to/lastmile_qr_scan"}, "type": "electric_scooter", "name": "5f80f51469330200d795a2b703d0128b", "is_reserved": 0, "lon": -77.03592883333333, "is_disabled": 0, "fusion_lat": 0.0, "lat": 38.92783516666667, "bike_id": "5f80f51469330200d795a2b703d0128b", "fusion_lon": 0.0}, {"rental_uris": {"ios": "https://dc.lft.to/lastmile_qr_scan", "android": "https://dc.lft.to/lastmile_qr_scan"}, "type": "electric_scooter", "name": "fa7121e95beb1c4e7d52c3732a21232f", "is_reserved": 0, "lon": -77.072207, "is_disabled": 0, "fusion_lat": 0.0, "lat": 38.919676333333335, "bike_id": "fa7121e95beb1c4e7d52c3732a21232f", "fusion_lon": 0.0}, {"rental_uris": {"ios": "https://dc.lft.to/lastmile_qr_scan", "android": "https://dc.lft.to/lastmile_qr_scan"}, "type": "electric_bike", "name": "1e815826f0fceea17d08591d871b9cb0", "is_reserved": 0, "lon": -77.12650183333334, "is_disabled": 0, "fusion_lat": 0.0, "lat": 38.8190745, "bike_id": "1e815826f0fceea17d08591d871b9cb0", "fusion_lon": 0.0}, {"rental_uris": {"ios": "https://dc.lft.to/lastmile_qr_scan", "android": "https://dc.lft.to/lastmile_qr_scan"}, "type": "electric_scooter", "name": "7055e0ec40a3413ef27e18645b57bf65", "is_reserved": 0, "lon": -77.00626783333334, "is_disabled": 0, "fusion_lat": 0.0, "lat": 38.87175933333333, "bike_id": "7055e0ec40a3413ef27e18645b57bf65", "fusion_lon": 0.0}, {"rental_uris": {"ios": "https://dc.lft.to/lastmile_qr_scan", "android": "https://dc.lft.to/lastmile_qr_scan"}, "type": "electric_bike", "name": "999e8b3391eefc5c3c409922b19d4dfe", "is_reserved": 0, "lon": -77.07905833333334, "is_disabled": 0, "fusion_lat": 0.0, "lat": 38.839344, "bike_id": "999e8b3391eefc5c3c409922b19d4dfe", "fusion_lon": 0.0}, {"rental_uris": {"ios": "https://dc.lft.to/lastmile_qr_scan", "android": "https://dc.lft.to/lastmile_qr_scan"}, "type": "electric_scooter", "name": "7abb792779e21030581ee56fd5131721", "is_reserved": 0, "lon": -77.06375816666667, "is_disabled": 0, "fusion_lat": 0.0, "lat": 38.935625333333334, "bike_id": "7abb792779e21030581ee56fd5131721", "fusion_lon": 0.0}, {"rental_uris": {"ios": "https://dc.lft.to/lastmile_qr_scan", "android": "https://dc.lft.to/lastmile_qr_scan"}, "type": "electric_bike", "name": "3a767a13e82b8dbc601afde05513dbd3", "is_reserved": 0, "lon": -77.01226066666666, "is_disabled": 0, "fusion_lat": 0.0, "lat": 38.95086666666667, "bike_id": "3a767a13e82b8dbc601afde05513dbd3", "fusion_lon": 0.0}, {"rental_uris": {"ios": "https://dc.lft.to/lastmile_qr_scan", "android": "https://dc.lft.to/lastmile_qr_scan"}, "type": "electric_scooter", "name": "bbdcbbe80d760b9284a3bdb7e1134813", "is_reserved": 0, "lon": -77.0284145, "is_disabled": 0, "fusion_lat": 0.0, "lat": 38.902722833333335, "bike_id": "bbdcbbe80d760b9284a3bdb7e1134813", "fusion_lon": 0.0}, {"rental_uris": {"ios": "https://dc.lft.to/lastmile_qr_scan", "android": "https://dc.lft.to/lastmile_qr_scan"}, "type": "electric_scooter", "name": "7c91f44d768ec225855cace8026363a6", "is_reserved": 0, "lon": -76.98579033333333, "is_disabled": 0, "fusion_lat": 0.0, "lat": 38.85449166666667, "bike_id": "7c91f44d768ec225855cace8026363a6", "fusion_lon": 0.0}, {"rental_uris": {"ios": "https://dc.lft.to/lastmile_qr_scan", "android": "https://dc.lft.to/lastmile_qr_scan"}, "type": "electric_bike", "name": "1cf799cdbbd21ef75cafc84832bcd799", "is_reserved": 0, "lon": -77.0000685, "is_disabled": 0, "fusion_lat": 0.0, "lat": 38.92391633333333, "bike_id": "1cf799cdbbd21ef75cafc84832bcd799", "fusion_lon": 0.0}, {"rental_uris": {"ios": "https://dc.lft.to/lastmile_qr_scan", "android": "https://dc.lft.to/lastmile_qr_scan"}, "type": "electric_scooter", "name": "cb430a220e6460f047d6f22383810c1f", "is_reserved": 0, "lon": -77.0241215, "is_disabled": 0, "fusion_lat": 0.0, "lat": 38.90564533333333, "bike_id": "cb430a220e6460f047d6f22383810c1f", "fusion_lon": 0.0}, {"rental_uris": {"ios": "https://dc.lft.to/lastmile_qr_scan", "android": "https://dc.lft.to/lastmile_qr_scan"}, "type": "electric_scooter", "name": "61bcc860d265f6cccfa4ebcb13f491a7", "is_reserved": 0, "lon": -77.0411855, "is_disabled": 0, "fusion_lat": 0.0, "lat": 38.930995833333334, "bike_id": "61bcc860d265f6cccfa4ebcb13f491a7", "fusion_lon": 0.0}, {"rental_uris": {"ios": "https://dc.lft.to/lastmile_qr_scan", "android": "https://dc.lft.to/lastmile_qr_scan"}, "type": "electric_scooter", "name": "96fa240eadc972082d03ef1fd0a2c217", "is_reserved": 0, "lon": -77.02353833333333, "is_disabled": 0, "fusion_lat": 0.0, "lat": 38.945258833333334, "bike_id": "96fa240eadc972082d03ef1fd0a2c217", "fusion_lon": 0.0}, {"rental_uris": {"ios": "https://dc.lft.to/lastmile_qr_scan", "android": "https://dc.lft.to/lastmile_qr_scan"}, "type": "electric_scooter", "name": "470d909f5ae059475442abc76a066564", "is_reserved": 0, "lon": -77.04506316666667, "is_disabled": 0, "fusion_lat": 0.0, "lat": 38.8922355, "bike_id": "470d909f5ae059475442abc76a066564", "fusion_lon": 0.0}, {"rental_uris": {"ios": "https://dc.lft.to/lastmile_qr_scan", "android": "https://dc.lft.to/lastmile_qr_scan"}, "type": "electric_scooter", "name": "30d3edabe98e13f46e564167c93efc2d", "is_reserved": 0, "lon": -77.03029616666667, "is_disabled": 0, "fusion_lat": 0.0, "lat": 38.92246733333333, "bike_id": "30d3edabe98e13f46e564167c93efc2d", "fusion_lon": 0.0}, {"rental_uris": {"ios": "https://dc.lft.to/lastmile_qr_scan", "android": "https://dc.lft.to/lastmile_qr_scan"}, "type": "electric_scooter", "name": "6d85ffa031ad31812d925e91e602fa6c", "is_reserved": 0, "lon": -77.027085, "is_disabled": 0, "fusion_lat": 0.0, "lat": 38.90592733333333, "bike_id": "6d85ffa031ad31812d925e91e602fa6c", "fusion_lon": 0.0}, {"rental_uris": {"ios": "https://dc.lft.to/lastmile_qr_scan", "android": "https://dc.lft.to/lastmile_qr_scan"}, "type": "electric_scooter", "name": "defc0e8f14694e955db3a7158d4f0137", "is_reserved": 0, "lon": -77.02222266666666, "is_disabled": 0, "fusion_lat": 0.0, "lat": 38.893553, "bike_id": "defc0e8f14694e955db3a7158d4f0137", "fusion_lon": 0.0}, {"rental_uris": {"ios": "https://dc.lft.to/lastmile_qr_scan", "android": "https://dc.lft.to/lastmile_qr_scan"}, "type": "electric_scooter", "name": "db7b548994df8f147417f7b1eba16a8c", "is_reserved": 0, "lon": -77.03866166666667, "is_disabled": 0, "fusion_lat": 0.0, "lat": 38.9215075, "bike_id": "db7b548994df8f147417f7b1eba16a8c", "fusion_lon": 0.0}, {"rental_uris": {"ios": "https://dc.lft.to/lastmile_qr_scan", "android": "https://dc.lft.to/lastmile_qr_scan"}, "type": "electric_scooter", "name": "394ca5421b0d46947b56c2d1e3126cef", "is_reserved": 0, "lon": -76.99871016666667, "is_disabled": 0, "fusion_lat": 0.0, "lat": 38.90026366666667, "bike_id": "394ca5421b0d46947b56c2d1e3126cef", "fusion_lon": 0.0}, {"rental_uris": {"ios": "https://dc.lft.to/lastmile_qr_scan", "android": "https://dc.lft.to/lastmile_qr_scan"}, "type": "electric_scooter", "name": "cc0e1ccddde9556186dec6ebdce7174e", "is_reserved": 0, "lon": -77.0318735, "is_disabled": 0, "fusion_lat": 0.0, "lat": 38.89452166666667, "bike_id": "cc0e1ccddde9556186dec6ebdce7174e", "fusion_lon": 0.0}, {"rental_uris": {"ios": "https://dc.lft.to/lastmile_qr_scan", "android": "https://dc.lft.to/lastmile_qr_scan"}, "type": "electric_scooter", "name": "ec36a85f87d4acf5d9f1f45479846646", "is_reserved": 0, "lon": -77.04835316666667, "is_disabled": 0, "fusion_lat": 0.0, "lat": 38.90954133333334, "bike_id": "ec36a85f87d4acf5d9f1f45479846646", "fusion_lon": 0.0}, {"rental_uris": {"ios": "https://dc.lft.to/lastmile_qr_scan", "android": "https://dc.lft.to/lastmile_qr_scan"}, "type": "electric_bike", "name": "f5239f7bb459e3f63d6ba1de65008d2e", "is_reserved": 0, "lon": -76.98769966666667, "is_disabled": 0, "fusion_lat": 0.0, "lat": 38.857709, "bike_id": "f5239f7bb459e3f63d6ba1de65008d2e", "fusion_lon": 0.0}, {"rental_uris": {"ios": "https://dc.lft.to/lastmile_qr_scan", "android": "https://dc.lft.to/lastmile_qr_scan"}, "type": "electric_scooter", "name": "4941ad76a884bffe1f26196cab31f3af", "is_reserved": 0, "lon": -77.03437533333333, "is_disabled": 0, "fusion_lat": 0.0, "lat": 38.90846066666667, "bike_id": "4941ad76a884bffe1f26196cab31f3af", "fusion_lon": 0.0}, {"rental_uris": {"ios": "https://dc.lft.to/lastmile_qr_scan", "android": "https://dc.lft.to/lastmile_qr_scan"}, "type": "electric_scooter", "name": "e3c02e7fd0f5fb62a6d46731a3de0a80", "is_reserved": 0, "lon": -77.04859483333334, "is_disabled": 0, "fusion_lat": 0.0, "lat": 38.906310833333336, "bike_id": "e3c02e7fd0f5fb62a6d46731a3de0a80", "fusion_lon": 0.0}, {"rental_uris": {"ios": "https://dc.lft.to/lastmile_qr_scan", "android": "https://dc.lft.to/lastmile_qr_scan"}, "type": "electric_scooter", "name": "c9e68645146d67befb7e6d7714623bcd", "is_reserved": 0, "lon": -77.04673083333333, "is_disabled": 0, "fusion_lat": 0.0, "lat": 38.892221666666664, "bike_id": "c9e68645146d67befb7e6d7714623bcd", "fusion_lon": 0.0}, {"rental_uris": {"ios": "https://dc.lft.to/lastmile_qr_scan", "android": "https://dc.lft.to/lastmile_qr_scan"}, "type": "electric_scooter", "name": "6f0b5ea5fe6e22ac9d2980b6ae2d5313", "is_reserved": 0, "lon": -77.0236135, "is_disabled": 0, "fusion_lat": 0.0, "lat": 38.90219666666667, "bike_id": "6f0b5ea5fe6e22ac9d2980b6ae2d5313", "fusion_lon": 0.0}, {"rental_uris": {"ios": "https://dc.lft.to/lastmile_qr_scan", "android": "https://dc.lft.to/lastmile_qr_scan"}, "type": "electric_scooter", "name": "22296464ef3efd2d4b7ace28f9dd395a", "is_reserved": 0, "lon": -77.03720916666667, "is_disabled": 0, "fusion_lat": 0.0, "lat": 38.926523833333334, "bike_id": "22296464ef3efd2d4b7ace28f9dd395a", "fusion_lon": 0.0}, {"rental_uris": {"ios": "https://dc.lft.to/lastmile_qr_scan", "android": "https://dc.lft.to/lastmile_qr_scan"}, "type": "electric_bike", "name": "0896f08f0850217c7e9170b963893ae9", "is_reserved": 0, "lon": -76.94537216666667, "is_disabled": 0, "fusion_lat": 0.0, "lat": 38.86759, "bike_id": "0896f08f0850217c7e9170b963893ae9", "fusion_lon": 0.0}, {"rental_uris": {"ios": "https://dc.lft.to/lastmile_qr_scan", "android": "https://dc.lft.to/lastmile_qr_scan"}, "type": "electric_scooter", "name": "67b970fba1ed2582d12795f9e861a1e3", "is_reserved": 0, "lon": -77.02226533333334, "is_disabled": 0, "fusion_lat": 0.0, "lat": 38.893547833333336, "bike_id": "67b970fba1ed2582d12795f9e861a1e3", "fusion_lon": 0.0}, {"rental_uris": {"ios": "https://dc.lft.to/lastmile_qr_scan", "android": "https://dc.lft.to/lastmile_qr_scan"}, "type": "electric_bike", "name": "b9214ad14fbefab178b22eb357e7a7b4", "is_reserved": 0, "lon": -77.01736983333333, "is_disabled": 0, "fusion_lat": 0.0, "lat": 38.9460525, "bike_id": "b9214ad14fbefab178b22eb357e7a7b4", "fusion_lon": 0.0}, {"rental_uris": {"ios": "https://dc.lft.to/lastmile_qr_scan", "android": "https://dc.lft.to/lastmile_qr_scan"}, "type": "electric_scooter", "name": "add2c874fab0f61bd51e8c0cc6b3528d", "is_reserved": 0, "lon": -77.02706433333333, "is_disabled": 0, "fusion_lat": 0.0, "lat": 38.895545166666665, "bike_id": "add2c874fab0f61bd51e8c0cc6b3528d", "fusion_lon": 0.0}, {"rental_uris": {"ios": "https://dc.lft.to/lastmile_qr_scan", "android": "https://dc.lft.to/lastmile_qr_scan"}, "type": "electric_scooter", "name": "cf809cd31ff97255523dadaaa463ab3e", "is_reserved": 0, "lon": -77.0447105, "is_disabled": 0, "fusion_lat": 0.0, "lat": 38.9247495, "bike_id": "cf809cd31ff97255523dadaaa463ab3e", "fusion_lon": 0.0}, {"rental_uris": {"ios": "https://dc.lft.to/lastmile_qr_scan", "android": "https://dc.lft.to/lastmile_qr_scan"}, "type": "electric_scooter", "name": "e2d7e8f43f9b30abab2b3b6bbdcaf067", "is_reserved": 0, "lon": -77.02190566666667, "is_disabled": 0, "fusion_lat": 0.0, "lat": 38.91122416666666, "bike_id": "e2d7e8f43f9b30abab2b3b6bbdcaf067", "fusion_lon": 0.0}, {"rental_uris": {"ios": "https://dc.lft.to/lastmile_qr_scan", "android": "https://dc.lft.to/lastmile_qr_scan"}, "type": "electric_scooter", "name": "2f54b17c3447971bc44428bfdd9b882a", "is_reserved": 0, "lon": -77.02649033333333, "is_disabled": 0, "fusion_lat": 0.0, "lat": 38.91912633333333, "bike_id": "2f54b17c3447971bc44428bfdd9b882a", "fusion_lon": 0.0}, {"rental_uris": {"ios": "https://dc.lft.to/lastmile_qr_scan", "android": "https://dc.lft.to/lastmile_qr_scan"}, "type": "electric_scooter", "name": "2f154233363b76c07e9a2c2e19368801", "is_reserved": 0, "lon": -77.01705566666666, "is_disabled": 0, "fusion_lat": 0.0, "lat": 38.91383033333334, "bike_id": "2f154233363b76c07e9a2c2e19368801", "fusion_lon": 0.0}, {"rental_uris": {"ios": "https://dc.lft.to/lastmile_qr_scan", "android": "https://dc.lft.to/lastmile_qr_scan"}, "type": "electric_scooter", "name": "78ee619e40f2a555b9de940da4413169", "is_reserved": 0, "lon": -76.99037983333334, "is_disabled": 0, "fusion_lat": 0.0, "lat": 38.888800333333336, "bike_id": "78ee619e40f2a555b9de940da4413169", "fusion_lon": 0.0}, {"rental_uris": {"ios": "https://dc.lft.to/lastmile_qr_scan", "android": "https://dc.lft.to/lastmile_qr_scan"}, "type": "electric_scooter", "name": "503de4e7237712deef84c90e4c03e815", "is_reserved": 0, "lon": -77.03638683333334, "is_disabled": 0, "fusion_lat": 0.0, "lat": 38.916143, "bike_id": "503de4e7237712deef84c90e4c03e815", "fusion_lon": 0.0}, {"rental_uris": {"ios": "https://dc.lft.to/lastmile_qr_scan", "android": "https://dc.lft.to/lastmile_qr_scan"}, "type": "electric_bike", "name": "ac1bf46a72a79ba89d2cbad3f39c30fc", "is_reserved": 0, "lon": -76.9172145, "is_disabled": 0, "fusion_lat": 0.0, "lat": 38.88028833333333, "bike_id": "ac1bf46a72a79ba89d2cbad3f39c30fc", "fusion_lon": 0.0}, {"rental_uris": {"ios": "https://dc.lft.to/lastmile_qr_scan", "android": "https://dc.lft.to/lastmile_qr_scan"}, "type": "electric_scooter", "name": "7fd8bfd97486801c03f52bb7fec7830e", "is_reserved": 0, "lon": -77.03476283333333, "is_disabled": 0, "fusion_lat": 0.0, "lat": 38.925362, "bike_id": "7fd8bfd97486801c03f52bb7fec7830e", "fusion_lon": 0.0}, {"rental_uris": {"ios": "https://dc.lft.to/lastmile_qr_scan", "android": "https://dc.lft.to/lastmile_qr_scan"}, "type": "electric_scooter", "name": "bf6f54c5323597f79fde4842e4fde375", "is_reserved": 0, "lon": -77.02335166666667, "is_disabled": 0, "fusion_lat": 0.0, "lat": 38.92931433333333, "bike_id": "bf6f54c5323597f79fde4842e4fde375", "fusion_lon": 0.0}, {"rental_uris": {"ios": "https://dc.lft.to/lastmile_qr_scan", "android": "https://dc.lft.to/lastmile_qr_scan"}, "type": "electric_scooter", "name": "477ed2cdc73c95b9912cc3d4a5591562", "is_reserved": 0, "lon": -77.03385233333333, "is_disabled": 0, "fusion_lat": 0.0, "lat": 38.89974083333333, "bike_id": "477ed2cdc73c95b9912cc3d4a5591562", "fusion_lon": 0.0}, {"rental_uris": {"ios": "https://dc.lft.to/lastmile_qr_scan", "android": "https://dc.lft.to/lastmile_qr_scan"}, "type": "electric_scooter", "name": "34c105e6e126c77f9df003ab1202ca34", "is_reserved": 0, "lon": -77.03283083333334, "is_disabled": 0, "fusion_lat": 0.0, "lat": 38.91999033333333, "bike_id": "34c105e6e126c77f9df003ab1202ca34", "fusion_lon": 0.0}, {"rental_uris": {"ios": "https://dc.lft.to/lastmile_qr_scan", "android": "https://dc.lft.to/lastmile_qr_scan"}, "type": "electric_scooter", "name": "3e7061bd2c944ebb2c5514116f369f9d", "is_reserved": 0, "lon": -76.9833585, "is_disabled": 0, "fusion_lat": 0.0, "lat": 38.90088766666667, "bike_id": "3e7061bd2c944ebb2c5514116f369f9d", "fusion_lon": 0.0}, {"rental_uris": {"ios": "https://dc.lft.to/lastmile_qr_scan", "android": "https://dc.lft.to/lastmile_qr_scan"}, "type": "electric_scooter", "name": "4a905148da730ac7e452f5efd3f0fa3c", "is_reserved": 0, "lon": -77.031579, "is_disabled": 0, "fusion_lat": 0.0, "lat": 38.95934916666667, "bike_id": "4a905148da730ac7e452f5efd3f0fa3c", "fusion_lon": 0.0}, {"rental_uris": {"ios": "https://dc.lft.to/lastmile_qr_scan", "android": "https://dc.lft.to/lastmile_qr_scan"}, "type": "electric_scooter", "name": "7af1c7e35b3ff8fb04277a1359f6b89c", "is_reserved": 0, "lon": -77.033129, "is_disabled": 0, "fusion_lat": 0.0, "lat": 38.91702133333333, "bike_id": "7af1c7e35b3ff8fb04277a1359f6b89c", "fusion_lon": 0.0}, {"rental_uris": {"ios": "https://dc.lft.to/lastmile_qr_scan", "android": "https://dc.lft.to/lastmile_qr_scan"}, "type": "electric_scooter", "name": "5296b4b7e8af834eb11798b273fcc7b4", "is_reserved": 0, "lon": -77.04814583333334, "is_disabled": 0, "fusion_lat": 0.0, "lat": 38.8995375, "bike_id": "5296b4b7e8af834eb11798b273fcc7b4", "fusion_lon": 0.0}, {"rental_uris": {"ios": "https://dc.lft.to/lastmile_qr_scan", "android": "https://dc.lft.to/lastmile_qr_scan"}, "type": "electric_bike", "name": "8644caac42f36a8d87dcb94ca11c1282", "is_reserved": 0, "lon": -77.0015495, "is_disabled": 0, "fusion_lat": 0.0, "lat": 38.94158216666666, "bike_id": "8644caac42f36a8d87dcb94ca11c1282", "fusion_lon": 0.0}, {"rental_uris": {"ios": "https://dc.lft.to/lastmile_qr_scan", "android": "https://dc.lft.to/lastmile_qr_scan"}, "type": "electric_scooter", "name": "e33d9f5aebbfcaff95c7389e9b0c4c7d", "is_reserved": 0, "lon": -77.04381816666667, "is_disabled": 0, "fusion_lat": 0.0, "lat": 38.93415366666667, "bike_id": "e33d9f5aebbfcaff95c7389e9b0c4c7d", "fusion_lon": 0.0}, {"rental_uris": {"ios": "https://dc.lft.to/lastmile_qr_scan", "android": "https://dc.lft.to/lastmile_qr_scan"}, "type": "electric_scooter", "name": "3c20b8bafd88a76d33d2d5d42f9398b2", "is_reserved": 0, "lon": -76.99070366666666, "is_disabled": 0, "fusion_lat": 0.0, "lat": 38.90420133333333, "bike_id": "3c20b8bafd88a76d33d2d5d42f9398b2", "fusion_lon": 0.0}, {"rental_uris": {"ios": "https://dc.lft.to/lastmile_qr_scan", "android": "https://dc.lft.to/lastmile_qr_scan"}, "type": "electric_scooter", "name": "a2f3d98d695a6f4274f20301f03232ed", "is_reserved": 0, "lon": -77.012385, "is_disabled": 0, "fusion_lat": 0.0, "lat": 38.91581166666667, "bike_id": "a2f3d98d695a6f4274f20301f03232ed", "fusion_lon": 0.0}, {"rental_uris": {"ios": "https://dc.lft.to/lastmile_qr_scan", "android": "https://dc.lft.to/lastmile_qr_scan"}, "type": "electric_scooter", "name": "f411daeb0f7046a948315443e4f40cef", "is_reserved": 0, "lon": -77.036597, "is_disabled": 0, "fusion_lat": 0.0, "lat": 38.92382716666667, "bike_id": "f411daeb0f7046a948315443e4f40cef", "fusion_lon": 0.0}, {"rental_uris": {"ios": "https://dc.lft.to/lastmile_qr_scan", "android": "https://dc.lft.to/lastmile_qr_scan"}, "type": "electric_scooter", "name": "684461bd8b728e1fa4dd870e3f38b743", "is_reserved": 0, "lon": -77.018862, "is_disabled": 0, "fusion_lat": 0.0, "lat": 38.89744566666667, "bike_id": "684461bd8b728e1fa4dd870e3f38b743", "fusion_lon": 0.0}, {"rental_uris": {"ios": "https://dc.lft.to/lastmile_qr_scan", "android": "https://dc.lft.to/lastmile_qr_scan"}, "type": "electric_scooter", "name": "739db79c342f03ad238857d9388698df", "is_reserved": 0, "lon": -77.05127266666666, "is_disabled": 0, "fusion_lat": 0.0, "lat": 38.9234555, "bike_id": "739db79c342f03ad238857d9388698df", "fusion_lon": 0.0}, {"rental_uris": {"ios": "https://dc.lft.to/lastmile_qr_scan", "android": "https://dc.lft.to/lastmile_qr_scan"}, "type": "electric_scooter", "name": "66f2597e8888991a8fe563e370a95db1", "is_reserved": 0, "lon": -77.03047616666667, "is_disabled": 0, "fusion_lat": 0.0, "lat": 38.90719266666667, "bike_id": "66f2597e8888991a8fe563e370a95db1", "fusion_lon": 0.0}, {"rental_uris": {"ios": "https://dc.lft.to/lastmile_qr_scan", "android": "https://dc.lft.to/lastmile_qr_scan"}, "type": "electric_scooter", "name": "2c572fbdda0f304d4842c582bea81ce6", "is_reserved": 0, "lon": -77.058155, "is_disabled": 0, "fusion_lat": 0.0, "lat": 38.935180833333334, "bike_id": "2c572fbdda0f304d4842c582bea81ce6", "fusion_lon": 0.0}, {"rental_uris": {"ios": "https://dc.lft.to/lastmile_qr_scan", "android": "https://dc.lft.to/lastmile_qr_scan"}, "type": "electric_bike", "name": "49d077b8311bbeced5f17e1b07e554e7", "is_reserved": 0, "lon": -77.00774033333333, "is_disabled": 0, "fusion_lat": 0.0, "lat": 38.981237166666666, "bike_id": "49d077b8311bbeced5f17e1b07e554e7", "fusion_lon": 0.0}, {"rental_uris": {"ios": "https://dc.lft.to/lastmile_qr_scan", "android": "https://dc.lft.to/lastmile_qr_scan"}, "type": "electric_scooter", "name": "cf93066eced654b5da09498d72fbceac", "is_reserved": 0, "lon": -77.016123, "is_disabled": 0, "fusion_lat": 0.0, "lat": 38.910756166666665, "bike_id": "cf93066eced654b5da09498d72fbceac", "fusion_lon": 0.0}, {"rental_uris": {"ios": "https://dc.lft.to/lastmile_qr_scan", "android": "https://dc.lft.to/lastmile_qr_scan"}, "type": "electric_scooter", "name": "418b677ad31b23e0f5c22b2c7fcc751d", "is_reserved": 0, "lon": -77.04646566666666, "is_disabled": 0, "fusion_lat": 0.0, "lat": 38.900716, "bike_id": "418b677ad31b23e0f5c22b2c7fcc751d", "fusion_lon": 0.0}, {"rental_uris": {"ios": "https://dc.lft.to/lastmile_qr_scan", "android": "https://dc.lft.to/lastmile_qr_scan"}, "type": "electric_scooter", "name": "a702cded4897543424e12e6b2ec24c12", "is_reserved": 0, "lon": -77.00192066666666, "is_disabled": 0, "fusion_lat": 0.0, "lat": 38.90156666666667, "bike_id": "a702cded4897543424e12e6b2ec24c12", "fusion_lon": 0.0}, {"rental_uris": {"ios": "https://dc.lft.to/lastmile_qr_scan", "android": "https://dc.lft.to/lastmile_qr_scan"}, "type": "electric_bike", "name": "8278ec1d0ebb19aea85dfc120cb91064", "is_reserved": 0, "lon": -76.96099766666667, "is_disabled": 0, "fusion_lat": 0.0, "lat": 38.94960866666667, "bike_id": "8278ec1d0ebb19aea85dfc120cb91064", "fusion_lon": 0.0}, {"rental_uris": {"ios": "https://dc.lft.to/lastmile_qr_scan", "android": "https://dc.lft.to/lastmile_qr_scan"}, "type": "electric_scooter", "name": "ab64d54432a3f95b73168eecbee0fbdf", "is_reserved": 0, "lon": -77.06811533333334, "is_disabled": 0, "fusion_lat": 0.0, "lat": 38.9522035, "bike_id": "ab64d54432a3f95b73168eecbee0fbdf", "fusion_lon": 0.0}, {"rental_uris": {"ios": "https://dc.lft.to/lastmile_qr_scan", "android": "https://dc.lft.to/lastmile_qr_scan"}, "type": "electric_scooter", "name": "76983c2bd6ba35264645383268208a1b", "is_reserved": 0, "lon": -77.02224983333333, "is_disabled": 0, "fusion_lat": 0.0, "lat": 38.89222766666666, "bike_id": "76983c2bd6ba35264645383268208a1b", "fusion_lon": 0.0}, {"rental_uris": {"ios": "https://dc.lft.to/lastmile_qr_scan", "android": "https://dc.lft.to/lastmile_qr_scan"}, "type": "electric_scooter", "name": "d616e3521fceba3ac22b421e5c4b69f6", "is_reserved": 0, "lon": -77.01101816666667, "is_disabled": 0, "fusion_lat": 0.0, "lat": 38.88539216666667, "bike_id": "d616e3521fceba3ac22b421e5c4b69f6", "fusion_lon": 0.0}, {"rental_uris": {"ios": "https://dc.lft.to/lastmile_qr_scan", "android": "https://dc.lft.to/lastmile_qr_scan"}, "type": "electric_scooter", "name": "601c45f6c91f93e0f6e716bf312c344a", "is_reserved": 0, "lon": -77.04089066666667, "is_disabled": 0, "fusion_lat": 0.0, "lat": 38.930643, "bike_id": "601c45f6c91f93e0f6e716bf312c344a", "fusion_lon": 0.0}, {"rental_uris": {"ios": "https://dc.lft.to/lastmile_qr_scan", "android": "https://dc.lft.to/lastmile_qr_scan"}, "type": "electric_scooter", "name": "367cea08073365be4b8c7d563fe5dda7", "is_reserved": 0, "lon": -77.02075866666667, "is_disabled": 0, "fusion_lat": 0.0, "lat": 38.9125515, "bike_id": "367cea08073365be4b8c7d563fe5dda7", "fusion_lon": 0.0}, {"rental_uris": {"ios": "https://dc.lft.to/lastmile_qr_scan", "android": "https://dc.lft.to/lastmile_qr_scan"}, "type": "electric_scooter", "name": "19516b6c51877c2f1adcd8ffbace86e9", "is_reserved": 0, "lon": -77.05872416666666, "is_disabled": 0, "fusion_lat": 0.0, "lat": 38.904315, "bike_id": "19516b6c51877c2f1adcd8ffbace86e9", "fusion_lon": 0.0}, {"rental_uris": {"ios": "https://dc.lft.to/lastmile_qr_scan", "android": "https://dc.lft.to/lastmile_qr_scan"}, "type": "electric_scooter", "name": "8fe5003f5b135013b8224fea34fa9bb0", "is_reserved": 0, "lon": -77.00781883333333, "is_disabled": 0, "fusion_lat": 0.0, "lat": 38.87864183333333, "bike_id": "8fe5003f5b135013b8224fea34fa9bb0", "fusion_lon": 0.0}, {"rental_uris": {"ios": "https://dc.lft.to/lastmile_qr_scan", "android": "https://dc.lft.to/lastmile_qr_scan"}, "type": "electric_bike", "name": "6be9643812a01485f3509b7cd0b32a41", "is_reserved": 0, "lon": -76.98141333333334, "is_disabled": 0, "fusion_lat": 0.0, "lat": 38.93494416666667, "bike_id": "6be9643812a01485f3509b7cd0b32a41", "fusion_lon": 0.0}, {"rental_uris": {"ios": "https://dc.lft.to/lastmile_qr_scan", "android": "https://dc.lft.to/lastmile_qr_scan"}, "type": "electric_scooter", "name": "b36ea05ec60cf8c9dfafee9a3e6b4c12", "is_reserved": 0, "lon": -77.0350745, "is_disabled": 0, "fusion_lat": 0.0, "lat": 38.918780166666664, "bike_id": "b36ea05ec60cf8c9dfafee9a3e6b4c12", "fusion_lon": 0.0}, {"rental_uris": {"ios": "https://dc.lft.to/lastmile_qr_scan", "android": "https://dc.lft.to/lastmile_qr_scan"}, "type": "electric_scooter", "name": "03f6b4ba4d22f89a05c35fdbe2d4afc4", "is_reserved": 0, "lon": -77.03153966666666, "is_disabled": 0, "fusion_lat": 0.0, "lat": 38.887483333333336, "bike_id": "03f6b4ba4d22f89a05c35fdbe2d4afc4", "fusion_lon": 0.0}, {"rental_uris": {"ios": "https://dc.lft.to/lastmile_qr_scan", "android": "https://dc.lft.to/lastmile_qr_scan"}, "type": "electric_scooter", "name": "3a2954321baaa50f503a93c4297facd1", "is_reserved": 0, "lon": -77.017848, "is_disabled": 0, "fusion_lat": 0.0, "lat": 38.90295916666667, "bike_id": "3a2954321baaa50f503a93c4297facd1", "fusion_lon": 0.0}, {"rental_uris": {"ios": "https://dc.lft.to/lastmile_qr_scan", "android": "https://dc.lft.to/lastmile_qr_scan"}, "type": "electric_scooter", "name": "9374dc26b3052000a7c85c4688463df9", "is_reserved": 0, "lon": -77.03986033333334, "is_disabled": 0, "fusion_lat": 0.0, "lat": 38.909735, "bike_id": "9374dc26b3052000a7c85c4688463df9", "fusion_lon": 0.0}, {"rental_uris": {"ios": "https://dc.lft.to/lastmile_qr_scan", "android": "https://dc.lft.to/lastmile_qr_scan"}, "type": "electric_scooter", "name": "de7b921d87c5fa3ec8c59a540e5a7b20", "is_reserved": 0, "lon": -77.03459466666666, "is_disabled": 0, "fusion_lat": 0.0, "lat": 38.908170166666665, "bike_id": "de7b921d87c5fa3ec8c59a540e5a7b20", "fusion_lon": 0.0}, {"rental_uris": {"ios": "https://dc.lft.to/lastmile_qr_scan", "android": "https://dc.lft.to/lastmile_qr_scan"}, "type": "electric_scooter", "name": "4cd42797d724fecdaad06e3c1cd58234", "is_reserved": 0, "lon": -77.040445, "is_disabled": 0, "fusion_lat": 0.0, "lat": 38.92998466666667, "bike_id": "4cd42797d724fecdaad06e3c1cd58234", "fusion_lon": 0.0}, {"rental_uris": {"ios": "https://dc.lft.to/lastmile_qr_scan", "android": "https://dc.lft.to/lastmile_qr_scan"}, "type": "electric_scooter", "name": "1ebb94f9ddae1c374bedb6105b5d4408", "is_reserved": 0, "lon": -77.07169266666666, "is_disabled": 0, "fusion_lat": 0.0, "lat": 38.90777283333333, "bike_id": "1ebb94f9ddae1c374bedb6105b5d4408", "fusion_lon": 0.0}, {"rental_uris": {"ios": "https://dc.lft.to/lastmile_qr_scan", "android": "https://dc.lft.to/lastmile_qr_scan"}, "type": "electric_scooter", "name": "0a9aa0fbcef66eb38effe448ebed2387", "is_reserved": 0, "lon": -77.05433383333333, "is_disabled": 0, "fusion_lat": 0.0, "lat": 38.928542, "bike_id": "0a9aa0fbcef66eb38effe448ebed2387", "fusion_lon": 0.0}, {"rental_uris": {"ios": "https://dc.lft.to/lastmile_qr_scan", "android": "https://dc.lft.to/lastmile_qr_scan"}, "type": "electric_scooter", "name": "3552547cb1b04da3eedbbe8277a41a68", "is_reserved": 0, "lon": -77.01768183333333, "is_disabled": 0, "fusion_lat": 0.0, "lat": 38.92048916666667, "bike_id": "3552547cb1b04da3eedbbe8277a41a68", "fusion_lon": 0.0}, {"rental_uris": {"ios": "https://dc.lft.to/lastmile_qr_scan", "android": "https://dc.lft.to/lastmile_qr_scan"}, "type": "electric_scooter", "name": "3e05c48cd595285d68e65ab477229b3d", "is_reserved": 0, "lon": -77.0269305, "is_disabled": 0, "fusion_lat": 0.0, "lat": 38.9259835, "bike_id": "3e05c48cd595285d68e65ab477229b3d", "fusion_lon": 0.0}, {"rental_uris": {"ios": "https://dc.lft.to/lastmile_qr_scan", "android": "https://dc.lft.to/lastmile_qr_scan"}, "type": "electric_scooter", "name": "1a6a07c35420df9d4dc1587b3a55181d", "is_reserved": 0, "lon": -77.02678266666666, "is_disabled": 0, "fusion_lat": 0.0, "lat": 38.924749, "bike_id": "1a6a07c35420df9d4dc1587b3a55181d", "fusion_lon": 0.0}, {"rental_uris": {"ios": "https://dc.lft.to/lastmile_qr_scan", "android": "https://dc.lft.to/lastmile_qr_scan"}, "type": "electric_scooter", "name": "f5dab150cb679d87168a7695a8dd6b6b", "is_reserved": 0, "lon": -77.02661216666667, "is_disabled": 0, "fusion_lat": 0.0, "lat": 38.92484133333333, "bike_id": "f5dab150cb679d87168a7695a8dd6b6b", "fusion_lon": 0.0}, {"rental_uris": {"ios": "https://dc.lft.to/lastmile_qr_scan", "android": "https://dc.lft.to/lastmile_qr_scan"}, "type": "electric_scooter", "name": "fbea5ee4206fad0b951686d66f81525f", "is_reserved": 0, "lon": -77.04153033333333, "is_disabled": 0, "fusion_lat": 0.0, "lat": 38.90546366666667, "bike_id": "fbea5ee4206fad0b951686d66f81525f", "fusion_lon": 0.0}, {"rental_uris": {"ios": "https://dc.lft.to/lastmile_qr_scan", "android": "https://dc.lft.to/lastmile_qr_scan"}, "type": "electric_scooter", "name": "3deb6e6ffb9a33306958ea7abb905a0d", "is_reserved": 0, "lon": -77.04892883333333, "is_disabled": 0, "fusion_lat": 0.0, "lat": 38.9193805, "bike_id": "3deb6e6ffb9a33306958ea7abb905a0d", "fusion_lon": 0.0}, {"rental_uris": {"ios": "https://dc.lft.to/lastmile_qr_scan", "android": "https://dc.lft.to/lastmile_qr_scan"}, "type": "electric_scooter", "name": "74fdddec1741adad0bf90af5c8058321", "is_reserved": 0, "lon": -77.02982833333333, "is_disabled": 0, "fusion_lat": 0.0, "lat": 38.92198333333333, "bike_id": "74fdddec1741adad0bf90af5c8058321", "fusion_lon": 0.0}, {"rental_uris": {"ios": "https://dc.lft.to/lastmile_qr_scan", "android": "https://dc.lft.to/lastmile_qr_scan"}, "type": "electric_scooter", "name": "48d85b8e579a36cf490999965a2d8963", "is_reserved": 0, "lon": -77.03243116666667, "is_disabled": 0, "fusion_lat": 0.0, "lat": 38.92884683333333, "bike_id": "48d85b8e579a36cf490999965a2d8963", "fusion_lon": 0.0}, {"rental_uris": {"ios": "https://dc.lft.to/lastmile_qr_scan", "android": "https://dc.lft.to/lastmile_qr_scan"}, "type": "electric_scooter", "name": "70a6f9a67b91a3f0132918a70a5c1cbb", "is_reserved": 0, "lon": -77.04344116666667, "is_disabled": 0, "fusion_lat": 0.0, "lat": 38.908328, "bike_id": "70a6f9a67b91a3f0132918a70a5c1cbb", "fusion_lon": 0.0}, {"rental_uris": {"ios": "https://dc.lft.to/lastmile_qr_scan", "android": "https://dc.lft.to/lastmile_qr_scan"}, "type": "electric_scooter", "name": "cfb14ab8a23122ba7c2627877ce08a05", "is_reserved": 0, "lon": -77.00651883333333, "is_disabled": 0, "fusion_lat": 0.0, "lat": 38.912512666666665, "bike_id": "cfb14ab8a23122ba7c2627877ce08a05", "fusion_lon": 0.0}, {"rental_uris": {"ios": "https://dc.lft.to/lastmile_qr_scan", "android": "https://dc.lft.to/lastmile_qr_scan"}, "type": "electric_scooter", "name": "975c64196b5615262fa90c9e469df64f", "is_reserved": 0, "lon": -77.01895433333334, "is_disabled": 0, "fusion_lat": 0.0, "lat": 38.87459116666667, "bike_id": "975c64196b5615262fa90c9e469df64f", "fusion_lon": 0.0}, {"rental_uris": {"ios": "https://dc.lft.to/lastmile_qr_scan", "android": "https://dc.lft.to/lastmile_qr_scan"}, "type": "electric_bike", "name": "5865746f903cab17b003b9de9ee6b19e", "is_reserved": 0, "lon": -76.98060100000001, "is_disabled": 0, "fusion_lat": 0.0, "lat": 38.972524, "bike_id": "5865746f903cab17b003b9de9ee6b19e", "fusion_lon": 0.0}, {"rental_uris": {"ios": "https://dc.lft.to/lastmile_qr_scan", "android": "https://dc.lft.to/lastmile_qr_scan"}, "type": "electric_scooter", "name": "df13adeb991ff5fa6da187761947f3bd", "is_reserved": 0, "lon": -77.03987066666667, "is_disabled": 0, "fusion_lat": 0.0, "lat": 38.9340325, "bike_id": "df13adeb991ff5fa6da187761947f3bd", "fusion_lon": 0.0}, {"rental_uris": {"ios": "https://dc.lft.to/lastmile_qr_scan", "android": "https://dc.lft.to/lastmile_qr_scan"}, "type": "electric_scooter", "name": "cf70f199286f1e5d24b5795efa2984d7", "is_reserved": 0, "lon": -77.02947733333333, "is_disabled": 0, "fusion_lat": 0.0, "lat": 38.93245916666667, "bike_id": "cf70f199286f1e5d24b5795efa2984d7", "fusion_lon": 0.0}, {"rental_uris": {"ios": "https://dc.lft.to/lastmile_qr_scan", "android": "https://dc.lft.to/lastmile_qr_scan"}, "type": "electric_scooter", "name": "08be6cbd6e0822bb7cf5d6c7e41051cb", "is_reserved": 0, "lon": -77.0367915, "is_disabled": 0, "fusion_lat": 0.0, "lat": 38.939304, "bike_id": "08be6cbd6e0822bb7cf5d6c7e41051cb", "fusion_lon": 0.0}, {"rental_uris": {"ios": "https://dc.lft.to/lastmile_qr_scan", "android": "https://dc.lft.to/lastmile_qr_scan"}, "type": "electric_bike", "name": "b29a80695a74c681b11f74bca3b89469", "is_reserved": 0, "lon": -77.00408766666666, "is_disabled": 0, "fusion_lat": 0.0, "lat": 38.92118383333333, "bike_id": "b29a80695a74c681b11f74bca3b89469", "fusion_lon": 0.0}, {"rental_uris": {"ios": "https://dc.lft.to/lastmile_qr_scan", "android": "https://dc.lft.to/lastmile_qr_scan"}, "type": "electric_scooter", "name": "8eacb6525a7f3615b942b66a260a9b5d", "is_reserved": 0, "lon": -77.02422766666666, "is_disabled": 0, "fusion_lat": 0.0, "lat": 38.91563583333333, "bike_id": "8eacb6525a7f3615b942b66a260a9b5d", "fusion_lon": 0.0}, {"rental_uris": {"ios": "https://dc.lft.to/lastmile_qr_scan", "android": "https://dc.lft.to/lastmile_qr_scan"}, "type": "electric_bike", "name": "4fc5023fca7dd074ca2bfb4d22f1b841", "is_reserved": 0, "lon": -77.02426266666667, "is_disabled": 0, "fusion_lat": 0.0, "lat": 38.9491515, "bike_id": "4fc5023fca7dd074ca2bfb4d22f1b841", "fusion_lon": 0.0}, {"rental_uris": {"ios": "https://dc.lft.to/lastmile_qr_scan", "android": "https://dc.lft.to/lastmile_qr_scan"}, "type": "electric_scooter", "name": "1124d899ce3d0c85d26aa8aba2fd0abe", "is_reserved": 0, "lon": -77.02412316666667, "is_disabled": 0, "fusion_lat": 0.0, "lat": 38.945133, "bike_id": "1124d899ce3d0c85d26aa8aba2fd0abe", "fusion_lon": 0.0}, {"rental_uris": {"ios": "https://dc.lft.to/lastmile_qr_scan", "android": "https://dc.lft.to/lastmile_qr_scan"}, "type": "electric_scooter", "name": "4630fc34b1a60f19cfb8f0191d693eab", "is_reserved": 0, "lon": -77.00480766666666, "is_disabled": 0, "fusion_lat": 0.0, "lat": 38.87455466666667, "bike_id": "4630fc34b1a60f19cfb8f0191d693eab", "fusion_lon": 0.0}, {"rental_uris": {"ios": "https://dc.lft.to/lastmile_qr_scan", "android": "https://dc.lft.to/lastmile_qr_scan"}, "type": "electric_bike", "name": "50b7bba69c26497f7c2c582036571489", "is_reserved": 0, "lon": -77.0388395, "is_disabled": 0, "fusion_lat": 0.0, "lat": 39.0263615, "bike_id": "50b7bba69c26497f7c2c582036571489", "fusion_lon": 0.0}, {"rental_uris": {"ios": "https://dc.lft.to/lastmile_qr_scan", "android": "https://dc.lft.to/lastmile_qr_scan"}, "type": "electric_bike", "name": "08d81bc612b39e0d28c11c70f534c304", "is_reserved": 0, "lon": -77.096268, "is_disabled": 0, "fusion_lat": 0.0, "lat": 38.95247666666667, "bike_id": "08d81bc612b39e0d28c11c70f534c304", "fusion_lon": 0.0}, {"rental_uris": {"ios": "https://dc.lft.to/lastmile_qr_scan", "android": "https://dc.lft.to/lastmile_qr_scan"}, "type": "electric_scooter", "name": "e911b4fd53085bc4e4d2a2db73a252db", "is_reserved": 0, "lon": -77.06064666666667, "is_disabled": 0, "fusion_lat": 0.0, "lat": 38.886086166666665, "bike_id": "e911b4fd53085bc4e4d2a2db73a252db", "fusion_lon": 0.0}, {"rental_uris": {"ios": "https://dc.lft.to/lastmile_qr_scan", "android": "https://dc.lft.to/lastmile_qr_scan"}, "type": "electric_bike", "name": "9a013da14df72d5bb155f500faf11bdd", "is_reserved": 0, "lon": -77.127391, "is_disabled": 0, "fusion_lat": 0.0, "lat": 38.8956745, "bike_id": "9a013da14df72d5bb155f500faf11bdd", "fusion_lon": 0.0}, {"rental_uris": {"ios": "https://dc.lft.to/lastmile_qr_scan", "android": "https://dc.lft.to/lastmile_qr_scan"}, "type": "electric_scooter", "name": "b52f776dd437e783670ca9f6adfa2940", "is_reserved": 0, "lon": -77.02941633333333, "is_disabled": 0, "fusion_lat": 0.0, "lat": 38.9170905, "bike_id": "b52f776dd437e783670ca9f6adfa2940", "fusion_lon": 0.0}, {"rental_uris": {"ios": "https://dc.lft.to/lastmile_qr_scan", "android": "https://dc.lft.to/lastmile_qr_scan"}, "type": "electric_scooter", "name": "67e8148f6b4eb8a0eb8c72a7fc998392", "is_reserved": 0, "lon": -76.94872633333334, "is_disabled": 0, "fusion_lat": 0.0, "lat": 38.894867166666664, "bike_id": "67e8148f6b4eb8a0eb8c72a7fc998392", "fusion_lon": 0.0}, {"rental_uris": {"ios": "https://dc.lft.to/lastmile_qr_scan", "android": "https://dc.lft.to/lastmile_qr_scan"}, "type": "electric_scooter", "name": "9ac332f9118f46aade97ff96aefaaac4", "is_reserved": 0, "lon": -76.92636016666667, "is_disabled": 0, "fusion_lat": 0.0, "lat": 38.883660666666664, "bike_id": "9ac332f9118f46aade97ff96aefaaac4", "fusion_lon": 0.0}, {"rental_uris": {"ios": "https://dc.lft.to/lastmile_qr_scan", "android": "https://dc.lft.to/lastmile_qr_scan"}, "type": "electric_scooter", "name": "5e3f7e93063aeade6eee14db137ec037", "is_reserved": 0, "lon": -77.0502375, "is_disabled": 0, "fusion_lat": 0.0, "lat": 38.89673833333333, "bike_id": "5e3f7e93063aeade6eee14db137ec037", "fusion_lon": 0.0}, {"rental_uris": {"ios": "https://dc.lft.to/lastmile_qr_scan", "android": "https://dc.lft.to/lastmile_qr_scan"}, "type": "electric_scooter", "name": "3eb427074d3cf8e82a44eef7deba4817", "is_reserved": 0, "lon": -77.04782916666667, "is_disabled": 0, "fusion_lat": 0.0, "lat": 38.9086405, "bike_id": "3eb427074d3cf8e82a44eef7deba4817", "fusion_lon": 0.0}, {"rental_uris": {"ios": "https://dc.lft.to/lastmile_qr_scan", "android": "https://dc.lft.to/lastmile_qr_scan"}, "type": "electric_scooter", "name": "72225c40acce99caf4df52dfdd920acb", "is_reserved": 0, "lon": -77.03643916666667, "is_disabled": 0, "fusion_lat": 0.0, "lat": 38.903793, "bike_id": "72225c40acce99caf4df52dfdd920acb", "fusion_lon": 0.0}, {"rental_uris": {"ios": "https://dc.lft.to/lastmile_qr_scan", "android": "https://dc.lft.to/lastmile_qr_scan"}, "type": "electric_scooter", "name": "d0e1bb0bc8dc03eae321cb29c6e6098c", "is_reserved": 0, "lon": -76.98539033333333, "is_disabled": 0, "fusion_lat": 0.0, "lat": 38.91288316666667, "bike_id": "d0e1bb0bc8dc03eae321cb29c6e6098c", "fusion_lon": 0.0}, {"rental_uris": {"ios": "https://dc.lft.to/lastmile_qr_scan", "android": "https://dc.lft.to/lastmile_qr_scan"}, "type": "electric_scooter", "name": "1426355455b585b21a93a6aed6bbc2de", "is_reserved": 0, "lon": -77.006058, "is_disabled": 0, "fusion_lat": 0.0, "lat": 38.87574733333334, "bike_id": "1426355455b585b21a93a6aed6bbc2de", "fusion_lon": 0.0}, {"rental_uris": {"ios": "https://dc.lft.to/lastmile_qr_scan", "android": "https://dc.lft.to/lastmile_qr_scan"}, "type": "electric_scooter", "name": "b505dbe078936a5fd57e9483de49b618", "is_reserved": 0, "lon": -77.04541183333333, "is_disabled": 0, "fusion_lat": 0.0, "lat": 38.91324866666667, "bike_id": "b505dbe078936a5fd57e9483de49b618", "fusion_lon": 0.0}, {"rental_uris": {"ios": "https://dc.lft.to/lastmile_qr_scan", "android": "https://dc.lft.to/lastmile_qr_scan"}, "type": "electric_scooter", "name": "25ab360afa9be28121abb7a5ca697f64", "is_reserved": 0, "lon": -77.02752166666667, "is_disabled": 0, "fusion_lat": 0.0, "lat": 38.957755166666665, "bike_id": "25ab360afa9be28121abb7a5ca697f64", "fusion_lon": 0.0}, {"rental_uris": {"ios": "https://dc.lft.to/lastmile_qr_scan", "android": "https://dc.lft.to/lastmile_qr_scan"}, "type": "electric_scooter", "name": "0b155ba91dd606563c12f351d2591fe5", "is_reserved": 0, "lon": -77.0332205, "is_disabled": 0, "fusion_lat": 0.0, "lat": 38.88771966666667, "bike_id": "0b155ba91dd606563c12f351d2591fe5", "fusion_lon": 0.0}, {"rental_uris": {"ios": "https://dc.lft.to/lastmile_qr_scan", "android": "https://dc.lft.to/lastmile_qr_scan"}, "type": "electric_scooter", "name": "a437b0f139b8f97e3ae65df5b8fbf294", "is_reserved": 0, "lon": -77.04007766666666, "is_disabled": 0, "fusion_lat": 0.0, "lat": 38.88865066666666, "bike_id": "a437b0f139b8f97e3ae65df5b8fbf294", "fusion_lon": 0.0}, {"rental_uris": {"ios": "https://dc.lft.to/lastmile_qr_scan", "android": "https://dc.lft.to/lastmile_qr_scan"}, "type": "electric_scooter", "name": "c89ff4d0ac7bed308fad4b493a1bf72f", "is_reserved": 0, "lon": -77.08339916666667, "is_disabled": 0, "fusion_lat": 0.0, "lat": 38.894209000000004, "bike_id": "c89ff4d0ac7bed308fad4b493a1bf72f", "fusion_lon": 0.0}, {"rental_uris": {"ios": "https://dc.lft.to/lastmile_qr_scan", "android": "https://dc.lft.to/lastmile_qr_scan"}, "type": "electric_scooter", "name": "aa94700e736237ca7d25a7ae49047188", "is_reserved": 0, "lon": -77.0453885, "is_disabled": 0, "fusion_lat": 0.0, "lat": 38.911120333333336, "bike_id": "aa94700e736237ca7d25a7ae49047188", "fusion_lon": 0.0}, {"rental_uris": {"ios": "https://dc.lft.to/lastmile_qr_scan", "android": "https://dc.lft.to/lastmile_qr_scan"}, "type": "electric_scooter", "name": "36fff26385f858c86d047bcfdf656ab1", "is_reserved": 0, "lon": -77.0334675, "is_disabled": 0, "fusion_lat": 0.0, "lat": 38.90260933333333, "bike_id": "36fff26385f858c86d047bcfdf656ab1", "fusion_lon": 0.0}, {"rental_uris": {"ios": "https://dc.lft.to/lastmile_qr_scan", "android": "https://dc.lft.to/lastmile_qr_scan"}, "type": "electric_scooter", "name": "a274a053a525d70daf563e0290117bf9", "is_reserved": 0, "lon": -77.01824733333333, "is_disabled": 0, "fusion_lat": 0.0, "lat": 38.922199166666665, "bike_id": "a274a053a525d70daf563e0290117bf9", "fusion_lon": 0.0}, {"rental_uris": {"ios": "https://dc.lft.to/lastmile_qr_scan", "android": "https://dc.lft.to/lastmile_qr_scan"}, "type": "electric_scooter", "name": "3706781e86c4c4c9083f415abac369a2", "is_reserved": 0, "lon": -77.01356516666667, "is_disabled": 0, "fusion_lat": 0.0, "lat": 38.9192115, "bike_id": "3706781e86c4c4c9083f415abac369a2", "fusion_lon": 0.0}, {"rental_uris": {"ios": "https://dc.lft.to/lastmile_qr_scan", "android": "https://dc.lft.to/lastmile_qr_scan"}, "type": "electric_scooter", "name": "da7587e5e3758104c8c22abce8593b12", "is_reserved": 0, "lon": -77.015917, "is_disabled": 0, "fusion_lat": 0.0, "lat": 38.87638116666667, "bike_id": "da7587e5e3758104c8c22abce8593b12", "fusion_lon": 0.0}, {"rental_uris": {"ios": "https://dc.lft.to/lastmile_qr_scan", "android": "https://dc.lft.to/lastmile_qr_scan"}, "type": "electric_scooter", "name": "9158e0a5a1247e500172a98be48aa0b4", "is_reserved": 0, "lon": -77.0433605, "is_disabled": 0, "fusion_lat": 0.0, "lat": 38.913712, "bike_id": "9158e0a5a1247e500172a98be48aa0b4", "fusion_lon": 0.0}, {"rental_uris": {"ios": "https://dc.lft.to/lastmile_qr_scan", "android": "https://dc.lft.to/lastmile_qr_scan"}, "type": "electric_scooter", "name": "bef175e07b830464efc1908852596b52", "is_reserved": 0, "lon": -76.99753816666667, "is_disabled": 0, "fusion_lat": 0.0, "lat": 38.922649666666665, "bike_id": "bef175e07b830464efc1908852596b52", "fusion_lon": 0.0}, {"rental_uris": {"ios": "https://dc.lft.to/lastmile_qr_scan", "android": "https://dc.lft.to/lastmile_qr_scan"}, "type": "electric_scooter", "name": "9bd804d18f20755229db9b32cba244d2", "is_reserved": 0, "lon": -77.01900383333333, "is_disabled": 0, "fusion_lat": 0.0, "lat": 38.90367483333333, "bike_id": "9bd804d18f20755229db9b32cba244d2", "fusion_lon": 0.0}, {"rental_uris": {"ios": "https://dc.lft.to/lastmile_qr_scan", "android": "https://dc.lft.to/lastmile_qr_scan"}, "type": "electric_scooter", "name": "f8c41ff847a56139faaab0bc402ce726", "is_reserved": 0, "lon": -77.02587, "is_disabled": 0, "fusion_lat": 0.0, "lat": 38.884855333333334, "bike_id": "f8c41ff847a56139faaab0bc402ce726", "fusion_lon": 0.0}, {"rental_uris": {"ios": "https://dc.lft.to/lastmile_qr_scan", "android": "https://dc.lft.to/lastmile_qr_scan"}, "type": "electric_scooter", "name": "f8713fa973cb85e2eb6197e0ffbe7dda", "is_reserved": 0, "lon": -77.007535, "is_disabled": 0, "fusion_lat": 0.0, "lat": 38.916174, "bike_id": "f8713fa973cb85e2eb6197e0ffbe7dda", "fusion_lon": 0.0}, {"rental_uris": {"ios": "https://dc.lft.to/lastmile_qr_scan", "android": "https://dc.lft.to/lastmile_qr_scan"}, "type": "electric_scooter", "name": "e8d36088306db3507c7f999268e9d024", "is_reserved": 0, "lon": -77.04177016666667, "is_disabled": 0, "fusion_lat": 0.0, "lat": 38.91607333333333, "bike_id": "e8d36088306db3507c7f999268e9d024", "fusion_lon": 0.0}, {"rental_uris": {"ios": "https://dc.lft.to/lastmile_qr_scan", "android": "https://dc.lft.to/lastmile_qr_scan"}, "type": "electric_scooter", "name": "b3d94c04a5b3771a055a2de115db11a1", "is_reserved": 0, "lon": -77.045698, "is_disabled": 0, "fusion_lat": 0.0, "lat": 38.9207305, "bike_id": "b3d94c04a5b3771a055a2de115db11a1", "fusion_lon": 0.0}, {"rental_uris": {"ios": "https://dc.lft.to/lastmile_qr_scan", "android": "https://dc.lft.to/lastmile_qr_scan"}, "type": "electric_bike", "name": "0cdae31da5afc9186ef3ccbb20f7fbe7", "is_reserved": 0, "lon": -76.98246616666667, "is_disabled": 0, "fusion_lat": 0.0, "lat": 38.952400833333336, "bike_id": "0cdae31da5afc9186ef3ccbb20f7fbe7", "fusion_lon": 0.0}, {"rental_uris": {"ios": "https://dc.lft.to/lastmile_qr_scan", "android": "https://dc.lft.to/lastmile_qr_scan"}, "type": "electric_scooter", "name": "8ef946ff91b0b629c592298de1676058", "is_reserved": 0, "lon": -77.02428883333333, "is_disabled": 0, "fusion_lat": 0.0, "lat": 38.92134133333333, "bike_id": "8ef946ff91b0b629c592298de1676058", "fusion_lon": 0.0}, {"rental_uris": {"ios": "https://dc.lft.to/lastmile_qr_scan", "android": "https://dc.lft.to/lastmile_qr_scan"}, "type": "electric_scooter", "name": "012ef4a51826cf1287ac03acd3b595c5", "is_reserved": 0, "lon": -77.03825583333334, "is_disabled": 0, "fusion_lat": 0.0, "lat": 38.914143833333334, "bike_id": "012ef4a51826cf1287ac03acd3b595c5", "fusion_lon": 0.0}, {"rental_uris": {"ios": "https://dc.lft.to/lastmile_qr_scan", "android": "https://dc.lft.to/lastmile_qr_scan"}, "type": "electric_scooter", "name": "8189a4f74b6a3d4f82f22dc3739369f2", "is_reserved": 0, "lon": -77.04083283333334, "is_disabled": 0, "fusion_lat": 0.0, "lat": 38.947885666666664, "bike_id": "8189a4f74b6a3d4f82f22dc3739369f2", "fusion_lon": 0.0}, {"rental_uris": {"ios": "https://dc.lft.to/lastmile_qr_scan", "android": "https://dc.lft.to/lastmile_qr_scan"}, "type": "electric_scooter", "name": "f821ba3fd98bd7c7646ed42185d22b94", "is_reserved": 0, "lon": -77.01956066666666, "is_disabled": 0, "fusion_lat": 0.0, "lat": 38.92324833333333, "bike_id": "f821ba3fd98bd7c7646ed42185d22b94", "fusion_lon": 0.0}, {"rental_uris": {"ios": "https://dc.lft.to/lastmile_qr_scan", "android": "https://dc.lft.to/lastmile_qr_scan"}, "type": "electric_scooter", "name": "dd4d35f9ddd11a24b75dc439ec89e63c", "is_reserved": 0, "lon": -76.981521, "is_disabled": 0, "fusion_lat": 0.0, "lat": 38.89939066666667, "bike_id": "dd4d35f9ddd11a24b75dc439ec89e63c", "fusion_lon": 0.0}, {"rental_uris": {"ios": "https://dc.lft.to/lastmile_qr_scan", "android": "https://dc.lft.to/lastmile_qr_scan"}, "type": "electric_scooter", "name": "c49cd7d565373e37f958eb08f21f38cf", "is_reserved": 0, "lon": -77.0320975, "is_disabled": 0, "fusion_lat": 0.0, "lat": 38.9218065, "bike_id": "c49cd7d565373e37f958eb08f21f38cf", "fusion_lon": 0.0}, {"rental_uris": {"ios": "https://dc.lft.to/lastmile_qr_scan", "android": "https://dc.lft.to/lastmile_qr_scan"}, "type": "electric_scooter", "name": "50389a82e2c44f8931b11b93fb577127", "is_reserved": 0, "lon": -77.006253, "is_disabled": 0, "fusion_lat": 0.0, "lat": 38.87172966666667, "bike_id": "50389a82e2c44f8931b11b93fb577127", "fusion_lon": 0.0}, {"rental_uris": {"ios": "https://dc.lft.to/lastmile_qr_scan", "android": "https://dc.lft.to/lastmile_qr_scan"}, "type": "electric_bike", "name": "17d25eaf843650439e2116160797242b", "is_reserved": 0, "lon": -76.98021583333333, "is_disabled": 0, "fusion_lat": 0.0, "lat": 38.853124666666666, "bike_id": "17d25eaf843650439e2116160797242b", "fusion_lon": 0.0}, {"rental_uris": {"ios": "https://dc.lft.to/lastmile_qr_scan", "android": "https://dc.lft.to/lastmile_qr_scan"}, "type": "electric_scooter", "name": "272d8097ea9e3065551a62d0f9b186a1", "is_reserved": 0, "lon": -77.036483, "is_disabled": 0, "fusion_lat": 0.0, "lat": 38.921171666666666, "bike_id": "272d8097ea9e3065551a62d0f9b186a1", "fusion_lon": 0.0}, {"rental_uris": {"ios": "https://dc.lft.to/lastmile_qr_scan", "android": "https://dc.lft.to/lastmile_qr_scan"}, "type": "electric_scooter", "name": "264d0764636fb993f2fc9b219869d349", "is_reserved": 0, "lon": -77.00574566666667, "is_disabled": 0, "fusion_lat": 0.0, "lat": 38.878271166666664, "bike_id": "264d0764636fb993f2fc9b219869d349", "fusion_lon": 0.0}, {"rental_uris": {"ios": "https://dc.lft.to/lastmile_qr_scan", "android": "https://dc.lft.to/lastmile_qr_scan"}, "type": "electric_bike", "name": "bda3b4084002cde093325b0c652f51d4", "is_reserved": 0, "lon": -76.9570165, "is_disabled": 0, "fusion_lat": 0.0, "lat": 38.85093783333333, "bike_id": "bda3b4084002cde093325b0c652f51d4", "fusion_lon": 0.0}, {"rental_uris": {"ios": "https://dc.lft.to/lastmile_qr_scan", "android": "https://dc.lft.to/lastmile_qr_scan"}, "type": "electric_scooter", "name": "723b0d63f03035ef57048742eef47ba7", "is_reserved": 0, "lon": -76.9836015, "is_disabled": 0, "fusion_lat": 0.0, "lat": 38.88738983333333, "bike_id": "723b0d63f03035ef57048742eef47ba7", "fusion_lon": 0.0}, {"rental_uris": {"ios": "https://dc.lft.to/lastmile_qr_scan", "android": "https://dc.lft.to/lastmile_qr_scan"}, "type": "electric_scooter", "name": "bdd12883f45d58128cac4a8eb91fe6de", "is_reserved": 0, "lon": -77.007595, "is_disabled": 0, "fusion_lat": 0.0, "lat": 38.92530083333333, "bike_id": "bdd12883f45d58128cac4a8eb91fe6de", "fusion_lon": 0.0}, {"rental_uris": {"ios": "https://dc.lft.to/lastmile_qr_scan", "android": "https://dc.lft.to/lastmile_qr_scan"}, "type": "electric_bike", "name": "c985995759c9e9b065854c5464ecabf7", "is_reserved": 0, "lon": -77.12673433333333, "is_disabled": 0, "fusion_lat": 0.0, "lat": 38.8958835, "bike_id": "c985995759c9e9b065854c5464ecabf7", "fusion_lon": 0.0}, {"rental_uris": {"ios": "https://dc.lft.to/lastmile_qr_scan", "android": "https://dc.lft.to/lastmile_qr_scan"}, "type": "electric_scooter", "name": "033fbcc1a2555c7075961db6ffd546ad", "is_reserved": 0, "lon": -76.98614216666667, "is_disabled": 0, "fusion_lat": 0.0, "lat": 38.90350316666667, "bike_id": "033fbcc1a2555c7075961db6ffd546ad", "fusion_lon": 0.0}, {"rental_uris": {"ios": "https://dc.lft.to/lastmile_qr_scan", "android": "https://dc.lft.to/lastmile_qr_scan"}, "type": "electric_scooter", "name": "796dc2a88a5d5992b9c4cfb8cca80788", "is_reserved": 0, "lon": -77.01060116666666, "is_disabled": 0, "fusion_lat": 0.0, "lat": 38.874079333333334, "bike_id": "796dc2a88a5d5992b9c4cfb8cca80788", "fusion_lon": 0.0}, {"rental_uris": {"ios": "https://dc.lft.to/lastmile_qr_scan", "android": "https://dc.lft.to/lastmile_qr_scan"}, "type": "electric_scooter", "name": "ec4d540aa7ff82b37e61849393cd2fb8", "is_reserved": 0, "lon": -77.026646, "is_disabled": 0, "fusion_lat": 0.0, "lat": 38.88482466666667, "bike_id": "ec4d540aa7ff82b37e61849393cd2fb8", "fusion_lon": 0.0}, {"rental_uris": {"ios": "https://dc.lft.to/lastmile_qr_scan", "android": "https://dc.lft.to/lastmile_qr_scan"}, "type": "electric_scooter", "name": "55adaa383e714b962d1dd34fcc52b538", "is_reserved": 0, "lon": -77.02611966666667, "is_disabled": 0, "fusion_lat": 0.0, "lat": 38.9168905, "bike_id": "55adaa383e714b962d1dd34fcc52b538", "fusion_lon": 0.0}, {"rental_uris": {"ios": "https://dc.lft.to/lastmile_qr_scan", "android": "https://dc.lft.to/lastmile_qr_scan"}, "type": "electric_scooter", "name": "26638bc1533aa45740968055a21cebea", "is_reserved": 0, "lon": -77.0255965, "is_disabled": 0, "fusion_lat": 0.0, "lat": 38.938619833333334, "bike_id": "26638bc1533aa45740968055a21cebea", "fusion_lon": 0.0}, {"rental_uris": {"ios": "https://dc.lft.to/lastmile_qr_scan", "android": "https://dc.lft.to/lastmile_qr_scan"}, "type": "electric_bike", "name": "24ea2d4ab2d7b6da306f0db5ccbb7123", "is_reserved": 0, "lon": -77.090197, "is_disabled": 0, "fusion_lat": 0.0, "lat": 38.92647016666667, "bike_id": "24ea2d4ab2d7b6da306f0db5ccbb7123", "fusion_lon": 0.0}, {"rental_uris": {"ios": "https://dc.lft.to/lastmile_qr_scan", "android": "https://dc.lft.to/lastmile_qr_scan"}, "type": "electric_scooter", "name": "cda4c288fe4901492f6541feeb33ac9b", "is_reserved": 0, "lon": -77.04610233333334, "is_disabled": 0, "fusion_lat": 0.0, "lat": 38.9055765, "bike_id": "cda4c288fe4901492f6541feeb33ac9b", "fusion_lon": 0.0}, {"rental_uris": {"ios": "https://dc.lft.to/lastmile_qr_scan", "android": "https://dc.lft.to/lastmile_qr_scan"}, "type": "electric_scooter", "name": "25daf66e099abee2e14e075b92f82ef0", "is_reserved": 0, "lon": -77.01429533333334, "is_disabled": 0, "fusion_lat": 0.0, "lat": 38.92029216666667, "bike_id": "25daf66e099abee2e14e075b92f82ef0", "fusion_lon": 0.0}, {"rental_uris": {"ios": "https://dc.lft.to/lastmile_qr_scan", "android": "https://dc.lft.to/lastmile_qr_scan"}, "type": "electric_scooter", "name": "30b38c308ffc998589bbb852ff5bb510", "is_reserved": 0, "lon": -77.0121255, "is_disabled": 0, "fusion_lat": 0.0, "lat": 38.901687833333334, "bike_id": "30b38c308ffc998589bbb852ff5bb510", "fusion_lon": 0.0}, {"rental_uris": {"ios": "https://dc.lft.to/lastmile_qr_scan", "android": "https://dc.lft.to/lastmile_qr_scan"}, "type": "electric_scooter", "name": "07b7ab09e0a7b735ffb919b37a090675", "is_reserved": 0, "lon": -77.03795716666667, "is_disabled": 0, "fusion_lat": 0.0, "lat": 38.923359166666664, "bike_id": "07b7ab09e0a7b735ffb919b37a090675", "fusion_lon": 0.0}, {"rental_uris": {"ios": "https://dc.lft.to/lastmile_qr_scan", "android": "https://dc.lft.to/lastmile_qr_scan"}, "type": "electric_scooter", "name": "2d31c8d725e1dbd3214ed094f49ab468", "is_reserved": 0, "lon": -77.04488383333333, "is_disabled": 0, "fusion_lat": 0.0, "lat": 38.903643833333334, "bike_id": "2d31c8d725e1dbd3214ed094f49ab468", "fusion_lon": 0.0}, {"rental_uris": {"ios": "https://dc.lft.to/lastmile_qr_scan", "android": "https://dc.lft.to/lastmile_qr_scan"}, "type": "electric_scooter", "name": "f2a2b0ace6b9bb6be7bc225939f1e636", "is_reserved": 0, "lon": -77.02716733333334, "is_disabled": 0, "fusion_lat": 0.0, "lat": 38.910181, "bike_id": "f2a2b0ace6b9bb6be7bc225939f1e636", "fusion_lon": 0.0}, {"rental_uris": {"ios": "https://dc.lft.to/lastmile_qr_scan", "android": "https://dc.lft.to/lastmile_qr_scan"}, "type": "electric_scooter", "name": "a6cff8f53884f00597a0dbf9aa404b40", "is_reserved": 0, "lon": -77.0435105, "is_disabled": 0, "fusion_lat": 0.0, "lat": 38.908182, "bike_id": "a6cff8f53884f00597a0dbf9aa404b40", "fusion_lon": 0.0}, {"rental_uris": {"ios": "https://dc.lft.to/lastmile_qr_scan", "android": "https://dc.lft.to/lastmile_qr_scan"}, "type": "electric_scooter", "name": "9d361a0f258f9c6b44b0fba115cd0d2e", "is_reserved": 0, "lon": -76.98538983333333, "is_disabled": 0, "fusion_lat": 0.0, "lat": 38.880047, "bike_id": "9d361a0f258f9c6b44b0fba115cd0d2e", "fusion_lon": 0.0}, {"rental_uris": {"ios": "https://dc.lft.to/lastmile_qr_scan", "android": "https://dc.lft.to/lastmile_qr_scan"}, "type": "electric_scooter", "name": "9fadc1650b1e1f3cc93fe6f42801547a", "is_reserved": 0, "lon": -76.9870405, "is_disabled": 0, "fusion_lat": 0.0, "lat": 38.859644333333335, "bike_id": "9fadc1650b1e1f3cc93fe6f42801547a", "fusion_lon": 0.0}, {"rental_uris": {"ios": "https://dc.lft.to/lastmile_qr_scan", "android": "https://dc.lft.to/lastmile_qr_scan"}, "type": "electric_scooter", "name": "57a8368097829e15788c90d1c0d7b6f0", "is_reserved": 0, "lon": -77.00120483333333, "is_disabled": 0, "fusion_lat": 0.0, "lat": 38.877917833333335, "bike_id": "57a8368097829e15788c90d1c0d7b6f0", "fusion_lon": 0.0}, {"rental_uris": {"ios": "https://dc.lft.to/lastmile_qr_scan", "android": "https://dc.lft.to/lastmile_qr_scan"}, "type": "electric_scooter", "name": "9b05c9e7072bd42a1040678e38d4367a", "is_reserved": 0, "lon": -76.99518866666666, "is_disabled": 0, "fusion_lat": 0.0, "lat": 38.88990066666667, "bike_id": "9b05c9e7072bd42a1040678e38d4367a", "fusion_lon": 0.0}, {"rental_uris": {"ios": "https://dc.lft.to/lastmile_qr_scan", "android": "https://dc.lft.to/lastmile_qr_scan"}, "type": "electric_scooter", "name": "2b58b04e45cb445beeff2a5996a78016", "is_reserved": 0, "lon": -77.08183816666667, "is_disabled": 0, "fusion_lat": 0.0, "lat": 38.933398, "bike_id": "2b58b04e45cb445beeff2a5996a78016", "fusion_lon": 0.0}, {"rental_uris": {"ios": "https://dc.lft.to/lastmile_qr_scan", "android": "https://dc.lft.to/lastmile_qr_scan"}, "type": "electric_scooter", "name": "dbf7b19564d4edff075b469c72c28266", "is_reserved": 0, "lon": -77.03178366666667, "is_disabled": 0, "fusion_lat": 0.0, "lat": 38.919301833333336, "bike_id": "dbf7b19564d4edff075b469c72c28266", "fusion_lon": 0.0}, {"rental_uris": {"ios": "https://dc.lft.to/lastmile_qr_scan", "android": "https://dc.lft.to/lastmile_qr_scan"}, "type": "electric_scooter", "name": "1e439549bb429e0089a0a81cbc3325af", "is_reserved": 0, "lon": -77.04124, "is_disabled": 0, "fusion_lat": 0.0, "lat": 38.933845166666664, "bike_id": "1e439549bb429e0089a0a81cbc3325af", "fusion_lon": 0.0}, {"rental_uris": {"ios": "https://dc.lft.to/lastmile_qr_scan", "android": "https://dc.lft.to/lastmile_qr_scan"}, "type": "electric_bike", "name": "5b4ce9c40791f40ca52bc58676585b3c", "is_reserved": 0, "lon": -77.09728866666667, "is_disabled": 0, "fusion_lat": 0.0, "lat": 38.80743283333334, "bike_id": "5b4ce9c40791f40ca52bc58676585b3c", "fusion_lon": 0.0}, {"rental_uris": {"ios": "https://dc.lft.to/lastmile_qr_scan", "android": "https://dc.lft.to/lastmile_qr_scan"}, "type": "electric_bike", "name": "10636014bd181b3376fc0a9756566647", "is_reserved": 0, "lon": -77.2166315, "is_disabled": 0, "fusion_lat": 0.0, "lat": 38.89506266666667, "bike_id": "10636014bd181b3376fc0a9756566647", "fusion_lon": 0.0}, {"rental_uris": {"ios": "https://dc.lft.to/lastmile_qr_scan", "android": "https://dc.lft.to/lastmile_qr_scan"}, "type": "electric_bike", "name": "8dc61fdca0c36f08ceba02a1155de852", "is_reserved": 0, "lon": -77.06533933333333, "is_disabled": 0, "fusion_lat": 0.0, "lat": 38.9924095, "bike_id": "8dc61fdca0c36f08ceba02a1155de852", "fusion_lon": 0.0}, {"rental_uris": {"ios": "https://dc.lft.to/lastmile_qr_scan", "android": "https://dc.lft.to/lastmile_qr_scan"}, "type": "electric_scooter", "name": "345ae36c5a5faef03b16a69d6c94f049", "is_reserved": 0, "lon": -77.02604533333333, "is_disabled": 0, "fusion_lat": 0.0, "lat": 38.946085833333335, "bike_id": "345ae36c5a5faef03b16a69d6c94f049", "fusion_lon": 0.0}, {"rental_uris": {"ios": "https://dc.lft.to/lastmile_qr_scan", "android": "https://dc.lft.to/lastmile_qr_scan"}, "type": "electric_scooter", "name": "14a3e54b7c04078cfb2db5c0ab5b16fe", "is_reserved": 0, "lon": -77.01513483333333, "is_disabled": 0, "fusion_lat": 0.0, "lat": 38.909740166666666, "bike_id": "14a3e54b7c04078cfb2db5c0ab5b16fe", "fusion_lon": 0.0}, {"rental_uris": {"ios": "https://dc.lft.to/lastmile_qr_scan", "android": "https://dc.lft.to/lastmile_qr_scan"}, "type": "electric_scooter", "name": "9e743004d1d6d5a10b97c52af897184b", "is_reserved": 0, "lon": -77.04079366666667, "is_disabled": 0, "fusion_lat": 0.0, "lat": 38.905603, "bike_id": "9e743004d1d6d5a10b97c52af897184b", "fusion_lon": 0.0}, {"rental_uris": {"ios": "https://dc.lft.to/lastmile_qr_scan", "android": "https://dc.lft.to/lastmile_qr_scan"}, "type": "electric_scooter", "name": "b8a6da3671f61c10cbc545beff635daf", "is_reserved": 0, "lon": -77.01588583333333, "is_disabled": 0, "fusion_lat": 0.0, "lat": 38.8762605, "bike_id": "b8a6da3671f61c10cbc545beff635daf", "fusion_lon": 0.0}, {"rental_uris": {"ios": "https://dc.lft.to/lastmile_qr_scan", "android": "https://dc.lft.to/lastmile_qr_scan"}, "type": "electric_scooter", "name": "1fae49aa54a774a6a769df5678c2f20a", "is_reserved": 0, "lon": -77.05505, "is_disabled": 0, "fusion_lat": 0.0, "lat": 38.9283525, "bike_id": "1fae49aa54a774a6a769df5678c2f20a", "fusion_lon": 0.0}, {"rental_uris": {"ios": "https://dc.lft.to/lastmile_qr_scan", "android": "https://dc.lft.to/lastmile_qr_scan"}, "type": "electric_scooter", "name": "8c933449702915b163f55de6a13f5e89", "is_reserved": 0, "lon": -77.0207235, "is_disabled": 0, "fusion_lat": 0.0, "lat": 38.93022466666667, "bike_id": "8c933449702915b163f55de6a13f5e89", "fusion_lon": 0.0}, {"rental_uris": {"ios": "https://dc.lft.to/lastmile_qr_scan", "android": "https://dc.lft.to/lastmile_qr_scan"}, "type": "electric_scooter", "name": "3b3b939cc2a4c8b9ab5485c7da930436", "is_reserved": 0, "lon": -77.02093166666667, "is_disabled": 0, "fusion_lat": 0.0, "lat": 38.9311395, "bike_id": "3b3b939cc2a4c8b9ab5485c7da930436", "fusion_lon": 0.0}, {"rental_uris": {"ios": "https://dc.lft.to/lastmile_qr_scan", "android": "https://dc.lft.to/lastmile_qr_scan"}, "type": "electric_bike", "name": "95e8be183598b61eddba695f8d25a965", "is_reserved": 0, "lon": -77.003785, "is_disabled": 0, "fusion_lat": 0.0, "lat": 38.83605466666667, "bike_id": "95e8be183598b61eddba695f8d25a965", "fusion_lon": 0.0}, {"rental_uris": {"ios": "https://dc.lft.to/lastmile_qr_scan", "android": "https://dc.lft.to/lastmile_qr_scan"}, "type": "electric_scooter", "name": "a8677fcd1e7cf72765bcd56de3a66216", "is_reserved": 0, "lon": -77.02836883333333, "is_disabled": 0, "fusion_lat": 0.0, "lat": 38.88737366666667, "bike_id": "a8677fcd1e7cf72765bcd56de3a66216", "fusion_lon": 0.0}, {"rental_uris": {"ios": "https://dc.lft.to/lastmile_qr_scan", "android": "https://dc.lft.to/lastmile_qr_scan"}, "type": "electric_scooter", "name": "7c9edd93737bdd8f23bc5e9155cb2237", "is_reserved": 0, "lon": -77.0020115, "is_disabled": 0, "fusion_lat": 0.0, "lat": 38.907712333333336, "bike_id": "7c9edd93737bdd8f23bc5e9155cb2237", "fusion_lon": 0.0}, {"rental_uris": {"ios": "https://dc.lft.to/lastmile_qr_scan", "android": "https://dc.lft.to/lastmile_qr_scan"}, "type": "electric_scooter", "name": "1416c45b8b4e25ff1ba590b4ad54d377", "is_reserved": 0, "lon": -77.02740416666667, "is_disabled": 0, "fusion_lat": 0.0, "lat": 38.92967566666667, "bike_id": "1416c45b8b4e25ff1ba590b4ad54d377", "fusion_lon": 0.0}, {"rental_uris": {"ios": "https://dc.lft.to/lastmile_qr_scan", "android": "https://dc.lft.to/lastmile_qr_scan"}, "type": "electric_scooter", "name": "d5c484c7e2e70b9633d6d1846dc5a16e", "is_reserved": 0, "lon": -77.04127383333334, "is_disabled": 0, "fusion_lat": 0.0, "lat": 38.93399616666667, "bike_id": "d5c484c7e2e70b9633d6d1846dc5a16e", "fusion_lon": 0.0}, {"rental_uris": {"ios": "https://dc.lft.to/lastmile_qr_scan", "android": "https://dc.lft.to/lastmile_qr_scan"}, "type": "electric_scooter", "name": "f1d20d6d46420d62368811c4ac80325e", "is_reserved": 0, "lon": -77.01651966666667, "is_disabled": 0, "fusion_lat": 0.0, "lat": 38.9025235, "bike_id": "f1d20d6d46420d62368811c4ac80325e", "fusion_lon": 0.0}, {"rental_uris": {"ios": "https://dc.lft.to/lastmile_qr_scan", "android": "https://dc.lft.to/lastmile_qr_scan"}, "type": "electric_bike", "name": "5c63c59bd142ac1724402b9b2bbea495", "is_reserved": 0, "lon": -76.96321216666666, "is_disabled": 0, "fusion_lat": 0.0, "lat": 38.93887266666667, "bike_id": "5c63c59bd142ac1724402b9b2bbea495", "fusion_lon": 0.0}, {"rental_uris": {"ios": "https://dc.lft.to/lastmile_qr_scan", "android": "https://dc.lft.to/lastmile_qr_scan"}, "type": "electric_bike", "name": "ced52fe94c3e6ef89de89f4598508320", "is_reserved": 0, "lon": -77.081457, "is_disabled": 0, "fusion_lat": 0.0, "lat": 38.82297333333333, "bike_id": "ced52fe94c3e6ef89de89f4598508320", "fusion_lon": 0.0}, {"rental_uris": {"ios": "https://dc.lft.to/lastmile_qr_scan", "android": "https://dc.lft.to/lastmile_qr_scan"}, "type": "electric_scooter", "name": "ed1fb1e396c236e62fce199a045aadbc", "is_reserved": 0, "lon": -77.03830233333333, "is_disabled": 0, "fusion_lat": 0.0, "lat": 38.90824933333333, "bike_id": "ed1fb1e396c236e62fce199a045aadbc", "fusion_lon": 0.0}, {"rental_uris": {"ios": "https://dc.lft.to/lastmile_qr_scan", "android": "https://dc.lft.to/lastmile_qr_scan"}, "type": "electric_scooter", "name": "7c8b5e2153b8449c075d21f05f23d8e8", "is_reserved": 0, "lon": -77.02303366666666, "is_disabled": 0, "fusion_lat": 0.0, "lat": 38.92781166666666, "bike_id": "7c8b5e2153b8449c075d21f05f23d8e8", "fusion_lon": 0.0}, {"rental_uris": {"ios": "https://dc.lft.to/lastmile_qr_scan", "android": "https://dc.lft.to/lastmile_qr_scan"}, "type": "electric_scooter", "name": "5e088b180d8bf2f4fa1e68f2bb5e9178", "is_reserved": 0, "lon": -77.005907, "is_disabled": 0, "fusion_lat": 0.0, "lat": 38.905704666666665, "bike_id": "5e088b180d8bf2f4fa1e68f2bb5e9178", "fusion_lon": 0.0}, {"rental_uris": {"ios": "https://dc.lft.to/lastmile_qr_scan", "android": "https://dc.lft.to/lastmile_qr_scan"}, "type": "electric_scooter", "name": "656258571c98d97012dd77db24f473e0", "is_reserved": 0, "lon": -77.03614783333333, "is_disabled": 0, "fusion_lat": 0.0, "lat": 38.90344283333334, "bike_id": "656258571c98d97012dd77db24f473e0", "fusion_lon": 0.0}, {"rental_uris": {"ios": "https://dc.lft.to/lastmile_qr_scan", "android": "https://dc.lft.to/lastmile_qr_scan"}, "type": "electric_scooter", "name": "1412733f6ff212384a50cb258b1f3131", "is_reserved": 0, "lon": -77.03884383333333, "is_disabled": 0, "fusion_lat": 0.0, "lat": 38.93309, "bike_id": "1412733f6ff212384a50cb258b1f3131", "fusion_lon": 0.0}, {"rental_uris": {"ios": "https://dc.lft.to/lastmile_qr_scan", "android": "https://dc.lft.to/lastmile_qr_scan"}, "type": "electric_bike", "name": "ef5d32fcd7c328f6ed73c156623bdf44", "is_reserved": 0, "lon": -77.08975483333333, "is_disabled": 0, "fusion_lat": 0.0, "lat": 38.911676666666665, "bike_id": "ef5d32fcd7c328f6ed73c156623bdf44", "fusion_lon": 0.0}, {"rental_uris": {"ios": "https://dc.lft.to/lastmile_qr_scan", "android": "https://dc.lft.to/lastmile_qr_scan"}, "type": "electric_scooter", "name": "c7daf98a9f4aca6ae4a44c60e3ff7d4c", "is_reserved": 0, "lon": -77.010832, "is_disabled": 0, "fusion_lat": 0.0, "lat": 38.903315166666665, "bike_id": "c7daf98a9f4aca6ae4a44c60e3ff7d4c", "fusion_lon": 0.0}, {"rental_uris": {"ios": "https://dc.lft.to/lastmile_qr_scan", "android": "https://dc.lft.to/lastmile_qr_scan"}, "type": "electric_scooter", "name": "cab5c243f30f3938627e9ce8ef732cf8", "is_reserved": 0, "lon": -77.0387235, "is_disabled": 0, "fusion_lat": 0.0, "lat": 38.915659833333336, "bike_id": "cab5c243f30f3938627e9ce8ef732cf8", "fusion_lon": 0.0}, {"rental_uris": {"ios": "https://dc.lft.to/lastmile_qr_scan", "android": "https://dc.lft.to/lastmile_qr_scan"}, "type": "electric_scooter", "name": "86cfe823c2e10ef7a32ce0ee4e8c7d9a", "is_reserved": 0, "lon": -77.03562066666667, "is_disabled": 0, "fusion_lat": 0.0, "lat": 38.9047655, "bike_id": "86cfe823c2e10ef7a32ce0ee4e8c7d9a", "fusion_lon": 0.0}, {"rental_uris": {"ios": "https://dc.lft.to/lastmile_qr_scan", "android": "https://dc.lft.to/lastmile_qr_scan"}, "type": "electric_scooter", "name": "2bb57bf295496de530c4b3c083d29996", "is_reserved": 0, "lon": -77.0432615, "is_disabled": 0, "fusion_lat": 0.0, "lat": 38.91782116666667, "bike_id": "2bb57bf295496de530c4b3c083d29996", "fusion_lon": 0.0}, {"rental_uris": {"ios": "https://dc.lft.to/lastmile_qr_scan", "android": "https://dc.lft.to/lastmile_qr_scan"}, "type": "electric_scooter", "name": "262fb7bc77e218889040298a62ada8f4", "is_reserved": 0, "lon": -77.0162585, "is_disabled": 0, "fusion_lat": 0.0, "lat": 38.903635666666666, "bike_id": "262fb7bc77e218889040298a62ada8f4", "fusion_lon": 0.0}, {"rental_uris": {"ios": "https://dc.lft.to/lastmile_qr_scan", "android": "https://dc.lft.to/lastmile_qr_scan"}, "type": "electric_scooter", "name": "b6b47c30cb8fbf39e1c6e4fc16b2ff73", "is_reserved": 0, "lon": -77.02178916666666, "is_disabled": 0, "fusion_lat": 0.0, "lat": 38.91787766666667, "bike_id": "b6b47c30cb8fbf39e1c6e4fc16b2ff73", "fusion_lon": 0.0}, {"rental_uris": {"ios": "https://dc.lft.to/lastmile_qr_scan", "android": "https://dc.lft.to/lastmile_qr_scan"}, "type": "electric_scooter", "name": "4bcd831ca51d5f71cb0d7f04de11f977", "is_reserved": 0, "lon": -77.04406233333333, "is_disabled": 0, "fusion_lat": 0.0, "lat": 38.92949633333333, "bike_id": "4bcd831ca51d5f71cb0d7f04de11f977", "fusion_lon": 0.0}, {"rental_uris": {"ios": "https://dc.lft.to/lastmile_qr_scan", "android": "https://dc.lft.to/lastmile_qr_scan"}, "type": "electric_scooter", "name": "2a944d90d1e9b95db56c35d0c7ac9817", "is_reserved": 0, "lon": -76.9321515, "is_disabled": 0, "fusion_lat": 0.0, "lat": 38.89671516666667, "bike_id": "2a944d90d1e9b95db56c35d0c7ac9817", "fusion_lon": 0.0}, {"rental_uris": {"ios": "https://dc.lft.to/lastmile_qr_scan", "android": "https://dc.lft.to/lastmile_qr_scan"}, "type": "electric_scooter", "name": "e01af339145e533236e2a98a780f503f", "is_reserved": 0, "lon": -76.9994305, "is_disabled": 0, "fusion_lat": 0.0, "lat": 38.89168816666667, "bike_id": "e01af339145e533236e2a98a780f503f", "fusion_lon": 0.0}, {"rental_uris": {"ios": "https://dc.lft.to/lastmile_qr_scan", "android": "https://dc.lft.to/lastmile_qr_scan"}, "type": "electric_bike", "name": "c9c54236f7d8f444845fee554d90f77c", "is_reserved": 0, "lon": -77.00407316666667, "is_disabled": 0, "fusion_lat": 0.0, "lat": 38.98543983333333, "bike_id": "c9c54236f7d8f444845fee554d90f77c", "fusion_lon": 0.0}, {"rental_uris": {"ios": "https://dc.lft.to/lastmile_qr_scan", "android": "https://dc.lft.to/lastmile_qr_scan"}, "type": "electric_scooter", "name": "199bc32360927ffb880766e9da585e2b", "is_reserved": 0, "lon": -77.02553733333333, "is_disabled": 0, "fusion_lat": 0.0, "lat": 38.9308715, "bike_id": "199bc32360927ffb880766e9da585e2b", "fusion_lon": 0.0}, {"rental_uris": {"ios": "https://dc.lft.to/lastmile_qr_scan", "android": "https://dc.lft.to/lastmile_qr_scan"}, "type": "electric_bike", "name": "1f2ea88265af4676fdd6b60298553b6c", "is_reserved": 0, "lon": -77.09823066666667, "is_disabled": 0, "fusion_lat": 0.0, "lat": 38.85021783333333, "bike_id": "1f2ea88265af4676fdd6b60298553b6c", "fusion_lon": 0.0}, {"rental_uris": {"ios": "https://dc.lft.to/lastmile_qr_scan", "android": "https://dc.lft.to/lastmile_qr_scan"}, "type": "electric_scooter", "name": "17293399cade316bb1c6e170e3b10f8f", "is_reserved": 0, "lon": -77.04504466666667, "is_disabled": 0, "fusion_lat": 0.0, "lat": 38.9185605, "bike_id": "17293399cade316bb1c6e170e3b10f8f", "fusion_lon": 0.0}, {"rental_uris": {"ios": "https://dc.lft.to/lastmile_qr_scan", "android": "https://dc.lft.to/lastmile_qr_scan"}, "type": "electric_scooter", "name": "924947ac329157369b4304b4940e1089", "is_reserved": 0, "lon": -77.01346583333333, "is_disabled": 0, "fusion_lat": 0.0, "lat": 38.896023166666666, "bike_id": "924947ac329157369b4304b4940e1089", "fusion_lon": 0.0}, {"rental_uris": {"ios": "https://dc.lft.to/lastmile_qr_scan", "android": "https://dc.lft.to/lastmile_qr_scan"}, "type": "electric_scooter", "name": "66e1bd81d0de26b1ac61371cb82c4b00", "is_reserved": 0, "lon": -77.04261216666667, "is_disabled": 0, "fusion_lat": 0.0, "lat": 38.904270333333336, "bike_id": "66e1bd81d0de26b1ac61371cb82c4b00", "fusion_lon": 0.0}, {"rental_uris": {"ios": "https://dc.lft.to/lastmile_qr_scan", "android": "https://dc.lft.to/lastmile_qr_scan"}, "type": "electric_scooter", "name": "1c8e1cd3af7e2a911740bf65e0e12d02", "is_reserved": 0, "lon": -77.02113933333334, "is_disabled": 0, "fusion_lat": 0.0, "lat": 38.90604716666667, "bike_id": "1c8e1cd3af7e2a911740bf65e0e12d02", "fusion_lon": 0.0}, {"rental_uris": {"ios": "https://dc.lft.to/lastmile_qr_scan", "android": "https://dc.lft.to/lastmile_qr_scan"}, "type": "electric_scooter", "name": "77da44b9e61a3130f24282bdadacc47c", "is_reserved": 0, "lon": -77.021366, "is_disabled": 0, "fusion_lat": 0.0, "lat": 38.92408916666667, "bike_id": "77da44b9e61a3130f24282bdadacc47c", "fusion_lon": 0.0}, {"rental_uris": {"ios": "https://dc.lft.to/lastmile_qr_scan", "android": "https://dc.lft.to/lastmile_qr_scan"}, "type": "electric_scooter", "name": "0ea50f152732cb08186ac53fb0bf6bd2", "is_reserved": 0, "lon": -76.98838216666667, "is_disabled": 0, "fusion_lat": 0.0, "lat": 38.8429025, "bike_id": "0ea50f152732cb08186ac53fb0bf6bd2", "fusion_lon": 0.0}, {"rental_uris": {"ios": "https://dc.lft.to/lastmile_qr_scan", "android": "https://dc.lft.to/lastmile_qr_scan"}, "type": "electric_scooter", "name": "5960cfe58e012ecd41e46966aa46f4d5", "is_reserved": 0, "lon": -77.02685666666666, "is_disabled": 0, "fusion_lat": 0.0, "lat": 38.92571233333334, "bike_id": "5960cfe58e012ecd41e46966aa46f4d5", "fusion_lon": 0.0}, {"rental_uris": {"ios": "https://dc.lft.to/lastmile_qr_scan", "android": "https://dc.lft.to/lastmile_qr_scan"}, "type": "electric_scooter", "name": "ad4bc829a7ac95a7bd9a21339a252a6c", "is_reserved": 0, "lon": -77.03429433333334, "is_disabled": 0, "fusion_lat": 0.0, "lat": 38.91915266666667, "bike_id": "ad4bc829a7ac95a7bd9a21339a252a6c", "fusion_lon": 0.0}, {"rental_uris": {"ios": "https://dc.lft.to/lastmile_qr_scan", "android": "https://dc.lft.to/lastmile_qr_scan"}, "type": "electric_scooter", "name": "56a5b46efd23b2cfd1feae9445dcdbb0", "is_reserved": 0, "lon": -77.024148, "is_disabled": 0, "fusion_lat": 0.0, "lat": 38.935554833333335, "bike_id": "56a5b46efd23b2cfd1feae9445dcdbb0", "fusion_lon": 0.0}, {"rental_uris": {"ios": "https://dc.lft.to/lastmile_qr_scan", "android": "https://dc.lft.to/lastmile_qr_scan"}, "type": "electric_scooter", "name": "773aced548e971e9b469380f6fbac26b", "is_reserved": 0, "lon": -77.02384366666666, "is_disabled": 0, "fusion_lat": 0.0, "lat": 38.92069516666667, "bike_id": "773aced548e971e9b469380f6fbac26b", "fusion_lon": 0.0}, {"rental_uris": {"ios": "https://dc.lft.to/lastmile_qr_scan", "android": "https://dc.lft.to/lastmile_qr_scan"}, "type": "electric_scooter", "name": "f12c7f007f6d6bec0819275bfb7f9910", "is_reserved": 0, "lon": -76.9903395, "is_disabled": 0, "fusion_lat": 0.0, "lat": 38.89849933333333, "bike_id": "f12c7f007f6d6bec0819275bfb7f9910", "fusion_lon": 0.0}, {"rental_uris": {"ios": "https://dc.lft.to/lastmile_qr_scan", "android": "https://dc.lft.to/lastmile_qr_scan"}, "type": "electric_scooter", "name": "39a5aa769b3af3ba45ffe53d95db5bb5", "is_reserved": 0, "lon": -76.98371366666667, "is_disabled": 0, "fusion_lat": 0.0, "lat": 38.8602935, "bike_id": "39a5aa769b3af3ba45ffe53d95db5bb5", "fusion_lon": 0.0}, {"rental_uris": {"ios": "https://dc.lft.to/lastmile_qr_scan", "android": "https://dc.lft.to/lastmile_qr_scan"}, "type": "electric_scooter", "name": "c4cc759f77fd7f7a321ef921afecab52", "is_reserved": 0, "lon": -77.0320195, "is_disabled": 0, "fusion_lat": 0.0, "lat": 38.90458783333333, "bike_id": "c4cc759f77fd7f7a321ef921afecab52", "fusion_lon": 0.0}, {"rental_uris": {"ios": "https://dc.lft.to/lastmile_qr_scan", "android": "https://dc.lft.to/lastmile_qr_scan"}, "type": "electric_scooter", "name": "da0e3c93f8fc02d29fa15afc8e8a2798", "is_reserved": 0, "lon": -77.039032, "is_disabled": 0, "fusion_lat": 0.0, "lat": 38.9142115, "bike_id": "da0e3c93f8fc02d29fa15afc8e8a2798", "fusion_lon": 0.0}, {"rental_uris": {"ios": "https://dc.lft.to/lastmile_qr_scan", "android": "https://dc.lft.to/lastmile_qr_scan"}, "type": "electric_scooter", "name": "0282f2ec173f5a12e88b4d59ee4fd6d6", "is_reserved": 0, "lon": -77.03221583333334, "is_disabled": 0, "fusion_lat": 0.0, "lat": 38.89227066666667, "bike_id": "0282f2ec173f5a12e88b4d59ee4fd6d6", "fusion_lon": 0.0}, {"rental_uris": {"ios": "https://dc.lft.to/lastmile_qr_scan", "android": "https://dc.lft.to/lastmile_qr_scan"}, "type": "electric_scooter", "name": "bb3df7ddaa3853fb0a06a9ae1c777205", "is_reserved": 0, "lon": -77.02151, "is_disabled": 0, "fusion_lat": 0.0, "lat": 38.8874185, "bike_id": "bb3df7ddaa3853fb0a06a9ae1c777205", "fusion_lon": 0.0}, {"rental_uris": {"ios": "https://dc.lft.to/lastmile_qr_scan", "android": "https://dc.lft.to/lastmile_qr_scan"}, "type": "electric_scooter", "name": "b72d2ce62e6b600b8ffcb4119eb3918b", "is_reserved": 0, "lon": -77.03873816666666, "is_disabled": 0, "fusion_lat": 0.0, "lat": 38.915633166666666, "bike_id": "b72d2ce62e6b600b8ffcb4119eb3918b", "fusion_lon": 0.0}, {"rental_uris": {"ios": "https://dc.lft.to/lastmile_qr_scan", "android": "https://dc.lft.to/lastmile_qr_scan"}, "type": "electric_scooter", "name": "6e591bca89c9e76b645ea6a239593ab9", "is_reserved": 0, "lon": -77.0326725, "is_disabled": 0, "fusion_lat": 0.0, "lat": 38.928472166666666, "bike_id": "6e591bca89c9e76b645ea6a239593ab9", "fusion_lon": 0.0}, {"rental_uris": {"ios": "https://dc.lft.to/lastmile_qr_scan", "android": "https://dc.lft.to/lastmile_qr_scan"}, "type": "electric_scooter", "name": "073c2f05e3d75c646fb098e798a99c99", "is_reserved": 0, "lon": -76.9962745, "is_disabled": 0, "fusion_lat": 0.0, "lat": 38.877386333333334, "bike_id": "073c2f05e3d75c646fb098e798a99c99", "fusion_lon": 0.0}, {"rental_uris": {"ios": "https://dc.lft.to/lastmile_qr_scan", "android": "https://dc.lft.to/lastmile_qr_scan"}, "type": "electric_scooter", "name": "32d28b9c94ca0d0056993130a290570b", "is_reserved": 0, "lon": -77.02684683333334, "is_disabled": 0, "fusion_lat": 0.0, "lat": 38.972394333333334, "bike_id": "32d28b9c94ca0d0056993130a290570b", "fusion_lon": 0.0}, {"rental_uris": {"ios": "https://dc.lft.to/lastmile_qr_scan", "android": "https://dc.lft.to/lastmile_qr_scan"}, "type": "electric_scooter", "name": "a13a5025bfb2b1aa834c9f46bdaaef22", "is_reserved": 0, "lon": -77.02312183333333, "is_disabled": 0, "fusion_lat": 0.0, "lat": 38.9183705, "bike_id": "a13a5025bfb2b1aa834c9f46bdaaef22", "fusion_lon": 0.0}, {"rental_uris": {"ios": "https://dc.lft.to/lastmile_qr_scan", "android": "https://dc.lft.to/lastmile_qr_scan"}, "type": "electric_scooter", "name": "016750eb277c34e188b86de1a202fb8f", "is_reserved": 0, "lon": -77.03840783333334, "is_disabled": 0, "fusion_lat": 0.0, "lat": 38.909817833333335, "bike_id": "016750eb277c34e188b86de1a202fb8f", "fusion_lon": 0.0}, {"rental_uris": {"ios": "https://dc.lft.to/lastmile_qr_scan", "android": "https://dc.lft.to/lastmile_qr_scan"}, "type": "electric_scooter", "name": "357fd009b6cfa2e4b458715e51748c67", "is_reserved": 0, "lon": -77.03047683333334, "is_disabled": 0, "fusion_lat": 0.0, "lat": 38.89749583333333, "bike_id": "357fd009b6cfa2e4b458715e51748c67", "fusion_lon": 0.0}, {"rental_uris": {"ios": "https://dc.lft.to/lastmile_qr_scan", "android": "https://dc.lft.to/lastmile_qr_scan"}, "type": "electric_scooter", "name": "c38bab184da2a1a6fe295dd56b0d4037", "is_reserved": 0, "lon": -77.0443895, "is_disabled": 0, "fusion_lat": 0.0, "lat": 38.91262433333333, "bike_id": "c38bab184da2a1a6fe295dd56b0d4037", "fusion_lon": 0.0}, {"rental_uris": {"ios": "https://dc.lft.to/lastmile_qr_scan", "android": "https://dc.lft.to/lastmile_qr_scan"}, "type": "electric_scooter", "name": "2b86c17171cd27ba73bd4835bcde36b7", "is_reserved": 0, "lon": -77.00184133333333, "is_disabled": 0, "fusion_lat": 0.0, "lat": 38.900265166666664, "bike_id": "2b86c17171cd27ba73bd4835bcde36b7", "fusion_lon": 0.0}, {"rental_uris": {"ios": "https://dc.lft.to/lastmile_qr_scan", "android": "https://dc.lft.to/lastmile_qr_scan"}, "type": "electric_scooter", "name": "9390060bdd9353c39471af477677afbf", "is_reserved": 0, "lon": -76.9827665, "is_disabled": 0, "fusion_lat": 0.0, "lat": 38.90345966666667, "bike_id": "9390060bdd9353c39471af477677afbf", "fusion_lon": 0.0}, {"rental_uris": {"ios": "https://dc.lft.to/lastmile_qr_scan", "android": "https://dc.lft.to/lastmile_qr_scan"}, "type": "electric_scooter", "name": "e350ba21cd1851ca8bf1c9f17554bf42", "is_reserved": 0, "lon": -77.0307835, "is_disabled": 0, "fusion_lat": 0.0, "lat": 38.923833333333334, "bike_id": "e350ba21cd1851ca8bf1c9f17554bf42", "fusion_lon": 0.0}, {"rental_uris": {"ios": "https://dc.lft.to/lastmile_qr_scan", "android": "https://dc.lft.to/lastmile_qr_scan"}, "type": "electric_scooter", "name": "e33c9d8208b5699446bf4e9537b7080c", "is_reserved": 0, "lon": -77.029601, "is_disabled": 0, "fusion_lat": 0.0, "lat": 38.89753366666667, "bike_id": "e33c9d8208b5699446bf4e9537b7080c", "fusion_lon": 0.0}, {"rental_uris": {"ios": "https://dc.lft.to/lastmile_qr_scan", "android": "https://dc.lft.to/lastmile_qr_scan"}, "type": "electric_scooter", "name": "483d7f3f7823fad25529456702d5c728", "is_reserved": 0, "lon": -77.06105016666666, "is_disabled": 0, "fusion_lat": 0.0, "lat": 38.93706366666667, "bike_id": "483d7f3f7823fad25529456702d5c728", "fusion_lon": 0.0}, {"rental_uris": {"ios": "https://dc.lft.to/lastmile_qr_scan", "android": "https://dc.lft.to/lastmile_qr_scan"}, "type": "electric_scooter", "name": "100868a5c57c0f7ca0332fca50258c9c", "is_reserved": 0, "lon": -76.95260016666667, "is_disabled": 0, "fusion_lat": 0.0, "lat": 38.89275583333333, "bike_id": "100868a5c57c0f7ca0332fca50258c9c", "fusion_lon": 0.0}, {"rental_uris": {"ios": "https://dc.lft.to/lastmile_qr_scan", "android": "https://dc.lft.to/lastmile_qr_scan"}, "type": "electric_scooter", "name": "b8dd16e0d4db7865924b306ca16dc7c1", "is_reserved": 0, "lon": -77.02814983333333, "is_disabled": 0, "fusion_lat": 0.0, "lat": 38.89342766666667, "bike_id": "b8dd16e0d4db7865924b306ca16dc7c1", "fusion_lon": 0.0}, {"rental_uris": {"ios": "https://dc.lft.to/lastmile_qr_scan", "android": "https://dc.lft.to/lastmile_qr_scan"}, "type": "electric_scooter", "name": "bf138d7ccb51d673da0debab35f5684f", "is_reserved": 0, "lon": -76.94654066666666, "is_disabled": 0, "fusion_lat": 0.0, "lat": 38.89829666666667, "bike_id": "bf138d7ccb51d673da0debab35f5684f", "fusion_lon": 0.0}, {"rental_uris": {"ios": "https://dc.lft.to/lastmile_qr_scan", "android": "https://dc.lft.to/lastmile_qr_scan"}, "type": "electric_scooter", "name": "952b6b5fc935a6867c9a82fbfae54908", "is_reserved": 0, "lon": -77.03618283333333, "is_disabled": 0, "fusion_lat": 0.0, "lat": 38.9233685, "bike_id": "952b6b5fc935a6867c9a82fbfae54908", "fusion_lon": 0.0}, {"rental_uris": {"ios": "https://dc.lft.to/lastmile_qr_scan", "android": "https://dc.lft.to/lastmile_qr_scan"}, "type": "electric_scooter", "name": "9fd2ddc0d40c79f56bc0c4474f57b03a", "is_reserved": 0, "lon": -76.94383166666667, "is_disabled": 0, "fusion_lat": 0.0, "lat": 38.891105833333334, "bike_id": "9fd2ddc0d40c79f56bc0c4474f57b03a", "fusion_lon": 0.0}, {"rental_uris": {"ios": "https://dc.lft.to/lastmile_qr_scan", "android": "https://dc.lft.to/lastmile_qr_scan"}, "type": "electric_scooter", "name": "098d97190b5dee72fdaf846c1650e191", "is_reserved": 0, "lon": -77.024765, "is_disabled": 0, "fusion_lat": 0.0, "lat": 38.9181855, "bike_id": "098d97190b5dee72fdaf846c1650e191", "fusion_lon": 0.0}, {"rental_uris": {"ios": "https://dc.lft.to/lastmile_qr_scan", "android": "https://dc.lft.to/lastmile_qr_scan"}, "type": "electric_scooter", "name": "0ecd65e25efa2d235535668b0ac0a626", "is_reserved": 0, "lon": -77.03660033333334, "is_disabled": 0, "fusion_lat": 0.0, "lat": 38.92287783333333, "bike_id": "0ecd65e25efa2d235535668b0ac0a626", "fusion_lon": 0.0}, {"rental_uris": {"ios": "https://dc.lft.to/lastmile_qr_scan", "android": "https://dc.lft.to/lastmile_qr_scan"}, "type": "electric_scooter", "name": "9f87855d91e22e3776e52c12cf000a91", "is_reserved": 0, "lon": -77.038565, "is_disabled": 0, "fusion_lat": 0.0, "lat": 38.910933, "bike_id": "9f87855d91e22e3776e52c12cf000a91", "fusion_lon": 0.0}, {"rental_uris": {"ios": "https://dc.lft.to/lastmile_qr_scan", "android": "https://dc.lft.to/lastmile_qr_scan"}, "type": "electric_bike", "name": "3956724c386074eddb9b042fa49d5acc", "is_reserved": 0, "lon": -77.07016033333333, "is_disabled": 0, "fusion_lat": 0.0, "lat": 38.8411235, "bike_id": "3956724c386074eddb9b042fa49d5acc", "fusion_lon": 0.0}, {"rental_uris": {"ios": "https://dc.lft.to/lastmile_qr_scan", "android": "https://dc.lft.to/lastmile_qr_scan"}, "type": "electric_scooter", "name": "3f9932de0e96b0dca8f698e86ca46392", "is_reserved": 0, "lon": -77.06510816666666, "is_disabled": 0, "fusion_lat": 0.0, "lat": 38.90518466666666, "bike_id": "3f9932de0e96b0dca8f698e86ca46392", "fusion_lon": 0.0}, {"rental_uris": {"ios": "https://dc.lft.to/lastmile_qr_scan", "android": "https://dc.lft.to/lastmile_qr_scan"}, "type": "electric_scooter", "name": "7f8300fa80be5271a3c77447194eb6c2", "is_reserved": 0, "lon": -77.024418, "is_disabled": 0, "fusion_lat": 0.0, "lat": 38.95641916666667, "bike_id": "7f8300fa80be5271a3c77447194eb6c2", "fusion_lon": 0.0}, {"rental_uris": {"ios": "https://dc.lft.to/lastmile_qr_scan", "android": "https://dc.lft.to/lastmile_qr_scan"}, "type": "electric_scooter", "name": "f4f28d225ce2f314f3fc41688fb84f40", "is_reserved": 0, "lon": -77.07089783333333, "is_disabled": 0, "fusion_lat": 0.0, "lat": 38.9532235, "bike_id": "f4f28d225ce2f314f3fc41688fb84f40", "fusion_lon": 0.0}, {"rental_uris": {"ios": "https://dc.lft.to/lastmile_qr_scan", "android": "https://dc.lft.to/lastmile_qr_scan"}, "type": "electric_scooter", "name": "a595140f83505c64aa76b3a1e95616ed", "is_reserved": 0, "lon": -77.03651083333334, "is_disabled": 0, "fusion_lat": 0.0, "lat": 38.95460966666667, "bike_id": "a595140f83505c64aa76b3a1e95616ed", "fusion_lon": 0.0}, {"rental_uris": {"ios": "https://dc.lft.to/lastmile_qr_scan", "android": "https://dc.lft.to/lastmile_qr_scan"}, "type": "electric_scooter", "name": "bc0c1fc97ac2de25fb199a093f44b60f", "is_reserved": 0, "lon": -77.04676883333333, "is_disabled": 0, "fusion_lat": 0.0, "lat": 38.892262, "bike_id": "bc0c1fc97ac2de25fb199a093f44b60f", "fusion_lon": 0.0}, {"rental_uris": {"ios": "https://dc.lft.to/lastmile_qr_scan", "android": "https://dc.lft.to/lastmile_qr_scan"}, "type": "electric_scooter", "name": "d3994d51a3501591a5cacc0f12c2dec9", "is_reserved": 0, "lon": -77.019936, "is_disabled": 0, "fusion_lat": 0.0, "lat": 38.876036, "bike_id": "d3994d51a3501591a5cacc0f12c2dec9", "fusion_lon": 0.0},