{"data": {"bikes": [{"is_disabled": 0, "fusion_lat": 0.0, "lat": 38.916668, "type": "electric_scooter", "lon": -77.03848683333334, "is_reserved": 0, "fusion_lon": 0.0, "bike_id": "c9450a13e800f355b941a605b0d61bce", "name": "c9450a13e800f355b941a605b0d61bce", "rental_uris": {"ios": "https://dc.lft.to/lastmile_qr_scan", "android": "https://dc.lft.to/lastmile_qr_scan"}}, {"is_disabled": 0, "fusion_lat": 0.0, "lat": 38.8983435, "type": "electric_scooter", "lon": -76.9463115, "is_reserved": 0, "fusion_lon": 0.0, "bike_id": "821d1c202b48338b44707b2e6282ebf7", "name": "821d1c202b48338b44707b2e6282ebf7", "rental_uris": {"ios": "https://dc.lft.to/lastmile_qr_scan", "android": "https://dc.lft.to/lastmile_qr_scan"}}, {"is_disabled": 0, "fusion_lat": 0.0, "lat": 38.952584, "type": "electric_scooter", "lon": -77.06977116666667, "is_reserved": 0, "fusion_lon": 0.0, "bike_id": "a9d1dc57be066e001045857b8e7d9a9d", "name": "a9d1dc57be066e001045857b8e7d9a9d", "rental_uris": {"ios": "https://dc.lft.to/lastmile_qr_scan", "android": "https://dc.lft.to/lastmile_qr_scan"}}, {"is_disabled": 0, "fusion_lat": 0.0, "lat": 38.92574916666667, "type": "electric_scooter", "lon": -77.02837183333334, "is_reserved": 0, "fusion_lon": 0.0, "bike_id": "0c9cc858f27fa447adf71db9d12f5110", "name": "0c9cc858f27fa447adf71db9d12f5110", "rental_uris": {"ios": "https://dc.lft.to/lastmile_qr_scan", "android": "https://dc.lft.to/lastmile_qr_scan"}}, {"is_disabled": 0, "fusion_lat": 0.0, "lat": 38.973274, "type": "electric_bike", "lon": -77.02150266666666, "is_reserved": 0, "fusion_lon": 0.0, "bike_id": "bdd2a7b5d7b39fb312caf2a727e4b528", "name": "bdd2a7b5d7b39fb312caf2a727e4b528", "rental_uris": {"ios": "https://dc.lft.to/lastmile_qr_scan", "android": "https://dc.lft.to/lastmile_qr_scan"}}, {"is_disabled": 0, "fusion_lat": 0.0, "lat": 38.9161955, "type": "electric_scooter", "lon": -77.03147483333333, "is_reserved": 0, "fusion_lon": 0.0, "bike_id": "5c4edcab431e07fb1e352e9026580779", "name": "5c4edcab431e07fb1e352e9026580779", "rental_uris": {"ios": "https://dc.lft.to/lastmile_qr_scan", "android": "https://dc.lft.to/lastmile_qr_scan"}}, {"is_disabled": 0, "fusion_lat": 0.0, "lat": 38.897631, "type": "electric_scooter", "lon": -77.03211666666667, "is_reserved": 0, "fusion_lon": 0.0, "bike_id": "680017c0ada53d5dc8f0c7ae08e6b7ac", "name": "680017c0ada53d5dc8f0c7ae08e6b7ac", "rental_uris": {"ios": "https://dc.lft.to/lastmile_qr_scan", "android": "https://dc.lft.to/lastmile_qr_scan"}}, {"is_disabled": 0, "fusion_lat": 0.0, "lat": 38.86564283333333, "type": "electric_scooter", "lon": -76.98952316666667, "is_reserved": 0, "fusion_lon": 0.0, "bike_id": "782ba58bd9cad725a857de32c088ee12", "name": "782ba58bd9cad725a857de32c088ee12", "rental_uris": {"ios": "https://dc.lft.to/lastmile_qr_scan", "android": "https://dc.lft.to/lastmile_qr_scan"}}, {"is_disabled": 0, "fusion_lat": 0.0, "lat": 38.91162, "type": "electric_scooter", "lon": -77.06860833333333, "is_reserved": 0, "fusion_lon": 0.0, "bike_id": "7a212255028d0fcd3ee361e6a33451a1", "name": "7a212255028d0fcd3ee361e6a33451a1", "rental_uris": {"ios": "https://dc.lft.to/lastmile_qr_scan", "android": "https://dc.lft.to/lastmile_qr_scan"}}, {"is_disabled": 0, "fusion_lat": 0.0, "lat": 38.909688, "type": "electric_scooter", "lon": -77.03436266666667, "is_reserved": 0, "fusion_lon": 0.0, "bike_id": "cd249af8135636cc1e685ee51378504e", "name": "cd249af8135636cc1e685ee51378504e", "rental_uris": {"ios": "https://dc.lft.to/lastmile_qr_scan", "android": "https://dc.lft.to/lastmile_qr_scan"}}, {"is_disabled": 0, "fusion_lat": 0.0, "lat": 38.86466133333333, "type": "electric_scooter", "lon": -76.97750216666667, "is_reserved": 0, "fusion_lon": 0.0, "bike_id": "7fdf9bbc6617fe4f7f448c569844010c", "name": "7fdf9bbc6617fe4f7f448c569844010c", "rental_uris": {"ios": "https://dc.lft.to/lastmile_qr_scan", "android": "https://dc.lft.to/lastmile_qr_scan"}}, {"is_disabled": 0, "fusion_lat": 0.0, "lat": 38.9494865, "type": "electric_bike", "lon": -77.01610683333334, "is_reserved": 0, "fusion_lon": 0.0, "bike_id": "a6e3dfe5fdf077e991053671a1881b07", "name": "a6e3dfe5fdf077e991053671a1881b07", "rental_uris": {"ios": "https://dc.lft.to/lastmile_qr_scan", "android": "https://dc.lft.to/lastmile_qr_scan"}}, {"is_disabled": 0, "fusion_lat": 0.0, "lat": 38.917070333333335, "type": "electric_scooter", "lon": -77.02257516666667, "is_reserved": 0, "fusion_lon": 0.0, "bike_id": "2b7e75fece95e5ecfb99af3179448c1a", "name": "2b7e75fece95e5ecfb99af3179448c1a", "rental_uris": {"ios": "https://dc.lft.to/lastmile_qr_scan", "android": "https://dc.lft.to/lastmile_qr_scan"}}, {"is_disabled": 0, "fusion_lat": 0.0, "lat": 38.883434666666666, "type": "electric_scooter", "lon": -77.02046666666666, "is_reserved": 0, "fusion_lon": 0.0, "bike_id": "1d811cc2f7d4c06288f065713e35c0e2", "name": "1d811cc2f7d4c06288f065713e35c0e2", "rental_uris": {"ios": "https://dc.lft.to/lastmile_qr_scan", "android": "https://dc.lft.to/lastmile_qr_scan"}}, {"is_disabled": 0, "fusion_lat": 0.0, "lat": 38.90295183333333, "type": "electric_scooter", "lon": -76.9925195, "is_reserved": 0, "fusion_lon": 0.0, "bike_id": "532cfb7d774eabf75ae53a9de9b18ce9", "name": "532cfb7d774eabf75ae53a9de9b18ce9", "rental_uris": {"ios": "https://dc.lft.to/lastmile_qr_scan", "android": "https://dc.lft.to/lastmile_qr_scan"}}, {"is_disabled": 0, "fusion_lat": 0.0, "lat": 38.93211016666667, "type": "electric_scooter", "lon": -77.02352016666667, "is_reserved": 0, "fusion_lon": 0.0, "bike_id": "5b6f909ba4fa94214dbdf8e4ccf7289b", "name": "5b6f909ba4fa94214dbdf8e4ccf7289b", "rental_uris": {"ios": "https://dc.lft.to/lastmile_qr_scan", "android": "https://dc.lft.to/lastmile_qr_scan"}}, {"is_disabled": 0, "fusion_lat": 0.0, "lat": 38.945526, "type": "electric_bike", "lon": -76.89535833333333, "is_reserved": 0, "fusion_lon": 0.0, "bike_id": "2d96a2d00347feb568db6de41ce93448", "name": "2d96a2d00347feb568db6de41ce93448", "rental_uris": {"ios": "https://dc.lft.to/lastmile_qr_scan", "android": "https://dc.lft.to/lastmile_qr_scan"}}, {"is_disabled": 0, "fusion_lat": 0.0, "lat": 38.91709983333333, "type": "electric_scooter", "lon": -77.03338216666667, "is_reserved": 0, "fusion_lon": 0.0, "bike_id": "2b46b224ac0c436e141c25a488dd772c", "name": "2b46b224ac0c436e141c25a488dd772c", "rental_uris": {"ios": "https://dc.lft.to/lastmile_qr_scan", "android": "https://dc.lft.to/lastmile_qr_scan"}}, {"is_disabled": 0, "fusion_lat": 0.0, "lat": 38.84429816666667, "type": "electric_scooter", "lon": -76.99773816666666, "is_reserved": 0, "fusion_lon": 0.0, "bike_id": "8ad4cef68e934c192a0b6c550a490cb1", "name": "8ad4cef68e934c192a0b6c550a490cb1", "rental_uris": {"ios": "https://dc.lft.to/lastmile_qr_scan", "android": "https://dc.lft.to/lastmile_qr_scan"}}, {"is_disabled": 0, "fusion_lat": 0.0, "lat": 38.928991333333336, "type": "electric_scooter", "lon": -77.03262916666667, "is_reserved": 0, "fusion_lon": 0.0, "bike_id": "95ff3c16f8c30e24161a9ce2621589b0", "name": "95ff3c16f8c30e24161a9ce2621589b0", "rental_uris": {"ios": "https://dc.lft.to/lastmile_qr_scan", "android": "https://dc.lft.to/lastmile_qr_scan"}}, {"is_disabled": 0, "fusion_lat": 0.0, "lat": 38.860969, "type": "electric_scooter", "lon": -76.98373616666666, "is_reserved": 0, "fusion_lon": 0.0, "bike_id": "cb32521aaacf2acde1fcbb4d4ef71be4", "name": "cb32521aaacf2acde1fcbb4d4ef71be4", "rental_uris": {"ios": "https://dc.lft.to/lastmile_qr_scan", "android": "https://dc.lft.to/lastmile_qr_scan"}}, {"is_disabled": 0, "fusion_lat": 0.0, "lat": 38.9247795, "type": "electric_scooter", "lon": -77.03915166666667, "is_reserved": 0, "fusion_lon": 0.0, "bike_id": "3ab9774241adf7834108a04d60644896", "name": "3ab9774241adf7834108a04d60644896", "rental_uris": {"ios": "https://dc.lft.to/lastmile_qr_scan", "android": "https://dc.lft.to/lastmile_qr_scan"}}, {"is_disabled": 0, "fusion_lat": 0.0, "lat": 38.9182975, "type": "electric_scooter", "lon": -77.03634383333333, "is_reserved": 0, "fusion_lon": 0.0, "bike_id": "645c5c24a0d205be3f43276a402b5018", "name": "645c5c24a0d205be3f43276a402b5018", "rental_uris": {"ios": "https://dc.lft.to/lastmile_qr_scan", "android": "https://dc.lft.to/lastmile_qr_scan"}}, {"is_disabled": 0, "fusion_lat": 0.0, "lat": 38.896241833333335, "type": "electric_scooter", "lon": -77.00908216666667, "is_reserved": 0, "fusion_lon": 0.0, "bike_id": "e54462ed6453cc45e85eee965d46e5e7", "name": "e54462ed6453cc45e85eee965d46e5e7", "rental_uris": {"ios": "https://dc.lft.to/lastmile_qr_scan", "android": "https://dc.lft.to/lastmile_qr_scan"}}, {"is_disabled": 0, "fusion_lat": 0.0, "lat": 38.902136166666665, "type": "electric_scooter", "lon": -76.94589033333334, "is_reserved": 0, "fusion_lon": 0.0, "bike_id": "f7c0f67ff62740f427ceeed78bb3f2a4", "name": "f7c0f67ff62740f427ceeed78bb3f2a4", "rental_uris": {"ios": "https://dc.lft.to/lastmile_qr_scan", "android": "https://dc.lft.to/lastmile_qr_scan"}}, {"is_disabled": 0, "fusion_lat": 0.0, "lat": 38.89986483333333, "type": "electric_scooter", "lon": -77.02254366666666, "is_reserved": 0, "fusion_lon": 0.0, "bike_id": "93e54ad1654441534f527fadbb4cae33", "name": "93e54ad1654441534f527fadbb4cae33", "rental_uris": {"ios": "https://dc.lft.to/lastmile_qr_scan", "android": "https://dc.lft.to/lastmile_qr_scan"}}, {"is_disabled": 0, "fusion_lat": 0.0, "lat": 38.95878183333333, "type": "electric_bike", "lon": -77.01038333333334, "is_reserved": 0, "fusion_lon": 0.0, "bike_id": "356d018ee2a0aac06510d91f0d5bba49", "name": "356d018ee2a0aac06510d91f0d5bba49", "rental_uris": {"ios": "https://dc.lft.to/lastmile_qr_scan", "android": "https://dc.lft.to/lastmile_qr_scan"}}, {"is_disabled": 0, "fusion_lat": 0.0, "lat": 38.9098205, "type": "electric_scooter", "lon": -77.03587866666666, "is_reserved": 0, "fusion_lon": 0.0, "bike_id": "d2f19fbbc61c6f9cc664a02e163c3c85", "name": "d2f19fbbc61c6f9cc664a02e163c3c85", "rental_uris": {"ios": "https://dc.lft.to/lastmile_qr_scan", "android": "https://dc.lft.to/lastmile_qr_scan"}}, {"is_disabled": 0, "fusion_lat": 0.0, "lat": 38.9617515, "type": "electric_bike", "lon": -76.995873, "is_reserved": 0, "fusion_lon": 0.0, "bike_id": "30ee3326840785d54eb94f8e0c976a67", "name": "30ee3326840785d54eb94f8e0c976a67", "rental_uris": {"ios": "https://dc.lft.to/lastmile_qr_scan", "android": "https://dc.lft.to/lastmile_qr_scan"}}, {"is_disabled": 0, "fusion_lat": 0.0, "lat": 38.919606, "type": "electric_bike", "lon": -76.97264666666666, "is_reserved": 0, "fusion_lon": 0.0, "bike_id": "3c563e2408b34713d77eae8b7adb05ad", "name": "3c563e2408b34713d77eae8b7adb05ad", "rental_uris": {"ios": "https://dc.lft.to/lastmile_qr_scan", "android": "https://dc.lft.to/lastmile_qr_scan"}}, {"is_disabled": 0, "fusion_lat": 0.0, "lat": 38.9241905, "type": "electric_bike", "lon": -77.04568516666667, "is_reserved": 0, "fusion_lon": 0.0, "bike_id": "733baad86db01953dbe49acb59b0b482", "name": "733baad86db01953dbe49acb59b0b482", "rental_uris": {"ios": "https://dc.lft.to/lastmile_qr_scan", "android": "https://dc.lft.to/lastmile_qr_scan"}}, {"is_disabled": 0, "fusion_lat": 0.0, "lat": 38.91579566666667, "type": "electric_scooter", "lon": -77.04680116666667, "is_reserved": 0, "fusion_lon": 0.0, "bike_id": "73b99cbdfb1e24c6c7e6e865a644ae54", "name": "73b99cbdfb1e24c6c7e6e865a644ae54", "rental_uris": {"ios": "https://dc.lft.to/lastmile_qr_scan", "android": "https://dc.lft.to/lastmile_qr_scan"}}, {"is_disabled": 0, "fusion_lat": 0.0, "lat": 38.94942533333333, "type": "electric_scooter", "lon": -77.01617616666667, "is_reserved": 0, "fusion_lon": 0.0, "bike_id": "04a305c1d524a956cdcc7f7888507efd", "name": "04a305c1d524a956cdcc7f7888507efd", "rental_uris": {"ios": "https://dc.lft.to/lastmile_qr_scan", "android": "https://dc.lft.to/lastmile_qr_scan"}}, {"is_disabled": 0, "fusion_lat": 0.0, "lat": 39.029347, "type": "electric_bike", "lon": -77.0492715, "is_reserved": 0, "fusion_lon": 0.0, "bike_id": "ebfd904f6af259c0e1a4a63897ddb644", "name": "ebfd904f6af259c0e1a4a63897ddb644", "rental_uris": {"ios": "https://dc.lft.to/lastmile_qr_scan", "android": "https://dc.lft.to/lastmile_qr_scan"}}, {"is_disabled": 0, "fusion_lat": 0.0, "lat": 38.96020633333333, "type": "electric_bike", "lon": -77.01723716666666, "is_reserved": 0, "fusion_lon": 0.0, "bike_id": "3a24aaff080c3dda4b84cf3c818bf466", "name": "3a24aaff080c3dda4b84cf3c818bf466", "rental_uris": {"ios": "https://dc.lft.to/lastmile_qr_scan", "android": "https://dc.lft.to/lastmile_qr_scan"}}, {"is_disabled": 0, "fusion_lat": 0.0, "lat": 38.90423233333333, "type": "electric_scooter", "lon": -77.05317116666667, "is_reserved": 0, "fusion_lon": 0.0, "bike_id": "d4568b071950e6892806a910af0279f8", "name": "d4568b071950e6892806a910af0279f8", "rental_uris": {"ios": "https://dc.lft.to/lastmile_qr_scan", "android": "https://dc.lft.to/lastmile_qr_scan"}}, {"is_disabled": 0, "fusion_lat": 0.0, "lat": 38.908642, "type": "electric_bike", "lon": -77.0807565, "is_reserved": 0, "fusion_lon": 0.0, "bike_id": "ec7dd395a99bde684e278250dd3f58a7", "name": "ec7dd395a99bde684e278250dd3f58a7", "rental_uris": {"ios": "https://dc.lft.to/lastmile_qr_scan", "android": "https://dc.lft.to/lastmile_qr_scan"}}, {"is_disabled": 0, "fusion_lat": 0.0, "lat": 38.91992666666667, "type": "electric_scooter", "lon": -76.973073, "is_reserved": 0, "fusion_lon": 0.0, "bike_id": "1ff565cc41a2bf0fa1397c87fa7c880a", "name": "1ff565cc41a2bf0fa1397c87fa7c880a", "rental_uris": {"ios": "https://dc.lft.to/lastmile_qr_scan", "android": "https://dc.lft.to/lastmile_qr_scan"}}, {"is_disabled": 0, "fusion_lat": 0.0, "lat": 38.935986166666666, "type": "electric_scooter", "lon": -77.03750833333334, "is_reserved": 0, "fusion_lon": 0.0, "bike_id": "a4d5ae3615c44b88c85787ef517a1843", "name": "a4d5ae3615c44b88c85787ef517a1843", "rental_uris": {"ios": "https://dc.lft.to/lastmile_qr_scan", "android": "https://dc.lft.to/lastmile_qr_scan"}}, {"is_disabled": 0, "fusion_lat": 0.0, "lat": 38.935298333333336, "type": "electric_scooter", "lon": -77.023727, "is_reserved": 0, "fusion_lon": 0.0, "bike_id": "a758064cd18f6fb4f6e5672ea22a7fea", "name": "a758064cd18f6fb4f6e5672ea22a7fea", "rental_uris": {"ios": "https://dc.lft.to/lastmile_qr_scan", "android": "https://dc.lft.to/lastmile_qr_scan"}}, {"is_disabled": 0, "fusion_lat": 0.0, "lat": 38.88231916666667, "type": "electric_scooter", "lon": -76.99088433333333, "is_reserved": 0, "fusion_lon": 0.0, "bike_id": "4cef56ba37e25c47ec6459e082ce3036", "name": "4cef56ba37e25c47ec6459e082ce3036", "rental_uris": {"ios": "https://dc.lft.to/lastmile_qr_scan", "android": "https://dc.lft.to/lastmile_qr_scan"}}, {"is_disabled": 0, "fusion_lat": 0.0, "lat": 38.88650533333333, "type": "electric_scooter", "lon": -77.019709, "is_reserved": 0, "fusion_lon": 0.0, "bike_id": "854ee0dce86f62ea43e6516b16f6417e", "name": "854ee0dce86f62ea43e6516b16f6417e", "rental_uris": {"ios": "https://dc.lft.to/lastmile_qr_scan", "android": "https://dc.lft.to/lastmile_qr_scan"}}, {"is_disabled": 0, "fusion_lat": 0.0, "lat": 38.95648633333333, "type": "electric_scooter", "lon": -76.9978815, "is_reserved": 0, "fusion_lon": 0.0, "bike_id": "211e351bd010f3240ae564e009ce934c", "name": "211e351bd010f3240ae564e009ce934c", "rental_uris": {"ios": "https://dc.lft.to/lastmile_qr_scan", "android": "https://dc.lft.to/lastmile_qr_scan"}}, {"is_disabled": 0, "fusion_lat": 0.0, "lat": 38.88744766666667, "type": "electric_scooter", "lon": -77.0202045, "is_reserved": 0, "fusion_lon": 0.0, "bike_id": "628be5cb41c264439bf7797303b289c3", "name": "628be5cb41c264439bf7797303b289c3", "rental_uris": {"ios": "https://dc.lft.to/lastmile_qr_scan", "android": "https://dc.lft.to/lastmile_qr_scan"}}, {"is_disabled": 0, "fusion_lat": 0.0, "lat": 38.87970166666667, "type": "electric_scooter", "lon": -76.98535716666666, "is_reserved": 0, "fusion_lon": 0.0, "bike_id": "a69d7863bacb1df1120484e58d53e9a6", "name": "a69d7863bacb1df1120484e58d53e9a6", "rental_uris": {"ios": "https://dc.lft.to/lastmile_qr_scan", "android": "https://dc.lft.to/lastmile_qr_scan"}}, {"is_disabled": 0, "fusion_lat": 0.0, "lat": 38.99157916666667, "type": "electric_scooter", "lon": -77.04732816666667, "is_reserved": 0, "fusion_lon": 0.0, "bike_id": "e67ef5f50a17615c24dc1b8ad2e98e13", "name": "e67ef5f50a17615c24dc1b8ad2e98e13", "rental_uris": {"ios": "https://dc.lft.to/lastmile_qr_scan", "android": "https://dc.lft.to/lastmile_qr_scan"}}, {"is_disabled": 0, "fusion_lat": 0.0, "lat": 38.91719716666667, "type": "electric_scooter", "lon": -77.03837566666667, "is_reserved": 0, "fusion_lon": 0.0, "bike_id": "2af0bcddec3ee87fb20979cf19dbec3f", "name": "2af0bcddec3ee87fb20979cf19dbec3f", "rental_uris": {"ios": "https://dc.lft.to/lastmile_qr_scan", "android": "https://dc.lft.to/lastmile_qr_scan"}}, {"is_disabled": 0, "fusion_lat": 0.0, "lat": 38.94180866666667, "type": "electric_scooter", "lon": -77.0309235, "is_reserved": 0, "fusion_lon": 0.0, "bike_id": "f6b5f26efd122596593626e922dfb528", "name": "f6b5f26efd122596593626e922dfb528", "rental_uris": {"ios": "https://dc.lft.to/lastmile_qr_scan", "android": "https://dc.lft.to/lastmile_qr_scan"}}, {"is_disabled": 0, "fusion_lat": 0.0, "lat": 38.902626166666664, "type": "electric_scooter", "lon": -77.01728316666667, "is_reserved": 0, "fusion_lon": 0.0, "bike_id": "c086f20ccbf208feeca5daaa46da22c9", "name": "c086f20ccbf208feeca5daaa46da22c9", "rental_uris": {"ios": "https://dc.lft.to/lastmile_qr_scan", "android": "https://dc.lft.to/lastmile_qr_scan"}}, {"is_disabled": 0, "fusion_lat": 0.0, "lat": 38.91613666666667, "type": "electric_scooter", "lon": -77.03186333333333, "is_reserved": 0, "fusion_lon": 0.0, "bike_id": "f4b4e42611fd50eca9bb5eeeb8d0cb4e", "name": "f4b4e42611fd50eca9bb5eeeb8d0cb4e", "rental_uris": {"ios": "https://dc.lft.to/lastmile_qr_scan", "android": "https://dc.lft.to/lastmile_qr_scan"}}, {"is_disabled": 0, "fusion_lat": 0.0, "lat": 38.8991665, "type": "electric_scooter", "lon": -76.9334925, "is_reserved": 0, "fusion_lon": 0.0, "bike_id": "8672efaabdcfe0937a50b1e491bcf6ab", "name": "8672efaabdcfe0937a50b1e491bcf6ab", "rental_uris": {"ios": "https://dc.lft.to/lastmile_qr_scan", "android": "https://dc.lft.to/lastmile_qr_scan"}}, {"is_disabled": 0, "fusion_lat": 0.0, "lat": 38.8581345, "type": "electric_scooter", "lon": -76.98652733333333, "is_reserved": 0, "fusion_lon": 0.0, "bike_id": "54fb8c14416b9f5fa24b098981b65d1c", "name": "54fb8c14416b9f5fa24b098981b65d1c", "rental_uris": {"ios": "https://dc.lft.to/lastmile_qr_scan", "android": "https://dc.lft.to/lastmile_qr_scan"}}, {"is_disabled": 0, "fusion_lat": 0.0, "lat": 38.908712666666666, "type": "electric_scooter", "lon": -77.0859455, "is_reserved": 0, "fusion_lon": 0.0, "bike_id": "0dbeebd862b43694a7e281de05fd8637", "name": "0dbeebd862b43694a7e281de05fd8637", "rental_uris": {"ios": "https://dc.lft.to/lastmile_qr_scan", "android": "https://dc.lft.to/lastmile_qr_scan"}}, {"is_disabled": 0, "fusion_lat": 0.0, "lat": 38.90114066666667, "type": "electric_scooter", "lon": -77.051379, "is_reserved": 0, "fusion_lon": 0.0, "bike_id": "be40b98743ea8bd53ec1f009cd3712f1", "name": "be40b98743ea8bd53ec1f009cd3712f1", "rental_uris": {"ios": "https://dc.lft.to/lastmile_qr_scan", "android": "https://dc.lft.to/lastmile_qr_scan"}}, {"is_disabled": 0, "fusion_lat": 0.0, "lat": 38.9015625, "type": "electric_scooter", "lon": -77.04046666666666, "is_reserved": 0, "fusion_lon": 0.0, "bike_id": "98f4523bbc706edf46deb970bb5b98a4", "name": "98f4523bbc706edf46deb970bb5b98a4", "rental_uris": {"ios": "https://dc.lft.to/lastmile_qr_scan", "android": "https://dc.lft.to/lastmile_qr_scan"}}, {"is_disabled": 0, "fusion_lat": 0.0, "lat": 38.930484, "type": "electric_scooter", "lon": -77.03226283333333, "is_reserved": 0, "fusion_lon": 0.0, "bike_id": "f33211a5362309e6b8d5a129c2b885e9", "name": "f33211a5362309e6b8d5a129c2b885e9", "rental_uris": {"ios": "https://dc.lft.to/lastmile_qr_scan", "android": "https://dc.lft.to/lastmile_qr_scan"}}, {"is_disabled": 0, "fusion_lat": 0.0, "lat": 38.923229166666665, "type": "electric_scooter", "lon": -77.0390805, "is_reserved": 0, "fusion_lon": 0.0, "bike_id": "30d6f6b141c2c9ad896d2e31606a588f", "name": "30d6f6b141c2c9ad896d2e31606a588f", "rental_uris": {"ios": "https://dc.lft.to/lastmile_qr_scan", "android": "https://dc.lft.to/lastmile_qr_scan"}}, {"is_disabled": 0, "fusion_lat": 0.0, "lat": 38.92044816666667, "type": "electric_scooter", "lon": -77.041857, "is_reserved": 0, "fusion_lon": 0.0, "bike_id": "a7dfd7b6af144d82926376111bdb9e15", "name": "a7dfd7b6af144d82926376111bdb9e15", "rental_uris": {"ios": "https://dc.lft.to/lastmile_qr_scan", "android": "https://dc.lft.to/lastmile_qr_scan"}}, {"is_disabled": 0, "fusion_lat": 0.0, "lat": 38.8933705, "type": "electric_scooter", "lon": -76.92880883333333, "is_reserved": 0, "fusion_lon": 0.0, "bike_id": "722cab5780098aed52b1a88326e171ba", "name": "722cab5780098aed52b1a88326e171ba", "rental_uris": {"ios": "https://dc.lft.to/lastmile_qr_scan", "android": "https://dc.lft.to/lastmile_qr_scan"}}, {"is_disabled": 0, "fusion_lat": 0.0, "lat": 38.90798683333333, "type": "electric_scooter", "lon": -76.9970065, "is_reserved": 0, "fusion_lon": 0.0, "bike_id": "ed8e55e259385957356cdb3abf4fedef", "name": "ed8e55e259385957356cdb3abf4fedef", "rental_uris": {"ios": "https://dc.lft.to/lastmile_qr_scan", "android": "https://dc.lft.to/lastmile_qr_scan"}}, {"is_disabled": 0, "fusion_lat": 0.0, "lat": 38.8901775, "type": "electric_scooter", "lon": -76.93740316666667, "is_reserved": 0, "fusion_lon": 0.0, "bike_id": "3ed45acc1fbec8e7b076883a6d3dac0a", "name": "3ed45acc1fbec8e7b076883a6d3dac0a", "rental_uris": {"ios": "https://dc.lft.to/lastmile_qr_scan", "android": "https://dc.lft.to/lastmile_qr_scan"}}, {"is_disabled": 0, "fusion_lat": 0.0, "lat": 38.920449, "type": "electric_scooter", "lon": -77.03366983333333, "is_reserved": 0, "fusion_lon": 0.0, "bike_id": "dfc25588d1061acaf78b4528fec56320", "name": "dfc25588d1061acaf78b4528fec56320", "rental_uris": {"ios": "https://dc.lft.to/lastmile_qr_scan", "android": "https://dc.lft.to/lastmile_qr_scan"}}, {"is_disabled": 0, "fusion_lat": 0.0, "lat": 38.87473833333333, "type": "electric_scooter", "lon": -77.009287, "is_reserved": 0, "fusion_lon": 0.0, "bike_id": "2f3a75b0eadeb6935459ea99c3457472", "name": "2f3a75b0eadeb6935459ea99c3457472", "rental_uris": {"ios": "https://dc.lft.to/lastmile_qr_scan", "android": "https://dc.lft.to/lastmile_qr_scan"}}, {"is_disabled": 0, "fusion_lat": 0.0, "lat": 38.93063016666667, "type": "electric_scooter", "lon": -77.041802, "is_reserved": 0, "fusion_lon": 0.0, "bike_id": "240efd4fe8691bce7a0e96b2bf713f71", "name": "240efd4fe8691bce7a0e96b2bf713f71", "rental_uris": {"ios": "https://dc.lft.to/lastmile_qr_scan", "android": "https://dc.lft.to/lastmile_qr_scan"}}, {"is_disabled": 0, "fusion_lat": 0.0, "lat": 38.915045666666664, "type": "electric_scooter", "lon": -77.00054466666667, "is_reserved": 0, "fusion_lon": 0.0, "bike_id": "eab7a0074be7d3189099bac6d47365e3", "name": "eab7a0074be7d3189099bac6d47365e3", "rental_uris": {"ios": "https://dc.lft.to/lastmile_qr_scan", "android": "https://dc.lft.to/lastmile_qr_scan"}}, {"is_disabled": 0, "fusion_lat": 0.0, "lat": 38.894612, "type": "electric_scooter", "lon": -76.99378283333333, "is_reserved": 0, "fusion_lon": 0.0, "bike_id": "865e2ab48582bd1c38ac8accb6a90551", "name": "865e2ab48582bd1c38ac8accb6a90551", "rental_uris": {"ios": "https://dc.lft.to/lastmile_qr_scan", "android": "https://dc.lft.to/lastmile_qr_scan"}}, {"is_disabled": 0, "fusion_lat": 0.0, "lat": 38.91554633333333, "type": "electric_scooter", "lon": -77.03507116666667, "is_reserved": 0, "fusion_lon": 0.0, "bike_id": "1cc042ddd7d5b82d20d291f6b8f7a511", "name": "1cc042ddd7d5b82d20d291f6b8f7a511", "rental_uris": {"ios": "https://dc.lft.to/lastmile_qr_scan", "android": "https://dc.lft.to/lastmile_qr_scan"}}, {"is_disabled": 0, "fusion_lat": 0.0, "lat": 39.03046783333333, "type": "electric_bike", "lon": -77.09474316666666, "is_reserved": 0, "fusion_lon": 0.0, "bike_id": "2e30da9b8085bd1e4e7b8b09bfb0499d", "name": "2e30da9b8085bd1e4e7b8b09bfb0499d", "rental_uris": {"ios": "https://dc.lft.to/lastmile_qr_scan", "android": "https://dc.lft.to/lastmile_qr_scan"}}, {"is_disabled": 0, "fusion_lat": 0.0, "lat": 38.923166333333334, "type": "electric_scooter", "lon": -77.02107233333334, "is_reserved": 0, "fusion_lon": 0.0, "bike_id": "b9a02c8ee0d166e3364d4fad10f7f80f", "name": "b9a02c8ee0d166e3364d4fad10f7f80f", "rental_uris": {"ios": "https://dc.lft.to/lastmile_qr_scan", "android": "https://dc.lft.to/lastmile_qr_scan"}}, {"is_disabled": 0, "fusion_lat": 0.0, "lat": 38.89251266666667, "type": "electric_bike", "lon": -76.98547233333333, "is_reserved": 0, "fusion_lon": 0.0, "bike_id": "0f9ca9fd25848a4aaa28cdb4d4c6efc4", "name": "0f9ca9fd25848a4aaa28cdb4d4c6efc4", "rental_uris": {"ios": "https://dc.lft.to/lastmile_qr_scan", "android": "https://dc.lft.to/lastmile_qr_scan"}}, {"is_disabled": 0, "fusion_lat": 0.0, "lat": 38.907217333333335, "type": "electric_scooter", "lon": -77.03301633333334, "is_reserved": 0, "fusion_lon": 0.0, "bike_id": "fd474dba3fa60cab71b735ea73bf5b6d", "name": "fd474dba3fa60cab71b735ea73bf5b6d", "rental_uris": {"ios": "https://dc.lft.to/lastmile_qr_scan", "android": "https://dc.lft.to/lastmile_qr_scan"}}, {"is_disabled": 0, "fusion_lat": 0.0, "lat": 38.9177935, "type": "electric_scooter", "lon": -76.973127, "is_reserved": 0, "fusion_lon": 0.0, "bike_id": "c34d00faa7136addffb9ad6e526b65c2", "name": "c34d00faa7136addffb9ad6e526b65c2", "rental_uris": {"ios": "https://dc.lft.to/lastmile_qr_scan", "android": "https://dc.lft.to/lastmile_qr_scan"}}, {"is_disabled": 0, "fusion_lat": 0.0, "lat": 38.91727316666667, "type": "electric_scooter", "lon": -77.02901683333333, "is_reserved": 0, "fusion_lon": 0.0, "bike_id": "ee2aed512d849bd3bc318c6b8717c765", "name": "ee2aed512d849bd3bc318c6b8717c765", "rental_uris": {"ios": "https://dc.lft.to/lastmile_qr_scan", "android": "https://dc.lft.to/lastmile_qr_scan"}}, {"is_disabled": 0, "fusion_lat": 0.0, "lat": 38.9048325, "type": "electric_scooter", "lon": -77.06251983333334, "is_reserved": 0, "fusion_lon": 0.0, "bike_id": "d7ab92a54cdb6ce2ffd1258252843dc3", "name": "d7ab92a54cdb6ce2ffd1258252843dc3", "rental_uris": {"ios": "https://dc.lft.to/lastmile_qr_scan", "android": "https://dc.lft.to/lastmile_qr_scan"}}, {"is_disabled": 0, "fusion_lat": 0.0, "lat": 38.897716, "type": "electric_scooter", "lon": -76.97723216666667, "is_reserved": 0, "fusion_lon": 0.0, "bike_id": "f02f51e2b84b1b2bb266eaaeb708fdd5", "name": "f02f51e2b84b1b2bb266eaaeb708fdd5", "rental_uris": {"ios": "https://dc.lft.to/lastmile_qr_scan", "android": "https://dc.lft.to/lastmile_qr_scan"}}, {"is_disabled": 0, "fusion_lat": 0.0, "lat": 38.8870685, "type": "electric_scooter", "lon": -77.0015035, "is_reserved": 0, "fusion_lon": 0.0, "bike_id": "ab8c2bd092b44ef58a009cd400f1cb86", "name": "ab8c2bd092b44ef58a009cd400f1cb86", "rental_uris": {"ios": "https://dc.lft.to/lastmile_qr_scan", "android": "https://dc.lft.to/lastmile_qr_scan"}}, {"is_disabled": 0, "fusion_lat": 0.0, "lat": 38.9232635, "type": "electric_scooter", "lon": -77.03894966666667, "is_reserved": 0, "fusion_lon": 0.0, "bike_id": "feb51e9f9e7dfaf9c81359bf5e53278c", "name": "feb51e9f9e7dfaf9c81359bf5e53278c", "rental_uris": {"ios": "https://dc.lft.to/lastmile_qr_scan", "android": "https://dc.lft.to/lastmile_qr_scan"}}, {"is_disabled": 0, "fusion_lat": 0.0, "lat": 38.903313, "type": "electric_scooter", "lon": -76.980182, "is_reserved": 0, "fusion_lon": 0.0, "bike_id": "2bca68f55525bff06331e107c197c1e8", "name": "2bca68f55525bff06331e107c197c1e8", "rental_uris": {"ios": "https://dc.lft.to/lastmile_qr_scan", "android": "https://dc.lft.to/lastmile_qr_scan"}}, {"is_disabled": 0, "fusion_lat": 0.0, "lat": 38.921854833333335, "type": "electric_scooter", "lon": -77.04235683333333, "is_reserved": 0, "fusion_lon": 0.0, "bike_id": "5306792fa46c5cc519c75a4b99b68695", "name": "5306792fa46c5cc519c75a4b99b68695", "rental_uris": {"ios": "https://dc.lft.to/lastmile_qr_scan", "android": "https://dc.lft.to/lastmile_qr_scan"}}, {"is_disabled": 0, "fusion_lat": 0.0, "lat": 38.884953333333335, "type": "electric_scooter", "lon": -77.00712216666666, "is_reserved": 0, "fusion_lon": 0.0, "bike_id": "5e44bab218c488ff164f91daeffa464a", "name": "5e44bab218c488ff164f91daeffa464a", "rental_uris": {"ios": "https://dc.lft.to/lastmile_qr_scan", "android": "https://dc.lft.to/lastmile_qr_scan"}}, {"is_disabled": 0, "fusion_lat": 0.0, "lat": 38.8062125, "type": "electric_bike", "lon": -77.06344166666666, "is_reserved": 0, "fusion_lon": 0.0, "bike_id": "276504e93cbc0769c63e6dac5cd87715", "name": "276504e93cbc0769c63e6dac5cd87715", "rental_uris": {"ios": "https://dc.lft.to/lastmile_qr_scan", "android": "https://dc.lft.to/lastmile_qr_scan"}}, {"is_disabled": 0, "fusion_lat": 0.0, "lat": 38.88179133333333, "type": "electric_scooter", "lon": -77.02089933333333, "is_reserved": 0, "fusion_lon": 0.0, "bike_id": "ccaa86dde3a5f8937429827d152ecad4", "name": "ccaa86dde3a5f8937429827d152ecad4", "rental_uris": {"ios": "https://dc.lft.to/lastmile_qr_scan", "android": "https://dc.lft.to/lastmile_qr_scan"}}, {"is_disabled": 0, "fusion_lat": 0.0, "lat": 38.932384, "type": "electric_scooter", "lon": -77.032673, "is_reserved": 0, "fusion_lon": 0.0, "bike_id": "b651fb6dfba5a0907ec4565f272f4383", "name": "b651fb6dfba5a0907ec4565f272f4383", "rental_uris": {"ios": "https://dc.lft.to/lastmile_qr_scan", "android": "https://dc.lft.to/lastmile_qr_scan"}}, {"is_disabled": 0, "fusion_lat": 0.0, "lat": 38.985064333333334, "type": "electric_bike", "lon": -76.98205, "is_reserved": 0, "fusion_lon": 0.0, "bike_id": "126f4ca5067f1cfaf04d41d8b6c84493", "name": "126f4ca5067f1cfaf04d41d8b6c84493", "rental_uris": {"ios": "https://dc.lft.to/lastmile_qr_scan", "android": "https://dc.lft.to/lastmile_qr_scan"}}, {"is_disabled": 0, "fusion_lat": 0.0, "lat": 38.9417055, "type": "electric_scooter", "lon": -77.02534616666667, "is_reserved": 0, "fusion_lon": 0.0, "bike_id": "3621ae249b83fc5f56f4fde069fd4650", "name": "3621ae249b83fc5f56f4fde069fd4650", "rental_uris": {"ios": "https://dc.lft.to/lastmile_qr_scan", "android": "https://dc.lft.to/lastmile_qr_scan"}}, {"is_disabled": 0, "fusion_lat": 0.0, "lat": 38.9209315, "type": "electric_scooter", "lon": -77.0255355, "is_reserved": 0, "fusion_lon": 0.0, "bike_id": "926f0c8e856e36ff2de6dde7fda3c81d", "name": "926f0c8e856e36ff2de6dde7fda3c81d", "rental_uris": {"ios": "https://dc.lft.to/lastmile_qr_scan", "android": "https://dc.lft.to/lastmile_qr_scan"}}, {"is_disabled": 0, "fusion_lat": 0.0, "lat": 38.92478966666667, "type": "electric_scooter", "lon": -77.02629516666667, "is_reserved": 0, "fusion_lon": 0.0, "bike_id": "8ae7e11f39c1a750f5d567c9475104fb", "name": "8ae7e11f39c1a750f5d567c9475104fb", "rental_uris": {"ios": "https://dc.lft.to/lastmile_qr_scan", "android": "https://dc.lft.to/lastmile_qr_scan"}}, {"is_disabled": 0, "fusion_lat": 0.0, "lat": 38.822611333333334, "type": "electric_bike", "lon": -77.05810083333333, "is_reserved": 0, "fusion_lon": 0.0, "bike_id": "609843612d0eda2ad9e7370449f1de23", "name": "609843612d0eda2ad9e7370449f1de23", "rental_uris": {"ios": "https://dc.lft.to/lastmile_qr_scan", "android": "https://dc.lft.to/lastmile_qr_scan"}}, {"is_disabled": 0, "fusion_lat": 0.0, "lat": 38.86058533333333, "type": "electric_scooter", "lon": -76.98421266666666, "is_reserved": 0, "fusion_lon": 0.0, "bike_id": "3ad32bd99b84ede75d850dbca4790fe8", "name": "3ad32bd99b84ede75d850dbca4790fe8", "rental_uris": {"ios": "https://dc.lft.to/lastmile_qr_scan", "android": "https://dc.lft.to/lastmile_qr_scan"}}, {"is_disabled": 0, "fusion_lat": 0.0, "lat": 38.907956666666664, "type": "electric_scooter", "lon": -77.03639183333334, "is_reserved": 0, "fusion_lon": 0.0, "bike_id": "45cbfd3649eec5edb6a6513d03250f63", "name": "45cbfd3649eec5edb6a6513d03250f63", "rental_uris": {"ios": "https://dc.lft.to/lastmile_qr_scan", "android": "https://dc.lft.to/lastmile_qr_scan"}}, {"is_disabled": 0, "fusion_lat": 0.0, "lat": 38.93018283333333, "type": "electric_scooter", "lon": -77.02093233333333, "is_reserved": 0, "fusion_lon": 0.0, "bike_id": "e88031cbdf8856163860c5c2eb28f6b2", "name": "e88031cbdf8856163860c5c2eb28f6b2", "rental_uris": {"ios": "https://dc.lft.to/lastmile_qr_scan", "android": "https://dc.lft.to/lastmile_qr_scan"}}, {"is_disabled": 0, "fusion_lat": 0.0, "lat": 38.9104935, "type": "electric_scooter", "lon": -77.009946, "is_reserved": 0, "fusion_lon": 0.0, "bike_id": "a7679cf3a23b799be5c87f09dd519d63", "name": "a7679cf3a23b799be5c87f09dd519d63", "rental_uris": {"ios": "https://dc.lft.to/lastmile_qr_scan", "android": "https://dc.lft.to/lastmile_qr_scan"}}, {"is_disabled": 0, "fusion_lat": 0.0, "lat": 38.898388833333335, "type": "electric_scooter", "lon": -77.03163133333334, "is_reserved": 0, "fusion_lon": 0.0, "bike_id": "ffc5032ec669de4c71f4cab6b162cb26", "name": "ffc5032ec669de4c71f4cab6b162cb26", "rental_uris": {"ios": "https://dc.lft.to/lastmile_qr_scan", "android": "https://dc.lft.to/lastmile_qr_scan"}}, {"is_disabled": 0, "fusion_lat": 0.0, "lat": 38.869876, "type": "electric_bike", "lon": -76.95981616666667, "is_reserved": 0, "fusion_lon": 0.0, "bike_id": "df2bf5aebf400b1eebb6c15f3074754c", "name": "df2bf5aebf400b1eebb6c15f3074754c", "rental_uris": {"ios": "https://dc.lft.to/lastmile_qr_scan", "android": "https://dc.lft.to/lastmile_qr_scan"}}, {"is_disabled": 0, "fusion_lat": 0.0, "lat": 38.87902366666667, "type": "electric_scooter", "lon": -77.00571216666667, "is_reserved": 0, "fusion_lon": 0.0, "bike_id": "88d49afc575476bb88ff36b9f917479f", "name": "88d49afc575476bb88ff36b9f917479f", "rental_uris": {"ios": "https://dc.lft.to/lastmile_qr_scan", "android": "https://dc.lft.to/lastmile_qr_scan"}}, {"is_disabled": 0, "fusion_lat": 0.0, "lat": 38.912702, "type": "electric_scooter", "lon": -77.04166416666666, "is_reserved": 0, "fusion_lon": 0.0, "bike_id": "de22e8c474550b77d1868aaef59a57ea", "name": "de22e8c474550b77d1868aaef59a57ea", "rental_uris": {"ios": "https://dc.lft.to/lastmile_qr_scan", "android": "https://dc.lft.to/lastmile_qr_scan"}}, {"is_disabled": 0, "fusion_lat": 0.0, "lat": 38.90854683333333, "type": "electric_scooter", "lon": -77.0246245, "is_reserved": 0, "fusion_lon": 0.0, "bike_id": "20c0336f469b0dc5bf017eaf280a26d5", "name": "20c0336f469b0dc5bf017eaf280a26d5", "rental_uris": {"ios": "https://dc.lft.to/lastmile_qr_scan", "android": "https://dc.lft.to/lastmile_qr_scan"}}, {"is_disabled": 0, "fusion_lat": 0.0, "lat": 38.89620766666667, "type": "electric_scooter", "lon": -76.994153, "is_reserved": 0, "fusion_lon": 0.0, "bike_id": "1f03f22675f55b0611de6c5d581513fa", "name": "1f03f22675f55b0611de6c5d581513fa", "rental_uris": {"ios": "https://dc.lft.to/lastmile_qr_scan", "android": "https://dc.lft.to/lastmile_qr_scan"}}, {"is_disabled": 0, "fusion_lat": 0.0, "lat": 38.9017085, "type": "electric_scooter", "lon": -77.02544066666667, "is_reserved": 0, "fusion_lon": 0.0, "bike_id": "90fb28d7292a0ec31716b173949884f9", "name": "90fb28d7292a0ec31716b173949884f9", "rental_uris": {"ios": "https://dc.lft.to/lastmile_qr_scan", "android": "https://dc.lft.to/lastmile_qr_scan"}}, {"is_disabled": 0, "fusion_lat": 0.0, "lat": 38.94899266666667, "type": "electric_bike", "lon": -76.96372933333333, "is_reserved": 0, "fusion_lon": 0.0, "bike_id": "0cc2a5c2b163d63c75166e754e9ea091", "name": "0cc2a5c2b163d63c75166e754e9ea091", "rental_uris": {"ios": "https://dc.lft.to/lastmile_qr_scan", "android": "https://dc.lft.to/lastmile_qr_scan"}}, {"is_disabled": 0, "fusion_lat": 0.0, "lat": 38.922898833333335, "type": "electric_scooter", "lon": -77.03194233333333, "is_reserved": 0, "fusion_lon": 0.0, "bike_id": "90fd3debf201fd049224c55d0e4b9a37", "name": "90fd3debf201fd049224c55d0e4b9a37", "rental_uris": {"ios": "https://dc.lft.to/lastmile_qr_scan", "android": "https://dc.lft.to/lastmile_qr_scan"}}, {"is_disabled": 0, "fusion_lat": 0.0, "lat": 38.88311783333333, "type": "electric_scooter", "lon": -77.00932466666667, "is_reserved": 0, "fusion_lon": 0.0, "bike_id": "be75908ca0e91bd6308dab6fe55b0482", "name": "be75908ca0e91bd6308dab6fe55b0482", "rental_uris": {"ios": "https://dc.lft.to/lastmile_qr_scan", "android": "https://dc.lft.to/lastmile_qr_scan"}}, {"is_disabled": 0, "fusion_lat": 0.0, "lat": 38.8753095, "type": "electric_scooter", "lon": -77.000462, "is_reserved": 0, "fusion_lon": 0.0, "bike_id": "724c17cbc99cbabebe45478b2a289c98", "name": "724c17cbc99cbabebe45478b2a289c98", "rental_uris": {"ios": "https://dc.lft.to/lastmile_qr_scan", "android": "https://dc.lft.to/lastmile_qr_scan"}}, {"is_disabled": 0, "fusion_lat": 0.0, "lat": 38.892520833333336, "type": "electric_scooter", "lon": -76.94333366666666, "is_reserved": 0, "fusion_lon": 0.0, "bike_id": "14096d98f90d5cbb70a0cb9a4539c7da", "name": "14096d98f90d5cbb70a0cb9a4539c7da", "rental_uris": {"ios": "https://dc.lft.to/lastmile_qr_scan", "android": "https://dc.lft.to/lastmile_qr_scan"}}, {"is_disabled": 0, "fusion_lat": 0.0, "lat": 38.89887483333333, "type": "electric_scooter", "lon": -77.03276516666666, "is_reserved": 0, "fusion_lon": 0.0, "bike_id": "aa538fda17b052511eb9b14f645cb726", "name": "aa538fda17b052511eb9b14f645cb726", "rental_uris": {"ios": "https://dc.lft.to/lastmile_qr_scan", "android": "https://dc.lft.to/lastmile_qr_scan"}}, {"is_disabled": 0, "fusion_lat": 0.0, "lat": 38.9000745, "type": "electric_scooter", "lon": -77.00592083333333, "is_reserved": 0, "fusion_lon": 0.0, "bike_id": "dfcf990ab78b153fe198071a37c3032b", "name": "dfcf990ab78b153fe198071a37c3032b", "rental_uris": {"ios": "https://dc.lft.to/lastmile_qr_scan", "android": "https://dc.lft.to/lastmile_qr_scan"}}, {"is_disabled": 0, "fusion_lat": 0.0, "lat": 38.916179, "type": "electric_scooter", "lon": -77.02706833333333, "is_reserved": 0, "fusion_lon": 0.0, "bike_id": "7fcec6a91420a3f1581463260e8e6fde", "name": "7fcec6a91420a3f1581463260e8e6fde", "rental_uris": {"ios": "https://dc.lft.to/lastmile_qr_scan", "android": "https://dc.lft.to/lastmile_qr_scan"}}, {"is_disabled": 0, "fusion_lat": 0.0, "lat": 38.94801283333334, "type": "electric_bike", "lon": -77.00817733333334, "is_reserved": 0, "fusion_lon": 0.0, "bike_id": "4c4e964d71898e32615722e6b12fb3dc", "name": "4c4e964d71898e32615722e6b12fb3dc", "rental_uris": {"ios": "https://dc.lft.to/lastmile_qr_scan", "android": "https://dc.lft.to/lastmile_qr_scan"}}, {"is_disabled": 0, "fusion_lat": 0.0, "lat": 38.938341, "type": "electric_bike", "lon": -77.0329005, "is_reserved": 0, "fusion_lon": 0.0, "bike_id": "1a1b261800e743d9a86f582810b9e782", "name": "1a1b261800e743d9a86f582810b9e782", "rental_uris": {"ios": "https://dc.lft.to/lastmile_qr_scan", "android": "https://dc.lft.to/lastmile_qr_scan"}}, {"is_disabled": 0, "fusion_lat": 0.0, "lat": 38.92150266666667, "type": "electric_scooter", "lon": -77.03866483333333, "is_reserved": 0, "fusion_lon": 0.0, "bike_id": "1a6a9ed43bd456915034b736487392a0", "name": "1a6a9ed43bd456915034b736487392a0", "rental_uris": {"ios": "https://dc.lft.to/lastmile_qr_scan", "android": "https://dc.lft.to/lastmile_qr_scan"}}, {"is_disabled": 0, "fusion_lat": 0.0, "lat": 38.8714505, "type": "electric_bike", "lon": -76.93659416666667, "is_reserved": 0, "fusion_lon": 0.0, "bike_id": "2ff8249fe7506aa8bd0664a1a7e78e5c", "name": "2ff8249fe7506aa8bd0664a1a7e78e5c", "rental_uris": {"ios": "https://dc.lft.to/lastmile_qr_scan", "android": "https://dc.lft.to/lastmile_qr_scan"}}, {"is_disabled": 0, "fusion_lat": 0.0, "lat": 38.953592666666665, "type": "electric_bike", "lon": -76.98092366666667, "is_reserved": 0, "fusion_lon": 0.0, "bike_id": "6e5173eca9f334aa3074424bd6e97a09", "name": "6e5173eca9f334aa3074424bd6e97a09", "rental_uris": {"ios": "https://dc.lft.to/lastmile_qr_scan", "android": "https://dc.lft.to/lastmile_qr_scan"}}, {"is_disabled": 0, "fusion_lat": 0.0, "lat": 38.9036465, "type": "electric_scooter", "lon": -77.038828, "is_reserved": 0, "fusion_lon": 0.0, "bike_id": "4ed75784145bbebf2daab1e7b02a8611", "name": "4ed75784145bbebf2daab1e7b02a8611", "rental_uris": {"ios": "https://dc.lft.to/lastmile_qr_scan", "android": "https://dc.lft.to/lastmile_qr_scan"}}, {"is_disabled": 0, "fusion_lat": 0.0, "lat": 38.92037766666667, "type": "electric_scooter", "lon": -77.02406483333333, "is_reserved": 0, "fusion_lon": 0.0, "bike_id": "77871c20b6e0c1f9f794a471837c0c42", "name": "77871c20b6e0c1f9f794a471837c0c42", "rental_uris": {"ios": "https://dc.lft.to/lastmile_qr_scan", "android": "https://dc.lft.to/lastmile_qr_scan"}}, {"is_disabled": 0, "fusion_lat": 0.0, "lat": 38.88449216666667, "type": "electric_scooter", "lon": -77.00573933333334, "is_reserved": 0, "fusion_lon": 0.0, "bike_id": "6b805069c03df03fe7e750c2f34b20e0", "name": "6b805069c03df03fe7e750c2f34b20e0", "rental_uris": {"ios": "https://dc.lft.to/lastmile_qr_scan", "android": "https://dc.lft.to/lastmile_qr_scan"}}, {"is_disabled": 0, "fusion_lat": 0.0, "lat": 38.9021695, "type": "electric_scooter", "lon": -77.01901966666667, "is_reserved": 0, "fusion_lon": 0.0, "bike_id": "c279571bd183f2f818e1bfeb0330dbac", "name": "c279571bd183f2f818e1bfeb0330dbac", "rental_uris": {"ios": "https://dc.lft.to/lastmile_qr_scan", "android": "https://dc.lft.to/lastmile_qr_scan"}}, {"is_disabled": 0, "fusion_lat": 0.0, "lat": 38.901416, "type": "electric_scooter", "lon": -76.99798416666667, "is_reserved": 0, "fusion_lon": 0.0, "bike_id": "e56599dddde90135db7df9111fa3a516", "name": "e56599dddde90135db7df9111fa3a516", "rental_uris": {"ios": "https://dc.lft.to/lastmile_qr_scan", "android": "https://dc.lft.to/lastmile_qr_scan"}}, {"is_disabled": 0, "fusion_lat": 0.0, "lat": 38.863735166666665, "type": "electric_bike", "lon": -76.97006933333333, "is_reserved": 0, "fusion_lon": 0.0, "bike_id": "9cb6c2be525fce2c4a5a7dcb204891f3", "name": "9cb6c2be525fce2c4a5a7dcb204891f3", "rental_uris": {"ios": "https://dc.lft.to/lastmile_qr_scan", "android": "https://dc.lft.to/lastmile_qr_scan"}}, {"is_disabled": 0, "fusion_lat": 0.0, "lat": 38.850561666666664, "type": "electric_bike", "lon": -76.973233, "is_reserved": 0, "fusion_lon": 0.0, "bike_id": "9893adae73fedca534958a91452b5786", "name": "9893adae73fedca534958a91452b5786", "rental_uris": {"ios": "https://dc.lft.to/lastmile_qr_scan", "android": "https://dc.lft.to/lastmile_qr_scan"}}, {"is_disabled": 0, "fusion_lat": 0.0, "lat": 38.94021883333333, "type": "electric_scooter", "lon": -77.07170566666667, "is_reserved": 0, "fusion_lon": 0.0, "bike_id": "2d8b7f6e074cc767e8da5d93ffd05955", "name": "2d8b7f6e074cc767e8da5d93ffd05955", "rental_uris": {"ios": "https://dc.lft.to/lastmile_qr_scan", "android": "https://dc.lft.to/lastmile_qr_scan"}}, {"is_disabled": 0, "fusion_lat": 0.0, "lat": 38.89887916666667, "type": "electric_scooter", "lon": -76.93172933333334, "is_reserved": 0, "fusion_lon": 0.0, "bike_id": "5c96a60075f904f1597d582ed54f0ed6", "name": "5c96a60075f904f1597d582ed54f0ed6", "rental_uris": {"ios": "https://dc.lft.to/lastmile_qr_scan", "android": "https://dc.lft.to/lastmile_qr_scan"}}, {"is_disabled": 0, "fusion_lat": 0.0, "lat": 38.9206865, "type": "electric_scooter", "lon": -77.04379533333334, "is_reserved": 0, "fusion_lon": 0.0, "bike_id": "4dc0e22cc48c32f0228c478e834c0fc5", "name": "4dc0e22cc48c32f0228c478e834c0fc5", "rental_uris": {"ios": "https://dc.lft.to/lastmile_qr_scan", "android": "https://dc.lft.to/lastmile_qr_scan"}}, {"is_disabled": 0, "fusion_lat": 0.0, "lat": 38.902644, "type": "electric_scooter", "lon": -77.02145916666667, "is_reserved": 0, "fusion_lon": 0.0, "bike_id": "94e6c1ed7430524e773ec195b1e25f11", "name": "94e6c1ed7430524e773ec195b1e25f11", "rental_uris": {"ios": "https://dc.lft.to/lastmile_qr_scan", "android": "https://dc.lft.to/lastmile_qr_scan"}}, {"is_disabled": 0, "fusion_lat": 0.0, "lat": 38.914559833333335, "type": "electric_scooter", "lon": -77.04621716666666, "is_reserved": 0, "fusion_lon": 0.0, "bike_id": "59ce283ce696ca9b8aec99510fd8c535", "name": "59ce283ce696ca9b8aec99510fd8c535", "rental_uris": {"ios": "https://dc.lft.to/lastmile_qr_scan", "android": "https://dc.lft.to/lastmile_qr_scan"}}, {"is_disabled": 0, "fusion_lat": 0.0, "lat": 38.915504166666665, "type": "electric_scooter", "lon": -77.04156533333334, "is_reserved": 0, "fusion_lon": 0.0, "bike_id": "aa4600b1f9a9d3f1141a051985520710", "name": "aa4600b1f9a9d3f1141a051985520710", "rental_uris": {"ios": "https://dc.lft.to/lastmile_qr_scan", "android": "https://dc.lft.to/lastmile_qr_scan"}}, {"is_disabled": 0, "fusion_lat": 0.0, "lat": 38.92552516666667, "type": "electric_bike", "lon": -77.0013085, "is_reserved": 0, "fusion_lon": 0.0, "bike_id": "c6bf1e846a2ad01eabb13c29c2ea3ab3", "name": "c6bf1e846a2ad01eabb13c29c2ea3ab3", "rental_uris": {"ios": "https://dc.lft.to/lastmile_qr_scan", "android": "https://dc.lft.to/lastmile_qr_scan"}}, {"is_disabled": 0, "fusion_lat": 0.0, "lat": 38.902545833333335, "type": "electric_scooter", "lon": -77.04585733333333, "is_reserved": 0, "fusion_lon": 0.0, "bike_id": "0d8a3a2f04fe461079382bf8421bec9f", "name": "0d8a3a2f04fe461079382bf8421bec9f", "rental_uris": {"ios": "https://dc.lft.to/lastmile_qr_scan", "android": "https://dc.lft.to/lastmile_qr_scan"}}, {"is_disabled": 0, "fusion_lat": 0.0, "lat": 38.916883, "type": "electric_scooter", "lon": -77.038689, "is_reserved": 0, "fusion_lon": 0.0, "bike_id": "94db3e80dbdf6d12e4b8c2878114012a", "name": "94db3e80dbdf6d12e4b8c2878114012a", "rental_uris": {"ios": "https://dc.lft.to/lastmile_qr_scan", "android": "https://dc.lft.to/lastmile_qr_scan"}}, {"is_disabled": 0, "fusion_lat": 0.0, "lat": 38.925703666666664, "type": "electric_scooter", "lon": -77.0526055, "is_reserved": 0, "fusion_lon": 0.0, "bike_id": "743e8e7e53fe1eded5203c0afbc97296", "name": "743e8e7e53fe1eded5203c0afbc97296", "rental_uris": {"ios": "https://dc.lft.to/lastmile_qr_scan", "android": "https://dc.lft.to/lastmile_qr_scan"}}, {"is_disabled": 0, "fusion_lat": 0.0, "lat": 38.919669666666664, "type": "electric_scooter", "lon": -77.03957016666666, "is_reserved": 0, "fusion_lon": 0.0, "bike_id": "108a376e91ddbc348c6997fefc0a6cce", "name": "108a376e91ddbc348c6997fefc0a6cce", "rental_uris": {"ios": "https://dc.lft.to/lastmile_qr_scan", "android": "https://dc.lft.to/lastmile_qr_scan"}}, {"is_disabled": 0, "fusion_lat": 0.0, "lat": 38.92324133333334, "type": "electric_scooter", "lon": -77.0409255, "is_reserved": 0, "fusion_lon": 0.0, "bike_id": "9ba54a951b6478f039129f458da69225", "name": "9ba54a951b6478f039129f458da69225", "rental_uris": {"ios": "https://dc.lft.to/lastmile_qr_scan", "android": "https://dc.lft.to/lastmile_qr_scan"}}, {"is_disabled": 0, "fusion_lat": 0.0, "lat": 38.952855, "type": "electric_bike", "lon": -76.946001, "is_reserved": 0, "fusion_lon": 0.0, "bike_id": "48745f7a1d623e28e09f3e3e38bfe808", "name": "48745f7a1d623e28e09f3e3e38bfe808", "rental_uris": {"ios": "https://dc.lft.to/lastmile_qr_scan", "android": "https://dc.lft.to/lastmile_qr_scan"}}, {"is_disabled": 0, "fusion_lat": 0.0, "lat": 38.899545833333335, "type": "electric_scooter", "lon": -76.9902005, "is_reserved": 0, "fusion_lon": 0.0, "bike_id": "e5c0ee8e96dcea12422661351777d782", "name": "e5c0ee8e96dcea12422661351777d782", "rental_uris": {"ios": "https://dc.lft.to/lastmile_qr_scan", "android": "https://dc.lft.to/lastmile_qr_scan"}}, {"is_disabled": 0, "fusion_lat": 0.0, "lat": 38.939597, "type": "electric_bike", "lon": -77.36093483333333, "is_reserved": 0, "fusion_lon": 0.0, "bike_id": "a75c37ecaa7f1383fce2f33c3b135940", "name": "a75c37ecaa7f1383fce2f33c3b135940", "rental_uris": {"ios": "https://dc.lft.to/lastmile_qr_scan", "android": "https://dc.lft.to/lastmile_qr_scan"}}, {"is_disabled": 0, "fusion_lat": 0.0, "lat": 38.91733116666666, "type": "electric_scooter", "lon": -77.0417205, "is_reserved": 0, "fusion_lon": 0.0, "bike_id": "584fc78135c2bf7898c132510b95a4c4", "name": "584fc78135c2bf7898c132510b95a4c4", "rental_uris": {"ios": "https://dc.lft.to/lastmile_qr_scan", "android": "https://dc.lft.to/lastmile_qr_scan"}}, {"is_disabled": 0, "fusion_lat": 0.0, "lat": 38.91935733333333, "type": "electric_scooter", "lon": -77.03188616666667, "is_reserved": 0, "fusion_lon": 0.0, "bike_id": "c4b667d08d8695e27e12fce329dcfc76", "name": "c4b667d08d8695e27e12fce329dcfc76", "rental_uris": {"ios": "https://dc.lft.to/lastmile_qr_scan", "android": "https://dc.lft.to/lastmile_qr_scan"}}, {"is_disabled": 0, "fusion_lat": 0.0, "lat": 38.90653783333333, "type": "electric_scooter", "lon": -76.98370800000001, "is_reserved": 0, "fusion_lon": 0.0, "bike_id": "2e7f38eff033f77fa9319b944ab63dbe", "name": "2e7f38eff033f77fa9319b944ab63dbe", "rental_uris": {"ios": "https://dc.lft.to/lastmile_qr_scan", "android": "https://dc.lft.to/lastmile_qr_scan"}}, {"is_disabled": 0, "fusion_lat": 0.0, "lat": 38.895573, "type": "electric_scooter", "lon": -76.93078416666667, "is_reserved": 0, "fusion_lon": 0.0, "bike_id": "74e9d673af0ed2047cc6b4c87d92f7ff", "name": "74e9d673af0ed2047cc6b4c87d92f7ff", "rental_uris": {"ios": "https://dc.lft.to/lastmile_qr_scan", "android": "https://dc.lft.to/lastmile_qr_scan"}}, {"is_disabled": 0, "fusion_lat": 0.0, "lat": 38.90364316666667, "type": "electric_scooter", "lon": -77.02921616666667, "is_reserved": 0, "fusion_lon": 0.0, "bike_id": "854b22c1aaf2f5cb80c9f27d796dd6fa", "name": "854b22c1aaf2f5cb80c9f27d796dd6fa", "rental_uris": {"ios": "https://dc.lft.to/lastmile_qr_scan", "android": "https://dc.lft.to/lastmile_qr_scan"}}, {"is_disabled": 0, "fusion_lat": 0.0, "lat": 38.927510166666664, "type": "electric_scooter", "lon": -77.02482483333333, "is_reserved": 0, "fusion_lon": 0.0, "bike_id": "3e884a054153132272caf6f27dce2390", "name": "3e884a054153132272caf6f27dce2390", "rental_uris": {"ios": "https://dc.lft.to/lastmile_qr_scan", "android": "https://dc.lft.to/lastmile_qr_scan"}}, {"is_disabled": 0, "fusion_lat": 0.0, "lat": 38.93743116666667, "type": "electric_scooter", "lon": -77.03284033333334, "is_reserved": 0, "fusion_lon": 0.0, "bike_id": "8354d26579af89e31a514e9e4388000f", "name": "8354d26579af89e31a514e9e4388000f", "rental_uris": {"ios": "https://dc.lft.to/lastmile_qr_scan", "android": "https://dc.lft.to/lastmile_qr_scan"}}, {"is_disabled": 0, "fusion_lat": 0.0, "lat": 38.92483266666667, "type": "electric_scooter", "lon": -77.026297, "is_reserved": 0, "fusion_lon": 0.0, "bike_id": "eddf7b1eca1a86af8a2112fd7f144897", "name": "eddf7b1eca1a86af8a2112fd7f144897", "rental_uris": {"ios": "https://dc.lft.to/lastmile_qr_scan", "android": "https://dc.lft.to/lastmile_qr_scan"}}, {"is_disabled": 0, "fusion_lat": 0.0, "lat": 38.8596545, "type": "electric_scooter", "lon": -76.991088, "is_reserved": 0, "fusion_lon": 0.0, "bike_id": "f9316900be4cd1e41e8ee1dd6e53b937", "name": "f9316900be4cd1e41e8ee1dd6e53b937", "rental_uris": {"ios": "https://dc.lft.to/lastmile_qr_scan", "android": "https://dc.lft.to/lastmile_qr_scan"}}, {"is_disabled": 0, "fusion_lat": 0.0, "lat": 38.9445785, "type": "electric_scooter", "lon": -77.06346483333333, "is_reserved": 0, "fusion_lon": 0.0, "bike_id": "4b6ad05084d44f44c099fa145dc719e8", "name": "4b6ad05084d44f44c099fa145dc719e8", "rental_uris": {"ios": "https://dc.lft.to/lastmile_qr_scan", "android": "https://dc.lft.to/lastmile_qr_scan"}}, {"is_disabled": 0, "fusion_lat": 0.0, "lat": 38.91809166666667, "type": "electric_scooter", "lon": -77.03304116666666, "is_reserved": 0, "fusion_lon": 0.0, "bike_id": "95e4c45fed7c79cbc90d704cd0f4cda8", "name": "95e4c45fed7c79cbc90d704cd0f4cda8", "rental_uris": {"ios": "https://dc.lft.to/lastmile_qr_scan", "android": "https://dc.lft.to/lastmile_qr_scan"}}, {"is_disabled": 0, "fusion_lat": 0.0, "lat": 38.9231295, "type": "electric_scooter", "lon": -77.03912033333333, "is_reserved": 0, "fusion_lon": 0.0, "bike_id": "e31c83cda4ffb747877533e63314e2d2", "name": "e31c83cda4ffb747877533e63314e2d2", "rental_uris": {"ios": "https://dc.lft.to/lastmile_qr_scan", "android": "https://dc.lft.to/lastmile_qr_scan"}}, {"is_disabled": 0, "fusion_lat": 0.0, "lat": 38.89223066666667, "type": "electric_scooter", "lon": -77.04649983333333, "is_reserved": 0, "fusion_lon": 0.0, "bike_id": "c1754b16b2580f0638da420bfd620091", "name": "c1754b16b2580f0638da420bfd620091", "rental_uris": {"ios": "https://dc.lft.to/lastmile_qr_scan", "android": "https://dc.lft.to/lastmile_qr_scan"}}, {"is_disabled": 0, "fusion_lat": 0.0, "lat": 38.8784195, "type": "electric_scooter", "lon": -77.01959983333333, "is_reserved": 0, "fusion_lon": 0.0, "bike_id": "3d6844efc1658cb4fedb49acde166889", "name": "3d6844efc1658cb4fedb49acde166889", "rental_uris": {"ios": "https://dc.lft.to/lastmile_qr_scan", "android": "https://dc.lft.to/lastmile_qr_scan"}}, {"is_disabled": 0, "fusion_lat": 0.0, "lat": 38.91300783333333, "type": "electric_scooter", "lon": -77.01964033333333, "is_reserved": 0, "fusion_lon": 0.0, "bike_id": "17b071bf8859944bc658e771018e8bea", "name": "17b071bf8859944bc658e771018e8bea", "rental_uris": {"ios": "https://dc.lft.to/lastmile_qr_scan", "android": "https://dc.lft.to/lastmile_qr_scan"}}, {"is_disabled": 0, "fusion_lat": 0.0, "lat": 38.916957833333335, "type": "electric_scooter", "lon": -77.04603016666667, "is_reserved": 0, "fusion_lon": 0.0, "bike_id": "7b2ba8663695f845db768baf905f1bc7", "name": "7b2ba8663695f845db768baf905f1bc7", "rental_uris": {"ios": "https://dc.lft.to/lastmile_qr_scan", "android": "https://dc.lft.to/lastmile_qr_scan"}}, {"is_disabled": 0, "fusion_lat": 0.0, "lat": 38.902578, "type": "electric_scooter", "lon": -77.01842233333333, "is_reserved": 0, "fusion_lon": 0.0, "bike_id": "d8424cc30533e125ebd946232a9367bf", "name": "d8424cc30533e125ebd946232a9367bf", "rental_uris": {"ios": "https://dc.lft.to/lastmile_qr_scan", "android": "https://dc.lft.to/lastmile_qr_scan"}}, {"is_disabled": 0, "fusion_lat": 0.0, "lat": 38.94511133333334, "type": "electric_bike", "lon": -77.00674366666667, "is_reserved": 0, "fusion_lon": 0.0, "bike_id": "458eb3f439addc871a32c10499e8a541", "name": "458eb3f439addc871a32c10499e8a541", "rental_uris": {"ios": "https://dc.lft.to/lastmile_qr_scan", "android": "https://dc.lft.to/lastmile_qr_scan"}}, {"is_disabled": 0, "fusion_lat": 0.0, "lat": 38.8637105, "type": "electric_scooter", "lon": -76.99046033333333, "is_reserved": 0, "fusion_lon": 0.0, "bike_id": "2b35f3d20ee89335132fe03c4b5dbdff", "name": "2b35f3d20ee89335132fe03c4b5dbdff", "rental_uris": {"ios": "https://dc.lft.to/lastmile_qr_scan", "android": "https://dc.lft.to/lastmile_qr_scan"}}, {"is_disabled": 0, "fusion_lat": 0.0, "lat": 38.915434, "type": "electric_scooter", "lon": -77.0384405, "is_reserved": 0, "fusion_lon": 0.0, "bike_id": "ffab703ed82316cb219098befd96a192", "name": "ffab703ed82316cb219098befd96a192", "rental_uris": {"ios": "https://dc.lft.to/lastmile_qr_scan", "android": "https://dc.lft.to/lastmile_qr_scan"}}, {"is_disabled": 0, "fusion_lat": 0.0, "lat": 38.91265833333333, "type": "electric_scooter", "lon": -77.0363255, "is_reserved": 0, "fusion_lon": 0.0, "bike_id": "f0833d290965dca98178d5132b8e0c7f", "name": "f0833d290965dca98178d5132b8e0c7f", "rental_uris": {"ios": "https://dc.lft.to/lastmile_qr_scan", "android": "https://dc.lft.to/lastmile_qr_scan"}}, {"is_disabled": 0, "fusion_lat": 0.0, "lat": 38.8711525, "type": "electric_scooter", "lon": -77.01072116666667, "is_reserved": 0, "fusion_lon": 0.0, "bike_id": "8532a8651d4b304f30262e4aa54a06ed", "name": "8532a8651d4b304f30262e4aa54a06ed", "rental_uris": {"ios": "https://dc.lft.to/lastmile_qr_scan", "android": "https://dc.lft.to/lastmile_qr_scan"}}, {"is_disabled": 0, "fusion_lat": 0.0, "lat": 38.877323833333335, "type": "electric_bike", "lon": -77.11851066666667, "is_reserved": 0, "fusion_lon": 0.0, "bike_id": "1f1b8a1eca5d5edbacf84597c0088ebd", "name": "1f1b8a1eca5d5edbacf84597c0088ebd", "rental_uris": {"ios": "https://dc.lft.to/lastmile_qr_scan", "android": "https://dc.lft.to/lastmile_qr_scan"}}, {"is_disabled": 0, "fusion_lat": 0.0, "lat": 38.95187166666667, "type": "electric_bike", "lon": -76.935431, "is_reserved": 0, "fusion_lon": 0.0, "bike_id": "5dbe036c78d3634fcafa1e0f54b9489d", "name": "5dbe036c78d3634fcafa1e0f54b9489d", "rental_uris": {"ios": "https://dc.lft.to/lastmile_qr_scan", "android": "https://dc.lft.to/lastmile_qr_scan"}}, {"is_disabled": 0, "fusion_lat": 0.0, "lat": 38.92861166666667, "type": "electric_scooter", "lon": -77.028748, "is_reserved": 0, "fusion_lon": 0.0, "bike_id": "097e82ece44e384e37d96ba371babb39", "name": "097e82ece44e384e37d96ba371babb39", "rental_uris": {"ios": "https://dc.lft.to/lastmile_qr_scan", "android": "https://dc.lft.to/lastmile_qr_scan"}}, {"is_disabled": 0, "fusion_lat": 0.0, "lat": 38.9639635, "type": "electric_scooter", "lon": -77.0259395, "is_reserved": 0, "fusion_lon": 0.0, "bike_id": "8fcfde7b4ef42af191c9c0b0fe3f2712", "name": "8fcfde7b4ef42af191c9c0b0fe3f2712", "rental_uris": {"ios": "https://dc.lft.to/lastmile_qr_scan", "android": "https://dc.lft.to/lastmile_qr_scan"}}, {"is_disabled": 0, "fusion_lat": 0.0, "lat": 38.914960666666666, "type": "electric_scooter", "lon": -76.98337983333333, "is_reserved": 0, "fusion_lon": 0.0, "bike_id": "30b65700ad0f6c482e7c113adb741e4a", "name": "30b65700ad0f6c482e7c113adb741e4a", "rental_uris": {"ios": "https://dc.lft.to/lastmile_qr_scan", "android": "https://dc.lft.to/lastmile_qr_scan"}}, {"is_disabled": 0, "fusion_lat": 0.0, "lat": 38.932869, "type": "electric_scooter", "lon": -77.03643116666667, "is_reserved": 0, "fusion_lon": 0.0, "bike_id": "1e48e3dfbe6e141ec6ed58207ad2e7aa", "name": "1e48e3dfbe6e141ec6ed58207ad2e7aa", "rental_uris": {"ios": "https://dc.lft.to/lastmile_qr_scan", "android": "https://dc.lft.to/lastmile_qr_scan"}}, {"is_disabled": 0, "fusion_lat": 0.0, "lat": 38.96230333333333, "type": "electric_bike", "lon": -77.02633466666667, "is_reserved": 0, "fusion_lon": 0.0, "bike_id": "dbfc4790ebdbb912a041251f83f3eb23", "name": "dbfc4790ebdbb912a041251f83f3eb23", "rental_uris": {"ios": "https://dc.lft.to/lastmile_qr_scan", "android": "https://dc.lft.to/lastmile_qr_scan"}}, {"is_disabled": 0, "fusion_lat": 0.0, "lat": 38.85767716666667, "type": "electric_bike", "lon": -76.987618, "is_reserved": 0, "fusion_lon": 0.0, "bike_id": "8ef1b4dda5127dddcf0b4c1c6b6055ab", "name": "8ef1b4dda5127dddcf0b4c1c6b6055ab", "rental_uris": {"ios": "https://dc.lft.to/lastmile_qr_scan", "android": "https://dc.lft.to/lastmile_qr_scan"}}, {"is_disabled": 0, "fusion_lat": 0.0, "lat": 38.905621333333336, "type": "electric_scooter", "lon": -77.03815433333334, "is_reserved": 0, "fusion_lon": 0.0, "bike_id": "ec62ed3d444ee7ab70b6a81be19b2412", "name": "ec62ed3d444ee7ab70b6a81be19b2412", "rental_uris": {"ios": "https://dc.lft.to/lastmile_qr_scan", "android": "https://dc.lft.to/lastmile_qr_scan"}}, {"is_disabled": 0, "fusion_lat": 0.0, "lat": 38.84932833333333, "type": "electric_bike", "lon": -77.1001325, "is_reserved": 0, "fusion_lon": 0.0, "bike_id": "873b826c76b66dbc82ef18b4bb50c3cf", "name": "873b826c76b66dbc82ef18b4bb50c3cf", "rental_uris": {"ios": "https://dc.lft.to/lastmile_qr_scan", "android": "https://dc.lft.to/lastmile_qr_scan"}}, {"is_disabled": 0, "fusion_lat": 0.0, "lat": 38.9309385, "type": "electric_scooter", "lon": -77.03750933333333, "is_reserved": 0, "fusion_lon": 0.0, "bike_id": "4b4bc2dce1ff3dabc83c129b52f13c46", "name": "4b4bc2dce1ff3dabc83c129b52f13c46", "rental_uris": {"ios": "https://dc.lft.to/lastmile_qr_scan", "android": "https://dc.lft.to/lastmile_qr_scan"}}, {"is_disabled": 0, "fusion_lat": 0.0, "lat": 38.930556833333334, "type": "electric_scooter", "lon": -77.02656616666667, "is_reserved": 0, "fusion_lon": 0.0, "bike_id": "eb32d23d996f3b40874118f751e6850e", "name": "eb32d23d996f3b40874118f751e6850e", "rental_uris": {"ios": "https://dc.lft.to/lastmile_qr_scan", "android": "https://dc.lft.to/lastmile_qr_scan"}}, {"is_disabled": 0, "fusion_lat": 0.0, "lat": 38.86624833333333, "type": "electric_scooter", "lon": -76.9868995, "is_reserved": 0, "fusion_lon": 0.0, "bike_id": "410a126a08816d7a42ff8019a1676b72", "name": "410a126a08816d7a42ff8019a1676b72", "rental_uris": {"ios": "https://dc.lft.to/lastmile_qr_scan", "android": "https://dc.lft.to/lastmile_qr_scan"}}, {"is_disabled": 0, "fusion_lat": 0.0, "lat": 38.8429735, "type": "electric_scooter", "lon": -76.99947216666666, "is_reserved": 0, "fusion_lon": 0.0, "bike_id": "ef77596547e26cc2e454ab40706f96d9", "name": "ef77596547e26cc2e454ab40706f96d9", "rental_uris": {"ios": "https://dc.lft.to/lastmile_qr_scan", "android": "https://dc.lft.to/lastmile_qr_scan"}}, {"is_disabled": 0, "fusion_lat": 0.0, "lat": 38.90125233333333, "type": "electric_scooter", "lon": -77.00280266666667, "is_reserved": 0, "fusion_lon": 0.0, "bike_id": "3ea4a3c71762b0165d22e3f04f43340c", "name": "3ea4a3c71762b0165d22e3f04f43340c", "rental_uris": {"ios": "https://dc.lft.to/lastmile_qr_scan", "android": "https://dc.lft.to/lastmile_qr_scan"}}, {"is_disabled": 0, "fusion_lat": 0.0, "lat": 38.9188275, "type": "electric_scooter", "lon": -77.0297295, "is_reserved": 0, "fusion_lon": 0.0, "bike_id": "56ef4a93a55ffea30f7cd1564e64f230", "name": "56ef4a93a55ffea30f7cd1564e64f230", "rental_uris": {"ios": "https://dc.lft.to/lastmile_qr_scan", "android": "https://dc.lft.to/lastmile_qr_scan"}}, {"is_disabled": 0, "fusion_lat": 0.0, "lat": 38.893716, "type": "electric_scooter", "lon": -76.95001266666667, "is_reserved": 0, "fusion_lon": 0.0, "bike_id": "f1551142f0f44de31fc6bfe9f683a9c6", "name": "f1551142f0f44de31fc6bfe9f683a9c6", "rental_uris": {"ios": "https://dc.lft.to/lastmile_qr_scan", "android": "https://dc.lft.to/lastmile_qr_scan"}}, {"is_disabled": 0, "fusion_lat": 0.0, "lat": 38.88477916666667, "type": "electric_scooter", "lon": -77.01529666666667, "is_reserved": 0, "fusion_lon": 0.0, "bike_id": "e09b12366fefe69cf22d2609b6557bed", "name": "e09b12366fefe69cf22d2609b6557bed", "rental_uris": {"ios": "https://dc.lft.to/lastmile_qr_scan", "android": "https://dc.lft.to/lastmile_qr_scan"}}, {"is_disabled": 0, "fusion_lat": 0.0, "lat": 38.92142416666667, "type": "electric_scooter", "lon": -77.018, "is_reserved": 0, "fusion_lon": 0.0, "bike_id": "2a6c663afb650059792ee7672a29a4f0", "name": "2a6c663afb650059792ee7672a29a4f0", "rental_uris": {"ios": "https://dc.lft.to/lastmile_qr_scan", "android": "https://dc.lft.to/lastmile_qr_scan"}}, {"is_disabled": 0, "fusion_lat": 0.0, "lat": 38.9175665, "type": "electric_scooter", "lon": -77.038576, "is_reserved": 0, "fusion_lon": 0.0, "bike_id": "c6a8f50589de965518653f5f03a245be", "name": "c6a8f50589de965518653f5f03a245be", "rental_uris": {"ios": "https://dc.lft.to/lastmile_qr_scan", "android": "https://dc.lft.to/lastmile_qr_scan"}}, {"is_disabled": 0, "fusion_lat": 0.0, "lat": 38.88044416666666, "type": "electric_scooter", "lon": -77.01765266666666, "is_reserved": 0, "fusion_lon": 0.0, "bike_id": "80a89920b7bd6f30535585d1204629c1", "name": "80a89920b7bd6f30535585d1204629c1", "rental_uris": {"ios": "https://dc.lft.to/lastmile_qr_scan", "android": "https://dc.lft.to/lastmile_qr_scan"}}, {"is_disabled": 0, "fusion_lat": 0.0, "lat": 38.8976415, "type": "electric_bike", "lon": -76.9043875, "is_reserved": 0, "fusion_lon": 0.0, "bike_id": "42149125a8b74e061ce229f7cda3f614", "name": "42149125a8b74e061ce229f7cda3f614", "rental_uris": {"ios": "https://dc.lft.to/lastmile_qr_scan", "android": "https://dc.lft.to/lastmile_qr_scan"}}, {"is_disabled": 0, "fusion_lat": 0.0, "lat": 38.93097866666667, "type": "electric_scooter", "lon": -77.0266185, "is_reserved": 0, "fusion_lon": 0.0, "bike_id": "322fe4b317c90ab0c8a7f588c140ad9f", "name": "322fe4b317c90ab0c8a7f588c140ad9f", "rental_uris": {"ios": "https://dc.lft.to/lastmile_qr_scan", "android": "https://dc.lft.to/lastmile_qr_scan"}}, {"is_disabled": 0, "fusion_lat": 0.0, "lat": 38.86629516666667, "type": "electric_scooter", "lon": -76.98716066666667, "is_reserved": 0, "fusion_lon": 0.0, "bike_id": "d60599da29fc821c2fe32b7e6d469d57", "name": "d60599da29fc821c2fe32b7e6d469d57", "rental_uris": {"ios": "https://dc.lft.to/lastmile_qr_scan", "android": "https://dc.lft.to/lastmile_qr_scan"}}, {"is_disabled": 0, "fusion_lat": 0.0, "lat": 38.9290635, "type": "electric_scooter", "lon": -77.0640215, "is_reserved": 0, "fusion_lon": 0.0, "bike_id": "4ac03715a27a93bce83af8380abb6c6e", "name": "4ac03715a27a93bce83af8380abb6c6e", "rental_uris": {"ios": "https://dc.lft.to/lastmile_qr_scan", "android": "https://dc.lft.to/lastmile_qr_scan"}}, {"is_disabled": 0, "fusion_lat": 0.0, "lat": 38.8672185, "type": "electric_scooter", "lon": -76.98787416666667, "is_reserved": 0, "fusion_lon": 0.0, "bike_id": "52583be4f08ac2ac049767f4b9d1c27a", "name": "52583be4f08ac2ac049767f4b9d1c27a", "rental_uris": {"ios": "https://dc.lft.to/lastmile_qr_scan", "android": "https://dc.lft.to/lastmile_qr_scan"}}, {"is_disabled": 0, "fusion_lat": 0.0, "lat": 38.91867533333333, "type": "electric_scooter", "lon": -77.04144533333333, "is_reserved": 0, "fusion_lon": 0.0, "bike_id": "f46ed226a687b95c59cdc485e7f40705", "name": "f46ed226a687b95c59cdc485e7f40705", "rental_uris": {"ios": "https://dc.lft.to/lastmile_qr_scan", "android": "https://dc.lft.to/lastmile_qr_scan"}}, {"is_disabled": 0, "fusion_lat": 0.0, "lat": 38.90530183333333, "type": "electric_scooter", "lon": -77.05991966666667, "is_reserved": 0, "fusion_lon": 0.0, "bike_id": "7f7a56624bea242fe6682bc1e5f1e4be", "name": "7f7a56624bea242fe6682bc1e5f1e4be", "rental_uris": {"ios": "https://dc.lft.to/lastmile_qr_scan", "android": "https://dc.lft.to/lastmile_qr_scan"}}, {"is_disabled": 0, "fusion_lat": 0.0, "lat": 38.896752, "type": "electric_scooter", "lon": -77.008935, "is_reserved": 0, "fusion_lon": 0.0, "bike_id": "45e2d0bbd49e2b12043d97106b191103", "name": "45e2d0bbd49e2b12043d97106b191103", "rental_uris": {"ios": "https://dc.lft.to/lastmile_qr_scan", "android": "https://dc.lft.to/lastmile_qr_scan"}}, {"is_disabled": 0, "fusion_lat": 0.0, "lat": 38.90579283333334, "type": "electric_scooter", "lon": -77.0347905, "is_reserved": 0, "fusion_lon": 0.0, "bike_id": "5995d80a8d9cabbc72a1b32a7373ca31", "name": "5995d80a8d9cabbc72a1b32a7373ca31", "rental_uris": {"ios": "https://dc.lft.to/lastmile_qr_scan", "android": "https://dc.lft.to/lastmile_qr_scan"}}, {"is_disabled": 0, "fusion_lat": 0.0, "lat": 38.91681, "type": "electric_scooter", "lon": -77.022034, "is_reserved": 0, "fusion_lon": 0.0, "bike_id": "23066ceb00fad47f53c70a6c7fc45c59", "name": "23066ceb00fad47f53c70a6c7fc45c59", "rental_uris": {"ios": "https://dc.lft.to/lastmile_qr_scan", "android": "https://dc.lft.to/lastmile_qr_scan"}}, {"is_disabled": 0, "fusion_lat": 0.0, "lat": 38.91469716666667, "type": "electric_scooter", "lon": -77.0319545, "is_reserved": 0, "fusion_lon": 0.0, "bike_id": "de802475c77535677bd603450ffc16ec", "name": "de802475c77535677bd603450ffc16ec", "rental_uris": {"ios": "https://dc.lft.to/lastmile_qr_scan", "android": "https://dc.lft.to/lastmile_qr_scan"}}, {"is_disabled": 0, "fusion_lat": 0.0, "lat": 38.956434333333334, "type": "electric_bike", "lon": -76.93885683333333, "is_reserved": 0, "fusion_lon": 0.0, "bike_id": "680de2378da0840be8ad9ca37f9a4324", "name": "680de2378da0840be8ad9ca37f9a4324", "rental_uris": {"ios": "https://dc.lft.to/lastmile_qr_scan", "android": "https://dc.lft.to/lastmile_qr_scan"}}, {"is_disabled": 0, "fusion_lat": 0.0, "lat": 38.885056, "type": "electric_scooter", "lon": -77.0056775, "is_reserved": 0, "fusion_lon": 0.0, "bike_id": "bccfd43ca185d8465e193b953d459a58", "name": "bccfd43ca185d8465e193b953d459a58", "rental_uris": {"ios": "https://dc.lft.to/lastmile_qr_scan", "android": "https://dc.lft.to/lastmile_qr_scan"}}, {"is_disabled": 0, "fusion_lat": 0.0, "lat": 38.90135316666667, "type": "electric_scooter", "lon": -77.04308233333333, "is_reserved": 0, "fusion_lon": 0.0, "bike_id": "8394dd712fe7ef79e8c612f64e55bb7a", "name": "8394dd712fe7ef79e8c612f64e55bb7a", "rental_uris": {"ios": "https://dc.lft.to/lastmile_qr_scan", "android": "https://dc.lft.to/lastmile_qr_scan"}}, {"is_disabled": 0, "fusion_lat": 0.0, "lat": 38.898408333333336, "type": "electric_scooter", "lon": -77.050243, "is_reserved": 0, "fusion_lon": 0.0, "bike_id": "fea66cd3f01d539140a79c4071b69834", "name": "fea66cd3f01d539140a79c4071b69834", "rental_uris": {"ios": "https://dc.lft.to/lastmile_qr_scan", "android": "https://dc.lft.to/lastmile_qr_scan"}}, {"is_disabled": 0, "fusion_lat": 0.0, "lat": 38.932413, "type": "electric_scooter", "lon": -77.0327075, "is_reserved": 0, "fusion_lon": 0.0, "bike_id": "10031a513f4c47aed943b757443e7c81", "name": "10031a513f4c47aed943b757443e7c81", "rental_uris": {"ios": "https://dc.lft.to/lastmile_qr_scan", "android": "https://dc.lft.to/lastmile_qr_scan"}}, {"is_disabled": 0, "fusion_lat": 0.0, "lat": 38.92205233333333, "type": "electric_scooter", "lon": -77.04007466666667, "is_reserved": 0, "fusion_lon": 0.0, "bike_id": "6154fa32dd4cb1098329218a09cfeccd", "name": "6154fa32dd4cb1098329218a09cfeccd", "rental_uris": {"ios": "https://dc.lft.to/lastmile_qr_scan", "android": "https://dc.lft.to/lastmile_qr_scan"}}, {"is_disabled": 0, "fusion_lat": 0.0, "lat": 38.91138433333333, "type": "electric_bike", "lon": -77.04890283333333, "is_reserved": 0, "fusion_lon": 0.0, "bike_id": "243693e6d7ebd7f59bb383fc67b7d44a", "name": "243693e6d7ebd7f59bb383fc67b7d44a", "rental_uris": {"ios": "https://dc.lft.to/lastmile_qr_scan", "android": "https://dc.lft.to/lastmile_qr_scan"}}, {"is_disabled": 0, "fusion_lat": 0.0, "lat": 38.90216616666667, "type": "electric_bike", "lon": -76.9504825, "is_reserved": 0, "fusion_lon": 0.0, "bike_id": "0b7790f3f28233c230c2cebee7ba77b4", "name": "0b7790f3f28233c230c2cebee7ba77b4", "rental_uris": {"ios": "https://dc.lft.to/lastmile_qr_scan", "android": "https://dc.lft.to/lastmile_qr_scan"}}, {"is_disabled": 0, "fusion_lat": 0.0, "lat": 38.9036945, "type": "electric_scooter", "lon": -77.04256283333333, "is_reserved": 0, "fusion_lon": 0.0, "bike_id": "f2b065abc3affbba0124e0f3a4653f7a", "name": "f2b065abc3affbba0124e0f3a4653f7a", "rental_uris": {"ios": "https://dc.lft.to/lastmile_qr_scan", "android": "https://dc.lft.to/lastmile_qr_scan"}}, {"is_disabled": 0, "fusion_lat": 0.0, "lat": 38.92339033333333, "type": "electric_scooter", "lon": -77.0432945, "is_reserved": 0, "fusion_lon": 0.0, "bike_id": "847589c92887e4d17f37e6b32fda4aa5", "name": "847589c92887e4d17f37e6b32fda4aa5", "rental_uris": {"ios": "https://dc.lft.to/lastmile_qr_scan", "android": "https://dc.lft.to/lastmile_qr_scan"}}, {"is_disabled": 0, "fusion_lat": 0.0, "lat": 38.875496, "type": "electric_scooter", "lon": -76.96490716666666, "is_reserved": 0, "fusion_lon": 0.0, "bike_id": "323dcc0b986993eed14d4d52874f9fc1", "name": "323dcc0b986993eed14d4d52874f9fc1", "rental_uris": {"ios": "https://dc.lft.to/lastmile_qr_scan", "android": "https://dc.lft.to/lastmile_qr_scan"}}, {"is_disabled": 0, "fusion_lat": 0.0, "lat": 38.92473116666667, "type": "electric_scooter", "lon": -77.03780116666667, "is_reserved": 0, "fusion_lon": 0.0, "bike_id": "695aaac234f1b64f1e4a7a169bcc4a5e", "name": "695aaac234f1b64f1e4a7a169bcc4a5e", "rental_uris": {"ios": "https://dc.lft.to/lastmile_qr_scan", "android": "https://dc.lft.to/lastmile_qr_scan"}}, {"is_disabled": 0, "fusion_lat": 0.0, "lat": 38.906680333333334, "type": "electric_scooter", "lon": -76.98784566666667, "is_reserved": 0, "fusion_lon": 0.0, "bike_id": "0501d78a547e853f345409e3a5a16c73", "name": "0501d78a547e853f345409e3a5a16c73", "rental_uris": {"ios": "https://dc.lft.to/lastmile_qr_scan", "android": "https://dc.lft.to/lastmile_qr_scan"}}, {"is_disabled": 0, "fusion_lat": 0.0, "lat": 38.93090866666667, "type": "electric_scooter", "lon": -77.03668466666667, "is_reserved": 0, "fusion_lon": 0.0, "bike_id": "e1ecd10df5b4e7bc02c4913ae1a65a53", "name": "e1ecd10df5b4e7bc02c4913ae1a65a53", "rental_uris": {"ios": "https://dc.lft.to/lastmile_qr_scan", "android": "https://dc.lft.to/lastmile_qr_scan"}}, {"is_disabled": 0, "fusion_lat": 0.0, "lat": 38.902719833333336, "type": "electric_scooter", "lon": -77.017331, "is_reserved": 0, "fusion_lon": 0.0, "bike_id": "f6c948b59f8b1336ac5dd3a3ef206617", "name": "f6c948b59f8b1336ac5dd3a3ef206617", "rental_uris": {"ios": "https://dc.lft.to/lastmile_qr_scan", "android": "https://dc.lft.to/lastmile_qr_scan"}}, {"is_disabled": 0, "fusion_lat": 0.0, "lat": 38.907946, "type": "electric_scooter", "lon": -77.03477733333334, "is_reserved": 0, "fusion_lon": 0.0, "bike_id": "15680c1057f6a374becea17560a24240", "name": "15680c1057f6a374becea17560a24240", "rental_uris": {"ios": "https://dc.lft.to/lastmile_qr_scan", "android": "https://dc.lft.to/lastmile_qr_scan"}}, {"is_disabled": 0, "fusion_lat": 0.0, "lat": 38.90411683333333, "type": "electric_scooter", "lon": -76.98100266666667, "is_reserved": 0, "fusion_lon": 0.0, "bike_id": "b921d4580ecf95a1e8daaab60600dad7", "name": "b921d4580ecf95a1e8daaab60600dad7", "rental_uris": {"ios": "https://dc.lft.to/lastmile_qr_scan", "android": "https://dc.lft.to/lastmile_qr_scan"}}, {"is_disabled": 0, "fusion_lat": 0.0, "lat": 38.90003466666667, "type": "electric_scooter", "lon": -77.05254883333333, "is_reserved": 0, "fusion_lon": 0.0, "bike_id": "b16dd6c22322c7eedd10e43497a96012", "name": "b16dd6c22322c7eedd10e43497a96012", "rental_uris": {"ios": "https://dc.lft.to/lastmile_qr_scan", "android": "https://dc.lft.to/lastmile_qr_scan"}}, {"is_disabled": 0, "fusion_lat": 0.0, "lat": 38.958960833333336, "type": "electric_bike", "lon": -76.92477516666666, "is_reserved": 0, "fusion_lon": 0.0, "bike_id": "a5a5294b8062b1f74e6e8bf5eb392d1d", "name": "a5a5294b8062b1f74e6e8bf5eb392d1d", "rental_uris": {"ios": "https://dc.lft.to/lastmile_qr_scan", "android": "https://dc.lft.to/lastmile_qr_scan"}}, {"is_disabled": 0, "fusion_lat": 0.0, "lat": 38.89528116666666, "type": "electric_scooter", "lon": -77.048426, "is_reserved": 0, "fusion_lon": 0.0, "bike_id": "6b2a062ce15531d409e9ea3e10b9a420", "name": "6b2a062ce15531d409e9ea3e10b9a420", "rental_uris": {"ios": "https://dc.lft.to/lastmile_qr_scan", "android": "https://dc.lft.to/lastmile_qr_scan"}}, {"is_disabled": 0, "fusion_lat": 0.0, "lat": 38.910364333333334, "type": "electric_scooter", "lon": -77.04395083333333, "is_reserved": 0, "fusion_lon": 0.0, "bike_id": "62cb68e50fed332a29c80b74547568da", "name": "62cb68e50fed332a29c80b74547568da", "rental_uris": {"ios": "https://dc.lft.to/lastmile_qr_scan", "android": "https://dc.lft.to/lastmile_qr_scan"}}, {"is_disabled": 0, "fusion_lat": 0.0, "lat": 38.9304825, "type": "electric_scooter", "lon": -77.0322465, "is_reserved": 0, "fusion_lon": 0.0, "bike_id": "2289fc7a275f706c86211af9167e9e93", "name": "2289fc7a275f706c86211af9167e9e93", "rental_uris": {"ios": "https://dc.lft.to/lastmile_qr_scan", "android": "https://dc.lft.to/lastmile_qr_scan"}}, {"is_disabled": 0, "fusion_lat": 0.0, "lat": 38.90973183333333, "type": "electric_scooter", "lon": -77.04044033333334, "is_reserved": 0, "fusion_lon": 0.0, "bike_id": "cab37a8033beb25b62dacd7f7158f03d", "name": "cab37a8033beb25b62dacd7f7158f03d", "rental_uris": {"ios": "https://dc.lft.to/lastmile_qr_scan", "android": "https://dc.lft.to/lastmile_qr_scan"}}, {"is_disabled": 0, "fusion_lat": 0.0, "lat": 38.905578, "type": "electric_scooter", "lon": -77.04364083333333, "is_reserved": 0, "fusion_lon": 0.0, "bike_id": "39ca1f47323f460ba222c2c6024de36a", "name": "39ca1f47323f460ba222c2c6024de36a", "rental_uris": {"ios": "https://dc.lft.to/lastmile_qr_scan", "android": "https://dc.lft.to/lastmile_qr_scan"}}, {"is_disabled": 0, "fusion_lat": 0.0, "lat": 38.890523, "type": "electric_scooter", "lon": -76.94084716666667, "is_reserved": 0, "fusion_lon": 0.0, "bike_id": "c53e2242b2df346762654b2a19a51af8", "name": "c53e2242b2df346762654b2a19a51af8", "rental_uris": {"ios": "https://dc.lft.to/lastmile_qr_scan", "android": "https://dc.lft.to/lastmile_qr_scan"}}, {"is_disabled": 0, "fusion_lat": 0.0, "lat": 38.9308405, "type": "electric_scooter", "lon": -77.031238, "is_reserved": 0, "fusion_lon": 0.0, "bike_id": "d8c801393ada39ccfd680b38fab6baf8", "name": "d8c801393ada39ccfd680b38fab6baf8", "rental_uris": {"ios": "https://dc.lft.to/lastmile_qr_scan", "android": "https://dc.lft.to/lastmile_qr_scan"}}, {"is_disabled": 0, "fusion_lat": 0.0, "lat": 38.89736516666667, "type": "electric_scooter", "lon": -77.05563166666667, "is_reserved": 0, "fusion_lon": 0.0, "bike_id": "82653fb313e9f47645d739beb6b050b3", "name": "82653fb313e9f47645d739beb6b050b3", "rental_uris": {"ios": "https://dc.lft.to/lastmile_qr_scan", "android": "https://dc.lft.to/lastmile_qr_scan"}}, {"is_disabled": 0, "fusion_lat": 0.0, "lat": 38.902095, "type": "electric_scooter", "lon": -76.9884665, "is_reserved": 0, "fusion_lon": 0.0, "bike_id": "8edc57a18b4d9781b6470b6891e0b88d", "name": "8edc57a18b4d9781b6470b6891e0b88d", "rental_uris": {"ios": "https://dc.lft.to/lastmile_qr_scan", "android": "https://dc.lft.to/lastmile_qr_scan"}}, {"is_disabled": 0, "fusion_lat": 0.0, "lat": 38.893807333333335, "type": "electric_scooter", "lon": -77.0477965, "is_reserved": 0, "fusion_lon": 0.0, "bike_id": "120d2775649355097555575842d22328", "name": "120d2775649355097555575842d22328", "rental_uris": {"ios": "https://dc.lft.to/lastmile_qr_scan", "android": "https://dc.lft.to/lastmile_qr_scan"}}, {"is_disabled": 0, "fusion_lat": 0.0, "lat": 38.942446833333335, "type": "electric_scooter", "lon": -77.07235233333333, "is_reserved": 0, "fusion_lon": 0.0, "bike_id": "c08e4ecdca00f21e231de1760026d228", "name": "c08e4ecdca00f21e231de1760026d228", "rental_uris": {"ios": "https://dc.lft.to/lastmile_qr_scan", "android": "https://dc.lft.to/lastmile_qr_scan"}}, {"is_disabled": 0, "fusion_lat": 0.0, "lat": 38.9490405, "type": "electric_bike", "lon": -76.97234433333334, "is_reserved": 0, "fusion_lon": 0.0, "bike_id": "b0194f6b2d2179aef0358ac16e882d34", "name": "b0194f6b2d2179aef0358ac16e882d34", "rental_uris": {"ios": "https://dc.lft.to/lastmile_qr_scan", "android": "https://dc.lft.to/lastmile_qr_scan"}}, {"is_disabled": 0, "fusion_lat": 0.0, "lat": 38.888680666666666, "type": "electric_bike", "lon": -76.99470083333334, "is_reserved": 0, "fusion_lon": 0.0, "bike_id": "3fbaf85f9322e8dbc309bb6dceb4d126", "name": "3fbaf85f9322e8dbc309bb6dceb4d126", "rental_uris": {"ios": "https://dc.lft.to/lastmile_qr_scan", "android": "https://dc.lft.to/lastmile_qr_scan"}}, {"is_disabled": 0, "fusion_lat": 0.0, "lat": 38.920079666666666, "type": "electric_scooter", "lon": -77.0218795, "is_reserved": 0, "fusion_lon": 0.0, "bike_id": "e7ba14850814ea210d036b4583c7e3d8", "name": "e7ba14850814ea210d036b4583c7e3d8", "rental_uris": {"ios": "https://dc.lft.to/lastmile_qr_scan", "android": "https://dc.lft.to/lastmile_qr_scan"}}, {"is_disabled": 0, "fusion_lat": 0.0, "lat": 38.8556015, "type": "electric_scooter", "lon": -76.99496383333333, "is_reserved": 0, "fusion_lon": 0.0, "bike_id": "d9955a7e752c34d588351ce0730ba2eb", "name": "d9955a7e752c34d588351ce0730ba2eb", "rental_uris": {"ios": "https://dc.lft.to/lastmile_qr_scan", "android": "https://dc.lft.to/lastmile_qr_scan"}}, {"is_disabled": 0, "fusion_lat": 0.0, "lat": 38.90285766666667, "type": "electric_scooter", "lon": -77.04038683333333, "is_reserved": 0, "fusion_lon": 0.0, "bike_id": "b8d39dd1f67cda37b2458d5107982562", "name": "b8d39dd1f67cda37b2458d5107982562", "rental_uris": {"ios": "https://dc.lft.to/lastmile_qr_scan", "android": "https://dc.lft.to/lastmile_qr_scan"}}, {"is_disabled": 0, "fusion_lat": 0.0, "lat": 38.927252333333335, "type": "electric_scooter", "lon": -77.036552, "is_reserved": 0, "fusion_lon": 0.0, "bike_id": "5d6f47645fbb288def73268322bfdcbf", "name": "5d6f47645fbb288def73268322bfdcbf", "rental_uris": {"ios": "https://dc.lft.to/lastmile_qr_scan", "android": "https://dc.lft.to/lastmile_qr_scan"}}, {"is_disabled": 0, "fusion_lat": 0.0, "lat": 38.93247083333333, "type": "electric_scooter", "lon": -77.02946466666667, "is_reserved": 0, "fusion_lon": 0.0, "bike_id": "82b1c712b5272b34c925fa29a282942d", "name": "82b1c712b5272b34c925fa29a282942d", "rental_uris": {"ios": "https://dc.lft.to/lastmile_qr_scan", "android": "https://dc.lft.to/lastmile_qr_scan"}}, {"is_disabled": 0, "fusion_lat": 0.0, "lat": 38.91560166666667, "type": "electric_scooter", "lon": -77.02158383333334, "is_reserved": 0, "fusion_lon": 0.0, "bike_id": "87b9e2ef89f8526a3f802664513ef188", "name": "87b9e2ef89f8526a3f802664513ef188", "rental_uris": {"ios": "https://dc.lft.to/lastmile_qr_scan", "android": "https://dc.lft.to/lastmile_qr_scan"}}, {"is_disabled": 0, "fusion_lat": 0.0, "lat": 38.917452, "type": "electric_scooter", "lon": -77.0346995, "is_reserved": 0, "fusion_lon": 0.0, "bike_id": "359a4742545ed75d83bb3815766c463d", "name": "359a4742545ed75d83bb3815766c463d", "rental_uris": {"ios": "https://dc.lft.to/lastmile_qr_scan", "android": "https://dc.lft.to/lastmile_qr_scan"}}, {"is_disabled": 0, "fusion_lat": 0.0, "lat": 38.92456466666667, "type": "electric_bike", "lon": -76.97557866666666, "is_reserved": 0, "fusion_lon": 0.0, "bike_id": "54986c3cafabb71fdca5439e304c322e", "name": "54986c3cafabb71fdca5439e304c322e", "rental_uris": {"ios": "https://dc.lft.to/lastmile_qr_scan", "android": "https://dc.lft.to/lastmile_qr_scan"}}, {"is_disabled": 0, "fusion_lat": 0.0, "lat": 38.9101975, "type": "electric_scooter", "lon": -77.054645, "is_reserved": 0, "fusion_lon": 0.0, "bike_id": "4031ebedc0644dc28458fc70216d2345", "name": "4031ebedc0644dc28458fc70216d2345", "rental_uris": {"ios": "https://dc.lft.to/lastmile_qr_scan", "android": "https://dc.lft.to/lastmile_qr_scan"}}, {"is_disabled": 0, "fusion_lat": 0.0, "lat": 38.890652333333335, "type": "electric_scooter", "lon": -76.943304, "is_reserved": 0, "fusion_lon": 0.0, "bike_id": "4133e870906a91dfe369ab1ae7564321", "name": "4133e870906a91dfe369ab1ae7564321", "rental_uris": {"ios": "https://dc.lft.to/lastmile_qr_scan", "android": "https://dc.lft.to/lastmile_qr_scan"}}, {"is_disabled": 0, "fusion_lat": 0.0, "lat": 38.91298116666667, "type": "electric_scooter", "lon": -77.04347433333334, "is_reserved": 0, "fusion_lon": 0.0, "bike_id": "1427f0c576bcfcfd6be771c40c981b0c", "name": "1427f0c576bcfcfd6be771c40c981b0c", "rental_uris": {"ios": "https://dc.lft.to/lastmile_qr_scan", "android": "https://dc.lft.to/lastmile_qr_scan"}}, {"is_disabled": 0, "fusion_lat": 0.0, "lat": 38.920705833333336, "type": "electric_scooter", "lon": -77.02382766666666, "is_reserved": 0, "fusion_lon": 0.0, "bike_id": "cb06e7a6a21eb24f19d135c7597e2a7d", "name": "cb06e7a6a21eb24f19d135c7597e2a7d", "rental_uris": {"ios": "https://dc.lft.to/lastmile_qr_scan", "android": "https://dc.lft.to/lastmile_qr_scan"}}, {"is_disabled": 0, "fusion_lat": 0.0, "lat": 38.941671666666664, "type": "electric_scooter", "lon": -77.02534483333334, "is_reserved": 0, "fusion_lon": 0.0, "bike_id": "8aee4aa103492b069e706d279ebbf7e7", "name": "8aee4aa103492b069e706d279ebbf7e7", "rental_uris": {"ios": "https://dc.lft.to/lastmile_qr_scan", "android": "https://dc.lft.to/lastmile_qr_scan"}}, {"is_disabled": 0, "fusion_lat": 0.0, "lat": 38.919241, "type": "electric_scooter", "lon": -77.0249075, "is_reserved": 0, "fusion_lon": 0.0, "bike_id": "7cd617a05c2abc1356d97ae4183df0f4", "name": "7cd617a05c2abc1356d97ae4183df0f4", "rental_uris": {"ios": "https://dc.lft.to/lastmile_qr_scan", "android": "https://dc.lft.to/lastmile_qr_scan"}}, {"is_disabled": 0, "fusion_lat": 0.0, "lat": 38.8661485, "type": "electric_bike", "lon": -76.945711, "is_reserved": 0, "fusion_lon": 0.0, "bike_id": "c8efc4fcfcdf4cf4940708af36748ff6", "name": "c8efc4fcfcdf4cf4940708af36748ff6", "rental_uris": {"ios": "https://dc.lft.to/lastmile_qr_scan", "android": "https://dc.lft.to/lastmile_qr_scan"}}, {"is_disabled": 0, "fusion_lat": 0.0, "lat": 38.907287, "type": "electric_scooter", "lon": -76.99792733333334, "is_reserved": 0, "fusion_lon": 0.0, "bike_id": "bbc6664ac6b8a35154d532f0cf00774b", "name": "bbc6664ac6b8a35154d532f0cf00774b", "rental_uris": {"ios": "https://dc.lft.to/lastmile_qr_scan", "android": "https://dc.lft.to/lastmile_qr_scan"}}, {"is_disabled": 0, "fusion_lat": 0.0, "lat": 38.912585166666666, "type": "electric_scooter", "lon": -77.03276133333334, "is_reserved": 0, "fusion_lon": 0.0, "bike_id": "4d41c9018392e076f93ca55bb09b32ad", "name": "4d41c9018392e076f93ca55bb09b32ad", "rental_uris": {"ios": "https://dc.lft.to/lastmile_qr_scan", "android": "https://dc.lft.to/lastmile_qr_scan"}}, {"is_disabled": 0, "fusion_lat": 0.0, "lat": 38.8829715, "type": "electric_scooter", "lon": -76.99136066666667, "is_reserved": 0, "fusion_lon": 0.0, "bike_id": "0141241a34be47a61d700c516602bc5b", "name": "0141241a34be47a61d700c516602bc5b", "rental_uris": {"ios": "https://dc.lft.to/lastmile_qr_scan", "android": "https://dc.lft.to/lastmile_qr_scan"}}, {"is_disabled": 0, "fusion_lat": 0.0, "lat": 38.905226, "type": "electric_scooter", "lon": -77.02503866666666, "is_reserved": 0, "fusion_lon": 0.0, "bike_id": "ca5c678ba2d855e9315cd337c8bac78b", "name": "ca5c678ba2d855e9315cd337c8bac78b", "rental_uris": {"ios": "https://dc.lft.to/lastmile_qr_scan", "android": "https://dc.lft.to/lastmile_qr_scan"}}, {"is_disabled": 0, "fusion_lat": 0.0, "lat": 38.91849916666666, "type": "electric_scooter", "lon": -77.03223733333333, "is_reserved": 0, "fusion_lon": 0.0, "bike_id": "6496cf11faf3b7351e21202be2b1145f", "name": "6496cf11faf3b7351e21202be2b1145f", "rental_uris": {"ios": "https://dc.lft.to/lastmile_qr_scan", "android": "https://dc.lft.to/lastmile_qr_scan"}}, {"is_disabled": 0, "fusion_lat": 0.0, "lat": 38.90285316666667, "type": "electric_scooter", "lon": -77.04119633333333, "is_reserved": 0, "fusion_lon": 0.0, "bike_id": "e4799322929262f6483a72e9fca1ea55", "name": "e4799322929262f6483a72e9fca1ea55", "rental_uris": {"ios": "https://dc.lft.to/lastmile_qr_scan", "android": "https://dc.lft.to/lastmile_qr_scan"}}, {"is_disabled": 0, "fusion_lat": 0.0, "lat": 38.8974435, "type": "electric_bike", "lon": -76.99221283333333, "is_reserved": 0, "fusion_lon": 0.0, "bike_id": "fd52c688b7d42809b3f3e36491955334", "name": "fd52c688b7d42809b3f3e36491955334", "rental_uris": {"ios": "https://dc.lft.to/lastmile_qr_scan", "android": "https://dc.lft.to/lastmile_qr_scan"}}, {"is_disabled": 0, "fusion_lat": 0.0, "lat": 38.92467666666667, "type": "electric_bike", "lon": -77.20836183333333, "is_reserved": 0, "fusion_lon": 0.0, "bike_id": "df138f2a7ad34ca8bb6a938470a99ab2", "name": "df138f2a7ad34ca8bb6a938470a99ab2", "rental_uris": {"ios": "https://dc.lft.to/lastmile_qr_scan", "android": "https://dc.lft.to/lastmile_qr_scan"}}, {"is_disabled": 0, "fusion_lat": 0.0, "lat": 38.915621, "type": "electric_scooter", "lon": -77.0316305, "is_reserved": 0, "fusion_lon": 0.0, "bike_id": "bc75ae8b7f920932ff27d58cdf32b265", "name": "bc75ae8b7f920932ff27d58cdf32b265", "rental_uris": {"ios": "https://dc.lft.to/lastmile_qr_scan", "android": "https://dc.lft.to/lastmile_qr_scan"}}, {"is_disabled": 0, "fusion_lat": 0.0, "lat": 38.858092166666665, "type": "electric_scooter", "lon": -76.98652716666666, "is_reserved": 0, "fusion_lon": 0.0, "bike_id": "369a03d17a9eb721cead849fef999025", "name": "369a03d17a9eb721cead849fef999025", "rental_uris": {"ios": "https://dc.lft.to/lastmile_qr_scan", "android": "https://dc.lft.to/lastmile_qr_scan"}}, {"is_disabled": 0, "fusion_lat": 0.0, "lat": 38.936032833333336, "type": "electric_scooter", "lon": -77.02332916666667, "is_reserved": 0, "fusion_lon": 0.0, "bike_id": "e79c9d025d89f25ff86f1a700f88a815", "name": "e79c9d025d89f25ff86f1a700f88a815", "rental_uris": {"ios": "https://dc.lft.to/lastmile_qr_scan", "android": "https://dc.lft.to/lastmile_qr_scan"}}, {"is_disabled": 0, "fusion_lat": 0.0, "lat": 38.917276666666666, "type": "electric_scooter", "lon": -77.041748, "is_reserved": 0, "fusion_lon": 0.0, "bike_id": "31bdbd3907f1afc257c28fdb60035338", "name": "31bdbd3907f1afc257c28fdb60035338", "rental_uris": {"ios": "https://dc.lft.to/lastmile_qr_scan", "android": "https://dc.lft.to/lastmile_qr_scan"}}, {"is_disabled": 0, "fusion_lat": 0.0, "lat": 38.89186133333333, "type": "electric_bike", "lon": -77.122585, "is_reserved": 0, "fusion_lon": 0.0, "bike_id": "c91ed0da08b4a3e62e976ed0e760317b", "name": "c91ed0da08b4a3e62e976ed0e760317b", "rental_uris": {"ios": "https://dc.lft.to/lastmile_qr_scan", "android": "https://dc.lft.to/lastmile_qr_scan"}}, {"is_disabled": 0, "fusion_lat": 0.0, "lat": 38.878468833333336, "type": "electric_scooter", "lon": -77.02266216666666, "is_reserved": 0, "fusion_lon": 0.0, "bike_id": "ccebecdc57b4e4a7f9546f8d6cff3622", "name": "ccebecdc57b4e4a7f9546f8d6cff3622", "rental_uris": {"ios": "https://dc.lft.to/lastmile_qr_scan", "android": "https://dc.lft.to/lastmile_qr_scan"}}, {"is_disabled": 0, "fusion_lat": 0.0, "lat": 38.91548483333333, "type": "electric_scooter", "lon": -77.04171133333334, "is_reserved": 0, "fusion_lon": 0.0, "bike_id": "eb96b12d71058ef01e0348ede02ec861", "name": "eb96b12d71058ef01e0348ede02ec861", "rental_uris": {"ios": "https://dc.lft.to/lastmile_qr_scan", "android": "https://dc.lft.to/lastmile_qr_scan"}}, {"is_disabled": 0, "fusion_lat": 0.0, "lat": 38.92479983333333, "type": "electric_scooter", "lon": -77.02545566666667, "is_reserved": 0, "fusion_lon": 0.0, "bike_id": "6a9aceb019fe0be6e130b72a4ff07fd8", "name": "6a9aceb019fe0be6e130b72a4ff07fd8", "rental_uris": {"ios": "https://dc.lft.to/lastmile_qr_scan", "android": "https://dc.lft.to/lastmile_qr_scan"}}, {"is_disabled": 0, "fusion_lat": 0.0, "lat": 38.927444333333334, "type": "electric_scooter", "lon": -77.02532216666667, "is_reserved": 0, "fusion_lon": 0.0, "bike_id": "d60ce75bf555568ea73e4106833c1c68", "name": "d60ce75bf555568ea73e4106833c1c68", "rental_uris": {"ios": "https://dc.lft.to/lastmile_qr_scan", "android": "https://dc.lft.to/lastmile_qr_scan"}}, {"is_disabled": 0, "fusion_lat": 0.0, "lat": 38.90514833333334, "type": "electric_scooter", "lon": -77.06862333333333, "is_reserved": 0, "fusion_lon": 0.0, "bike_id": "9eeba4fac5516367c105e0bcfcadaca1", "name": "9eeba4fac5516367c105e0bcfcadaca1", "rental_uris": {"ios": "https://dc.lft.to/lastmile_qr_scan", "android": "https://dc.lft.to/lastmile_qr_scan"}}, {"is_disabled": 0, "fusion_lat": 0.0, "lat": 38.898852166666664, "type": "electric_scooter", "lon": -76.93175733333334, "is_reserved": 0, "fusion_lon": 0.0, "bike_id": "92b6b5377c6ab163c406b8999e6fadf3", "name": "92b6b5377c6ab163c406b8999e6fadf3", "rental_uris": {"ios": "https://dc.lft.to/lastmile_qr_scan", "android": "https://dc.lft.to/lastmile_qr_scan"}}, {"is_disabled": 0, "fusion_lat": 0.0, "lat": 38.897101166666666, "type": "electric_scooter", "lon": -77.03108633333333, "is_reserved": 0, "fusion_lon": 0.0, "bike_id": "cafe0c36d66ad5d13fe31e890709989b", "name": "cafe0c36d66ad5d13fe31e890709989b", "rental_uris": {"ios": "https://dc.lft.to/lastmile_qr_scan", "android": "https://dc.lft.to/lastmile_qr_scan"}}, {"is_disabled": 0, "fusion_lat": 0.0, "lat": 38.90118566666666, "type": "electric_scooter", "lon": -77.04387366666667, "is_reserved": 0, "fusion_lon": 0.0, "bike_id": "f92cd414a4e8bd637931f2861592ea35", "name": "f92cd414a4e8bd637931f2861592ea35", "rental_uris": {"ios": "https://dc.lft.to/lastmile_qr_scan", "android": "https://dc.lft.to/lastmile_qr_scan"}}, {"is_disabled": 0, "fusion_lat": 0.0, "lat": 38.92450866666667, "type": "electric_bike", "lon": -76.996586, "is_reserved": 0, "fusion_lon": 0.0, "bike_id": "ed7fb743b194efaadecaf30685faefb2", "name": "ed7fb743b194efaadecaf30685faefb2", "rental_uris": {"ios": "https://dc.lft.to/lastmile_qr_scan", "android": "https://dc.lft.to/lastmile_qr_scan"}}, {"is_disabled": 0, "fusion_lat": 0.0, "lat": 38.9124935, "type": "electric_scooter", "lon": -77.01625616666666, "is_reserved": 0, "fusion_lon": 0.0, "bike_id": "daa4cabf49c798e8bb74f9c8fb4c1380", "name": "daa4cabf49c798e8bb74f9c8fb4c1380", "rental_uris": {"ios": "https://dc.lft.to/lastmile_qr_scan", "android": "https://dc.lft.to/lastmile_qr_scan"}}, {"is_disabled": 0, "fusion_lat": 0.0, "lat": 38.9225945, "type": "electric_scooter", "lon": -77.0426125, "is_reserved": 0, "fusion_lon": 0.0, "bike_id": "0175a36cc9cf3d06dbdab6a52baeab88", "name": "0175a36cc9cf3d06dbdab6a52baeab88", "rental_uris": {"ios": "https://dc.lft.to/lastmile_qr_scan", "android": "https://dc.lft.to/lastmile_qr_scan"}}, {"is_disabled": 0, "fusion_lat": 0.0, "lat": 38.927620166666664, "type": "electric_scooter", "lon": -77.00588183333333, "is_reserved": 0, "fusion_lon": 0.0, "bike_id": "5c48d41193f786e69e1c9530e1b40e74", "name": "5c48d41193f786e69e1c9530e1b40e74", "rental_uris": {"ios": "https://dc.lft.to/lastmile_qr_scan", "android": "https://dc.lft.to/lastmile_qr_scan"}}, {"is_disabled": 0, "fusion_lat": 0.0, "lat": 38.906129, "type": "electric_scooter", "lon": -77.039843, "is_reserved": 0, "fusion_lon": 0.0, "bike_id": "5eef8a02c92fb57539458cfb8c41118d", "name": "5eef8a02c92fb57539458cfb8c41118d", "rental_uris": {"ios": "https://dc.lft.to/lastmile_qr_scan", "android": "https://dc.lft.to/lastmile_qr_scan"}}, {"is_disabled": 0, "fusion_lat": 0.0, "lat": 38.906000166666665, "type": "electric_scooter", "lon": -77.05898816666667, "is_reserved": 0, "fusion_lon": 0.0, "bike_id": "19a1f388641f3198e8a0c8e06bcebd0c", "name": "19a1f388641f3198e8a0c8e06bcebd0c", "rental_uris": {"ios": "https://dc.lft.to/lastmile_qr_scan", "android": "https://dc.lft.to/lastmile_qr_scan"}}, {"is_disabled": 0, "fusion_lat": 0.0, "lat": 38.907217333333335, "type": "electric_scooter", "lon": -77.0232285, "is_reserved": 0, "fusion_lon": 0.0, "bike_id": "ecd80928127c35fc177277d7a80a1855", "name": "ecd80928127c35fc177277d7a80a1855", "rental_uris": {"ios": "https://dc.lft.to/lastmile_qr_scan", "android": "https://dc.lft.to/lastmile_qr_scan"}}, {"is_disabled": 0, "fusion_lat": 0.0, "lat": 38.9198055, "type": "electric_scooter", "lon": -77.04184933333333, "is_reserved": 0, "fusion_lon": 0.0, "bike_id": "177fb43eba8c3ddee134f5664a59e019", "name": "177fb43eba8c3ddee134f5664a59e019", "rental_uris": {"ios": "https://dc.lft.to/lastmile_qr_scan", "android": "https://dc.lft.to/lastmile_qr_scan"}}, {"is_disabled": 0, "fusion_lat": 0.0, "lat": 38.83810283333333, "type": "electric_bike", "lon": -77.09520483333333, "is_reserved": 0, "fusion_lon": 0.0, "bike_id": "a95a9aab1b92159eb1f1e318c730ee91", "name": "a95a9aab1b92159eb1f1e318c730ee91", "rental_uris": {"ios": "https://dc.lft.to/lastmile_qr_scan", "android": "https://dc.lft.to/lastmile_qr_scan"}}, {"is_disabled": 0, "fusion_lat": 0.0, "lat": 38.866641333333334, "type": "electric_scooter", "lon": -76.9890145, "is_reserved": 0, "fusion_lon": 0.0, "bike_id": "1eb1d09aae17d1715403e7e9d6001e61", "name": "1eb1d09aae17d1715403e7e9d6001e61", "rental_uris": {"ios": "https://dc.lft.to/lastmile_qr_scan", "android": "https://dc.lft.to/lastmile_qr_scan"}}, {"is_disabled": 0, "fusion_lat": 0.0, "lat": 38.8762975, "type": "electric_scooter", "lon": -76.96528583333334, "is_reserved": 0, "fusion_lon": 0.0, "bike_id": "8b799eac0e9ec273b0394c8f7c014f5c", "name": "8b799eac0e9ec273b0394c8f7c014f5c", "rental_uris": {"ios": "https://dc.lft.to/lastmile_qr_scan", "android": "https://dc.lft.to/lastmile_qr_scan"}}, {"is_disabled": 0, "fusion_lat": 0.0, "lat": 38.865232666666664, "type": "electric_scooter", "lon": -76.99032483333333, "is_reserved": 0, "fusion_lon": 0.0, "bike_id": "f9c5d4ded83af1293e9bf40c320d128d", "name": "f9c5d4ded83af1293e9bf40c320d128d", "rental_uris": {"ios": "https://dc.lft.to/lastmile_qr_scan", "android": "https://dc.lft.to/lastmile_qr_scan"}}, {"is_disabled": 0, "fusion_lat": 0.0, "lat": 38.94633316666667, "type": "electric_scooter", "lon": -77.018398, "is_reserved": 0, "fusion_lon": 0.0, "bike_id": "9bbba0136254be87fac669e485f7059f", "name": "9bbba0136254be87fac669e485f7059f", "rental_uris": {"ios": "https://dc.lft.to/lastmile_qr_scan", "android": "https://dc.lft.to/lastmile_qr_scan"}}, {"is_disabled": 0, "fusion_lat": 0.0, "lat": 38.925702666666666, "type": "electric_scooter", "lon": -77.05260416666667, "is_reserved": 0, "fusion_lon": 0.0, "bike_id": "2239372b5dbac793202db72c15d7d6f8", "name": "2239372b5dbac793202db72c15d7d6f8", "rental_uris": {"ios": "https://dc.lft.to/lastmile_qr_scan", "android": "https://dc.lft.to/lastmile_qr_scan"}}, {"is_disabled": 0, "fusion_lat": 0.0, "lat": 38.89739683333333, "type": "electric_scooter", "lon": -76.93847633333333, "is_reserved": 0, "fusion_lon": 0.0, "bike_id": "9a7a64b03e360a1b03ea82279dc618ec", "name": "9a7a64b03e360a1b03ea82279dc618ec", "rental_uris": {"ios": "https://dc.lft.to/lastmile_qr_scan", "android": "https://dc.lft.to/lastmile_qr_scan"}}, {"is_disabled": 0, "fusion_lat": 0.0, "lat": 38.921240833333336, "type": "electric_scooter", "lon": -77.045811, "is_reserved": 0, "fusion_lon": 0.0, "bike_id": "af67a88ac3537e88da6902de1dc750ae", "name": "af67a88ac3537e88da6902de1dc750ae", "rental_uris": {"ios": "https://dc.lft.to/lastmile_qr_scan", "android": "https://dc.lft.to/lastmile_qr_scan"}}, {"is_disabled": 0, "fusion_lat": 0.0, "lat": 38.9146165, "type": "electric_scooter", "lon": -76.98428033333333, "is_reserved": 0, "fusion_lon": 0.0, "bike_id": "0c9f6998f78233742b124790501fa263", "name": "0c9f6998f78233742b124790501fa263", "rental_uris": {"ios": "https://dc.lft.to/lastmile_qr_scan", "android": "https://dc.lft.to/lastmile_qr_scan"}}, {"is_disabled": 0, "fusion_lat": 0.0, "lat": 38.91967116666667, "type": "electric_scooter", "lon": -77.02709333333334, "is_reserved": 0, "fusion_lon": 0.0, "bike_id": "14377f11227619f4ea44911e4e6e6c6b", "name": "14377f11227619f4ea44911e4e6e6c6b", "rental_uris": {"ios": "https://dc.lft.to/lastmile_qr_scan", "android": "https://dc.lft.to/lastmile_qr_scan"}}, {"is_disabled": 0, "fusion_lat": 0.0, "lat": 38.83868866666667, "type": "electric_bike", "lon": -76.996965, "is_reserved": 0, "fusion_lon": 0.0, "bike_id": "31d874a95a9fc8f8b0dc9dd8a998520b", "name": "31d874a95a9fc8f8b0dc9dd8a998520b", "rental_uris": {"ios": "https://dc.lft.to/lastmile_qr_scan", "android": "https://dc.lft.to/lastmile_qr_scan"}}, {"is_disabled": 0, "fusion_lat": 0.0, "lat": 38.912748666666666, "type": "electric_scooter", "lon": -77.03379816666667, "is_reserved": 0, "fusion_lon": 0.0, "bike_id": "0af2b59cb97a9d64242eab989a8f2ef2", "name": "0af2b59cb97a9d64242eab989a8f2ef2", "rental_uris": {"ios": "https://dc.lft.to/lastmile_qr_scan", "android": "https://dc.lft.to/lastmile_qr_scan"}}, {"is_disabled": 0, "fusion_lat": 0.0, "lat": 38.94048333333333, "type": "electric_scooter", "lon": -77.02978283333333, "is_reserved": 0, "fusion_lon": 0.0, "bike_id": "8fa173ccdd01e198c9cf5b9494d48e48", "name": "8fa173ccdd01e198c9cf5b9494d48e48", "rental_uris": {"ios": "https://dc.lft.to/lastmile_qr_scan", "android": "https://dc.lft.to/lastmile_qr_scan"}}, {"is_disabled": 0, "fusion_lat": 0.0, "lat": 38.91677283333333, "type": "electric_scooter", "lon": -77.02412783333334, "is_reserved": 0, "fusion_lon": 0.0, "bike_id": "e7dd4186889e6863e2e9e8f8b12a8e86", "name": "e7dd4186889e6863e2e9e8f8b12a8e86", "rental_uris": {"ios": "https://dc.lft.to/lastmile_qr_scan", "android": "https://dc.lft.to/lastmile_qr_scan"}}, {"is_disabled": 0, "fusion_lat": 0.0, "lat": 38.9226365, "type": "electric_scooter", "lon": -77.0412625, "is_reserved": 0, "fusion_lon": 0.0, "bike_id": "977f2471772b18960a3b0e2b1e11b40f", "name": "977f2471772b18960a3b0e2b1e11b40f", "rental_uris": {"ios": "https://dc.lft.to/lastmile_qr_scan", "android": "https://dc.lft.to/lastmile_qr_scan"}}, {"is_disabled": 0, "fusion_lat": 0.0, "lat": 38.898877666666664, "type": "electric_scooter", "lon": -76.93174833333333, "is_reserved": 0, "fusion_lon": 0.0, "bike_id": "7859684f8be10b81760368a77d6f1702", "name": "7859684f8be10b81760368a77d6f1702", "rental_uris": {"ios": "https://dc.lft.to/lastmile_qr_scan", "android": "https://dc.lft.to/lastmile_qr_scan"}}, {"is_disabled": 0, "fusion_lat": 0.0, "lat": 38.91482166666667, "type": "electric_scooter", "lon": -77.0094345, "is_reserved": 0, "fusion_lon": 0.0, "bike_id": "c8ce2b99e35a79c680d0a30cd45b984a", "name": "c8ce2b99e35a79c680d0a30cd45b984a", "rental_uris": {"ios": "https://dc.lft.to/lastmile_qr_scan", "android": "https://dc.lft.to/lastmile_qr_scan"}}, {"is_disabled": 0, "fusion_lat": 0.0, "lat": 38.93863566666667, "type": "electric_scooter", "lon": -77.02491283333333, "is_reserved": 0, "fusion_lon": 0.0, "bike_id": "63a84a400d1e415c5a9e400a4615fda1", "name": "63a84a400d1e415c5a9e400a4615fda1", "rental_uris": {"ios": "https://dc.lft.to/lastmile_qr_scan", "android": "https://dc.lft.to/lastmile_qr_scan"}},