{"data": {"bikes": [{"type": "electric_scooter", "name": "3cacadaf7eb94d4fa29bb01810fa8a6c", "fusion_lat": 0.0, "fusion_lon": 0.0, "lon": -77.03535, "is_disabled": 0, "bike_id": "3cacadaf7eb94d4fa29bb01810fa8a6c", "is_reserved": 0, "rental_uris": {"android": "https://dc.lft.to/lastmile_qr_scan", "ios": "https://dc.lft.to/lastmile_qr_scan"}, "lat": 38.902816}, {"type": "electric_scooter", "name": "aec703110a6e0c164397ad4e0ba2b0b0", "fusion_lat": 0.0, "fusion_lon": 0.0, "lon": -77.000634, "is_disabled": 0, "bike_id": "aec703110a6e0c164397ad4e0ba2b0b0", "is_reserved": 0, "rental_uris": {"android": "https://dc.lft.to/lastmile_qr_scan", "ios": "https://dc.lft.to/lastmile_qr_scan"}, "lat": 38.88111383333333}, {"type": "electric_scooter", "name": "97ddb31a3b10dee34799db412e7da2c0", "fusion_lat": 0.0, "fusion_lon": 0.0, "lon": -77.04465, "is_disabled": 0, "bike_id": "97ddb31a3b10dee34799db412e7da2c0", "is_reserved": 0, "rental_uris": {"android": "https://dc.lft.to/lastmile_qr_scan", "ios": "https://dc.lft.to/lastmile_qr_scan"}, "lat": 38.91877216666666}, {"type": "electric_scooter", "name": "a8ab48bf49b408649e5e9422cae3607e", "fusion_lat": 0.0, "fusion_lon": 0.0, "lon": -76.99958733333334, "is_disabled": 0, "bike_id": "a8ab48bf49b408649e5e9422cae3607e", "is_reserved": 0, "rental_uris": {"android": "https://dc.lft.to/lastmile_qr_scan", "ios": "https://dc.lft.to/lastmile_qr_scan"}, "lat": 38.901056833333335}, {"type": "electric_scooter", "name": "cb1b866505bae1e1635db1aac890244a", "fusion_lat": 0.0, "fusion_lon": 0.0, "lon": -77.03441366666667, "is_disabled": 0, "bike_id": "cb1b866505bae1e1635db1aac890244a", "is_reserved": 0, "rental_uris": {"android": "https://dc.lft.to/lastmile_qr_scan", "ios": "https://dc.lft.to/lastmile_qr_scan"}, "lat": 38.920529}, {"type": "electric_scooter", "name": "916d00ba7747a00af9d5908fdfcefa82", "fusion_lat": 0.0, "fusion_lon": 0.0, "lon": -77.02320283333333, "is_disabled": 0, "bike_id": "916d00ba7747a00af9d5908fdfcefa82", "is_reserved": 0, "rental_uris": {"android": "https://dc.lft.to/lastmile_qr_scan", "ios": "https://dc.lft.to/lastmile_qr_scan"}, "lat": 38.930573333333335}, {"type": "electric_scooter", "name": "e55b15149cdff37c8ace52418c2b48c8", "fusion_lat": 0.0, "fusion_lon": 0.0, "lon": -77.0413345, "is_disabled": 0, "bike_id": "e55b15149cdff37c8ace52418c2b48c8", "is_reserved": 0, "rental_uris": {"android": "https://dc.lft.to/lastmile_qr_scan", "ios": "https://dc.lft.to/lastmile_qr_scan"}, "lat": 38.93068516666666}, {"type": "electric_scooter", "name": "38b0f28347e5e435ca2b1e4ac1125df5", "fusion_lat": 0.0, "fusion_lon": 0.0, "lon": -77.0383535, "is_disabled": 0, "bike_id": "38b0f28347e5e435ca2b1e4ac1125df5", "is_reserved": 0, "rental_uris": {"android": "https://dc.lft.to/lastmile_qr_scan", "ios": "https://dc.lft.to/lastmile_qr_scan"}, "lat": 38.9098985}, {"type": "electric_bike", "name": "7236175e00fbb78cf51d8b63a843cbc6", "fusion_lat": 0.0, "fusion_lon": 0.0, "lon": -77.2218855, "is_disabled": 0, "bike_id": "7236175e00fbb78cf51d8b63a843cbc6", "is_reserved": 0, "rental_uris": {"android": "https://dc.lft.to/lastmile_qr_scan", "ios": "https://dc.lft.to/lastmile_qr_scan"}, "lat": 38.871750166666665}, {"type": "electric_scooter", "name": "e207f3f781ce55e3279772260d443dec", "fusion_lat": 0.0, "fusion_lon": 0.0, "lon": -77.03478833333334, "is_disabled": 0, "bike_id": "e207f3f781ce55e3279772260d443dec", "is_reserved": 0, "rental_uris": {"android": "https://dc.lft.to/lastmile_qr_scan", "ios": "https://dc.lft.to/lastmile_qr_scan"}, "lat": 38.907764666666665}, {"type": "electric_scooter", "name": "69b2d4372aa49a0237b57bced69bf3be", "fusion_lat": 0.0, "fusion_lon": 0.0, "lon": -77.0062005, "is_disabled": 0, "bike_id": "69b2d4372aa49a0237b57bced69bf3be", "is_reserved": 0, "rental_uris": {"android": "https://dc.lft.to/lastmile_qr_scan", "ios": "https://dc.lft.to/lastmile_qr_scan"}, "lat": 38.87194933333333}, {"type": "electric_scooter", "name": "c168595b22f5da70b456a5e74fe1c186", "fusion_lat": 0.0, "fusion_lon": 0.0, "lon": -77.03924483333333, "is_disabled": 0, "bike_id": "c168595b22f5da70b456a5e74fe1c186", "is_reserved": 0, "rental_uris": {"android": "https://dc.lft.to/lastmile_qr_scan", "ios": "https://dc.lft.to/lastmile_qr_scan"}, "lat": 38.913978}, {"type": "electric_scooter", "name": "58021c0ffcd1dcb9851c1a6fd9061f0b", "fusion_lat": 0.0, "fusion_lon": 0.0, "lon": -77.05296766666666, "is_disabled": 0, "bike_id": "58021c0ffcd1dcb9851c1a6fd9061f0b", "is_reserved": 0, "rental_uris": {"android": "https://dc.lft.to/lastmile_qr_scan", "ios": "https://dc.lft.to/lastmile_qr_scan"}, "lat": 38.902623166666665}, {"type": "electric_scooter", "name": "07af2bb8e3be0b06c42ada9959bf10b0", "fusion_lat": 0.0, "fusion_lon": 0.0, "lon": -77.05121416666667, "is_disabled": 0, "bike_id": "07af2bb8e3be0b06c42ada9959bf10b0", "is_reserved": 0, "rental_uris": {"android": "https://dc.lft.to/lastmile_qr_scan", "ios": "https://dc.lft.to/lastmile_qr_scan"}, "lat": 38.9234375}, {"type": "electric_bike", "name": "af283a63ac4ee552eb1204db8eea530e", "fusion_lat": 0.0, "fusion_lon": 0.0, "lon": -77.02033616666667, "is_disabled": 0, "bike_id": "af283a63ac4ee552eb1204db8eea530e", "is_reserved": 0, "rental_uris": {"android": "https://dc.lft.to/lastmile_qr_scan", "ios": "https://dc.lft.to/lastmile_qr_scan"}, "lat": 38.965559666666664}, {"type": "electric_scooter", "name": "23c6d8228082db1fb07d573214dffac4", "fusion_lat": 0.0, "fusion_lon": 0.0, "lon": -77.02882383333333, "is_disabled": 0, "bike_id": "23c6d8228082db1fb07d573214dffac4", "is_reserved": 0, "rental_uris": {"android": "https://dc.lft.to/lastmile_qr_scan", "ios": "https://dc.lft.to/lastmile_qr_scan"}, "lat": 38.90312766666667}, {"type": "electric_bike", "name": "f4e8c07ff644d6dfd3d6da7956cf56b9", "fusion_lat": 0.0, "fusion_lon": 0.0, "lon": -76.98814283333333, "is_disabled": 0, "bike_id": "f4e8c07ff644d6dfd3d6da7956cf56b9", "is_reserved": 0, "rental_uris": {"android": "https://dc.lft.to/lastmile_qr_scan", "ios": "https://dc.lft.to/lastmile_qr_scan"}, "lat": 38.84277866666667}, {"type": "electric_scooter", "name": "598c8639ea4b9601d312a111faa347fa", "fusion_lat": 0.0, "fusion_lon": 0.0, "lon": -77.03299316666667, "is_disabled": 0, "bike_id": "598c8639ea4b9601d312a111faa347fa", "is_reserved": 0, "rental_uris": {"android": "https://dc.lft.to/lastmile_qr_scan", "ios": "https://dc.lft.to/lastmile_qr_scan"}, "lat": 38.9284725}, {"type": "electric_scooter", "name": "f28cc494e72c4e47b3b617e7de4b18f3", "fusion_lat": 0.0, "fusion_lon": 0.0, "lon": -77.021799, "is_disabled": 0, "bike_id": "f28cc494e72c4e47b3b617e7de4b18f3", "is_reserved": 0, "rental_uris": {"android": "https://dc.lft.to/lastmile_qr_scan", "ios": "https://dc.lft.to/lastmile_qr_scan"}, "lat": 38.90954966666666}, {"type": "electric_scooter", "name": "e83d4932a83fbbea81bb294fd0745e56", "fusion_lat": 0.0, "fusion_lon": 0.0, "lon": -77.03963816666666, "is_disabled": 0, "bike_id": "e83d4932a83fbbea81bb294fd0745e56", "is_reserved": 0, "rental_uris": {"android": "https://dc.lft.to/lastmile_qr_scan", "ios": "https://dc.lft.to/lastmile_qr_scan"}, "lat": 38.926110666666666}, {"type": "electric_scooter", "name": "0e700801c6cbb8b6e5a1014b6fbd04e2", "fusion_lat": 0.0, "fusion_lon": 0.0, "lon": -77.02188433333333, "is_disabled": 0, "bike_id": "0e700801c6cbb8b6e5a1014b6fbd04e2", "is_reserved": 0, "rental_uris": {"android": "https://dc.lft.to/lastmile_qr_scan", "ios": "https://dc.lft.to/lastmile_qr_scan"}, "lat": 38.9248475}, {"type": "electric_scooter", "name": "c0de1d1922d2ee91b2f6fa9e0378154c", "fusion_lat": 0.0, "fusion_lon": 0.0, "lon": -77.0647895, "is_disabled": 0, "bike_id": "c0de1d1922d2ee91b2f6fa9e0378154c", "is_reserved": 0, "rental_uris": {"android": "https://dc.lft.to/lastmile_qr_scan", "ios": "https://dc.lft.to/lastmile_qr_scan"}, "lat": 38.927031}, {"type": "electric_scooter", "name": "45fe2c2de53b6ee24b0ca827136e324f", "fusion_lat": 0.0, "fusion_lon": 0.0, "lon": -76.991588, "is_disabled": 0, "bike_id": "45fe2c2de53b6ee24b0ca827136e324f", "is_reserved": 0, "rental_uris": {"android": "https://dc.lft.to/lastmile_qr_scan", "ios": "https://dc.lft.to/lastmile_qr_scan"}, "lat": 38.8882185}, {"type": "electric_scooter", "name": "78ddc3476653467d79651f130f279fa6", "fusion_lat": 0.0, "fusion_lon": 0.0, "lon": -77.0318275, "is_disabled": 0, "bike_id": "78ddc3476653467d79651f130f279fa6", "is_reserved": 0, "rental_uris": {"android": "https://dc.lft.to/lastmile_qr_scan", "ios": "https://dc.lft.to/lastmile_qr_scan"}, "lat": 38.914212}, {"type": "electric_scooter", "name": "286719f69d9b6627aba3ae3df767b54c", "fusion_lat": 0.0, "fusion_lon": 0.0, "lon": -77.000348, "is_disabled": 0, "bike_id": "286719f69d9b6627aba3ae3df767b54c", "is_reserved": 0, "rental_uris": {"android": "https://dc.lft.to/lastmile_qr_scan", "ios": "https://dc.lft.to/lastmile_qr_scan"}, "lat": 38.874214333333335}, {"type": "electric_scooter", "name": "b54576ae35f5622a9f21044ae1402ca1", "fusion_lat": 0.0, "fusion_lon": 0.0, "lon": -77.002534, "is_disabled": 0, "bike_id": "b54576ae35f5622a9f21044ae1402ca1", "is_reserved": 0, "rental_uris": {"android": "https://dc.lft.to/lastmile_qr_scan", "ios": "https://dc.lft.to/lastmile_qr_scan"}, "lat": 38.894755}, {"type": "electric_scooter", "name": "6889ba8de826ddbb132794aca6265c33", "fusion_lat": 0.0, "fusion_lon": 0.0, "lon": -76.993807, "is_disabled": 0, "bike_id": "6889ba8de826ddbb132794aca6265c33", "is_reserved": 0, "rental_uris": {"android": "https://dc.lft.to/lastmile_qr_scan", "ios": "https://dc.lft.to/lastmile_qr_scan"}, "lat": 38.893400666666665}, {"type": "electric_scooter", "name": "cc25d71ff490df429768fa6ebb619f5e", "fusion_lat": 0.0, "fusion_lon": 0.0, "lon": -77.053566, "is_disabled": 0, "bike_id": "cc25d71ff490df429768fa6ebb619f5e", "is_reserved": 0, "rental_uris": {"android": "https://dc.lft.to/lastmile_qr_scan", "ios": "https://dc.lft.to/lastmile_qr_scan"}, "lat": 38.898808333333335}, {"type": "electric_scooter", "name": "7aa85143844b62f4f399a3fbe3f3e395", "fusion_lat": 0.0, "fusion_lon": 0.0, "lon": -77.01026, "is_disabled": 0, "bike_id": "7aa85143844b62f4f399a3fbe3f3e395", "is_reserved": 0, "rental_uris": {"android": "https://dc.lft.to/lastmile_qr_scan", "ios": "https://dc.lft.to/lastmile_qr_scan"}, "lat": 38.9140755}, {"type": "electric_scooter", "name": "3e5c3858f9270dbbd2b05dc654f54781", "fusion_lat": 0.0, "fusion_lon": 0.0, "lon": -77.02815333333334, "is_disabled": 0, "bike_id": "3e5c3858f9270dbbd2b05dc654f54781", "is_reserved": 0, "rental_uris": {"android": "https://dc.lft.to/lastmile_qr_scan", "ios": "https://dc.lft.to/lastmile_qr_scan"}, "lat": 38.95083916666667}, {"type": "electric_scooter", "name": "d365f6852ebf3fc118a18979a872137b", "fusion_lat": 0.0, "fusion_lon": 0.0, "lon": -77.03293483333333, "is_disabled": 0, "bike_id": "d365f6852ebf3fc118a18979a872137b", "is_reserved": 0, "rental_uris": {"android": "https://dc.lft.to/lastmile_qr_scan", "ios": "https://dc.lft.to/lastmile_qr_scan"}, "lat": 38.92873266666667}, {"type": "electric_scooter", "name": "d5d26042d988992ac042708a2845d4ba", "fusion_lat": 0.0, "fusion_lon": 0.0, "lon": -77.01975966666667, "is_disabled": 0, "bike_id": "d5d26042d988992ac042708a2845d4ba", "is_reserved": 0, "rental_uris": {"android": "https://dc.lft.to/lastmile_qr_scan", "ios": "https://dc.lft.to/lastmile_qr_scan"}, "lat": 38.905065666666665}, {"type": "electric_bike", "name": "3e6999ad063704b94db872ef6ed7cbfa", "fusion_lat": 0.0, "fusion_lon": 0.0, "lon": -76.98090366666666, "is_disabled": 0, "bike_id": "3e6999ad063704b94db872ef6ed7cbfa", "is_reserved": 0, "rental_uris": {"android": "https://dc.lft.to/lastmile_qr_scan", "ios": "https://dc.lft.to/lastmile_qr_scan"}, "lat": 38.953541333333334}, {"type": "electric_scooter", "name": "546ad41ddfeefc3034ae623de74450e7", "fusion_lat": 0.0, "fusion_lon": 0.0, "lon": -77.01791, "is_disabled": 0, "bike_id": "546ad41ddfeefc3034ae623de74450e7", "is_reserved": 0, "rental_uris": {"android": "https://dc.lft.to/lastmile_qr_scan", "ios": "https://dc.lft.to/lastmile_qr_scan"}, "lat": 38.892397}, {"type": "electric_scooter", "name": "91c21dd68178fd5670a1d1f5eab80819", "fusion_lat": 0.0, "fusion_lon": 0.0, "lon": -77.00046583333334, "is_disabled": 0, "bike_id": "91c21dd68178fd5670a1d1f5eab80819", "is_reserved": 0, "rental_uris": {"android": "https://dc.lft.to/lastmile_qr_scan", "ios": "https://dc.lft.to/lastmile_qr_scan"}, "lat": 38.875033}, {"type": "electric_scooter", "name": "3ed3e342cf09c1ea683c7d01ca1201ab", "fusion_lat": 0.0, "fusion_lon": 0.0, "lon": -77.02500066666667, "is_disabled": 0, "bike_id": "3ed3e342cf09c1ea683c7d01ca1201ab", "is_reserved": 0, "rental_uris": {"android": "https://dc.lft.to/lastmile_qr_scan", "ios": "https://dc.lft.to/lastmile_qr_scan"}, "lat": 38.90716483333333}, {"type": "electric_scooter", "name": "82d9dc2e4c702fe23ac5577e2502bd8f", "fusion_lat": 0.0, "fusion_lon": 0.0, "lon": -77.03039666666666, "is_disabled": 0, "bike_id": "82d9dc2e4c702fe23ac5577e2502bd8f", "is_reserved": 0, "rental_uris": {"android": "https://dc.lft.to/lastmile_qr_scan", "ios": "https://dc.lft.to/lastmile_qr_scan"}, "lat": 38.90938633333333}, {"type": "electric_scooter", "name": "862ab91a081b849570a1c4c9cc09ed77", "fusion_lat": 0.0, "fusion_lon": 0.0, "lon": -77.03654083333333, "is_disabled": 0, "bike_id": "862ab91a081b849570a1c4c9cc09ed77", "is_reserved": 0, "rental_uris": {"android": "https://dc.lft.to/lastmile_qr_scan", "ios": "https://dc.lft.to/lastmile_qr_scan"}, "lat": 38.921156}, {"type": "electric_scooter", "name": "bc4f4facdb64c7ae44043de4b358a760", "fusion_lat": 0.0, "fusion_lon": 0.0, "lon": -77.02399566666666, "is_disabled": 0, "bike_id": "bc4f4facdb64c7ae44043de4b358a760", "is_reserved": 0, "rental_uris": {"android": "https://dc.lft.to/lastmile_qr_scan", "ios": "https://dc.lft.to/lastmile_qr_scan"}, "lat": 38.93105516666667}, {"type": "electric_scooter", "name": "388b414084ad14929bc8efc142aeb440", "fusion_lat": 0.0, "fusion_lon": 0.0, "lon": -77.02723716666667, "is_disabled": 0, "bike_id": "388b414084ad14929bc8efc142aeb440", "is_reserved": 0, "rental_uris": {"android": "https://dc.lft.to/lastmile_qr_scan", "ios": "https://dc.lft.to/lastmile_qr_scan"}, "lat": 38.90389583333334}, {"type": "electric_bike", "name": "ee723249ca7fb484f4adedf88b240cf3", "fusion_lat": 0.0, "fusion_lon": 0.0, "lon": -76.97424216666667, "is_disabled": 0, "bike_id": "ee723249ca7fb484f4adedf88b240cf3", "is_reserved": 0, "rental_uris": {"android": "https://dc.lft.to/lastmile_qr_scan", "ios": "https://dc.lft.to/lastmile_qr_scan"}, "lat": 38.9323955}, {"type": "electric_scooter", "name": "7a0778be64169e2b205a2cf4fd3e3156", "fusion_lat": 0.0, "fusion_lon": 0.0, "lon": -77.01648616666667, "is_disabled": 0, "bike_id": "7a0778be64169e2b205a2cf4fd3e3156", "is_reserved": 0, "rental_uris": {"android": "https://dc.lft.to/lastmile_qr_scan", "ios": "https://dc.lft.to/lastmile_qr_scan"}, "lat": 38.94203366666667}, {"type": "electric_scooter", "name": "8efd54814703b331d7730eff7df39e39", "fusion_lat": 0.0, "fusion_lon": 0.0, "lon": -76.94062233333334, "is_disabled": 0, "bike_id": "8efd54814703b331d7730eff7df39e39", "is_reserved": 0, "rental_uris": {"android": "https://dc.lft.to/lastmile_qr_scan", "ios": "https://dc.lft.to/lastmile_qr_scan"}, "lat": 38.885857}, {"type": "electric_scooter", "name": "05b3654c799b1b04511884fd7d9c9e91", "fusion_lat": 0.0, "fusion_lon": 0.0, "lon": -76.99503716666666, "is_disabled": 0, "bike_id": "05b3654c799b1b04511884fd7d9c9e91", "is_reserved": 0, "rental_uris": {"android": "https://dc.lft.to/lastmile_qr_scan", "ios": "https://dc.lft.to/lastmile_qr_scan"}, "lat": 38.9098045}, {"type": "electric_scooter", "name": "65e64cf18fc2c336a7ccfe0390dd08ed", "fusion_lat": 0.0, "fusion_lon": 0.0, "lon": -76.98060383333333, "is_disabled": 0, "bike_id": "65e64cf18fc2c336a7ccfe0390dd08ed", "is_reserved": 0, "rental_uris": {"android": "https://dc.lft.to/lastmile_qr_scan", "ios": "https://dc.lft.to/lastmile_qr_scan"}, "lat": 38.9016495}, {"type": "electric_scooter", "name": "13006eeb6fbf9a4752d2e285a7bae035", "fusion_lat": 0.0, "fusion_lon": 0.0, "lon": -76.93386283333334, "is_disabled": 0, "bike_id": "13006eeb6fbf9a4752d2e285a7bae035", "is_reserved": 0, "rental_uris": {"android": "https://dc.lft.to/lastmile_qr_scan", "ios": "https://dc.lft.to/lastmile_qr_scan"}, "lat": 38.89910733333333}, {"type": "electric_scooter", "name": "cc322d430cd78e41aa75f67134d6dea2", "fusion_lat": 0.0, "fusion_lon": 0.0, "lon": -77.06283216666667, "is_disabled": 0, "bike_id": "cc322d430cd78e41aa75f67134d6dea2", "is_reserved": 0, "rental_uris": {"android": "https://dc.lft.to/lastmile_qr_scan", "ios": "https://dc.lft.to/lastmile_qr_scan"}, "lat": 38.9032}, {"type": "electric_scooter", "name": "d4a0d3cc1e856a291386f006ff62f0b0", "fusion_lat": 0.0, "fusion_lon": 0.0, "lon": -76.94184833333334, "is_disabled": 0, "bike_id": "d4a0d3cc1e856a291386f006ff62f0b0", "is_reserved": 0, "rental_uris": {"android": "https://dc.lft.to/lastmile_qr_scan", "ios": "https://dc.lft.to/lastmile_qr_scan"}, "lat": 38.897606333333336}, {"type": "electric_scooter", "name": "cd68c027b95a8dc4ed0af344df34f787", "fusion_lat": 0.0, "fusion_lon": 0.0, "lon": -77.03380916666667, "is_disabled": 0, "bike_id": "cd68c027b95a8dc4ed0af344df34f787", "is_reserved": 0, "rental_uris": {"android": "https://dc.lft.to/lastmile_qr_scan", "ios": "https://dc.lft.to/lastmile_qr_scan"}, "lat": 38.90144016666667}, {"type": "electric_scooter", "name": "64f8229058c51570b3acbe5773f14739", "fusion_lat": 0.0, "fusion_lon": 0.0, "lon": -77.03554616666666, "is_disabled": 0, "bike_id": "64f8229058c51570b3acbe5773f14739", "is_reserved": 0, "rental_uris": {"android": "https://dc.lft.to/lastmile_qr_scan", "ios": "https://dc.lft.to/lastmile_qr_scan"}, "lat": 38.92477816666667}, {"type": "electric_scooter", "name": "4c864449c5cb83f64fe7bf9c3633ec0e", "fusion_lat": 0.0, "fusion_lon": 0.0, "lon": -77.0143395, "is_disabled": 0, "bike_id": "4c864449c5cb83f64fe7bf9c3633ec0e", "is_reserved": 0, "rental_uris": {"android": "https://dc.lft.to/lastmile_qr_scan", "ios": "https://dc.lft.to/lastmile_qr_scan"}, "lat": 38.913155333333336}, {"type": "electric_bike", "name": "6940a28c561835080091dc02ae0218fd", "fusion_lat": 0.0, "fusion_lon": 0.0, "lon": -77.07656033333333, "is_disabled": 0, "bike_id": "6940a28c561835080091dc02ae0218fd", "is_reserved": 0, "rental_uris": {"android": "https://dc.lft.to/lastmile_qr_scan", "ios": "https://dc.lft.to/lastmile_qr_scan"}, "lat": 38.809801666666665}, {"type": "electric_scooter", "name": "e0bd23b5a4cc7bfaf5bcba54a012b42d", "fusion_lat": 0.0, "fusion_lon": 0.0, "lon": -76.992101, "is_disabled": 0, "bike_id": "e0bd23b5a4cc7bfaf5bcba54a012b42d", "is_reserved": 0, "rental_uris": {"android": "https://dc.lft.to/lastmile_qr_scan", "ios": "https://dc.lft.to/lastmile_qr_scan"}, "lat": 38.904783333333334}, {"type": "electric_scooter", "name": "4f573fa1402a36a18f2b88e51f0e4429", "fusion_lat": 0.0, "fusion_lon": 0.0, "lon": -77.0172445, "is_disabled": 0, "bike_id": "4f573fa1402a36a18f2b88e51f0e4429", "is_reserved": 0, "rental_uris": {"android": "https://dc.lft.to/lastmile_qr_scan", "ios": "https://dc.lft.to/lastmile_qr_scan"}, "lat": 38.9056135}, {"type": "electric_bike", "name": "9f5ea243c7862c6592e3913cea7e299a", "fusion_lat": 0.0, "fusion_lon": 0.0, "lon": -77.02070166666667, "is_disabled": 0, "bike_id": "9f5ea243c7862c6592e3913cea7e299a", "is_reserved": 0, "rental_uris": {"android": "https://dc.lft.to/lastmile_qr_scan", "ios": "https://dc.lft.to/lastmile_qr_scan"}, "lat": 38.96445416666667}, {"type": "electric_scooter", "name": "71597c2add349ee9f0881d4cd53cc1f6", "fusion_lat": 0.0, "fusion_lon": 0.0, "lon": -76.99031066666667, "is_disabled": 0, "bike_id": "71597c2add349ee9f0881d4cd53cc1f6", "is_reserved": 0, "rental_uris": {"android": "https://dc.lft.to/lastmile_qr_scan", "ios": "https://dc.lft.to/lastmile_qr_scan"}, "lat": 38.888826}, {"type": "electric_scooter", "name": "f0d5ffec1ae1d53da5da7e4ad863a0c4", "fusion_lat": 0.0, "fusion_lon": 0.0, "lon": -77.0300945, "is_disabled": 0, "bike_id": "f0d5ffec1ae1d53da5da7e4ad863a0c4", "is_reserved": 0, "rental_uris": {"android": "https://dc.lft.to/lastmile_qr_scan", "ios": "https://dc.lft.to/lastmile_qr_scan"}, "lat": 38.928721333333336}, {"type": "electric_scooter", "name": "c89dc33afff04df19ddf548388bf2abf", "fusion_lat": 0.0, "fusion_lon": 0.0, "lon": -77.01100083333333, "is_disabled": 0, "bike_id": "c89dc33afff04df19ddf548388bf2abf", "is_reserved": 0, "rental_uris": {"android": "https://dc.lft.to/lastmile_qr_scan", "ios": "https://dc.lft.to/lastmile_qr_scan"}, "lat": 38.89547266666667}, {"type": "electric_scooter", "name": "3fd4722a70acc00704283fd98f0fa22d", "fusion_lat": 0.0, "fusion_lon": 0.0, "lon": -77.0365685, "is_disabled": 0, "bike_id": "3fd4722a70acc00704283fd98f0fa22d", "is_reserved": 0, "rental_uris": {"android": "https://dc.lft.to/lastmile_qr_scan", "ios": "https://dc.lft.to/lastmile_qr_scan"}, "lat": 38.922821}, {"type": "electric_scooter", "name": "44eddb60dc42230ab7eb00bffa3f7765", "fusion_lat": 0.0, "fusion_lon": 0.0, "lon": -77.062809, "is_disabled": 0, "bike_id": "44eddb60dc42230ab7eb00bffa3f7765", "is_reserved": 0, "rental_uris": {"android": "https://dc.lft.to/lastmile_qr_scan", "ios": "https://dc.lft.to/lastmile_qr_scan"}, "lat": 38.904565166666664}, {"type": "electric_scooter", "name": "0256b7b38a8864309f57bba67b0a3a69", "fusion_lat": 0.0, "fusion_lon": 0.0, "lon": -77.00380616666666, "is_disabled": 0, "bike_id": "0256b7b38a8864309f57bba67b0a3a69", "is_reserved": 0, "rental_uris": {"android": "https://dc.lft.to/lastmile_qr_scan", "ios": "https://dc.lft.to/lastmile_qr_scan"}, "lat": 38.87605883333333}, {"type": "electric_scooter", "name": "7210ba5966bc2b34ef067088d9bbde1d", "fusion_lat": 0.0, "fusion_lon": 0.0, "lon": -76.99032533333333, "is_disabled": 0, "bike_id": "7210ba5966bc2b34ef067088d9bbde1d", "is_reserved": 0, "rental_uris": {"android": "https://dc.lft.to/lastmile_qr_scan", "ios": "https://dc.lft.to/lastmile_qr_scan"}, "lat": 38.88876666666667}, {"type": "electric_scooter", "name": "0d461ef565fcfb7147844dd6b45ea51b", "fusion_lat": 0.0, "fusion_lon": 0.0, "lon": -77.01632233333333, "is_disabled": 0, "bike_id": "0d461ef565fcfb7147844dd6b45ea51b", "is_reserved": 0, "rental_uris": {"android": "https://dc.lft.to/lastmile_qr_scan", "ios": "https://dc.lft.to/lastmile_qr_scan"}, "lat": 38.915858166666666}, {"type": "electric_scooter", "name": "579cd4f01869899309bce5d14100765e", "fusion_lat": 0.0, "fusion_lon": 0.0, "lon": -77.00484683333333, "is_disabled": 0, "bike_id": "579cd4f01869899309bce5d14100765e", "is_reserved": 0, "rental_uris": {"android": "https://dc.lft.to/lastmile_qr_scan", "ios": "https://dc.lft.to/lastmile_qr_scan"}, "lat": 38.874578166666666}, {"type": "electric_scooter", "name": "64f1c89f1aad740da53770a1ef5bff1d", "fusion_lat": 0.0, "fusion_lon": 0.0, "lon": -77.03175866666666, "is_disabled": 0, "bike_id": "64f1c89f1aad740da53770a1ef5bff1d", "is_reserved": 0, "rental_uris": {"android": "https://dc.lft.to/lastmile_qr_scan", "ios": "https://dc.lft.to/lastmile_qr_scan"}, "lat": 38.9249745}, {"type": "electric_scooter", "name": "5462b24cb9830bb67ab247601163cedc", "fusion_lat": 0.0, "fusion_lon": 0.0, "lon": -77.0218435, "is_disabled": 0, "bike_id": "5462b24cb9830bb67ab247601163cedc", "is_reserved": 0, "rental_uris": {"android": "https://dc.lft.to/lastmile_qr_scan", "ios": "https://dc.lft.to/lastmile_qr_scan"}, "lat": 38.901873333333334}, {"type": "electric_scooter", "name": "db62e3ad115727794ef15370f9d2ac15", "fusion_lat": 0.0, "fusion_lon": 0.0, "lon": -77.03663083333333, "is_disabled": 0, "bike_id": "db62e3ad115727794ef15370f9d2ac15", "is_reserved": 0, "rental_uris": {"android": "https://dc.lft.to/lastmile_qr_scan", "ios": "https://dc.lft.to/lastmile_qr_scan"}, "lat": 38.920978}, {"type": "electric_scooter", "name": "10152ac5505532eb9689ca098c4cb79d", "fusion_lat": 0.0, "fusion_lon": 0.0, "lon": -77.02340433333333, "is_disabled": 0, "bike_id": "10152ac5505532eb9689ca098c4cb79d", "is_reserved": 0, "rental_uris": {"android": "https://dc.lft.to/lastmile_qr_scan", "ios": "https://dc.lft.to/lastmile_qr_scan"}, "lat": 38.881346666666666}, {"type": "electric_scooter", "name": "9929716f460c79e232f7bb8adaceefd3", "fusion_lat": 0.0, "fusion_lon": 0.0, "lon": -77.07200466666667, "is_disabled": 0, "bike_id": "9929716f460c79e232f7bb8adaceefd3", "is_reserved": 0, "rental_uris": {"android": "https://dc.lft.to/lastmile_qr_scan", "ios": "https://dc.lft.to/lastmile_qr_scan"}, "lat": 38.91264483333333}, {"type": "electric_bike", "name": "b2f73135144d8706168bcec9c704c91c", "fusion_lat": 0.0, "fusion_lon": 0.0, "lon": -76.98173466666667, "is_disabled": 0, "bike_id": "b2f73135144d8706168bcec9c704c91c", "is_reserved": 0, "rental_uris": {"android": "https://dc.lft.to/lastmile_qr_scan", "ios": "https://dc.lft.to/lastmile_qr_scan"}, "lat": 38.884049166666664}, {"type": "electric_scooter", "name": "276a63e26339a9ae31fe6c3126a73bdb", "fusion_lat": 0.0, "fusion_lon": 0.0, "lon": -77.00761933333334, "is_disabled": 0, "bike_id": "276a63e26339a9ae31fe6c3126a73bdb", "is_reserved": 0, "rental_uris": {"android": "https://dc.lft.to/lastmile_qr_scan", "ios": "https://dc.lft.to/lastmile_qr_scan"}, "lat": 38.904904333333334}, {"type": "electric_scooter", "name": "0a86b09bf16fc2348b8adb9be44ab07b", "fusion_lat": 0.0, "fusion_lon": 0.0, "lon": -77.041185, "is_disabled": 0, "bike_id": "0a86b09bf16fc2348b8adb9be44ab07b", "is_reserved": 0, "rental_uris": {"android": "https://dc.lft.to/lastmile_qr_scan", "ios": "https://dc.lft.to/lastmile_qr_scan"}, "lat": 38.92113716666667}, {"type": "electric_scooter", "name": "a6eecb674038ef688a7b3189f2e77bf3", "fusion_lat": 0.0, "fusion_lon": 0.0, "lon": -76.98346516666666, "is_disabled": 0, "bike_id": "a6eecb674038ef688a7b3189f2e77bf3", "is_reserved": 0, "rental_uris": {"android": "https://dc.lft.to/lastmile_qr_scan", "ios": "https://dc.lft.to/lastmile_qr_scan"}, "lat": 38.900906}, {"type": "electric_scooter", "name": "87cb72f06aab6f8e7bb6ffaf12604987", "fusion_lat": 0.0, "fusion_lon": 0.0, "lon": -77.025785, "is_disabled": 0, "bike_id": "87cb72f06aab6f8e7bb6ffaf12604987", "is_reserved": 0, "rental_uris": {"android": "https://dc.lft.to/lastmile_qr_scan", "ios": "https://dc.lft.to/lastmile_qr_scan"}, "lat": 38.903690833333336}, {"type": "electric_scooter", "name": "ac894210917824df33fd1581bdcb4471", "fusion_lat": 0.0, "fusion_lon": 0.0, "lon": -77.024943, "is_disabled": 0, "bike_id": "ac894210917824df33fd1581bdcb4471", "is_reserved": 0, "rental_uris": {"android": "https://dc.lft.to/lastmile_qr_scan", "ios": "https://dc.lft.to/lastmile_qr_scan"}, "lat": 38.9057235}, {"type": "electric_scooter", "name": "49ae4dedc47f1fede7201ae667bbcfbf", "fusion_lat": 0.0, "fusion_lon": 0.0, "lon": -77.01061416666667, "is_disabled": 0, "bike_id": "49ae4dedc47f1fede7201ae667bbcfbf", "is_reserved": 0, "rental_uris": {"android": "https://dc.lft.to/lastmile_qr_scan", "ios": "https://dc.lft.to/lastmile_qr_scan"}, "lat": 38.91815033333334}, {"type": "electric_bike", "name": "12377dc40a49758a0e9231bba4a787d0", "fusion_lat": 0.0, "fusion_lon": 0.0, "lon": -76.99482516666667, "is_disabled": 0, "bike_id": "12377dc40a49758a0e9231bba4a787d0", "is_reserved": 0, "rental_uris": {"android": "https://dc.lft.to/lastmile_qr_scan", "ios": "https://dc.lft.to/lastmile_qr_scan"}, "lat": 38.9383075}, {"type": "electric_scooter", "name": "6181e8cca0fd8e52dee248704b2d30de", "fusion_lat": 0.0, "fusion_lon": 0.0, "lon": -77.04768933333334, "is_disabled": 0, "bike_id": "6181e8cca0fd8e52dee248704b2d30de", "is_reserved": 0, "rental_uris": {"android": "https://dc.lft.to/lastmile_qr_scan", "ios": "https://dc.lft.to/lastmile_qr_scan"}, "lat": 38.9175315}, {"type": "electric_scooter", "name": "9636b8f3daf37d7ccfce9e41e077049f", "fusion_lat": 0.0, "fusion_lon": 0.0, "lon": -77.06035616666666, "is_disabled": 0, "bike_id": "9636b8f3daf37d7ccfce9e41e077049f", "is_reserved": 0, "rental_uris": {"android": "https://dc.lft.to/lastmile_qr_scan", "ios": "https://dc.lft.to/lastmile_qr_scan"}, "lat": 38.9024235}, {"type": "electric_scooter", "name": "95b0f9bd0160c1dd4a0bdb225b6b353b", "fusion_lat": 0.0, "fusion_lon": 0.0, "lon": -77.0403855, "is_disabled": 0, "bike_id": "95b0f9bd0160c1dd4a0bdb225b6b353b", "is_reserved": 0, "rental_uris": {"android": "https://dc.lft.to/lastmile_qr_scan", "ios": "https://dc.lft.to/lastmile_qr_scan"}, "lat": 38.899226}, {"type": "electric_scooter", "name": "64c270fa74b084486f68d7657842998d", "fusion_lat": 0.0, "fusion_lon": 0.0, "lon": -77.04150116666666, "is_disabled": 0, "bike_id": "64c270fa74b084486f68d7657842998d", "is_reserved": 0, "rental_uris": {"android": "https://dc.lft.to/lastmile_qr_scan", "ios": "https://dc.lft.to/lastmile_qr_scan"}, "lat": 38.901560333333336}, {"type": "electric_scooter", "name": "39d267ab045fcefef09cc75bf7a8bf8c", "fusion_lat": 0.0, "fusion_lon": 0.0, "lon": -77.029523, "is_disabled": 0, "bike_id": "39d267ab045fcefef09cc75bf7a8bf8c", "is_reserved": 0, "rental_uris": {"android": "https://dc.lft.to/lastmile_qr_scan", "ios": "https://dc.lft.to/lastmile_qr_scan"}, "lat": 38.91674483333333}, {"type": "electric_scooter", "name": "ce3ba0dc562d2106124964d3d6549a03", "fusion_lat": 0.0, "fusion_lon": 0.0, "lon": -77.05085216666667, "is_disabled": 0, "bike_id": "ce3ba0dc562d2106124964d3d6549a03", "is_reserved": 0, "rental_uris": {"android": "https://dc.lft.to/lastmile_qr_scan", "ios": "https://dc.lft.to/lastmile_qr_scan"}, "lat": 38.903828833333336}, {"type": "electric_scooter", "name": "7482a491fd3fab88b4ec53d303f78837", "fusion_lat": 0.0, "fusion_lon": 0.0, "lon": -76.98337733333334, "is_disabled": 0, "bike_id": "7482a491fd3fab88b4ec53d303f78837", "is_reserved": 0, "rental_uris": {"android": "https://dc.lft.to/lastmile_qr_scan", "ios": "https://dc.lft.to/lastmile_qr_scan"}, "lat": 38.89542983333333}, {"type": "electric_scooter", "name": "265668822b491dcdfb4af94fab437861", "fusion_lat": 0.0, "fusion_lon": 0.0, "lon": -77.0457525, "is_disabled": 0, "bike_id": "265668822b491dcdfb4af94fab437861", "is_reserved": 0, "rental_uris": {"android": "https://dc.lft.to/lastmile_qr_scan", "ios": "https://dc.lft.to/lastmile_qr_scan"}, "lat": 38.903878}, {"type": "electric_scooter", "name": "7395756fa1500f0c97ae1baaff55e40e", "fusion_lat": 0.0, "fusion_lon": 0.0, "lon": -77.0005045, "is_disabled": 0, "bike_id": "7395756fa1500f0c97ae1baaff55e40e", "is_reserved": 0, "rental_uris": {"android": "https://dc.lft.to/lastmile_qr_scan", "ios": "https://dc.lft.to/lastmile_qr_scan"}, "lat": 38.8788565}, {"type": "electric_scooter", "name": "5f307d75d493df657a5fb5240df07b22", "fusion_lat": 0.0, "fusion_lon": 0.0, "lon": -77.036602, "is_disabled": 0, "bike_id": "5f307d75d493df657a5fb5240df07b22", "is_reserved": 0, "rental_uris": {"android": "https://dc.lft.to/lastmile_qr_scan", "ios": "https://dc.lft.to/lastmile_qr_scan"}, "lat": 38.918147166666664}, {"type": "electric_scooter", "name": "49babe1b82ef1ebacd2b9d0beea2d4c7", "fusion_lat": 0.0, "fusion_lon": 0.0, "lon": -77.031635, "is_disabled": 0, "bike_id": "49babe1b82ef1ebacd2b9d0beea2d4c7", "is_reserved": 0, "rental_uris": {"android": "https://dc.lft.to/lastmile_qr_scan", "ios": "https://dc.lft.to/lastmile_qr_scan"}, "lat": 38.915636}, {"type": "electric_scooter", "name": "ca94b50ef75d30070d60feae1eb2aae1", "fusion_lat": 0.0, "fusion_lon": 0.0, "lon": -77.02199583333334, "is_disabled": 0, "bike_id": "ca94b50ef75d30070d60feae1eb2aae1", "is_reserved": 0, "rental_uris": {"android": "https://dc.lft.to/lastmile_qr_scan", "ios": "https://dc.lft.to/lastmile_qr_scan"}, "lat": 38.91436616666667}, {"type": "electric_scooter", "name": "ac2b70f3c080596ca59bba62ceb64612", "fusion_lat": 0.0, "fusion_lon": 0.0, "lon": -77.03018383333334, "is_disabled": 0, "bike_id": "ac2b70f3c080596ca59bba62ceb64612", "is_reserved": 0, "rental_uris": {"android": "https://dc.lft.to/lastmile_qr_scan", "ios": "https://dc.lft.to/lastmile_qr_scan"}, "lat": 38.878480333333336}, {"type": "electric_bike", "name": "c9ad9d668f9d10060e1b99fd36ecea1d", "fusion_lat": 0.0, "fusion_lon": 0.0, "lon": -76.90738016666667, "is_disabled": 0, "bike_id": "c9ad9d668f9d10060e1b99fd36ecea1d", "is_reserved": 0, "rental_uris": {"android": "https://dc.lft.to/lastmile_qr_scan", "ios": "https://dc.lft.to/lastmile_qr_scan"}, "lat": 38.89618633333333}, {"type": "electric_scooter", "name": "00fa0dbcfa953512573831ccc18a7e6a", "fusion_lat": 0.0, "fusion_lon": 0.0, "lon": -77.02274766666666, "is_disabled": 0, "bike_id": "00fa0dbcfa953512573831ccc18a7e6a", "is_reserved": 0, "rental_uris": {"android": "https://dc.lft.to/lastmile_qr_scan", "ios": "https://dc.lft.to/lastmile_qr_scan"}, "lat": 38.898396}, {"type": "electric_bike", "name": "e3816e13b98f62add3b130e1ec36c493", "fusion_lat": 0.0, "fusion_lon": 0.0, "lon": -77.0297875, "is_disabled": 0, "bike_id": "e3816e13b98f62add3b130e1ec36c493", "is_reserved": 0, "rental_uris": {"android": "https://dc.lft.to/lastmile_qr_scan", "ios": "https://dc.lft.to/lastmile_qr_scan"}, "lat": 38.9349825}, {"type": "electric_scooter", "name": "df0d9d165a73eff34b1a0755c49e9b11", "fusion_lat": 0.0, "fusion_lon": 0.0, "lon": -77.0358585, "is_disabled": 0, "bike_id": "df0d9d165a73eff34b1a0755c49e9b11", "is_reserved": 0, "rental_uris": {"android": "https://dc.lft.to/lastmile_qr_scan", "ios": "https://dc.lft.to/lastmile_qr_scan"}, "lat": 38.90687716666667}, {"type": "electric_scooter", "name": "f47bc12802471e8d474ccae07a26dd12", "fusion_lat": 0.0, "fusion_lon": 0.0, "lon": -77.02288, "is_disabled": 0, "bike_id": "f47bc12802471e8d474ccae07a26dd12", "is_reserved": 0, "rental_uris": {"android": "https://dc.lft.to/lastmile_qr_scan", "ios": "https://dc.lft.to/lastmile_qr_scan"}, "lat": 38.896597666666665}, {"type": "electric_scooter", "name": "9d77b0cd559b9b6a95abca29129f04e8", "fusion_lat": 0.0, "fusion_lon": 0.0, "lon": -77.0239935, "is_disabled": 0, "bike_id": "9d77b0cd559b9b6a95abca29129f04e8", "is_reserved": 0, "rental_uris": {"android": "https://dc.lft.to/lastmile_qr_scan", "ios": "https://dc.lft.to/lastmile_qr_scan"}, "lat": 38.930995}, {"type": "electric_bike", "name": "5f11272810d63a8bf944ea38c87ef5d6", "fusion_lat": 0.0, "fusion_lon": 0.0, "lon": -77.07475133333334, "is_disabled": 0, "bike_id": "5f11272810d63a8bf944ea38c87ef5d6", "is_reserved": 0, "rental_uris": {"android": "https://dc.lft.to/lastmile_qr_scan", "ios": "https://dc.lft.to/lastmile_qr_scan"}, "lat": 38.92064033333333}, {"type": "electric_scooter", "name": "545d05651c40d7d0d02a392f1a8ae4c8", "fusion_lat": 0.0, "fusion_lon": 0.0, "lon": -76.98994416666666, "is_disabled": 0, "bike_id": "545d05651c40d7d0d02a392f1a8ae4c8", "is_reserved": 0, "rental_uris": {"android": "https://dc.lft.to/lastmile_qr_scan", "ios": "https://dc.lft.to/lastmile_qr_scan"}, "lat": 38.8642955}, {"type": "electric_scooter", "name": "e0a076018b5c91fecec328bad5f343bf", "fusion_lat": 0.0, "fusion_lon": 0.0, "lon": -77.01610316666667, "is_disabled": 0, "bike_id": "e0a076018b5c91fecec328bad5f343bf", "is_reserved": 0, "rental_uris": {"android": "https://dc.lft.to/lastmile_qr_scan", "ios": "https://dc.lft.to/lastmile_qr_scan"}, "lat": 38.906107666666664}, {"type": "electric_scooter", "name": "cc220eec0d9c6d5b55bea0d9f0edaa2a", "fusion_lat": 0.0, "fusion_lon": 0.0, "lon": -77.02443766666667, "is_disabled": 0, "bike_id": "cc220eec0d9c6d5b55bea0d9f0edaa2a", "is_reserved": 0, "rental_uris": {"android": "https://dc.lft.to/lastmile_qr_scan", "ios": "https://dc.lft.to/lastmile_qr_scan"}, "lat": 38.94975133333333}, {"type": "electric_scooter", "name": "f2aba6670d591e9bbed0d281f8c5c0a9", "fusion_lat": 0.0, "fusion_lon": 0.0, "lon": -77.02714833333333, "is_disabled": 0, "bike_id": "f2aba6670d591e9bbed0d281f8c5c0a9", "is_reserved": 0, "rental_uris": {"android": "https://dc.lft.to/lastmile_qr_scan", "ios": "https://dc.lft.to/lastmile_qr_scan"}, "lat": 38.92236883333333}, {"type": "electric_scooter", "name": "884fde03f2327e1acafa742602d0c726", "fusion_lat": 0.0, "fusion_lon": 0.0, "lon": -76.96521683333333, "is_disabled": 0, "bike_id": "884fde03f2327e1acafa742602d0c726", "is_reserved": 0, "rental_uris": {"android": "https://dc.lft.to/lastmile_qr_scan", "ios": "https://dc.lft.to/lastmile_qr_scan"}, "lat": 38.87628216666667}, {"type": "electric_scooter", "name": "7efb6732ac5f4d4147cabd34d582b2d1", "fusion_lat": 0.0, "fusion_lon": 0.0, "lon": -77.0287155, "is_disabled": 0, "bike_id": "7efb6732ac5f4d4147cabd34d582b2d1", "is_reserved": 0, "rental_uris": {"android": "https://dc.lft.to/lastmile_qr_scan", "ios": "https://dc.lft.to/lastmile_qr_scan"}, "lat": 38.912716333333336}, {"type": "electric_scooter", "name": "02dd571e2b0621b1a7e9de9ab03d868e", "fusion_lat": 0.0, "fusion_lon": 0.0, "lon": -76.98306266666667, "is_disabled": 0, "bike_id": "02dd571e2b0621b1a7e9de9ab03d868e", "is_reserved": 0, "rental_uris": {"android": "https://dc.lft.to/lastmile_qr_scan", "ios": "https://dc.lft.to/lastmile_qr_scan"}, "lat": 38.86888233333333}, {"type": "electric_scooter", "name": "df23020219f71e67585cdeac551b99a7", "fusion_lat": 0.0, "fusion_lon": 0.0, "lon": -77.03855116666666, "is_disabled": 0, "bike_id": "df23020219f71e67585cdeac551b99a7", "is_reserved": 0, "rental_uris": {"android": "https://dc.lft.to/lastmile_qr_scan", "ios": "https://dc.lft.to/lastmile_qr_scan"}, "lat": 38.9112505}, {"type": "electric_scooter", "name": "9cd01c74a28d3806f4d7dd8003782764", "fusion_lat": 0.0, "fusion_lon": 0.0, "lon": -76.99513433333334, "is_disabled": 0, "bike_id": "9cd01c74a28d3806f4d7dd8003782764", "is_reserved": 0, "rental_uris": {"android": "https://dc.lft.to/lastmile_qr_scan", "ios": "https://dc.lft.to/lastmile_qr_scan"}, "lat": 38.88791716666667}, {"type": "electric_scooter", "name": "7ce720182b2a77d7130bee7818f6b429", "fusion_lat": 0.0, "fusion_lon": 0.0, "lon": -77.03334766666667, "is_disabled": 0, "bike_id": "7ce720182b2a77d7130bee7818f6b429", "is_reserved": 0, "rental_uris": {"android": "https://dc.lft.to/lastmile_qr_scan", "ios": "https://dc.lft.to/lastmile_qr_scan"}, "lat": 38.91913233333333}, {"type": "electric_scooter", "name": "828d2ca46728893d6697a29f7d441fbb", "fusion_lat": 0.0, "fusion_lon": 0.0, "lon": -77.00620216666667, "is_disabled": 0, "bike_id": "828d2ca46728893d6697a29f7d441fbb", "is_reserved": 0, "rental_uris": {"android": "https://dc.lft.to/lastmile_qr_scan", "ios": "https://dc.lft.to/lastmile_qr_scan"}, "lat": 38.905762333333335}, {"type": "electric_scooter", "name": "7e5576c7557149460f2b0fdc7284ad0c", "fusion_lat": 0.0, "fusion_lon": 0.0, "lon": -77.03865183333333, "is_disabled": 0, "bike_id": "7e5576c7557149460f2b0fdc7284ad0c", "is_reserved": 0, "rental_uris": {"android": "https://dc.lft.to/lastmile_qr_scan", "ios": "https://dc.lft.to/lastmile_qr_scan"}, "lat": 38.917115}, {"type": "electric_scooter", "name": "857a1ebb63bccdd74f0c649f48bf723e", "fusion_lat": 0.0, "fusion_lon": 0.0, "lon": -77.0239885, "is_disabled": 0, "bike_id": "857a1ebb63bccdd74f0c649f48bf723e", "is_reserved": 0, "rental_uris": {"android": "https://dc.lft.to/lastmile_qr_scan", "ios": "https://dc.lft.to/lastmile_qr_scan"}, "lat": 38.91685116666667}, {"type": "electric_scooter", "name": "42868e0227e938a0bfad8f28d95ce09a", "fusion_lat": 0.0, "fusion_lon": 0.0, "lon": -77.03983066666666, "is_disabled": 0, "bike_id": "42868e0227e938a0bfad8f28d95ce09a", "is_reserved": 0, "rental_uris": {"android": "https://dc.lft.to/lastmile_qr_scan", "ios": "https://dc.lft.to/lastmile_qr_scan"}, "lat": 38.8989825}, {"type": "electric_scooter", "name": "6510aa2ad02e6a40843b102766480512", "fusion_lat": 0.0, "fusion_lon": 0.0, "lon": -77.01257983333333, "is_disabled": 0, "bike_id": "6510aa2ad02e6a40843b102766480512", "is_reserved": 0, "rental_uris": {"android": "https://dc.lft.to/lastmile_qr_scan", "ios": "https://dc.lft.to/lastmile_qr_scan"}, "lat": 38.89717666666667}, {"type": "electric_scooter", "name": "7ea236ff537b33dd066710f3c0286a42", "fusion_lat": 0.0, "fusion_lon": 0.0, "lon": -77.02175216666667, "is_disabled": 0, "bike_id": "7ea236ff537b33dd066710f3c0286a42", "is_reserved": 0, "rental_uris": {"android": "https://dc.lft.to/lastmile_qr_scan", "ios": "https://dc.lft.to/lastmile_qr_scan"}, "lat": 38.91483483333333}, {"type": "electric_scooter", "name": "a07dd5555969aeb5df3332c926d0326f", "fusion_lat": 0.0, "fusion_lon": 0.0, "lon": -77.072596, "is_disabled": 0, "bike_id": "a07dd5555969aeb5df3332c926d0326f", "is_reserved": 0, "rental_uris": {"android": "https://dc.lft.to/lastmile_qr_scan", "ios": "https://dc.lft.to/lastmile_qr_scan"}, "lat": 38.90897283333334}, {"type": "electric_scooter", "name": "f05cbf36cdcae842a0a0a739907e9d97", "fusion_lat": 0.0, "fusion_lon": 0.0, "lon": -77.07291783333334, "is_disabled": 0, "bike_id": "f05cbf36cdcae842a0a0a739907e9d97", "is_reserved": 0, "rental_uris": {"android": "https://dc.lft.to/lastmile_qr_scan", "ios": "https://dc.lft.to/lastmile_qr_scan"}, "lat": 38.922767666666665}, {"type": "electric_scooter", "name": "1797e056fc0b31f786f402991f1c0856", "fusion_lat": 0.0, "fusion_lon": 0.0, "lon": -77.04585833333333, "is_disabled": 0, "bike_id": "1797e056fc0b31f786f402991f1c0856", "is_reserved": 0, "rental_uris": {"android": "https://dc.lft.to/lastmile_qr_scan", "ios": "https://dc.lft.to/lastmile_qr_scan"}, "lat": 38.91447}, {"type": "electric_bike", "name": "02847aa167a5ea0023bca14d2c9f723c", "fusion_lat": 0.0, "fusion_lon": 0.0, "lon": -76.99679783333333, "is_disabled": 0, "bike_id": "02847aa167a5ea0023bca14d2c9f723c", "is_reserved": 0, "rental_uris": {"android": "https://dc.lft.to/lastmile_qr_scan", "ios": "https://dc.lft.to/lastmile_qr_scan"}, "lat": 38.8381645}, {"type": "electric_scooter", "name": "e3c1bdca586326f5817d2ed7cdddac6c", "fusion_lat": 0.0, "fusion_lon": 0.0, "lon": -77.01555033333334, "is_disabled": 0, "bike_id": "e3c1bdca586326f5817d2ed7cdddac6c", "is_reserved": 0, "rental_uris": {"android": "https://dc.lft.to/lastmile_qr_scan", "ios": "https://dc.lft.to/lastmile_qr_scan"}, "lat": 38.884941166666664}, {"type": "electric_scooter", "name": "d04357ec5dc1cc0b742a894b24cabe6b", "fusion_lat": 0.0, "fusion_lon": 0.0, "lon": -77.06836316666667, "is_disabled": 0, "bike_id": "d04357ec5dc1cc0b742a894b24cabe6b", "is_reserved": 0, "rental_uris": {"android": "https://dc.lft.to/lastmile_qr_scan", "ios": "https://dc.lft.to/lastmile_qr_scan"}, "lat": 38.904002166666665}, {"type": "electric_scooter", "name": "b23182dbc1d6d3d89605dc17b9b6f26e", "fusion_lat": 0.0, "fusion_lon": 0.0, "lon": -77.06038116666667, "is_disabled": 0, "bike_id": "b23182dbc1d6d3d89605dc17b9b6f26e", "is_reserved": 0, "rental_uris": {"android": "https://dc.lft.to/lastmile_qr_scan", "ios": "https://dc.lft.to/lastmile_qr_scan"}, "lat": 38.902377666666666}, {"type": "electric_scooter", "name": "75dbc5656c596d4da09fb1fb87cdb29c", "fusion_lat": 0.0, "fusion_lon": 0.0, "lon": -77.0004445, "is_disabled": 0, "bike_id": "75dbc5656c596d4da09fb1fb87cdb29c", "is_reserved": 0, "rental_uris": {"android": "https://dc.lft.to/lastmile_qr_scan", "ios": "https://dc.lft.to/lastmile_qr_scan"}, "lat": 38.875024333333336}, {"type": "electric_scooter", "name": "54f4bfcd56e9751a163b274b8162374c", "fusion_lat": 0.0, "fusion_lon": 0.0, "lon": -77.03512383333333, "is_disabled": 0, "bike_id": "54f4bfcd56e9751a163b274b8162374c", "is_reserved": 0, "rental_uris": {"android": "https://dc.lft.to/lastmile_qr_scan", "ios": "https://dc.lft.to/lastmile_qr_scan"}, "lat": 38.92213383333333}, {"type": "electric_scooter", "name": "c0767d3e958069a99ed4527ebb5979f6", "fusion_lat": 0.0, "fusion_lon": 0.0, "lon": -76.98836133333333, "is_disabled": 0, "bike_id": "c0767d3e958069a99ed4527ebb5979f6", "is_reserved": 0, "rental_uris": {"android": "https://dc.lft.to/lastmile_qr_scan", "ios": "https://dc.lft.to/lastmile_qr_scan"}, "lat": 38.84424166666667}, {"type": "electric_scooter", "name": "8e31f1b2d954c0e3e3b2a75ec0696990", "fusion_lat": 0.0, "fusion_lon": 0.0, "lon": -77.021286, "is_disabled": 0, "bike_id": "8e31f1b2d954c0e3e3b2a75ec0696990", "is_reserved": 0, "rental_uris": {"android": "https://dc.lft.to/lastmile_qr_scan", "ios": "https://dc.lft.to/lastmile_qr_scan"}, "lat": 38.92695116666667}, {"type": "electric_scooter", "name": "f653b2ef5c80daa449d9d683e892debb", "fusion_lat": 0.0, "fusion_lon": 0.0, "lon": -77.02385616666666, "is_disabled": 0, "bike_id": "f653b2ef5c80daa449d9d683e892debb", "is_reserved": 0, "rental_uris": {"android": "https://dc.lft.to/lastmile_qr_scan", "ios": "https://dc.lft.to/lastmile_qr_scan"}, "lat": 38.90710216666667}, {"type": "electric_bike", "name": "8e37b05e81b9775d8ded681c2add08ec", "fusion_lat": 0.0, "fusion_lon": 0.0, "lon": -77.012263, "is_disabled": 0, "bike_id": "8e37b05e81b9775d8ded681c2add08ec", "is_reserved": 0, "rental_uris": {"android": "https://dc.lft.to/lastmile_qr_scan", "ios": "https://dc.lft.to/lastmile_qr_scan"}, "lat": 38.950769666666666}, {"type": "electric_scooter", "name": "a4a802952371fe1d2d636943f4d03eb1", "fusion_lat": 0.0, "fusion_lon": 0.0, "lon": -77.0040665, "is_disabled": 0, "bike_id": "a4a802952371fe1d2d636943f4d03eb1", "is_reserved": 0, "rental_uris": {"android": "https://dc.lft.to/lastmile_qr_scan", "ios": "https://dc.lft.to/lastmile_qr_scan"}, "lat": 38.87753683333333}, {"type": "electric_bike", "name": "eea2a07567ed50f7f6ab09b89e1aadd9", "fusion_lat": 0.0, "fusion_lon": 0.0, "lon": -77.100786, "is_disabled": 0, "bike_id": "eea2a07567ed50f7f6ab09b89e1aadd9", "is_reserved": 0, "rental_uris": {"android": "https://dc.lft.to/lastmile_qr_scan", "ios": "https://dc.lft.to/lastmile_qr_scan"}, "lat": 38.857375833333336}, {"type": "electric_scooter", "name": "a9331c1d8b93761b97a35fc8f804580a", "fusion_lat": 0.0, "fusion_lon": 0.0, "lon": -77.03829333333333, "is_disabled": 0, "bike_id": "a9331c1d8b93761b97a35fc8f804580a", "is_reserved": 0, "rental_uris": {"android": "https://dc.lft.to/lastmile_qr_scan", "ios": "https://dc.lft.to/lastmile_qr_scan"}, "lat": 38.91707783333333}, {"type": "electric_scooter", "name": "ec19e089895dcdbab0c401f177bf4c22", "fusion_lat": 0.0, "fusion_lon": 0.0, "lon": -77.04958966666666, "is_disabled": 0, "bike_id": "ec19e089895dcdbab0c401f177bf4c22", "is_reserved": 0, "rental_uris": {"android": "https://dc.lft.to/lastmile_qr_scan", "ios": "https://dc.lft.to/lastmile_qr_scan"}, "lat": 38.91595316666667}, {"type": "electric_scooter", "name": "37a363a16ea25c11a7b2d90f10681fe4", "fusion_lat": 0.0, "fusion_lon": 0.0, "lon": -77.04507983333333, "is_disabled": 0, "bike_id": "37a363a16ea25c11a7b2d90f10681fe4", "is_reserved": 0, "rental_uris": {"android": "https://dc.lft.to/lastmile_qr_scan", "ios": "https://dc.lft.to/lastmile_qr_scan"}, "lat": 38.91615066666667}, {"type": "electric_scooter", "name": "1b663506789f0436622ff3b8d67faa65", "fusion_lat": 0.0, "fusion_lon": 0.0, "lon": -77.03185483333333, "is_disabled": 0, "bike_id": "1b663506789f0436622ff3b8d67faa65", "is_reserved": 0, "rental_uris": {"android": "https://dc.lft.to/lastmile_qr_scan", "ios": "https://dc.lft.to/lastmile_qr_scan"}, "lat": 38.92912283333333}, {"type": "electric_scooter", "name": "ac14a72c7307ddcdf2f97a9611c13f1a", "fusion_lat": 0.0, "fusion_lon": 0.0, "lon": -77.00217316666667, "is_disabled": 0, "bike_id": "ac14a72c7307ddcdf2f97a9611c13f1a", "is_reserved": 0, "rental_uris": {"android": "https://dc.lft.to/lastmile_qr_scan", "ios": "https://dc.lft.to/lastmile_qr_scan"}, "lat": 38.89447666666667}, {"type": "electric_scooter", "name": "ca9c76c10da698064bb1423071362601", "fusion_lat": 0.0, "fusion_lon": 0.0, "lon": -77.0264365, "is_disabled": 0, "bike_id": "ca9c76c10da698064bb1423071362601", "is_reserved": 0, "rental_uris": {"android": "https://dc.lft.to/lastmile_qr_scan", "ios": "https://dc.lft.to/lastmile_qr_scan"}, "lat": 38.902596}, {"type": "electric_scooter", "name": "6e349f133ad7f5f5d768edf00b276b2b", "fusion_lat": 0.0, "fusion_lon": 0.0, "lon": -77.03657816666667, "is_disabled": 0, "bike_id": "6e349f133ad7f5f5d768edf00b276b2b", "is_reserved": 0, "rental_uris": {"android": "https://dc.lft.to/lastmile_qr_scan", "ios": "https://dc.lft.to/lastmile_qr_scan"}, "lat": 38.923866}, {"type": "electric_scooter", "name": "2fa77060593ec4762a44c807df07078b", "fusion_lat": 0.0, "fusion_lon": 0.0, "lon": -76.98534066666667, "is_disabled": 0, "bike_id": "2fa77060593ec4762a44c807df07078b", "is_reserved": 0, "rental_uris": {"android": "https://dc.lft.to/lastmile_qr_scan", "ios": "https://dc.lft.to/lastmile_qr_scan"}, "lat": 38.85852516666667}, {"type": "electric_scooter", "name": "264339783490e484145322ce4bacdb1d", "fusion_lat": 0.0, "fusion_lon": 0.0, "lon": -77.0451845, "is_disabled": 0, "bike_id": "264339783490e484145322ce4bacdb1d", "is_reserved": 0, "rental_uris": {"android": "https://dc.lft.to/lastmile_qr_scan", "ios": "https://dc.lft.to/lastmile_qr_scan"}, "lat": 38.911086833333336}, {"type": "electric_bike", "name": "d5bca009844bb75ade02b0c3f5f737db", "fusion_lat": 0.0, "fusion_lon": 0.0, "lon": -77.14852516666667, "is_disabled": 0, "bike_id": "d5bca009844bb75ade02b0c3f5f737db", "is_reserved": 0, "rental_uris": {"android": "https://dc.lft.to/lastmile_qr_scan", "ios": "https://dc.lft.to/lastmile_qr_scan"}, "lat": 38.87763566666667}, {"type": "electric_scooter", "name": "9f7934da48aa7a9089d8173ff1a7d6a7", "fusion_lat": 0.0, "fusion_lon": 0.0, "lon": -76.99504083333333, "is_disabled": 0, "bike_id": "9f7934da48aa7a9089d8173ff1a7d6a7", "is_reserved": 0, "rental_uris": {"android": "https://dc.lft.to/lastmile_qr_scan", "ios": "https://dc.lft.to/lastmile_qr_scan"}, "lat": 38.882401}, {"type": "electric_scooter", "name": "79f3c0ee01c795d07548f3e7e0e829a7", "fusion_lat": 0.0, "fusion_lon": 0.0, "lon": -76.98405966666667, "is_disabled": 0, "bike_id": "79f3c0ee01c795d07548f3e7e0e829a7", "is_reserved": 0, "rental_uris": {"android": "https://dc.lft.to/lastmile_qr_scan", "ios": "https://dc.lft.to/lastmile_qr_scan"}, "lat": 38.86057683333333}, {"type": "electric_scooter", "name": "a7adfc5215a3325d9b252b84a7f658cd", "fusion_lat": 0.0, "fusion_lon": 0.0, "lon": -77.0280445, "is_disabled": 0, "bike_id": "a7adfc5215a3325d9b252b84a7f658cd", "is_reserved": 0, "rental_uris": {"android": "https://dc.lft.to/lastmile_qr_scan", "ios": "https://dc.lft.to/lastmile_qr_scan"}, "lat": 38.8991755}, {"type": "electric_bike", "name": "fcdf6703101051a0a41c409d9aa09a9d", "fusion_lat": 0.0, "fusion_lon": 0.0, "lon": -77.03695816666666, "is_disabled": 0, "bike_id": "fcdf6703101051a0a41c409d9aa09a9d", "is_reserved": 0, "rental_uris": {"android": "https://dc.lft.to/lastmile_qr_scan", "ios": "https://dc.lft.to/lastmile_qr_scan"}, "lat": 38.9355965}, {"type": "electric_scooter", "name": "580e4576317f5711ca1cff220f13c13c", "fusion_lat": 0.0, "fusion_lon": 0.0, "lon": -77.03350516666667, "is_disabled": 0, "bike_id": "580e4576317f5711ca1cff220f13c13c", "is_reserved": 0, "rental_uris": {"android": "https://dc.lft.to/lastmile_qr_scan", "ios": "https://dc.lft.to/lastmile_qr_scan"}, "lat": 38.90288433333333}, {"type": "electric_scooter", "name": "2972efc181b2d3964a519543d649bb56", "fusion_lat": 0.0, "fusion_lon": 0.0, "lon": -77.04871183333333, "is_disabled": 0, "bike_id": "2972efc181b2d3964a519543d649bb56", "is_reserved": 0, "rental_uris": {"android": "https://dc.lft.to/lastmile_qr_scan", "ios": "https://dc.lft.to/lastmile_qr_scan"}, "lat": 38.89235016666667}, {"type": "electric_scooter", "name": "d7bc8ee8a6c1fe42d2d83f920eea4cc6", "fusion_lat": 0.0, "fusion_lon": 0.0, "lon": -77.03330033333333, "is_disabled": 0, "bike_id": "d7bc8ee8a6c1fe42d2d83f920eea4cc6", "is_reserved": 0, "rental_uris": {"android": "https://dc.lft.to/lastmile_qr_scan", "ios": "https://dc.lft.to/lastmile_qr_scan"}, "lat": 38.89844633333333}, {"type": "electric_scooter", "name": "1a410885d8a849de6a8a586d1c8d20f9", "fusion_lat": 0.0, "fusion_lon": 0.0, "lon": -77.02763316666666, "is_disabled": 0, "bike_id": "1a410885d8a849de6a8a586d1c8d20f9", "is_reserved": 0, "rental_uris": {"android": "https://dc.lft.to/lastmile_qr_scan", "ios": "https://dc.lft.to/lastmile_qr_scan"}, "lat": 38.93464183333333}, {"type": "electric_scooter", "name": "4eba8b0601255ba663a9dcd1580d933d", "fusion_lat": 0.0, "fusion_lon": 0.0, "lon": -76.98536316666667, "is_disabled": 0, "bike_id": "4eba8b0601255ba663a9dcd1580d933d", "is_reserved": 0, "rental_uris": {"android": "https://dc.lft.to/lastmile_qr_scan", "ios": "https://dc.lft.to/lastmile_qr_scan"}, "lat": 38.91290383333333}, {"type": "electric_scooter", "name": "5418cf504c1cff55f20194909aeb3246", "fusion_lat": 0.0, "fusion_lon": 0.0, "lon": -77.043288, "is_disabled": 0, "bike_id": "5418cf504c1cff55f20194909aeb3246", "is_reserved": 0, "rental_uris": {"android": "https://dc.lft.to/lastmile_qr_scan", "ios": "https://dc.lft.to/lastmile_qr_scan"}, "lat": 38.91305033333333}, {"type": "electric_scooter", "name": "c8e76ec1dc85bd7099bcd33603093ab5", "fusion_lat": 0.0, "fusion_lon": 0.0, "lon": -77.02279566666667, "is_disabled": 0, "bike_id": "c8e76ec1dc85bd7099bcd33603093ab5", "is_reserved": 0, "rental_uris": {"android": "https://dc.lft.to/lastmile_qr_scan", "ios": "https://dc.lft.to/lastmile_qr_scan"}, "lat": 38.926854166666665}, {"type": "electric_scooter", "name": "85526a8b43f86bb0dde2663f8549b9a4", "fusion_lat": 0.0, "fusion_lon": 0.0, "lon": -77.03182933333333, "is_disabled": 0, "bike_id": "85526a8b43f86bb0dde2663f8549b9a4", "is_reserved": 0, "rental_uris": {"android": "https://dc.lft.to/lastmile_qr_scan", "ios": "https://dc.lft.to/lastmile_qr_scan"}, "lat": 38.913140166666665}, {"type": "electric_scooter", "name": "a53302d6a525e2842b61aa55bcda3e3f", "fusion_lat": 0.0, "fusion_lon": 0.0, "lon": -77.03179533333333, "is_disabled": 0, "bike_id": "a53302d6a525e2842b61aa55bcda3e3f", "is_reserved": 0, "rental_uris": {"android": "https://dc.lft.to/lastmile_qr_scan", "ios": "https://dc.lft.to/lastmile_qr_scan"}, "lat": 38.9157015}, {"type": "electric_scooter", "name": "60d9227699a2e194ed5109a26cee3473", "fusion_lat": 0.0, "fusion_lon": 0.0, "lon": -77.027915, "is_disabled": 0, "bike_id": "60d9227699a2e194ed5109a26cee3473", "is_reserved": 0, "rental_uris": {"android": "https://dc.lft.to/lastmile_qr_scan", "ios": "https://dc.lft.to/lastmile_qr_scan"}, "lat": 38.9013245}, {"type": "electric_scooter", "name": "74c6d1db111c866a5b4552f193b9b330", "fusion_lat": 0.0, "fusion_lon": 0.0, "lon": -77.01162733333334, "is_disabled": 0, "bike_id": "74c6d1db111c866a5b4552f193b9b330", "is_reserved": 0, "rental_uris": {"android": "https://dc.lft.to/lastmile_qr_scan", "ios": "https://dc.lft.to/lastmile_qr_scan"}, "lat": 38.902685}, {"type": "electric_scooter", "name": "2fbf8c48f27c3081ec04a1ed877ffc78", "fusion_lat": 0.0, "fusion_lon": 0.0, "lon": -77.06850833333333, "is_disabled": 0, "bike_id": "2fbf8c48f27c3081ec04a1ed877ffc78", "is_reserved": 0, "rental_uris": {"android": "https://dc.lft.to/lastmile_qr_scan", "ios": "https://dc.lft.to/lastmile_qr_scan"}, "lat": 38.952874666666666}, {"type": "electric_scooter", "name": "53efda70acf981be5546fd7fd1f9f828", "fusion_lat": 0.0, "fusion_lon": 0.0, "lon": -77.02605116666666, "is_disabled": 0, "bike_id": "53efda70acf981be5546fd7fd1f9f828", "is_reserved": 0, "rental_uris": {"android": "https://dc.lft.to/lastmile_qr_scan", "ios": "https://dc.lft.to/lastmile_qr_scan"}, "lat": 38.918483333333334}, {"type": "electric_scooter", "name": "b134d01e827e8e4fa8b7574fbe1445e9", "fusion_lat": 0.0, "fusion_lon": 0.0, "lon": -77.06605516666667, "is_disabled": 0, "bike_id": "b134d01e827e8e4fa8b7574fbe1445e9", "is_reserved": 0, "rental_uris": {"android": "https://dc.lft.to/lastmile_qr_scan", "ios": "https://dc.lft.to/lastmile_qr_scan"}, "lat": 38.9110925}, {"type": "electric_scooter", "name": "8f8c8da8b3eeb147af28f8ea582d2284", "fusion_lat": 0.0, "fusion_lon": 0.0, "lon": -77.0231395, "is_disabled": 0, "bike_id": "8f8c8da8b3eeb147af28f8ea582d2284", "is_reserved": 0, "rental_uris": {"android": "https://dc.lft.to/lastmile_qr_scan", "ios": "https://dc.lft.to/lastmile_qr_scan"}, "lat": 38.91785683333333}, {"type": "electric_scooter", "name": "16699a5e4386fb9b62093b0fbb447120", "fusion_lat": 0.0, "fusion_lon": 0.0, "lon": -77.03259233333333, "is_disabled": 0, "bike_id": "16699a5e4386fb9b62093b0fbb447120", "is_reserved": 0, "rental_uris": {"android": "https://dc.lft.to/lastmile_qr_scan", "ios": "https://dc.lft.to/lastmile_qr_scan"}, "lat": 38.904467833333335}, {"type": "electric_bike", "name": "a004dc21e5a326e4a3a97153b51daa0f", "fusion_lat": 0.0, "fusion_lon": 0.0, "lon": -76.99724183333333, "is_disabled": 0, "bike_id": "a004dc21e5a326e4a3a97153b51daa0f", "is_reserved": 0, "rental_uris": {"android": "https://dc.lft.to/lastmile_qr_scan", "ios": "https://dc.lft.to/lastmile_qr_scan"}, "lat": 38.99846}, {"type": "electric_scooter", "name": "a4c357f0ea681975067ff79aaabfd4b4", "fusion_lat": 0.0, "fusion_lon": 0.0, "lon": -77.02714716666667, "is_disabled": 0, "bike_id": "a4c357f0ea681975067ff79aaabfd4b4", "is_reserved": 0, "rental_uris": {"android": "https://dc.lft.to/lastmile_qr_scan", "ios": "https://dc.lft.to/lastmile_qr_scan"}, "lat": 38.918219666666666}, {"type": "electric_scooter", "name": "dfe32aa1b47feeab70a95101138a8246", "fusion_lat": 0.0, "fusion_lon": 0.0, "lon": -77.01496816666666, "is_disabled": 0, "bike_id": "dfe32aa1b47feeab70a95101138a8246", "is_reserved": 0, "rental_uris": {"android": "https://dc.lft.to/lastmile_qr_scan", "ios": "https://dc.lft.to/lastmile_qr_scan"}, "lat": 38.90656966666667}, {"type": "electric_scooter", "name": "ccf7e82c66e9981c2634ce81f64a0903", "fusion_lat": 0.0, "fusion_lon": 0.0, "lon": -77.02569883333334, "is_disabled": 0, "bike_id": "ccf7e82c66e9981c2634ce81f64a0903", "is_reserved": 0, "rental_uris": {"android": "https://dc.lft.to/lastmile_qr_scan", "ios": "https://dc.lft.to/lastmile_qr_scan"}, "lat": 38.948504}, {"type": "electric_scooter", "name": "f8dfd04768e03593cbb57b4b1de7226d", "fusion_lat": 0.0, "fusion_lon": 0.0, "lon": -77.02446183333333, "is_disabled": 0, "bike_id": "f8dfd04768e03593cbb57b4b1de7226d", "is_reserved": 0, "rental_uris": {"android": "https://dc.lft.to/lastmile_qr_scan", "ios": "https://dc.lft.to/lastmile_qr_scan"}, "lat": 38.94977566666667}, {"type": "electric_scooter", "name": "654f1cb8836bf6542f8d74ee166b260d", "fusion_lat": 0.0, "fusion_lon": 0.0, "lon": -77.01049416666666, "is_disabled": 0, "bike_id": "654f1cb8836bf6542f8d74ee166b260d", "is_reserved": 0, "rental_uris": {"android": "https://dc.lft.to/lastmile_qr_scan", "ios": "https://dc.lft.to/lastmile_qr_scan"}, "lat": 38.92988366666667}, {"type": "electric_scooter", "name": "28718465879c40262a3c1e34d29b4b19", "fusion_lat": 0.0, "fusion_lon": 0.0, "lon": -77.03168333333333, "is_disabled": 0, "bike_id": "28718465879c40262a3c1e34d29b4b19", "is_reserved": 0, "rental_uris": {"android": "https://dc.lft.to/lastmile_qr_scan", "ios": "https://dc.lft.to/lastmile_qr_scan"}, "lat": 38.92096016666667}, {"type": "electric_scooter", "name": "7a73035c65b1216e24c3b82416bc7cb8", "fusion_lat": 0.0, "fusion_lon": 0.0, "lon": -77.0200365, "is_disabled": 0, "bike_id": "7a73035c65b1216e24c3b82416bc7cb8", "is_reserved": 0, "rental_uris": {"android": "https://dc.lft.to/lastmile_qr_scan", "ios": "https://dc.lft.to/lastmile_qr_scan"}, "lat": 38.9280745}, {"type": "electric_scooter", "name": "aec76e161dc57248f8a7baf968907a10", "fusion_lat": 0.0, "fusion_lon": 0.0, "lon": -76.92300483333334, "is_disabled": 0, "bike_id": "aec76e161dc57248f8a7baf968907a10", "is_reserved": 0, "rental_uris": {"android": "https://dc.lft.to/lastmile_qr_scan", "ios": "https://dc.lft.to/lastmile_qr_scan"}, "lat": 38.8938725}, {"type": "electric_scooter", "name": "e14d1167f96a7bcaa6077f1fda69831b", "fusion_lat": 0.0, "fusion_lon": 0.0, "lon": -77.00570466666667, "is_disabled": 0, "bike_id": "e14d1167f96a7bcaa6077f1fda69831b", "is_reserved": 0, "rental_uris": {"android": "https://dc.lft.to/lastmile_qr_scan", "ios": "https://dc.lft.to/lastmile_qr_scan"}, "lat": 38.87658716666667}, {"type": "electric_scooter", "name": "552d14187d4dd78f1f6fe2b9ec3b17e0", "fusion_lat": 0.0, "fusion_lon": 0.0, "lon": -77.00071633333333, "is_disabled": 0, "bike_id": "552d14187d4dd78f1f6fe2b9ec3b17e0", "is_reserved": 0, "rental_uris": {"android": "https://dc.lft.to/lastmile_qr_scan", "ios": "https://dc.lft.to/lastmile_qr_scan"}, "lat": 38.901460666666665}, {"type": "electric_scooter", "name": "af9c1c21700a07253e2842025cd21da5", "fusion_lat": 0.0, "fusion_lon": 0.0, "lon": -77.02777916666666, "is_disabled": 0, "bike_id": "af9c1c21700a07253e2842025cd21da5", "is_reserved": 0, "rental_uris": {"android": "https://dc.lft.to/lastmile_qr_scan", "ios": "https://dc.lft.to/lastmile_qr_scan"}, "lat": 38.92681983333333}, {"type": "electric_bike", "name": "7a3979573a1bed229872b42a24f6a241", "fusion_lat": 0.0, "fusion_lon": 0.0, "lon": -76.97954916666667, "is_disabled": 0, "bike_id": "7a3979573a1bed229872b42a24f6a241", "is_reserved": 0, "rental_uris": {"android": "https://dc.lft.to/lastmile_qr_scan", "ios": "https://dc.lft.to/lastmile_qr_scan"}, "lat": 38.920381}, {"type": "electric_scooter", "name": "ec653660643804c74d753b4099537962", "fusion_lat": 0.0, "fusion_lon": 0.0, "lon": -76.9835685, "is_disabled": 0, "bike_id": "ec653660643804c74d753b4099537962", "is_reserved": 0, "rental_uris": {"android": "https://dc.lft.to/lastmile_qr_scan", "ios": "https://dc.lft.to/lastmile_qr_scan"}, "lat": 38.8873435}, {"type": "electric_scooter", "name": "b52df1cbc40d43aee3fbe6ef7bd04fb7", "fusion_lat": 0.0, "fusion_lon": 0.0, "lon": -77.016351, "is_disabled": 0, "bike_id": "b52df1cbc40d43aee3fbe6ef7bd04fb7", "is_reserved": 0, "rental_uris": {"android": "https://dc.lft.to/lastmile_qr_scan", "ios": "https://dc.lft.to/lastmile_qr_scan"}, "lat": 38.929333166666666}, {"type": "electric_bike", "name": "623a96139529c4e740193b73f463fe5b", "fusion_lat": 0.0, "fusion_lon": 0.0, "lon": -77.07897583333333, "is_disabled": 0, "bike_id": "623a96139529c4e740193b73f463fe5b", "is_reserved": 0, "rental_uris": {"android": "https://dc.lft.to/lastmile_qr_scan", "ios": "https://dc.lft.to/lastmile_qr_scan"}, "lat": 38.8393365}, {"type": "electric_scooter", "name": "c11715b9e022d0245582feede822bff4", "fusion_lat": 0.0, "fusion_lon": 0.0, "lon": -77.04482033333333, "is_disabled": 0, "bike_id": "c11715b9e022d0245582feede822bff4", "is_reserved": 0, "rental_uris": {"android": "https://dc.lft.to/lastmile_qr_scan", "ios": "https://dc.lft.to/lastmile_qr_scan"}, "lat": 38.9136025}, {"type": "electric_bike", "name": "31e54fbd4ff2c70d75f10e278f453b8c", "fusion_lat": 0.0, "fusion_lon": 0.0, "lon": -77.10289433333334, "is_disabled": 0, "bike_id": "31e54fbd4ff2c70d75f10e278f453b8c", "is_reserved": 0, "rental_uris": {"android": "https://dc.lft.to/lastmile_qr_scan", "ios": "https://dc.lft.to/lastmile_qr_scan"}, "lat": 38.852532333333336}, {"type": "electric_scooter", "name": "9e1a4da39cad7445e6bb2851d04caa65", "fusion_lat": 0.0, "fusion_lon": 0.0, "lon": -77.06384433333334, "is_disabled": 0, "bike_id": "9e1a4da39cad7445e6bb2851d04caa65", "is_reserved": 0, "rental_uris": {"android": "https://dc.lft.to/lastmile_qr_scan", "ios": "https://dc.lft.to/lastmile_qr_scan"}, "lat": 38.90523133333333}, {"type": "electric_scooter", "name": "544dee935898f11a32289349291e1948", "fusion_lat": 0.0, "fusion_lon": 0.0, "lon": -77.0341425, "is_disabled": 0, "bike_id": "544dee935898f11a32289349291e1948", "is_reserved": 0, "rental_uris": {"android": "https://dc.lft.to/lastmile_qr_scan", "ios": "https://dc.lft.to/lastmile_qr_scan"}, "lat": 38.901423666666666}, {"type": "electric_scooter", "name": "2dceff8c0281458dd955ddff272a1259", "fusion_lat": 0.0, "fusion_lon": 0.0, "lon": -77.03827333333334, "is_disabled": 0, "bike_id": "2dceff8c0281458dd955ddff272a1259", "is_reserved": 0, "rental_uris": {"android": "https://dc.lft.to/lastmile_qr_scan", "ios": "https://dc.lft.to/lastmile_qr_scan"}, "lat": 38.911894}, {"type": "electric_bike", "name": "6f1d5bb9ed57dc47a1e91938b7ee50f7", "fusion_lat": 0.0, "fusion_lon": 0.0, "lon": -77.23174466666667, "is_disabled": 0, "bike_id": "6f1d5bb9ed57dc47a1e91938b7ee50f7", "is_reserved": 0, "rental_uris": {"android": "https://dc.lft.to/lastmile_qr_scan", "ios": "https://dc.lft.to/lastmile_qr_scan"}, "lat": 38.928941}, {"type": "electric_scooter", "name": "96b9bde49d81342efd8291333af83854", "fusion_lat": 0.0, "fusion_lon": 0.0, "lon": -77.02971666666667, "is_disabled": 0, "bike_id": "96b9bde49d81342efd8291333af83854", "is_reserved": 0, "rental_uris": {"android": "https://dc.lft.to/lastmile_qr_scan", "ios": "https://dc.lft.to/lastmile_qr_scan"}, "lat": 38.924442666666664}, {"type": "electric_scooter", "name": "3699d628e90a4dd854e563bd100485a9", "fusion_lat": 0.0, "fusion_lon": 0.0, "lon": -76.946382, "is_disabled": 0, "bike_id": "3699d628e90a4dd854e563bd100485a9", "is_reserved": 0, "rental_uris": {"android": "https://dc.lft.to/lastmile_qr_scan", "ios": "https://dc.lft.to/lastmile_qr_scan"}, "lat": 38.89868533333333}, {"type": "electric_scooter", "name": "08716e4322bb687d5ad75eb433e4a4e0", "fusion_lat": 0.0, "fusion_lon": 0.0, "lon": -77.02602266666666, "is_disabled": 0, "bike_id": "08716e4322bb687d5ad75eb433e4a4e0", "is_reserved": 0, "rental_uris": {"android": "https://dc.lft.to/lastmile_qr_scan", "ios": "https://dc.lft.to/lastmile_qr_scan"}, "lat": 38.91837983333333}, {"type": "electric_scooter", "name": "281cacff5663caaed35c19332e93c4f7", "fusion_lat": 0.0, "fusion_lon": 0.0, "lon": -77.045025, "is_disabled": 0, "bike_id": "281cacff5663caaed35c19332e93c4f7", "is_reserved": 0, "rental_uris": {"android": "https://dc.lft.to/lastmile_qr_scan", "ios": "https://dc.lft.to/lastmile_qr_scan"}, "lat": 38.9127265}, {"type": "electric_scooter", "name": "dc4bf52b49b6f48b4179e9aa4fcb6aec", "fusion_lat": 0.0, "fusion_lon": 0.0, "lon": -77.02229016666666, "is_disabled": 0, "bike_id": "dc4bf52b49b6f48b4179e9aa4fcb6aec", "is_reserved": 0, "rental_uris": {"android": "https://dc.lft.to/lastmile_qr_scan", "ios": "https://dc.lft.to/lastmile_qr_scan"}, "lat": 38.9126945}, {"type": "electric_scooter", "name": "8b8707fcf8607a5f8ae867b451cec2fe", "fusion_lat": 0.0, "fusion_lon": 0.0, "lon": -76.971338, "is_disabled": 0, "bike_id": "8b8707fcf8607a5f8ae867b451cec2fe", "is_reserved": 0, "rental_uris": {"android": "https://dc.lft.to/lastmile_qr_scan", "ios": "https://dc.lft.to/lastmile_qr_scan"}, "lat": 38.87863566666667}, {"type": "electric_scooter", "name": "dba8977dab8cf01ed5a2c99c1c66eed4", "fusion_lat": 0.0, "fusion_lon": 0.0, "lon": -76.98396666666666, "is_disabled": 0, "bike_id": "dba8977dab8cf01ed5a2c99c1c66eed4", "is_reserved": 0, "rental_uris": {"android": "https://dc.lft.to/lastmile_qr_scan", "ios": "https://dc.lft.to/lastmile_qr_scan"}, "lat": 38.905066833333336}, {"type": "electric_scooter", "name": "090b186845fc21583333a6216d0fb70c", "fusion_lat": 0.0, "fusion_lon": 0.0, "lon": -77.04872083333333, "is_disabled": 0, "bike_id": "090b186845fc21583333a6216d0fb70c", "is_reserved": 0, "rental_uris": {"android": "https://dc.lft.to/lastmile_qr_scan", "ios": "https://dc.lft.to/lastmile_qr_scan"}, "lat": 38.89235516666667}, {"type": "electric_scooter", "name": "9d277d07f96fe92231d78e7445a41b96", "fusion_lat": 0.0, "fusion_lon": 0.0, "lon": -77.038472, "is_disabled": 0, "bike_id": "9d277d07f96fe92231d78e7445a41b96", "is_reserved": 0, "rental_uris": {"android": "https://dc.lft.to/lastmile_qr_scan", "ios": "https://dc.lft.to/lastmile_qr_scan"}, "lat": 38.91662616666667}, {"type": "electric_scooter", "name": "8b2775d731a3c7b4209b658f7de74912", "fusion_lat": 0.0, "fusion_lon": 0.0, "lon": -77.01988616666667, "is_disabled": 0, "bike_id": "8b2775d731a3c7b4209b658f7de74912", "is_reserved": 0, "rental_uris": {"android": "https://dc.lft.to/lastmile_qr_scan", "ios": "https://dc.lft.to/lastmile_qr_scan"}, "lat": 38.87610983333333}, {"type": "electric_scooter", "name": "3c3e1d15f9a6f4a71eb10a44bbb2bdec", "fusion_lat": 0.0, "fusion_lon": 0.0, "lon": -77.05525216666666, "is_disabled": 0, "bike_id": "3c3e1d15f9a6f4a71eb10a44bbb2bdec", "is_reserved": 0, "rental_uris": {"android": "https://dc.lft.to/lastmile_qr_scan", "ios": "https://dc.lft.to/lastmile_qr_scan"}, "lat": 38.907763}, {"type": "electric_scooter", "name": "d373e6e161ae2e8bcc13256a7998e9f5", "fusion_lat": 0.0, "fusion_lon": 0.0, "lon": -77.02440483333334, "is_disabled": 0, "bike_id": "d373e6e161ae2e8bcc13256a7998e9f5", "is_reserved": 0, "rental_uris": {"android": "https://dc.lft.to/lastmile_qr_scan", "ios": "https://dc.lft.to/lastmile_qr_scan"}, "lat": 38.9563565}, {"type": "electric_bike", "name": "414b9c799ddfedd61ddd2e9eddee4a12", "fusion_lat": 0.0, "fusion_lon": 0.0, "lon": -77.06569, "is_disabled": 0, "bike_id": "414b9c799ddfedd61ddd2e9eddee4a12", "is_reserved": 0, "rental_uris": {"android": "https://dc.lft.to/lastmile_qr_scan", "ios": "https://dc.lft.to/lastmile_qr_scan"}, "lat": 38.9326565}, {"type": "electric_scooter", "name": "6892bcfba6293282769facd80d7c5daf", "fusion_lat": 0.0, "fusion_lon": 0.0, "lon": -77.067767, "is_disabled": 0, "bike_id": "6892bcfba6293282769facd80d7c5daf", "is_reserved": 0, "rental_uris": {"android": "https://dc.lft.to/lastmile_qr_scan", "ios": "https://dc.lft.to/lastmile_qr_scan"}, "lat": 38.91564116666667}, {"type": "electric_scooter", "name": "9b1b3eef94bce4808508127ab8bf7479", "fusion_lat": 0.0, "fusion_lon": 0.0, "lon": -77.05299583333333, "is_disabled": 0, "bike_id": "9b1b3eef94bce4808508127ab8bf7479", "is_reserved": 0, "rental_uris": {"android": "https://dc.lft.to/lastmile_qr_scan", "ios": "https://dc.lft.to/lastmile_qr_scan"}, "lat": 38.90267816666667}, {"type": "electric_bike", "name": "ec6fc7bb43c0f356ca4bbc2bdaa344cc", "fusion_lat": 0.0, "fusion_lon": 0.0, "lon": -77.04491183333333, "is_disabled": 0, "bike_id": "ec6fc7bb43c0f356ca4bbc2bdaa344cc", "is_reserved": 0, "rental_uris": {"android": "https://dc.lft.to/lastmile_qr_scan", "ios": "https://dc.lft.to/lastmile_qr_scan"}, "lat": 39.021133166666665}, {"type": "electric_scooter", "name": "0472e160b0ab61fbc76976958893d490", "fusion_lat": 0.0, "fusion_lon": 0.0, "lon": -76.94698483333333, "is_disabled": 0, "bike_id": "0472e160b0ab61fbc76976958893d490", "is_reserved": 0, "rental_uris": {"android": "https://dc.lft.to/lastmile_qr_scan", "ios": "https://dc.lft.to/lastmile_qr_scan"}, "lat": 38.8973085}, {"type": "electric_scooter", "name": "633fc6394e804475fc8d12ae5baa9fc1", "fusion_lat": 0.0, "fusion_lon": 0.0, "lon": -77.0363645, "is_disabled": 0, "bike_id": "633fc6394e804475fc8d12ae5baa9fc1", "is_reserved": 0, "rental_uris": {"android": "https://dc.lft.to/lastmile_qr_scan", "ios": "https://dc.lft.to/lastmile_qr_scan"}, "lat": 38.91735633333333}, {"type": "electric_scooter", "name": "1417c540e960d7cfef631f78cf598531", "fusion_lat": 0.0, "fusion_lon": 0.0, "lon": -77.0318855, "is_disabled": 0, "bike_id": "1417c540e960d7cfef631f78cf598531", "is_reserved": 0, "rental_uris": {"android": "https://dc.lft.to/lastmile_qr_scan", "ios": "https://dc.lft.to/lastmile_qr_scan"}, "lat": 38.918213333333334}, {"type": "electric_scooter", "name": "4c897cd0113705e8ca707dac6a78f0e9", "fusion_lat": 0.0, "fusion_lon": 0.0, "lon": -77.0318665, "is_disabled": 0, "bike_id": "4c897cd0113705e8ca707dac6a78f0e9", "is_reserved": 0, "rental_uris": {"android": "https://dc.lft.to/lastmile_qr_scan", "ios": "https://dc.lft.to/lastmile_qr_scan"}, "lat": 38.918349666666664}, {"type": "electric_scooter", "name": "5541181584aa764df87bc9d200ab5077", "fusion_lat": 0.0, "fusion_lon": 0.0, "lon": -77.02604716666667, "is_disabled": 0, "bike_id": "5541181584aa764df87bc9d200ab5077", "is_reserved": 0, "rental_uris": {"android": "https://dc.lft.to/lastmile_qr_scan", "ios": "https://dc.lft.to/lastmile_qr_scan"}, "lat": 38.90600383333334}, {"type": "electric_scooter", "name": "ea33bdbb9af6eba5dac33c6b6df57190", "fusion_lat": 0.0, "fusion_lon": 0.0, "lon": -77.038059, "is_disabled": 0, "bike_id": "ea33bdbb9af6eba5dac33c6b6df57190", "is_reserved": 0, "rental_uris": {"android": "https://dc.lft.to/lastmile_qr_scan", "ios": "https://dc.lft.to/lastmile_qr_scan"}, "lat": 38.91038866666667}, {"type": "electric_scooter", "name": "e014befc93b97109dea4bf5d6247e1fb", "fusion_lat": 0.0, "fusion_lon": 0.0, "lon": -77.04890233333333, "is_disabled": 0, "bike_id": "e014befc93b97109dea4bf5d6247e1fb", "is_reserved": 0, "rental_uris": {"android": "https://dc.lft.to/lastmile_qr_scan", "ios": "https://dc.lft.to/lastmile_qr_scan"}, "lat": 38.90073666666667}, {"type": "electric_scooter", "name": "7f1ca9640d0c9ae85dd9b1263b137ba3", "fusion_lat": 0.0, "fusion_lon": 0.0, "lon": -77.04867733333333, "is_disabled": 0, "bike_id": "7f1ca9640d0c9ae85dd9b1263b137ba3", "is_reserved": 0, "rental_uris": {"android": "https://dc.lft.to/lastmile_qr_scan", "ios": "https://dc.lft.to/lastmile_qr_scan"}, "lat": 38.911008}, {"type": "electric_scooter", "name": "5bb0997ba9c9ae770445a02580be477b", "fusion_lat": 0.0, "fusion_lon": 0.0, "lon": -77.0232145, "is_disabled": 0, "bike_id": "5bb0997ba9c9ae770445a02580be477b", "is_reserved": 0, "rental_uris": {"android": "https://dc.lft.to/lastmile_qr_scan", "ios": "https://dc.lft.to/lastmile_qr_scan"}, "lat": 38.930566166666665}, {"type": "electric_scooter", "name": "9724f6dfbc8390964b97d70351771a2a", "fusion_lat": 0.0, "fusion_lon": 0.0, "lon": -77.03462033333334, "is_disabled": 0, "bike_id": "9724f6dfbc8390964b97d70351771a2a", "is_reserved": 0, "rental_uris": {"android": "https://dc.lft.to/lastmile_qr_scan", "ios": "https://dc.lft.to/lastmile_qr_scan"}, "lat": 38.917236333333335}, {"type": "electric_scooter", "name": "106d85d6c0ef5fc9d5e8b621e30ff7d2", "fusion_lat": 0.0, "fusion_lon": 0.0, "lon": -77.04177266666666, "is_disabled": 0, "bike_id": "106d85d6c0ef5fc9d5e8b621e30ff7d2", "is_reserved": 0, "rental_uris": {"android": "https://dc.lft.to/lastmile_qr_scan", "ios": "https://dc.lft.to/lastmile_qr_scan"}, "lat": 38.92010283333333}, {"type": "electric_scooter", "name": "1308aebc3dfcfc2516d639e59130d2ed", "fusion_lat": 0.0, "fusion_lon": 0.0, "lon": -77.0487165, "is_disabled": 0, "bike_id": "1308aebc3dfcfc2516d639e59130d2ed", "is_reserved": 0, "rental_uris": {"android": "https://dc.lft.to/lastmile_qr_scan", "ios": "https://dc.lft.to/lastmile_qr_scan"}, "lat": 38.909101166666666}, {"type": "electric_scooter", "name": "cea16cf698700d358b7b3508922b277b", "fusion_lat": 0.0, "fusion_lon": 0.0, "lon": -77.02224783333334, "is_disabled": 0, "bike_id": "cea16cf698700d358b7b3508922b277b", "is_reserved": 0, "rental_uris": {"android": "https://dc.lft.to/lastmile_qr_scan", "ios": "https://dc.lft.to/lastmile_qr_scan"}, "lat": 38.912692}, {"type": "electric_scooter", "name": "66dfffe940a6acb1045c55396eb64dc3", "fusion_lat": 0.0, "fusion_lon": 0.0, "lon": -76.99904066666667, "is_disabled": 0, "bike_id": "66dfffe940a6acb1045c55396eb64dc3", "is_reserved": 0, "rental_uris": {"android": "https://dc.lft.to/lastmile_qr_scan", "ios": "https://dc.lft.to/lastmile_qr_scan"}, "lat": 38.937537}, {"type": "electric_scooter", "name": "3750fdc7aa126459d53816eac2cd98fe", "fusion_lat": 0.0, "fusion_lon": 0.0, "lon": -76.98354833333333, "is_disabled": 0, "bike_id": "3750fdc7aa126459d53816eac2cd98fe", "is_reserved": 0, "rental_uris": {"android": "https://dc.lft.to/lastmile_qr_scan", "ios": "https://dc.lft.to/lastmile_qr_scan"}, "lat": 38.88745683333333}, {"type": "electric_scooter", "name": "a0e5770986ed5e6cd5dadb631e27ba60", "fusion_lat": 0.0, "fusion_lon": 0.0, "lon": -77.033832, "is_disabled": 0, "bike_id": "a0e5770986ed5e6cd5dadb631e27ba60", "is_reserved": 0, "rental_uris": {"android": "https://dc.lft.to/lastmile_qr_scan", "ios": "https://dc.lft.to/lastmile_qr_scan"}, "lat": 38.90141166666667}, {"type": "electric_bike", "name": "b7c35b6a57efd55dca09e04ed214773b", "fusion_lat": 0.0, "fusion_lon": 0.0, "lon": -76.98685183333333, "is_disabled": 0, "bike_id": "b7c35b6a57efd55dca09e04ed214773b", "is_reserved": 0, "rental_uris": {"android": "https://dc.lft.to/lastmile_qr_scan", "ios": "https://dc.lft.to/lastmile_qr_scan"}, "lat": 38.944753166666665}, {"type": "electric_scooter", "name": "1b1754b8572220f5325637b29ad5a987", "fusion_lat": 0.0, "fusion_lon": 0.0, "lon": -77.022441, "is_disabled": 0, "bike_id": "1b1754b8572220f5325637b29ad5a987", "is_reserved": 0, "rental_uris": {"android": "https://dc.lft.to/lastmile_qr_scan", "ios": "https://dc.lft.to/lastmile_qr_scan"}, "lat": 38.89482133333333}, {"type": "electric_scooter", "name": "3c5d66e240682a5679f81aa6b20e78ff", "fusion_lat": 0.0, "fusion_lon": 0.0, "lon": -77.02717233333334, "is_disabled": 0, "bike_id": "3c5d66e240682a5679f81aa6b20e78ff", "is_reserved": 0, "rental_uris": {"android": "https://dc.lft.to/lastmile_qr_scan", "ios": "https://dc.lft.to/lastmile_qr_scan"}, "lat": 38.9167025}, {"type": "electric_scooter", "name": "179ce8299efe17ab1e799425162658fc", "fusion_lat": 0.0, "fusion_lon": 0.0, "lon": -77.02688933333333, "is_disabled": 0, "bike_id": "179ce8299efe17ab1e799425162658fc", "is_reserved": 0, "rental_uris": {"android": "https://dc.lft.to/lastmile_qr_scan", "ios": "https://dc.lft.to/lastmile_qr_scan"}, "lat": 38.90049416666667}, {"type": "electric_scooter", "name": "8f6f7526cc21ce41cd12feb19da6d488", "fusion_lat": 0.0, "fusion_lon": 0.0, "lon": -77.02814866666667, "is_disabled": 0, "bike_id": "8f6f7526cc21ce41cd12feb19da6d488", "is_reserved": 0, "rental_uris": {"android": "https://dc.lft.to/lastmile_qr_scan", "ios": "https://dc.lft.to/lastmile_qr_scan"}, "lat": 38.909351666666666}, {"type": "electric_scooter", "name": "fbf8e0beef5eb73b33a7f0b089dca12d", "fusion_lat": 0.0, "fusion_lon": 0.0, "lon": -77.0281215, "is_disabled": 0, "bike_id": "fbf8e0beef5eb73b33a7f0b089dca12d", "is_reserved": 0, "rental_uris": {"android": "https://dc.lft.to/lastmile_qr_scan", "ios": "https://dc.lft.to/lastmile_qr_scan"}, "lat": 38.8964345}, {"type": "electric_scooter", "name": "5c5721a6fea5dfaedd537633682c1446", "fusion_lat": 0.0, "fusion_lon": 0.0, "lon": -77.04217033333333, "is_disabled": 0, "bike_id": "5c5721a6fea5dfaedd537633682c1446", "is_reserved": 0, "rental_uris": {"android": "https://dc.lft.to/lastmile_qr_scan", "ios": "https://dc.lft.to/lastmile_qr_scan"}, "lat": 38.9217345}, {"type": "electric_bike", "name": "ae4808ccf26634484163471b197a25fa", "fusion_lat": 0.0, "fusion_lon": 0.0, "lon": -77.0383765, "is_disabled": 0, "bike_id": "ae4808ccf26634484163471b197a25fa", "is_reserved": 0, "rental_uris": {"android": "https://dc.lft.to/lastmile_qr_scan", "ios": "https://dc.lft.to/lastmile_qr_scan"}, "lat": 38.93108566666667}, {"type": "electric_scooter", "name": "4115eeb77d3fbe68678246894b17a40f", "fusion_lat": 0.0, "fusion_lon": 0.0, "lon": -77.02558916666666, "is_disabled": 0, "bike_id": "4115eeb77d3fbe68678246894b17a40f", "is_reserved": 0, "rental_uris": {"android": "https://dc.lft.to/lastmile_qr_scan", "ios": "https://dc.lft.to/lastmile_qr_scan"}, "lat": 38.887471166666664}, {"type": "electric_scooter", "name": "68ac27b31c45e7ef7c4afa720b9cf8f7", "fusion_lat": 0.0, "fusion_lon": 0.0, "lon": -77.04233783333333, "is_disabled": 0, "bike_id": "68ac27b31c45e7ef7c4afa720b9cf8f7", "is_reserved": 0, "rental_uris": {"android": "https://dc.lft.to/lastmile_qr_scan", "ios": "https://dc.lft.to/lastmile_qr_scan"}, "lat": 38.91120266666667}, {"type": "electric_scooter", "name": "dab661ffa3cd10421c9e402a797e2c32", "fusion_lat": 0.0, "fusion_lon": 0.0, "lon": -77.02858366666666, "is_disabled": 0, "bike_id": "dab661ffa3cd10421c9e402a797e2c32", "is_reserved": 0, "rental_uris": {"android": "https://dc.lft.to/lastmile_qr_scan", "ios": "https://dc.lft.to/lastmile_qr_scan"}, "lat": 38.90565333333333}, {"type": "electric_scooter", "name": "f8c7eacf22491847f8326ebc39bc7263", "fusion_lat": 0.0, "fusion_lon": 0.0, "lon": -77.029459, "is_disabled": 0, "bike_id": "f8c7eacf22491847f8326ebc39bc7263", "is_reserved": 0, "rental_uris": {"android": "https://dc.lft.to/lastmile_qr_scan", "ios": "https://dc.lft.to/lastmile_qr_scan"}, "lat": 38.9054605}, {"type": "electric_bike", "name": "a1b99c88dfef898e66125f47b9b673a6", "fusion_lat": 0.0, "fusion_lon": 0.0, "lon": -77.08980966666667, "is_disabled": 0, "bike_id": "a1b99c88dfef898e66125f47b9b673a6", "is_reserved": 0, "rental_uris": {"android": "https://dc.lft.to/lastmile_qr_scan", "ios": "https://dc.lft.to/lastmile_qr_scan"}, "lat": 38.911759333333336}, {"type": "electric_scooter", "name": "14050836e3dc2acaccfa4b1b7ba275d2", "fusion_lat": 0.0, "fusion_lon": 0.0, "lon": -77.02640716666667, "is_disabled": 0, "bike_id": "14050836e3dc2acaccfa4b1b7ba275d2", "is_reserved": 0, "rental_uris": {"android": "https://dc.lft.to/lastmile_qr_scan", "ios": "https://dc.lft.to/lastmile_qr_scan"}, "lat": 38.9041895}, {"type": "electric_scooter", "name": "c6ad07979f2dd8c4cc430363a8eb384b", "fusion_lat": 0.0, "fusion_lon": 0.0, "lon": -77.04030033333333, "is_disabled": 0, "bike_id": "c6ad07979f2dd8c4cc430363a8eb384b", "is_reserved": 0, "rental_uris": {"android": "https://dc.lft.to/lastmile_qr_scan", "ios": "https://dc.lft.to/lastmile_qr_scan"}, "lat": 38.918093999999996}, {"type": "electric_scooter", "name": "89bdf05ec184fc921420c678dc6d1807", "fusion_lat": 0.0, "fusion_lon": 0.0, "lon": -77.01869183333334, "is_disabled": 0, "bike_id": "89bdf05ec184fc921420c678dc6d1807", "is_reserved": 0, "rental_uris": {"android": "https://dc.lft.to/lastmile_qr_scan", "ios": "https://dc.lft.to/lastmile_qr_scan"}, "lat": 38.914150166666666}, {"type": "electric_scooter", "name": "07666dc1a309a188fd9de6a6d58c8545", "fusion_lat": 0.0, "fusion_lon": 0.0, "lon": -77.06329533333333, "is_disabled": 0, "bike_id": "07666dc1a309a188fd9de6a6d58c8545", "is_reserved": 0, "rental_uris": {"android": "https://dc.lft.to/lastmile_qr_scan", "ios": "https://dc.lft.to/lastmile_qr_scan"}, "lat": 38.9215195}, {"type": "electric_scooter", "name": "41b765ec75ad2a32682c5a967100bf34", "fusion_lat": 0.0, "fusion_lon": 0.0, "lon": -77.04028883333334, "is_disabled": 0, "bike_id": "41b765ec75ad2a32682c5a967100bf34", "is_reserved": 0, "rental_uris": {"android": "https://dc.lft.to/lastmile_qr_scan", "ios": "https://dc.lft.to/lastmile_qr_scan"}, "lat": 38.9180555}, {"type": "electric_scooter", "name": "49a9d0e7d4902d3d6b2b65ca3ac1a353", "fusion_lat": 0.0, "fusion_lon": 0.0, "lon": -77.0417345, "is_disabled": 0, "bike_id": "49a9d0e7d4902d3d6b2b65ca3ac1a353", "is_reserved": 0, "rental_uris": {"android": "https://dc.lft.to/lastmile_qr_scan", "ios": "https://dc.lft.to/lastmile_qr_scan"}, "lat": 38.9182315}, {"type": "electric_scooter", "name": "77251093cdfd32194de47b251f9f89ef", "fusion_lat": 0.0, "fusion_lon": 0.0, "lon": -77.0356695, "is_disabled": 0, "bike_id": "77251093cdfd32194de47b251f9f89ef", "is_reserved": 0, "rental_uris": {"android": "https://dc.lft.to/lastmile_qr_scan", "ios": "https://dc.lft.to/lastmile_qr_scan"}, "lat": 38.918139333333336}, {"type": "electric_scooter", "name": "1ed3e91106b33c15a9f8117401d4b3a6", "fusion_lat": 0.0, "fusion_lon": 0.0, "lon": -77.04330366666667, "is_disabled": 0, "bike_id": "1ed3e91106b33c15a9f8117401d4b3a6", "is_reserved": 0, "rental_uris": {"android": "https://dc.lft.to/lastmile_qr_scan", "ios": "https://dc.lft.to/lastmile_qr_scan"}, "lat": 38.89690733333333}, {"type": "electric_scooter", "name": "f454a2a8e7dafd64b401585bacde59c4", "fusion_lat": 0.0, "fusion_lon": 0.0, "lon": -76.99033183333333, "is_disabled": 0, "bike_id": "f454a2a8e7dafd64b401585bacde59c4", "is_reserved": 0, "rental_uris": {"android": "https://dc.lft.to/lastmile_qr_scan", "ios": "https://dc.lft.to/lastmile_qr_scan"}, "lat": 38.88880066666667}, {"type": "electric_scooter", "name": "734c9d37d2497a8f261832bedf2cec4f", "fusion_lat": 0.0, "fusion_lon": 0.0, "lon": -77.034725, "is_disabled": 0, "bike_id": "734c9d37d2497a8f261832bedf2cec4f", "is_reserved": 0, "rental_uris": {"android": "https://dc.lft.to/lastmile_qr_scan", "ios": "https://dc.lft.to/lastmile_qr_scan"}, "lat": 38.9005425}, {"type": "electric_scooter", "name": "b62046a94636484820428f913018d980", "fusion_lat": 0.0, "fusion_lon": 0.0, "lon": -76.99767133333333, "is_disabled": 0, "bike_id": "b62046a94636484820428f913018d980", "is_reserved": 0, "rental_uris": {"android": "https://dc.lft.to/lastmile_qr_scan", "ios": "https://dc.lft.to/lastmile_qr_scan"}, "lat": 38.91113933333333}, {"type": "electric_scooter", "name": "1e65a2d6b4679fedc2d06604fd00ff99", "fusion_lat": 0.0, "fusion_lon": 0.0, "lon": -77.03166866666666, "is_disabled": 0, "bike_id": "1e65a2d6b4679fedc2d06604fd00ff99", "is_reserved": 0, "rental_uris": {"android": "https://dc.lft.to/lastmile_qr_scan", "ios": "https://dc.lft.to/lastmile_qr_scan"}, "lat": 38.892629666666664}, {"type": "electric_scooter", "name": "1a508f6292b09bc7071ee083ed6dd9c5", "fusion_lat": 0.0, "fusion_lon": 0.0, "lon": -77.01696, "is_disabled": 0, "bike_id": "1a508f6292b09bc7071ee083ed6dd9c5", "is_reserved": 0, "rental_uris": {"android": "https://dc.lft.to/lastmile_qr_scan", "ios": "https://dc.lft.to/lastmile_qr_scan"}, "lat": 38.91383866666666}, {"type": "electric_scooter", "name": "f10ed7578a623c1c6fdb97868270d85f", "fusion_lat": 0.0, "fusion_lon": 0.0, "lon": -77.02333216666666, "is_disabled": 0, "bike_id": "f10ed7578a623c1c6fdb97868270d85f", "is_reserved": 0, "rental_uris": {"android": "https://dc.lft.to/lastmile_qr_scan", "ios": "https://dc.lft.to/lastmile_qr_scan"}, "lat": 38.922307}, {"type": "electric_scooter", "name": "73452531e248e73d3eee92df75f95982", "fusion_lat": 0.0, "fusion_lon": 0.0, "lon": -77.03212516666666, "is_disabled": 0, "bike_id": "73452531e248e73d3eee92df75f95982", "is_reserved": 0, "rental_uris": {"android": "https://dc.lft.to/lastmile_qr_scan", "ios": "https://dc.lft.to/lastmile_qr_scan"}, "lat": 38.92863083333334}, {"type": "electric_scooter", "name": "b6f14b33201ba7142b47626f496ee5d8", "fusion_lat": 0.0, "fusion_lon": 0.0, "lon": -77.0270215, "is_disabled": 0, "bike_id": "b6f14b33201ba7142b47626f496ee5d8", "is_reserved": 0, "rental_uris": {"android": "https://dc.lft.to/lastmile_qr_scan", "ios": "https://dc.lft.to/lastmile_qr_scan"}, "lat": 38.918200166666665}, {"type": "electric_bike", "name": "6f3a22ec43743113c88cd8ff9ca98301", "fusion_lat": 0.0, "fusion_lon": 0.0, "lon": -77.04302766666666, "is_disabled": 0, "bike_id": "6f3a22ec43743113c88cd8ff9ca98301", "is_reserved": 0, "rental_uris": {"android": "https://dc.lft.to/lastmile_qr_scan", "ios": "https://dc.lft.to/lastmile_qr_scan"}, "lat": 39.03421433333333}, {"type": "electric_scooter", "name": "9c3ebb9f72e1b621168af403183d6b81", "fusion_lat": 0.0, "fusion_lon": 0.0, "lon": -77.0175405, "is_disabled": 0, "bike_id": "9c3ebb9f72e1b621168af403183d6b81", "is_reserved": 0, "rental_uris": {"android": "https://dc.lft.to/lastmile_qr_scan", "ios": "https://dc.lft.to/lastmile_qr_scan"}, "lat": 38.876862833333334}, {"type": "electric_scooter", "name": "66d1333552bf56bb1bdc0c76dca0c269", "fusion_lat": 0.0, "fusion_lon": 0.0, "lon": -77.00494583333334, "is_disabled": 0, "bike_id": "66d1333552bf56bb1bdc0c76dca0c269", "is_reserved": 0, "rental_uris": {"android": "https://dc.lft.to/lastmile_qr_scan", "ios": "https://dc.lft.to/lastmile_qr_scan"}, "lat": 38.879441166666666}, {"type": "electric_scooter", "name": "f87cfdb99d95c48a7e7d275d333f2754", "fusion_lat": 0.0, "fusion_lon": 0.0, "lon": -77.00144683333333, "is_disabled": 0, "bike_id": "f87cfdb99d95c48a7e7d275d333f2754", "is_reserved": 0, "rental_uris": {"android": "https://dc.lft.to/lastmile_qr_scan", "ios": "https://dc.lft.to/lastmile_qr_scan"}, "lat": 38.919115833333336}, {"type": "electric_scooter", "name": "23d310c93380e0965b8b7022179afb13", "fusion_lat": 0.0, "fusion_lon": 0.0, "lon": -77.03642716666667, "is_disabled": 0, "bike_id": "23d310c93380e0965b8b7022179afb13", "is_reserved": 0, "rental_uris": {"android": "https://dc.lft.to/lastmile_qr_scan", "ios": "https://dc.lft.to/lastmile_qr_scan"}, "lat": 38.91246733333333}, {"type": "electric_scooter", "name": "9a7c48ee16b6b661f8983dbd43931307", "fusion_lat": 0.0, "fusion_lon": 0.0, "lon": -77.02178666666667, "is_disabled": 0, "bike_id": "9a7c48ee16b6b661f8983dbd43931307", "is_reserved": 0, "rental_uris": {"android": "https://dc.lft.to/lastmile_qr_scan", "ios": "https://dc.lft.to/lastmile_qr_scan"}, "lat": 38.914838833333334}, {"type": "electric_scooter", "name": "56d3c2f8811b7f8e3ce36374c9a86535", "fusion_lat": 0.0, "fusion_lon": 0.0, "lon": -77.027091, "is_disabled": 0, "bike_id": "56d3c2f8811b7f8e3ce36374c9a86535", "is_reserved": 0, "rental_uris": {"android": "https://dc.lft.to/lastmile_qr_scan", "ios": "https://dc.lft.to/lastmile_qr_scan"}, "lat": 38.909528333333334}, {"type": "electric_scooter", "name": "32ad5df89b70c79ff2b215ab4f35a2c5", "fusion_lat": 0.0, "fusion_lon": 0.0, "lon": -77.02211066666666, "is_disabled": 0, "bike_id": "32ad5df89b70c79ff2b215ab4f35a2c5", "is_reserved": 0, "rental_uris": {"android": "https://dc.lft.to/lastmile_qr_scan", "ios": "https://dc.lft.to/lastmile_qr_scan"}, "lat": 38.893194666666666}, {"type": "electric_scooter", "name": "4f882cfe29017f520056deb8cc1cc20c", "fusion_lat": 0.0, "fusion_lon": 0.0, "lon": -77.04005383333333, "is_disabled": 0, "bike_id": "4f882cfe29017f520056deb8cc1cc20c", "is_reserved": 0, "rental_uris": {"android": "https://dc.lft.to/lastmile_qr_scan", "ios": "https://dc.lft.to/lastmile_qr_scan"}, "lat": 38.91692466666667}, {"type": "electric_scooter", "name": "7ca15da50babc81ee50b695eef36a754", "fusion_lat": 0.0, "fusion_lon": 0.0, "lon": -77.0219945, "is_disabled": 0, "bike_id": "7ca15da50babc81ee50b695eef36a754", "is_reserved": 0, "rental_uris": {"android": "https://dc.lft.to/lastmile_qr_scan", "ios": "https://dc.lft.to/lastmile_qr_scan"}, "lat": 38.910492}, {"type": "electric_scooter", "name": "024636c74d22cbee29796d89c61010e6", "fusion_lat": 0.0, "fusion_lon": 0.0, "lon": -77.07446083333333, "is_disabled": 0, "bike_id": "024636c74d22cbee29796d89c61010e6", "is_reserved": 0, "rental_uris": {"android": "https://dc.lft.to/lastmile_qr_scan", "ios": "https://dc.lft.to/lastmile_qr_scan"}, "lat": 38.93781}, {"type": "electric_scooter", "name": "b9783fc007a4a5c63bea30e6ace62ad5", "fusion_lat": 0.0, "fusion_lon": 0.0, "lon": -76.99895283333333, "is_disabled": 0, "bike_id": "b9783fc007a4a5c63bea30e6ace62ad5", "is_reserved": 0, "rental_uris": {"android": "https://dc.lft.to/lastmile_qr_scan", "ios": "https://dc.lft.to/lastmile_qr_scan"}, "lat": 38.95294333333333}, {"type": "electric_scooter", "name": "7e6352acd3fbd9a419c23c2e38f602c5", "fusion_lat": 0.0, "fusion_lon": 0.0, "lon": -77.02380833333333, "is_disabled": 0, "bike_id": "7e6352acd3fbd9a419c23c2e38f602c5", "is_reserved": 0, "rental_uris": {"android": "https://dc.lft.to/lastmile_qr_scan", "ios": "https://dc.lft.to/lastmile_qr_scan"}, "lat": 38.95274533333333}, {"type": "electric_scooter", "name": "d194df0852d23fdb8cfad71482ddb15e", "fusion_lat": 0.0, "fusion_lon": 0.0, "lon": -76.94083983333333, "is_disabled": 0, "bike_id": "d194df0852d23fdb8cfad71482ddb15e", "is_reserved": 0, "rental_uris": {"android": "https://dc.lft.to/lastmile_qr_scan", "ios": "https://dc.lft.to/lastmile_qr_scan"}, "lat": 38.891215833333334}, {"type": "electric_scooter", "name": "62d238144762840642d2200021bfd86f", "fusion_lat": 0.0, "fusion_lon": 0.0, "lon": -77.023732, "is_disabled": 0, "bike_id": "62d238144762840642d2200021bfd86f", "is_reserved": 0, "rental_uris": {"android": "https://dc.lft.to/lastmile_qr_scan", "ios": "https://dc.lft.to/lastmile_qr_scan"}, "lat": 38.902141666666665}, {"type": "electric_scooter", "name": "31a6be845358e45456f56fed6507f6bb", "fusion_lat": 0.0, "fusion_lon": 0.0, "lon": -76.9986655, "is_disabled": 0, "bike_id": "31a6be845358e45456f56fed6507f6bb", "is_reserved": 0, "rental_uris": {"android": "https://dc.lft.to/lastmile_qr_scan", "ios": "https://dc.lft.to/lastmile_qr_scan"}, "lat": 38.900302}, {"type": "electric_scooter", "name": "a92b4da479c2e7cd97065a25837744e8", "fusion_lat": 0.0, "fusion_lon": 0.0, "lon": -77.04131116666667, "is_disabled": 0, "bike_id": "a92b4da479c2e7cd97065a25837744e8", "is_reserved": 0, "rental_uris": {"android": "https://dc.lft.to/lastmile_qr_scan", "ios": "https://dc.lft.to/lastmile_qr_scan"}, "lat": 38.92202983333333}, {"type": "electric_scooter", "name": "40bfc0aeb623ce7ebfeb3accdafcde53", "fusion_lat": 0.0, "fusion_lon": 0.0, "lon": -77.02549883333333, "is_disabled": 0, "bike_id": "40bfc0aeb623ce7ebfeb3accdafcde53", "is_reserved": 0, "rental_uris": {"android": "https://dc.lft.to/lastmile_qr_scan", "ios": "https://dc.lft.to/lastmile_qr_scan"}, "lat": 38.915515166666665}, {"type": "electric_scooter", "name": "78bda9f1005b81b5076622fd5e494db9", "fusion_lat": 0.0, "fusion_lon": 0.0, "lon": -77.03183883333334, "is_disabled": 0, "bike_id": "78bda9f1005b81b5076622fd5e494db9", "is_reserved": 0, "rental_uris": {"android": "https://dc.lft.to/lastmile_qr_scan", "ios": "https://dc.lft.to/lastmile_qr_scan"}, "lat": 38.9142485}, {"type": "electric_scooter", "name": "1de17dd81c619b076d28c653bcfcfbce", "fusion_lat": 0.0, "fusion_lon": 0.0, "lon": -77.03214266666667, "is_disabled": 0, "bike_id": "1de17dd81c619b076d28c653bcfcfbce", "is_reserved": 0, "rental_uris": {"android": "https://dc.lft.to/lastmile_qr_scan", "ios": "https://dc.lft.to/lastmile_qr_scan"}, "lat": 38.914074666666664}, {"type": "electric_scooter", "name": "c59976004d912994a83a1126cf90f7ee", "fusion_lat": 0.0, "fusion_lon": 0.0, "lon": -77.026888, "is_disabled": 0, "bike_id": "c59976004d912994a83a1126cf90f7ee", "is_reserved": 0, "rental_uris": {"android": "https://dc.lft.to/lastmile_qr_scan", "ios": "https://dc.lft.to/lastmile_qr_scan"}, "lat": 38.91389566666667}, {"type": "electric_scooter", "name": "e39bb1cd29d6fccd7cb71e4d35b3fc6d", "fusion_lat": 0.0, "fusion_lon": 0.0, "lon": -77.02182083333334, "is_disabled": 0, "bike_id": "e39bb1cd29d6fccd7cb71e4d35b3fc6d", "is_reserved": 0, "rental_uris": {"android": "https://dc.lft.to/lastmile_qr_scan", "ios": "https://dc.lft.to/lastmile_qr_scan"}, "lat": 38.909538166666664}, {"type": "electric_scooter", "name": "d9317ecdf52203b41ca16867a20b1f39", "fusion_lat": 0.0, "fusion_lon": 0.0, "lon": -77.032585, "is_disabled": 0, "bike_id": "d9317ecdf52203b41ca16867a20b1f39", "is_reserved": 0, "rental_uris": {"android": "https://dc.lft.to/lastmile_qr_scan", "ios": "https://dc.lft.to/lastmile_qr_scan"}, "lat": 38.93736033333333}, {"type": "electric_scooter", "name": "aa7065fe42e8783a41e59d06370e1097", "fusion_lat": 0.0, "fusion_lon": 0.0, "lon": -77.048724, "is_disabled": 0, "bike_id": "aa7065fe42e8783a41e59d06370e1097", "is_reserved": 0, "rental_uris": {"android": "https://dc.lft.to/lastmile_qr_scan", "ios": "https://dc.lft.to/lastmile_qr_scan"}, "lat": 38.90908783333333}, {"type": "electric_bike", "name": "71e6aeb70a5f76233039addd63011fdd", "fusion_lat": 0.0, "fusion_lon": 0.0, "lon": -77.234058, "is_disabled": 0, "bike_id": "71e6aeb70a5f76233039addd63011fdd", "is_reserved": 0, "rental_uris": {"android": "https://dc.lft.to/lastmile_qr_scan", "ios": "https://dc.lft.to/lastmile_qr_scan"}, "lat": 38.875765333333334}, {"type": "electric_scooter", "name": "a3c3dc67a7587edd6eefae2e74c37c5d", "fusion_lat": 0.0, "fusion_lon": 0.0, "lon": -77.0360145, "is_disabled": 0, "bike_id": "a3c3dc67a7587edd6eefae2e74c37c5d", "is_reserved": 0, "rental_uris": {"android": "https://dc.lft.to/lastmile_qr_scan", "ios": "https://dc.lft.to/lastmile_qr_scan"}, "lat": 38.9348795}, {"type": "electric_scooter", "name": "8004f7e579c5894b9df4c39a198843cb", "fusion_lat": 0.0, "fusion_lon": 0.0, "lon": -77.02176316666667, "is_disabled": 0, "bike_id": "8004f7e579c5894b9df4c39a198843cb", "is_reserved": 0, "rental_uris": {"android": "https://dc.lft.to/lastmile_qr_scan", "ios": "https://dc.lft.to/lastmile_qr_scan"}, "lat": 38.911089833333335}, {"type": "electric_scooter", "name": "e7307478262f43c94f2018f6dd8a2556", "fusion_lat": 0.0, "fusion_lon": 0.0, "lon": -77.03262366666667, "is_disabled": 0, "bike_id": "e7307478262f43c94f2018f6dd8a2556", "is_reserved": 0, "rental_uris": {"android": "https://dc.lft.to/lastmile_qr_scan", "ios": "https://dc.lft.to/lastmile_qr_scan"}, "lat": 38.93308566666666}, {"type": "electric_scooter", "name": "4234e1cac0d8310732ad543eb4dad695", "fusion_lat": 0.0, "fusion_lon": 0.0, "lon": -77.0734175, "is_disabled": 0, "bike_id": "4234e1cac0d8310732ad543eb4dad695", "is_reserved": 0, "rental_uris": {"android": "https://dc.lft.to/lastmile_qr_scan", "ios": "https://dc.lft.to/lastmile_qr_scan"}, "lat": 38.94322783333333}, {"type": "electric_scooter", "name": "1567777ab61440b1fcf7ab61986c068f", "fusion_lat": 0.0, "fusion_lon": 0.0, "lon": -77.02172366666667, "is_disabled": 0, "bike_id": "1567777ab61440b1fcf7ab61986c068f", "is_reserved": 0, "rental_uris": {"android": "https://dc.lft.to/lastmile_qr_scan", "ios": "https://dc.lft.to/lastmile_qr_scan"}, "lat": 38.914817}, {"type": "electric_scooter", "name": "e3a1b4520b3ea12710a39da870fa13f2", "fusion_lat": 0.0, "fusion_lon": 0.0, "lon": -77.06647033333333, "is_disabled": 0, "bike_id": "e3a1b4520b3ea12710a39da870fa13f2", "is_reserved": 0, "rental_uris": {"android": "https://dc.lft.to/lastmile_qr_scan", "ios": "https://dc.lft.to/lastmile_qr_scan"}, "lat": 38.9507445}, {"type": "electric_scooter", "name": "22cbf61870449585d5f990771bf0678d", "fusion_lat": 0.0, "fusion_lon": 0.0, "lon": -77.03841466666667, "is_disabled": 0, "bike_id": "22cbf61870449585d5f990771bf0678d", "is_reserved": 0, "rental_uris": {"android": "https://dc.lft.to/lastmile_qr_scan", "ios": "https://dc.lft.to/lastmile_qr_scan"}, "lat": 38.91539}, {"type": "electric_scooter", "name": "7902a1729484a8286b5e477f4b88fd8d", "fusion_lat": 0.0, "fusion_lon": 0.0, "lon": -77.04497783333333, "is_disabled": 0, "bike_id": "7902a1729484a8286b5e477f4b88fd8d", "is_reserved": 0, "rental_uris": {"android": "https://dc.lft.to/lastmile_qr_scan", "ios": "https://dc.lft.to/lastmile_qr_scan"}, "lat": 38.912753}, {"type": "electric_scooter", "name": "1f2d6dfa1284510b15ceec5ee02dc9d4", "fusion_lat": 0.0, "fusion_lon": 0.0, "lon": -77.03063583333333, "is_disabled": 0, "bike_id": "1f2d6dfa1284510b15ceec5ee02dc9d4", "is_reserved": 0, "rental_uris": {"android": "https://dc.lft.to/lastmile_qr_scan", "ios": "https://dc.lft.to/lastmile_qr_scan"}, "lat": 38.919297}, {"type": "electric_scooter", "name": "94bf0656936a360bda459a80508ed7df", "fusion_lat": 0.0, "fusion_lon": 0.0, "lon": -77.03272233333334, "is_disabled": 0, "bike_id": "94bf0656936a360bda459a80508ed7df", "is_reserved": 0, "rental_uris": {"android": "https://dc.lft.to/lastmile_qr_scan", "ios": "https://dc.lft.to/lastmile_qr_scan"}, "lat": 38.93152083333333}, {"type": "electric_scooter", "name": "8e3a78898f29a7f7c80ec684759ea82e", "fusion_lat": 0.0, "fusion_lon": 0.0, "lon": -77.0279965, "is_disabled": 0, "bike_id": "8e3a78898f29a7f7c80ec684759ea82e", "is_reserved": 0, "rental_uris": {"android": "https://dc.lft.to/lastmile_qr_scan", "ios": "https://dc.lft.to/lastmile_qr_scan"}, "lat": 38.91056283333333}, {"type": "electric_scooter", "name": "685826adb75ef6adeeab5131547ec6e5", "fusion_lat": 0.0, "fusion_lon": 0.0, "lon": -77.018871, "is_disabled": 0, "bike_id": "685826adb75ef6adeeab5131547ec6e5", "is_reserved": 0, "rental_uris": {"android": "https://dc.lft.to/lastmile_qr_scan", "ios": "https://dc.lft.to/lastmile_qr_scan"}, "lat": 38.8974775}, {"type": "electric_scooter", "name": "742992efb4388f99fa7544fe232aa083", "fusion_lat": 0.0, "fusion_lon": 0.0, "lon": -77.02643116666667, "is_disabled": 0, "bike_id": "742992efb4388f99fa7544fe232aa083", "is_reserved": 0, "rental_uris": {"android": "https://dc.lft.to/lastmile_qr_scan", "ios": "https://dc.lft.to/lastmile_qr_scan"}, "lat": 38.93102666666667}, {"type": "electric_scooter", "name": "6b48b91ec68df261c6821df4629fc367", "fusion_lat": 0.0, "fusion_lon": 0.0, "lon": -77.0383305, "is_disabled": 0, "bike_id": "6b48b91ec68df261c6821df4629fc367", "is_reserved": 0, "rental_uris": {"android": "https://dc.lft.to/lastmile_qr_scan", "ios": "https://dc.lft.to/lastmile_qr_scan"}, "lat": 38.90716666666667}, {"type": "electric_scooter", "name": "2593b25e65dfff318336390849e7ebd3", "fusion_lat": 0.0, "fusion_lon": 0.0, "lon": -77.1101425, "is_disabled": 0, "bike_id": "2593b25e65dfff318336390849e7ebd3", "is_reserved": 0, "rental_uris": {"android": "https://dc.lft.to/lastmile_qr_scan", "ios": "https://dc.lft.to/lastmile_qr_scan"}, "lat": 38.876939666666665}, {"type": "electric_scooter", "name": "eb9c006946d82e9055c6631b19bcfb17", "fusion_lat": 0.0, "fusion_lon": 0.0, "lon": -77.0243755, "is_disabled": 0, "bike_id": "eb9c006946d82e9055c6631b19bcfb17", "is_reserved": 0, "rental_uris": {"android": "https://dc.lft.to/lastmile_qr_scan", "ios": "https://dc.lft.to/lastmile_qr_scan"}, "lat": 38.92050016666666},