{"data": {"bikes": [{"type": "electric_scooter", "name": "f4d9a99017672afea6091c8d86a9330c", "is_reserved": 0, "fusion_lat": 0.0, "lon": -76.9375125, "is_disabled": 0, "rental_uris": {"android": "https://dc.lft.to/lastmile_qr_scan", "ios": "https://dc.lft.to/lastmile_qr_scan"}, "bike_id": "f4d9a99017672afea6091c8d86a9330c", "fusion_lon": 0.0, "lat": 38.89042116666667}, {"type": "electric_bike", "name": "3ba637fb8776a76bb1c4c7c33d14c95c", "is_reserved": 0, "fusion_lat": 0.0, "lon": -77.22557633333334, "is_disabled": 0, "rental_uris": {"android": "https://dc.lft.to/lastmile_qr_scan", "ios": "https://dc.lft.to/lastmile_qr_scan"}, "bike_id": "3ba637fb8776a76bb1c4c7c33d14c95c", "fusion_lon": 0.0, "lat": 38.92967483333334}, {"type": "electric_scooter", "name": "a00f42d6bb17d0acb498802c01388156", "is_reserved": 0, "fusion_lat": 0.0, "lon": -77.04800416666667, "is_disabled": 0, "rental_uris": {"android": "https://dc.lft.to/lastmile_qr_scan", "ios": "https://dc.lft.to/lastmile_qr_scan"}, "bike_id": "a00f42d6bb17d0acb498802c01388156", "fusion_lon": 0.0, "lat": 38.89221416666667}, {"type": "electric_scooter", "name": "684821d3c73a3a20d5643d0bbb3b9239", "is_reserved": 0, "fusion_lat": 0.0, "lon": -77.043156, "is_disabled": 0, "rental_uris": {"android": "https://dc.lft.to/lastmile_qr_scan", "ios": "https://dc.lft.to/lastmile_qr_scan"}, "bike_id": "684821d3c73a3a20d5643d0bbb3b9239", "fusion_lon": 0.0, "lat": 38.926583}, {"type": "electric_scooter", "name": "ebdcdd8c9cd9c07b6127d02493aa6d3b", "is_reserved": 0, "fusion_lat": 0.0, "lon": -77.00903566666666, "is_disabled": 0, "rental_uris": {"android": "https://dc.lft.to/lastmile_qr_scan", "ios": "https://dc.lft.to/lastmile_qr_scan"}, "bike_id": "ebdcdd8c9cd9c07b6127d02493aa6d3b", "fusion_lon": 0.0, "lat": 38.89952066666667}, {"type": "electric_scooter", "name": "bceac3fd2a73c246a6820ed34dcf5fe4", "is_reserved": 0, "fusion_lat": 0.0, "lon": -77.04068583333333, "is_disabled": 0, "rental_uris": {"android": "https://dc.lft.to/lastmile_qr_scan", "ios": "https://dc.lft.to/lastmile_qr_scan"}, "bike_id": "bceac3fd2a73c246a6820ed34dcf5fe4", "fusion_lon": 0.0, "lat": 38.91781266666667}, {"type": "electric_scooter", "name": "6f1ecdc6654d8bea29f7c60d68b905fd", "is_reserved": 0, "fusion_lat": 0.0, "lon": -77.051247, "is_disabled": 0, "rental_uris": {"android": "https://dc.lft.to/lastmile_qr_scan", "ios": "https://dc.lft.to/lastmile_qr_scan"}, "bike_id": "6f1ecdc6654d8bea29f7c60d68b905fd", "fusion_lon": 0.0, "lat": 38.9234815}, {"type": "electric_scooter", "name": "e62cd81bdc71a418c9b0a2d9525d7e47", "is_reserved": 0, "fusion_lat": 0.0, "lon": -77.00205266666667, "is_disabled": 0, "rental_uris": {"android": "https://dc.lft.to/lastmile_qr_scan", "ios": "https://dc.lft.to/lastmile_qr_scan"}, "bike_id": "e62cd81bdc71a418c9b0a2d9525d7e47", "fusion_lon": 0.0, "lat": 38.88739183333333}, {"type": "electric_scooter", "name": "2d48ee959c26bcfd2a2f29b63ef356e0", "is_reserved": 0, "fusion_lat": 0.0, "lon": -77.02393666666667, "is_disabled": 0, "rental_uris": {"android": "https://dc.lft.to/lastmile_qr_scan", "ios": "https://dc.lft.to/lastmile_qr_scan"}, "bike_id": "2d48ee959c26bcfd2a2f29b63ef356e0", "fusion_lon": 0.0, "lat": 38.896336}, {"type": "electric_scooter", "name": "c37237ef3ea9a5229fa400d856d967e4", "is_reserved": 0, "fusion_lat": 0.0, "lon": -77.02200066666667, "is_disabled": 0, "rental_uris": {"android": "https://dc.lft.to/lastmile_qr_scan", "ios": "https://dc.lft.to/lastmile_qr_scan"}, "bike_id": "c37237ef3ea9a5229fa400d856d967e4", "fusion_lon": 0.0, "lat": 38.909525}, {"type": "electric_scooter", "name": "7daa788307a8c155770e2dbb3990f86f", "is_reserved": 0, "fusion_lat": 0.0, "lon": -76.9888555, "is_disabled": 0, "rental_uris": {"android": "https://dc.lft.to/lastmile_qr_scan", "ios": "https://dc.lft.to/lastmile_qr_scan"}, "bike_id": "7daa788307a8c155770e2dbb3990f86f", "fusion_lon": 0.0, "lat": 38.86653366666667}, {"type": "electric_scooter", "name": "49954a6c63d9372ff2b01c89536e363b", "is_reserved": 0, "fusion_lat": 0.0, "lon": -77.031869, "is_disabled": 0, "rental_uris": {"android": "https://dc.lft.to/lastmile_qr_scan", "ios": "https://dc.lft.to/lastmile_qr_scan"}, "bike_id": "49954a6c63d9372ff2b01c89536e363b", "fusion_lon": 0.0, "lat": 38.91352333333333}, {"type": "electric_scooter", "name": "e051179bc3a5b4d6a9b90c889e029cb1", "is_reserved": 0, "fusion_lat": 0.0, "lon": -77.02936566666666, "is_disabled": 0, "rental_uris": {"android": "https://dc.lft.to/lastmile_qr_scan", "ios": "https://dc.lft.to/lastmile_qr_scan"}, "bike_id": "e051179bc3a5b4d6a9b90c889e029cb1", "fusion_lon": 0.0, "lat": 38.8992315}, {"type": "electric_bike", "name": "668c8d7944c3d74d6d293c9d056510d5", "is_reserved": 0, "fusion_lat": 0.0, "lon": -77.07557433333334, "is_disabled": 0, "rental_uris": {"android": "https://dc.lft.to/lastmile_qr_scan", "ios": "https://dc.lft.to/lastmile_qr_scan"}, "bike_id": "668c8d7944c3d74d6d293c9d056510d5", "fusion_lon": 0.0, "lat": 38.9104675}, {"type": "electric_scooter", "name": "8d2fcfc2547dfb167ed78c8f10bb84a3", "is_reserved": 0, "fusion_lat": 0.0, "lon": -77.017502, "is_disabled": 0, "rental_uris": {"android": "https://dc.lft.to/lastmile_qr_scan", "ios": "https://dc.lft.to/lastmile_qr_scan"}, "bike_id": "8d2fcfc2547dfb167ed78c8f10bb84a3", "fusion_lon": 0.0, "lat": 38.8873705}, {"type": "electric_scooter", "name": "592765386b33527b125fdb0653652abc", "is_reserved": 0, "fusion_lat": 0.0, "lon": -77.03001166666667, "is_disabled": 0, "rental_uris": {"android": "https://dc.lft.to/lastmile_qr_scan", "ios": "https://dc.lft.to/lastmile_qr_scan"}, "bike_id": "592765386b33527b125fdb0653652abc", "fusion_lon": 0.0, "lat": 38.894155166666664}, {"type": "electric_scooter", "name": "ab3a07b2ff51fe7d77dcd6fc417a9ba1", "is_reserved": 0, "fusion_lat": 0.0, "lon": -77.039737, "is_disabled": 0, "rental_uris": {"android": "https://dc.lft.to/lastmile_qr_scan", "ios": "https://dc.lft.to/lastmile_qr_scan"}, "bike_id": "ab3a07b2ff51fe7d77dcd6fc417a9ba1", "fusion_lon": 0.0, "lat": 38.902703333333335}, {"type": "electric_scooter", "name": "364851d1fbdd37f2a644af4673069d12", "is_reserved": 0, "fusion_lat": 0.0, "lon": -76.987103, "is_disabled": 0, "rental_uris": {"android": "https://dc.lft.to/lastmile_qr_scan", "ios": "https://dc.lft.to/lastmile_qr_scan"}, "bike_id": "364851d1fbdd37f2a644af4673069d12", "fusion_lon": 0.0, "lat": 38.86628266666666}, {"type": "electric_scooter", "name": "894bd1d92b970168f9925be548c7a50f", "is_reserved": 0, "fusion_lat": 0.0, "lon": -76.95056316666667, "is_disabled": 0, "rental_uris": {"android": "https://dc.lft.to/lastmile_qr_scan", "ios": "https://dc.lft.to/lastmile_qr_scan"}, "bike_id": "894bd1d92b970168f9925be548c7a50f", "fusion_lon": 0.0, "lat": 38.90489616666667}, {"type": "electric_scooter", "name": "8ba9d062a03ef51244a5292e8c702d02", "is_reserved": 0, "fusion_lat": 0.0, "lon": -77.0269905, "is_disabled": 0, "rental_uris": {"android": "https://dc.lft.to/lastmile_qr_scan", "ios": "https://dc.lft.to/lastmile_qr_scan"}, "bike_id": "8ba9d062a03ef51244a5292e8c702d02", "fusion_lon": 0.0, "lat": 38.906650166666665}, {"type": "electric_scooter", "name": "5f608c37d862da6edaf070e2725428ab", "is_reserved": 0, "fusion_lat": 0.0, "lon": -77.04657133333333, "is_disabled": 0, "rental_uris": {"android": "https://dc.lft.to/lastmile_qr_scan", "ios": "https://dc.lft.to/lastmile_qr_scan"}, "bike_id": "5f608c37d862da6edaf070e2725428ab", "fusion_lon": 0.0, "lat": 38.9159565}, {"type": "electric_scooter", "name": "d90e72efdf0661934f5606db8e570425", "is_reserved": 0, "fusion_lat": 0.0, "lon": -77.06930466666667, "is_disabled": 0, "rental_uris": {"android": "https://dc.lft.to/lastmile_qr_scan", "ios": "https://dc.lft.to/lastmile_qr_scan"}, "bike_id": "d90e72efdf0661934f5606db8e570425", "fusion_lon": 0.0, "lat": 38.90777583333333}, {"type": "electric_scooter", "name": "3b6c14059b36520dfa6ab480dfd3deb9", "is_reserved": 0, "fusion_lat": 0.0, "lon": -77.02676266666667, "is_disabled": 0, "rental_uris": {"android": "https://dc.lft.to/lastmile_qr_scan", "ios": "https://dc.lft.to/lastmile_qr_scan"}, "bike_id": "3b6c14059b36520dfa6ab480dfd3deb9", "fusion_lon": 0.0, "lat": 38.8983385}, {"type": "electric_scooter", "name": "ddadcf54b6854b72e02cbdc7e456564a", "is_reserved": 0, "fusion_lat": 0.0, "lon": -77.0488515, "is_disabled": 0, "rental_uris": {"android": "https://dc.lft.to/lastmile_qr_scan", "ios": "https://dc.lft.to/lastmile_qr_scan"}, "bike_id": "ddadcf54b6854b72e02cbdc7e456564a", "fusion_lon": 0.0, "lat": 38.906785}, {"type": "electric_scooter", "name": "6ce8d0373233f73fc8ef9b980dda1fbf", "is_reserved": 0, "fusion_lat": 0.0, "lon": -77.03024366666666, "is_disabled": 0, "rental_uris": {"android": "https://dc.lft.to/lastmile_qr_scan", "ios": "https://dc.lft.to/lastmile_qr_scan"}, "bike_id": "6ce8d0373233f73fc8ef9b980dda1fbf", "fusion_lon": 0.0, "lat": 38.8983675}, {"type": "electric_scooter", "name": "a35ee893964fa778e8d4f35cc6a9a025", "is_reserved": 0, "fusion_lat": 0.0, "lon": -77.07143516666666, "is_disabled": 0, "rental_uris": {"android": "https://dc.lft.to/lastmile_qr_scan", "ios": "https://dc.lft.to/lastmile_qr_scan"}, "bike_id": "a35ee893964fa778e8d4f35cc6a9a025", "fusion_lon": 0.0, "lat": 38.945568}, {"type": "electric_scooter", "name": "3c993a962df2b72334128df983172f0f", "is_reserved": 0, "fusion_lat": 0.0, "lon": -77.03724983333333, "is_disabled": 0, "rental_uris": {"android": "https://dc.lft.to/lastmile_qr_scan", "ios": "https://dc.lft.to/lastmile_qr_scan"}, "bike_id": "3c993a962df2b72334128df983172f0f", "fusion_lon": 0.0, "lat": 38.912659166666664}, {"type": "electric_scooter", "name": "ab6533858988d796eac90054af80a094", "is_reserved": 0, "fusion_lat": 0.0, "lon": -77.02956866666666, "is_disabled": 0, "rental_uris": {"android": "https://dc.lft.to/lastmile_qr_scan", "ios": "https://dc.lft.to/lastmile_qr_scan"}, "bike_id": "ab6533858988d796eac90054af80a094", "fusion_lon": 0.0, "lat": 38.910262}, {"type": "electric_bike", "name": "d8f8063c3ff0bd203a543654d194796b", "is_reserved": 0, "fusion_lat": 0.0, "lon": -77.0262985, "is_disabled": 0, "rental_uris": {"android": "https://dc.lft.to/lastmile_qr_scan", "ios": "https://dc.lft.to/lastmile_qr_scan"}, "bike_id": "d8f8063c3ff0bd203a543654d194796b", "fusion_lon": 0.0, "lat": 38.962299}, {"type": "electric_scooter", "name": "7cd4156c7406b109445aa689d98c3ff7", "is_reserved": 0, "fusion_lat": 0.0, "lon": -76.9652895, "is_disabled": 0, "rental_uris": {"android": "https://dc.lft.to/lastmile_qr_scan", "ios": "https://dc.lft.to/lastmile_qr_scan"}, "bike_id": "7cd4156c7406b109445aa689d98c3ff7", "fusion_lon": 0.0, "lat": 38.87631566666667}, {"type": "electric_scooter", "name": "0b2345f8fc74f274e0f53bb60663c91b", "is_reserved": 0, "fusion_lat": 0.0, "lon": -77.06513716666667, "is_disabled": 0, "rental_uris": {"android": "https://dc.lft.to/lastmile_qr_scan", "ios": "https://dc.lft.to/lastmile_qr_scan"}, "bike_id": "0b2345f8fc74f274e0f53bb60663c91b", "fusion_lon": 0.0, "lat": 38.90532133333333}, {"type": "electric_scooter", "name": "2a6349cbd9f68e8a78103946fdbea84d", "is_reserved": 0, "fusion_lat": 0.0, "lon": -77.02333233333333, "is_disabled": 0, "rental_uris": {"android": "https://dc.lft.to/lastmile_qr_scan", "ios": "https://dc.lft.to/lastmile_qr_scan"}, "bike_id": "2a6349cbd9f68e8a78103946fdbea84d", "fusion_lon": 0.0, "lat": 38.89614683333333}, {"type": "electric_scooter", "name": "7d411f4f22cf41072638268e08ed3740", "is_reserved": 0, "fusion_lat": 0.0, "lon": -77.043471, "is_disabled": 0, "rental_uris": {"android": "https://dc.lft.to/lastmile_qr_scan", "ios": "https://dc.lft.to/lastmile_qr_scan"}, "bike_id": "7d411f4f22cf41072638268e08ed3740", "fusion_lon": 0.0, "lat": 38.90526416666667}, {"type": "electric_scooter", "name": "ea0294d55b6f65cb89e2c2c504333c67", "is_reserved": 0, "fusion_lat": 0.0, "lon": -77.04390016666666, "is_disabled": 0, "rental_uris": {"android": "https://dc.lft.to/lastmile_qr_scan", "ios": "https://dc.lft.to/lastmile_qr_scan"}, "bike_id": "ea0294d55b6f65cb89e2c2c504333c67", "fusion_lon": 0.0, "lat": 38.914221166666664}, {"type": "electric_scooter", "name": "29bc6916f297561105c3bb04975b9a70", "is_reserved": 0, "fusion_lat": 0.0, "lon": -77.0276715, "is_disabled": 0, "rental_uris": {"android": "https://dc.lft.to/lastmile_qr_scan", "ios": "https://dc.lft.to/lastmile_qr_scan"}, "bike_id": "29bc6916f297561105c3bb04975b9a70", "fusion_lon": 0.0, "lat": 38.95426116666667}, {"type": "electric_scooter", "name": "ef0ea2aad3cdb9863fbfaaafa7c3a814", "is_reserved": 0, "fusion_lat": 0.0, "lon": -77.03202416666667, "is_disabled": 0, "rental_uris": {"android": "https://dc.lft.to/lastmile_qr_scan", "ios": "https://dc.lft.to/lastmile_qr_scan"}, "bike_id": "ef0ea2aad3cdb9863fbfaaafa7c3a814", "fusion_lon": 0.0, "lat": 38.908933}, {"type": "electric_scooter", "name": "e75920649163c5eaeaf09a4d999d8a03", "is_reserved": 0, "fusion_lat": 0.0, "lon": -77.03186416666667, "is_disabled": 0, "rental_uris": {"android": "https://dc.lft.to/lastmile_qr_scan", "ios": "https://dc.lft.to/lastmile_qr_scan"}, "bike_id": "e75920649163c5eaeaf09a4d999d8a03", "fusion_lon": 0.0, "lat": 38.9036905}, {"type": "electric_scooter", "name": "5b446942387ef965f6467886225cbdee", "is_reserved": 0, "fusion_lat": 0.0, "lon": -77.03436483333333, "is_disabled": 0, "rental_uris": {"android": "https://dc.lft.to/lastmile_qr_scan", "ios": "https://dc.lft.to/lastmile_qr_scan"}, "bike_id": "5b446942387ef965f6467886225cbdee", "fusion_lon": 0.0, "lat": 38.91807216666667}, {"type": "electric_scooter", "name": "d26c55973c5f74c182378aa3e3bbef30", "is_reserved": 0, "fusion_lat": 0.0, "lon": -77.02170616666666, "is_disabled": 0, "rental_uris": {"android": "https://dc.lft.to/lastmile_qr_scan", "ios": "https://dc.lft.to/lastmile_qr_scan"}, "bike_id": "d26c55973c5f74c182378aa3e3bbef30", "fusion_lon": 0.0, "lat": 38.942904666666664}, {"type": "electric_scooter", "name": "af910778940da8d6b41d2e7b4167dbbb", "is_reserved": 0, "fusion_lat": 0.0, "lon": -77.03871566666666, "is_disabled": 0, "rental_uris": {"android": "https://dc.lft.to/lastmile_qr_scan", "ios": "https://dc.lft.to/lastmile_qr_scan"}, "bike_id": "af910778940da8d6b41d2e7b4167dbbb", "fusion_lon": 0.0, "lat": 38.9215195}, {"type": "electric_scooter", "name": "62ae5ea9803ba7ec69593b4ac096c97b", "is_reserved": 0, "fusion_lat": 0.0, "lon": -77.04365183333333, "is_disabled": 0, "rental_uris": {"android": "https://dc.lft.to/lastmile_qr_scan", "ios": "https://dc.lft.to/lastmile_qr_scan"}, "bike_id": "62ae5ea9803ba7ec69593b4ac096c97b", "fusion_lon": 0.0, "lat": 38.921335}, {"type": "electric_scooter", "name": "2d535eb13ddf713c3ef3788f99231460", "is_reserved": 0, "fusion_lat": 0.0, "lon": -77.0478755, "is_disabled": 0, "rental_uris": {"android": "https://dc.lft.to/lastmile_qr_scan", "ios": "https://dc.lft.to/lastmile_qr_scan"}, "bike_id": "2d535eb13ddf713c3ef3788f99231460", "fusion_lon": 0.0, "lat": 38.893760666666665}, {"type": "electric_scooter", "name": "2e0d835654cdb6dbbf3e95d450866ce9", "is_reserved": 0, "fusion_lat": 0.0, "lon": -77.01538333333333, "is_disabled": 0, "rental_uris": {"android": "https://dc.lft.to/lastmile_qr_scan", "ios": "https://dc.lft.to/lastmile_qr_scan"}, "bike_id": "2e0d835654cdb6dbbf3e95d450866ce9", "fusion_lon": 0.0, "lat": 38.884175}, {"type": "electric_scooter", "name": "5f336fada2accab8860e851164ed21da", "is_reserved": 0, "fusion_lat": 0.0, "lon": -76.99957083333334, "is_disabled": 0, "rental_uris": {"android": "https://dc.lft.to/lastmile_qr_scan", "ios": "https://dc.lft.to/lastmile_qr_scan"}, "bike_id": "5f336fada2accab8860e851164ed21da", "fusion_lon": 0.0, "lat": 38.92285533333333}, {"type": "electric_scooter", "name": "e227ae01b62b3597bbca6d556c6c09ca", "is_reserved": 0, "fusion_lat": 0.0, "lon": -76.99507, "is_disabled": 0, "rental_uris": {"android": "https://dc.lft.to/lastmile_qr_scan", "ios": "https://dc.lft.to/lastmile_qr_scan"}, "bike_id": "e227ae01b62b3597bbca6d556c6c09ca", "fusion_lon": 0.0, "lat": 38.8826085}, {"type": "electric_scooter", "name": "5bad1af49b16985736d5a3452abb235f", "is_reserved": 0, "fusion_lat": 0.0, "lon": -77.04350616666666, "is_disabled": 0, "rental_uris": {"android": "https://dc.lft.to/lastmile_qr_scan", "ios": "https://dc.lft.to/lastmile_qr_scan"}, "bike_id": "5bad1af49b16985736d5a3452abb235f", "fusion_lon": 0.0, "lat": 38.90247983333333}, {"type": "electric_scooter", "name": "7097d9f39382d5041980e3e9a2d1525a", "is_reserved": 0, "fusion_lat": 0.0, "lon": -77.030047, "is_disabled": 0, "rental_uris": {"android": "https://dc.lft.to/lastmile_qr_scan", "ios": "https://dc.lft.to/lastmile_qr_scan"}, "bike_id": "7097d9f39382d5041980e3e9a2d1525a", "fusion_lon": 0.0, "lat": 38.920357333333335}, {"type": "electric_scooter", "name": "d171587c50c145cf2c4e952c06628139", "is_reserved": 0, "fusion_lat": 0.0, "lon": -77.04173366666667, "is_disabled": 0, "rental_uris": {"android": "https://dc.lft.to/lastmile_qr_scan", "ios": "https://dc.lft.to/lastmile_qr_scan"}, "bike_id": "d171587c50c145cf2c4e952c06628139", "fusion_lon": 0.0, "lat": 38.917306333333336}, {"type": "electric_scooter", "name": "17463cd4e47bb4cdba66a0fe085bcadc", "is_reserved": 0, "fusion_lat": 0.0, "lon": -77.031695, "is_disabled": 0, "rental_uris": {"android": "https://dc.lft.to/lastmile_qr_scan", "ios": "https://dc.lft.to/lastmile_qr_scan"}, "bike_id": "17463cd4e47bb4cdba66a0fe085bcadc", "fusion_lon": 0.0, "lat": 38.91923833333333}, {"type": "electric_scooter", "name": "5b091119ccebce4398189292cc862539", "is_reserved": 0, "fusion_lat": 0.0, "lon": -77.02153066666666, "is_disabled": 0, "rental_uris": {"android": "https://dc.lft.to/lastmile_qr_scan", "ios": "https://dc.lft.to/lastmile_qr_scan"}, "bike_id": "5b091119ccebce4398189292cc862539", "fusion_lon": 0.0, "lat": 38.924818333333334}, {"type": "electric_scooter", "name": "0ec8ca89c1257f2f51bf848a35ef7b52", "is_reserved": 0, "fusion_lat": 0.0, "lon": -77.0217065, "is_disabled": 0, "rental_uris": {"android": "https://dc.lft.to/lastmile_qr_scan", "ios": "https://dc.lft.to/lastmile_qr_scan"}, "bike_id": "0ec8ca89c1257f2f51bf848a35ef7b52", "fusion_lon": 0.0, "lat": 38.8996905}, {"type": "electric_scooter", "name": "3a0ddc7630c076428943c8e052ad4c8e", "is_reserved": 0, "fusion_lat": 0.0, "lon": -76.99938466666667, "is_disabled": 0, "rental_uris": {"android": "https://dc.lft.to/lastmile_qr_scan", "ios": "https://dc.lft.to/lastmile_qr_scan"}, "bike_id": "3a0ddc7630c076428943c8e052ad4c8e", "fusion_lon": 0.0, "lat": 38.90772833333333}, {"type": "electric_scooter", "name": "6f113e2ccc6e2629363421e3311d085a", "is_reserved": 0, "fusion_lat": 0.0, "lon": -77.043273, "is_disabled": 0, "rental_uris": {"android": "https://dc.lft.to/lastmile_qr_scan", "ios": "https://dc.lft.to/lastmile_qr_scan"}, "bike_id": "6f113e2ccc6e2629363421e3311d085a", "fusion_lon": 0.0, "lat": 38.89225}, {"type": "electric_bike", "name": "7358ba96e3d0300365998542da9ce70e", "is_reserved": 0, "fusion_lat": 0.0, "lon": -77.0769725, "is_disabled": 0, "rental_uris": {"android": "https://dc.lft.to/lastmile_qr_scan", "ios": "https://dc.lft.to/lastmile_qr_scan"}, "bike_id": "7358ba96e3d0300365998542da9ce70e", "fusion_lon": 0.0, "lat": 38.8408235}, {"type": "electric_bike", "name": "d0e85ef6447425d9201923c5a505b65f", "is_reserved": 0, "fusion_lat": 0.0, "lon": -76.9998785, "is_disabled": 0, "rental_uris": {"android": "https://dc.lft.to/lastmile_qr_scan", "ios": "https://dc.lft.to/lastmile_qr_scan"}, "bike_id": "d0e85ef6447425d9201923c5a505b65f", "fusion_lon": 0.0, "lat": 38.89621833333333}, {"type": "electric_scooter", "name": "712dfe71221974cdf303b4afe7b2b6d0", "is_reserved": 0, "fusion_lat": 0.0, "lon": -77.0092705, "is_disabled": 0, "rental_uris": {"android": "https://dc.lft.to/lastmile_qr_scan", "ios": "https://dc.lft.to/lastmile_qr_scan"}, "bike_id": "712dfe71221974cdf303b4afe7b2b6d0", "fusion_lon": 0.0, "lat": 38.89606666666667}, {"type": "electric_scooter", "name": "a05e2f9cdc1ca8734193fe9e43c7660c", "is_reserved": 0, "fusion_lat": 0.0, "lon": -77.05322433333333, "is_disabled": 0, "rental_uris": {"android": "https://dc.lft.to/lastmile_qr_scan", "ios": "https://dc.lft.to/lastmile_qr_scan"}, "bike_id": "a05e2f9cdc1ca8734193fe9e43c7660c", "fusion_lon": 0.0, "lat": 38.915543166666666}, {"type": "electric_scooter", "name": "64aa0ff3d27f83b899712316e6a71176", "is_reserved": 0, "fusion_lat": 0.0, "lon": -77.04999766666667, "is_disabled": 0, "rental_uris": {"android": "https://dc.lft.to/lastmile_qr_scan", "ios": "https://dc.lft.to/lastmile_qr_scan"}, "bike_id": "64aa0ff3d27f83b899712316e6a71176", "fusion_lon": 0.0, "lat": 38.89230966666667}, {"type": "electric_scooter", "name": "918d9434f57aca941e1169ae7b726bb8", "is_reserved": 0, "fusion_lat": 0.0, "lon": -77.02909366666667, "is_disabled": 0, "rental_uris": {"android": "https://dc.lft.to/lastmile_qr_scan", "ios": "https://dc.lft.to/lastmile_qr_scan"}, "bike_id": "918d9434f57aca941e1169ae7b726bb8", "fusion_lon": 0.0, "lat": 38.924892}, {"type": "electric_scooter", "name": "54eee545372de0ecdeb120672019dc55", "is_reserved": 0, "fusion_lat": 0.0, "lon": -77.04345016666667, "is_disabled": 0, "rental_uris": {"android": "https://dc.lft.to/lastmile_qr_scan", "ios": "https://dc.lft.to/lastmile_qr_scan"}, "bike_id": "54eee545372de0ecdeb120672019dc55", "fusion_lon": 0.0, "lat": 38.9105625}, {"type": "electric_scooter", "name": "56993cc489565d1b5348f49dbbebb7b3", "is_reserved": 0, "fusion_lat": 0.0, "lon": -77.02164566666667, "is_disabled": 0, "rental_uris": {"android": "https://dc.lft.to/lastmile_qr_scan", "ios": "https://dc.lft.to/lastmile_qr_scan"}, "bike_id": "56993cc489565d1b5348f49dbbebb7b3", "fusion_lon": 0.0, "lat": 38.90970433333333}, {"type": "electric_scooter", "name": "0f6b80e3d2f9820d93c6f6ff60d159ab", "is_reserved": 0, "fusion_lat": 0.0, "lon": -77.047552, "is_disabled": 0, "rental_uris": {"android": "https://dc.lft.to/lastmile_qr_scan", "ios": "https://dc.lft.to/lastmile_qr_scan"}, "bike_id": "0f6b80e3d2f9820d93c6f6ff60d159ab", "fusion_lon": 0.0, "lat": 38.90546416666667}, {"type": "electric_scooter", "name": "4c0b1dedeb17df78937605df91496bf7", "is_reserved": 0, "fusion_lat": 0.0, "lon": -76.97706716666667, "is_disabled": 0, "rental_uris": {"android": "https://dc.lft.to/lastmile_qr_scan", "ios": "https://dc.lft.to/lastmile_qr_scan"}, "bike_id": "4c0b1dedeb17df78937605df91496bf7", "fusion_lon": 0.0, "lat": 38.90256566666667}, {"type": "electric_scooter", "name": "7a428d88a16c028e7d0180e09569e3bc", "is_reserved": 0, "fusion_lat": 0.0, "lon": -77.03268116666666, "is_disabled": 0, "rental_uris": {"android": "https://dc.lft.to/lastmile_qr_scan", "ios": "https://dc.lft.to/lastmile_qr_scan"}, "bike_id": "7a428d88a16c028e7d0180e09569e3bc", "fusion_lon": 0.0, "lat": 38.94150583333333}, {"type": "electric_scooter", "name": "90ca0a6c38c338e9aa33bd1eb76680cf", "is_reserved": 0, "fusion_lat": 0.0, "lon": -77.039424, "is_disabled": 0, "rental_uris": {"android": "https://dc.lft.to/lastmile_qr_scan", "ios": "https://dc.lft.to/lastmile_qr_scan"}, "bike_id": "90ca0a6c38c338e9aa33bd1eb76680cf", "fusion_lon": 0.0, "lat": 38.9083565}, {"type": "electric_scooter", "name": "f00f310bf7ef1c3e9b20766cb32c8ebe", "is_reserved": 0, "fusion_lat": 0.0, "lon": -77.00432883333333, "is_disabled": 0, "rental_uris": {"android": "https://dc.lft.to/lastmile_qr_scan", "ios": "https://dc.lft.to/lastmile_qr_scan"}, "bike_id": "f00f310bf7ef1c3e9b20766cb32c8ebe", "fusion_lon": 0.0, "lat": 38.87668333333333}, {"type": "electric_scooter", "name": "4598a1cf37246db70372b8894d8c99ce", "is_reserved": 0, "fusion_lat": 0.0, "lon": -77.03440133333334, "is_disabled": 0, "rental_uris": {"android": "https://dc.lft.to/lastmile_qr_scan", "ios": "https://dc.lft.to/lastmile_qr_scan"}, "bike_id": "4598a1cf37246db70372b8894d8c99ce", "fusion_lon": 0.0, "lat": 38.918055}, {"type": "electric_scooter", "name": "3b533b2f5958fc474e2377f5d47621ab", "is_reserved": 0, "fusion_lat": 0.0, "lon": -77.02156416666666, "is_disabled": 0, "rental_uris": {"android": "https://dc.lft.to/lastmile_qr_scan", "ios": "https://dc.lft.to/lastmile_qr_scan"}, "bike_id": "3b533b2f5958fc474e2377f5d47621ab", "fusion_lon": 0.0, "lat": 38.926054}, {"type": "electric_scooter", "name": "bb647c5e03b74eb8152752b7dce57f64", "is_reserved": 0, "fusion_lat": 0.0, "lon": -77.07262333333334, "is_disabled": 0, "rental_uris": {"android": "https://dc.lft.to/lastmile_qr_scan", "ios": "https://dc.lft.to/lastmile_qr_scan"}, "bike_id": "bb647c5e03b74eb8152752b7dce57f64", "fusion_lon": 0.0, "lat": 38.91158566666667}, {"type": "electric_scooter", "name": "df60b035b083d41a1919242552d4ac6e", "is_reserved": 0, "fusion_lat": 0.0, "lon": -77.04747066666667, "is_disabled": 0, "rental_uris": {"android": "https://dc.lft.to/lastmile_qr_scan", "ios": "https://dc.lft.to/lastmile_qr_scan"}, "bike_id": "df60b035b083d41a1919242552d4ac6e", "fusion_lon": 0.0, "lat": 38.909737166666666}, {"type": "electric_scooter", "name": "48b4f67718a57e89177cc10c7b566146", "is_reserved": 0, "fusion_lat": 0.0, "lon": -77.03181566666666, "is_disabled": 0, "rental_uris": {"android": "https://dc.lft.to/lastmile_qr_scan", "ios": "https://dc.lft.to/lastmile_qr_scan"}, "bike_id": "48b4f67718a57e89177cc10c7b566146", "fusion_lon": 0.0, "lat": 38.91774616666667}, {"type": "electric_scooter", "name": "080508b6ca2b5fb632cf1d2841d5c472", "is_reserved": 0, "fusion_lat": 0.0, "lon": -77.02978166666666, "is_disabled": 0, "rental_uris": {"android": "https://dc.lft.to/lastmile_qr_scan", "ios": "https://dc.lft.to/lastmile_qr_scan"}, "bike_id": "080508b6ca2b5fb632cf1d2841d5c472", "fusion_lon": 0.0, "lat": 38.896411666666665}, {"type": "electric_scooter", "name": "567bffbb42adbe6629ea5a404f56518c", "is_reserved": 0, "fusion_lat": 0.0, "lon": -77.05115483333333, "is_disabled": 0, "rental_uris": {"android": "https://dc.lft.to/lastmile_qr_scan", "ios": "https://dc.lft.to/lastmile_qr_scan"}, "bike_id": "567bffbb42adbe6629ea5a404f56518c", "fusion_lon": 0.0, "lat": 38.92344633333333}, {"type": "electric_scooter", "name": "9b95b289f6521a145452e9c4d095bd46", "is_reserved": 0, "fusion_lat": 0.0, "lon": -77.0321015, "is_disabled": 0, "rental_uris": {"android": "https://dc.lft.to/lastmile_qr_scan", "ios": "https://dc.lft.to/lastmile_qr_scan"}, "bike_id": "9b95b289f6521a145452e9c4d095bd46", "fusion_lon": 0.0, "lat": 38.90898816666667}, {"type": "electric_scooter", "name": "9419b53d399256549cb5e6b26f2c2016", "is_reserved": 0, "fusion_lat": 0.0, "lon": -77.03054983333334, "is_disabled": 0, "rental_uris": {"android": "https://dc.lft.to/lastmile_qr_scan", "ios": "https://dc.lft.to/lastmile_qr_scan"}, "bike_id": "9419b53d399256549cb5e6b26f2c2016", "fusion_lon": 0.0, "lat": 38.88413883333333}, {"type": "electric_scooter", "name": "4ac399ca5cff6460f89cca5229488f69", "is_reserved": 0, "fusion_lat": 0.0, "lon": -77.03476733333333, "is_disabled": 0, "rental_uris": {"android": "https://dc.lft.to/lastmile_qr_scan", "ios": "https://dc.lft.to/lastmile_qr_scan"}, "bike_id": "4ac399ca5cff6460f89cca5229488f69", "fusion_lon": 0.0, "lat": 38.92544016666667}, {"type": "electric_scooter", "name": "4e01244e8e3a3aecf638ca54310f107d", "is_reserved": 0, "fusion_lat": 0.0, "lon": -77.04218816666666, "is_disabled": 0, "rental_uris": {"android": "https://dc.lft.to/lastmile_qr_scan", "ios": "https://dc.lft.to/lastmile_qr_scan"}, "bike_id": "4e01244e8e3a3aecf638ca54310f107d", "fusion_lon": 0.0, "lat": 38.90734716666667}, {"type": "electric_scooter", "name": "b54b70c62b8df962ace45fd3a8a29a49", "is_reserved": 0, "fusion_lat": 0.0, "lon": -77.02196966666666, "is_disabled": 0, "rental_uris": {"android": "https://dc.lft.to/lastmile_qr_scan", "ios": "https://dc.lft.to/lastmile_qr_scan"}, "bike_id": "b54b70c62b8df962ace45fd3a8a29a49", "fusion_lon": 0.0, "lat": 38.9095165}, {"type": "electric_scooter", "name": "08cde685179582bea394ded2b6b39f58", "is_reserved": 0, "fusion_lat": 0.0, "lon": -76.93258383333334, "is_disabled": 0, "rental_uris": {"android": "https://dc.lft.to/lastmile_qr_scan", "ios": "https://dc.lft.to/lastmile_qr_scan"}, "bike_id": "08cde685179582bea394ded2b6b39f58", "fusion_lon": 0.0, "lat": 38.898918}, {"type": "electric_scooter", "name": "918272b3380818f6bf8946ca303a7731", "is_reserved": 0, "fusion_lat": 0.0, "lon": -76.94632, "is_disabled": 0, "rental_uris": {"android": "https://dc.lft.to/lastmile_qr_scan", "ios": "https://dc.lft.to/lastmile_qr_scan"}, "bike_id": "918272b3380818f6bf8946ca303a7731", "fusion_lon": 0.0, "lat": 38.898436833333335}, {"type": "electric_scooter", "name": "7ebf7ee5fc56a6df5f731c45573d6b90", "is_reserved": 0, "fusion_lat": 0.0, "lon": -76.91124883333333, "is_disabled": 0, "rental_uris": {"android": "https://dc.lft.to/lastmile_qr_scan", "ios": "https://dc.lft.to/lastmile_qr_scan"}, "bike_id": "7ebf7ee5fc56a6df5f731c45573d6b90", "fusion_lon": 0.0, "lat": 38.894179666666666}, {"type": "electric_scooter", "name": "3286e93620e183fc6c96053246d24f7a", "is_reserved": 0, "fusion_lat": 0.0, "lon": -77.07861066666666, "is_disabled": 0, "rental_uris": {"android": "https://dc.lft.to/lastmile_qr_scan", "ios": "https://dc.lft.to/lastmile_qr_scan"}, "bike_id": "3286e93620e183fc6c96053246d24f7a", "fusion_lon": 0.0, "lat": 38.92466783333333}, {"type": "electric_bike", "name": "5d11a7952481ede5f1509ad43c14f305", "is_reserved": 0, "fusion_lat": 0.0, "lon": -76.98086533333333, "is_disabled": 0, "rental_uris": {"android": "https://dc.lft.to/lastmile_qr_scan", "ios": "https://dc.lft.to/lastmile_qr_scan"}, "bike_id": "5d11a7952481ede5f1509ad43c14f305", "fusion_lon": 0.0, "lat": 38.8813525}, {"type": "electric_scooter", "name": "20b63589b6905ff08307b5e4fd7cc3a6", "is_reserved": 0, "fusion_lat": 0.0, "lon": -77.02324083333333, "is_disabled": 0, "rental_uris": {"android": "https://dc.lft.to/lastmile_qr_scan", "ios": "https://dc.lft.to/lastmile_qr_scan"}, "bike_id": "20b63589b6905ff08307b5e4fd7cc3a6", "fusion_lon": 0.0, "lat": 38.930584}, {"type": "electric_scooter", "name": "41c7b26e22ceb4cc29a9e0974b4a4c6e", "is_reserved": 0, "fusion_lat": 0.0, "lon": -76.99857583333333, "is_disabled": 0, "rental_uris": {"android": "https://dc.lft.to/lastmile_qr_scan", "ios": "https://dc.lft.to/lastmile_qr_scan"}, "bike_id": "41c7b26e22ceb4cc29a9e0974b4a4c6e", "fusion_lon": 0.0, "lat": 38.88743383333333}, {"type": "electric_scooter", "name": "8b45c349c9d144a03d017df5dac9b479", "is_reserved": 0, "fusion_lat": 0.0, "lon": -77.05422033333333, "is_disabled": 0, "rental_uris": {"android": "https://dc.lft.to/lastmile_qr_scan", "ios": "https://dc.lft.to/lastmile_qr_scan"}, "bike_id": "8b45c349c9d144a03d017df5dac9b479", "fusion_lon": 0.0, "lat": 38.90248033333334}, {"type": "electric_scooter", "name": "9617811911bd5dd4cbc9a0691688d49b", "is_reserved": 0, "fusion_lat": 0.0, "lon": -77.03877683333333, "is_disabled": 0, "rental_uris": {"android": "https://dc.lft.to/lastmile_qr_scan", "ios": "https://dc.lft.to/lastmile_qr_scan"}, "bike_id": "9617811911bd5dd4cbc9a0691688d49b", "fusion_lon": 0.0, "lat": 38.91709316666667}, {"type": "electric_scooter", "name": "2d4a4811bf0afb19631c3527f63eaced", "is_reserved": 0, "fusion_lat": 0.0, "lon": -77.03185816666667, "is_disabled": 0, "rental_uris": {"android": "https://dc.lft.to/lastmile_qr_scan", "ios": "https://dc.lft.to/lastmile_qr_scan"}, "bike_id": "2d4a4811bf0afb19631c3527f63eaced", "fusion_lon": 0.0, "lat": 38.917085666666665}, {"type": "electric_scooter", "name": "d5ace13f79c612a89626304bc05a4772", "is_reserved": 0, "fusion_lat": 0.0, "lon": -76.97821283333333, "is_disabled": 0, "rental_uris": {"android": "https://dc.lft.to/lastmile_qr_scan", "ios": "https://dc.lft.to/lastmile_qr_scan"}, "bike_id": "d5ace13f79c612a89626304bc05a4772", "fusion_lon": 0.0, "lat": 38.901742166666665}, {"type": "electric_bike", "name": "2dd73033e7277400bba6c2d382f0ba42", "is_reserved": 0, "fusion_lat": 0.0, "lon": -77.06301716666667, "is_disabled": 0, "rental_uris": {"android": "https://dc.lft.to/lastmile_qr_scan", "ios": "https://dc.lft.to/lastmile_qr_scan"}, "bike_id": "2dd73033e7277400bba6c2d382f0ba42", "fusion_lon": 0.0, "lat": 38.9060425}, {"type": "electric_scooter", "name": "5f65b4e933f55e266d272275cd96f7a1", "is_reserved": 0, "fusion_lat": 0.0, "lon": -77.02601316666667, "is_disabled": 0, "rental_uris": {"android": "https://dc.lft.to/lastmile_qr_scan", "ios": "https://dc.lft.to/lastmile_qr_scan"}, "bike_id": "5f65b4e933f55e266d272275cd96f7a1", "fusion_lon": 0.0, "lat": 38.918222166666666}, {"type": "electric_scooter", "name": "e4f8bd3e2770508b047e1ea313d83357", "is_reserved": 0, "fusion_lat": 0.0, "lon": -77.04349166666667, "is_disabled": 0, "rental_uris": {"android": "https://dc.lft.to/lastmile_qr_scan", "ios": "https://dc.lft.to/lastmile_qr_scan"}, "bike_id": "e4f8bd3e2770508b047e1ea313d83357", "fusion_lon": 0.0, "lat": 38.90785066666667}, {"type": "electric_scooter", "name": "043a73d2964977b53458fa3b72cdf362", "is_reserved": 0, "fusion_lat": 0.0, "lon": -76.933683, "is_disabled": 0, "rental_uris": {"android": "https://dc.lft.to/lastmile_qr_scan", "ios": "https://dc.lft.to/lastmile_qr_scan"}, "bike_id": "043a73d2964977b53458fa3b72cdf362", "fusion_lon": 0.0, "lat": 38.899119666666664}, {"type": "electric_scooter", "name": "923f7f12e417a6c63d3b79588d395997", "is_reserved": 0, "fusion_lat": 0.0, "lon": -77.00063233333333, "is_disabled": 0, "rental_uris": {"android": "https://dc.lft.to/lastmile_qr_scan", "ios": "https://dc.lft.to/lastmile_qr_scan"}, "bike_id": "923f7f12e417a6c63d3b79588d395997", "fusion_lon": 0.0, "lat": 38.8998905}, {"type": "electric_scooter", "name": "ba72acf24ac195d32c2ac674bae5ba83", "is_reserved": 0, "fusion_lat": 0.0, "lon": -77.04194583333333, "is_disabled": 0, "rental_uris": {"android": "https://dc.lft.to/lastmile_qr_scan", "ios": "https://dc.lft.to/lastmile_qr_scan"}, "bike_id": "ba72acf24ac195d32c2ac674bae5ba83", "fusion_lon": 0.0, "lat": 38.9262465}, {"type": "electric_scooter", "name": "6be5c2c075335ef0b6db567f42efe5b4", "is_reserved": 0, "fusion_lat": 0.0, "lon": -77.03778233333334, "is_disabled": 0, "rental_uris": {"android": "https://dc.lft.to/lastmile_qr_scan", "ios": "https://dc.lft.to/lastmile_qr_scan"}, "bike_id": "6be5c2c075335ef0b6db567f42efe5b4", "fusion_lon": 0.0, "lat": 38.934042}, {"type": "electric_scooter", "name": "a3a662c9201eb914f71e1ac95ccc1258", "is_reserved": 0, "fusion_lat": 0.0, "lon": -77.00193133333333, "is_disabled": 0, "rental_uris": {"android": "https://dc.lft.to/lastmile_qr_scan", "ios": "https://dc.lft.to/lastmile_qr_scan"}, "bike_id": "a3a662c9201eb914f71e1ac95ccc1258", "fusion_lon": 0.0, "lat": 38.90031966666667}, {"type": "electric_scooter", "name": "832cb5f3461d3ec15647fb1a70db7e42", "is_reserved": 0, "fusion_lat": 0.0, "lon": -77.0009255, "is_disabled": 0, "rental_uris": {"android": "https://dc.lft.to/lastmile_qr_scan", "ios": "https://dc.lft.to/lastmile_qr_scan"}, "bike_id": "832cb5f3461d3ec15647fb1a70db7e42", "fusion_lon": 0.0, "lat": 38.90752666666667}, {"type": "electric_scooter", "name": "02e31bd86ac4e5a3f4e1b4c4e9896fe9", "is_reserved": 0, "fusion_lat": 0.0, "lon": -77.0218965, "is_disabled": 0, "rental_uris": {"android": "https://dc.lft.to/lastmile_qr_scan", "ios": "https://dc.lft.to/lastmile_qr_scan"}, "bike_id": "02e31bd86ac4e5a3f4e1b4c4e9896fe9", "fusion_lon": 0.0, "lat": 38.92275466666667}, {"type": "electric_bike", "name": "877e58435381518825e33796217db05e", "is_reserved": 0, "fusion_lat": 0.0, "lon": -76.971245, "is_disabled": 0, "rental_uris": {"android": "https://dc.lft.to/lastmile_qr_scan", "ios": "https://dc.lft.to/lastmile_qr_scan"}, "bike_id": "877e58435381518825e33796217db05e", "fusion_lon": 0.0, "lat": 38.91955633333333}, {"type": "electric_scooter", "name": "31d77519832a96cdc5ff8870516ab80e", "is_reserved": 0, "fusion_lat": 0.0, "lon": -76.986184, "is_disabled": 0, "rental_uris": {"android": "https://dc.lft.to/lastmile_qr_scan", "ios": "https://dc.lft.to/lastmile_qr_scan"}, "bike_id": "31d77519832a96cdc5ff8870516ab80e", "fusion_lon": 0.0, "lat": 38.938264}, {"type": "electric_scooter", "name": "ce2119058049dbd69f84297c9076a1a5", "is_reserved": 0, "fusion_lat": 0.0, "lon": -77.0442545, "is_disabled": 0, "rental_uris": {"android": "https://dc.lft.to/lastmile_qr_scan", "ios": "https://dc.lft.to/lastmile_qr_scan"}, "bike_id": "ce2119058049dbd69f84297c9076a1a5", "fusion_lon": 0.0, "lat": 38.911271}, {"type": "electric_scooter", "name": "f73572d9f1b45d24062e8393ffb8a169", "is_reserved": 0, "fusion_lat": 0.0, "lon": -77.02148816666667, "is_disabled": 0, "rental_uris": {"android": "https://dc.lft.to/lastmile_qr_scan", "ios": "https://dc.lft.to/lastmile_qr_scan"}, "bike_id": "f73572d9f1b45d24062e8393ffb8a169", "fusion_lon": 0.0, "lat": 38.89408233333333}, {"type": "electric_bike", "name": "f50d6e53d0447d54c2c0490c0be508a0", "is_reserved": 0, "fusion_lat": 0.0, "lon": -77.06357233333334, "is_disabled": 0, "rental_uris": {"android": "https://dc.lft.to/lastmile_qr_scan", "ios": "https://dc.lft.to/lastmile_qr_scan"}, "bike_id": "f50d6e53d0447d54c2c0490c0be508a0", "fusion_lon": 0.0, "lat": 38.9066265}, {"type": "electric_scooter", "name": "6f47755d511005afb2db34311d539885", "is_reserved": 0, "fusion_lat": 0.0, "lon": -77.0113845, "is_disabled": 0, "rental_uris": {"android": "https://dc.lft.to/lastmile_qr_scan", "ios": "https://dc.lft.to/lastmile_qr_scan"}, "bike_id": "6f47755d511005afb2db34311d539885", "fusion_lon": 0.0, "lat": 38.88043866666667}, {"type": "electric_scooter", "name": "c762655e0fc4ed966ec1d437700723b1", "is_reserved": 0, "fusion_lat": 0.0, "lon": -77.0506395, "is_disabled": 0, "rental_uris": {"android": "https://dc.lft.to/lastmile_qr_scan", "ios": "https://dc.lft.to/lastmile_qr_scan"}, "bike_id": "c762655e0fc4ed966ec1d437700723b1", "fusion_lon": 0.0, "lat": 38.900697}, {"type": "electric_scooter", "name": "cd39e7e34d150878327203fc1867aae3", "is_reserved": 0, "fusion_lat": 0.0, "lon": -77.03194983333333, "is_disabled": 0, "rental_uris": {"android": "https://dc.lft.to/lastmile_qr_scan", "ios": "https://dc.lft.to/lastmile_qr_scan"}, "bike_id": "cd39e7e34d150878327203fc1867aae3", "fusion_lon": 0.0, "lat": 38.903766166666664}, {"type": "electric_scooter", "name": "b12ca06e0fef9d0df6f163a3f89bf113", "is_reserved": 0, "fusion_lat": 0.0, "lon": -76.99950733333333, "is_disabled": 0, "rental_uris": {"android": "https://dc.lft.to/lastmile_qr_scan", "ios": "https://dc.lft.to/lastmile_qr_scan"}, "bike_id": "b12ca06e0fef9d0df6f163a3f89bf113", "fusion_lon": 0.0, "lat": 38.90863133333333}, {"type": "electric_scooter", "name": "1fc89605d5e9636346b2d49b2fd624be", "is_reserved": 0, "fusion_lat": 0.0, "lon": -77.0271855, "is_disabled": 0, "rental_uris": {"android": "https://dc.lft.to/lastmile_qr_scan", "ios": "https://dc.lft.to/lastmile_qr_scan"}, "bike_id": "1fc89605d5e9636346b2d49b2fd624be", "fusion_lon": 0.0, "lat": 38.91669016666667}, {"type": "electric_scooter", "name": "ef721a345376e21a9f183197603c76ae", "is_reserved": 0, "fusion_lat": 0.0, "lon": -77.01212316666667, "is_disabled": 0, "rental_uris": {"android": "https://dc.lft.to/lastmile_qr_scan", "ios": "https://dc.lft.to/lastmile_qr_scan"}, "bike_id": "ef721a345376e21a9f183197603c76ae", "fusion_lon": 0.0, "lat": 38.921210333333335}, {"type": "electric_bike", "name": "8505770770c24614857cfa39f4d05438", "is_reserved": 0, "fusion_lat": 0.0, "lon": -76.93887533333333, "is_disabled": 0, "rental_uris": {"android": "https://dc.lft.to/lastmile_qr_scan", "ios": "https://dc.lft.to/lastmile_qr_scan"}, "bike_id": "8505770770c24614857cfa39f4d05438", "fusion_lon": 0.0, "lat": 38.956382833333336}, {"type": "electric_scooter", "name": "3a5d02c0e0c42b00e53fe48127759c75", "is_reserved": 0, "fusion_lat": 0.0, "lon": -77.00047383333333, "is_disabled": 0, "rental_uris": {"android": "https://dc.lft.to/lastmile_qr_scan", "ios": "https://dc.lft.to/lastmile_qr_scan"}, "bike_id": "3a5d02c0e0c42b00e53fe48127759c75", "fusion_lon": 0.0, "lat": 38.876654}, {"type": "electric_scooter", "name": "aa3c5265779565111e36d2fc3c271531", "is_reserved": 0, "fusion_lat": 0.0, "lon": -77.05129366666667, "is_disabled": 0, "rental_uris": {"android": "https://dc.lft.to/lastmile_qr_scan", "ios": "https://dc.lft.to/lastmile_qr_scan"}, "bike_id": "aa3c5265779565111e36d2fc3c271531", "fusion_lon": 0.0, "lat": 38.92359833333333}, {"type": "electric_scooter", "name": "68982615463990223d143bcbdaef23bd", "is_reserved": 0, "fusion_lat": 0.0, "lon": -77.03987966666666, "is_disabled": 0, "rental_uris": {"android": "https://dc.lft.to/lastmile_qr_scan", "ios": "https://dc.lft.to/lastmile_qr_scan"}, "bike_id": "68982615463990223d143bcbdaef23bd", "fusion_lon": 0.0, "lat": 38.91765933333333}, {"type": "electric_scooter", "name": "12afb32671c02023cff48e2c75078a15", "is_reserved": 0, "fusion_lat": 0.0, "lon": -77.0334705, "is_disabled": 0, "rental_uris": {"android": "https://dc.lft.to/lastmile_qr_scan", "ios": "https://dc.lft.to/lastmile_qr_scan"}, "bike_id": "12afb32671c02023cff48e2c75078a15", "fusion_lon": 0.0, "lat": 38.89242616666667}, {"type": "electric_scooter", "name": "ec2d41d327d5d86d63e7bad28f2667d7", "is_reserved": 0, "fusion_lat": 0.0, "lon": -77.00798716666667, "is_disabled": 0, "rental_uris": {"android": "https://dc.lft.to/lastmile_qr_scan", "ios": "https://dc.lft.to/lastmile_qr_scan"}, "bike_id": "ec2d41d327d5d86d63e7bad28f2667d7", "fusion_lon": 0.0, "lat": 38.897177}, {"type": "electric_scooter", "name": "9ced1d79e56e8b314491102a04b10c05", "is_reserved": 0, "fusion_lat": 0.0, "lon": -77.03078366666666, "is_disabled": 0, "rental_uris": {"android": "https://dc.lft.to/lastmile_qr_scan", "ios": "https://dc.lft.to/lastmile_qr_scan"}, "bike_id": "9ced1d79e56e8b314491102a04b10c05", "fusion_lon": 0.0, "lat": 38.89725583333333}, {"type": "electric_scooter", "name": "47710d62aed45018df00b6a8769d1ca1", "is_reserved": 0, "fusion_lat": 0.0, "lon": -77.0414655, "is_disabled": 0, "rental_uris": {"android": "https://dc.lft.to/lastmile_qr_scan", "ios": "https://dc.lft.to/lastmile_qr_scan"}, "bike_id": "47710d62aed45018df00b6a8769d1ca1", "fusion_lon": 0.0, "lat": 38.92315883333333}, {"type": "electric_scooter", "name": "51195d8565fa4b3558317c6cbb06ec60", "is_reserved": 0, "fusion_lat": 0.0, "lon": -77.0037575, "is_disabled": 0, "rental_uris": {"android": "https://dc.lft.to/lastmile_qr_scan", "ios": "https://dc.lft.to/lastmile_qr_scan"}, "bike_id": "51195d8565fa4b3558317c6cbb06ec60", "fusion_lon": 0.0, "lat": 38.89734833333333}, {"type": "electric_scooter", "name": "fbbe8d25bcb647ea4c66d90481cd515d", "is_reserved": 0, "fusion_lat": 0.0, "lon": -77.03225866666666, "is_disabled": 0, "rental_uris": {"android": "https://dc.lft.to/lastmile_qr_scan", "ios": "https://dc.lft.to/lastmile_qr_scan"}, "bike_id": "fbbe8d25bcb647ea4c66d90481cd515d", "fusion_lon": 0.0, "lat": 38.93165533333333}, {"type": "electric_bike", "name": "c0c1ab6ce3e0ecc6297bfa58be13974f", "is_reserved": 0, "fusion_lat": 0.0, "lon": -77.13478533333334, "is_disabled": 0, "rental_uris": {"android": "https://dc.lft.to/lastmile_qr_scan", "ios": "https://dc.lft.to/lastmile_qr_scan"}, "bike_id": "c0c1ab6ce3e0ecc6297bfa58be13974f", "fusion_lon": 0.0, "lat": 38.85350733333333}, {"type": "electric_scooter", "name": "b1f187613adc1055fd9b07b480c622f5", "is_reserved": 0, "fusion_lat": 0.0, "lon": -77.035938, "is_disabled": 0, "rental_uris": {"android": "https://dc.lft.to/lastmile_qr_scan", "ios": "https://dc.lft.to/lastmile_qr_scan"}, "bike_id": "b1f187613adc1055fd9b07b480c622f5", "fusion_lon": 0.0, "lat": 38.9162475}, {"type": "electric_scooter", "name": "f1286c36f3f2a10ae9d2f4e5366fc0b4", "is_reserved": 0, "fusion_lat": 0.0, "lon": -77.0175475, "is_disabled": 0, "rental_uris": {"android": "https://dc.lft.to/lastmile_qr_scan", "ios": "https://dc.lft.to/lastmile_qr_scan"}, "bike_id": "f1286c36f3f2a10ae9d2f4e5366fc0b4", "fusion_lon": 0.0, "lat": 38.874921}, {"type": "electric_scooter", "name": "5865774c97c4b02fd0732b60d65a7dfc", "is_reserved": 0, "fusion_lat": 0.0, "lon": -77.05118966666667, "is_disabled": 0, "rental_uris": {"android": "https://dc.lft.to/lastmile_qr_scan", "ios": "https://dc.lft.to/lastmile_qr_scan"}, "bike_id": "5865774c97c4b02fd0732b60d65a7dfc", "fusion_lon": 0.0, "lat": 38.9236075}, {"type": "electric_scooter", "name": "a229ff0a580bc2bd500dde7116ba450e", "is_reserved": 0, "fusion_lat": 0.0, "lon": -77.06042916666667, "is_disabled": 0, "rental_uris": {"android": "https://dc.lft.to/lastmile_qr_scan", "ios": "https://dc.lft.to/lastmile_qr_scan"}, "bike_id": "a229ff0a580bc2bd500dde7116ba450e", "fusion_lon": 0.0, "lat": 38.939107166666666}, {"type": "electric_scooter", "name": "eaba9b6cafd70c8d83170f2e5b5be4d8", "is_reserved": 0, "fusion_lat": 0.0, "lon": -77.038894, "is_disabled": 0, "rental_uris": {"android": "https://dc.lft.to/lastmile_qr_scan", "ios": "https://dc.lft.to/lastmile_qr_scan"}, "bike_id": "eaba9b6cafd70c8d83170f2e5b5be4d8", "fusion_lon": 0.0, "lat": 38.93253716666667}, {"type": "electric_scooter", "name": "bd8e606a2c2d691f443df84edaa6158d", "is_reserved": 0, "fusion_lat": 0.0, "lon": -77.03448816666666, "is_disabled": 0, "rental_uris": {"android": "https://dc.lft.to/lastmile_qr_scan", "ios": "https://dc.lft.to/lastmile_qr_scan"}, "bike_id": "bd8e606a2c2d691f443df84edaa6158d", "fusion_lon": 0.0, "lat": 38.91821366666667}, {"type": "electric_scooter", "name": "62f6816c84e1d307d4e5c433e92fcafb", "is_reserved": 0, "fusion_lat": 0.0, "lon": -77.01747033333334, "is_disabled": 0, "rental_uris": {"android": "https://dc.lft.to/lastmile_qr_scan", "ios": "https://dc.lft.to/lastmile_qr_scan"}, "bike_id": "62f6816c84e1d307d4e5c433e92fcafb", "fusion_lon": 0.0, "lat": 38.87269583333333}, {"type": "electric_scooter", "name": "bf82fb64d51692aa99b3c1d0c1aa1e95", "is_reserved": 0, "fusion_lat": 0.0, "lon": -77.0342015, "is_disabled": 0, "rental_uris": {"android": "https://dc.lft.to/lastmile_qr_scan", "ios": "https://dc.lft.to/lastmile_qr_scan"}, "bike_id": "bf82fb64d51692aa99b3c1d0c1aa1e95", "fusion_lon": 0.0, "lat": 38.962664333333336}, {"type": "electric_scooter", "name": "30b1b15cc810a98078da6c2aafc76c24", "is_reserved": 0, "fusion_lat": 0.0, "lon": -77.04411733333333, "is_disabled": 0, "rental_uris": {"android": "https://dc.lft.to/lastmile_qr_scan", "ios": "https://dc.lft.to/lastmile_qr_scan"}, "bike_id": "30b1b15cc810a98078da6c2aafc76c24", "fusion_lon": 0.0, "lat": 38.909417}, {"type": "electric_scooter", "name": "47c2a21a6e73537de5ca9808f818a744", "is_reserved": 0, "fusion_lat": 0.0, "lon": -77.02980133333334, "is_disabled": 0, "rental_uris": {"android": "https://dc.lft.to/lastmile_qr_scan", "ios": "https://dc.lft.to/lastmile_qr_scan"}, "bike_id": "47c2a21a6e73537de5ca9808f818a744", "fusion_lon": 0.0, "lat": 38.934561}, {"type": "electric_scooter", "name": "e8e13a933613bcf0a9d479d981df64de", "is_reserved": 0, "fusion_lat": 0.0, "lon": -77.0397945, "is_disabled": 0, "rental_uris": {"android": "https://dc.lft.to/lastmile_qr_scan", "ios": "https://dc.lft.to/lastmile_qr_scan"}, "bike_id": "e8e13a933613bcf0a9d479d981df64de", "fusion_lon": 0.0, "lat": 38.906022166666666}, {"type": "electric_scooter", "name": "91ff7ff8cf2b70358688ee49ff249ac4", "is_reserved": 0, "fusion_lat": 0.0, "lon": -77.02280883333333, "is_disabled": 0, "rental_uris": {"android": "https://dc.lft.to/lastmile_qr_scan", "ios": "https://dc.lft.to/lastmile_qr_scan"}, "bike_id": "91ff7ff8cf2b70358688ee49ff249ac4", "fusion_lon": 0.0, "lat": 38.909624}, {"type": "electric_scooter", "name": "f87f0c31469d1f99b093e6598f9216e0", "is_reserved": 0, "fusion_lat": 0.0, "lon": -76.997565, "is_disabled": 0, "rental_uris": {"android": "https://dc.lft.to/lastmile_qr_scan", "ios": "https://dc.lft.to/lastmile_qr_scan"}, "bike_id": "f87f0c31469d1f99b093e6598f9216e0", "fusion_lon": 0.0, "lat": 38.90841316666667}, {"type": "electric_scooter", "name": "de102b5f6d1f6bac3d9058d5c960e584", "is_reserved": 0, "fusion_lat": 0.0, "lon": -77.0162195, "is_disabled": 0, "rental_uris": {"android": "https://dc.lft.to/lastmile_qr_scan", "ios": "https://dc.lft.to/lastmile_qr_scan"}, "bike_id": "de102b5f6d1f6bac3d9058d5c960e584", "fusion_lon": 0.0, "lat": 38.88324516666667}, {"type": "electric_scooter", "name": "a603b4129295f31e84662a65f18a37cd", "is_reserved": 0, "fusion_lat": 0.0, "lon": -77.02694883333334, "is_disabled": 0, "rental_uris": {"android": "https://dc.lft.to/lastmile_qr_scan", "ios": "https://dc.lft.to/lastmile_qr_scan"}, "bike_id": "a603b4129295f31e84662a65f18a37cd", "fusion_lon": 0.0, "lat": 38.904482333333334}, {"type": "electric_scooter", "name": "f99577bceb6f665d73538c4bb7e7a122", "is_reserved": 0, "fusion_lat": 0.0, "lon": -77.0613225, "is_disabled": 0, "rental_uris": {"android": "https://dc.lft.to/lastmile_qr_scan", "ios": "https://dc.lft.to/lastmile_qr_scan"}, "bike_id": "f99577bceb6f665d73538c4bb7e7a122", "fusion_lon": 0.0, "lat": 38.94087416666667}, {"type": "electric_scooter", "name": "cc04590c0a1aef3e0190e6eaecbb19e2", "is_reserved": 0, "fusion_lat": 0.0, "lon": -77.02397833333333, "is_disabled": 0, "rental_uris": {"android": "https://dc.lft.to/lastmile_qr_scan", "ios": "https://dc.lft.to/lastmile_qr_scan"}, "bike_id": "cc04590c0a1aef3e0190e6eaecbb19e2", "fusion_lon": 0.0, "lat": 38.8962465}, {"type": "electric_scooter", "name": "3b02077a7106c7932e43e872c211c560", "is_reserved": 0, "fusion_lat": 0.0, "lon": -77.03262583333333, "is_disabled": 0, "rental_uris": {"android": "https://dc.lft.to/lastmile_qr_scan", "ios": "https://dc.lft.to/lastmile_qr_scan"}, "bike_id": "3b02077a7106c7932e43e872c211c560", "fusion_lon": 0.0, "lat": 38.93678366666666}, {"type": "electric_scooter", "name": "1d80cf892006266684fa619e05716b1d", "is_reserved": 0, "fusion_lat": 0.0, "lon": -77.05883283333333, "is_disabled": 0, "rental_uris": {"android": "https://dc.lft.to/lastmile_qr_scan", "ios": "https://dc.lft.to/lastmile_qr_scan"}, "bike_id": "1d80cf892006266684fa619e05716b1d", "fusion_lon": 0.0, "lat": 38.9182565}, {"type": "electric_scooter", "name": "0724008aeece828cfa80b86a5f6838bf", "is_reserved": 0, "fusion_lat": 0.0, "lon": -77.0007385, "is_disabled": 0, "rental_uris": {"android": "https://dc.lft.to/lastmile_qr_scan", "ios": "https://dc.lft.to/lastmile_qr_scan"}, "bike_id": "0724008aeece828cfa80b86a5f6838bf", "fusion_lon": 0.0, "lat": 38.900377666666664}, {"type": "electric_scooter", "name": "3383727b798f59c5961b6bcdf5115c5e", "is_reserved": 0, "fusion_lat": 0.0, "lon": -77.04602116666666, "is_disabled": 0, "rental_uris": {"android": "https://dc.lft.to/lastmile_qr_scan", "ios": "https://dc.lft.to/lastmile_qr_scan"}, "bike_id": "3383727b798f59c5961b6bcdf5115c5e", "fusion_lon": 0.0, "lat": 38.89734116666666}, {"type": "electric_scooter", "name": "478b8c7b1074bef17617bdf30ecd2df3", "is_reserved": 0, "fusion_lat": 0.0, "lon": -77.0534095, "is_disabled": 0, "rental_uris": {"android": "https://dc.lft.to/lastmile_qr_scan", "ios": "https://dc.lft.to/lastmile_qr_scan"}, "bike_id": "478b8c7b1074bef17617bdf30ecd2df3", "fusion_lon": 0.0, "lat": 38.902344166666666}, {"type": "electric_scooter", "name": "372c529358527449174f0a5952db87fd", "is_reserved": 0, "fusion_lat": 0.0, "lon": -77.03324266666667, "is_disabled": 0, "rental_uris": {"android": "https://dc.lft.to/lastmile_qr_scan", "ios": "https://dc.lft.to/lastmile_qr_scan"}, "bike_id": "372c529358527449174f0a5952db87fd", "fusion_lon": 0.0, "lat": 38.91555483333333}, {"type": "electric_scooter", "name": "95863be5d72f80737704810e29c341b2", "is_reserved": 0, "fusion_lat": 0.0, "lon": -76.98394666666667, "is_disabled": 0, "rental_uris": {"android": "https://dc.lft.to/lastmile_qr_scan", "ios": "https://dc.lft.to/lastmile_qr_scan"}, "bike_id": "95863be5d72f80737704810e29c341b2", "fusion_lon": 0.0, "lat": 38.866989333333336}, {"type": "electric_scooter", "name": "14be6f2279356f379cb7668d81d8eacb", "is_reserved": 0, "fusion_lat": 0.0, "lon": -77.04063216666667, "is_disabled": 0, "rental_uris": {"android": "https://dc.lft.to/lastmile_qr_scan", "ios": "https://dc.lft.to/lastmile_qr_scan"}, "bike_id": "14be6f2279356f379cb7668d81d8eacb", "fusion_lon": 0.0, "lat": 38.905949166666666}, {"type": "electric_scooter", "name": "dfc92e2316dba6206453a24a2c213091", "is_reserved": 0, "fusion_lat": 0.0, "lon": -77.043423, "is_disabled": 0, "rental_uris": {"android": "https://dc.lft.to/lastmile_qr_scan", "ios": "https://dc.lft.to/lastmile_qr_scan"}, "bike_id": "dfc92e2316dba6206453a24a2c213091", "fusion_lon": 0.0, "lat": 38.9049815}, {"type": "electric_scooter", "name": "11f876f0f8ab7c02d5078614bb14de20", "is_reserved": 0, "fusion_lat": 0.0, "lon": -77.02523, "is_disabled": 0, "rental_uris": {"android": "https://dc.lft.to/lastmile_qr_scan", "ios": "https://dc.lft.to/lastmile_qr_scan"}, "bike_id": "11f876f0f8ab7c02d5078614bb14de20", "fusion_lon": 0.0, "lat": 38.9195205}, {"type": "electric_scooter", "name": "c2e2b46fee276f351e678fbb6f021b2a", "is_reserved": 0, "fusion_lat": 0.0, "lon": -77.018588, "is_disabled": 0, "rental_uris": {"android": "https://dc.lft.to/lastmile_qr_scan", "ios": "https://dc.lft.to/lastmile_qr_scan"}, "bike_id": "c2e2b46fee276f351e678fbb6f021b2a", "fusion_lon": 0.0, "lat": 38.9149265}, {"type": "electric_scooter", "name": "fc9794823fa4f9fdc6cdaca53c47d550", "is_reserved": 0, "fusion_lat": 0.0, "lon": -77.0395205, "is_disabled": 0, "rental_uris": {"android": "https://dc.lft.to/lastmile_qr_scan", "ios": "https://dc.lft.to/lastmile_qr_scan"}, "bike_id": "fc9794823fa4f9fdc6cdaca53c47d550", "fusion_lon": 0.0, "lat": 38.93146733333333}, {"type": "electric_scooter", "name": "5681ed68018fa69c547163496681aee2", "is_reserved": 0, "fusion_lat": 0.0, "lon": -77.03723333333333, "is_disabled": 0, "rental_uris": {"android": "https://dc.lft.to/lastmile_qr_scan", "ios": "https://dc.lft.to/lastmile_qr_scan"}, "bike_id": "5681ed68018fa69c547163496681aee2", "fusion_lon": 0.0, "lat": 38.91695333333333}, {"type": "electric_scooter", "name": "80b6d357425037cfcbafa2ed7dd16c0f", "is_reserved": 0, "fusion_lat": 0.0, "lon": -77.02697166666667, "is_disabled": 0, "rental_uris": {"android": "https://dc.lft.to/lastmile_qr_scan", "ios": "https://dc.lft.to/lastmile_qr_scan"}, "bike_id": "80b6d357425037cfcbafa2ed7dd16c0f", "fusion_lon": 0.0, "lat": 38.91137033333333}, {"type": "electric_bike", "name": "b7f0eba1352ccb25a44854482a533528", "is_reserved": 0, "fusion_lat": 0.0, "lon": -76.98753833333333, "is_disabled": 0, "rental_uris": {"android": "https://dc.lft.to/lastmile_qr_scan", "ios": "https://dc.lft.to/lastmile_qr_scan"}, "bike_id": "b7f0eba1352ccb25a44854482a533528", "fusion_lon": 0.0, "lat": 38.857685333333336}, {"type": "electric_scooter", "name": "355d0f00a2174032b36681e286fdc2a3", "is_reserved": 0, "fusion_lat": 0.0, "lon": -77.00440366666666, "is_disabled": 0, "rental_uris": {"android": "https://dc.lft.to/lastmile_qr_scan", "ios": "https://dc.lft.to/lastmile_qr_scan"}, "bike_id": "355d0f00a2174032b36681e286fdc2a3", "fusion_lon": 0.0, "lat": 38.87661516666667}, {"type": "electric_scooter", "name": "69f03f43a078d26fd2739810701e95b5", "is_reserved": 0, "fusion_lat": 0.0, "lon": -77.03944783333333, "is_disabled": 0, "rental_uris": {"android": "https://dc.lft.to/lastmile_qr_scan", "ios": "https://dc.lft.to/lastmile_qr_scan"}, "bike_id": "69f03f43a078d26fd2739810701e95b5", "fusion_lon": 0.0, "lat": 38.9026505}, {"type": "electric_scooter", "name": "041849f5bb157e3504f0f2fcbced3c55", "is_reserved": 0, "fusion_lat": 0.0, "lon": -77.018243, "is_disabled": 0, "rental_uris": {"android": "https://dc.lft.to/lastmile_qr_scan", "ios": "https://dc.lft.to/lastmile_qr_scan"}, "bike_id": "041849f5bb157e3504f0f2fcbced3c55", "fusion_lon": 0.0, "lat": 38.922643666666666}, {"type": "electric_scooter", "name": "8a6bee492f5b6a82e808c70d8452b20d", "is_reserved": 0, "fusion_lat": 0.0, "lon": -77.02165316666667, "is_disabled": 0, "rental_uris": {"android": "https://dc.lft.to/lastmile_qr_scan", "ios": "https://dc.lft.to/lastmile_qr_scan"}, "bike_id": "8a6bee492f5b6a82e808c70d8452b20d", "fusion_lon": 0.0, "lat": 38.897492666666665}, {"type": "electric_scooter", "name": "6c81fb11af862eabd713ac5cc48b1a1a", "is_reserved": 0, "fusion_lat": 0.0, "lon": -77.0324645, "is_disabled": 0, "rental_uris": {"android": "https://dc.lft.to/lastmile_qr_scan", "ios": "https://dc.lft.to/lastmile_qr_scan"}, "bike_id": "6c81fb11af862eabd713ac5cc48b1a1a", "fusion_lon": 0.0, "lat": 38.9141575}, {"type": "electric_scooter", "name": "cab93944668bb4e9c846a8f809966ec4", "is_reserved": 0, "fusion_lat": 0.0, "lon": -76.9326165, "is_disabled": 0, "rental_uris": {"android": "https://dc.lft.to/lastmile_qr_scan", "ios": "https://dc.lft.to/lastmile_qr_scan"}, "bike_id": "cab93944668bb4e9c846a8f809966ec4", "fusion_lon": 0.0, "lat": 38.887732}, {"type": "electric_scooter", "name": "9c04e3584899ac5dc9ea84daa1ec1f07", "is_reserved": 0, "fusion_lat": 0.0, "lon": -77.0447485, "is_disabled": 0, "rental_uris": {"android": "https://dc.lft.to/lastmile_qr_scan", "ios": "https://dc.lft.to/lastmile_qr_scan"}, "bike_id": "9c04e3584899ac5dc9ea84daa1ec1f07", "fusion_lon": 0.0, "lat": 38.92135016666667}, {"type": "electric_scooter", "name": "ac0392647bcc3f1c0fa2eb5b653885df", "is_reserved": 0, "fusion_lat": 0.0, "lon": -77.02696233333333, "is_disabled": 0, "rental_uris": {"android": "https://dc.lft.to/lastmile_qr_scan", "ios": "https://dc.lft.to/lastmile_qr_scan"}, "bike_id": "ac0392647bcc3f1c0fa2eb5b653885df", "fusion_lon": 0.0, "lat": 38.90976366666666}, {"type": "electric_scooter", "name": "ee798f7ca8f71201fc4b583d0bcae99e", "is_reserved": 0, "fusion_lat": 0.0, "lon": -77.0431635, "is_disabled": 0, "rental_uris": {"android": "https://dc.lft.to/lastmile_qr_scan", "ios": "https://dc.lft.to/lastmile_qr_scan"}, "bike_id": "ee798f7ca8f71201fc4b583d0bcae99e", "fusion_lon": 0.0, "lat": 38.927976}, {"type": "electric_scooter", "name": "08b67541bd46c6446291cfc5fbe84637", "is_reserved": 0, "fusion_lat": 0.0, "lon": -77.04194566666666, "is_disabled": 0, "rental_uris": {"android": "https://dc.lft.to/lastmile_qr_scan", "ios": "https://dc.lft.to/lastmile_qr_scan"}, "bike_id": "08b67541bd46c6446291cfc5fbe84637", "fusion_lon": 0.0, "lat": 38.89359433333333}, {"type": "electric_scooter", "name": "7355e5533b30cd087ae787bfa87dcbb6", "is_reserved": 0, "fusion_lat": 0.0, "lon": -76.94185083333333, "is_disabled": 0, "rental_uris": {"android": "https://dc.lft.to/lastmile_qr_scan", "ios": "https://dc.lft.to/lastmile_qr_scan"}, "bike_id": "7355e5533b30cd087ae787bfa87dcbb6", "fusion_lon": 0.0, "lat": 38.897537166666666}, {"type": "electric_scooter", "name": "26782e930709270de47ff4e8132e5a0c", "is_reserved": 0, "fusion_lat": 0.0, "lon": -77.00198116666667, "is_disabled": 0, "rental_uris": {"android": "https://dc.lft.to/lastmile_qr_scan", "ios": "https://dc.lft.to/lastmile_qr_scan"}, "bike_id": "26782e930709270de47ff4e8132e5a0c", "fusion_lon": 0.0, "lat": 38.90053566666667}, {"type": "electric_scooter", "name": "bbae5e1db9dff4f654dbe404ca8107a5", "is_reserved": 0, "fusion_lat": 0.0, "lon": -77.04514, "is_disabled": 0, "rental_uris": {"android": "https://dc.lft.to/lastmile_qr_scan", "ios": "https://dc.lft.to/lastmile_qr_scan"}, "bike_id": "bbae5e1db9dff4f654dbe404ca8107a5", "fusion_lon": 0.0, "lat": 38.89225583333333}, {"type": "electric_scooter", "name": "be575909e60a29a4ee3b5d77029a43d6", "is_reserved": 0, "fusion_lat": 0.0, "lon": -77.0595305, "is_disabled": 0, "rental_uris": {"android": "https://dc.lft.to/lastmile_qr_scan", "ios": "https://dc.lft.to/lastmile_qr_scan"}, "bike_id": "be575909e60a29a4ee3b5d77029a43d6", "fusion_lon": 0.0, "lat": 38.90769316666667}, {"type": "electric_scooter", "name": "bf1e8c65b7954fbad096b627b4ee923c", "is_reserved": 0, "fusion_lat": 0.0, "lon": -77.027151, "is_disabled": 0, "rental_uris": {"android": "https://dc.lft.to/lastmile_qr_scan", "ios": "https://dc.lft.to/lastmile_qr_scan"}, "bike_id": "bf1e8c65b7954fbad096b627b4ee923c", "fusion_lon": 0.0, "lat": 38.92468383333333}, {"type": "electric_scooter", "name": "495d5f3d2c89687f8f78b18740838d1b", "is_reserved": 0, "fusion_lat": 0.0, "lon": -77.021642, "is_disabled": 0, "rental_uris": {"android": "https://dc.lft.to/lastmile_qr_scan", "ios": "https://dc.lft.to/lastmile_qr_scan"}, "bike_id": "495d5f3d2c89687f8f78b18740838d1b", "fusion_lon": 0.0, "lat": 38.909679}, {"type": "electric_bike", "name": "4cdc8296723259d9aca9b2d49926c6ba", "is_reserved": 0, "fusion_lat": 0.0, "lon": -77.120176, "is_disabled": 0, "rental_uris": {"android": "https://dc.lft.to/lastmile_qr_scan", "ios": "https://dc.lft.to/lastmile_qr_scan"}, "bike_id": "4cdc8296723259d9aca9b2d49926c6ba", "fusion_lon": 0.0, "lat": 38.855168166666665}, {"type": "electric_scooter", "name": "86c084a8dfa34bef315605e8e09fd6ad", "is_reserved": 0, "fusion_lat": 0.0, "lon": -77.03656333333333, "is_disabled": 0, "rental_uris": {"android": "https://dc.lft.to/lastmile_qr_scan", "ios": "https://dc.lft.to/lastmile_qr_scan"}, "bike_id": "86c084a8dfa34bef315605e8e09fd6ad", "fusion_lon": 0.0, "lat": 38.912473166666665}, {"type": "electric_scooter", "name": "50f266999e99a66aa74b305e2a9fd682", "is_reserved": 0, "fusion_lat": 0.0, "lon": -77.0447655, "is_disabled": 0, "rental_uris": {"android": "https://dc.lft.to/lastmile_qr_scan", "ios": "https://dc.lft.to/lastmile_qr_scan"}, "bike_id": "50f266999e99a66aa74b305e2a9fd682", "fusion_lon": 0.0, "lat": 38.918698}, {"type": "electric_scooter", "name": "c23d45b945a971a103fd7908af81a8ff", "is_reserved": 0, "fusion_lat": 0.0, "lon": -77.00490816666667, "is_disabled": 0, "rental_uris": {"android": "https://dc.lft.to/lastmile_qr_scan", "ios": "https://dc.lft.to/lastmile_qr_scan"}, "bike_id": "c23d45b945a971a103fd7908af81a8ff", "fusion_lon": 0.0, "lat": 38.896899}, {"type": "electric_scooter", "name": "42929e28cb231f1f0cc08fa3e9868395", "is_reserved": 0, "fusion_lat": 0.0, "lon": -77.03059216666666, "is_disabled": 0, "rental_uris": {"android": "https://dc.lft.to/lastmile_qr_scan", "ios": "https://dc.lft.to/lastmile_qr_scan"}, "bike_id": "42929e28cb231f1f0cc08fa3e9868395", "fusion_lon": 0.0, "lat": 38.930964833333334}, {"type": "electric_scooter", "name": "1a15593e41f579795f1ea4feccab47ed", "is_reserved": 0, "fusion_lat": 0.0, "lon": -77.0176195, "is_disabled": 0, "rental_uris": {"android": "https://dc.lft.to/lastmile_qr_scan", "ios": "https://dc.lft.to/lastmile_qr_scan"}, "bike_id": "1a15593e41f579795f1ea4feccab47ed", "fusion_lon": 0.0, "lat": 38.87685666666667}, {"type": "electric_scooter", "name": "da684996d08476357f4c5c81fe2a90b1", "is_reserved": 0, "fusion_lat": 0.0, "lon": -77.00198416666667, "is_disabled": 0, "rental_uris": {"android": "https://dc.lft.to/lastmile_qr_scan", "ios": "https://dc.lft.to/lastmile_qr_scan"}, "bike_id": "da684996d08476357f4c5c81fe2a90b1", "fusion_lon": 0.0, "lat": 38.8934835}, {"type": "electric_scooter", "name": "0f31068ae652a364435606eb34b5c8b4", "is_reserved": 0, "fusion_lat": 0.0, "lon": -77.028797, "is_disabled": 0, "rental_uris": {"android": "https://dc.lft.to/lastmile_qr_scan", "ios": "https://dc.lft.to/lastmile_qr_scan"}, "bike_id": "0f31068ae652a364435606eb34b5c8b4", "fusion_lon": 0.0, "lat": 38.89853083333333}, {"type": "electric_scooter", "name": "cb5874cf2abfbb7ef6dc5bafb8b8cd15", "is_reserved": 0, "fusion_lat": 0.0, "lon": -77.02491533333334, "is_disabled": 0, "rental_uris": {"android": "https://dc.lft.to/lastmile_qr_scan", "ios": "https://dc.lft.to/lastmile_qr_scan"}, "bike_id": "cb5874cf2abfbb7ef6dc5bafb8b8cd15", "fusion_lon": 0.0, "lat": 38.941835166666664}, {"type": "electric_scooter", "name": "f209b9d5d16107269eb813391eef5e5d", "is_reserved": 0, "fusion_lat": 0.0, "lon": -77.022958, "is_disabled": 0, "rental_uris": {"android": "https://dc.lft.to/lastmile_qr_scan", "ios": "https://dc.lft.to/lastmile_qr_scan"}, "bike_id": "f209b9d5d16107269eb813391eef5e5d", "fusion_lon": 0.0, "lat": 38.92805766666667}, {"type": "electric_scooter", "name": "8a02c8d61db8d947d1769456ceac7e74", "is_reserved": 0, "fusion_lat": 0.0, "lon": -76.9912615, "is_disabled": 0, "rental_uris": {"android": "https://dc.lft.to/lastmile_qr_scan", "ios": "https://dc.lft.to/lastmile_qr_scan"}, "bike_id": "8a02c8d61db8d947d1769456ceac7e74", "fusion_lon": 0.0, "lat": 38.862043666666665}, {"type": "electric_scooter", "name": "4685654f6a25f3167952d0378e6d8f59", "is_reserved": 0, "fusion_lat": 0.0, "lon": -77.021812, "is_disabled": 0, "rental_uris": {"android": "https://dc.lft.to/lastmile_qr_scan", "ios": "https://dc.lft.to/lastmile_qr_scan"}, "bike_id": "4685654f6a25f3167952d0378e6d8f59", "fusion_lon": 0.0, "lat": 38.91477033333334}, {"type": "electric_scooter", "name": "1683fcfa32a6097cda95a838c88bed73", "is_reserved": 0, "fusion_lat": 0.0, "lon": -77.02732683333333, "is_disabled": 0, "rental_uris": {"android": "https://dc.lft.to/lastmile_qr_scan", "ios": "https://dc.lft.to/lastmile_qr_scan"}, "bike_id": "1683fcfa32a6097cda95a838c88bed73", "fusion_lon": 0.0, "lat": 38.894892666666664}, {"type": "electric_scooter", "name": "99c37db70c4f139eb0dbdc53b771192c", "is_reserved": 0, "fusion_lat": 0.0, "lon": -77.041862, "is_disabled": 0, "rental_uris": {"android": "https://dc.lft.to/lastmile_qr_scan", "ios": "https://dc.lft.to/lastmile_qr_scan"}, "bike_id": "99c37db70c4f139eb0dbdc53b771192c", "fusion_lon": 0.0, "lat": 38.892882666666665}, {"type": "electric_scooter", "name": "9a1cf5ca87078a38f40183e6cb1d1012", "is_reserved": 0, "fusion_lat": 0.0, "lon": -77.0433355, "is_disabled": 0, "rental_uris": {"android": "https://dc.lft.to/lastmile_qr_scan", "ios": "https://dc.lft.to/lastmile_qr_scan"}, "bike_id": "9a1cf5ca87078a38f40183e6cb1d1012", "fusion_lon": 0.0, "lat": 38.904117}, {"type": "electric_scooter", "name": "909c023cf454cd97349a47aa08a0d973", "is_reserved": 0, "fusion_lat": 0.0, "lon": -77.04729716666667, "is_disabled": 0, "rental_uris": {"android": "https://dc.lft.to/lastmile_qr_scan", "ios": "https://dc.lft.to/lastmile_qr_scan"}, "bike_id": "909c023cf454cd97349a47aa08a0d973", "fusion_lon": 0.0, "lat": 38.90952216666667}, {"type": "electric_scooter", "name": "02054348f968d1d63a6898aa19419c9e", "is_reserved": 0, "fusion_lat": 0.0, "lon": -77.02626016666666, "is_disabled": 0, "rental_uris": {"android": "https://dc.lft.to/lastmile_qr_scan", "ios": "https://dc.lft.to/lastmile_qr_scan"}, "bike_id": "02054348f968d1d63a6898aa19419c9e", "fusion_lon": 0.0, "lat": 38.8924385}, {"type": "electric_scooter", "name": "f88a58b99338a245dad4c0daa7b13328", "is_reserved": 0, "fusion_lat": 0.0, "lon": -77.03983583333333, "is_disabled": 0, "rental_uris": {"android": "https://dc.lft.to/lastmile_qr_scan", "ios": "https://dc.lft.to/lastmile_qr_scan"}, "bike_id": "f88a58b99338a245dad4c0daa7b13328", "fusion_lon": 0.0, "lat": 38.90557716666667}, {"type": "electric_scooter", "name": "fac07be7a3126f1cbcfc5352d1b9d497", "is_reserved": 0, "fusion_lat": 0.0, "lon": -77.0327195, "is_disabled": 0, "rental_uris": {"android": "https://dc.lft.to/lastmile_qr_scan", "ios": "https://dc.lft.to/lastmile_qr_scan"}, "bike_id": "fac07be7a3126f1cbcfc5352d1b9d497", "fusion_lon": 0.0, "lat": 38.9274755}, {"type": "electric_scooter", "name": "a0bea48e779f7c8682626a24c294afcb", "is_reserved": 0, "fusion_lat": 0.0, "lon": -77.04517833333334, "is_disabled": 0, "rental_uris": {"android": "https://dc.lft.to/lastmile_qr_scan", "ios": "https://dc.lft.to/lastmile_qr_scan"}, "bike_id": "a0bea48e779f7c8682626a24c294afcb", "fusion_lon": 0.0, "lat": 38.90364783333333}, {"type": "electric_bike", "name": "473b05f59468583659824a907c86d872", "is_reserved": 0, "fusion_lat": 0.0, "lon": -76.94619633333333, "is_disabled": 0, "rental_uris": {"android": "https://dc.lft.to/lastmile_qr_scan", "ios": "https://dc.lft.to/lastmile_qr_scan"}, "bike_id": "473b05f59468583659824a907c86d872", "fusion_lon": 0.0, "lat": 38.832342833333335}, {"type": "electric_scooter", "name": "a9446f877bc54b3293266a7803405c1f", "is_reserved": 0, "fusion_lat": 0.0, "lon": -77.04337216666667, "is_disabled": 0, "rental_uris": {"android": "https://dc.lft.to/lastmile_qr_scan", "ios": "https://dc.lft.to/lastmile_qr_scan"}, "bike_id": "a9446f877bc54b3293266a7803405c1f", "fusion_lon": 0.0, "lat": 38.9061865}, {"type": "electric_scooter", "name": "8405dc17fec34fef8cfa57a4506fb6c8", "is_reserved": 0, "fusion_lat": 0.0, "lon": -77.05756766666667, "is_disabled": 0, "rental_uris": {"android": "https://dc.lft.to/lastmile_qr_scan", "ios": "https://dc.lft.to/lastmile_qr_scan"}, "bike_id": "8405dc17fec34fef8cfa57a4506fb6c8", "fusion_lon": 0.0, "lat": 38.92502183333333}, {"type": "electric_scooter", "name": "d872de3fa5465cf070c28d35eda59abc", "is_reserved": 0, "fusion_lat": 0.0, "lon": -77.027277, "is_disabled": 0, "rental_uris": {"android": "https://dc.lft.to/lastmile_qr_scan", "ios": "https://dc.lft.to/lastmile_qr_scan"}, "bike_id": "d872de3fa5465cf070c28d35eda59abc", "fusion_lon": 0.0, "lat": 38.903263333333335}, {"type": "electric_scooter", "name": "f28906492b686cd1378acdb8c4ef9330", "is_reserved": 0, "fusion_lat": 0.0, "lon": -77.00118233333333, "is_disabled": 0, "rental_uris": {"android": "https://dc.lft.to/lastmile_qr_scan", "ios": "https://dc.lft.to/lastmile_qr_scan"}, "bike_id": "f28906492b686cd1378acdb8c4ef9330", "fusion_lon": 0.0, "lat": 38.905025333333334}, {"type": "electric_scooter", "name": "deb8cb972deb865c143daadeb3bca74f", "is_reserved": 0, "fusion_lat": 0.0, "lon": -76.96627916666667, "is_disabled": 0, "rental_uris": {"android": "https://dc.lft.to/lastmile_qr_scan", "ios": "https://dc.lft.to/lastmile_qr_scan"}, "bike_id": "deb8cb972deb865c143daadeb3bca74f", "fusion_lon": 0.0, "lat": 38.871055}, {"type": "electric_scooter", "name": "e21fc3d36bfb7155948beafcddb7694f", "is_reserved": 0, "fusion_lat": 0.0, "lon": -77.03031633333333, "is_disabled": 0, "rental_uris": {"android": "https://dc.lft.to/lastmile_qr_scan", "ios": "https://dc.lft.to/lastmile_qr_scan"}, "bike_id": "e21fc3d36bfb7155948beafcddb7694f", "fusion_lon": 0.0, "lat": 38.898401166666666}, {"type": "electric_scooter", "name": "5afa16ebdac8f78e22cbf3850a446190", "is_reserved": 0, "fusion_lat": 0.0, "lon": -77.02114366666666, "is_disabled": 0, "rental_uris": {"android": "https://dc.lft.to/lastmile_qr_scan", "ios": "https://dc.lft.to/lastmile_qr_scan"}, "bike_id": "5afa16ebdac8f78e22cbf3850a446190", "fusion_lon": 0.0, "lat": 38.90285}, {"type": "electric_scooter", "name": "89cd0c8e77fbcc50ae3fd539c0cd6d05", "is_reserved": 0, "fusion_lat": 0.0, "lon": -77.0296675, "is_disabled": 0, "rental_uris": {"android": "https://dc.lft.to/lastmile_qr_scan", "ios": "https://dc.lft.to/lastmile_qr_scan"}, "bike_id": "89cd0c8e77fbcc50ae3fd539c0cd6d05", "fusion_lon": 0.0, "lat": 38.89633666666667}, {"type": "electric_scooter", "name": "e9426d9b02c0fa711fa7f1c33048974a", "is_reserved": 0, "fusion_lat": 0.0, "lon": -77.04329466666667, "is_disabled": 0, "rental_uris": {"android": "https://dc.lft.to/lastmile_qr_scan", "ios": "https://dc.lft.to/lastmile_qr_scan"}, "bike_id": "e9426d9b02c0fa711fa7f1c33048974a", "fusion_lon": 0.0, "lat": 38.89224816666667}, {"type": "electric_bike", "name": "b009f37949bc14119415b73b356a5804", "is_reserved": 0, "fusion_lat": 0.0, "lon": -77.04977283333334, "is_disabled": 0, "rental_uris": {"android": "https://dc.lft.to/lastmile_qr_scan", "ios": "https://dc.lft.to/lastmile_qr_scan"}, "bike_id": "b009f37949bc14119415b73b356a5804", "fusion_lon": 0.0, "lat": 39.062932333333336}, {"type": "electric_scooter", "name": "88e83751392eede438dbd4bc2be155bc", "is_reserved": 0, "fusion_lat": 0.0, "lon": -77.032944, "is_disabled": 0, "rental_uris": {"android": "https://dc.lft.to/lastmile_qr_scan", "ios": "https://dc.lft.to/lastmile_qr_scan"}, "bike_id": "88e83751392eede438dbd4bc2be155bc", "fusion_lon": 0.0, "lat": 38.95633183333333}, {"type": "electric_scooter", "name": "9b7513aeefa2e804cf0a97befe9c809c", "is_reserved": 0, "fusion_lat": 0.0, "lon": -76.9424715, "is_disabled": 0, "rental_uris": {"android": "https://dc.lft.to/lastmile_qr_scan", "ios": "https://dc.lft.to/lastmile_qr_scan"}, "bike_id": "9b7513aeefa2e804cf0a97befe9c809c", "fusion_lon": 0.0, "lat": 38.89672083333333}, {"type": "electric_scooter", "name": "a51e21d547ffd66fd911f4c6823d7672", "is_reserved": 0, "fusion_lat": 0.0, "lon": -77.01798333333333, "is_disabled": 0, "rental_uris": {"android": "https://dc.lft.to/lastmile_qr_scan", "ios": "https://dc.lft.to/lastmile_qr_scan"}, "bike_id": "a51e21d547ffd66fd911f4c6823d7672", "fusion_lon": 0.0, "lat": 38.87673733333333}, {"type": "electric_scooter", "name": "908997d93ab3ae45dc8b9a620d4c2ae7", "is_reserved": 0, "fusion_lat": 0.0, "lon": -76.96777183333333, "is_disabled": 0, "rental_uris": {"android": "https://dc.lft.to/lastmile_qr_scan", "ios": "https://dc.lft.to/lastmile_qr_scan"}, "bike_id": "908997d93ab3ae45dc8b9a620d4c2ae7", "fusion_lon": 0.0, "lat": 38.8592625}, {"type": "electric_scooter", "name": "453fa511e3c09d94c9034b1ab889835f", "is_reserved": 0, "fusion_lat": 0.0, "lon": -77.02827866666667, "is_disabled": 0, "rental_uris": {"android": "https://dc.lft.to/lastmile_qr_scan", "ios": "https://dc.lft.to/lastmile_qr_scan"}, "bike_id": "453fa511e3c09d94c9034b1ab889835f", "fusion_lon": 0.0, "lat": 38.96081216666666}, {"type": "electric_scooter", "name": "6d1964783fa5f92a05c18497b29df696", "is_reserved": 0, "fusion_lat": 0.0, "lon": -77.07234866666667, "is_disabled": 0, "rental_uris": {"android": "https://dc.lft.to/lastmile_qr_scan", "ios": "https://dc.lft.to/lastmile_qr_scan"}, "bike_id": "6d1964783fa5f92a05c18497b29df696", "fusion_lon": 0.0, "lat": 38.94006816666667}, {"type": "electric_scooter", "name": "4db6e5a2f02d20284d3722a2b9b8bce1", "is_reserved": 0, "fusion_lat": 0.0, "lon": -76.98378583333333, "is_disabled": 0, "rental_uris": {"android": "https://dc.lft.to/lastmile_qr_scan", "ios": "https://dc.lft.to/lastmile_qr_scan"}, "bike_id": "4db6e5a2f02d20284d3722a2b9b8bce1", "fusion_lon": 0.0, "lat": 38.86122016666667}, {"type": "electric_scooter", "name": "33ecef1fc30c23c164fe3cf521d97522", "is_reserved": 0, "fusion_lat": 0.0, "lon": -77.014955, "is_disabled": 0, "rental_uris": {"android": "https://dc.lft.to/lastmile_qr_scan", "ios": "https://dc.lft.to/lastmile_qr_scan"}, "bike_id": "33ecef1fc30c23c164fe3cf521d97522", "fusion_lon": 0.0, "lat": 38.8930075}, {"type": "electric_scooter", "name": "e7b1553498a0fd068f7d9291e9c50c6a", "is_reserved": 0, "fusion_lat": 0.0, "lon": -77.00174216666667, "is_disabled": 0, "rental_uris": {"android": "https://dc.lft.to/lastmile_qr_scan", "ios": "https://dc.lft.to/lastmile_qr_scan"}, "bike_id": "e7b1553498a0fd068f7d9291e9c50c6a", "fusion_lon": 0.0, "lat": 38.876714666666665}, {"type": "electric_scooter", "name": "462972a134a4bc9ac4b370eb05bcec43", "is_reserved": 0, "fusion_lat": 0.0, "lon": -77.00486433333333, "is_disabled": 0, "rental_uris": {"android": "https://dc.lft.to/lastmile_qr_scan", "ios": "https://dc.lft.to/lastmile_qr_scan"}, "bike_id": "462972a134a4bc9ac4b370eb05bcec43", "fusion_lon": 0.0, "lat": 38.8970585}, {"type": "electric_scooter", "name": "46ea045f1e1a8c5a3087c247a7e3a848", "is_reserved": 0, "fusion_lat": 0.0, "lon": -77.03356533333333, "is_disabled": 0, "rental_uris": {"android": "https://dc.lft.to/lastmile_qr_scan", "ios": "https://dc.lft.to/lastmile_qr_scan"}, "bike_id": "46ea045f1e1a8c5a3087c247a7e3a848", "fusion_lon": 0.0, "lat": 38.897405666666664}, {"type": "electric_scooter", "name": "aec2a231ec34e102f821fc0f2ee31343", "is_reserved": 0, "fusion_lat": 0.0, "lon": -77.0091665, "is_disabled": 0, "rental_uris": {"android": "https://dc.lft.to/lastmile_qr_scan", "ios": "https://dc.lft.to/lastmile_qr_scan"}, "bike_id": "aec2a231ec34e102f821fc0f2ee31343", "fusion_lon": 0.0, "lat": 38.901872166666664}, {"type": "electric_scooter", "name": "9c03109a61fa5e1e7c04dbbb621bcbd4", "is_reserved": 0, "fusion_lat": 0.0, "lon": -77.01274666666667, "is_disabled": 0, "rental_uris": {"android": "https://dc.lft.to/lastmile_qr_scan", "ios": "https://dc.lft.to/lastmile_qr_scan"}, "bike_id": "9c03109a61fa5e1e7c04dbbb621bcbd4", "fusion_lon": 0.0, "lat": 38.8974445}, {"type": "electric_scooter", "name": "a4a79c1a2342cad1be2abbcbd99d404b", "is_reserved": 0, "fusion_lat": 0.0, "lon": -76.99615233333333, "is_disabled": 0, "rental_uris": {"android": "https://dc.lft.to/lastmile_qr_scan", "ios": "https://dc.lft.to/lastmile_qr_scan"}, "bike_id": "a4a79c1a2342cad1be2abbcbd99d404b", "fusion_lon": 0.0, "lat": 38.885588}, {"type": "electric_scooter", "name": "1f45f642158cbe2bea0300de8f40ad57", "is_reserved": 0, "fusion_lat": 0.0, "lon": -76.95663916666666, "is_disabled": 0, "rental_uris": {"android": "https://dc.lft.to/lastmile_qr_scan", "ios": "https://dc.lft.to/lastmile_qr_scan"}, "bike_id": "1f45f642158cbe2bea0300de8f40ad57", "fusion_lon": 0.0, "lat": 38.894096166666664}, {"type": "electric_scooter", "name": "43fa9c89362e1d2aafeb9b3daf2cc711", "is_reserved": 0, "fusion_lat": 0.0, "lon": -76.99521233333333, "is_disabled": 0, "rental_uris": {"android": "https://dc.lft.to/lastmile_qr_scan", "ios": "https://dc.lft.to/lastmile_qr_scan"}, "bike_id": "43fa9c89362e1d2aafeb9b3daf2cc711", "fusion_lon": 0.0, "lat": 38.8954735}, {"type": "electric_bike", "name": "1b5eb42f7f48cebc36befa0a2ef298bd", "is_reserved": 0, "fusion_lat": 0.0, "lon": -76.948221, "is_disabled": 0, "rental_uris": {"android": "https://dc.lft.to/lastmile_qr_scan", "ios": "https://dc.lft.to/lastmile_qr_scan"}, "bike_id": "1b5eb42f7f48cebc36befa0a2ef298bd", "fusion_lon": 0.0, "lat": 38.89382633333334}, {"type": "electric_scooter", "name": "811f73258de774dab49a34188901e1e1", "is_reserved": 0, "fusion_lat": 0.0, "lon": -77.03185983333333, "is_disabled": 0, "rental_uris": {"android": "https://dc.lft.to/lastmile_qr_scan", "ios": "https://dc.lft.to/lastmile_qr_scan"}, "bike_id": "811f73258de774dab49a34188901e1e1", "fusion_lon": 0.0, "lat": 38.913567666666665}, {"type": "electric_scooter", "name": "bb34ebe0f4cb5c14691e107a04de4fcc", "is_reserved": 0, "fusion_lat": 0.0, "lon": -77.02476383333334, "is_disabled": 0, "rental_uris": {"android": "https://dc.lft.to/lastmile_qr_scan", "ios": "https://dc.lft.to/lastmile_qr_scan"}, "bike_id": "bb34ebe0f4cb5c14691e107a04de4fcc", "fusion_lon": 0.0, "lat": 38.93098533333333}, {"type": "electric_scooter", "name": "0d26653c90801d06e23f695c4234bddd", "is_reserved": 0, "fusion_lat": 0.0, "lon": -77.04374083333333, "is_disabled": 0, "rental_uris": {"android": "https://dc.lft.to/lastmile_qr_scan", "ios": "https://dc.lft.to/lastmile_qr_scan"}, "bike_id": "0d26653c90801d06e23f695c4234bddd", "fusion_lon": 0.0, "lat": 38.8984385}, {"type": "electric_bike", "name": "ed4988d7141bdd46bd48c7537fd1d94c", "is_reserved": 0, "fusion_lat": 0.0, "lon": -77.08583133333333, "is_disabled": 0, "rental_uris": {"android": "https://dc.lft.to/lastmile_qr_scan", "ios": "https://dc.lft.to/lastmile_qr_scan"}, "bike_id": "ed4988d7141bdd46bd48c7537fd1d94c", "fusion_lon": 0.0, "lat": 38.844294833333336}, {"type": "electric_bike", "name": "a51cf19216620393eec7fbb4ab1cacf2", "is_reserved": 0, "fusion_lat": 0.0, "lon": -77.12058966666666, "is_disabled": 0, "rental_uris": {"android": "https://dc.lft.to/lastmile_qr_scan", "ios": "https://dc.lft.to/lastmile_qr_scan"}, "bike_id": "a51cf19216620393eec7fbb4ab1cacf2", "fusion_lon": 0.0, "lat": 38.854042166666666}, {"type": "electric_scooter", "name": "de29c93f5f7067e0dc0114c097df44d1", "is_reserved": 0, "fusion_lat": 0.0, "lon": -77.04252083333333, "is_disabled": 0, "rental_uris": {"android": "https://dc.lft.to/lastmile_qr_scan", "ios": "https://dc.lft.to/lastmile_qr_scan"}, "bike_id": "de29c93f5f7067e0dc0114c097df44d1", "fusion_lon": 0.0, "lat": 38.92062966666667}, {"type": "electric_scooter", "name": "f476c141a87179b2d136aa9ed7f507a4", "is_reserved": 0, "fusion_lat": 0.0, "lon": -76.99058883333333, "is_disabled": 0, "rental_uris": {"android": "https://dc.lft.to/lastmile_qr_scan", "ios": "https://dc.lft.to/lastmile_qr_scan"}, "bike_id": "f476c141a87179b2d136aa9ed7f507a4", "fusion_lon": 0.0, "lat": 38.86353666666667}, {"type": "electric_scooter", "name": "ada14e7a1d63e92a3f06809a01c1865e", "is_reserved": 0, "fusion_lat": 0.0, "lon": -77.0633065, "is_disabled": 0, "rental_uris": {"android": "https://dc.lft.to/lastmile_qr_scan", "ios": "https://dc.lft.to/lastmile_qr_scan"}, "bike_id": "ada14e7a1d63e92a3f06809a01c1865e", "fusion_lon": 0.0, "lat": 38.944200333333335}, {"type": "electric_scooter", "name": "2898bfa906a4695f7776fc38117aad96", "is_reserved": 0, "fusion_lat": 0.0, "lon": -77.0317385, "is_disabled": 0, "rental_uris": {"android": "https://dc.lft.to/lastmile_qr_scan", "ios": "https://dc.lft.to/lastmile_qr_scan"}, "bike_id": "2898bfa906a4695f7776fc38117aad96", "fusion_lon": 0.0, "lat": 38.915543666666665}, {"type": "electric_bike", "name": "7a28c29eefdfa97198ed833a9937bb68", "is_reserved": 0, "fusion_lat": 0.0, "lon": -76.92201316666667, "is_disabled": 0, "rental_uris": {"android": "https://dc.lft.to/lastmile_qr_scan", "ios": "https://dc.lft.to/lastmile_qr_scan"}, "bike_id": "7a28c29eefdfa97198ed833a9937bb68", "fusion_lon": 0.0, "lat": 38.895029}, {"type": "electric_scooter", "name": "08ba067bca71bca71da962c9fe9a94f7", "is_reserved": 0, "fusion_lat": 0.0, "lon": -77.07268466666666, "is_disabled": 0, "rental_uris": {"android": "https://dc.lft.to/lastmile_qr_scan", "ios": "https://dc.lft.to/lastmile_qr_scan"}, "bike_id": "08ba067bca71bca71da962c9fe9a94f7", "fusion_lon": 0.0, "lat": 38.935157833333335}, {"type": "electric_scooter", "name": "16b655524bae58ae511054031831291d", "is_reserved": 0, "fusion_lat": 0.0, "lon": -76.98252433333333, "is_disabled": 0, "rental_uris": {"android": "https://dc.lft.to/lastmile_qr_scan", "ios": "https://dc.lft.to/lastmile_qr_scan"}, "bike_id": "16b655524bae58ae511054031831291d", "fusion_lon": 0.0, "lat": 38.90451}, {"type": "electric_scooter", "name": "ec83bcdeb3b1ec00f0af8b5e7c1a1c3d", "is_reserved": 0, "fusion_lat": 0.0, "lon": -76.9903655, "is_disabled": 0, "rental_uris": {"android": "https://dc.lft.to/lastmile_qr_scan", "ios": "https://dc.lft.to/lastmile_qr_scan"}, "bike_id": "ec83bcdeb3b1ec00f0af8b5e7c1a1c3d", "fusion_lon": 0.0, "lat": 38.90288433333333}, {"type": "electric_scooter", "name": "41f0f89f4502c928ba43bd9d0d44ad04", "is_reserved": 0, "fusion_lat": 0.0, "lon": -77.02218383333333, "is_disabled": 0, "rental_uris": {"android": "https://dc.lft.to/lastmile_qr_scan", "ios": "https://dc.lft.to/lastmile_qr_scan"}, "bike_id": "41f0f89f4502c928ba43bd9d0d44ad04", "fusion_lon": 0.0, "lat": 38.92617716666667}, {"type": "electric_scooter", "name": "f211ca6f4ac3260d6b965fa7273e0883", "is_reserved": 0, "fusion_lat": 0.0, "lon": -77.00066916666667, "is_disabled": 0, "rental_uris": {"android": "https://dc.lft.to/lastmile_qr_scan", "ios": "https://dc.lft.to/lastmile_qr_scan"}, "bike_id": "f211ca6f4ac3260d6b965fa7273e0883", "fusion_lon": 0.0, "lat": 38.9067205}, {"type": "electric_scooter", "name": "5775317ca084e50a20a549e029a329cb", "is_reserved": 0, "fusion_lat": 0.0, "lon": -77.03813083333333, "is_disabled": 0, "rental_uris": {"android": "https://dc.lft.to/lastmile_qr_scan", "ios": "https://dc.lft.to/lastmile_qr_scan"}, "bike_id": "5775317ca084e50a20a549e029a329cb", "fusion_lon": 0.0, "lat": 38.906856833333336}, {"type": "electric_scooter", "name": "3fec4b7c8927f12a6c51c22b93cf6040", "is_reserved": 0, "fusion_lat": 0.0, "lon": -76.98923866666667, "is_disabled": 0, "rental_uris": {"android": "https://dc.lft.to/lastmile_qr_scan", "ios": "https://dc.lft.to/lastmile_qr_scan"}, "bike_id": "3fec4b7c8927f12a6c51c22b93cf6040", "fusion_lon": 0.0, "lat": 38.858109166666665}, {"type": "electric_scooter", "name": "3c1ed76dd7505670746ee1dc1caefc37", "is_reserved": 0, "fusion_lat": 0.0, "lon": -77.002002, "is_disabled": 0, "rental_uris": {"android": "https://dc.lft.to/lastmile_qr_scan", "ios": "https://dc.lft.to/lastmile_qr_scan"}, "bike_id": "3c1ed76dd7505670746ee1dc1caefc37", "fusion_lon": 0.0, "lat": 38.902387}, {"type": "electric_scooter", "name": "8eec1481d93c86f2ae5da2e0bc740ac6", "is_reserved": 0, "fusion_lat": 0.0, "lon": -77.03442366666667, "is_disabled": 0, "rental_uris": {"android": "https://dc.lft.to/lastmile_qr_scan", "ios": "https://dc.lft.to/lastmile_qr_scan"}, "bike_id": "8eec1481d93c86f2ae5da2e0bc740ac6", "fusion_lon": 0.0, "lat": 38.918034666666664}, {"type": "electric_bike", "name": "f7afba8e2e7a0ea44e349bb663a273f0", "is_reserved": 0, "fusion_lat": 0.0, "lon": -76.90709816666667, "is_disabled": 0, "rental_uris": {"android": "https://dc.lft.to/lastmile_qr_scan", "ios": "https://dc.lft.to/lastmile_qr_scan"}, "bike_id": "f7afba8e2e7a0ea44e349bb663a273f0", "fusion_lon": 0.0, "lat": 38.89595633333333}, {"type": "electric_bike", "name": "bf3668a05660d79e63c5116922f47d45", "is_reserved": 0, "fusion_lat": 0.0, "lon": -77.01986166666667, "is_disabled": 0, "rental_uris": {"android": "https://dc.lft.to/lastmile_qr_scan", "ios": "https://dc.lft.to/lastmile_qr_scan"}, "bike_id": "bf3668a05660d79e63c5116922f47d45", "fusion_lon": 0.0, "lat": 38.92272833333333}, {"type": "electric_scooter", "name": "80b9154ab328d279e133e9d53f2a49cf", "is_reserved": 0, "fusion_lat": 0.0, "lon": -76.998152, "is_disabled": 0, "rental_uris": {"android": "https://dc.lft.to/lastmile_qr_scan", "ios": "https://dc.lft.to/lastmile_qr_scan"}, "bike_id": "80b9154ab328d279e133e9d53f2a49cf", "fusion_lon": 0.0, "lat": 38.844295}, {"type": "electric_scooter", "name": "21181403f225d9e949701f4ef1db174b", "is_reserved": 0, "fusion_lat": 0.0, "lon": -77.0434185, "is_disabled": 0, "rental_uris": {"android": "https://dc.lft.to/lastmile_qr_scan", "ios": "https://dc.lft.to/lastmile_qr_scan"}, "bike_id": "21181403f225d9e949701f4ef1db174b", "fusion_lon": 0.0, "lat": 38.90769616666667}, {"type": "electric_scooter", "name": "75727f9656b549d360522beae1d93457", "is_reserved": 0, "fusion_lat": 0.0, "lon": -77.04595216666667, "is_disabled": 0, "rental_uris": {"android": "https://dc.lft.to/lastmile_qr_scan", "ios": "https://dc.lft.to/lastmile_qr_scan"}, "bike_id": "75727f9656b549d360522beae1d93457", "fusion_lon": 0.0, "lat": 38.9027415}, {"type": "electric_scooter", "name": "19256dcdc450603448a6712c7325c5b2", "is_reserved": 0, "fusion_lat": 0.0, "lon": -76.99030616666667, "is_disabled": 0, "rental_uris": {"android": "https://dc.lft.to/lastmile_qr_scan", "ios": "https://dc.lft.to/lastmile_qr_scan"}, "bike_id": "19256dcdc450603448a6712c7325c5b2", "fusion_lon": 0.0, "lat": 38.8985685}, {"type": "electric_scooter", "name": "a29276e38b17dc60f40108a03f9b0ab9", "is_reserved": 0, "fusion_lat": 0.0, "lon": -77.05409583333334, "is_disabled": 0, "rental_uris": {"android": "https://dc.lft.to/lastmile_qr_scan", "ios": "https://dc.lft.to/lastmile_qr_scan"}, "bike_id": "a29276e38b17dc60f40108a03f9b0ab9", "fusion_lon": 0.0, "lat": 38.927870166666665}, {"type": "electric_scooter", "name": "e7dba05c43122c548beca102066defc8", "is_reserved": 0, "fusion_lat": 0.0, "lon": -77.02469983333333, "is_disabled": 0, "rental_uris": {"android": "https://dc.lft.to/lastmile_qr_scan", "ios": "https://dc.lft.to/lastmile_qr_scan"}, "bike_id": "e7dba05c43122c548beca102066defc8", "fusion_lon": 0.0, "lat": 38.893937666666666}, {"type": "electric_scooter", "name": "32e60c2699790ea79877057e46f61290", "is_reserved": 0, "fusion_lat": 0.0, "lon": -77.044357, "is_disabled": 0, "rental_uris": {"android": "https://dc.lft.to/lastmile_qr_scan", "ios": "https://dc.lft.to/lastmile_qr_scan"}, "bike_id": "32e60c2699790ea79877057e46f61290", "fusion_lon": 0.0, "lat": 38.92121133333333}, {"type": "electric_bike", "name": "4aca215d83c546841f0f04c35daedcd3", "is_reserved": 0, "fusion_lat": 0.0, "lon": -77.05107416666667, "is_disabled": 0, "rental_uris": {"android": "https://dc.lft.to/lastmile_qr_scan", "ios": "https://dc.lft.to/lastmile_qr_scan"}, "bike_id": "4aca215d83c546841f0f04c35daedcd3", "fusion_lon": 0.0, "lat": 39.03668966666667}, {"type": "electric_scooter", "name": "6e98eb97b6536241c70dba5dcbe6d599", "is_reserved": 0, "fusion_lat": 0.0, "lon": -77.02978583333334, "is_disabled": 0, "rental_uris": {"android": "https://dc.lft.to/lastmile_qr_scan", "ios": "https://dc.lft.to/lastmile_qr_scan"}, "bike_id": "6e98eb97b6536241c70dba5dcbe6d599", "fusion_lon": 0.0, "lat": 38.91417766666667}, {"type": "electric_scooter", "name": "76de033c6b610a0636e09555d60b1d1f", "is_reserved": 0, "fusion_lat": 0.0, "lon": -77.03068016666667, "is_disabled": 0, "rental_uris": {"android": "https://dc.lft.to/lastmile_qr_scan", "ios": "https://dc.lft.to/lastmile_qr_scan"}, "bike_id": "76de033c6b610a0636e09555d60b1d1f", "fusion_lon": 0.0, "lat": 38.902712666666666}, {"type": "electric_bike", "name": "f6b36d70ca70699b65626626b3d8167c", "is_reserved": 0, "fusion_lat": 0.0, "lon": -77.11214083333333, "is_disabled": 0, "rental_uris": {"android": "https://dc.lft.to/lastmile_qr_scan", "ios": "https://dc.lft.to/lastmile_qr_scan"}, "bike_id": "f6b36d70ca70699b65626626b3d8167c", "fusion_lon": 0.0, "lat": 38.900386166666664}, {"type": "electric_scooter", "name": "2812035eb8c1bc62d7642a47fa7163d8", "is_reserved": 0, "fusion_lat": 0.0, "lon": -76.990643, "is_disabled": 0, "rental_uris": {"android": "https://dc.lft.to/lastmile_qr_scan", "ios": "https://dc.lft.to/lastmile_qr_scan"}, "bike_id": "2812035eb8c1bc62d7642a47fa7163d8", "fusion_lon": 0.0, "lat": 38.86354266666667}, {"type": "electric_scooter", "name": "5043fb1ce145459732c839450ca78a67", "is_reserved": 0, "fusion_lat": 0.0, "lon": -77.00725833333334, "is_disabled": 0, "rental_uris": {"android": "https://dc.lft.to/lastmile_qr_scan", "ios": "https://dc.lft.to/lastmile_qr_scan"}, "bike_id": "5043fb1ce145459732c839450ca78a67", "fusion_lon": 0.0, "lat": 38.8849215}, {"type": "electric_scooter", "name": "a3ca417acc9fe8b99368c428aaba7dd7", "is_reserved": 0, "fusion_lat": 0.0, "lon": -77.04336483333333, "is_disabled": 0, "rental_uris": {"android": "https://dc.lft.to/lastmile_qr_scan", "ios": "https://dc.lft.to/lastmile_qr_scan"}, "bike_id": "a3ca417acc9fe8b99368c428aaba7dd7", "fusion_lon": 0.0, "lat": 38.895231833333334}, {"type": "electric_scooter", "name": "b8c51c98a3812f6de4187ecc7ba9221e", "is_reserved": 0, "fusion_lat": 0.0, "lon": -77.05872366666667, "is_disabled": 0, "rental_uris": {"android": "https://dc.lft.to/lastmile_qr_scan", "ios": "https://dc.lft.to/lastmile_qr_scan"}, "bike_id": "b8c51c98a3812f6de4187ecc7ba9221e", "fusion_lon": 0.0, "lat": 38.943121166666664}, {"type": "electric_scooter", "name": "2abbdee4c67cca9f8fec4eaefdf8777e", "is_reserved": 0, "fusion_lat": 0.0, "lon": -77.04625083333333, "is_disabled": 0, "rental_uris": {"android": "https://dc.lft.to/lastmile_qr_scan", "ios": "https://dc.lft.to/lastmile_qr_scan"}, "bike_id": "2abbdee4c67cca9f8fec4eaefdf8777e", "fusion_lon": 0.0, "lat": 38.90237616666667}, {"type": "electric_bike", "name": "1567e84fd990495e3b715264be6107db", "is_reserved": 0, "fusion_lat": 0.0, "lon": -76.990837, "is_disabled": 0, "rental_uris": {"android": "https://dc.lft.to/lastmile_qr_scan", "ios": "https://dc.lft.to/lastmile_qr_scan"}, "bike_id": "1567e84fd990495e3b715264be6107db", "fusion_lon": 0.0, "lat": 38.86239366666667}, {"type": "electric_scooter", "name": "b1cd40072c240c542ad26d1c8f90530e", "is_reserved": 0, "fusion_lat": 0.0, "lon": -77.0276995, "is_disabled": 0, "rental_uris": {"android": "https://dc.lft.to/lastmile_qr_scan", "ios": "https://dc.lft.to/lastmile_qr_scan"}, "bike_id": "b1cd40072c240c542ad26d1c8f90530e", "fusion_lon": 0.0, "lat": 38.954246166666664}, {"type": "electric_bike", "name": "46f0677084a1741ec8bafd98fce4f04a", "is_reserved": 0, "fusion_lat": 0.0, "lon": -76.98992783333334, "is_disabled": 0, "rental_uris": {"android": "https://dc.lft.to/lastmile_qr_scan", "ios": "https://dc.lft.to/lastmile_qr_scan"}, "bike_id": "46f0677084a1741ec8bafd98fce4f04a", "fusion_lon": 0.0, "lat": 38.863884166666665}, {"type": "electric_scooter", "name": "29aa99ecda1437f5e56a1d97bc381ea1", "is_reserved": 0, "fusion_lat": 0.0, "lon": -77.02633333333333, "is_disabled": 0, "rental_uris": {"android": "https://dc.lft.to/lastmile_qr_scan", "ios": "https://dc.lft.to/lastmile_qr_scan"}, "bike_id": "29aa99ecda1437f5e56a1d97bc381ea1", "fusion_lon": 0.0, "lat": 38.9170735}, {"type": "electric_scooter", "name": "c9ec0cfbe2e4c1aea17b9eeb35de3d09", "is_reserved": 0, "fusion_lat": 0.0, "lon": -77.01997033333333, "is_disabled": 0, "rental_uris": {"android": "https://dc.lft.to/lastmile_qr_scan", "ios": "https://dc.lft.to/lastmile_qr_scan"}, "bike_id": "c9ec0cfbe2e4c1aea17b9eeb35de3d09", "fusion_lon": 0.0, "lat": 38.915711333333334}, {"type": "electric_scooter", "name": "3cc8ce33f829ee96cb6f5960828b0fe5", "is_reserved": 0, "fusion_lat": 0.0, "lon": -76.93731833333334, "is_disabled": 0, "rental_uris": {"android": "https://dc.lft.to/lastmile_qr_scan", "ios": "https://dc.lft.to/lastmile_qr_scan"}, "bike_id": "3cc8ce33f829ee96cb6f5960828b0fe5", "fusion_lon": 0.0, "lat": 38.890172166666666}, {"type": "electric_scooter", "name": "90ea55675b8ad235f2be65afa67571e4", "is_reserved": 0, "fusion_lat": 0.0, "lon": -77.03306183333333, "is_disabled": 0, "rental_uris": {"android": "https://dc.lft.to/lastmile_qr_scan", "ios": "https://dc.lft.to/lastmile_qr_scan"}, "bike_id": "90ea55675b8ad235f2be65afa67571e4", "fusion_lon": 0.0, "lat": 38.95634666666667}, {"type": "electric_scooter", "name": "d79586af21fb389088a243a8685cef5c", "is_reserved": 0, "fusion_lat": 0.0, "lon": -77.02844766666666, "is_disabled": 0, "rental_uris": {"android": "https://dc.lft.to/lastmile_qr_scan", "ios": "https://dc.lft.to/lastmile_qr_scan"}, "bike_id": "d79586af21fb389088a243a8685cef5c", "fusion_lon": 0.0, "lat": 38.904362166666665}, {"type": "electric_scooter", "name": "735057fc490bd3cd563488c8a9d5601f", "is_reserved": 0, "fusion_lat": 0.0, "lon": -77.043337, "is_disabled": 0, "rental_uris": {"android": "https://dc.lft.to/lastmile_qr_scan", "ios": "https://dc.lft.to/lastmile_qr_scan"}, "bike_id": "735057fc490bd3cd563488c8a9d5601f", "fusion_lon": 0.0, "lat": 38.9040345}, {"type": "electric_scooter", "name": "cdd1a250ea054a9e6e8e1d123a001226", "is_reserved": 0, "fusion_lat": 0.0, "lon": -77.041247, "is_disabled": 0, "rental_uris": {"android": "https://dc.lft.to/lastmile_qr_scan", "ios": "https://dc.lft.to/lastmile_qr_scan"}, "bike_id": "cdd1a250ea054a9e6e8e1d123a001226", "fusion_lon": 0.0, "lat": 38.933608666666665}, {"type": "electric_scooter", "name": "394a0d09b2deeb58c6cb6aa92a3d84b2", "is_reserved": 0, "fusion_lat": 0.0, "lon": -77.04033666666666, "is_disabled": 0, "rental_uris": {"android": "https://dc.lft.to/lastmile_qr_scan", "ios": "https://dc.lft.to/lastmile_qr_scan"}, "bike_id": "394a0d09b2deeb58c6cb6aa92a3d84b2", "fusion_lon": 0.0, "lat": 38.900315166666665}, {"type": "electric_scooter", "name": "646a3975d2061b87d94258f83214ec6b", "is_reserved": 0, "fusion_lat": 0.0, "lon": -77.021861, "is_disabled": 0, "rental_uris": {"android": "https://dc.lft.to/lastmile_qr_scan", "ios": "https://dc.lft.to/lastmile_qr_scan"}, "bike_id": "646a3975d2061b87d94258f83214ec6b", "fusion_lon": 0.0, "lat": 38.89996466666667}, {"type": "electric_scooter", "name": "624bcad3af70cb09a272a7f32c8c99e1", "is_reserved": 0, "fusion_lat": 0.0, "lon": -77.03905683333333, "is_disabled": 0, "rental_uris": {"android": "https://dc.lft.to/lastmile_qr_scan", "ios": "https://dc.lft.to/lastmile_qr_scan"}, "bike_id": "624bcad3af70cb09a272a7f32c8c99e1", "fusion_lon": 0.0, "lat": 38.9183265}, {"type": "electric_scooter", "name": "8a425eb22a53421ba018ab17ee2bac5a", "is_reserved": 0, "fusion_lat": 0.0, "lon": -77.06162583333334, "is_disabled": 0, "rental_uris": {"android": "https://dc.lft.to/lastmile_qr_scan", "ios": "https://dc.lft.to/lastmile_qr_scan"}, "bike_id": "8a425eb22a53421ba018ab17ee2bac5a", "fusion_lon": 0.0, "lat": 38.91301833333333}, {"type": "electric_scooter", "name": "117c674134ffc58b19941ebe0c270e70", "is_reserved": 0, "fusion_lat": 0.0, "lon": -76.965285, "is_disabled": 0, "rental_uris": {"android": "https://dc.lft.to/lastmile_qr_scan", "ios": "https://dc.lft.to/lastmile_qr_scan"}, "bike_id": "117c674134ffc58b19941ebe0c270e70", "fusion_lon": 0.0, "lat": 38.87629233333333}, {"type": "electric_scooter", "name": "f0b8376d179204baf9c6234ec3949e4d", "is_reserved": 0, "fusion_lat": 0.0, "lon": -77.02952133333334, "is_disabled": 0, "rental_uris": {"android": "https://dc.lft.to/lastmile_qr_scan", "ios": "https://dc.lft.to/lastmile_qr_scan"}, "bike_id": "f0b8376d179204baf9c6234ec3949e4d", "fusion_lon": 0.0, "lat": 38.92862616666667}, {"type": "electric_scooter", "name": "18add26ec31be5835b83b163733cd999", "is_reserved": 0, "fusion_lat": 0.0, "lon": -77.03936516666667, "is_disabled": 0, "rental_uris": {"android": "https://dc.lft.to/lastmile_qr_scan", "ios": "https://dc.lft.to/lastmile_qr_scan"}, "bike_id": "18add26ec31be5835b83b163733cd999", "fusion_lon": 0.0, "lat": 38.91758033333333}, {"type": "electric_scooter", "name": "578955338dd8cbd45510a2db0203f08e", "is_reserved": 0, "fusion_lat": 0.0, "lon": -77.03203366666666, "is_disabled": 0, "rental_uris": {"android": "https://dc.lft.to/lastmile_qr_scan", "ios": "https://dc.lft.to/lastmile_qr_scan"}, "bike_id": "578955338dd8cbd45510a2db0203f08e", "fusion_lon": 0.0, "lat": 38.91786883333333}, {"type": "electric_scooter", "name": "6d2b6ac5f37f331f5820d226ab5817bc", "is_reserved": 0, "fusion_lat": 0.0, "lon": -77.03002683333334, "is_disabled": 0, "rental_uris": {"android": "https://dc.lft.to/lastmile_qr_scan", "ios": "https://dc.lft.to/lastmile_qr_scan"}, "bike_id": "6d2b6ac5f37f331f5820d226ab5817bc", "fusion_lon": 0.0, "lat": 38.902678}, {"type": "electric_bike", "name": "77b5d4aa2f83cbac020cd080638eabb0", "is_reserved": 0, "fusion_lat": 0.0, "lon": -77.02280733333333, "is_disabled": 0, "rental_uris": {"android": "https://dc.lft.to/lastmile_qr_scan", "ios": "https://dc.lft.to/lastmile_qr_scan"}, "bike_id": "77b5d4aa2f83cbac020cd080638eabb0", "fusion_lon": 0.0, "lat": 38.90280683333334}, {"type": "electric_scooter", "name": "59b0e864da05982266599077cb2d934f", "is_reserved": 0, "fusion_lat": 0.0, "lon": -77.02882933333333, "is_disabled": 0, "rental_uris": {"android": "https://dc.lft.to/lastmile_qr_scan", "ios": "https://dc.lft.to/lastmile_qr_scan"}, "bike_id": "59b0e864da05982266599077cb2d934f", "fusion_lon": 0.0, "lat": 38.91704683333333}, {"type": "electric_scooter", "name": "8b7aa2a006e743e9b1e70e370403a198", "is_reserved": 0, "fusion_lat": 0.0, "lon": -77.04395433333333, "is_disabled": 0, "rental_uris": {"android": "https://dc.lft.to/lastmile_qr_scan", "ios": "https://dc.lft.to/lastmile_qr_scan"}, "bike_id": "8b7aa2a006e743e9b1e70e370403a198", "fusion_lon": 0.0, "lat": 38.917214666666666}, {"type": "electric_scooter", "name": "94983d5d35e098657cc67dcf0b63b0e1", "is_reserved": 0, "fusion_lat": 0.0, "lon": -77.0050805, "is_disabled": 0, "rental_uris": {"android": "https://dc.lft.to/lastmile_qr_scan", "ios": "https://dc.lft.to/lastmile_qr_scan"}, "bike_id": "94983d5d35e098657cc67dcf0b63b0e1", "fusion_lon": 0.0, "lat": 38.90754066666667}, {"type": "electric_scooter", "name": "b5b7fdc8775f6405ad8b55e3a9d3c5d2", "is_reserved": 0, "fusion_lat": 0.0, "lon": -76.93058233333333, "is_disabled": 0, "rental_uris": {"android": "https://dc.lft.to/lastmile_qr_scan", "ios": "https://dc.lft.to/lastmile_qr_scan"}, "bike_id": "b5b7fdc8775f6405ad8b55e3a9d3c5d2", "fusion_lon": 0.0, "lat": 38.901521}, {"type": "electric_scooter", "name": "4be8a27cd45fd4f0d5aafb1ca4e404bd", "is_reserved": 0, "fusion_lat": 0.0, "lon": -77.0433715, "is_disabled": 0, "rental_uris": {"android": "https://dc.lft.to/lastmile_qr_scan", "ios": "https://dc.lft.to/lastmile_qr_scan"}, "bike_id": "4be8a27cd45fd4f0d5aafb1ca4e404bd", "fusion_lon": 0.0, "lat": 38.902172666666665}, {"type": "electric_scooter", "name": "1d25fe0ee4018d9033f6543119b0fee2", "is_reserved": 0, "fusion_lat": 0.0, "lon": -77.07420783333333, "is_disabled": 0, "rental_uris": {"android": "https://dc.lft.to/lastmile_qr_scan", "ios": "https://dc.lft.to/lastmile_qr_scan"}, "bike_id": "1d25fe0ee4018d9033f6543119b0fee2", "fusion_lon": 0.0, "lat": 38.913078}, {"type": "electric_scooter", "name": "7779272b661c036e2d150aedb11183ce", "is_reserved": 0, "fusion_lat": 0.0, "lon": -77.04031416666666, "is_disabled": 0, "rental_uris": {"android": "https://dc.lft.to/lastmile_qr_scan", "ios": "https://dc.lft.to/lastmile_qr_scan"}, "bike_id": "7779272b661c036e2d150aedb11183ce", "fusion_lon": 0.0, "lat": 38.90441}, {"type": "electric_scooter", "name": "9ba2f763b35c2b3a59c6f9455a89bd3b", "is_reserved": 0, "fusion_lat": 0.0, "lon": -76.937573, "is_disabled": 0, "rental_uris": {"android": "https://dc.lft.to/lastmile_qr_scan", "ios": "https://dc.lft.to/lastmile_qr_scan"}, "bike_id": "9ba2f763b35c2b3a59c6f9455a89bd3b", "fusion_lon": 0.0, "lat": 38.890364},