{"data": {"bikes": [{"rental_uris": {"ios": "https://dc.lft.to/lastmile_qr_scan", "android": "https://dc.lft.to/lastmile_qr_scan"}, "lon": -77.03184916666666, "type": "electric_scooter", "fusion_lat": 0.0, "lat": 38.91804366666667, "name": "e1adb5733db9fa8460ecfd389b039a25", "fusion_lon": 0.0, "bike_id": "e1adb5733db9fa8460ecfd389b039a25", "is_disabled": 0, "is_reserved": 0}, {"rental_uris": {"ios": "https://dc.lft.to/lastmile_qr_scan", "android": "https://dc.lft.to/lastmile_qr_scan"}, "lon": -77.00623933333334, "type": "electric_scooter", "fusion_lat": 0.0, "lat": 38.90591466666667, "name": "4e4f43d0a258ae4e3ff232a6dd319d0f", "fusion_lon": 0.0, "bike_id": "4e4f43d0a258ae4e3ff232a6dd319d0f", "is_disabled": 0, "is_reserved": 0}, {"rental_uris": {"ios": "https://dc.lft.to/lastmile_qr_scan", "android": "https://dc.lft.to/lastmile_qr_scan"}, "lon": -76.92994383333334, "type": "electric_bike", "fusion_lat": 0.0, "lat": 38.88799933333333, "name": "b3dbc8195f404fcc6eabf822bbf2d2d3", "fusion_lon": 0.0, "bike_id": "b3dbc8195f404fcc6eabf822bbf2d2d3", "is_disabled": 0, "is_reserved": 0}, {"rental_uris": {"ios": "https://dc.lft.to/lastmile_qr_scan", "android": "https://dc.lft.to/lastmile_qr_scan"}, "lon": -77.04926166666667, "type": "electric_scooter", "fusion_lat": 0.0, "lat": 38.896073, "name": "0c8378598649ff19ee90db6240a8ef43", "fusion_lon": 0.0, "bike_id": "0c8378598649ff19ee90db6240a8ef43", "is_disabled": 0, "is_reserved": 0}, {"rental_uris": {"ios": "https://dc.lft.to/lastmile_qr_scan", "android": "https://dc.lft.to/lastmile_qr_scan"}, "lon": -77.01989616666667, "type": "electric_scooter", "fusion_lat": 0.0, "lat": 38.8857025, "name": "e48317a91f656dd53df27b3ad1d20d1a", "fusion_lon": 0.0, "bike_id": "e48317a91f656dd53df27b3ad1d20d1a", "is_disabled": 0, "is_reserved": 0}, {"rental_uris": {"ios": "https://dc.lft.to/lastmile_qr_scan", "android": "https://dc.lft.to/lastmile_qr_scan"}, "lon": -77.02718366666667, "type": "electric_scooter", "fusion_lat": 0.0, "lat": 38.90687883333333, "name": "ea29671ae9a07f38fc92703e4528582d", "fusion_lon": 0.0, "bike_id": "ea29671ae9a07f38fc92703e4528582d", "is_disabled": 0, "is_reserved": 0}, {"rental_uris": {"ios": "https://dc.lft.to/lastmile_qr_scan", "android": "https://dc.lft.to/lastmile_qr_scan"}, "lon": -76.93963883333333, "type": "electric_scooter", "fusion_lat": 0.0, "lat": 38.89419266666667, "name": "3596e8e121b2a0eb16c3ae31225f7f0d", "fusion_lon": 0.0, "bike_id": "3596e8e121b2a0eb16c3ae31225f7f0d", "is_disabled": 0, "is_reserved": 0}, {"rental_uris": {"ios": "https://dc.lft.to/lastmile_qr_scan", "android": "https://dc.lft.to/lastmile_qr_scan"}, "lon": -77.07798533333333, "type": "electric_scooter", "fusion_lat": 0.0, "lat": 38.94090816666667, "name": "8c6a98c734084e6e501340de3ec9c770", "fusion_lon": 0.0, "bike_id": "8c6a98c734084e6e501340de3ec9c770", "is_disabled": 0, "is_reserved": 0}, {"rental_uris": {"ios": "https://dc.lft.to/lastmile_qr_scan", "android": "https://dc.lft.to/lastmile_qr_scan"}, "lon": -77.032806, "type": "electric_scooter", "fusion_lat": 0.0, "lat": 38.9377705, "name": "6d4ec01129dfd3dcffd32f1d1bcdf72a", "fusion_lon": 0.0, "bike_id": "6d4ec01129dfd3dcffd32f1d1bcdf72a", "is_disabled": 0, "is_reserved": 0}, {"rental_uris": {"ios": "https://dc.lft.to/lastmile_qr_scan", "android": "https://dc.lft.to/lastmile_qr_scan"}, "lon": -77.00721516666667, "type": "electric_scooter", "fusion_lat": 0.0, "lat": 38.9134115, "name": "7f58f2823e0062e99e00e2a4c0b6db00", "fusion_lon": 0.0, "bike_id": "7f58f2823e0062e99e00e2a4c0b6db00", "is_disabled": 0, "is_reserved": 0}, {"rental_uris": {"ios": "https://dc.lft.to/lastmile_qr_scan", "android": "https://dc.lft.to/lastmile_qr_scan"}, "lon": -77.015991, "type": "electric_scooter", "fusion_lat": 0.0, "lat": 38.89623816666667, "name": "8990ae01f0a88676c8d379a994eb5ef4", "fusion_lon": 0.0, "bike_id": "8990ae01f0a88676c8d379a994eb5ef4", "is_disabled": 0, "is_reserved": 0}, {"rental_uris": {"ios": "https://dc.lft.to/lastmile_qr_scan", "android": "https://dc.lft.to/lastmile_qr_scan"}, "lon": -77.05272483333333, "type": "electric_scooter", "fusion_lat": 0.0, "lat": 38.9100755, "name": "891d74dfbf280234cc1b993632f7ddd9", "fusion_lon": 0.0, "bike_id": "891d74dfbf280234cc1b993632f7ddd9", "is_disabled": 0, "is_reserved": 0}, {"rental_uris": {"ios": "https://dc.lft.to/lastmile_qr_scan", "android": "https://dc.lft.to/lastmile_qr_scan"}, "lon": -77.0057805, "type": "electric_scooter", "fusion_lat": 0.0, "lat": 38.844959833333334, "name": "f2e7dbde19ad4877ec1bd8e6ad87e0b8", "fusion_lon": 0.0, "bike_id": "f2e7dbde19ad4877ec1bd8e6ad87e0b8", "is_disabled": 0, "is_reserved": 0}, {"rental_uris": {"ios": "https://dc.lft.to/lastmile_qr_scan", "android": "https://dc.lft.to/lastmile_qr_scan"}, "lon": -77.01534283333334, "type": "electric_scooter", "fusion_lat": 0.0, "lat": 38.8873595, "name": "ca3b3c37e783a15d9b39e0f739e3e7ec", "fusion_lon": 0.0, "bike_id": "ca3b3c37e783a15d9b39e0f739e3e7ec", "is_disabled": 0, "is_reserved": 0}, {"rental_uris": {"ios": "https://dc.lft.to/lastmile_qr_scan", "android": "https://dc.lft.to/lastmile_qr_scan"}, "lon": -77.0315145, "type": "electric_scooter", "fusion_lat": 0.0, "lat": 38.94533666666667, "name": "8fe9ec5021661f045a8bfe87570b8bba", "fusion_lon": 0.0, "bike_id": "8fe9ec5021661f045a8bfe87570b8bba", "is_disabled": 0, "is_reserved": 0}, {"rental_uris": {"ios": "https://dc.lft.to/lastmile_qr_scan", "android": "https://dc.lft.to/lastmile_qr_scan"}, "lon": -77.04515283333333, "type": "electric_scooter", "fusion_lat": 0.0, "lat": 38.91293683333333, "name": "345725e1c65231af715c983d36aa7186", "fusion_lon": 0.0, "bike_id": "345725e1c65231af715c983d36aa7186", "is_disabled": 0, "is_reserved": 0}, {"rental_uris": {"ios": "https://dc.lft.to/lastmile_qr_scan", "android": "https://dc.lft.to/lastmile_qr_scan"}, "lon": -77.0432035, "type": "electric_scooter", "fusion_lat": 0.0, "lat": 38.91879616666667, "name": "83d4c179fffe2127f2ea7345a12b6126", "fusion_lon": 0.0, "bike_id": "83d4c179fffe2127f2ea7345a12b6126", "is_disabled": 0, "is_reserved": 0}, {"rental_uris": {"ios": "https://dc.lft.to/lastmile_qr_scan", "android": "https://dc.lft.to/lastmile_qr_scan"}, "lon": -77.02416183333334, "type": "electric_scooter", "fusion_lat": 0.0, "lat": 38.90244633333333, "name": "90f656f14f86903df9f728e708218d1d", "fusion_lon": 0.0, "bike_id": "90f656f14f86903df9f728e708218d1d", "is_disabled": 0, "is_reserved": 0}, {"rental_uris": {"ios": "https://dc.lft.to/lastmile_qr_scan", "android": "https://dc.lft.to/lastmile_qr_scan"}, "lon": -77.01015483333333, "type": "electric_scooter", "fusion_lat": 0.0, "lat": 38.90687916666667, "name": "580fc985b0e5dfabe16a56a957ad03d4", "fusion_lon": 0.0, "bike_id": "580fc985b0e5dfabe16a56a957ad03d4", "is_disabled": 0, "is_reserved": 0}, {"rental_uris": {"ios": "https://dc.lft.to/lastmile_qr_scan", "android": "https://dc.lft.to/lastmile_qr_scan"}, "lon": -77.02454233333333, "type": "electric_scooter", "fusion_lat": 0.0, "lat": 38.908534, "name": "c19ed622d7b90b008b67157e0c7a24e8", "fusion_lon": 0.0, "bike_id": "c19ed622d7b90b008b67157e0c7a24e8", "is_disabled": 0, "is_reserved": 0}, {"rental_uris": {"ios": "https://dc.lft.to/lastmile_qr_scan", "android": "https://dc.lft.to/lastmile_qr_scan"}, "lon": -77.034761, "type": "electric_scooter", "fusion_lat": 0.0, "lat": 38.902970333333336, "name": "5b98f8884ea76ad6e8b521cac5f5a529", "fusion_lon": 0.0, "bike_id": "5b98f8884ea76ad6e8b521cac5f5a529", "is_disabled": 0, "is_reserved": 0}, {"rental_uris": {"ios": "https://dc.lft.to/lastmile_qr_scan", "android": "https://dc.lft.to/lastmile_qr_scan"}, "lon": -77.03339716666666, "type": "electric_scooter", "fusion_lat": 0.0, "lat": 38.917172, "name": "1a0190f1db01436b0abbed90c8cf8506", "fusion_lon": 0.0, "bike_id": "1a0190f1db01436b0abbed90c8cf8506", "is_disabled": 0, "is_reserved": 0}, {"rental_uris": {"ios": "https://dc.lft.to/lastmile_qr_scan", "android": "https://dc.lft.to/lastmile_qr_scan"}, "lon": -77.012975, "type": "electric_bike", "fusion_lat": 0.0, "lat": 38.88123616666667, "name": "a611b56b7529b968de04605aecb82de0", "fusion_lon": 0.0, "bike_id": "a611b56b7529b968de04605aecb82de0", "is_disabled": 0, "is_reserved": 0}, {"rental_uris": {"ios": "https://dc.lft.to/lastmile_qr_scan", "android": "https://dc.lft.to/lastmile_qr_scan"}, "lon": -77.02423483333334, "type": "electric_scooter", "fusion_lat": 0.0, "lat": 38.9204095, "name": "64e473ab1a830ccf38148a1e89b484af", "fusion_lon": 0.0, "bike_id": "64e473ab1a830ccf38148a1e89b484af", "is_disabled": 0, "is_reserved": 0}, {"rental_uris": {"ios": "https://dc.lft.to/lastmile_qr_scan", "android": "https://dc.lft.to/lastmile_qr_scan"}, "lon": -76.97317483333333, "type": "electric_scooter", "fusion_lat": 0.0, "lat": 38.9177395, "name": "fd14cce5605cb927c42ac5aa6702aa35", "fusion_lon": 0.0, "bike_id": "fd14cce5605cb927c42ac5aa6702aa35", "is_disabled": 0, "is_reserved": 0}, {"rental_uris": {"ios": "https://dc.lft.to/lastmile_qr_scan", "android": "https://dc.lft.to/lastmile_qr_scan"}, "lon": -77.04498833333334, "type": "electric_scooter", "fusion_lat": 0.0, "lat": 38.91946, "name": "58e8202ceaa4d4990edb1671ae2e58a1", "fusion_lon": 0.0, "bike_id": "58e8202ceaa4d4990edb1671ae2e58a1", "is_disabled": 0, "is_reserved": 0}, {"rental_uris": {"ios": "https://dc.lft.to/lastmile_qr_scan", "android": "https://dc.lft.to/lastmile_qr_scan"}, "lon": -77.0484285, "type": "electric_scooter", "fusion_lat": 0.0, "lat": 38.909675666666665, "name": "f5ae258c2d3594813293d1bf1c1f8e20", "fusion_lon": 0.0, "bike_id": "f5ae258c2d3594813293d1bf1c1f8e20", "is_disabled": 0, "is_reserved": 0}, {"rental_uris": {"ios": "https://dc.lft.to/lastmile_qr_scan", "android": "https://dc.lft.to/lastmile_qr_scan"}, "lon": -77.0111865, "type": "electric_scooter", "fusion_lat": 0.0, "lat": 38.8951305, "name": "8e685f5e89769c6563ef91eeaa3d5ab2", "fusion_lon": 0.0, "bike_id": "8e685f5e89769c6563ef91eeaa3d5ab2", "is_disabled": 0, "is_reserved": 0}, {"rental_uris": {"ios": "https://dc.lft.to/lastmile_qr_scan", "android": "https://dc.lft.to/lastmile_qr_scan"}, "lon": -76.9755685, "type": "electric_scooter", "fusion_lat": 0.0, "lat": 38.904409666666666, "name": "90b6dc69507db5d3088c767974d07359", "fusion_lon": 0.0, "bike_id": "90b6dc69507db5d3088c767974d07359", "is_disabled": 0, "is_reserved": 0}, {"rental_uris": {"ios": "https://dc.lft.to/lastmile_qr_scan", "android": "https://dc.lft.to/lastmile_qr_scan"}, "lon": -77.04904683333334, "type": "electric_scooter", "fusion_lat": 0.0, "lat": 38.91887366666667, "name": "1ad37bf5222a8cd2a190eda43e25330d", "fusion_lon": 0.0, "bike_id": "1ad37bf5222a8cd2a190eda43e25330d", "is_disabled": 0, "is_reserved": 0}, {"rental_uris": {"ios": "https://dc.lft.to/lastmile_qr_scan", "android": "https://dc.lft.to/lastmile_qr_scan"}, "lon": -76.9857825, "type": "electric_scooter", "fusion_lat": 0.0, "lat": 38.86151383333333, "name": "4f3a36e0e65cbdc160fe91c30a68312e", "fusion_lon": 0.0, "bike_id": "4f3a36e0e65cbdc160fe91c30a68312e", "is_disabled": 0, "is_reserved": 0}, {"rental_uris": {"ios": "https://dc.lft.to/lastmile_qr_scan", "android": "https://dc.lft.to/lastmile_qr_scan"}, "lon": -76.996093, "type": "electric_scooter", "fusion_lat": 0.0, "lat": 38.886251, "name": "4db9a8df22f76131e74d6610166364d7", "fusion_lon": 0.0, "bike_id": "4db9a8df22f76131e74d6610166364d7", "is_disabled": 0, "is_reserved": 0}, {"rental_uris": {"ios": "https://dc.lft.to/lastmile_qr_scan", "android": "https://dc.lft.to/lastmile_qr_scan"}, "lon": -77.0422665, "type": "electric_scooter", "fusion_lat": 0.0, "lat": 38.92133366666667, "name": "7847c92136f2a238f331c7f7393b476a", "fusion_lon": 0.0, "bike_id": "7847c92136f2a238f331c7f7393b476a", "is_disabled": 0, "is_reserved": 0}, {"rental_uris": {"ios": "https://dc.lft.to/lastmile_qr_scan", "android": "https://dc.lft.to/lastmile_qr_scan"}, "lon": -77.00351166666667, "type": "electric_scooter", "fusion_lat": 0.0, "lat": 38.907314666666664, "name": "3be7abbf38630bb9dddf7a4fd7196ea4", "fusion_lon": 0.0, "bike_id": "3be7abbf38630bb9dddf7a4fd7196ea4", "is_disabled": 0, "is_reserved": 0}, {"rental_uris": {"ios": "https://dc.lft.to/lastmile_qr_scan", "android": "https://dc.lft.to/lastmile_qr_scan"}, "lon": -77.00275466666666, "type": "electric_scooter", "fusion_lat": 0.0, "lat": 38.901329, "name": "41ae2d25044f393f5909da59d5017774", "fusion_lon": 0.0, "bike_id": "41ae2d25044f393f5909da59d5017774", "is_disabled": 0, "is_reserved": 0}, {"rental_uris": {"ios": "https://dc.lft.to/lastmile_qr_scan", "android": "https://dc.lft.to/lastmile_qr_scan"}, "lon": -77.05017033333333, "type": "electric_scooter", "fusion_lat": 0.0, "lat": 38.90028733333333, "name": "d03af68492201a0ede9491045a30d55d", "fusion_lon": 0.0, "bike_id": "d03af68492201a0ede9491045a30d55d", "is_disabled": 0, "is_reserved": 0}, {"rental_uris": {"ios": "https://dc.lft.to/lastmile_qr_scan", "android": "https://dc.lft.to/lastmile_qr_scan"}, "lon": -76.99776666666666, "type": "electric_bike", "fusion_lat": 0.0, "lat": 38.90929416666667, "name": "6aa40a4aecd808c392fb9224a4ad5e46", "fusion_lon": 0.0, "bike_id": "6aa40a4aecd808c392fb9224a4ad5e46", "is_disabled": 0, "is_reserved": 0}, {"rental_uris": {"ios": "https://dc.lft.to/lastmile_qr_scan", "android": "https://dc.lft.to/lastmile_qr_scan"}, "lon": -77.0384065, "type": "electric_scooter", "fusion_lat": 0.0, "lat": 38.931134666666665, "name": "8117a23ba289563fd4d6ba722faf95c1", "fusion_lon": 0.0, "bike_id": "8117a23ba289563fd4d6ba722faf95c1", "is_disabled": 0, "is_reserved": 0}, {"rental_uris": {"ios": "https://dc.lft.to/lastmile_qr_scan", "android": "https://dc.lft.to/lastmile_qr_scan"}, "lon": -76.988866, "type": "electric_scooter", "fusion_lat": 0.0, "lat": 38.8665925, "name": "04dc267749839133d27a16de132ba1bf", "fusion_lon": 0.0, "bike_id": "04dc267749839133d27a16de132ba1bf", "is_disabled": 0, "is_reserved": 0}, {"rental_uris": {"ios": "https://dc.lft.to/lastmile_qr_scan", "android": "https://dc.lft.to/lastmile_qr_scan"}, "lon": -77.02981483333333, "type": "electric_scooter", "fusion_lat": 0.0, "lat": 38.91623366666666, "name": "5755d479d35905b8cff7f16a2707a761", "fusion_lon": 0.0, "bike_id": "5755d479d35905b8cff7f16a2707a761", "is_disabled": 0, "is_reserved": 0}, {"rental_uris": {"ios": "https://dc.lft.to/lastmile_qr_scan", "android": "https://dc.lft.to/lastmile_qr_scan"}, "lon": -77.03900133333333, "type": "electric_scooter", "fusion_lat": 0.0, "lat": 38.9184135, "name": "650eb1779b3d1a3f0eb0a306c8b4bd48", "fusion_lon": 0.0, "bike_id": "650eb1779b3d1a3f0eb0a306c8b4bd48", "is_disabled": 0, "is_reserved": 0}, {"rental_uris": {"ios": "https://dc.lft.to/lastmile_qr_scan", "android": "https://dc.lft.to/lastmile_qr_scan"}, "lon": -76.98450716666666, "type": "electric_scooter", "fusion_lat": 0.0, "lat": 38.914814166666666, "name": "019b43a4cd71c1215bfb87b85c8a3755", "fusion_lon": 0.0, "bike_id": "019b43a4cd71c1215bfb87b85c8a3755", "is_disabled": 0, "is_reserved": 0}, {"rental_uris": {"ios": "https://dc.lft.to/lastmile_qr_scan", "android": "https://dc.lft.to/lastmile_qr_scan"}, "lon": -76.993642, "type": "electric_scooter", "fusion_lat": 0.0, "lat": 38.90042716666667, "name": "dae5b450e982278560a5e8c97c5771fb", "fusion_lon": 0.0, "bike_id": "dae5b450e982278560a5e8c97c5771fb", "is_disabled": 0, "is_reserved": 0}, {"rental_uris": {"ios": "https://dc.lft.to/lastmile_qr_scan", "android": "https://dc.lft.to/lastmile_qr_scan"}, "lon": -76.998081, "type": "electric_scooter", "fusion_lat": 0.0, "lat": 38.900429333333335, "name": "b8b621c371290d2cdff4028e4181c99b", "fusion_lon": 0.0, "bike_id": "b8b621c371290d2cdff4028e4181c99b", "is_disabled": 0, "is_reserved": 0}, {"rental_uris": {"ios": "https://dc.lft.to/lastmile_qr_scan", "android": "https://dc.lft.to/lastmile_qr_scan"}, "lon": -77.05755833333333, "type": "electric_scooter", "fusion_lat": 0.0, "lat": 38.92461816666667, "name": "07491479e9195cf5dc61ed25954a0f53", "fusion_lon": 0.0, "bike_id": "07491479e9195cf5dc61ed25954a0f53", "is_disabled": 0, "is_reserved": 0}, {"rental_uris": {"ios": "https://dc.lft.to/lastmile_qr_scan", "android": "https://dc.lft.to/lastmile_qr_scan"}, "lon": -77.0271205, "type": "electric_scooter", "fusion_lat": 0.0, "lat": 38.918097333333336, "name": "42cacd9c60d95b54e38038b5d5cc6fd2", "fusion_lon": 0.0, "bike_id": "42cacd9c60d95b54e38038b5d5cc6fd2", "is_disabled": 0, "is_reserved": 0}, {"rental_uris": {"ios": "https://dc.lft.to/lastmile_qr_scan", "android": "https://dc.lft.to/lastmile_qr_scan"}, "lon": -77.02462666666666, "type": "electric_scooter", "fusion_lat": 0.0, "lat": 38.902389666666664, "name": "dc7492213b3f5f4419af6614f47bbc77", "fusion_lon": 0.0, "bike_id": "dc7492213b3f5f4419af6614f47bbc77", "is_disabled": 0, "is_reserved": 0}, {"rental_uris": {"ios": "https://dc.lft.to/lastmile_qr_scan", "android": "https://dc.lft.to/lastmile_qr_scan"}, "lon": -77.04436333333334, "type": "electric_scooter", "fusion_lat": 0.0, "lat": 38.90571416666667, "name": "7defc213f69fbbd051fef8f0db51f6f2", "fusion_lon": 0.0, "bike_id": "7defc213f69fbbd051fef8f0db51f6f2", "is_disabled": 0, "is_reserved": 0}, {"rental_uris": {"ios": "https://dc.lft.to/lastmile_qr_scan", "android": "https://dc.lft.to/lastmile_qr_scan"}, "lon": -77.01121933333333, "type": "electric_scooter", "fusion_lat": 0.0, "lat": 38.911824833333334, "name": "7f90db8ab35463ac6c36f70fe9be3c51", "fusion_lon": 0.0, "bike_id": "7f90db8ab35463ac6c36f70fe9be3c51", "is_disabled": 0, "is_reserved": 0}, {"rental_uris": {"ios": "https://dc.lft.to/lastmile_qr_scan", "android": "https://dc.lft.to/lastmile_qr_scan"}, "lon": -77.04872183333333, "type": "electric_scooter", "fusion_lat": 0.0, "lat": 38.909522, "name": "8d40993f2d45702400baca657152018f", "fusion_lon": 0.0, "bike_id": "8d40993f2d45702400baca657152018f", "is_disabled": 0, "is_reserved": 0}, {"rental_uris": {"ios": "https://dc.lft.to/lastmile_qr_scan", "android": "https://dc.lft.to/lastmile_qr_scan"}, "lon": -77.02697516666667, "type": "electric_scooter", "fusion_lat": 0.0, "lat": 38.918725, "name": "e52622bd2b293672432cf140e0e456d7", "fusion_lon": 0.0, "bike_id": "e52622bd2b293672432cf140e0e456d7", "is_disabled": 0, "is_reserved": 0}, {"rental_uris": {"ios": "https://dc.lft.to/lastmile_qr_scan", "android": "https://dc.lft.to/lastmile_qr_scan"}, "lon": -76.89533933333334, "type": "electric_bike", "fusion_lat": 0.0, "lat": 38.945532, "name": "46aec6db4889a75eacf8da32325eb2ce", "fusion_lon": 0.0, "bike_id": "46aec6db4889a75eacf8da32325eb2ce", "is_disabled": 0, "is_reserved": 0}, {"rental_uris": {"ios": "https://dc.lft.to/lastmile_qr_scan", "android": "https://dc.lft.to/lastmile_qr_scan"}, "lon": -77.029652, "type": "electric_scooter", "fusion_lat": 0.0, "lat": 38.92523083333333, "name": "5ff0be9d8795937a58ea2813eac5e371", "fusion_lon": 0.0, "bike_id": "5ff0be9d8795937a58ea2813eac5e371", "is_disabled": 0, "is_reserved": 0}, {"rental_uris": {"ios": "https://dc.lft.to/lastmile_qr_scan", "android": "https://dc.lft.to/lastmile_qr_scan"}, "lon": -77.02766266666667, "type": "electric_scooter", "fusion_lat": 0.0, "lat": 38.916924333333334, "name": "eb83fdfdf42380eb0e64336d7e64075d", "fusion_lon": 0.0, "bike_id": "eb83fdfdf42380eb0e64336d7e64075d", "is_disabled": 0, "is_reserved": 0}, {"rental_uris": {"ios": "https://dc.lft.to/lastmile_qr_scan", "android": "https://dc.lft.to/lastmile_qr_scan"}, "lon": -77.04531, "type": "electric_scooter", "fusion_lat": 0.0, "lat": 38.90391366666667, "name": "9c925428bf594c593f84323c4d5d1bda", "fusion_lon": 0.0, "bike_id": "9c925428bf594c593f84323c4d5d1bda", "is_disabled": 0, "is_reserved": 0}, {"rental_uris": {"ios": "https://dc.lft.to/lastmile_qr_scan", "android": "https://dc.lft.to/lastmile_qr_scan"}, "lon": -77.04814483333334, "type": "electric_scooter", "fusion_lat": 0.0, "lat": 38.897442833333336, "name": "fd52a14ad65bf3218446a810205474c3", "fusion_lon": 0.0, "bike_id": "fd52a14ad65bf3218446a810205474c3", "is_disabled": 0, "is_reserved": 0}, {"rental_uris": {"ios": "https://dc.lft.to/lastmile_qr_scan", "android": "https://dc.lft.to/lastmile_qr_scan"}, "lon": -77.0121685, "type": "electric_scooter", "fusion_lat": 0.0, "lat": 38.9204075, "name": "28ae52169c76aba1b629b11f1333f84e", "fusion_lon": 0.0, "bike_id": "28ae52169c76aba1b629b11f1333f84e", "is_disabled": 0, "is_reserved": 0}, {"rental_uris": {"ios": "https://dc.lft.to/lastmile_qr_scan", "android": "https://dc.lft.to/lastmile_qr_scan"}, "lon": -77.02374166666667, "type": "electric_scooter", "fusion_lat": 0.0, "lat": 38.91958666666667, "name": "814ced3a0eb155860b6ae5037591e0f2", "fusion_lon": 0.0, "bike_id": "814ced3a0eb155860b6ae5037591e0f2", "is_disabled": 0, "is_reserved": 0}, {"rental_uris": {"ios": "https://dc.lft.to/lastmile_qr_scan", "android": "https://dc.lft.to/lastmile_qr_scan"}, "lon": -76.99163183333333, "type": "electric_scooter", "fusion_lat": 0.0, "lat": 38.89341233333333, "name": "364d66b16254c8832997ce0c65072a4a", "fusion_lon": 0.0, "bike_id": "364d66b16254c8832997ce0c65072a4a", "is_disabled": 0, "is_reserved": 0}, {"rental_uris": {"ios": "https://dc.lft.to/lastmile_qr_scan", "android": "https://dc.lft.to/lastmile_qr_scan"}, "lon": -77.05518516666666, "type": "electric_scooter", "fusion_lat": 0.0, "lat": 38.9105955, "name": "241929b203d260fa7e46a986c5b0c87d", "fusion_lon": 0.0, "bike_id": "241929b203d260fa7e46a986c5b0c87d", "is_disabled": 0, "is_reserved": 0}, {"rental_uris": {"ios": "https://dc.lft.to/lastmile_qr_scan", "android": "https://dc.lft.to/lastmile_qr_scan"}, "lon": -77.042009, "type": "electric_scooter", "fusion_lat": 0.0, "lat": 38.911036833333334, "name": "a5f364eff0da0041ab3cf58a3a242ae5", "fusion_lon": 0.0, "bike_id": "a5f364eff0da0041ab3cf58a3a242ae5", "is_disabled": 0, "is_reserved": 0}, {"rental_uris": {"ios": "https://dc.lft.to/lastmile_qr_scan", "android": "https://dc.lft.to/lastmile_qr_scan"}, "lon": -77.07162633333333, "type": "electric_scooter", "fusion_lat": 0.0, "lat": 38.91455666666667, "name": "0e12a932bd5357ef43eacbd0211b5f59", "fusion_lon": 0.0, "bike_id": "0e12a932bd5357ef43eacbd0211b5f59", "is_disabled": 0, "is_reserved": 0}, {"rental_uris": {"ios": "https://dc.lft.to/lastmile_qr_scan", "android": "https://dc.lft.to/lastmile_qr_scan"}, "lon": -77.03557466666666, "type": "electric_scooter", "fusion_lat": 0.0, "lat": 38.918004833333335, "name": "f85eb8223eaa2d525bcffe5e33c6c3c3", "fusion_lon": 0.0, "bike_id": "f85eb8223eaa2d525bcffe5e33c6c3c3", "is_disabled": 0, "is_reserved": 0}, {"rental_uris": {"ios": "https://dc.lft.to/lastmile_qr_scan", "android": "https://dc.lft.to/lastmile_qr_scan"}, "lon": -77.027129, "type": "electric_scooter", "fusion_lat": 0.0, "lat": 38.9346325, "name": "f9f1f86d200a87c4dcd99d942c3f312a", "fusion_lon": 0.0, "bike_id": "f9f1f86d200a87c4dcd99d942c3f312a", "is_disabled": 0, "is_reserved": 0}, {"rental_uris": {"ios": "https://dc.lft.to/lastmile_qr_scan", "android": "https://dc.lft.to/lastmile_qr_scan"}, "lon": -77.03236833333334, "type": "electric_scooter", "fusion_lat": 0.0, "lat": 38.92766533333333, "name": "95ef73acb7c5151a1ced614cc7555c32", "fusion_lon": 0.0, "bike_id": "95ef73acb7c5151a1ced614cc7555c32", "is_disabled": 0, "is_reserved": 0}, {"rental_uris": {"ios": "https://dc.lft.to/lastmile_qr_scan", "android": "https://dc.lft.to/lastmile_qr_scan"}, "lon": -77.0433575, "type": "electric_scooter", "fusion_lat": 0.0, "lat": 38.89648616666667, "name": "266949eb11c4ad03c6a74d2b8bbf7587", "fusion_lon": 0.0, "bike_id": "266949eb11c4ad03c6a74d2b8bbf7587", "is_disabled": 0, "is_reserved": 0}, {"rental_uris": {"ios": "https://dc.lft.to/lastmile_qr_scan", "android": "https://dc.lft.to/lastmile_qr_scan"}, "lon": -77.02328816666666, "type": "electric_scooter", "fusion_lat": 0.0, "lat": 38.9378325, "name": "98adf1752d7a8321f2e4e3b870f05b46", "fusion_lon": 0.0, "bike_id": "98adf1752d7a8321f2e4e3b870f05b46", "is_disabled": 0, "is_reserved": 0}, {"rental_uris": {"ios": "https://dc.lft.to/lastmile_qr_scan", "android": "https://dc.lft.to/lastmile_qr_scan"}, "lon": -77.03673783333333, "type": "electric_scooter", "fusion_lat": 0.0, "lat": 38.902770333333336, "name": "e0b89f53903fc8d6abfa8ece2a26297e", "fusion_lon": 0.0, "bike_id": "e0b89f53903fc8d6abfa8ece2a26297e", "is_disabled": 0, "is_reserved": 0}, {"rental_uris": {"ios": "https://dc.lft.to/lastmile_qr_scan", "android": "https://dc.lft.to/lastmile_qr_scan"}, "lon": -77.02906116666666, "type": "electric_scooter", "fusion_lat": 0.0, "lat": 38.886010666666664, "name": "a38d4e5d64e0a63ffb8304cf95bce6b2", "fusion_lon": 0.0, "bike_id": "a38d4e5d64e0a63ffb8304cf95bce6b2", "is_disabled": 0, "is_reserved": 0}, {"rental_uris": {"ios": "https://dc.lft.to/lastmile_qr_scan", "android": "https://dc.lft.to/lastmile_qr_scan"}, "lon": -77.00769283333334, "type": "electric_scooter", "fusion_lat": 0.0, "lat": 38.90651183333333, "name": "44b7fced6ab739477213e8318c35063c", "fusion_lon": 0.0, "bike_id": "44b7fced6ab739477213e8318c35063c", "is_disabled": 0, "is_reserved": 0}, {"rental_uris": {"ios": "https://dc.lft.to/lastmile_qr_scan", "android": "https://dc.lft.to/lastmile_qr_scan"}, "lon": -77.01363483333333, "type": "electric_scooter", "fusion_lat": 0.0, "lat": 38.863727, "name": "fcb09531a33da72f098cb1a746155a92", "fusion_lon": 0.0, "bike_id": "fcb09531a33da72f098cb1a746155a92", "is_disabled": 0, "is_reserved": 0}, {"rental_uris": {"ios": "https://dc.lft.to/lastmile_qr_scan", "android": "https://dc.lft.to/lastmile_qr_scan"}, "lon": -77.06945116666667, "type": "electric_scooter", "fusion_lat": 0.0, "lat": 38.90510833333333, "name": "83532469776723d2611005990c23cee8", "fusion_lon": 0.0, "bike_id": "83532469776723d2611005990c23cee8", "is_disabled": 0, "is_reserved": 0}, {"rental_uris": {"ios": "https://dc.lft.to/lastmile_qr_scan", "android": "https://dc.lft.to/lastmile_qr_scan"}, "lon": -77.01261066666666, "type": "electric_scooter", "fusion_lat": 0.0, "lat": 38.89968016666667, "name": "ebacdf3b27c6d213fd4e3a82bbc210bd", "fusion_lon": 0.0, "bike_id": "ebacdf3b27c6d213fd4e3a82bbc210bd", "is_disabled": 0, "is_reserved": 0}, {"rental_uris": {"ios": "https://dc.lft.to/lastmile_qr_scan", "android": "https://dc.lft.to/lastmile_qr_scan"}, "lon": -77.13596833333334, "type": "electric_bike", "fusion_lat": 0.0, "lat": 39.0534735, "name": "403c00c903ee4655d78ff51043a64d6c", "fusion_lon": 0.0, "bike_id": "403c00c903ee4655d78ff51043a64d6c", "is_disabled": 0, "is_reserved": 0}, {"rental_uris": {"ios": "https://dc.lft.to/lastmile_qr_scan", "android": "https://dc.lft.to/lastmile_qr_scan"}, "lon": -77.0403235, "type": "electric_scooter", "fusion_lat": 0.0, "lat": 38.91714916666667, "name": "1414851a91ec113e5065b29626f52a60", "fusion_lon": 0.0, "bike_id": "1414851a91ec113e5065b29626f52a60", "is_disabled": 0, "is_reserved": 0}, {"rental_uris": {"ios": "https://dc.lft.to/lastmile_qr_scan", "android": "https://dc.lft.to/lastmile_qr_scan"}, "lon": -76.9861635, "type": "electric_scooter", "fusion_lat": 0.0, "lat": 38.8683035, "name": "674a434669ee53cfdb923042407719fc", "fusion_lon": 0.0, "bike_id": "674a434669ee53cfdb923042407719fc", "is_disabled": 0, "is_reserved": 0}, {"rental_uris": {"ios": "https://dc.lft.to/lastmile_qr_scan", "android": "https://dc.lft.to/lastmile_qr_scan"}, "lon": -77.0334695, "type": "electric_scooter", "fusion_lat": 0.0, "lat": 38.91920416666667, "name": "d92bcd34710d0441ebda4d8eec98436f", "fusion_lon": 0.0, "bike_id": "d92bcd34710d0441ebda4d8eec98436f", "is_disabled": 0, "is_reserved": 0}, {"rental_uris": {"ios": "https://dc.lft.to/lastmile_qr_scan", "android": "https://dc.lft.to/lastmile_qr_scan"}, "lon": -76.98717583333334, "type": "electric_scooter", "fusion_lat": 0.0, "lat": 38.86268583333333, "name": "82bf10e89fe098cac69d31c85516aa78", "fusion_lon": 0.0, "bike_id": "82bf10e89fe098cac69d31c85516aa78", "is_disabled": 0, "is_reserved": 0}, {"rental_uris": {"ios": "https://dc.lft.to/lastmile_qr_scan", "android": "https://dc.lft.to/lastmile_qr_scan"}, "lon": -77.07882616666667, "type": "electric_scooter", "fusion_lat": 0.0, "lat": 38.9254705, "name": "13e139113e0fbcc46defbda566d46be0", "fusion_lon": 0.0, "bike_id": "13e139113e0fbcc46defbda566d46be0", "is_disabled": 0, "is_reserved": 0}, {"rental_uris": {"ios": "https://dc.lft.to/lastmile_qr_scan", "android": "https://dc.lft.to/lastmile_qr_scan"}, "lon": -77.04199583333333, "type": "electric_scooter", "fusion_lat": 0.0, "lat": 38.9005205, "name": "aa4b8f7a9f6ec818413905beba29f405", "fusion_lon": 0.0, "bike_id": "aa4b8f7a9f6ec818413905beba29f405", "is_disabled": 0, "is_reserved": 0}, {"rental_uris": {"ios": "https://dc.lft.to/lastmile_qr_scan", "android": "https://dc.lft.to/lastmile_qr_scan"}, "lon": -77.03421583333333, "type": "electric_scooter", "fusion_lat": 0.0, "lat": 38.9025205, "name": "32c03c330a406ad5e0c75934dab4bb4f", "fusion_lon": 0.0, "bike_id": "32c03c330a406ad5e0c75934dab4bb4f", "is_disabled": 0, "is_reserved": 0}, {"rental_uris": {"ios": "https://dc.lft.to/lastmile_qr_scan", "android": "https://dc.lft.to/lastmile_qr_scan"}, "lon": -77.02171483333333, "type": "electric_scooter", "fusion_lat": 0.0, "lat": 38.94294983333333, "name": "ee89ce251434539ba13b5558259b4dff", "fusion_lon": 0.0, "bike_id": "ee89ce251434539ba13b5558259b4dff", "is_disabled": 0, "is_reserved": 0}, {"rental_uris": {"ios": "https://dc.lft.to/lastmile_qr_scan", "android": "https://dc.lft.to/lastmile_qr_scan"}, "lon": -77.0663435, "type": "electric_scooter", "fusion_lat": 0.0, "lat": 38.92807116666667, "name": "4a5c0e47afd26f90a37f388b69358399", "fusion_lon": 0.0, "bike_id": "4a5c0e47afd26f90a37f388b69358399", "is_disabled": 0, "is_reserved": 0}, {"rental_uris": {"ios": "https://dc.lft.to/lastmile_qr_scan", "android": "https://dc.lft.to/lastmile_qr_scan"}, "lon": -77.035639, "type": "electric_scooter", "fusion_lat": 0.0, "lat": 38.918014166666666, "name": "14049eed538a3fba367f1f016d316b59", "fusion_lon": 0.0, "bike_id": "14049eed538a3fba367f1f016d316b59", "is_disabled": 0, "is_reserved": 0}, {"rental_uris": {"ios": "https://dc.lft.to/lastmile_qr_scan", "android": "https://dc.lft.to/lastmile_qr_scan"}, "lon": -77.0098685, "type": "electric_scooter", "fusion_lat": 0.0, "lat": 38.872876833333336, "name": "804726b843b8aae40a0a25911953875e", "fusion_lon": 0.0, "bike_id": "804726b843b8aae40a0a25911953875e", "is_disabled": 0, "is_reserved": 0}, {"rental_uris": {"ios": "https://dc.lft.to/lastmile_qr_scan", "android": "https://dc.lft.to/lastmile_qr_scan"}, "lon": -77.03661183333334, "type": "electric_scooter", "fusion_lat": 0.0, "lat": 38.9220875, "name": "d93e7c27576722344f6a9f15725bd168", "fusion_lon": 0.0, "bike_id": "d93e7c27576722344f6a9f15725bd168", "is_disabled": 0, "is_reserved": 0}, {"rental_uris": {"ios": "https://dc.lft.to/lastmile_qr_scan", "android": "https://dc.lft.to/lastmile_qr_scan"}, "lon": -77.0420395, "type": "electric_scooter", "fusion_lat": 0.0, "lat": 38.9110575, "name": "f078ae44215ef1cac456445f06c24e37", "fusion_lon": 0.0, "bike_id": "f078ae44215ef1cac456445f06c24e37", "is_disabled": 0, "is_reserved": 0}, {"rental_uris": {"ios": "https://dc.lft.to/lastmile_qr_scan", "android": "https://dc.lft.to/lastmile_qr_scan"}, "lon": -77.07002233333333, "type": "electric_bike", "fusion_lat": 0.0, "lat": 38.955049333333335, "name": "223f816e9d2f342a78937a8af61a4986", "fusion_lon": 0.0, "bike_id": "223f816e9d2f342a78937a8af61a4986", "is_disabled": 0, "is_reserved": 0}, {"rental_uris": {"ios": "https://dc.lft.to/lastmile_qr_scan", "android": "https://dc.lft.to/lastmile_qr_scan"}, "lon": -77.03860133333333, "type": "electric_scooter", "fusion_lat": 0.0, "lat": 38.907725166666665, "name": "cf1f01ff5eadf12329bf996143c0c935", "fusion_lon": 0.0, "bike_id": "cf1f01ff5eadf12329bf996143c0c935", "is_disabled": 0, "is_reserved": 0}, {"rental_uris": {"ios": "https://dc.lft.to/lastmile_qr_scan", "android": "https://dc.lft.to/lastmile_qr_scan"}, "lon": -77.1078225, "type": "electric_bike", "fusion_lat": 0.0, "lat": 38.892174, "name": "a4d98629b88f2cda642ba11daf4e34cc", "fusion_lon": 0.0, "bike_id": "a4d98629b88f2cda642ba11daf4e34cc", "is_disabled": 0, "is_reserved": 0}, {"rental_uris": {"ios": "https://dc.lft.to/lastmile_qr_scan", "android": "https://dc.lft.to/lastmile_qr_scan"}, "lon": -76.98906766666667, "type": "electric_scooter", "fusion_lat": 0.0, "lat": 38.866934666666666, "name": "4929d85084491498a0a0d28d7c026aec", "fusion_lon": 0.0, "bike_id": "4929d85084491498a0a0d28d7c026aec", "is_disabled": 0, "is_reserved": 0}, {"rental_uris": {"ios": "https://dc.lft.to/lastmile_qr_scan", "android": "https://dc.lft.to/lastmile_qr_scan"}, "lon": -77.02227916666666, "type": "electric_scooter", "fusion_lat": 0.0, "lat": 38.89219216666667, "name": "af0594bef7356e6c1f30bf65670e26a0", "fusion_lon": 0.0, "bike_id": "af0594bef7356e6c1f30bf65670e26a0", "is_disabled": 0, "is_reserved": 0}, {"rental_uris": {"ios": "https://dc.lft.to/lastmile_qr_scan", "android": "https://dc.lft.to/lastmile_qr_scan"}, "lon": -77.040282, "type": "electric_scooter", "fusion_lat": 0.0, "lat": 38.91806416666667, "name": "a4b5ad71bcff977541d70474da7e17e9", "fusion_lon": 0.0, "bike_id": "a4b5ad71bcff977541d70474da7e17e9", "is_disabled": 0, "is_reserved": 0}, {"rental_uris": {"ios": "https://dc.lft.to/lastmile_qr_scan", "android": "https://dc.lft.to/lastmile_qr_scan"}, "lon": -77.03146833333334, "type": "electric_scooter", "fusion_lat": 0.0, "lat": 38.88301333333333, "name": "420d29bae1f94b03f422954bc61b729d", "fusion_lon": 0.0, "bike_id": "420d29bae1f94b03f422954bc61b729d", "is_disabled": 0, "is_reserved": 0}, {"rental_uris": {"ios": "https://dc.lft.to/lastmile_qr_scan", "android": "https://dc.lft.to/lastmile_qr_scan"}, "lon": -77.00405483333333, "type": "electric_scooter", "fusion_lat": 0.0, "lat": 38.8793785, "name": "ae5a485e886d3e652449ec5d8ae0ad24", "fusion_lon": 0.0, "bike_id": "ae5a485e886d3e652449ec5d8ae0ad24", "is_disabled": 0, "is_reserved": 0}, {"rental_uris": {"ios": "https://dc.lft.to/lastmile_qr_scan", "android": "https://dc.lft.to/lastmile_qr_scan"}, "lon": -77.0231905, "type": "electric_scooter", "fusion_lat": 0.0, "lat": 38.92764566666666, "name": "2d6afc3b48bb12c021fb24fce1fc1ece", "fusion_lon": 0.0, "bike_id": "2d6afc3b48bb12c021fb24fce1fc1ece", "is_disabled": 0, "is_reserved": 0}, {"rental_uris": {"ios": "https://dc.lft.to/lastmile_qr_scan", "android": "https://dc.lft.to/lastmile_qr_scan"}, "lon": -77.02440366666667, "type": "electric_scooter", "fusion_lat": 0.0, "lat": 38.93880466666667, "name": "8c4974c55a8670b2ea1e25515c43c997", "fusion_lon": 0.0, "bike_id": "8c4974c55a8670b2ea1e25515c43c997", "is_disabled": 0, "is_reserved": 0}, {"rental_uris": {"ios": "https://dc.lft.to/lastmile_qr_scan", "android": "https://dc.lft.to/lastmile_qr_scan"}, "lon": -77.00846266666667, "type": "electric_bike", "fusion_lat": 0.0, "lat": 38.949214, "name": "9af525143d159c58e660fe23e6735beb", "fusion_lon": 0.0, "bike_id": "9af525143d159c58e660fe23e6735beb", "is_disabled": 0, "is_reserved": 0}, {"rental_uris": {"ios": "https://dc.lft.to/lastmile_qr_scan", "android": "https://dc.lft.to/lastmile_qr_scan"}, "lon": -77.017772, "type": "electric_bike", "fusion_lat": 0.0, "lat": 38.9149, "name": "e7152456f80bcda4c6e500d286665219", "fusion_lon": 0.0, "bike_id": "e7152456f80bcda4c6e500d286665219", "is_disabled": 0, "is_reserved": 0}, {"rental_uris": {"ios": "https://dc.lft.to/lastmile_qr_scan", "android": "https://dc.lft.to/lastmile_qr_scan"}, "lon": -77.04174716666667, "type": "electric_scooter", "fusion_lat": 0.0, "lat": 38.91704583333333, "name": "7e9fc3e4eef85c9f56d55b82026e6a40", "fusion_lon": 0.0, "bike_id": "7e9fc3e4eef85c9f56d55b82026e6a40", "is_disabled": 0, "is_reserved": 0}, {"rental_uris": {"ios": "https://dc.lft.to/lastmile_qr_scan", "android": "https://dc.lft.to/lastmile_qr_scan"}, "lon": -77.0342275, "type": "electric_scooter", "fusion_lat": 0.0, "lat": 38.919245833333335, "name": "8cc67f9cfd5cc5a8a999a467a7c1faef", "fusion_lon": 0.0, "bike_id": "8cc67f9cfd5cc5a8a999a467a7c1faef", "is_disabled": 0, "is_reserved": 0}, {"rental_uris": {"ios": "https://dc.lft.to/lastmile_qr_scan", "android": "https://dc.lft.to/lastmile_qr_scan"}, "lon": -77.0364385, "type": "electric_scooter", "fusion_lat": 0.0, "lat": 38.9173435, "name": "f026deb2f7b94470cbbc3b82fadab1ec", "fusion_lon": 0.0, "bike_id": "f026deb2f7b94470cbbc3b82fadab1ec", "is_disabled": 0, "is_reserved": 0}, {"rental_uris": {"ios": "https://dc.lft.to/lastmile_qr_scan", "android": "https://dc.lft.to/lastmile_qr_scan"}, "lon": -76.99520183333334, "type": "electric_scooter", "fusion_lat": 0.0, "lat": 38.8625935, "name": "cf385416ca6163efc0c8bda0e37a3b52", "fusion_lon": 0.0, "bike_id": "cf385416ca6163efc0c8bda0e37a3b52", "is_disabled": 0, "is_reserved": 0}, {"rental_uris": {"ios": "https://dc.lft.to/lastmile_qr_scan", "android": "https://dc.lft.to/lastmile_qr_scan"}, "lon": -77.01083033333333, "type": "electric_scooter", "fusion_lat": 0.0, "lat": 38.91627116666667, "name": "eabcef121c8f276c69000efd95ac8212", "fusion_lon": 0.0, "bike_id": "eabcef121c8f276c69000efd95ac8212", "is_disabled": 0, "is_reserved": 0}, {"rental_uris": {"ios": "https://dc.lft.to/lastmile_qr_scan", "android": "https://dc.lft.to/lastmile_qr_scan"}, "lon": -77.02843816666666, "type": "electric_scooter", "fusion_lat": 0.0, "lat": 38.934751, "name": "e0e45ff154cdf09473b9e1c00c538615", "fusion_lon": 0.0, "bike_id": "e0e45ff154cdf09473b9e1c00c538615", "is_disabled": 0, "is_reserved": 0}, {"rental_uris": {"ios": "https://dc.lft.to/lastmile_qr_scan", "android": "https://dc.lft.to/lastmile_qr_scan"}, "lon": -77.02976416666667, "type": "electric_scooter", "fusion_lat": 0.0, "lat": 38.962314, "name": "bc6dd701797efad697372853e74f054e", "fusion_lon": 0.0, "bike_id": "bc6dd701797efad697372853e74f054e", "is_disabled": 0, "is_reserved": 0}, {"rental_uris": {"ios": "https://dc.lft.to/lastmile_qr_scan", "android": "https://dc.lft.to/lastmile_qr_scan"}, "lon": -77.1412295, "type": "electric_bike", "fusion_lat": 0.0, "lat": 38.816038166666665, "name": "32395007ec09f301ec1bf331d411f6fa", "fusion_lon": 0.0, "bike_id": "32395007ec09f301ec1bf331d411f6fa", "is_disabled": 0, "is_reserved": 0}, {"rental_uris": {"ios": "https://dc.lft.to/lastmile_qr_scan", "android": "https://dc.lft.to/lastmile_qr_scan"}, "lon": -77.03268383333334, "type": "electric_scooter", "fusion_lat": 0.0, "lat": 38.93810583333333, "name": "3978302adf0863184572bc37cc59b419", "fusion_lon": 0.0, "bike_id": "3978302adf0863184572bc37cc59b419", "is_disabled": 0, "is_reserved": 0}, {"rental_uris": {"ios": "https://dc.lft.to/lastmile_qr_scan", "android": "https://dc.lft.to/lastmile_qr_scan"}, "lon": -77.0135515, "type": "electric_scooter", "fusion_lat": 0.0, "lat": 38.8711835, "name": "e320dd85339fc1c1df9272c56050b995", "fusion_lon": 0.0, "bike_id": "e320dd85339fc1c1df9272c56050b995", "is_disabled": 0, "is_reserved": 0}, {"rental_uris": {"ios": "https://dc.lft.to/lastmile_qr_scan", "android": "https://dc.lft.to/lastmile_qr_scan"}, "lon": -77.0768575, "type": "electric_bike", "fusion_lat": 0.0, "lat": 38.83196933333333, "name": "4275126ddfb05fb847553758e9ac064d", "fusion_lon": 0.0, "bike_id": "4275126ddfb05fb847553758e9ac064d", "is_disabled": 0, "is_reserved": 0}, {"rental_uris": {"ios": "https://dc.lft.to/lastmile_qr_scan", "android": "https://dc.lft.to/lastmile_qr_scan"}, "lon": -77.02962683333334, "type": "electric_scooter", "fusion_lat": 0.0, "lat": 38.8843455, "name": "458f446d6caf88276f72b91364df8bfb", "fusion_lon": 0.0, "bike_id": "458f446d6caf88276f72b91364df8bfb", "is_disabled": 0, "is_reserved": 0}, {"rental_uris": {"ios": "https://dc.lft.to/lastmile_qr_scan", "android": "https://dc.lft.to/lastmile_qr_scan"}, "lon": -77.0372685, "type": "electric_scooter", "fusion_lat": 0.0, "lat": 38.933607, "name": "c7c62233959337e8bda46091507426b0", "fusion_lon": 0.0, "bike_id": "c7c62233959337e8bda46091507426b0", "is_disabled": 0, "is_reserved": 0}, {"rental_uris": {"ios": "https://dc.lft.to/lastmile_qr_scan", "android": "https://dc.lft.to/lastmile_qr_scan"}, "lon": -77.03315616666667, "type": "electric_scooter", "fusion_lat": 0.0, "lat": 38.920525833333336, "name": "601b78daab6ef5661d38bf4c646130f1", "fusion_lon": 0.0, "bike_id": "601b78daab6ef5661d38bf4c646130f1", "is_disabled": 0, "is_reserved": 0}, {"rental_uris": {"ios": "https://dc.lft.to/lastmile_qr_scan", "android": "https://dc.lft.to/lastmile_qr_scan"}, "lon": -77.047402, "type": "electric_scooter", "fusion_lat": 0.0, "lat": 38.90236, "name": "28439d80c50bf6dca5e3b2bd54222e79", "fusion_lon": 0.0, "bike_id": "28439d80c50bf6dca5e3b2bd54222e79", "is_disabled": 0, "is_reserved": 0}, {"rental_uris": {"ios": "https://dc.lft.to/lastmile_qr_scan", "android": "https://dc.lft.to/lastmile_qr_scan"}, "lon": -76.9781505, "type": "electric_scooter", "fusion_lat": 0.0, "lat": 38.906744333333336, "name": "ae2d6d66afac56a8b722de9a0d093697", "fusion_lon": 0.0, "bike_id": "ae2d6d66afac56a8b722de9a0d093697", "is_disabled": 0, "is_reserved": 0}, {"rental_uris": {"ios": "https://dc.lft.to/lastmile_qr_scan", "android": "https://dc.lft.to/lastmile_qr_scan"}, "lon": -77.03219766666666, "type": "electric_scooter", "fusion_lat": 0.0, "lat": 38.919947666666665, "name": "a94d06272923579d6e33035cf5e0ce56", "fusion_lon": 0.0, "bike_id": "a94d06272923579d6e33035cf5e0ce56", "is_disabled": 0, "is_reserved": 0}, {"rental_uris": {"ios": "https://dc.lft.to/lastmile_qr_scan", "android": "https://dc.lft.to/lastmile_qr_scan"}, "lon": -77.0296505, "type": "electric_scooter", "fusion_lat": 0.0, "lat": 38.907257, "name": "b6b5c712ecace2a433164804a07f6792", "fusion_lon": 0.0, "bike_id": "b6b5c712ecace2a433164804a07f6792", "is_disabled": 0, "is_reserved": 0}, {"rental_uris": {"ios": "https://dc.lft.to/lastmile_qr_scan", "android": "https://dc.lft.to/lastmile_qr_scan"}, "lon": -77.02951533333334, "type": "electric_scooter", "fusion_lat": 0.0, "lat": 38.91678916666667, "name": "8e51da691b18a72af6d6bbbd9f4b259b", "fusion_lon": 0.0, "bike_id": "8e51da691b18a72af6d6bbbd9f4b259b", "is_disabled": 0, "is_reserved": 0}, {"rental_uris": {"ios": "https://dc.lft.to/lastmile_qr_scan", "android": "https://dc.lft.to/lastmile_qr_scan"}, "lon": -77.03225266666666, "type": "electric_scooter", "fusion_lat": 0.0, "lat": 38.92587966666667, "name": "3279f080a0416d215850784846795a80", "fusion_lon": 0.0, "bike_id": "3279f080a0416d215850784846795a80", "is_disabled": 0, "is_reserved": 0}, {"rental_uris": {"ios": "https://dc.lft.to/lastmile_qr_scan", "android": "https://dc.lft.to/lastmile_qr_scan"}, "lon": -77.04378283333334, "type": "electric_scooter", "fusion_lat": 0.0, "lat": 38.920703833333334, "name": "228de97861572cc67f51929a6526c963", "fusion_lon": 0.0, "bike_id": "228de97861572cc67f51929a6526c963", "is_disabled": 0, "is_reserved": 0}, {"rental_uris": {"ios": "https://dc.lft.to/lastmile_qr_scan", "android": "https://dc.lft.to/lastmile_qr_scan"}, "lon": -77.043238, "type": "electric_scooter", "fusion_lat": 0.0, "lat": 38.91485333333333, "name": "5243971bf18487f8b1dbcc00c388da35", "fusion_lon": 0.0, "bike_id": "5243971bf18487f8b1dbcc00c388da35", "is_disabled": 0, "is_reserved": 0}, {"rental_uris": {"ios": "https://dc.lft.to/lastmile_qr_scan", "android": "https://dc.lft.to/lastmile_qr_scan"}, "lon": -77.0480795, "type": "electric_scooter", "fusion_lat": 0.0, "lat": 38.896124666666665, "name": "8c2042345d0c540e60dacd73e4fab456", "fusion_lon": 0.0, "bike_id": "8c2042345d0c540e60dacd73e4fab456", "is_disabled": 0, "is_reserved": 0}, {"rental_uris": {"ios": "https://dc.lft.to/lastmile_qr_scan", "android": "https://dc.lft.to/lastmile_qr_scan"}, "lon": -77.11205266666667, "type": "electric_bike", "fusion_lat": 0.0, "lat": 38.81302983333333, "name": "692d7bb92d28eb6cad4125a777fbde57", "fusion_lon": 0.0, "bike_id": "692d7bb92d28eb6cad4125a777fbde57", "is_disabled": 0, "is_reserved": 0}, {"rental_uris": {"ios": "https://dc.lft.to/lastmile_qr_scan", "android": "https://dc.lft.to/lastmile_qr_scan"}, "lon": -77.0352005, "type": "electric_scooter", "fusion_lat": 0.0, "lat": 38.923388333333335, "name": "d97d641fe569bf3f4fddff30ae6a1d1f", "fusion_lon": 0.0, "bike_id": "d97d641fe569bf3f4fddff30ae6a1d1f", "is_disabled": 0, "is_reserved": 0}, {"rental_uris": {"ios": "https://dc.lft.to/lastmile_qr_scan", "android": "https://dc.lft.to/lastmile_qr_scan"}, "lon": -76.93546566666667, "type": "electric_bike", "fusion_lat": 0.0, "lat": 38.95557733333333, "name": "a7ce369873b6e22f08c4899eefcf8d09", "fusion_lon": 0.0, "bike_id": "a7ce369873b6e22f08c4899eefcf8d09", "is_disabled": 0, "is_reserved": 0}, {"rental_uris": {"ios": "https://dc.lft.to/lastmile_qr_scan", "android": "https://dc.lft.to/lastmile_qr_scan"}, "lon": -77.12266683333333, "type": "electric_bike", "fusion_lat": 0.0, "lat": 38.89189366666667, "name": "dcf49efffb81585e56c3b23155eb7c0f", "fusion_lon": 0.0, "bike_id": "dcf49efffb81585e56c3b23155eb7c0f", "is_disabled": 0, "is_reserved": 0}, {"rental_uris": {"ios": "https://dc.lft.to/lastmile_qr_scan", "android": "https://dc.lft.to/lastmile_qr_scan"}, "lon": -77.03335816666667, "type": "electric_bike", "fusion_lat": 0.0, "lat": 38.961350833333334, "name": "b95cf5071d1129e9d1cd7b8bf05073f9", "fusion_lon": 0.0, "bike_id": "b95cf5071d1129e9d1cd7b8bf05073f9", "is_disabled": 0, "is_reserved": 0}, {"rental_uris": {"ios": "https://dc.lft.to/lastmile_qr_scan", "android": "https://dc.lft.to/lastmile_qr_scan"}, "lon": -77.0323895, "type": "electric_scooter", "fusion_lat": 0.0, "lat": 38.927644, "name": "089ac99fa0738882551398354e124a90", "fusion_lon": 0.0, "bike_id": "089ac99fa0738882551398354e124a90", "is_disabled": 0, "is_reserved": 0}, {"rental_uris": {"ios": "https://dc.lft.to/lastmile_qr_scan", "android": "https://dc.lft.to/lastmile_qr_scan"}, "lon": -77.04172766666667, "type": "electric_scooter", "fusion_lat": 0.0, "lat": 38.91398233333334, "name": "4cb1dd666bc45454187a49ad2dae70a8", "fusion_lon": 0.0, "bike_id": "4cb1dd666bc45454187a49ad2dae70a8", "is_disabled": 0, "is_reserved": 0}, {"rental_uris": {"ios": "https://dc.lft.to/lastmile_qr_scan", "android": "https://dc.lft.to/lastmile_qr_scan"}, "lon": -77.01117433333333, "type": "electric_scooter", "fusion_lat": 0.0, "lat": 38.900242666666664, "name": "6ee4f11bbb1440e94c0425a775f818de", "fusion_lon": 0.0, "bike_id": "6ee4f11bbb1440e94c0425a775f818de", "is_disabled": 0, "is_reserved": 0}, {"rental_uris": {"ios": "https://dc.lft.to/lastmile_qr_scan", "android": "https://dc.lft.to/lastmile_qr_scan"}, "lon": -77.04408166666667, "type": "electric_scooter", "fusion_lat": 0.0, "lat": 38.905780166666666, "name": "a3d63d4ce1e9c7cbf403dce0251e428a", "fusion_lon": 0.0, "bike_id": "a3d63d4ce1e9c7cbf403dce0251e428a", "is_disabled": 0, "is_reserved": 0}, {"rental_uris": {"ios": "https://dc.lft.to/lastmile_qr_scan", "android": "https://dc.lft.to/lastmile_qr_scan"}, "lon": -77.0544, "type": "electric_scooter", "fusion_lat": 0.0, "lat": 38.896088166666665, "name": "b251a9103fdf7858b570cfda37f2873e", "fusion_lon": 0.0, "bike_id": "b251a9103fdf7858b570cfda37f2873e", "is_disabled": 0, "is_reserved": 0}, {"rental_uris": {"ios": "https://dc.lft.to/lastmile_qr_scan", "android": "https://dc.lft.to/lastmile_qr_scan"}, "lon": -77.04793933333333, "type": "electric_scooter", "fusion_lat": 0.0, "lat": 38.893684666666665, "name": "4bf6c3f7207cd12db3e23cfec4db47be", "fusion_lon": 0.0, "bike_id": "4bf6c3f7207cd12db3e23cfec4db47be", "is_disabled": 0, "is_reserved": 0}, {"rental_uris": {"ios": "https://dc.lft.to/lastmile_qr_scan", "android": "https://dc.lft.to/lastmile_qr_scan"}, "lon": -77.03865316666666, "type": "electric_scooter", "fusion_lat": 0.0, "lat": 38.9155735, "name": "d01c4ad03a54a194b9f581fddf1d3306", "fusion_lon": 0.0, "bike_id": "d01c4ad03a54a194b9f581fddf1d3306", "is_disabled": 0, "is_reserved": 0}, {"rental_uris": {"ios": "https://dc.lft.to/lastmile_qr_scan", "android": "https://dc.lft.to/lastmile_qr_scan"}, "lon": -77.01647433333333, "type": "electric_scooter", "fusion_lat": 0.0, "lat": 38.953269666666664, "name": "b4f2b69e69031454968e642562131dfe", "fusion_lon": 0.0, "bike_id": "b4f2b69e69031454968e642562131dfe", "is_disabled": 0, "is_reserved": 0}, {"rental_uris": {"ios": "https://dc.lft.to/lastmile_qr_scan", "android": "https://dc.lft.to/lastmile_qr_scan"}, "lon": -77.03470166666666, "type": "electric_scooter", "fusion_lat": 0.0, "lat": 38.91991066666667, "name": "b296d0874bf644ebd0b71574a68f131f", "fusion_lon": 0.0, "bike_id": "b296d0874bf644ebd0b71574a68f131f", "is_disabled": 0, "is_reserved": 0}, {"rental_uris": {"ios": "https://dc.lft.to/lastmile_qr_scan", "android": "https://dc.lft.to/lastmile_qr_scan"}, "lon": -77.04008433333334, "type": "electric_scooter", "fusion_lat": 0.0, "lat": 38.93257333333333, "name": "12791b076ace9859310c6fd8863982d2", "fusion_lon": 0.0, "bike_id": "12791b076ace9859310c6fd8863982d2", "is_disabled": 0, "is_reserved": 0}, {"rental_uris": {"ios": "https://dc.lft.to/lastmile_qr_scan", "android": "https://dc.lft.to/lastmile_qr_scan"}, "lon": -77.02020183333333, "type": "electric_scooter", "fusion_lat": 0.0, "lat": 38.916483, "name": "1258a795c8d854b7204a49339669644e", "fusion_lon": 0.0, "bike_id": "1258a795c8d854b7204a49339669644e", "is_disabled": 0, "is_reserved": 0}, {"rental_uris": {"ios": "https://dc.lft.to/lastmile_qr_scan", "android": "https://dc.lft.to/lastmile_qr_scan"}, "lon": -76.99383133333333, "type": "electric_scooter", "fusion_lat": 0.0, "lat": 38.89749233333333, "name": "4855218701b71a8bf13dcb5f8b1f611e", "fusion_lon": 0.0, "bike_id": "4855218701b71a8bf13dcb5f8b1f611e", "is_disabled": 0, "is_reserved": 0}, {"rental_uris": {"ios": "https://dc.lft.to/lastmile_qr_scan", "android": "https://dc.lft.to/lastmile_qr_scan"}, "lon": -76.98262666666666, "type": "electric_scooter", "fusion_lat": 0.0, "lat": 38.863554666666666, "name": "833eb96432560a46d339f8565e5b643d", "fusion_lon": 0.0, "bike_id": "833eb96432560a46d339f8565e5b643d", "is_disabled": 0, "is_reserved": 0}, {"rental_uris": {"ios": "https://dc.lft.to/lastmile_qr_scan", "android": "https://dc.lft.to/lastmile_qr_scan"}, "lon": -77.051524, "type": "electric_scooter", "fusion_lat": 0.0, "lat": 38.901259333333336, "name": "ef2b2e31f86e7e9bf85d4a6cb21d6942", "fusion_lon": 0.0, "bike_id": "ef2b2e31f86e7e9bf85d4a6cb21d6942", "is_disabled": 0, "is_reserved": 0}, {"rental_uris": {"ios": "https://dc.lft.to/lastmile_qr_scan", "android": "https://dc.lft.to/lastmile_qr_scan"}, "lon": -77.00510166666666, "type": "electric_scooter", "fusion_lat": 0.0, "lat": 38.917108666666664, "name": "3c77c9e84eaf7cd830c9e9a89803ac6c", "fusion_lon": 0.0, "bike_id": "3c77c9e84eaf7cd830c9e9a89803ac6c", "is_disabled": 0, "is_reserved": 0}, {"rental_uris": {"ios": "https://dc.lft.to/lastmile_qr_scan", "android": "https://dc.lft.to/lastmile_qr_scan"}, "lon": -76.9997365, "type": "electric_scooter", "fusion_lat": 0.0, "lat": 38.83837066666667, "name": "43feb2c07f2a9b3340fb5796f409f959", "fusion_lon": 0.0, "bike_id": "43feb2c07f2a9b3340fb5796f409f959", "is_disabled": 0, "is_reserved": 0}, {"rental_uris": {"ios": "https://dc.lft.to/lastmile_qr_scan", "android": "https://dc.lft.to/lastmile_qr_scan"}, "lon": -77.04023666666667, "type": "electric_scooter", "fusion_lat": 0.0, "lat": 38.90125333333334, "name": "6e7cba90c64ba0eae4f9a0d7e123a9ce", "fusion_lon": 0.0, "bike_id": "6e7cba90c64ba0eae4f9a0d7e123a9ce", "is_disabled": 0, "is_reserved": 0}, {"rental_uris": {"ios": "https://dc.lft.to/lastmile_qr_scan", "android": "https://dc.lft.to/lastmile_qr_scan"}, "lon": -77.02618416666667, "type": "electric_scooter", "fusion_lat": 0.0, "lat": 38.9339985, "name": "01b1c65520e335825a284383bab3551f", "fusion_lon": 0.0, "bike_id": "01b1c65520e335825a284383bab3551f", "is_disabled": 0, "is_reserved": 0}, {"rental_uris": {"ios": "https://dc.lft.to/lastmile_qr_scan", "android": "https://dc.lft.to/lastmile_qr_scan"}, "lon": -77.0698645, "type": "electric_scooter", "fusion_lat": 0.0, "lat": 38.954877833333335, "name": "68e227ca50bf6b2c7af3e88859a49986", "fusion_lon": 0.0, "bike_id": "68e227ca50bf6b2c7af3e88859a49986", "is_disabled": 0, "is_reserved": 0}, {"rental_uris": {"ios": "https://dc.lft.to/lastmile_qr_scan", "android": "https://dc.lft.to/lastmile_qr_scan"}, "lon": -77.0632385, "type": "electric_scooter", "fusion_lat": 0.0, "lat": 38.90763466666667, "name": "a9d204188c89afcfae1caf56dbb2d2ed", "fusion_lon": 0.0, "bike_id": "a9d204188c89afcfae1caf56dbb2d2ed", "is_disabled": 0, "is_reserved": 0}, {"rental_uris": {"ios": "https://dc.lft.to/lastmile_qr_scan", "android": "https://dc.lft.to/lastmile_qr_scan"}, "lon": -76.99502016666666, "type": "electric_bike", "fusion_lat": 0.0, "lat": 39.00002883333333, "name": "6522f00c49513987b376882c62e43e17", "fusion_lon": 0.0, "bike_id": "6522f00c49513987b376882c62e43e17", "is_disabled": 0, "is_reserved": 0}, {"rental_uris": {"ios": "https://dc.lft.to/lastmile_qr_scan", "android": "https://dc.lft.to/lastmile_qr_scan"}, "lon": -76.99793683333333, "type": "electric_scooter", "fusion_lat": 0.0, "lat": 38.921804333333334, "name": "6d6b5c851a884ec685306c5a65b168f8", "fusion_lon": 0.0, "bike_id": "6d6b5c851a884ec685306c5a65b168f8", "is_disabled": 0, "is_reserved": 0}, {"rental_uris": {"ios": "https://dc.lft.to/lastmile_qr_scan", "android": "https://dc.lft.to/lastmile_qr_scan"}, "lon": -76.99942666666666, "type": "electric_scooter", "fusion_lat": 0.0, "lat": 38.90696616666666, "name": "f65f6351dcceceaf66ec9fd3f2d7364d", "fusion_lon": 0.0, "bike_id": "f65f6351dcceceaf66ec9fd3f2d7364d", "is_disabled": 0, "is_reserved": 0}, {"rental_uris": {"ios": "https://dc.lft.to/lastmile_qr_scan", "android": "https://dc.lft.to/lastmile_qr_scan"}, "lon": -76.9859645, "type": "electric_bike", "fusion_lat": 0.0, "lat": 38.906219, "name": "ce750d304e5cbf7d18e74bea96bb576a", "fusion_lon": 0.0, "bike_id": "ce750d304e5cbf7d18e74bea96bb576a", "is_disabled": 0, "is_reserved": 0}, {"rental_uris": {"ios": "https://dc.lft.to/lastmile_qr_scan", "android": "https://dc.lft.to/lastmile_qr_scan"}, "lon": -77.04257366666667, "type": "electric_scooter", "fusion_lat": 0.0, "lat": 38.92057416666667, "name": "3845e496b15f050314ddc64257466d84", "fusion_lon": 0.0, "bike_id": "3845e496b15f050314ddc64257466d84", "is_disabled": 0, "is_reserved": 0}, {"rental_uris": {"ios": "https://dc.lft.to/lastmile_qr_scan", "android": "https://dc.lft.to/lastmile_qr_scan"}, "lon": -77.03707266666666, "type": "electric_scooter", "fusion_lat": 0.0, "lat": 38.92625733333333, "name": "3c831178c6f3eaeea559e1b9fe2bacab", "fusion_lon": 0.0, "bike_id": "3c831178c6f3eaeea559e1b9fe2bacab", "is_disabled": 0, "is_reserved": 0}, {"rental_uris": {"ios": "https://dc.lft.to/lastmile_qr_scan", "android": "https://dc.lft.to/lastmile_qr_scan"}, "lon": -76.98561, "type": "electric_scooter", "fusion_lat": 0.0, "lat": 38.89955766666667, "name": "e9588cf8979bf5cdb13ebc08d8636e04", "fusion_lon": 0.0, "bike_id": "e9588cf8979bf5cdb13ebc08d8636e04", "is_disabled": 0, "is_reserved": 0}, {"rental_uris": {"ios": "https://dc.lft.to/lastmile_qr_scan", "android": "https://dc.lft.to/lastmile_qr_scan"}, "lon": -77.09671716666666, "type": "electric_scooter", "fusion_lat": 0.0, "lat": 38.91765016666667, "name": "d2b40cbb518e8a55e369de5ad58ae2fd", "fusion_lon": 0.0, "bike_id": "d2b40cbb518e8a55e369de5ad58ae2fd", "is_disabled": 0, "is_reserved": 0}, {"rental_uris": {"ios": "https://dc.lft.to/lastmile_qr_scan", "android": "https://dc.lft.to/lastmile_qr_scan"}, "lon": -77.032223, "type": "electric_scooter", "fusion_lat": 0.0, "lat": 38.908668, "name": "6089f8c1e36e7b833c7dc20da0f229e9", "fusion_lon": 0.0, "bike_id": "6089f8c1e36e7b833c7dc20da0f229e9", "is_disabled": 0, "is_reserved": 0}, {"rental_uris": {"ios": "https://dc.lft.to/lastmile_qr_scan", "android": "https://dc.lft.to/lastmile_qr_scan"}, "lon": -76.9888705, "type": "electric_scooter", "fusion_lat": 0.0, "lat": 38.86660066666666, "name": "434e1581401c38828c1e15e782d54fa6", "fusion_lon": 0.0, "bike_id": "434e1581401c38828c1e15e782d54fa6", "is_disabled": 0, "is_reserved": 0}, {"rental_uris": {"ios": "https://dc.lft.to/lastmile_qr_scan", "android": "https://dc.lft.to/lastmile_qr_scan"}, "lon": -77.0370685, "type": "electric_scooter", "fusion_lat": 0.0, "lat": 38.92622816666667, "name": "1c5f0be3215a3a1bbc0b356ed2415ebc", "fusion_lon": 0.0, "bike_id": "1c5f0be3215a3a1bbc0b356ed2415ebc", "is_disabled": 0, "is_reserved": 0}, {"rental_uris": {"ios": "https://dc.lft.to/lastmile_qr_scan", "android": "https://dc.lft.to/lastmile_qr_scan"}, "lon": -77.0443895, "type": "electric_scooter", "fusion_lat": 0.0, "lat": 38.91923283333333, "name": "84db0fdce660406f082d61c9c79d3300", "fusion_lon": 0.0, "bike_id": "84db0fdce660406f082d61c9c79d3300", "is_disabled": 0, "is_reserved": 0}, {"rental_uris": {"ios": "https://dc.lft.to/lastmile_qr_scan", "android": "https://dc.lft.to/lastmile_qr_scan"}, "lon": -76.93747966666666, "type": "electric_scooter", "fusion_lat": 0.0, "lat": 38.91285583333333, "name": "03aa4e425fff9d427466ab9dc3f77420", "fusion_lon": 0.0, "bike_id": "03aa4e425fff9d427466ab9dc3f77420", "is_disabled": 0, "is_reserved": 0}, {"rental_uris": {"ios": "https://dc.lft.to/lastmile_qr_scan", "android": "https://dc.lft.to/lastmile_qr_scan"}, "lon": -76.97707983333333, "type": "electric_scooter", "fusion_lat": 0.0, "lat": 38.9026145, "name": "74ff7f7cbcab507b9ea73032c69497d8", "fusion_lon": 0.0, "bike_id": "74ff7f7cbcab507b9ea73032c69497d8", "is_disabled": 0, "is_reserved": 0}, {"rental_uris": {"ios": "https://dc.lft.to/lastmile_qr_scan", "android": "https://dc.lft.to/lastmile_qr_scan"}, "lon": -77.03289916666667, "type": "electric_scooter", "fusion_lat": 0.0, "lat": 38.9349, "name": "4c550901af66f1f87c0b780aead592a1", "fusion_lon": 0.0, "bike_id": "4c550901af66f1f87c0b780aead592a1", "is_disabled": 0, "is_reserved": 0}, {"rental_uris": {"ios": "https://dc.lft.to/lastmile_qr_scan", "android": "https://dc.lft.to/lastmile_qr_scan"}, "lon": -77.01393333333333, "type": "electric_scooter", "fusion_lat": 0.0, "lat": 38.919468333333334, "name": "6012d9071bc3465e236853e2a36e781c", "fusion_lon": 0.0, "bike_id": "6012d9071bc3465e236853e2a36e781c", "is_disabled": 0, "is_reserved": 0}, {"rental_uris": {"ios": "https://dc.lft.to/lastmile_qr_scan", "android": "https://dc.lft.to/lastmile_qr_scan"}, "lon": -77.02231616666667, "type": "electric_scooter", "fusion_lat": 0.0, "lat": 38.891941, "name": "2c4a7d50b652f030fc490b92eaeacfaa", "fusion_lon": 0.0, "bike_id": "2c4a7d50b652f030fc490b92eaeacfaa", "is_disabled": 0, "is_reserved": 0}, {"rental_uris": {"ios": "https://dc.lft.to/lastmile_qr_scan", "android": "https://dc.lft.to/lastmile_qr_scan"}, "lon": -77.0449765, "type": "electric_scooter", "fusion_lat": 0.0, "lat": 38.908685, "name": "912f59fc2821588230747fe00eec0cc5", "fusion_lon": 0.0, "bike_id": "912f59fc2821588230747fe00eec0cc5", "is_disabled": 0, "is_reserved": 0}, {"rental_uris": {"ios": "https://dc.lft.to/lastmile_qr_scan", "android": "https://dc.lft.to/lastmile_qr_scan"}, "lon": -77.00102416666667, "type": "electric_scooter", "fusion_lat": 0.0, "lat": 38.908370833333336, "name": "6b2ef74d0ebcc762b098ba96b90bb23c", "fusion_lon": 0.0, "bike_id": "6b2ef74d0ebcc762b098ba96b90bb23c", "is_disabled": 0, "is_reserved": 0}, {"rental_uris": {"ios": "https://dc.lft.to/lastmile_qr_scan", "android": "https://dc.lft.to/lastmile_qr_scan"}, "lon": -77.04443933333333, "type": "electric_scooter", "fusion_lat": 0.0, "lat": 38.91011833333334, "name": "715a9f1fe0b96f4ba11dc74451a4d59f", "fusion_lon": 0.0, "bike_id": "715a9f1fe0b96f4ba11dc74451a4d59f", "is_disabled": 0, "is_reserved": 0}, {"rental_uris": {"ios": "https://dc.lft.to/lastmile_qr_scan", "android": "https://dc.lft.to/lastmile_qr_scan"}, "lon": -77.02708916666667, "type": "electric_scooter", "fusion_lat": 0.0, "lat": 38.95002816666667, "name": "3aa6f8e87a84cdbc1755d0f89e50c78d", "fusion_lon": 0.0, "bike_id": "3aa6f8e87a84cdbc1755d0f89e50c78d", "is_disabled": 0, "is_reserved": 0}, {"rental_uris": {"ios": "https://dc.lft.to/lastmile_qr_scan", "android": "https://dc.lft.to/lastmile_qr_scan"}, "lon": -77.02589233333333, "type": "electric_scooter", "fusion_lat": 0.0, "lat": 38.929868666666664, "name": "d777d8c3e994f0c21186510cec6c0407", "fusion_lon": 0.0, "bike_id": "d777d8c3e994f0c21186510cec6c0407", "is_disabled": 0, "is_reserved": 0}, {"rental_uris": {"ios": "https://dc.lft.to/lastmile_qr_scan", "android": "https://dc.lft.to/lastmile_qr_scan"}, "lon": -77.1045665, "type": "electric_bike", "fusion_lat": 0.0, "lat": 38.89637783333333, "name": "eb6441ed98cadb13bf349164dd258eba", "fusion_lon": 0.0, "bike_id": "eb6441ed98cadb13bf349164dd258eba", "is_disabled": 0, "is_reserved": 0}, {"rental_uris": {"ios": "https://dc.lft.to/lastmile_qr_scan", "android": "https://dc.lft.to/lastmile_qr_scan"}, "lon": -77.02827166666667, "type": "electric_scooter", "fusion_lat": 0.0, "lat": 38.91119283333333, "name": "0f96e8bae9cc762a06ab19c7106108ac", "fusion_lon": 0.0, "bike_id": "0f96e8bae9cc762a06ab19c7106108ac", "is_disabled": 0, "is_reserved": 0}, {"rental_uris": {"ios": "https://dc.lft.to/lastmile_qr_scan", "android": "https://dc.lft.to/lastmile_qr_scan"}, "lon": -77.04548266666667, "type": "electric_scooter", "fusion_lat": 0.0, "lat": 38.934107, "name": "979cde8409f37e217d0712612f42683f", "fusion_lon": 0.0, "bike_id": "979cde8409f37e217d0712612f42683f", "is_disabled": 0, "is_reserved": 0}, {"rental_uris": {"ios": "https://dc.lft.to/lastmile_qr_scan", "android": "https://dc.lft.to/lastmile_qr_scan"}, "lon": -77.042442, "type": "electric_scooter", "fusion_lat": 0.0, "lat": 38.92161383333333, "name": "2f6cb1da7300c8db72b9ab5263b1c951", "fusion_lon": 0.0, "bike_id": "2f6cb1da7300c8db72b9ab5263b1c951", "is_disabled": 0, "is_reserved": 0}, {"rental_uris": {"ios": "https://dc.lft.to/lastmile_qr_scan", "android": "https://dc.lft.to/lastmile_qr_scan"}, "lon": -77.03296316666666, "type": "electric_scooter", "fusion_lat": 0.0, "lat": 38.9235075, "name": "8084300ad20a13d69f47141ee032014f", "fusion_lon": 0.0, "bike_id": "8084300ad20a13d69f47141ee032014f", "is_disabled": 0, "is_reserved": 0}, {"rental_uris": {"ios": "https://dc.lft.to/lastmile_qr_scan", "android": "https://dc.lft.to/lastmile_qr_scan"}, "lon": -76.9463465, "type": "electric_scooter", "fusion_lat": 0.0, "lat": 38.898334166666665, "name": "4d297183ac6a748d0d8a66470f957264", "fusion_lon": 0.0, "bike_id": "4d297183ac6a748d0d8a66470f957264", "is_disabled": 0, "is_reserved": 0}, {"rental_uris": {"ios": "https://dc.lft.to/lastmile_qr_scan", "android": "https://dc.lft.to/lastmile_qr_scan"}, "lon": -77.02795016666667, "type": "electric_scooter", "fusion_lat": 0.0, "lat": 38.930874, "name": "75781fde848435f04d9513b02453c0e7", "fusion_lon": 0.0, "bike_id": "75781fde848435f04d9513b02453c0e7", "is_disabled": 0, "is_reserved": 0}, {"rental_uris": {"ios": "https://dc.lft.to/lastmile_qr_scan", "android": "https://dc.lft.to/lastmile_qr_scan"}, "lon": -76.9899965, "type": "electric_scooter", "fusion_lat": 0.0, "lat": 38.865049666666664, "name": "fc99dd03d8cdab18134e9668f2062247", "fusion_lon": 0.0, "bike_id": "fc99dd03d8cdab18134e9668f2062247", "is_disabled": 0, "is_reserved": 0}, {"rental_uris": {"ios": "https://dc.lft.to/lastmile_qr_scan", "android": "https://dc.lft.to/lastmile_qr_scan"}, "lon": -77.02368, "type": "electric_scooter", "fusion_lat": 0.0, "lat": 38.9031005, "name": "9c128b06a350b6b3cbe4490f8987d6bc", "fusion_lon": 0.0, "bike_id": "9c128b06a350b6b3cbe4490f8987d6bc", "is_disabled": 0, "is_reserved": 0}, {"rental_uris": {"ios": "https://dc.lft.to/lastmile_qr_scan", "android": "https://dc.lft.to/lastmile_qr_scan"}, "lon": -77.01108816666667, "type": "electric_scooter", "fusion_lat": 0.0, "lat": 38.9079315, "name": "e9402aebe5cc3e5c29dad9475ea61d4f", "fusion_lon": 0.0, "bike_id": "e9402aebe5cc3e5c29dad9475ea61d4f", "is_disabled": 0, "is_reserved": 0}, {"rental_uris": {"ios": "https://dc.lft.to/lastmile_qr_scan", "android": "https://dc.lft.to/lastmile_qr_scan"}, "lon": -77.006338, "type": "electric_scooter", "fusion_lat": 0.0, "lat": 38.82932566666667, "name": "9cd4628bb1055d5ca0c999526c59c073", "fusion_lon": 0.0, "bike_id": "9cd4628bb1055d5ca0c999526c59c073", "is_disabled": 0, "is_reserved": 0}, {"rental_uris": {"ios": "https://dc.lft.to/lastmile_qr_scan", "android": "https://dc.lft.to/lastmile_qr_scan"}, "lon": -77.01928083333334, "type": "electric_scooter", "fusion_lat": 0.0, "lat": 38.9568845, "name": "41aee481a6b59cd75a88be2a3f2b06b0", "fusion_lon": 0.0, "bike_id": "41aee481a6b59cd75a88be2a3f2b06b0", "is_disabled": 0, "is_reserved": 0}, {"rental_uris": {"ios": "https://dc.lft.to/lastmile_qr_scan", "android": "https://dc.lft.to/lastmile_qr_scan"}, "lon": -77.03066383333334, "type": "electric_scooter", "fusion_lat": 0.0, "lat": 38.894741333333336, "name": "c4583a5a65f4d559a443ba61f7f26053", "fusion_lon": 0.0, "bike_id": "c4583a5a65f4d559a443ba61f7f26053", "is_disabled": 0, "is_reserved": 0}, {"rental_uris": {"ios": "https://dc.lft.to/lastmile_qr_scan", "android": "https://dc.lft.to/lastmile_qr_scan"}, "lon": -76.94634616666667, "type": "electric_bike", "fusion_lat": 0.0, "lat": 38.9462665, "name": "5bb410f03fc49ecbd309d5abe64efcd0", "fusion_lon": 0.0, "bike_id": "5bb410f03fc49ecbd309d5abe64efcd0", "is_disabled": 0, "is_reserved": 0}, {"rental_uris": {"ios": "https://dc.lft.to/lastmile_qr_scan", "android": "https://dc.lft.to/lastmile_qr_scan"}, "lon": -77.04334116666666, "type": "electric_scooter", "fusion_lat": 0.0, "lat": 38.89587866666667, "name": "e1aef8415a2340d84681c1fdc87adb5c", "fusion_lon": 0.0, "bike_id": "e1aef8415a2340d84681c1fdc87adb5c", "is_disabled": 0, "is_reserved": 0}, {"rental_uris": {"ios": "https://dc.lft.to/lastmile_qr_scan", "android": "https://dc.lft.to/lastmile_qr_scan"}, "lon": -77.0346865, "type": "electric_scooter", "fusion_lat": 0.0, "lat": 38.91714616666667, "name": "74458eb3907a85f87c6975e075de8807", "fusion_lon": 0.0, "bike_id": "74458eb3907a85f87c6975e075de8807", "is_disabled": 0, "is_reserved": 0}, {"rental_uris": {"ios": "https://dc.lft.to/lastmile_qr_scan", "android": "https://dc.lft.to/lastmile_qr_scan"}, "lon": -77.02397333333333, "type": "electric_scooter", "fusion_lat": 0.0, "lat": 38.917261333333336, "name": "9588930d0667ac7848fb8eb0da6b022b", "fusion_lon": 0.0, "bike_id": "9588930d0667ac7848fb8eb0da6b022b", "is_disabled": 0, "is_reserved": 0}, {"rental_uris": {"ios": "https://dc.lft.to/lastmile_qr_scan", "android": "https://dc.lft.to/lastmile_qr_scan"}, "lon": -77.03945716666666, "type": "electric_scooter", "fusion_lat": 0.0, "lat": 38.89899066666667, "name": "ef6fc6f35014af47d924100af008728e", "fusion_lon": 0.0, "bike_id": "ef6fc6f35014af47d924100af008728e", "is_disabled": 0, "is_reserved": 0}, {"rental_uris": {"ios": "https://dc.lft.to/lastmile_qr_scan", "android": "https://dc.lft.to/lastmile_qr_scan"}, "lon": -77.03184716666667, "type": "electric_scooter", "fusion_lat": 0.0, "lat": 38.907661, "name": "675e6cc41b65a63db37bd932b3f96d43", "fusion_lon": 0.0, "bike_id": "675e6cc41b65a63db37bd932b3f96d43", "is_disabled": 0, "is_reserved": 0}, {"rental_uris": {"ios": "https://dc.lft.to/lastmile_qr_scan", "android": "https://dc.lft.to/lastmile_qr_scan"}, "lon": -77.028489, "type": "electric_scooter", "fusion_lat": 0.0, "lat": 38.8876005, "name": "8858e7e9d0ffb7d0eb9300cfe7b2aea5", "fusion_lon": 0.0, "bike_id": "8858e7e9d0ffb7d0eb9300cfe7b2aea5", "is_disabled": 0, "is_reserved": 0}, {"rental_uris": {"ios": "https://dc.lft.to/lastmile_qr_scan", "android": "https://dc.lft.to/lastmile_qr_scan"}, "lon": -77.0384365, "type": "electric_scooter", "fusion_lat": 0.0, "lat": 38.926535, "name": "40b7c3dbe7d31308432a91e3442c8624", "fusion_lon": 0.0, "bike_id": "40b7c3dbe7d31308432a91e3442c8624", "is_disabled": 0, "is_reserved": 0}, {"rental_uris": {"ios": "https://dc.lft.to/lastmile_qr_scan", "android": "https://dc.lft.to/lastmile_qr_scan"}, "lon": -77.04673716666667, "type": "electric_scooter", "fusion_lat": 0.0, "lat": 38.90382316666667, "name": "d8e2f1c3f052e0710262ffa59d94df87", "fusion_lon": 0.0, "bike_id": "d8e2f1c3f052e0710262ffa59d94df87", "is_disabled": 0, "is_reserved": 0}, {"rental_uris": {"ios": "https://dc.lft.to/lastmile_qr_scan", "android": "https://dc.lft.to/lastmile_qr_scan"}, "lon": -77.04485033333333, "type": "electric_scooter", "fusion_lat": 0.0, "lat": 38.9187335, "name": "05a17f7a7bdd935641fdcbb151c5198b", "fusion_lon": 0.0, "bike_id": "05a17f7a7bdd935641fdcbb151c5198b", "is_disabled": 0, "is_reserved": 0}, {"rental_uris": {"ios": "https://dc.lft.to/lastmile_qr_scan", "android": "https://dc.lft.to/lastmile_qr_scan"}, "lon": -76.9989095, "type": "electric_scooter", "fusion_lat": 0.0, "lat": 38.90757133333334, "name": "85c85dfb966209effe6e031e10d035b5", "fusion_lon": 0.0, "bike_id": "85c85dfb966209effe6e031e10d035b5", "is_disabled": 0, "is_reserved": 0}, {"rental_uris": {"ios": "https://dc.lft.to/lastmile_qr_scan", "android": "https://dc.lft.to/lastmile_qr_scan"}, "lon": -77.01499283333334, "type": "electric_scooter", "fusion_lat": 0.0, "lat": 38.901461166666664, "name": "aa3ab50974f2a58d88475038cb1693c8", "fusion_lon": 0.0, "bike_id": "aa3ab50974f2a58d88475038cb1693c8", "is_disabled": 0, "is_reserved": 0}, {"rental_uris": {"ios": "https://dc.lft.to/lastmile_qr_scan", "android": "https://dc.lft.to/lastmile_qr_scan"}, "lon": -77.0263955, "type": "electric_scooter", "fusion_lat": 0.0, "lat": 38.896044833333335, "name": "1fda857c2bbd37435ae17d16aff8760a", "fusion_lon": 0.0, "bike_id": "1fda857c2bbd37435ae17d16aff8760a", "is_disabled": 0, "is_reserved": 0}, {"rental_uris": {"ios": "https://dc.lft.to/lastmile_qr_scan", "android": "https://dc.lft.to/lastmile_qr_scan"}, "lon": -76.97205383333333, "type": "electric_scooter", "fusion_lat": 0.0, "lat": 38.85497016666667, "name": "ec7c03f7eddb4a3e1d3a708c454e968c", "fusion_lon": 0.0, "bike_id": "ec7c03f7eddb4a3e1d3a708c454e968c", "is_disabled": 0, "is_reserved": 0}, {"rental_uris": {"ios": "https://dc.lft.to/lastmile_qr_scan", "android": "https://dc.lft.to/lastmile_qr_scan"}, "lon": -76.99776566666667, "type": "electric_scooter", "fusion_lat": 0.0, "lat": 38.844271666666664, "name": "32dd4208fc15ad08c54c2db14d19f013", "fusion_lon": 0.0, "bike_id": "32dd4208fc15ad08c54c2db14d19f013", "is_disabled": 0, "is_reserved": 0}, {"rental_uris": {"ios": "https://dc.lft.to/lastmile_qr_scan", "android": "https://dc.lft.to/lastmile_qr_scan"}, "lon": -77.0303275, "type": "electric_scooter", "fusion_lat": 0.0, "lat": 38.922482, "name": "fc11302cc25ed0f2ee6e5ca3a4d1bde6", "fusion_lon": 0.0, "bike_id": "fc11302cc25ed0f2ee6e5ca3a4d1bde6", "is_disabled": 0, "is_reserved": 0}, {"rental_uris": {"ios": "https://dc.lft.to/lastmile_qr_scan", "android": "https://dc.lft.to/lastmile_qr_scan"}, "lon": -77.01790383333334, "type": "electric_scooter", "fusion_lat": 0.0, "lat": 38.941166333333335, "name": "591f2e96fbd41edd10e9c984737a645f", "fusion_lon": 0.0, "bike_id": "591f2e96fbd41edd10e9c984737a645f", "is_disabled": 0, "is_reserved": 0}, {"rental_uris": {"ios": "https://dc.lft.to/lastmile_qr_scan", "android": "https://dc.lft.to/lastmile_qr_scan"}, "lon": -76.9994375, "type": "electric_bike", "fusion_lat": 0.0, "lat": 38.92345066666667, "name": "48616268e5e3db8606adb82026f36d4f", "fusion_lon": 0.0, "bike_id": "48616268e5e3db8606adb82026f36d4f", "is_disabled": 0, "is_reserved": 0}, {"rental_uris": {"ios": "https://dc.lft.to/lastmile_qr_scan", "android": "https://dc.lft.to/lastmile_qr_scan"}, "lon": -77.03338116666667, "type": "electric_scooter", "fusion_lat": 0.0, "lat": 38.89849366666667, "name": "7f6e0008ee4c101621546fe0e9289573", "fusion_lon": 0.0, "bike_id": "7f6e0008ee4c101621546fe0e9289573", "is_disabled": 0, "is_reserved": 0}, {"rental_uris": {"ios": "https://dc.lft.to/lastmile_qr_scan", "android": "https://dc.lft.to/lastmile_qr_scan"}, "lon": -77.065971, "type": "electric_scooter", "fusion_lat": 0.0, "lat": 38.90526033333333, "name": "a7393e5e62236747c05376fb93e4c22d", "fusion_lon": 0.0, "bike_id": "a7393e5e62236747c05376fb93e4c22d", "is_disabled": 0, "is_reserved": 0}, {"rental_uris": {"ios": "https://dc.lft.to/lastmile_qr_scan", "android": "https://dc.lft.to/lastmile_qr_scan"}, "lon": -77.0326455, "type": "electric_scooter", "fusion_lat": 0.0, "lat": 38.94419233333333, "name": "88a6b0da7675105881bf78d4aba5a44d", "fusion_lon": 0.0, "bike_id": "88a6b0da7675105881bf78d4aba5a44d", "is_disabled": 0, "is_reserved": 0}, {"rental_uris": {"ios": "https://dc.lft.to/lastmile_qr_scan", "android": "https://dc.lft.to/lastmile_qr_scan"}, "lon": -77.04820016666666, "type": "electric_scooter", "fusion_lat": 0.0, "lat": 38.91631133333333, "name": "c58fd9b771e165dcc5c2d9037f7058ac", "fusion_lon": 0.0, "bike_id": "c58fd9b771e165dcc5c2d9037f7058ac", "is_disabled": 0, "is_reserved": 0}, {"rental_uris": {"ios": "https://dc.lft.to/lastmile_qr_scan", "android": "https://dc.lft.to/lastmile_qr_scan"}, "lon": -77.02847433333334, "type": "electric_scooter", "fusion_lat": 0.0, "lat": 38.92372233333333, "name": "8ab0419c8567b80f91683d81c3ab2fa3", "fusion_lon": 0.0, "bike_id": "8ab0419c8567b80f91683d81c3ab2fa3", "is_disabled": 0, "is_reserved": 0}, {"rental_uris": {"ios": "https://dc.lft.to/lastmile_qr_scan", "android": "https://dc.lft.to/lastmile_qr_scan"}, "lon": -76.97610033333333, "type": "electric_bike", "fusion_lat": 0.0, "lat": 38.913114666666665, "name": "07a9dc095356ced7b91f60c8c3de32ce", "fusion_lon": 0.0, "bike_id": "07a9dc095356ced7b91f60c8c3de32ce", "is_disabled": 0, "is_reserved": 0}, {"rental_uris": {"ios": "https://dc.lft.to/lastmile_qr_scan", "android": "https://dc.lft.to/lastmile_qr_scan"}, "lon": -77.06614833333333, "type": "electric_bike", "fusion_lat": 0.0, "lat": 38.91128716666667, "name": "4937916e17ba11cbbdd3a2d971047e3d", "fusion_lon": 0.0, "bike_id": "4937916e17ba11cbbdd3a2d971047e3d", "is_disabled": 0, "is_reserved": 0}, {"rental_uris": {"ios": "https://dc.lft.to/lastmile_qr_scan", "android": "https://dc.lft.to/lastmile_qr_scan"}, "lon": -77.04705816666667, "type": "electric_scooter", "fusion_lat": 0.0, "lat": 38.90859733333333, "name": "f8acda089868f02dd704deb731fd8a2e", "fusion_lon": 0.0, "bike_id": "f8acda089868f02dd704deb731fd8a2e", "is_disabled": 0, "is_reserved": 0}, {"rental_uris": {"ios": "https://dc.lft.to/lastmile_qr_scan", "android": "https://dc.lft.to/lastmile_qr_scan"}, "lon": -77.03865366666666, "type": "electric_scooter", "fusion_lat": 0.0, "lat": 38.915573333333334, "name": "980819129484a08427c9f0e27c01ca38", "fusion_lon": 0.0, "bike_id": "980819129484a08427c9f0e27c01ca38", "is_disabled": 0, "is_reserved": 0}, {"rental_uris": {"ios": "https://dc.lft.to/lastmile_qr_scan", "android": "https://dc.lft.to/lastmile_qr_scan"}, "lon": -77.06691416666666, "type": "electric_scooter", "fusion_lat": 0.0, "lat": 38.90974283333333, "name": "d7c4efda9c5f903fdcba3757b63b1ad0", "fusion_lon": 0.0, "bike_id": "d7c4efda9c5f903fdcba3757b63b1ad0", "is_disabled": 0, "is_reserved": 0}, {"rental_uris": {"ios": "https://dc.lft.to/lastmile_qr_scan", "android": "https://dc.lft.to/lastmile_qr_scan"}, "lon": -77.03508883333333, "type": "electric_scooter", "fusion_lat": 0.0, "lat": 38.923525166666664, "name": "c71a27816c07793ce6082d7524c4cf3c", "fusion_lon": 0.0, "bike_id": "c71a27816c07793ce6082d7524c4cf3c", "is_disabled": 0, "is_reserved": 0}, {"rental_uris": {"ios": "https://dc.lft.to/lastmile_qr_scan", "android": "https://dc.lft.to/lastmile_qr_scan"}, "lon": -77.0395825, "type": "electric_scooter", "fusion_lat": 0.0, "lat": 38.916315, "name": "9cc8d6357773bf1185478cdbc0942021", "fusion_lon": 0.0, "bike_id": "9cc8d6357773bf1185478cdbc0942021", "is_disabled": 0, "is_reserved": 0}, {"rental_uris": {"ios": "https://dc.lft.to/lastmile_qr_scan", "android": "https://dc.lft.to/lastmile_qr_scan"}, "lon": -77.02962416666666, "type": "electric_scooter", "fusion_lat": 0.0, "lat": 38.905104333333334, "name": "f53b5c019d8aa605cfa23b6e95231ed6", "fusion_lon": 0.0, "bike_id": "f53b5c019d8aa605cfa23b6e95231ed6", "is_disabled": 0, "is_reserved": 0}, {"rental_uris": {"ios": "https://dc.lft.to/lastmile_qr_scan", "android": "https://dc.lft.to/lastmile_qr_scan"}, "lon": -76.99033183333333, "type": "electric_scooter", "fusion_lat": 0.0, "lat": 38.858702666666666, "name": "775aa7ecc6077c7fe74ac26e7b23d60c", "fusion_lon": 0.0, "bike_id": "775aa7ecc6077c7fe74ac26e7b23d60c", "is_disabled": 0, "is_reserved": 0}, {"rental_uris": {"ios": "https://dc.lft.to/lastmile_qr_scan", "android": "https://dc.lft.to/lastmile_qr_scan"}, "lon": -77.009205, "type": "electric_scooter", "fusion_lat": 0.0, "lat": 38.91241933333333, "name": "49658011494585c876336996d394d7bc", "fusion_lon": 0.0, "bike_id": "49658011494585c876336996d394d7bc", "is_disabled": 0, "is_reserved": 0}, {"rental_uris": {"ios": "https://dc.lft.to/lastmile_qr_scan", "android": "https://dc.lft.to/lastmile_qr_scan"}, "lon": -77.044982, "type": "electric_scooter", "fusion_lat": 0.0, "lat": 38.908616333333335, "name": "4e00dba0f90ff487dd9aaae4e30ec431", "fusion_lon": 0.0, "bike_id": "4e00dba0f90ff487dd9aaae4e30ec431", "is_disabled": 0, "is_reserved": 0}, {"rental_uris": {"ios": "https://dc.lft.to/lastmile_qr_scan", "android": "https://dc.lft.to/lastmile_qr_scan"}, "lon": -77.05506333333334, "type": "electric_scooter", "fusion_lat": 0.0, "lat": 38.929743, "name": "c8d6e6e0d2288fbf86f7a570ca649319", "fusion_lon": 0.0, "bike_id": "c8d6e6e0d2288fbf86f7a570ca649319", "is_disabled": 0, "is_reserved": 0}, {"rental_uris": {"ios": "https://dc.lft.to/lastmile_qr_scan", "android": "https://dc.lft.to/lastmile_qr_scan"}, "lon": -77.04125916666666, "type": "electric_scooter", "fusion_lat": 0.0, "lat": 38.900090666666664, "name": "0c6b1584e6b81ce377f6b09545335157", "fusion_lon": 0.0, "bike_id": "0c6b1584e6b81ce377f6b09545335157", "is_disabled": 0, "is_reserved": 0}, {"rental_uris": {"ios": "https://dc.lft.to/lastmile_qr_scan", "android": "https://dc.lft.to/lastmile_qr_scan"}, "lon": -76.95760233333333, "type": "electric_scooter", "fusion_lat": 0.0, "lat": 38.8843395, "name": "676c0094d07fd9f66494f9b63a647352", "fusion_lon": 0.0, "bike_id": "676c0094d07fd9f66494f9b63a647352", "is_disabled": 0, "is_reserved": 0}, {"rental_uris": {"ios": "https://dc.lft.to/lastmile_qr_scan", "android": "https://dc.lft.to/lastmile_qr_scan"}, "lon": -77.1250715, "type": "electric_bike", "fusion_lat": 0.0, "lat": 39.024271666666664, "name": "778878faf898448a5a9e1aa53e6efd7a", "fusion_lon": 0.0, "bike_id": "778878faf898448a5a9e1aa53e6efd7a", "is_disabled": 0, "is_reserved": 0}, {"rental_uris": {"ios": "https://dc.lft.to/lastmile_qr_scan", "android": "https://dc.lft.to/lastmile_qr_scan"}, "lon": -77.03289133333334, "type": "electric_scooter", "fusion_lat": 0.0, "lat": 38.93490883333333, "name": "55fa59454a766d1afcbcc23694929d47", "fusion_lon": 0.0, "bike_id": "55fa59454a766d1afcbcc23694929d47", "is_disabled": 0, "is_reserved": 0}, {"rental_uris": {"ios": "https://dc.lft.to/lastmile_qr_scan", "android": "https://dc.lft.to/lastmile_qr_scan"}, "lon": -77.0521685, "type": "electric_scooter", "fusion_lat": 0.0, "lat": 38.925920166666664, "name": "c53bffe60b8f073b1c743cf4184df571", "fusion_lon": 0.0, "bike_id": "c53bffe60b8f073b1c743cf4184df571", "is_disabled": 0, "is_reserved": 0}, {"rental_uris": {"ios": "https://dc.lft.to/lastmile_qr_scan", "android": "https://dc.lft.to/lastmile_qr_scan"}, "lon": -77.034034, "type": "electric_scooter", "fusion_lat": 0.0, "lat": 38.922701333333336, "name": "03b977954602783bc5a796409cebac6d", "fusion_lon": 0.0, "bike_id": "03b977954602783bc5a796409cebac6d", "is_disabled": 0, "is_reserved": 0}, {"rental_uris": {"ios": "https://dc.lft.to/lastmile_qr_scan", "android": "https://dc.lft.to/lastmile_qr_scan"}, "lon": -77.01971766666666, "type": "electric_bike", "fusion_lat": 0.0, "lat": 38.878456166666666, "name": "eff2b68be5c74b7b3d3534a06b66a499", "fusion_lon": 0.0, "bike_id": "eff2b68be5c74b7b3d3534a06b66a499", "is_disabled": 0, "is_reserved": 0}, {"rental_uris": {"ios": "https://dc.lft.to/lastmile_qr_scan", "android": "https://dc.lft.to/lastmile_qr_scan"}, "lon": -77.04028783333334, "type": "electric_scooter", "fusion_lat": 0.0, "lat": 38.918088, "name": "6dd4c90882887b66a77c43045dc2a6b5", "fusion_lon": 0.0, "bike_id": "6dd4c90882887b66a77c43045dc2a6b5", "is_disabled": 0, "is_reserved": 0}, {"rental_uris": {"ios": "https://dc.lft.to/lastmile_qr_scan", "android": "https://dc.lft.to/lastmile_qr_scan"}, "lon": -76.995027, "type": "electric_scooter", "fusion_lat": 0.0, "lat": 38.927008, "name": "225505969236afa65ebc7b8d425da3a6", "fusion_lon": 0.0, "bike_id": "225505969236afa65ebc7b8d425da3a6", "is_disabled": 0, "is_reserved": 0}, {"rental_uris": {"ios": "https://dc.lft.to/lastmile_qr_scan", "android": "https://dc.lft.to/lastmile_qr_scan"}, "lon": -77.02605566666666, "type": "electric_scooter", "fusion_lat": 0.0, "lat": 38.919903, "name": "58a811f161872c3430f3313672260c1b", "fusion_lon": 0.0, "bike_id": "58a811f161872c3430f3313672260c1b", "is_disabled": 0, "is_reserved": 0}, {"rental_uris": {"ios": "https://dc.lft.to/lastmile_qr_scan", "android": "https://dc.lft.to/lastmile_qr_scan"}, "lon": -76.990689, "type": "electric_scooter", "fusion_lat": 0.0, "lat": 38.863593333333334, "name": "e12e7ce14b19736a8fdc43735beaf378", "fusion_lon": 0.0, "bike_id": "e12e7ce14b19736a8fdc43735beaf378", "is_disabled": 0, "is_reserved": 0}, {"rental_uris": {"ios": "https://dc.lft.to/lastmile_qr_scan", "android": "https://dc.lft.to/lastmile_qr_scan"}, "lon": -76.90442766666666, "type": "electric_bike", "fusion_lat": 0.0, "lat": 38.897755333333336, "name": "387f333017386dea6bcfaebe0e92cb65", "fusion_lon": 0.0, "bike_id": "387f333017386dea6bcfaebe0e92cb65", "is_disabled": 0, "is_reserved": 0}, {"rental_uris": {"ios": "https://dc.lft.to/lastmile_qr_scan", "android": "https://dc.lft.to/lastmile_qr_scan"}, "lon": -77.00675183333334, "type": "electric_scooter", "fusion_lat": 0.0, "lat": 38.916987166666665, "name": "e405ffc8e9181d8bf77972bb0ce77419", "fusion_lon": 0.0, "bike_id": "e405ffc8e9181d8bf77972bb0ce77419", "is_disabled": 0, "is_reserved": 0}, {"rental_uris": {"ios": "https://dc.lft.to/lastmile_qr_scan", "android": "https://dc.lft.to/lastmile_qr_scan"}, "lon": -77.04246666666667, "type": "electric_scooter", "fusion_lat": 0.0, "lat": 38.924296, "name": "891c780d30dbe9416b16747b2088ea94", "fusion_lon": 0.0, "bike_id": "891c780d30dbe9416b16747b2088ea94", "is_disabled": 0, "is_reserved": 0}, {"rental_uris": {"ios": "https://dc.lft.to/lastmile_qr_scan", "android": "https://dc.lft.to/lastmile_qr_scan"}, "lon": -77.01968483333333, "type": "electric_scooter", "fusion_lat": 0.0, "lat": 38.93413983333333, "name": "3beb3c35d37b7927812048e5f47ce61e", "fusion_lon": 0.0, "bike_id": "3beb3c35d37b7927812048e5f47ce61e", "is_disabled": 0, "is_reserved": 0}, {"rental_uris": {"ios": "https://dc.lft.to/lastmile_qr_scan", "android": "https://dc.lft.to/lastmile_qr_scan"}, "lon": -77.036596, "type": "electric_scooter", "fusion_lat": 0.0, "lat": 38.9212035, "name": "053e2b51148e6e773cd302ddfa2e5527", "fusion_lon": 0.0, "bike_id": "053e2b51148e6e773cd302ddfa2e5527", "is_disabled": 0, "is_reserved": 0}, {"rental_uris": {"ios": "https://dc.lft.to/lastmile_qr_scan", "android": "https://dc.lft.to/lastmile_qr_scan"}, "lon": -77.048312, "type": "electric_scooter", "fusion_lat": 0.0, "lat": 38.9203065, "name": "b4fb50ef1590a6391ffa032135550ad0", "fusion_lon": 0.0, "bike_id": "b4fb50ef1590a6391ffa032135550ad0", "is_disabled": 0, "is_reserved": 0}, {"rental_uris": {"ios": "https://dc.lft.to/lastmile_qr_scan", "android": "https://dc.lft.to/lastmile_qr_scan"}, "lon": -77.04993733333333, "type": "electric_scooter", "fusion_lat": 0.0, "lat": 38.90060583333333, "name": "ed8edfe2f1652e9c558acfdd363031e4", "fusion_lon": 0.0, "bike_id": "ed8edfe2f1652e9c558acfdd363031e4", "is_disabled": 0, "is_reserved": 0}, {"rental_uris": {"ios": "https://dc.lft.to/lastmile_qr_scan", "android": "https://dc.lft.to/lastmile_qr_scan"}, "lon": -76.99078666666666, "type": "electric_scooter", "fusion_lat": 0.0, "lat": 38.8935975, "name": "be317bc0456e06650508a72d28a430b6", "fusion_lon": 0.0, "bike_id": "be317bc0456e06650508a72d28a430b6", "is_disabled": 0, "is_reserved": 0}, {"rental_uris": {"ios": "https://dc.lft.to/lastmile_qr_scan", "android": "https://dc.lft.to/lastmile_qr_scan"}, "lon": -77.04202066666667, "type": "electric_scooter", "fusion_lat": 0.0, "lat": 38.921138166666665, "name": "228c25057aa9fa5d3c1e8b0a239e0255", "fusion_lon": 0.0, "bike_id": "228c25057aa9fa5d3c1e8b0a239e0255", "is_disabled": 0, "is_reserved": 0}, {"rental_uris": {"ios": "https://dc.lft.to/lastmile_qr_scan", "android": "https://dc.lft.to/lastmile_qr_scan"}, "lon": -76.98159833333334, "type": "electric_scooter", "fusion_lat": 0.0, "lat": 38.93299483333333, "name": "89c111d18260bcefac5840d0ed4cbd26", "fusion_lon": 0.0, "bike_id": "89c111d18260bcefac5840d0ed4cbd26", "is_disabled": 0, "is_reserved": 0}, {"rental_uris": {"ios": "https://dc.lft.to/lastmile_qr_scan", "android": "https://dc.lft.to/lastmile_qr_scan"}, "lon": -77.029597, "type": "electric_scooter", "fusion_lat": 0.0, "lat": 38.887490166666666, "name": "49a21d2584c4c1baa962e9de7896c35b", "fusion_lon": 0.0, "bike_id": "49a21d2584c4c1baa962e9de7896c35b", "is_disabled": 0, "is_reserved": 0}, {"rental_uris": {"ios": "https://dc.lft.to/lastmile_qr_scan", "android": "https://dc.lft.to/lastmile_qr_scan"}, "lon": -77.04367766666667, "type": "electric_scooter", "fusion_lat": 0.0, "lat": 38.93336683333333, "name": "7886a79a3bd026cbeb1de85a45fb1e42", "fusion_lon": 0.0, "bike_id": "7886a79a3bd026cbeb1de85a45fb1e42", "is_disabled": 0, "is_reserved": 0}, {"rental_uris": {"ios": "https://dc.lft.to/lastmile_qr_scan", "android": "https://dc.lft.to/lastmile_qr_scan"}, "lon": -76.985456, "type": "electric_scooter", "fusion_lat": 0.0, "lat": 38.90420816666666, "name": "8e816d0885747538e562766cffe28062", "fusion_lon": 0.0, "bike_id": "8e816d0885747538e562766cffe28062", "is_disabled": 0, "is_reserved": 0}, {"rental_uris": {"ios": "https://dc.lft.to/lastmile_qr_scan", "android": "https://dc.lft.to/lastmile_qr_scan"}, "lon": -77.03238083333333, "type": "electric_scooter", "fusion_lat": 0.0, "lat": 38.927603833333336, "name": "96424e80430462cd55475f2031d54d1d", "fusion_lon": 0.0, "bike_id": "96424e80430462cd55475f2031d54d1d", "is_disabled": 0, "is_reserved": 0}, {"rental_uris": {"ios": "https://dc.lft.to/lastmile_qr_scan", "android": "https://dc.lft.to/lastmile_qr_scan"}, "lon": -76.98072433333333, "type": "electric_scooter", "fusion_lat": 0.0, "lat": 38.901717166666664, "name": "8f3135e97b4ea4ef708c6494217c12a4", "fusion_lon": 0.0, "bike_id": "8f3135e97b4ea4ef708c6494217c12a4", "is_disabled": 0, "is_reserved": 0}, {"rental_uris": {"ios": "https://dc.lft.to/lastmile_qr_scan", "android": "https://dc.lft.to/lastmile_qr_scan"}, "lon": -76.9392665, "type": "electric_scooter", "fusion_lat": 0.0, "lat": 38.8929785, "name": "b97816cfa4460d0b1ad341159c7edd60", "fusion_lon": 0.0, "bike_id": "b97816cfa4460d0b1ad341159c7edd60", "is_disabled": 0, "is_reserved": 0}, {"rental_uris": {"ios": "https://dc.lft.to/lastmile_qr_scan", "android": "https://dc.lft.to/lastmile_qr_scan"}, "lon": -77.01431516666666, "type": "electric_scooter", "fusion_lat": 0.0, "lat": 38.90649633333334, "name": "612aab4d58ab5335faa9be3144356c27", "fusion_lon": 0.0, "bike_id": "612aab4d58ab5335faa9be3144356c27", "is_disabled": 0, "is_reserved": 0}, {"rental_uris": {"ios": "https://dc.lft.to/lastmile_qr_scan", "android": "https://dc.lft.to/lastmile_qr_scan"}, "lon": -77.0166005, "type": "electric_bike", "fusion_lat": 0.0, "lat": 38.881249833333335, "name": "55a6bdbd35a2c604855b5dbc71bcf9de", "fusion_lon": 0.0, "bike_id": "55a6bdbd35a2c604855b5dbc71bcf9de", "is_disabled": 0, "is_reserved": 0}, {"rental_uris": {"ios": "https://dc.lft.to/lastmile_qr_scan", "android": "https://dc.lft.to/lastmile_qr_scan"}, "lon": -76.94625733333334, "type": "electric_bike", "fusion_lat": 0.0, "lat": 38.832339, "name": "8b8af6619b979f87f4046e899140807a", "fusion_lon": 0.0, "bike_id": "8b8af6619b979f87f4046e899140807a", "is_disabled": 0, "is_reserved": 0}, {"rental_uris": {"ios": "https://dc.lft.to/lastmile_qr_scan", "android": "https://dc.lft.to/lastmile_qr_scan"}, "lon": -77.00711366666667, "type": "electric_scooter", "fusion_lat": 0.0, "lat": 38.88493183333333, "name": "0cf2c58db2f554a3a31a6ec71530b6ee", "fusion_lon": 0.0, "bike_id": "0cf2c58db2f554a3a31a6ec71530b6ee", "is_disabled": 0, "is_reserved": 0}, {"rental_uris": {"ios": "https://dc.lft.to/lastmile_qr_scan", "android": "https://dc.lft.to/lastmile_qr_scan"}, "lon": -77.05465133333334, "type": "electric_scooter", "fusion_lat": 0.0, "lat": 38.8967265, "name": "a09b4c556adcb1ecd8b043f148a90fe1", "fusion_lon": 0.0, "bike_id": "a09b4c556adcb1ecd8b043f148a90fe1", "is_disabled": 0, "is_reserved": 0}, {"rental_uris": {"ios": "https://dc.lft.to/lastmile_qr_scan", "android": "https://dc.lft.to/lastmile_qr_scan"}, "lon": -77.02460083333334, "type": "electric_scooter", "fusion_lat": 0.0, "lat": 38.9793675, "name": "7aed43b10cbfa6cdb681e076ed594172", "fusion_lon": 0.0, "bike_id": "7aed43b10cbfa6cdb681e076ed594172", "is_disabled": 0, "is_reserved": 0}, {"rental_uris": {"ios": "https://dc.lft.to/lastmile_qr_scan", "android": "https://dc.lft.to/lastmile_qr_scan"}, "lon": -77.02420983333333, "type": "electric_scooter", "fusion_lat": 0.0, "lat": 38.918249833333334, "name": "feab74a84081f3ad311038ddc79f62d6", "fusion_lon": 0.0, "bike_id": "feab74a84081f3ad311038ddc79f62d6", "is_disabled": 0, "is_reserved": 0}, {"rental_uris": {"ios": "https://dc.lft.to/lastmile_qr_scan", "android": "https://dc.lft.to/lastmile_qr_scan"}, "lon": -77.04800483333334, "type": "electric_scooter", "fusion_lat": 0.0, "lat": 38.907247, "name": "f00ddee21eca5ec36b71a1be8f6c1264", "fusion_lon": 0.0, "bike_id": "f00ddee21eca5ec36b71a1be8f6c1264", "is_disabled": 0, "is_reserved": 0}, {"rental_uris": {"ios": "https://dc.lft.to/lastmile_qr_scan", "android": "https://dc.lft.to/lastmile_qr_scan"}, "lon": -77.04126083333334, "type": "electric_scooter", "fusion_lat": 0.0, "lat": 38.923479, "name": "595d996dea235390e03c54deadf60ac0", "fusion_lon": 0.0, "bike_id": "595d996dea235390e03c54deadf60ac0", "is_disabled": 0, "is_reserved": 0}, {"rental_uris": {"ios": "https://dc.lft.to/lastmile_qr_scan", "android": "https://dc.lft.to/lastmile_qr_scan"}, "lon": -77.02332383333334, "type": "electric_scooter", "fusion_lat": 0.0, "lat": 38.930485833333336, "name": "1ad24e7ab7c2bd2a1026ae12e06ab857", "fusion_lon": 0.0, "bike_id": "1ad24e7ab7c2bd2a1026ae12e06ab857", "is_disabled": 0, "is_reserved": 0}, {"rental_uris": {"ios": "https://dc.lft.to/lastmile_qr_scan", "android": "https://dc.lft.to/lastmile_qr_scan"}, "lon": -77.05036983333333, "type": "electric_scooter", "fusion_lat": 0.0, "lat": 38.896564833333336, "name": "12d441a8893aba85caec2696fe8a239f", "fusion_lon": 0.0, "bike_id": "12d441a8893aba85caec2696fe8a239f", "is_disabled": 0, "is_reserved": 0}, {"rental_uris": {"ios": "https://dc.lft.to/lastmile_qr_scan", "android": "https://dc.lft.to/lastmile_qr_scan"}, "lon": -76.97328533333334, "type": "electric_bike", "fusion_lat": 0.0, "lat": 38.85064966666667, "name": "e5a7c23f7752adfbaa2e998ba195e1a0", "fusion_lon": 0.0, "bike_id": "e5a7c23f7752adfbaa2e998ba195e1a0", "is_disabled": 0, "is_reserved": 0}, {"rental_uris": {"ios": "https://dc.lft.to/lastmile_qr_scan", "android": "https://dc.lft.to/lastmile_qr_scan"}, "lon": -77.04611666666666, "type": "electric_scooter", "fusion_lat": 0.0, "lat": 38.90243366666667, "name": "17a9b0dc517c78e223f0f2ad92ec3dee", "fusion_lon": 0.0, "bike_id": "17a9b0dc517c78e223f0f2ad92ec3dee", "is_disabled": 0, "is_reserved": 0}, {"rental_uris": {"ios": "https://dc.lft.to/lastmile_qr_scan", "android": "https://dc.lft.to/lastmile_qr_scan"}, "lon": -77.0527615, "type": "electric_scooter", "fusion_lat": 0.0, "lat": 38.91008683333333, "name": "4772f6913121d33e7ab9afc79b7a72b6", "fusion_lon": 0.0, "bike_id": "4772f6913121d33e7ab9afc79b7a72b6", "is_disabled": 0, "is_reserved": 0}, {"rental_uris": {"ios": "https://dc.lft.to/lastmile_qr_scan", "android": "https://dc.lft.to/lastmile_qr_scan"}, "lon": -77.03807233333333, "type": "electric_scooter", "fusion_lat": 0.0, "lat": 38.92197083333333, "name": "293d0c87c6ee6d248811836db467537e", "fusion_lon": 0.0, "bike_id": "293d0c87c6ee6d248811836db467537e", "is_disabled": 0, "is_reserved": 0}, {"rental_uris": {"ios": "https://dc.lft.to/lastmile_qr_scan", "android": "https://dc.lft.to/lastmile_qr_scan"}, "lon": -77.03935866666667, "type": "electric_scooter", "fusion_lat": 0.0, "lat": 38.902749, "name": "f0e7478036472d55529cadb0da17c0a0", "fusion_lon": 0.0, "bike_id": "f0e7478036472d55529cadb0da17c0a0", "is_disabled": 0, "is_reserved": 0}, {"rental_uris": {"ios": "https://dc.lft.to/lastmile_qr_scan", "android": "https://dc.lft.to/lastmile_qr_scan"}, "lon": -77.036771, "type": "electric_scooter", "fusion_lat": 0.0, "lat": 38.929919166666664, "name": "928704e003f009d387a7c2cb6487cbd8", "fusion_lon": 0.0, "bike_id": "928704e003f009d387a7c2cb6487cbd8", "is_disabled": 0, "is_reserved": 0}, {"rental_uris": {"ios": "https://dc.lft.to/lastmile_qr_scan", "android": "https://dc.lft.to/lastmile_qr_scan"}, "lon": -77.03086883333333, "type": "electric_scooter", "fusion_lat": 0.0, "lat": 38.904466166666666, "name": "0ceba6b24b154bbbf0d79863c4263381", "fusion_lon": 0.0, "bike_id": "0ceba6b24b154bbbf0d79863c4263381", "is_disabled": 0, "is_reserved": 0}, {"rental_uris": {"ios": "https://dc.lft.to/lastmile_qr_scan", "android": "https://dc.lft.to/lastmile_qr_scan"}, "lon": -76.98889183333333, "type": "electric_scooter", "fusion_lat": 0.0, "lat": 38.86659566666667, "name": "66ee329c5cd33e8b44098091bb827fb2", "fusion_lon": 0.0, "bike_id": "66ee329c5cd33e8b44098091bb827fb2", "is_disabled": 0, "is_reserved": 0}, {"rental_uris": {"ios": "https://dc.lft.to/lastmile_qr_scan", "android": "https://dc.lft.to/lastmile_qr_scan"}, "lon": -77.03858833333334, "type": "electric_scooter", "fusion_lat": 0.0, "lat": 38.9030965, "name": "8fb88c22b02529805870392b0d209a77", "fusion_lon": 0.0, "bike_id": "8fb88c22b02529805870392b0d209a77", "is_disabled": 0, "is_reserved": 0}, {"rental_uris": {"ios": "https://dc.lft.to/lastmile_qr_scan", "android": "https://dc.lft.to/lastmile_qr_scan"}, "lon": -77.030041, "type": "electric_scooter", "fusion_lat": 0.0, "lat": 38.91256, "name": "d768eee0d89813ca070dd89733cde3ff", "fusion_lon": 0.0, "bike_id": "d768eee0d89813ca070dd89733cde3ff", "is_disabled": 0, "is_reserved": 0}, {"rental_uris": {"ios": "https://dc.lft.to/lastmile_qr_scan", "android": "https://dc.lft.to/lastmile_qr_scan"}, "lon": -77.07089933333333, "type": "electric_bike", "fusion_lat": 0.0, "lat": 38.9555625, "name": "c7270117eeb649b3fea41c5db7ec254f", "fusion_lon": 0.0, "bike_id": "c7270117eeb649b3fea41c5db7ec254f", "is_disabled": 0, "is_reserved": 0}, {"rental_uris": {"ios": "https://dc.lft.to/lastmile_qr_scan", "android": "https://dc.lft.to/lastmile_qr_scan"}, "lon": -76.931766, "type": "electric_scooter", "fusion_lat": 0.0, "lat": 38.89884, "name": "d9ae63226b0589ee698585f62aa4c861", "fusion_lon": 0.0, "bike_id": "d9ae63226b0589ee698585f62aa4c861", "is_disabled": 0, "is_reserved": 0}, {"rental_uris": {"ios": "https://dc.lft.to/lastmile_qr_scan", "android": "https://dc.lft.to/lastmile_qr_scan"}, "lon": -77.0688625, "type": "electric_scooter", "fusion_lat": 0.0, "lat": 38.90773466666667, "name": "0ae6f1c2910fbf07a525ff83eb37f04a", "fusion_lon": 0.0, "bike_id": "0ae6f1c2910fbf07a525ff83eb37f04a", "is_disabled": 0, "is_reserved": 0}, {"rental_uris": {"ios": "https://dc.lft.to/lastmile_qr_scan", "android": "https://dc.lft.to/lastmile_qr_scan"}, "lon": -77.02976483333333, "type": "electric_scooter", "fusion_lat": 0.0, "lat": 38.938826166666665, "name": "9c3a17ddc28ea18302cb864723bfbdcc", "fusion_lon": 0.0, "bike_id": "9c3a17ddc28ea18302cb864723bfbdcc", "is_disabled": 0, "is_reserved": 0}, {"rental_uris": {"ios": "https://dc.lft.to/lastmile_qr_scan", "android": "https://dc.lft.to/lastmile_qr_scan"}, "lon": -77.0307575, "type": "electric_scooter", "fusion_lat": 0.0, "lat": 38.897278, "name": "6e62bcceed45054b4dd6c053c97edf35", "fusion_lon": 0.0, "bike_id": "6e62bcceed45054b4dd6c053c97edf35", "is_disabled": 0, "is_reserved": 0}, {"rental_uris": {"ios": "https://dc.lft.to/lastmile_qr_scan", "android": "https://dc.lft.to/lastmile_qr_scan"}, "lon": -77.01186166666666, "type": "electric_scooter", "fusion_lat": 0.0, "lat": 38.911121333333334, "name": "89e24ce70923e4997fe75a1fed9a6ba0", "fusion_lon": 0.0, "bike_id": "89e24ce70923e4997fe75a1fed9a6ba0", "is_disabled": 0, "is_reserved": 0}, {"rental_uris": {"ios": "https://dc.lft.to/lastmile_qr_scan", "android": "https://dc.lft.to/lastmile_qr_scan"}, "lon": -77.02659966666667, "type": "electric_scooter", "fusion_lat": 0.0, "lat": 38.89585783333333, "name": "8fdd71337cf2e21f481b287755b02aeb", "fusion_lon": 0.0, "bike_id": "8fdd71337cf2e21f481b287755b02aeb", "is_disabled": 0, "is_reserved": 0}, {"rental_uris": {"ios": "https://dc.lft.to/lastmile_qr_scan", "android": "https://dc.lft.to/lastmile_qr_scan"}, "lon": -77.040663, "type": "electric_scooter", "fusion_lat": 0.0, "lat": 38.9238775, "name": "2dba1a09ee9103c348f493dab7b31f6b", "fusion_lon": 0.0, "bike_id": "2dba1a09ee9103c348f493dab7b31f6b", "is_disabled": 0, "is_reserved": 0}, {"rental_uris": {"ios": "https://dc.lft.to/lastmile_qr_scan", "android": "https://dc.lft.to/lastmile_qr_scan"}, "lon": -76.92372916666666, "type": "electric_bike", "fusion_lat": 0.0, "lat": 38.88375716666667, "name": "127c92ddf810adc0657e66191de6f2c8", "fusion_lon": 0.0, "bike_id": "127c92ddf810adc0657e66191de6f2c8", "is_disabled": 0, "is_reserved": 0}, {"rental_uris": {"ios": "https://dc.lft.to/lastmile_qr_scan", "android": "https://dc.lft.to/lastmile_qr_scan"}, "lon": -77.01220733333334, "type": "electric_scooter", "fusion_lat": 0.0, "lat": 38.912796, "name": "faa14cdf64c9f6fdffdac194952d7c91", "fusion_lon": 0.0, "bike_id": "faa14cdf64c9f6fdffdac194952d7c91", "is_disabled": 0, "is_reserved": 0}, {"rental_uris": {"ios": "https://dc.lft.to/lastmile_qr_scan", "android": "https://dc.lft.to/lastmile_qr_scan"}, "lon": -76.9977565, "type": "electric_bike", "fusion_lat": 0.0, "lat": 38.922834333333334, "name": "8c492ac0f6dd3cff56854a5b4f6c59dc", "fusion_lon": 0.0, "bike_id": "8c492ac0f6dd3cff56854a5b4f6c59dc", "is_disabled": 0, "is_reserved": 0}, {"rental_uris": {"ios": "https://dc.lft.to/lastmile_qr_scan", "android": "https://dc.lft.to/lastmile_qr_scan"}, "lon": -77.02428883333333, "type": "electric_scooter", "fusion_lat": 0.0, "lat": 38.9204275, "name": "0fb5f7e50d0f52824a5b99ab771f456f", "fusion_lon": 0.0, "bike_id": "0fb5f7e50d0f52824a5b99ab771f456f", "is_disabled": 0, "is_reserved": 0}, {"rental_uris": {"ios": "https://dc.lft.to/lastmile_qr_scan", "android": "https://dc.lft.to/lastmile_qr_scan"}, "lon": -77.02719666666667, "type": "electric_scooter", "fusion_lat": 0.0, "lat": 38.906909, "name": "9b460121db1cf5122146cf17abb1613c", "fusion_lon": 0.0, "bike_id": "9b460121db1cf5122146cf17abb1613c", "is_disabled": 0, "is_reserved": 0}, {"rental_uris": {"ios": "https://dc.lft.to/lastmile_qr_scan", "android": "https://dc.lft.to/lastmile_qr_scan"}, "lon": -77.1131595, "type": "electric_bike", "fusion_lat": 0.0, "lat": 38.8556585, "name": "d1a6bb9492193bd08473240ac1ef6e8d", "fusion_lon": 0.0, "bike_id": "d1a6bb9492193bd08473240ac1ef6e8d", "is_disabled": 0, "is_reserved": 0}, {"rental_uris": {"ios": "https://dc.lft.to/lastmile_qr_scan", "android": "https://dc.lft.to/lastmile_qr_scan"}, "lon": -77.0261695, "type": "electric_scooter", "fusion_lat": 0.0, "lat": 38.91693466666667, "name": "ed3082b59e64b16dfb34c3272a39f4f8", "fusion_lon": 0.0, "bike_id": "ed3082b59e64b16dfb34c3272a39f4f8", "is_disabled": 0, "is_reserved": 0}, {"rental_uris": {"ios": "https://dc.lft.to/lastmile_qr_scan", "android": "https://dc.lft.to/lastmile_qr_scan"}, "lon": -76.99502433333333, "type": "electric_scooter", "fusion_lat": 0.0, "lat": 38.899574, "name": "4516d7fc15ff6f2fff820ec4156e3a28", "fusion_lon": 0.0, "bike_id": "4516d7fc15ff6f2fff820ec4156e3a28", "is_disabled": 0, "is_reserved": 0}, {"rental_uris": {"ios": "https://dc.lft.to/lastmile_qr_scan", "android": "https://dc.lft.to/lastmile_qr_scan"}, "lon": -77.03224666666667, "type": "electric_scooter", "fusion_lat": 0.0, "lat": 38.92589566666667, "name": "f7797625c3ff2e2cfd03ed652ec37041", "fusion_lon": 0.0, "bike_id": "f7797625c3ff2e2cfd03ed652ec37041", "is_disabled": 0, "is_reserved": 0}, {"rental_uris": {"ios": "https://dc.lft.to/lastmile_qr_scan", "android": "https://dc.lft.to/lastmile_qr_scan"},