{"data": {"bikes": [{"lon": -77.01333333333334, "bike_id": "57fde7f8c38d881b7270e3cf171aaf08", "lat": 38.87926516666667, "fusion_lon": 0.0, "fusion_lat": 0.0, "type": "electric_scooter", "name": "57fde7f8c38d881b7270e3cf171aaf08", "is_disabled": 0, "rental_uris": {"ios": "https://dc.lft.to/lastmile_qr_scan", "android": "https://dc.lft.to/lastmile_qr_scan"}, "is_reserved": 0}, {"lon": -77.02416466666666, "bike_id": "1226eb0bbe8e2235bb1e4c6c634fd6e8", "lat": 38.90970016666667, "fusion_lon": 0.0, "fusion_lat": 0.0, "type": "electric_scooter", "name": "1226eb0bbe8e2235bb1e4c6c634fd6e8", "is_disabled": 0, "rental_uris": {"ios": "https://dc.lft.to/lastmile_qr_scan", "android": "https://dc.lft.to/lastmile_qr_scan"}, "is_reserved": 0}, {"lon": -77.05535483333334, "bike_id": "446015bfb406460fbffb8d661c053672", "lat": 38.93430716666667, "fusion_lon": 0.0, "fusion_lat": 0.0, "type": "electric_scooter", "name": "446015bfb406460fbffb8d661c053672", "is_disabled": 0, "rental_uris": {"ios": "https://dc.lft.to/lastmile_qr_scan", "android": "https://dc.lft.to/lastmile_qr_scan"}, "is_reserved": 0}, {"lon": -77.03501733333333, "bike_id": "59fcfd72f71a9ebb588a208b28761220", "lat": 38.93750633333333, "fusion_lon": 0.0, "fusion_lat": 0.0, "type": "electric_scooter", "name": "59fcfd72f71a9ebb588a208b28761220", "is_disabled": 0, "rental_uris": {"ios": "https://dc.lft.to/lastmile_qr_scan", "android": "https://dc.lft.to/lastmile_qr_scan"}, "is_reserved": 0}, {"lon": -77.03868233333333, "bike_id": "0445a6017c4d7a948d2e6fa4da50041d", "lat": 38.91546783333333, "fusion_lon": 0.0, "fusion_lat": 0.0, "type": "electric_scooter", "name": "0445a6017c4d7a948d2e6fa4da50041d", "is_disabled": 0, "rental_uris": {"ios": "https://dc.lft.to/lastmile_qr_scan", "android": "https://dc.lft.to/lastmile_qr_scan"}, "is_reserved": 0}, {"lon": -77.00604633333333, "bike_id": "999cbd613bec49bfa256d21ffdafb4f4", "lat": 38.90633183333333, "fusion_lon": 0.0, "fusion_lat": 0.0, "type": "electric_scooter", "name": "999cbd613bec49bfa256d21ffdafb4f4", "is_disabled": 0, "rental_uris": {"ios": "https://dc.lft.to/lastmile_qr_scan", "android": "https://dc.lft.to/lastmile_qr_scan"}, "is_reserved": 0}, {"lon": -76.988403, "bike_id": "c8a881a6efc3f95335f19e20533822bc", "lat": 38.90073783333333, "fusion_lon": 0.0, "fusion_lat": 0.0, "type": "electric_scooter", "name": "c8a881a6efc3f95335f19e20533822bc", "is_disabled": 0, "rental_uris": {"ios": "https://dc.lft.to/lastmile_qr_scan", "android": "https://dc.lft.to/lastmile_qr_scan"}, "is_reserved": 0}, {"lon": -77.0035705, "bike_id": "162baa308e83dd3062d34b9591bed518", "lat": 38.9204555, "fusion_lon": 0.0, "fusion_lat": 0.0, "type": "electric_scooter", "name": "162baa308e83dd3062d34b9591bed518", "is_disabled": 0, "rental_uris": {"ios": "https://dc.lft.to/lastmile_qr_scan", "android": "https://dc.lft.to/lastmile_qr_scan"}, "is_reserved": 0}, {"lon": -77.03849383333333, "bike_id": "e73ef098955685a2ef39dcb6ff171b15", "lat": 38.9024885, "fusion_lon": 0.0, "fusion_lat": 0.0, "type": "electric_scooter", "name": "e73ef098955685a2ef39dcb6ff171b15", "is_disabled": 0, "rental_uris": {"ios": "https://dc.lft.to/lastmile_qr_scan", "android": "https://dc.lft.to/lastmile_qr_scan"}, "is_reserved": 0}, {"lon": -77.03932683333333, "bike_id": "63e067148105a5090f1793f2402b81c9", "lat": 38.9157285, "fusion_lon": 0.0, "fusion_lat": 0.0, "type": "electric_scooter", "name": "63e067148105a5090f1793f2402b81c9", "is_disabled": 0, "rental_uris": {"ios": "https://dc.lft.to/lastmile_qr_scan", "android": "https://dc.lft.to/lastmile_qr_scan"}, "is_reserved": 0}, {"lon": -77.02367566666666, "bike_id": "7fa9a6d717ac2e65830a160daea933d1", "lat": 38.9376905, "fusion_lon": 0.0, "fusion_lat": 0.0, "type": "electric_scooter", "name": "7fa9a6d717ac2e65830a160daea933d1", "is_disabled": 0, "rental_uris": {"ios": "https://dc.lft.to/lastmile_qr_scan", "android": "https://dc.lft.to/lastmile_qr_scan"}, "is_reserved": 0}, {"lon": -77.03246633333333, "bike_id": "f244e88c9ca87179cf76207f5d023ca7", "lat": 38.937659, "fusion_lon": 0.0, "fusion_lat": 0.0, "type": "electric_scooter", "name": "f244e88c9ca87179cf76207f5d023ca7", "is_disabled": 0, "rental_uris": {"ios": "https://dc.lft.to/lastmile_qr_scan", "android": "https://dc.lft.to/lastmile_qr_scan"}, "is_reserved": 0}, {"lon": -77.04351516666667, "bike_id": "912ec465383a95b1da526cada3021431", "lat": 38.90766333333333, "fusion_lon": 0.0, "fusion_lat": 0.0, "type": "electric_scooter", "name": "912ec465383a95b1da526cada3021431", "is_disabled": 0, "rental_uris": {"ios": "https://dc.lft.to/lastmile_qr_scan", "android": "https://dc.lft.to/lastmile_qr_scan"}, "is_reserved": 0}, {"lon": -77.03409833333333, "bike_id": "3fc2ed0db4c62151684784f8ab30be8c", "lat": 38.922573166666666, "fusion_lon": 0.0, "fusion_lat": 0.0, "type": "electric_scooter", "name": "3fc2ed0db4c62151684784f8ab30be8c", "is_disabled": 0, "rental_uris": {"ios": "https://dc.lft.to/lastmile_qr_scan", "android": "https://dc.lft.to/lastmile_qr_scan"}, "is_reserved": 0}, {"lon": -77.05344233333334, "bike_id": "0179c7e009173955298f41ed4871859a", "lat": 38.90347, "fusion_lon": 0.0, "fusion_lat": 0.0, "type": "electric_scooter", "name": "0179c7e009173955298f41ed4871859a", "is_disabled": 0, "rental_uris": {"ios": "https://dc.lft.to/lastmile_qr_scan", "android": "https://dc.lft.to/lastmile_qr_scan"}, "is_reserved": 0}, {"lon": -77.064489, "bike_id": "35118a78338f60708c8a0db14e40a8a0", "lat": 38.9052145, "fusion_lon": 0.0, "fusion_lat": 0.0, "type": "electric_bike", "name": "35118a78338f60708c8a0db14e40a8a0", "is_disabled": 0, "rental_uris": {"ios": "https://dc.lft.to/lastmile_qr_scan", "android": "https://dc.lft.to/lastmile_qr_scan"}, "is_reserved": 0}, {"lon": -77.08458483333334, "bike_id": "c5014109e8d1d34b0dbf55ae45dbee92", "lat": 38.848191166666666, "fusion_lon": 0.0, "fusion_lat": 0.0, "type": "electric_bike", "name": "c5014109e8d1d34b0dbf55ae45dbee92", "is_disabled": 0, "rental_uris": {"ios": "https://dc.lft.to/lastmile_qr_scan", "android": "https://dc.lft.to/lastmile_qr_scan"}, "is_reserved": 0}, {"lon": -77.03265633333334, "bike_id": "e91699b458987ede928dd9d46a1b13bc", "lat": 38.91999283333333, "fusion_lon": 0.0, "fusion_lat": 0.0, "type": "electric_scooter", "name": "e91699b458987ede928dd9d46a1b13bc", "is_disabled": 0, "rental_uris": {"ios": "https://dc.lft.to/lastmile_qr_scan", "android": "https://dc.lft.to/lastmile_qr_scan"}, "is_reserved": 0}, {"lon": -77.04358416666666, "bike_id": "6a69f5e4aa5c80574de886bfb221eee0", "lat": 38.920564166666665, "fusion_lon": 0.0, "fusion_lat": 0.0, "type": "electric_scooter", "name": "6a69f5e4aa5c80574de886bfb221eee0", "is_disabled": 0, "rental_uris": {"ios": "https://dc.lft.to/lastmile_qr_scan", "android": "https://dc.lft.to/lastmile_qr_scan"}, "is_reserved": 0}, {"lon": -77.064023, "bike_id": "af9965a6cf50f09bab24dd438bd8eb86", "lat": 38.840593166666665, "fusion_lon": 0.0, "fusion_lat": 0.0, "type": "electric_bike", "name": "af9965a6cf50f09bab24dd438bd8eb86", "is_disabled": 0, "rental_uris": {"ios": "https://dc.lft.to/lastmile_qr_scan", "android": "https://dc.lft.to/lastmile_qr_scan"}, "is_reserved": 0}, {"lon": -77.0266355, "bike_id": "1f1e2571b3f930bf309080f6816627d7", "lat": 38.930980166666664, "fusion_lon": 0.0, "fusion_lat": 0.0, "type": "electric_scooter", "name": "1f1e2571b3f930bf309080f6816627d7", "is_disabled": 0, "rental_uris": {"ios": "https://dc.lft.to/lastmile_qr_scan", "android": "https://dc.lft.to/lastmile_qr_scan"}, "is_reserved": 0}, {"lon": -77.03895633333333, "bike_id": "757401d66b24c8afb9eb2b1fa1b19cbf", "lat": 38.922162166666666, "fusion_lon": 0.0, "fusion_lat": 0.0, "type": "electric_scooter", "name": "757401d66b24c8afb9eb2b1fa1b19cbf", "is_disabled": 0, "rental_uris": {"ios": "https://dc.lft.to/lastmile_qr_scan", "android": "https://dc.lft.to/lastmile_qr_scan"}, "is_reserved": 0}, {"lon": -77.03219516666667, "bike_id": "9a0b15b269f6f9fd0529f5e642657e45", "lat": 38.8921755, "fusion_lon": 0.0, "fusion_lat": 0.0, "type": "electric_scooter", "name": "9a0b15b269f6f9fd0529f5e642657e45", "is_disabled": 0, "rental_uris": {"ios": "https://dc.lft.to/lastmile_qr_scan", "android": "https://dc.lft.to/lastmile_qr_scan"}, "is_reserved": 0}, {"lon": -77.03646583333334, "bike_id": "1ee21686fc7cacc0ffabefb5c188948c", "lat": 38.921827, "fusion_lon": 0.0, "fusion_lat": 0.0, "type": "electric_scooter", "name": "1ee21686fc7cacc0ffabefb5c188948c", "is_disabled": 0, "rental_uris": {"ios": "https://dc.lft.to/lastmile_qr_scan", "android": "https://dc.lft.to/lastmile_qr_scan"}, "is_reserved": 0}, {"lon": -77.0244795, "bike_id": "3b2d44e80a57a56fb00a9c4776c7fe60", "lat": 38.8994945, "fusion_lon": 0.0, "fusion_lat": 0.0, "type": "electric_scooter", "name": "3b2d44e80a57a56fb00a9c4776c7fe60", "is_disabled": 0, "rental_uris": {"ios": "https://dc.lft.to/lastmile_qr_scan", "android": "https://dc.lft.to/lastmile_qr_scan"}, "is_reserved": 0}, {"lon": -76.97859283333334, "bike_id": "53234f79de5fa026a7002e3cef26c50e", "lat": 38.8707095, "fusion_lon": 0.0, "fusion_lat": 0.0, "type": "electric_scooter", "name": "53234f79de5fa026a7002e3cef26c50e", "is_disabled": 0, "rental_uris": {"ios": "https://dc.lft.to/lastmile_qr_scan", "android": "https://dc.lft.to/lastmile_qr_scan"}, "is_reserved": 0}, {"lon": -77.02374433333334, "bike_id": "68c66e8c1cbc661606b2f1d6770e4488", "lat": 38.9011065, "fusion_lon": 0.0, "fusion_lat": 0.0, "type": "electric_scooter", "name": "68c66e8c1cbc661606b2f1d6770e4488", "is_disabled": 0, "rental_uris": {"ios": "https://dc.lft.to/lastmile_qr_scan", "android": "https://dc.lft.to/lastmile_qr_scan"}, "is_reserved": 0}, {"lon": -77.029516, "bike_id": "e72455a7758a0468023381436adf56c8", "lat": 38.92174716666667, "fusion_lon": 0.0, "fusion_lat": 0.0, "type": "electric_scooter", "name": "e72455a7758a0468023381436adf56c8", "is_disabled": 0, "rental_uris": {"ios": "https://dc.lft.to/lastmile_qr_scan", "android": "https://dc.lft.to/lastmile_qr_scan"}, "is_reserved": 0}, {"lon": -77.023698, "bike_id": "8248c3e38b2f686055fbecc863d7267b", "lat": 38.92061016666667, "fusion_lon": 0.0, "fusion_lat": 0.0, "type": "electric_scooter", "name": "8248c3e38b2f686055fbecc863d7267b", "is_disabled": 0, "rental_uris": {"ios": "https://dc.lft.to/lastmile_qr_scan", "android": "https://dc.lft.to/lastmile_qr_scan"}, "is_reserved": 0}, {"lon": -77.017814, "bike_id": "49c72c38ef628612c1733a685359f6d2", "lat": 38.90130466666667, "fusion_lon": 0.0, "fusion_lat": 0.0, "type": "electric_scooter", "name": "49c72c38ef628612c1733a685359f6d2", "is_disabled": 0, "rental_uris": {"ios": "https://dc.lft.to/lastmile_qr_scan", "android": "https://dc.lft.to/lastmile_qr_scan"}, "is_reserved": 0}, {"lon": -77.0217195, "bike_id": "1568f327ca60d76ed3cdaeeafb72fbc6", "lat": 38.88747216666667, "fusion_lon": 0.0, "fusion_lat": 0.0, "type": "electric_scooter", "name": "1568f327ca60d76ed3cdaeeafb72fbc6", "is_disabled": 0, "rental_uris": {"ios": "https://dc.lft.to/lastmile_qr_scan", "android": "https://dc.lft.to/lastmile_qr_scan"}, "is_reserved": 0}, {"lon": -77.00196666666666, "bike_id": "5b19d14e745b2e8dd646989d88a1db9f", "lat": 38.91476333333333, "fusion_lon": 0.0, "fusion_lat": 0.0, "type": "electric_scooter", "name": "5b19d14e745b2e8dd646989d88a1db9f", "is_disabled": 0, "rental_uris": {"ios": "https://dc.lft.to/lastmile_qr_scan", "android": "https://dc.lft.to/lastmile_qr_scan"}, "is_reserved": 0}, {"lon": -76.99543833333334, "bike_id": "68519ce811afdbd1f796bc64c87a062a", "lat": 38.86257783333333, "fusion_lon": 0.0, "fusion_lat": 0.0, "type": "electric_scooter", "name": "68519ce811afdbd1f796bc64c87a062a", "is_disabled": 0, "rental_uris": {"ios": "https://dc.lft.to/lastmile_qr_scan", "android": "https://dc.lft.to/lastmile_qr_scan"}, "is_reserved": 0}, {"lon": -76.9953875, "bike_id": "e9b86d50d827cf5523d6167d955840b6", "lat": 38.92669516666667, "fusion_lon": 0.0, "fusion_lat": 0.0, "type": "electric_scooter", "name": "e9b86d50d827cf5523d6167d955840b6", "is_disabled": 0, "rental_uris": {"ios": "https://dc.lft.to/lastmile_qr_scan", "android": "https://dc.lft.to/lastmile_qr_scan"}, "is_reserved": 0}, {"lon": -77.03855766666666, "bike_id": "d8f9b2b22706b4db4197acb426271421", "lat": 38.931288, "fusion_lon": 0.0, "fusion_lat": 0.0, "type": "electric_scooter", "name": "d8f9b2b22706b4db4197acb426271421", "is_disabled": 0, "rental_uris": {"ios": "https://dc.lft.to/lastmile_qr_scan", "android": "https://dc.lft.to/lastmile_qr_scan"}, "is_reserved": 0}, {"lon": -77.02613433333333, "bike_id": "498962899b6cb5d09d031d77897be80c", "lat": 38.895929, "fusion_lon": 0.0, "fusion_lat": 0.0, "type": "electric_scooter", "name": "498962899b6cb5d09d031d77897be80c", "is_disabled": 0, "rental_uris": {"ios": "https://dc.lft.to/lastmile_qr_scan", "android": "https://dc.lft.to/lastmile_qr_scan"}, "is_reserved": 0}, {"lon": -76.93738083333334, "bike_id": "801d32479040ca05fb9fa412f075e780", "lat": 38.890075833333334, "fusion_lon": 0.0, "fusion_lat": 0.0, "type": "electric_scooter", "name": "801d32479040ca05fb9fa412f075e780", "is_disabled": 0, "rental_uris": {"ios": "https://dc.lft.to/lastmile_qr_scan", "android": "https://dc.lft.to/lastmile_qr_scan"}, "is_reserved": 0}, {"lon": -77.02996883333333, "bike_id": "f797c52a251ccfb352af18724d9a7a91", "lat": 38.924693833333336, "fusion_lon": 0.0, "fusion_lat": 0.0, "type": "electric_scooter", "name": "f797c52a251ccfb352af18724d9a7a91", "is_disabled": 0, "rental_uris": {"ios": "https://dc.lft.to/lastmile_qr_scan", "android": "https://dc.lft.to/lastmile_qr_scan"}, "is_reserved": 0}, {"lon": -76.93132916666667, "bike_id": "3646b72da054ea67ca3e1546b50b7299", "lat": 38.8761485, "fusion_lon": 0.0, "fusion_lat": 0.0, "type": "electric_scooter", "name": "3646b72da054ea67ca3e1546b50b7299", "is_disabled": 0, "rental_uris": {"ios": "https://dc.lft.to/lastmile_qr_scan", "android": "https://dc.lft.to/lastmile_qr_scan"}, "is_reserved": 0}, {"lon": -77.0543755, "bike_id": "927a86cd9c3899daed184c1288660a13", "lat": 38.928648333333335, "fusion_lon": 0.0, "fusion_lat": 0.0, "type": "electric_scooter", "name": "927a86cd9c3899daed184c1288660a13", "is_disabled": 0, "rental_uris": {"ios": "https://dc.lft.to/lastmile_qr_scan", "android": "https://dc.lft.to/lastmile_qr_scan"}, "is_reserved": 0}, {"lon": -77.03166216666666, "bike_id": "851301115c709309edc7dcd35ac7d8ac", "lat": 38.8922235, "fusion_lon": 0.0, "fusion_lat": 0.0, "type": "electric_scooter", "name": "851301115c709309edc7dcd35ac7d8ac", "is_disabled": 0, "rental_uris": {"ios": "https://dc.lft.to/lastmile_qr_scan", "android": "https://dc.lft.to/lastmile_qr_scan"}, "is_reserved": 0}, {"lon": -77.0240185, "bike_id": "006c6bca4478cc7a653eeaa1994bc8f2", "lat": 38.9369725, "fusion_lon": 0.0, "fusion_lat": 0.0, "type": "electric_scooter", "name": "006c6bca4478cc7a653eeaa1994bc8f2", "is_disabled": 0, "rental_uris": {"ios": "https://dc.lft.to/lastmile_qr_scan", "android": "https://dc.lft.to/lastmile_qr_scan"}, "is_reserved": 0}, {"lon": -77.01637283333334, "bike_id": "67243cb045269e907a300dfafaf2b977", "lat": 38.9289535, "fusion_lon": 0.0, "fusion_lat": 0.0, "type": "electric_scooter", "name": "67243cb045269e907a300dfafaf2b977", "is_disabled": 0, "rental_uris": {"ios": "https://dc.lft.to/lastmile_qr_scan", "android": "https://dc.lft.to/lastmile_qr_scan"}, "is_reserved": 0}, {"lon": -77.04918816666667, "bike_id": "7261548aeaf6ba96cf47d66950d37810", "lat": 38.90337533333334, "fusion_lon": 0.0, "fusion_lat": 0.0, "type": "electric_scooter", "name": "7261548aeaf6ba96cf47d66950d37810", "is_disabled": 0, "rental_uris": {"ios": "https://dc.lft.to/lastmile_qr_scan", "android": "https://dc.lft.to/lastmile_qr_scan"}, "is_reserved": 0}, {"lon": -77.00190266666667, "bike_id": "ce492655460969ea22bbc8368b48c87a", "lat": 38.9119165, "fusion_lon": 0.0, "fusion_lat": 0.0, "type": "electric_scooter", "name": "ce492655460969ea22bbc8368b48c87a", "is_disabled": 0, "rental_uris": {"ios": "https://dc.lft.to/lastmile_qr_scan", "android": "https://dc.lft.to/lastmile_qr_scan"}, "is_reserved": 0}, {"lon": -77.00316316666667, "bike_id": "a61d8ca0206c80e59454c03e45038cf6", "lat": 38.919025, "fusion_lon": 0.0, "fusion_lat": 0.0, "type": "electric_bike", "name": "a61d8ca0206c80e59454c03e45038cf6", "is_disabled": 0, "rental_uris": {"ios": "https://dc.lft.to/lastmile_qr_scan", "android": "https://dc.lft.to/lastmile_qr_scan"}, "is_reserved": 0}, {"lon": -77.0634925, "bike_id": "e2e5d577784126cdbcdcaa43167b956c", "lat": 38.94448466666667, "fusion_lon": 0.0, "fusion_lat": 0.0, "type": "electric_scooter", "name": "e2e5d577784126cdbcdcaa43167b956c", "is_disabled": 0, "rental_uris": {"ios": "https://dc.lft.to/lastmile_qr_scan", "android": "https://dc.lft.to/lastmile_qr_scan"}, "is_reserved": 0}, {"lon": -77.03856616666667, "bike_id": "29562a31fbdd2128763c0f24f61dbd4c", "lat": 38.91746116666667, "fusion_lon": 0.0, "fusion_lat": 0.0, "type": "electric_scooter", "name": "29562a31fbdd2128763c0f24f61dbd4c", "is_disabled": 0, "rental_uris": {"ios": "https://dc.lft.to/lastmile_qr_scan", "android": "https://dc.lft.to/lastmile_qr_scan"}, "is_reserved": 0}, {"lon": -77.04475983333333, "bike_id": "7db9462c882637e5f7a7251bde9290c6", "lat": 38.9213665, "fusion_lon": 0.0, "fusion_lat": 0.0, "type": "electric_scooter", "name": "7db9462c882637e5f7a7251bde9290c6", "is_disabled": 0, "rental_uris": {"ios": "https://dc.lft.to/lastmile_qr_scan", "android": "https://dc.lft.to/lastmile_qr_scan"}, "is_reserved": 0}, {"lon": -76.94154966666666, "bike_id": "682b591170bdc5cae60f40dc438068a7", "lat": 38.87903883333333, "fusion_lon": 0.0, "fusion_lat": 0.0, "type": "electric_scooter", "name": "682b591170bdc5cae60f40dc438068a7", "is_disabled": 0, "rental_uris": {"ios": "https://dc.lft.to/lastmile_qr_scan", "android": "https://dc.lft.to/lastmile_qr_scan"}, "is_reserved": 0}, {"lon": -77.007832, "bike_id": "614be55260d2292e313f975a753609c3", "lat": 38.89731866666666, "fusion_lon": 0.0, "fusion_lat": 0.0, "type": "electric_scooter", "name": "614be55260d2292e313f975a753609c3", "is_disabled": 0, "rental_uris": {"ios": "https://dc.lft.to/lastmile_qr_scan", "android": "https://dc.lft.to/lastmile_qr_scan"}, "is_reserved": 0}, {"lon": -77.04611316666667, "bike_id": "8334b62e1b34b7ad0cbe59a27f980946", "lat": 38.9218055, "fusion_lon": 0.0, "fusion_lat": 0.0, "type": "electric_scooter", "name": "8334b62e1b34b7ad0cbe59a27f980946", "is_disabled": 0, "rental_uris": {"ios": "https://dc.lft.to/lastmile_qr_scan", "android": "https://dc.lft.to/lastmile_qr_scan"}, "is_reserved": 0}, {"lon": -76.99274266666667, "bike_id": "902b646d49496e9fe7f06df7473aeb4c", "lat": 38.8976385, "fusion_lon": 0.0, "fusion_lat": 0.0, "type": "electric_scooter", "name": "902b646d49496e9fe7f06df7473aeb4c", "is_disabled": 0, "rental_uris": {"ios": "https://dc.lft.to/lastmile_qr_scan", "android": "https://dc.lft.to/lastmile_qr_scan"}, "is_reserved": 0}, {"lon": -77.00714983333333, "bike_id": "3e248ff3b6cac9930ab31f9c293c4fe1", "lat": 38.8849215, "fusion_lon": 0.0, "fusion_lat": 0.0, "type": "electric_scooter", "name": "3e248ff3b6cac9930ab31f9c293c4fe1", "is_disabled": 0, "rental_uris": {"ios": "https://dc.lft.to/lastmile_qr_scan", "android": "https://dc.lft.to/lastmile_qr_scan"}, "is_reserved": 0}, {"lon": -77.02199933333333, "bike_id": "8231d8c8193b020141433458e6290d0c", "lat": 38.90529133333333, "fusion_lon": 0.0, "fusion_lat": 0.0, "type": "electric_scooter", "name": "8231d8c8193b020141433458e6290d0c", "is_disabled": 0, "rental_uris": {"ios": "https://dc.lft.to/lastmile_qr_scan", "android": "https://dc.lft.to/lastmile_qr_scan"}, "is_reserved": 0}, {"lon": -77.007525, "bike_id": "fee510e6c6e205c08a5cfcfb1a2bd1d7", "lat": 38.87661716666667, "fusion_lon": 0.0, "fusion_lat": 0.0, "type": "electric_scooter", "name": "fee510e6c6e205c08a5cfcfb1a2bd1d7", "is_disabled": 0, "rental_uris": {"ios": "https://dc.lft.to/lastmile_qr_scan", "android": "https://dc.lft.to/lastmile_qr_scan"}, "is_reserved": 0}, {"lon": -76.98072883333333, "bike_id": "e180ad82f319d4baebfbe12f70cb065b", "lat": 38.901757333333336, "fusion_lon": 0.0, "fusion_lat": 0.0, "type": "electric_scooter", "name": "e180ad82f319d4baebfbe12f70cb065b", "is_disabled": 0, "rental_uris": {"ios": "https://dc.lft.to/lastmile_qr_scan", "android": "https://dc.lft.to/lastmile_qr_scan"}, "is_reserved": 0}, {"lon": -77.03267283333334, "bike_id": "adae973179ad7faee2645969c2aec5c0", "lat": 38.9291745, "fusion_lon": 0.0, "fusion_lat": 0.0, "type": "electric_scooter", "name": "adae973179ad7faee2645969c2aec5c0", "is_disabled": 0, "rental_uris": {"ios": "https://dc.lft.to/lastmile_qr_scan", "android": "https://dc.lft.to/lastmile_qr_scan"}, "is_reserved": 0}, {"lon": -77.00537866666667, "bike_id": "1fec56310d9c30250b1a80ba37462675", "lat": 38.9095765, "fusion_lon": 0.0, "fusion_lat": 0.0, "type": "electric_scooter", "name": "1fec56310d9c30250b1a80ba37462675", "is_disabled": 0, "rental_uris": {"ios": "https://dc.lft.to/lastmile_qr_scan", "android": "https://dc.lft.to/lastmile_qr_scan"}, "is_reserved": 0}, {"lon": -77.06192966666667, "bike_id": "dc814c8a5c0d93abb371e4f9e0b47b11", "lat": 38.91055083333333, "fusion_lon": 0.0, "fusion_lat": 0.0, "type": "electric_scooter", "name": "dc814c8a5c0d93abb371e4f9e0b47b11", "is_disabled": 0, "rental_uris": {"ios": "https://dc.lft.to/lastmile_qr_scan", "android": "https://dc.lft.to/lastmile_qr_scan"}, "is_reserved": 0}, {"lon": -76.98333183333334, "bike_id": "a942333f7546ba63cd0f39ce11c7cc78", "lat": 38.900822166666664, "fusion_lon": 0.0, "fusion_lat": 0.0, "type": "electric_scooter", "name": "a942333f7546ba63cd0f39ce11c7cc78", "is_disabled": 0, "rental_uris": {"ios": "https://dc.lft.to/lastmile_qr_scan", "android": "https://dc.lft.to/lastmile_qr_scan"}, "is_reserved": 0}, {"lon": -76.9866515, "bike_id": "d6eaf9c5692cf1684437c11dec345443", "lat": 38.90242883333333, "fusion_lon": 0.0, "fusion_lat": 0.0, "type": "electric_scooter", "name": "d6eaf9c5692cf1684437c11dec345443", "is_disabled": 0, "rental_uris": {"ios": "https://dc.lft.to/lastmile_qr_scan", "android": "https://dc.lft.to/lastmile_qr_scan"}, "is_reserved": 0}, {"lon": -77.03847133333333, "bike_id": "82bec5ec7db5f4c7709475f7c9729796", "lat": 38.90657783333333, "fusion_lon": 0.0, "fusion_lat": 0.0, "type": "electric_scooter", "name": "82bec5ec7db5f4c7709475f7c9729796", "is_disabled": 0, "rental_uris": {"ios": "https://dc.lft.to/lastmile_qr_scan", "android": "https://dc.lft.to/lastmile_qr_scan"}, "is_reserved": 0}, {"lon": -77.04714166666666, "bike_id": "6c7bb805de91a174646003a4d4a84dba", "lat": 38.92235083333333, "fusion_lon": 0.0, "fusion_lat": 0.0, "type": "electric_scooter", "name": "6c7bb805de91a174646003a4d4a84dba", "is_disabled": 0, "rental_uris": {"ios": "https://dc.lft.to/lastmile_qr_scan", "android": "https://dc.lft.to/lastmile_qr_scan"}, "is_reserved": 0}, {"lon": -77.0280095, "bike_id": "f83f99c55fa02ac87920056fc31cc3b8", "lat": 38.920162833333336, "fusion_lon": 0.0, "fusion_lat": 0.0, "type": "electric_scooter", "name": "f83f99c55fa02ac87920056fc31cc3b8", "is_disabled": 0, "rental_uris": {"ios": "https://dc.lft.to/lastmile_qr_scan", "android": "https://dc.lft.to/lastmile_qr_scan"}, "is_reserved": 0}, {"lon": -77.0427045, "bike_id": "a209d7b6c340876df55f2bb7c39433c8", "lat": 38.91790966666667, "fusion_lon": 0.0, "fusion_lat": 0.0, "type": "electric_scooter", "name": "a209d7b6c340876df55f2bb7c39433c8", "is_disabled": 0, "rental_uris": {"ios": "https://dc.lft.to/lastmile_qr_scan", "android": "https://dc.lft.to/lastmile_qr_scan"}, "is_reserved": 0}, {"lon": -77.00070366666667, "bike_id": "890e364122cf193b5c1d43d16c2ad142", "lat": 38.9243655, "fusion_lon": 0.0, "fusion_lat": 0.0, "type": "electric_scooter", "name": "890e364122cf193b5c1d43d16c2ad142", "is_disabled": 0, "rental_uris": {"ios": "https://dc.lft.to/lastmile_qr_scan", "android": "https://dc.lft.to/lastmile_qr_scan"}, "is_reserved": 0}, {"lon": -77.05227416666666, "bike_id": "e4270481fac0350597999fc991d74bf6", "lat": 38.900136833333335, "fusion_lon": 0.0, "fusion_lat": 0.0, "type": "electric_scooter", "name": "e4270481fac0350597999fc991d74bf6", "is_disabled": 0, "rental_uris": {"ios": "https://dc.lft.to/lastmile_qr_scan", "android": "https://dc.lft.to/lastmile_qr_scan"}, "is_reserved": 0}, {"lon": -77.0240755, "bike_id": "0e793fd3bbf1782325be128939bcabf4", "lat": 38.917589166666666, "fusion_lon": 0.0, "fusion_lat": 0.0, "type": "electric_scooter", "name": "0e793fd3bbf1782325be128939bcabf4", "is_disabled": 0, "rental_uris": {"ios": "https://dc.lft.to/lastmile_qr_scan", "android": "https://dc.lft.to/lastmile_qr_scan"}, "is_reserved": 0}, {"lon": -76.936106, "bike_id": "915465a42e559e8733e235595ce42489", "lat": 38.8968515, "fusion_lon": 0.0, "fusion_lat": 0.0, "type": "electric_scooter", "name": "915465a42e559e8733e235595ce42489", "is_disabled": 0, "rental_uris": {"ios": "https://dc.lft.to/lastmile_qr_scan", "android": "https://dc.lft.to/lastmile_qr_scan"}, "is_reserved": 0}, {"lon": -77.02896, "bike_id": "9993f499b2dfa8e0535941298cfa6bd7", "lat": 38.9038865, "fusion_lon": 0.0, "fusion_lat": 0.0, "type": "electric_scooter", "name": "9993f499b2dfa8e0535941298cfa6bd7", "is_disabled": 0, "rental_uris": {"ios": "https://dc.lft.to/lastmile_qr_scan", "android": "https://dc.lft.to/lastmile_qr_scan"}, "is_reserved": 0}, {"lon": -76.97619733333333, "bike_id": "d2deed87e0be223bb274cb650780c139", "lat": 38.90380866666667, "fusion_lon": 0.0, "fusion_lat": 0.0, "type": "electric_scooter", "name": "d2deed87e0be223bb274cb650780c139", "is_disabled": 0, "rental_uris": {"ios": "https://dc.lft.to/lastmile_qr_scan", "android": "https://dc.lft.to/lastmile_qr_scan"}, "is_reserved": 0}, {"lon": -77.01187983333334, "bike_id": "b43d153c9c281989576da2c033dfe0ff", "lat": 38.900282833333335, "fusion_lon": 0.0, "fusion_lat": 0.0, "type": "electric_scooter", "name": "b43d153c9c281989576da2c033dfe0ff", "is_disabled": 0, "rental_uris": {"ios": "https://dc.lft.to/lastmile_qr_scan", "android": "https://dc.lft.to/lastmile_qr_scan"}, "is_reserved": 0}, {"lon": -77.02763133333333, "bike_id": "82bb754364b44b56e37bfa8c31a8cea6", "lat": 38.95427166666666, "fusion_lon": 0.0, "fusion_lat": 0.0, "type": "electric_scooter", "name": "82bb754364b44b56e37bfa8c31a8cea6", "is_disabled": 0, "rental_uris": {"ios": "https://dc.lft.to/lastmile_qr_scan", "android": "https://dc.lft.to/lastmile_qr_scan"}, "is_reserved": 0}, {"lon": -77.0486585, "bike_id": "981cef1845f901c09eb18bbdf53d2318", "lat": 38.892208833333335, "fusion_lon": 0.0, "fusion_lat": 0.0, "type": "electric_scooter", "name": "981cef1845f901c09eb18bbdf53d2318", "is_disabled": 0, "rental_uris": {"ios": "https://dc.lft.to/lastmile_qr_scan", "android": "https://dc.lft.to/lastmile_qr_scan"}, "is_reserved": 0}, {"lon": -77.016542, "bike_id": "09403feade9e3413b49e2f63054ce342", "lat": 38.87708666666666, "fusion_lon": 0.0, "fusion_lat": 0.0, "type": "electric_scooter", "name": "09403feade9e3413b49e2f63054ce342", "is_disabled": 0, "rental_uris": {"ios": "https://dc.lft.to/lastmile_qr_scan", "android": "https://dc.lft.to/lastmile_qr_scan"}, "is_reserved": 0}, {"lon": -77.019615, "bike_id": "9d4369a374c37a3b8c00f7190b820b7d", "lat": 38.90092416666667, "fusion_lon": 0.0, "fusion_lat": 0.0, "type": "electric_scooter", "name": "9d4369a374c37a3b8c00f7190b820b7d", "is_disabled": 0, "rental_uris": {"ios": "https://dc.lft.to/lastmile_qr_scan", "android": "https://dc.lft.to/lastmile_qr_scan"}, "is_reserved": 0}, {"lon": -77.01996866666667, "bike_id": "37247b4b876c813c07c0e2acaeb45bcf", "lat": 38.966284333333334, "fusion_lon": 0.0, "fusion_lat": 0.0, "type": "electric_scooter", "name": "37247b4b876c813c07c0e2acaeb45bcf", "is_disabled": 0, "rental_uris": {"ios": "https://dc.lft.to/lastmile_qr_scan", "android": "https://dc.lft.to/lastmile_qr_scan"}, "is_reserved": 0}, {"lon": -77.02720033333334, "bike_id": "39822f870b88c3c9fae04962f23ab9a7", "lat": 38.910728, "fusion_lon": 0.0, "fusion_lat": 0.0, "type": "electric_scooter", "name": "39822f870b88c3c9fae04962f23ab9a7", "is_disabled": 0, "rental_uris": {"ios": "https://dc.lft.to/lastmile_qr_scan", "android": "https://dc.lft.to/lastmile_qr_scan"}, "is_reserved": 0}, {"lon": -76.98465383333334, "bike_id": "93c86be1814bddc377a36663c8564603", "lat": 38.903982166666665, "fusion_lon": 0.0, "fusion_lat": 0.0, "type": "electric_scooter", "name": "93c86be1814bddc377a36663c8564603", "is_disabled": 0, "rental_uris": {"ios": "https://dc.lft.to/lastmile_qr_scan", "android": "https://dc.lft.to/lastmile_qr_scan"}, "is_reserved": 0}, {"lon": -77.018708, "bike_id": "fd428d2c2870e59bde7d66333669ce80", "lat": 38.89863316666667, "fusion_lon": 0.0, "fusion_lat": 0.0, "type": "electric_scooter", "name": "fd428d2c2870e59bde7d66333669ce80", "is_disabled": 0, "rental_uris": {"ios": "https://dc.lft.to/lastmile_qr_scan", "android": "https://dc.lft.to/lastmile_qr_scan"}, "is_reserved": 0}, {"lon": -76.99454183333333, "bike_id": "15bd145ecab7d28250e2347235d3bb5a", "lat": 38.862157, "fusion_lon": 0.0, "fusion_lat": 0.0, "type": "electric_scooter", "name": "15bd145ecab7d28250e2347235d3bb5a", "is_disabled": 0, "rental_uris": {"ios": "https://dc.lft.to/lastmile_qr_scan", "android": "https://dc.lft.to/lastmile_qr_scan"}, "is_reserved": 0}, {"lon": -77.03625566666666, "bike_id": "affaaf867e56c655271026f883ab759a", "lat": 38.9367905, "fusion_lon": 0.0, "fusion_lat": 0.0, "type": "electric_scooter", "name": "affaaf867e56c655271026f883ab759a", "is_disabled": 0, "rental_uris": {"ios": "https://dc.lft.to/lastmile_qr_scan", "android": "https://dc.lft.to/lastmile_qr_scan"}, "is_reserved": 0}, {"lon": -77.0218835, "bike_id": "4f74d8fba41a5be3c29e6e8c7861b099", "lat": 38.9053865, "fusion_lon": 0.0, "fusion_lat": 0.0, "type": "electric_scooter", "name": "4f74d8fba41a5be3c29e6e8c7861b099", "is_disabled": 0, "rental_uris": {"ios": "https://dc.lft.to/lastmile_qr_scan", "android": "https://dc.lft.to/lastmile_qr_scan"}, "is_reserved": 0}, {"lon": -77.0281455, "bike_id": "961617fd05a58c59a4fe3e0c92bb383d", "lat": 38.881781, "fusion_lon": 0.0, "fusion_lat": 0.0, "type": "electric_scooter", "name": "961617fd05a58c59a4fe3e0c92bb383d", "is_disabled": 0, "rental_uris": {"ios": "https://dc.lft.to/lastmile_qr_scan", "android": "https://dc.lft.to/lastmile_qr_scan"}, "is_reserved": 0}, {"lon": -77.05465666666667, "bike_id": "aebacce440e9e64112ce7b915af1a9d8", "lat": 38.904295166666664, "fusion_lon": 0.0, "fusion_lat": 0.0, "type": "electric_scooter", "name": "aebacce440e9e64112ce7b915af1a9d8", "is_disabled": 0, "rental_uris": {"ios": "https://dc.lft.to/lastmile_qr_scan", "android": "https://dc.lft.to/lastmile_qr_scan"}, "is_reserved": 0}, {"lon": -77.01764533333333, "bike_id": "eb9673e0e4f91bbf2247173d357f0272", "lat": 38.90098583333334, "fusion_lon": 0.0, "fusion_lat": 0.0, "type": "electric_scooter", "name": "eb9673e0e4f91bbf2247173d357f0272", "is_disabled": 0, "rental_uris": {"ios": "https://dc.lft.to/lastmile_qr_scan", "android": "https://dc.lft.to/lastmile_qr_scan"}, "is_reserved": 0}, {"lon": -77.06838066666667, "bike_id": "64a15d7c5ee3fb31597fe82aedad3415", "lat": 38.80563083333333, "fusion_lon": 0.0, "fusion_lat": 0.0, "type": "electric_bike", "name": "64a15d7c5ee3fb31597fe82aedad3415", "is_disabled": 0, "rental_uris": {"ios": "https://dc.lft.to/lastmile_qr_scan", "android": "https://dc.lft.to/lastmile_qr_scan"}, "is_reserved": 0}, {"lon": -77.03286933333334, "bike_id": "5c6f660eaf2b01b3cbc9de598ad6526e", "lat": 38.941676, "fusion_lon": 0.0, "fusion_lat": 0.0, "type": "electric_scooter", "name": "5c6f660eaf2b01b3cbc9de598ad6526e", "is_disabled": 0, "rental_uris": {"ios": "https://dc.lft.to/lastmile_qr_scan", "android": "https://dc.lft.to/lastmile_qr_scan"}, "is_reserved": 0}, {"lon": -76.98087483333333, "bike_id": "dec3a6431491f9313bf11f7250255beb", "lat": 38.90711, "fusion_lon": 0.0, "fusion_lat": 0.0, "type": "electric_scooter", "name": "dec3a6431491f9313bf11f7250255beb", "is_disabled": 0, "rental_uris": {"ios": "https://dc.lft.to/lastmile_qr_scan", "android": "https://dc.lft.to/lastmile_qr_scan"}, "is_reserved": 0}, {"lon": -77.0434495, "bike_id": "2e6ea65627a0e4414f55b406c24f2c10", "lat": 38.907591833333335, "fusion_lon": 0.0, "fusion_lat": 0.0, "type": "electric_scooter", "name": "2e6ea65627a0e4414f55b406c24f2c10", "is_disabled": 0, "rental_uris": {"ios": "https://dc.lft.to/lastmile_qr_scan", "android": "https://dc.lft.to/lastmile_qr_scan"}, "is_reserved": 0}, {"lon": -76.987694, "bike_id": "00747009e06b56333df3d798cb5ab350", "lat": 38.857658, "fusion_lon": 0.0, "fusion_lat": 0.0, "type": "electric_bike", "name": "00747009e06b56333df3d798cb5ab350", "is_disabled": 0, "rental_uris": {"ios": "https://dc.lft.to/lastmile_qr_scan", "android": "https://dc.lft.to/lastmile_qr_scan"}, "is_reserved": 0}, {"lon": -77.032625, "bike_id": "1d37dfb7f07e4e6f1f6a3e1e75ab9452", "lat": 38.937241666666665, "fusion_lon": 0.0, "fusion_lat": 0.0, "type": "electric_scooter", "name": "1d37dfb7f07e4e6f1f6a3e1e75ab9452", "is_disabled": 0, "rental_uris": {"ios": "https://dc.lft.to/lastmile_qr_scan", "android": "https://dc.lft.to/lastmile_qr_scan"}, "is_reserved": 0}, {"lon": -77.02762216666666, "bike_id": "d0ec77a39f6649051b7be0385c3fdfa3", "lat": 38.95430833333333, "fusion_lon": 0.0, "fusion_lat": 0.0, "type": "electric_scooter", "name": "d0ec77a39f6649051b7be0385c3fdfa3", "is_disabled": 0, "rental_uris": {"ios": "https://dc.lft.to/lastmile_qr_scan", "android": "https://dc.lft.to/lastmile_qr_scan"}, "is_reserved": 0}, {"lon": -77.03336366666667, "bike_id": "e2752fe9de1d81a46089d7b21f41f842", "lat": 38.91564566666667, "fusion_lon": 0.0, "fusion_lat": 0.0, "type": "electric_scooter", "name": "e2752fe9de1d81a46089d7b21f41f842", "is_disabled": 0, "rental_uris": {"ios": "https://dc.lft.to/lastmile_qr_scan", "android": "https://dc.lft.to/lastmile_qr_scan"}, "is_reserved": 0}, {"lon": -77.067259, "bike_id": "bb700c87264639242b8c99cf8293a3d4", "lat": 38.914875333333335, "fusion_lon": 0.0, "fusion_lat": 0.0, "type": "electric_scooter", "name": "bb700c87264639242b8c99cf8293a3d4", "is_disabled": 0, "rental_uris": {"ios": "https://dc.lft.to/lastmile_qr_scan", "android": "https://dc.lft.to/lastmile_qr_scan"}, "is_reserved": 0}, {"lon": -77.003341, "bike_id": "6fdef1910f328aa44cf2f4f6340a0d56", "lat": 38.89731416666667, "fusion_lon": 0.0, "fusion_lat": 0.0, "type": "electric_scooter", "name": "6fdef1910f328aa44cf2f4f6340a0d56", "is_disabled": 0, "rental_uris": {"ios": "https://dc.lft.to/lastmile_qr_scan", "android": "https://dc.lft.to/lastmile_qr_scan"}, "is_reserved": 0}, {"lon": -77.05451883333333, "bike_id": "6052cbe778f075067c1469746e949d93", "lat": 38.92866633333333, "fusion_lon": 0.0, "fusion_lat": 0.0, "type": "electric_scooter", "name": "6052cbe778f075067c1469746e949d93", "is_disabled": 0, "rental_uris": {"ios": "https://dc.lft.to/lastmile_qr_scan", "android": "https://dc.lft.to/lastmile_qr_scan"}, "is_reserved": 0}, {"lon": -76.98715116666666, "bike_id": "bb85968a62dc79b9cb4beffd8ad26440", "lat": 38.866276, "fusion_lon": 0.0, "fusion_lat": 0.0, "type": "electric_scooter", "name": "bb85968a62dc79b9cb4beffd8ad26440", "is_disabled": 0, "rental_uris": {"ios": "https://dc.lft.to/lastmile_qr_scan", "android": "https://dc.lft.to/lastmile_qr_scan"}, "is_reserved": 0}, {"lon": -77.0226285, "bike_id": "677df05b73f3ed126e7a2740c575f8aa", "lat": 38.89380883333333, "fusion_lon": 0.0, "fusion_lat": 0.0, "type": "electric_scooter", "name": "677df05b73f3ed126e7a2740c575f8aa", "is_disabled": 0, "rental_uris": {"ios": "https://dc.lft.to/lastmile_qr_scan", "android": "https://dc.lft.to/lastmile_qr_scan"}, "is_reserved": 0}, {"lon": -77.03338566666666, "bike_id": "099cd3486114a08f03f49bb34d7a2b67", "lat": 38.907279, "fusion_lon": 0.0, "fusion_lat": 0.0, "type": "electric_scooter", "name": "099cd3486114a08f03f49bb34d7a2b67", "is_disabled": 0, "rental_uris": {"ios": "https://dc.lft.to/lastmile_qr_scan", "android": "https://dc.lft.to/lastmile_qr_scan"}, "is_reserved": 0}, {"lon": -77.01184216666667, "bike_id": "5a3afbe6f14604ff45281497ea5d9b9e", "lat": 38.900311, "fusion_lon": 0.0, "fusion_lat": 0.0, "type": "electric_scooter", "name": "5a3afbe6f14604ff45281497ea5d9b9e", "is_disabled": 0, "rental_uris": {"ios": "https://dc.lft.to/lastmile_qr_scan", "android": "https://dc.lft.to/lastmile_qr_scan"}, "is_reserved": 0}, {"lon": -76.96061033333334, "bike_id": "9b99529d3384cd95c1d2ce6e3592b18e", "lat": 38.884020666666665, "fusion_lon": 0.0, "fusion_lat": 0.0, "type": "electric_bike", "name": "9b99529d3384cd95c1d2ce6e3592b18e", "is_disabled": 0, "rental_uris": {"ios": "https://dc.lft.to/lastmile_qr_scan", "android": "https://dc.lft.to/lastmile_qr_scan"}, "is_reserved": 0}, {"lon": -77.01437783333333, "bike_id": "bd4928c3fde976c873f07c6235adbab3", "lat": 38.87754616666667, "fusion_lon": 0.0, "fusion_lat": 0.0, "type": "electric_scooter", "name": "bd4928c3fde976c873f07c6235adbab3", "is_disabled": 0, "rental_uris": {"ios": "https://dc.lft.to/lastmile_qr_scan", "android": "https://dc.lft.to/lastmile_qr_scan"}, "is_reserved": 0}, {"lon": -76.95408083333334, "bike_id": "8f7b39a94bd1ed554ce3d44bfbfb4be0", "lat": 38.884662, "fusion_lon": 0.0, "fusion_lat": 0.0, "type": "electric_scooter", "name": "8f7b39a94bd1ed554ce3d44bfbfb4be0", "is_disabled": 0, "rental_uris": {"ios": "https://dc.lft.to/lastmile_qr_scan", "android": "https://dc.lft.to/lastmile_qr_scan"}, "is_reserved": 0}, {"lon": -77.021806, "bike_id": "62bc80fd69b136dba756a6e85fce5560", "lat": 38.914776333333336, "fusion_lon": 0.0, "fusion_lat": 0.0, "type": "electric_scooter", "name": "62bc80fd69b136dba756a6e85fce5560", "is_disabled": 0, "rental_uris": {"ios": "https://dc.lft.to/lastmile_qr_scan", "android": "https://dc.lft.to/lastmile_qr_scan"}, "is_reserved": 0}, {"lon": -77.03346833333333, "bike_id": "c5b36aff07cf48423b7b6443d506ec91", "lat": 38.91702016666667, "fusion_lon": 0.0, "fusion_lat": 0.0, "type": "electric_scooter", "name": "c5b36aff07cf48423b7b6443d506ec91", "is_disabled": 0, "rental_uris": {"ios": "https://dc.lft.to/lastmile_qr_scan", "android": "https://dc.lft.to/lastmile_qr_scan"}, "is_reserved": 0}, {"lon": -77.0237535, "bike_id": "edd726d2e1d1dec16970e7d5c27eb74f", "lat": 38.926612166666665, "fusion_lon": 0.0, "fusion_lat": 0.0, "type": "electric_scooter", "name": "edd726d2e1d1dec16970e7d5c27eb74f", "is_disabled": 0, "rental_uris": {"ios": "https://dc.lft.to/lastmile_qr_scan", "android": "https://dc.lft.to/lastmile_qr_scan"}, "is_reserved": 0}, {"lon": -77.03352516666666, "bike_id": "84dea0dbbca01dc7169be026e9fc330c", "lat": 38.899654166666664, "fusion_lon": 0.0, "fusion_lat": 0.0, "type": "electric_scooter", "name": "84dea0dbbca01dc7169be026e9fc330c", "is_disabled": 0, "rental_uris": {"ios": "https://dc.lft.to/lastmile_qr_scan", "android": "https://dc.lft.to/lastmile_qr_scan"}, "is_reserved": 0}, {"lon": -77.00636933333334, "bike_id": "69b3798136ba1b62ebe003b8b958b59b", "lat": 38.955986, "fusion_lon": 0.0, "fusion_lat": 0.0, "type": "electric_scooter", "name": "69b3798136ba1b62ebe003b8b958b59b", "is_disabled": 0, "rental_uris": {"ios": "https://dc.lft.to/lastmile_qr_scan", "android": "https://dc.lft.to/lastmile_qr_scan"}, "is_reserved": 0}, {"lon": -77.0110255, "bike_id": "1e1d5b5037c2681c39e7017a456040fa", "lat": 38.90380733333333, "fusion_lon": 0.0, "fusion_lat": 0.0, "type": "electric_scooter", "name": "1e1d5b5037c2681c39e7017a456040fa", "is_disabled": 0, "rental_uris": {"ios": "https://dc.lft.to/lastmile_qr_scan", "android": "https://dc.lft.to/lastmile_qr_scan"}, "is_reserved": 0}, {"lon": -77.02722266666666, "bike_id": "c1628506b2400bf9135e3aba73b48d7f", "lat": 38.9119235, "fusion_lon": 0.0, "fusion_lat": 0.0, "type": "electric_scooter", "name": "c1628506b2400bf9135e3aba73b48d7f", "is_disabled": 0, "rental_uris": {"ios": "https://dc.lft.to/lastmile_qr_scan", "android": "https://dc.lft.to/lastmile_qr_scan"}, "is_reserved": 0}, {"lon": -77.04899283333333, "bike_id": "1bcd5ab6772844ff3075fafd29e80454", "lat": 38.8900345, "fusion_lon": 0.0, "fusion_lat": 0.0, "type": "electric_scooter", "name": "1bcd5ab6772844ff3075fafd29e80454", "is_disabled": 0, "rental_uris": {"ios": "https://dc.lft.to/lastmile_qr_scan", "android": "https://dc.lft.to/lastmile_qr_scan"}, "is_reserved": 0}, {"lon": -77.01291366666666, "bike_id": "ef4cfd7d7ff528920b1fea2f61c27ea5", "lat": 38.91034916666667, "fusion_lon": 0.0, "fusion_lat": 0.0, "type": "electric_scooter", "name": "ef4cfd7d7ff528920b1fea2f61c27ea5", "is_disabled": 0, "rental_uris": {"ios": "https://dc.lft.to/lastmile_qr_scan", "android": "https://dc.lft.to/lastmile_qr_scan"}, "is_reserved": 0}, {"lon": -77.03673283333333, "bike_id": "a5c5b15afd12025b5b9e8133986899fd", "lat": 38.91867366666666, "fusion_lon": 0.0, "fusion_lat": 0.0, "type": "electric_scooter", "name": "a5c5b15afd12025b5b9e8133986899fd", "is_disabled": 0, "rental_uris": {"ios": "https://dc.lft.to/lastmile_qr_scan", "android": "https://dc.lft.to/lastmile_qr_scan"}, "is_reserved": 0}, {"lon": -77.02592266666667, "bike_id": "2242cc99258087e8d2cf843dbbe2b7d2", "lat": 38.904906833333335, "fusion_lon": 0.0, "fusion_lat": 0.0, "type": "electric_scooter", "name": "2242cc99258087e8d2cf843dbbe2b7d2", "is_disabled": 0, "rental_uris": {"ios": "https://dc.lft.to/lastmile_qr_scan", "android": "https://dc.lft.to/lastmile_qr_scan"}, "is_reserved": 0}, {"lon": -76.98938066666666, "bike_id": "3222a70b477f0127461fe6ee3b880ec8", "lat": 38.918351666666666, "fusion_lon": 0.0, "fusion_lat": 0.0, "type": "electric_scooter", "name": "3222a70b477f0127461fe6ee3b880ec8", "is_disabled": 0, "rental_uris": {"ios": "https://dc.lft.to/lastmile_qr_scan", "android": "https://dc.lft.to/lastmile_qr_scan"}, "is_reserved": 0}, {"lon": -77.05018416666667, "bike_id": "387e2074471b2144e3a4da5b2e1d82e9", "lat": 38.89458966666667, "fusion_lon": 0.0, "fusion_lat": 0.0, "type": "electric_scooter", "name": "387e2074471b2144e3a4da5b2e1d82e9", "is_disabled": 0, "rental_uris": {"ios": "https://dc.lft.to/lastmile_qr_scan", "android": "https://dc.lft.to/lastmile_qr_scan"}, "is_reserved": 0}, {"lon": -77.0450075, "bike_id": "908067b778eba270e6c954f7c6f6c15d", "lat": 38.9193045, "fusion_lon": 0.0, "fusion_lat": 0.0, "type": "electric_scooter", "name": "908067b778eba270e6c954f7c6f6c15d", "is_disabled": 0, "rental_uris": {"ios": "https://dc.lft.to/lastmile_qr_scan", "android": "https://dc.lft.to/lastmile_qr_scan"}, "is_reserved": 0}, {"lon": -77.0513695, "bike_id": "62ab5c41621e509f3b9285dd8b1bc6aa", "lat": 38.898544333333334, "fusion_lon": 0.0, "fusion_lat": 0.0, "type": "electric_scooter", "name": "62ab5c41621e509f3b9285dd8b1bc6aa", "is_disabled": 0, "rental_uris": {"ios": "https://dc.lft.to/lastmile_qr_scan", "android": "https://dc.lft.to/lastmile_qr_scan"}, "is_reserved": 0}, {"lon": -77.04872266666666, "bike_id": "3f26530d6b862f6da0b5f43642479cf7", "lat": 38.9097475, "fusion_lon": 0.0, "fusion_lat": 0.0, "type": "electric_scooter", "name": "3f26530d6b862f6da0b5f43642479cf7", "is_disabled": 0, "rental_uris": {"ios": "https://dc.lft.to/lastmile_qr_scan", "android": "https://dc.lft.to/lastmile_qr_scan"}, "is_reserved": 0}, {"lon": -77.02142116666667, "bike_id": "7911c4acfe2d745fcce203ff4d0a2a42", "lat": 38.894083, "fusion_lon": 0.0, "fusion_lat": 0.0, "type": "electric_scooter", "name": "7911c4acfe2d745fcce203ff4d0a2a42", "is_disabled": 0, "rental_uris": {"ios": "https://dc.lft.to/lastmile_qr_scan", "android": "https://dc.lft.to/lastmile_qr_scan"}, "is_reserved": 0}, {"lon": -76.9650215, "bike_id": "42a67d0d8237dd802d5f3dcff8f7df2b", "lat": 38.876462833333335, "fusion_lon": 0.0, "fusion_lat": 0.0, "type": "electric_scooter", "name": "42a67d0d8237dd802d5f3dcff8f7df2b", "is_disabled": 0, "rental_uris": {"ios": "https://dc.lft.to/lastmile_qr_scan", "android": "https://dc.lft.to/lastmile_qr_scan"}, "is_reserved": 0}, {"lon": -77.02801633333333, "bike_id": "00c8bbcc1ec09b2bf449a37095c4cd3e", "lat": 38.90730166666667, "fusion_lon": 0.0, "fusion_lat": 0.0, "type": "electric_scooter", "name": "00c8bbcc1ec09b2bf449a37095c4cd3e", "is_disabled": 0, "rental_uris": {"ios": "https://dc.lft.to/lastmile_qr_scan", "android": "https://dc.lft.to/lastmile_qr_scan"}, "is_reserved": 0}, {"lon": -77.05757683333333, "bike_id": "367e2a44b9c01c5897c7f300d517b6e2", "lat": 38.92490983333333, "fusion_lon": 0.0, "fusion_lat": 0.0, "type": "electric_bike", "name": "367e2a44b9c01c5897c7f300d517b6e2", "is_disabled": 0, "rental_uris": {"ios": "https://dc.lft.to/lastmile_qr_scan", "android": "https://dc.lft.to/lastmile_qr_scan"}, "is_reserved": 0}, {"lon": -76.99753916666667, "bike_id": "e4cfd629883b5f623e84ce73fb59a811", "lat": 38.887816666666666, "fusion_lon": 0.0, "fusion_lat": 0.0, "type": "electric_scooter", "name": "e4cfd629883b5f623e84ce73fb59a811", "is_disabled": 0, "rental_uris": {"ios": "https://dc.lft.to/lastmile_qr_scan", "android": "https://dc.lft.to/lastmile_qr_scan"}, "is_reserved": 0}, {"lon": -76.98541366666667, "bike_id": "8f66007c787cf0c8ff0bf2817278e445", "lat": 38.9250585, "fusion_lon": 0.0, "fusion_lat": 0.0, "type": "electric_bike", "name": "8f66007c787cf0c8ff0bf2817278e445", "is_disabled": 0, "rental_uris": {"ios": "https://dc.lft.to/lastmile_qr_scan", "android": "https://dc.lft.to/lastmile_qr_scan"}, "is_reserved": 0}, {"lon": -76.94199783333333, "bike_id": "5737345ac8dfc73c208b30f5c41ae0a9", "lat": 38.8937045, "fusion_lon": 0.0, "fusion_lat": 0.0, "type": "electric_scooter", "name": "5737345ac8dfc73c208b30f5c41ae0a9", "is_disabled": 0, "rental_uris": {"ios": "https://dc.lft.to/lastmile_qr_scan", "android": "https://dc.lft.to/lastmile_qr_scan"}, "is_reserved": 0}, {"lon": -77.01542283333333, "bike_id": "a3fe79f12d2a49fd86b0b8da252f1a36", "lat": 38.884939, "fusion_lon": 0.0, "fusion_lat": 0.0, "type": "electric_scooter", "name": "a3fe79f12d2a49fd86b0b8da252f1a36", "is_disabled": 0, "rental_uris": {"ios": "https://dc.lft.to/lastmile_qr_scan", "android": "https://dc.lft.to/lastmile_qr_scan"}, "is_reserved": 0}, {"lon": -77.03425816666666, "bike_id": "705de0062634102212d9af0138bc82b0", "lat": 38.92741433333333, "fusion_lon": 0.0, "fusion_lat": 0.0, "type": "electric_scooter", "name": "705de0062634102212d9af0138bc82b0", "is_disabled": 0, "rental_uris": {"ios": "https://dc.lft.to/lastmile_qr_scan", "android": "https://dc.lft.to/lastmile_qr_scan"}, "is_reserved": 0}, {"lon": -76.988432, "bike_id": "c78d52b0bb5fa098ae4ba70b3def59c2", "lat": 38.896643, "fusion_lon": 0.0, "fusion_lat": 0.0, "type": "electric_scooter", "name": "c78d52b0bb5fa098ae4ba70b3def59c2", "is_disabled": 0, "rental_uris": {"ios": "https://dc.lft.to/lastmile_qr_scan", "android": "https://dc.lft.to/lastmile_qr_scan"}, "is_reserved": 0}, {"lon": -77.1084335, "bike_id": "d3b0a1fd73468021b9bdde7b607976c4", "lat": 38.812022, "fusion_lon": 0.0, "fusion_lat": 0.0, "type": "electric_bike", "name": "d3b0a1fd73468021b9bdde7b607976c4", "is_disabled": 0, "rental_uris": {"ios": "https://dc.lft.to/lastmile_qr_scan", "android": "https://dc.lft.to/lastmile_qr_scan"}, "is_reserved": 0}, {"lon": -76.94682766666666, "bike_id": "c7dc092a64d901a4dddfa7cb2768c2a3", "lat": 38.88624166666666, "fusion_lon": 0.0, "fusion_lat": 0.0, "type": "electric_scooter", "name": "c7dc092a64d901a4dddfa7cb2768c2a3", "is_disabled": 0, "rental_uris": {"ios": "https://dc.lft.to/lastmile_qr_scan", "android": "https://dc.lft.to/lastmile_qr_scan"}, "is_reserved": 0}, {"lon": -77.016637, "bike_id": "de5e8c5937f87862baae4f64a6148c47", "lat": 38.8810755, "fusion_lon": 0.0, "fusion_lat": 0.0, "type": "electric_bike", "name": "de5e8c5937f87862baae4f64a6148c47", "is_disabled": 0, "rental_uris": {"ios": "https://dc.lft.to/lastmile_qr_scan", "android": "https://dc.lft.to/lastmile_qr_scan"}, "is_reserved": 0}, {"lon": -77.02308633333334, "bike_id": "16e7d11a9961790bd80e59707882df8f", "lat": 38.927255333333335, "fusion_lon": 0.0, "fusion_lat": 0.0, "type": "electric_scooter", "name": "16e7d11a9961790bd80e59707882df8f", "is_disabled": 0, "rental_uris": {"ios": "https://dc.lft.to/lastmile_qr_scan", "android": "https://dc.lft.to/lastmile_qr_scan"}, "is_reserved": 0}, {"lon": -77.02838266666667, "bike_id": "aa555e9b747d54ab197fa0adc0716d95", "lat": 38.887662666666664, "fusion_lon": 0.0, "fusion_lat": 0.0, "type": "electric_scooter", "name": "aa555e9b747d54ab197fa0adc0716d95", "is_disabled": 0, "rental_uris": {"ios": "https://dc.lft.to/lastmile_qr_scan", "android": "https://dc.lft.to/lastmile_qr_scan"}, "is_reserved": 0}, {"lon": -77.04128916666667, "bike_id": "39f0960d8a6dbf07ba56865ff4e3cfab", "lat": 38.91558533333333, "fusion_lon": 0.0, "fusion_lat": 0.0, "type": "electric_scooter", "name": "39f0960d8a6dbf07ba56865ff4e3cfab", "is_disabled": 0, "rental_uris": {"ios": "https://dc.lft.to/lastmile_qr_scan", "android": "https://dc.lft.to/lastmile_qr_scan"}, "is_reserved": 0}, {"lon": -77.00006683333334, "bike_id": "f72f9d4ba8778195f138567e60681c06", "lat": 38.8974105, "fusion_lon": 0.0, "fusion_lat": 0.0, "type": "electric_scooter", "name": "f72f9d4ba8778195f138567e60681c06", "is_disabled": 0, "rental_uris": {"ios": "https://dc.lft.to/lastmile_qr_scan", "android": "https://dc.lft.to/lastmile_qr_scan"}, "is_reserved": 0}, {"lon": -77.022429, "bike_id": "34d4b5922ad1aab41272f61b4d5d671b", "lat": 38.9260055, "fusion_lon": 0.0, "fusion_lat": 0.0, "type": "electric_scooter", "name": "34d4b5922ad1aab41272f61b4d5d671b", "is_disabled": 0, "rental_uris": {"ios": "https://dc.lft.to/lastmile_qr_scan", "android": "https://dc.lft.to/lastmile_qr_scan"}, "is_reserved": 0}, {"lon": -77.02185833333333, "bike_id": "2c5893f617a6038397d615d0d3ef8ee8", "lat": 38.93952183333333, "fusion_lon": 0.0, "fusion_lat": 0.0, "type": "electric_scooter", "name": "2c5893f617a6038397d615d0d3ef8ee8", "is_disabled": 0, "rental_uris": {"ios": "https://dc.lft.to/lastmile_qr_scan", "android": "https://dc.lft.to/lastmile_qr_scan"}, "is_reserved": 0}, {"lon": -77.02273683333334, "bike_id": "a15a7d7b4cbc18d6970893f6a7a25d2a", "lat": 38.908478, "fusion_lon": 0.0, "fusion_lat": 0.0, "type": "electric_bike", "name": "a15a7d7b4cbc18d6970893f6a7a25d2a", "is_disabled": 0, "rental_uris": {"ios": "https://dc.lft.to/lastmile_qr_scan", "android": "https://dc.lft.to/lastmile_qr_scan"}, "is_reserved": 0}, {"lon": -77.0440545, "bike_id": "f5caad7d68e20105283e7b6cbfbd3e05", "lat": 38.9245375, "fusion_lon": 0.0, "fusion_lat": 0.0, "type": "electric_scooter", "name": "f5caad7d68e20105283e7b6cbfbd3e05", "is_disabled": 0, "rental_uris": {"ios": "https://dc.lft.to/lastmile_qr_scan", "android": "https://dc.lft.to/lastmile_qr_scan"}, "is_reserved": 0}, {"lon": -77.01268066666667, "bike_id": "9d81c639259bbdea301e9fe5bb889944", "lat": 38.91547116666667, "fusion_lon": 0.0, "fusion_lat": 0.0, "type": "electric_scooter", "name": "9d81c639259bbdea301e9fe5bb889944", "is_disabled": 0, "rental_uris": {"ios": "https://dc.lft.to/lastmile_qr_scan", "android": "https://dc.lft.to/lastmile_qr_scan"}, "is_reserved": 0}, {"lon": -77.02113016666667, "bike_id": "fd4d6475f76ef54c08d02c096ac222c7", "lat": 38.90599866666667, "fusion_lon": 0.0, "fusion_lat": 0.0, "type": "electric_scooter", "name": "fd4d6475f76ef54c08d02c096ac222c7", "is_disabled": 0, "rental_uris": {"ios": "https://dc.lft.to/lastmile_qr_scan", "android": "https://dc.lft.to/lastmile_qr_scan"}, "is_reserved": 0}, {"lon": -76.9892215, "bike_id": "97f8fbd081ec41b8aa25720670c63f6b", "lat": 38.85809783333333, "fusion_lon": 0.0, "fusion_lat": 0.0, "type": "electric_scooter", "name": "97f8fbd081ec41b8aa25720670c63f6b", "is_disabled": 0, "rental_uris": {"ios": "https://dc.lft.to/lastmile_qr_scan", "android": "https://dc.lft.to/lastmile_qr_scan"}, "is_reserved": 0}, {"lon": -77.04892783333334, "bike_id": "9be7fb42a7abcbef084f0c4341280bdc", "lat": 38.8922825, "fusion_lon": 0.0, "fusion_lat": 0.0, "type": "electric_scooter", "name": "9be7fb42a7abcbef084f0c4341280bdc", "is_disabled": 0, "rental_uris": {"ios": "https://dc.lft.to/lastmile_qr_scan", "android": "https://dc.lft.to/lastmile_qr_scan"}, "is_reserved": 0}, {"lon": -77.043928, "bike_id": "627ef00136edc60afa82966dcd4fbbab", "lat": 39.0471785, "fusion_lon": 0.0, "fusion_lat": 0.0, "type": "electric_bike", "name": "627ef00136edc60afa82966dcd4fbbab", "is_disabled": 0, "rental_uris": {"ios": "https://dc.lft.to/lastmile_qr_scan", "android": "https://dc.lft.to/lastmile_qr_scan"}, "is_reserved": 0}, {"lon": -77.0019925, "bike_id": "61044186b4d6b13ba638b3e3ce7f506c", "lat": 38.90241366666667, "fusion_lon": 0.0, "fusion_lat": 0.0, "type": "electric_scooter", "name": "61044186b4d6b13ba638b3e3ce7f506c", "is_disabled": 0, "rental_uris": {"ios": "https://dc.lft.to/lastmile_qr_scan", "android": "https://dc.lft.to/lastmile_qr_scan"}, "is_reserved": 0}, {"lon": -77.022096, "bike_id": "172e31d65f8cad3d4dc21af382c35957", "lat": 38.91416566666667, "fusion_lon": 0.0, "fusion_lat": 0.0, "type": "electric_scooter", "name": "172e31d65f8cad3d4dc21af382c35957", "is_disabled": 0, "rental_uris": {"ios": "https://dc.lft.to/lastmile_qr_scan", "android": "https://dc.lft.to/lastmile_qr_scan"}, "is_reserved": 0}, {"lon": -77.04680666666667, "bike_id": "e98aea02fa555170f35b8882073e4d89", "lat": 38.9061095, "fusion_lon": 0.0, "fusion_lat": 0.0, "type": "electric_scooter", "name": "e98aea02fa555170f35b8882073e4d89", "is_disabled": 0, "rental_uris": {"ios": "https://dc.lft.to/lastmile_qr_scan", "android": "https://dc.lft.to/lastmile_qr_scan"}, "is_reserved": 0}, {"lon": -76.94437316666667, "bike_id": "d9d416d65d6a2cb29b7beba734914540", "lat": 38.90043383333333, "fusion_lon": 0.0, "fusion_lat": 0.0, "type": "electric_scooter", "name": "d9d416d65d6a2cb29b7beba734914540", "is_disabled": 0, "rental_uris": {"ios": "https://dc.lft.to/lastmile_qr_scan", "android": "https://dc.lft.to/lastmile_qr_scan"}, "is_reserved": 0}, {"lon": -77.03294783333334, "bike_id": "0455c81f8564980bb058c62d30357d2e", "lat": 38.904651666666666, "fusion_lon": 0.0, "fusion_lat": 0.0, "type": "electric_scooter", "name": "0455c81f8564980bb058c62d30357d2e", "is_disabled": 0, "rental_uris": {"ios": "https://dc.lft.to/lastmile_qr_scan", "android": "https://dc.lft.to/lastmile_qr_scan"}, "is_reserved": 0}, {"lon": -76.96880866666666, "bike_id": "57ab3705762c44fb2162fa4535853f8b", "lat": 38.955806333333335, "fusion_lon": 0.0, "fusion_lat": 0.0, "type": "electric_bike", "name": "57ab3705762c44fb2162fa4535853f8b", "is_disabled": 0, "rental_uris": {"ios": "https://dc.lft.to/lastmile_qr_scan", "android": "https://dc.lft.to/lastmile_qr_scan"}, "is_reserved": 0}, {"lon": -77.0309395, "bike_id": "fce868136021ef3b69787faa7dd47eb6", "lat": 38.931989, "fusion_lon": 0.0, "fusion_lat": 0.0, "type": "electric_scooter", "name": "fce868136021ef3b69787faa7dd47eb6", "is_disabled": 0, "rental_uris": {"ios": "https://dc.lft.to/lastmile_qr_scan", "android": "https://dc.lft.to/lastmile_qr_scan"}, "is_reserved": 0}, {"lon": -76.98359066666667, "bike_id": "295997d78654db6f4d239b27efa642dd", "lat": 38.9149715, "fusion_lon": 0.0, "fusion_lat": 0.0, "type": "electric_scooter", "name": "295997d78654db6f4d239b27efa642dd", "is_disabled": 0, "rental_uris": {"ios": "https://dc.lft.to/lastmile_qr_scan", "android": "https://dc.lft.to/lastmile_qr_scan"}, "is_reserved": 0}, {"lon": -76.93375933333333, "bike_id": "e74dd22c9d1fae796e3ee900bf374b4e", "lat": 38.898982333333336, "fusion_lon": 0.0, "fusion_lat": 0.0, "type": "electric_scooter", "name": "e74dd22c9d1fae796e3ee900bf374b4e", "is_disabled": 0, "rental_uris": {"ios": "https://dc.lft.to/lastmile_qr_scan", "android": "https://dc.lft.to/lastmile_qr_scan"}, "is_reserved": 0}, {"lon": -77.017658, "bike_id": "f9a7e8c28893ee5bbfb676aa8aa2518a", "lat": 38.921336333333336, "fusion_lon": 0.0, "fusion_lat": 0.0, "type": "electric_scooter", "name": "f9a7e8c28893ee5bbfb676aa8aa2518a", "is_disabled": 0, "rental_uris": {"ios": "https://dc.lft.to/lastmile_qr_scan", "android": "https://dc.lft.to/lastmile_qr_scan"}, "is_reserved": 0}, {"lon": -76.98500933333334, "bike_id": "408fa7d97f8416ee992a83834b7272ef", "lat": 38.92003666666667, "fusion_lon": 0.0, "fusion_lat": 0.0, "type": "electric_scooter", "name": "408fa7d97f8416ee992a83834b7272ef", "is_disabled": 0, "rental_uris": {"ios": "https://dc.lft.to/lastmile_qr_scan", "android": "https://dc.lft.to/lastmile_qr_scan"}, "is_reserved": 0}, {"lon": -76.98264383333333, "bike_id": "631a9e81cf0693a6ace9b72bdfc67bfe", "lat": 38.90854433333333, "fusion_lon": 0.0, "fusion_lat": 0.0, "type": "electric_scooter", "name": "631a9e81cf0693a6ace9b72bdfc67bfe", "is_disabled": 0, "rental_uris": {"ios": "https://dc.lft.to/lastmile_qr_scan", "android": "https://dc.lft.to/lastmile_qr_scan"}, "is_reserved": 0}, {"lon": -76.994106, "bike_id": "b024c1d3f422bc64cd0782af8005c8bf", "lat": 38.83137466666667, "fusion_lon": 0.0, "fusion_lat": 0.0, "type": "electric_bike", "name": "b024c1d3f422bc64cd0782af8005c8bf", "is_disabled": 0, "rental_uris": {"ios": "https://dc.lft.to/lastmile_qr_scan", "android": "https://dc.lft.to/lastmile_qr_scan"}, "is_reserved": 0}, {"lon": -77.01149933333333, "bike_id": "9f0333441cf77da4ed536000271c0c2d", "lat": 38.9140305, "fusion_lon": 0.0, "fusion_lat": 0.0, "type": "electric_scooter", "name": "9f0333441cf77da4ed536000271c0c2d", "is_disabled": 0, "rental_uris": {"ios": "https://dc.lft.to/lastmile_qr_scan", "android": "https://dc.lft.to/lastmile_qr_scan"}, "is_reserved": 0}, {"lon": -77.03066083333333, "bike_id": "17b55842b1597e6691975184897fdcd2", "lat": 38.90788933333333, "fusion_lon": 0.0, "fusion_lat": 0.0, "type": "electric_scooter", "name": "17b55842b1597e6691975184897fdcd2", "is_disabled": 0, "rental_uris": {"ios": "https://dc.lft.to/lastmile_qr_scan", "android": "https://dc.lft.to/lastmile_qr_scan"}, "is_reserved": 0}, {"lon": -77.03663266666666, "bike_id": "370ce8f7de1945e74896c479ce96ce82", "lat": 38.9174755, "fusion_lon": 0.0, "fusion_lat": 0.0, "type": "electric_scooter", "name": "370ce8f7de1945e74896c479ce96ce82", "is_disabled": 0, "rental_uris": {"ios": "https://dc.lft.to/lastmile_qr_scan", "android": "https://dc.lft.to/lastmile_qr_scan"}, "is_reserved": 0}, {"lon": -77.00987166666667, "bike_id": "df97640f9ffe03b40efe95ab70c95aa3", "lat": 38.896872, "fusion_lon": 0.0, "fusion_lat": 0.0, "type": "electric_scooter", "name": "df97640f9ffe03b40efe95ab70c95aa3", "is_disabled": 0, "rental_uris": {"ios": "https://dc.lft.to/lastmile_qr_scan", "android": "https://dc.lft.to/lastmile_qr_scan"}, "is_reserved": 0}, {"lon": -77.10089816666667, "bike_id": "832139cb54b211ed3aecacf0bf25c173", "lat": 38.959502666666666, "fusion_lon": 0.0, "fusion_lat": 0.0, "type": "electric_bike", "name": "832139cb54b211ed3aecacf0bf25c173", "is_disabled": 0, "rental_uris": {"ios": "https://dc.lft.to/lastmile_qr_scan", "android": "https://dc.lft.to/lastmile_qr_scan"}, "is_reserved": 0}, {"lon": -77.0256775, "bike_id": "2d86fec4512a25f15dca92e8fec526a5", "lat": 38.899398833333336, "fusion_lon": 0.0, "fusion_lat": 0.0, "type": "electric_scooter", "name": "2d86fec4512a25f15dca92e8fec526a5", "is_disabled": 0, "rental_uris": {"ios": "https://dc.lft.to/lastmile_qr_scan", "android": "https://dc.lft.to/lastmile_qr_scan"}, "is_reserved": 0}, {"lon": -77.02535166666667, "bike_id": "7da895e6acbab25276f5b34cd3330e56", "lat": 38.92742766666667, "fusion_lon": 0.0, "fusion_lat": 0.0, "type": "electric_scooter", "name": "7da895e6acbab25276f5b34cd3330e56", "is_disabled": 0, "rental_uris": {"ios": "https://dc.lft.to/lastmile_qr_scan", "android": "https://dc.lft.to/lastmile_qr_scan"}, "is_reserved": 0}, {"lon": -76.99484166666667, "bike_id": "4c8aaaf59499aad2e65694fe8e56767f", "lat": 38.9156985, "fusion_lon": 0.0, "fusion_lat": 0.0, "type": "electric_scooter", "name": "4c8aaaf59499aad2e65694fe8e56767f", "is_disabled": 0, "rental_uris": {"ios": "https://dc.lft.to/lastmile_qr_scan", "android": "https://dc.lft.to/lastmile_qr_scan"}, "is_reserved": 0}, {"lon": -77.00790783333333, "bike_id": "02a6c696d425fb8ebef614ae1c5acc00", "lat": 38.896668, "fusion_lon": 0.0, "fusion_lat": 0.0, "type": "electric_scooter", "name": "02a6c696d425fb8ebef614ae1c5acc00", "is_disabled": 0, "rental_uris": {"ios": "https://dc.lft.to/lastmile_qr_scan", "android": "https://dc.lft.to/lastmile_qr_scan"}, "is_reserved": 0}, {"lon": -76.98593416666667, "bike_id": "769c1d083960b9f1839c4352a82342ee", "lat": 38.908120833333335, "fusion_lon": 0.0, "fusion_lat": 0.0, "type": "electric_scooter", "name": "769c1d083960b9f1839c4352a82342ee", "is_disabled": 0, "rental_uris": {"ios": "https://dc.lft.to/lastmile_qr_scan", "android": "https://dc.lft.to/lastmile_qr_scan"}, "is_reserved": 0}, {"lon": -77.01176733333334, "bike_id": "5eb0dc4f2985d359c13989cdc9c5cd00", "lat": 38.87241366666667, "fusion_lon": 0.0, "fusion_lat": 0.0, "type": "electric_bike", "name": "5eb0dc4f2985d359c13989cdc9c5cd00", "is_disabled": 0, "rental_uris": {"ios": "https://dc.lft.to/lastmile_qr_scan", "android": "https://dc.lft.to/lastmile_qr_scan"}, "is_reserved": 0}, {"lon": -77.036224, "bike_id": "d7ed36c476ce1750bf3051de10043965", "lat": 38.937403833333335, "fusion_lon": 0.0, "fusion_lat": 0.0, "type": "electric_scooter", "name": "d7ed36c476ce1750bf3051de10043965", "is_disabled": 0, "rental_uris": {"ios": "https://dc.lft.to/lastmile_qr_scan", "android": "https://dc.lft.to/lastmile_qr_scan"}, "is_reserved": 0}, {"lon": -76.97931983333334, "bike_id": "91b005c2a22d49f07fc68162dcf93f8c", "lat": 38.906623, "fusion_lon": 0.0, "fusion_lat": 0.0, "type": "electric_bike", "name": "91b005c2a22d49f07fc68162dcf93f8c", "is_disabled": 0, "rental_uris": {"ios": "https://dc.lft.to/lastmile_qr_scan", "android": "https://dc.lft.to/lastmile_qr_scan"}, "is_reserved": 0}, {"lon": -77.034074, "bike_id": "d2cf7b16aa3b90603b545e74a76f0d9d", "lat": 38.91107916666667, "fusion_lon": 0.0, "fusion_lat": 0.0, "type": "electric_scooter", "name": "d2cf7b16aa3b90603b545e74a76f0d9d", "is_disabled": 0, "rental_uris": {"ios": "https://dc.lft.to/lastmile_qr_scan", "android": "https://dc.lft.to/lastmile_qr_scan"}, "is_reserved": 0}, {"lon": -76.9884725, "bike_id": "f16a675367954d7432bd4e470411c17d", "lat": 38.901281166666664, "fusion_lon": 0.0, "fusion_lat": 0.0, "type": "electric_scooter", "name": "f16a675367954d7432bd4e470411c17d", "is_disabled": 0, "rental_uris": {"ios": "https://dc.lft.to/lastmile_qr_scan", "android": "https://dc.lft.to/lastmile_qr_scan"}, "is_reserved": 0}, {"lon": -77.02188633333333, "bike_id": "cd7635620afe433057b4fce565fcd4cc", "lat": 38.910440333333334, "fusion_lon": 0.0, "fusion_lat": 0.0, "type": "electric_scooter", "name": "cd7635620afe433057b4fce565fcd4cc", "is_disabled": 0, "rental_uris": {"ios": "https://dc.lft.to/lastmile_qr_scan", "android": "https://dc.lft.to/lastmile_qr_scan"}, "is_reserved": 0}, {"lon": -77.02982833333333, "bike_id": "a3fd4bfa033185f731c9a16ff89879eb", "lat": 38.907198, "fusion_lon": 0.0, "fusion_lat": 0.0, "type": "electric_scooter", "name": "a3fd4bfa033185f731c9a16ff89879eb", "is_disabled": 0, "rental_uris": {"ios": "https://dc.lft.to/lastmile_qr_scan", "android": "https://dc.lft.to/lastmile_qr_scan"}, "is_reserved": 0}, {"lon": -77.0217195, "bike_id": "b7e1764d9ef3831e2f094658e0a79ad7", "lat": 38.887481, "fusion_lon": 0.0, "fusion_lat": 0.0, "type": "electric_scooter", "name": "b7e1764d9ef3831e2f094658e0a79ad7", "is_disabled": 0, "rental_uris": {"ios": "https://dc.lft.to/lastmile_qr_scan", "android": "https://dc.lft.to/lastmile_qr_scan"}, "is_reserved": 0}, {"lon": -76.99372866666667, "bike_id": "7cfd80d148518cf07a37a745bec3dd23", "lat": 38.923988666666666, "fusion_lon": 0.0, "fusion_lat": 0.0, "type": "electric_scooter", "name": "7cfd80d148518cf07a37a745bec3dd23", "is_disabled": 0, "rental_uris": {"ios": "https://dc.lft.to/lastmile_qr_scan", "android": "https://dc.lft.to/lastmile_qr_scan"}, "is_reserved": 0}, {"lon": -77.04827983333334, "bike_id": "1dbb465e80f5e9c0dc1d57a38799c6ff", "lat": 38.90375066666667, "fusion_lon": 0.0, "fusion_lat": 0.0, "type": "electric_scooter", "name": "1dbb465e80f5e9c0dc1d57a38799c6ff", "is_disabled": 0, "rental_uris": {"ios": "https://dc.lft.to/lastmile_qr_scan", "android": "https://dc.lft.to/lastmile_qr_scan"}, "is_reserved": 0}, {"lon": -77.00894783333334, "bike_id": "5f1a7af1db55444f2061433a8a7d9032", "lat": 38.92486866666667, "fusion_lon": 0.0, "fusion_lat": 0.0, "type": "electric_scooter", "name": "5f1a7af1db55444f2061433a8a7d9032", "is_disabled": 0, "rental_uris": {"ios": "https://dc.lft.to/lastmile_qr_scan", "android": "https://dc.lft.to/lastmile_qr_scan"}, "is_reserved": 0}, {"lon": -77.00497416666667, "bike_id": "65ecd0b1bef557c23ffb2dc8667a7b92", "lat": 38.896945, "fusion_lon": 0.0, "fusion_lat": 0.0, "type": "electric_scooter", "name": "65ecd0b1bef557c23ffb2dc8667a7b92", "is_disabled": 0, "rental_uris": {"ios": "https://dc.lft.to/lastmile_qr_scan", "android": "https://dc.lft.to/lastmile_qr_scan"}, "is_reserved": 0}, {"lon": -77.03122816666666, "bike_id": "add19af526a1057462bf4f684445b2ec", "lat": 38.959219833333336, "fusion_lon": 0.0, "fusion_lat": 0.0, "type": "electric_bike", "name": "add19af526a1057462bf4f684445b2ec", "is_disabled": 0, "rental_uris": {"ios": "https://dc.lft.to/lastmile_qr_scan", "android": "https://dc.lft.to/lastmile_qr_scan"}, "is_reserved": 0}, {"lon": -77.00565133333333, "bike_id": "e72c54d63598e9901c2e330476d67638", "lat": 38.905758666666664, "fusion_lon": 0.0, "fusion_lat": 0.0, "type": "electric_scooter", "name": "e72c54d63598e9901c2e330476d67638", "is_disabled": 0, "rental_uris": {"ios": "https://dc.lft.to/lastmile_qr_scan", "android": "https://dc.lft.to/lastmile_qr_scan"}, "is_reserved": 0}, {"lon": -77.031756, "bike_id": "9d5734ff52fd4d319f5cd3fc93760a79", "lat": 38.936058, "fusion_lon": 0.0, "fusion_lat": 0.0, "type": "electric_scooter", "name": "9d5734ff52fd4d319f5cd3fc93760a79", "is_disabled": 0, "rental_uris": {"ios": "https://dc.lft.to/lastmile_qr_scan", "android": "https://dc.lft.to/lastmile_qr_scan"}, "is_reserved": 0}, {"lon": -77.03302566666666, "bike_id": "eb4ce1c085249cb0cbf8776404272740", "lat": 38.93433683333333, "fusion_lon": 0.0, "fusion_lat": 0.0, "type": "electric_scooter", "name": "eb4ce1c085249cb0cbf8776404272740", "is_disabled": 0, "rental_uris": {"ios": "https://dc.lft.to/lastmile_qr_scan", "android": "https://dc.lft.to/lastmile_qr_scan"}, "is_reserved": 0}, {"lon": -76.97748733333333, "bike_id": "882ba448654acf91f90dca2578071cc7", "lat": 38.86484866666667, "fusion_lon": 0.0, "fusion_lat": 0.0, "type": "electric_bike", "name": "882ba448654acf91f90dca2578071cc7", "is_disabled": 0, "rental_uris": {"ios": "https://dc.lft.to/lastmile_qr_scan", "android": "https://dc.lft.to/lastmile_qr_scan"}, "is_reserved": 0}, {"lon": -77.01877416666666, "bike_id": "6156ed7637c1cb52f1d26682f31a3a30", "lat": 38.91410916666667, "fusion_lon": 0.0, "fusion_lat": 0.0, "type": "electric_scooter", "name": "6156ed7637c1cb52f1d26682f31a3a30", "is_disabled": 0, "rental_uris": {"ios": "https://dc.lft.to/lastmile_qr_scan", "android": "https://dc.lft.to/lastmile_qr_scan"}, "is_reserved": 0}, {"lon": -77.18561916666667, "bike_id": "20b4eee21f103f389a5789220653bbc5", "lat": 39.099751499999996, "fusion_lon": 0.0, "fusion_lat": 0.0, "type": "electric_bike", "name": "20b4eee21f103f389a5789220653bbc5", "is_disabled": 0, "rental_uris": {"ios": "https://dc.lft.to/lastmile_qr_scan", "android": "https://dc.lft.to/lastmile_qr_scan"}, "is_reserved": 0}, {"lon": -76.99597616666667, "bike_id": "f01bd24cd8e3ad67172347ab9f0045a7", "lat": 38.95071183333334, "fusion_lon": 0.0, "fusion_lat": 0.0, "type": "electric_bike", "name": "f01bd24cd8e3ad67172347ab9f0045a7", "is_disabled": 0, "rental_uris": {"ios": "https://dc.lft.to/lastmile_qr_scan", "android": "https://dc.lft.to/lastmile_qr_scan"}, "is_reserved": 0}, {"lon": -77.03716766666666, "bike_id": "3a1ac464cea83c20423024546336a313", "lat": 38.926335333333334, "fusion_lon": 0.0, "fusion_lat": 0.0, "type": "electric_scooter", "name": "3a1ac464cea83c20423024546336a313", "is_disabled": 0, "rental_uris": {"ios": "https://dc.lft.to/lastmile_qr_scan", "android": "https://dc.lft.to/lastmile_qr_scan"}, "is_reserved": 0}, {"lon": -77.00480733333333, "bike_id": "4d3b89294272b5128f43782f1945ba0a", "lat": 38.877646, "fusion_lon": 0.0, "fusion_lat": 0.0, "type": "electric_scooter", "name": "4d3b89294272b5128f43782f1945ba0a", "is_disabled": 0, "rental_uris": {"ios": "https://dc.lft.to/lastmile_qr_scan", "android": "https://dc.lft.to/lastmile_qr_scan"}, "is_reserved": 0}, {"lon": -77.07597133333333, "bike_id": "f910070d2274ada98998b5258d753d62", "lat": 38.912169, "fusion_lon": 0.0, "fusion_lat": 0.0, "type": "electric_scooter", "name": "f910070d2274ada98998b5258d753d62", "is_disabled": 0, "rental_uris": {"ios": "https://dc.lft.to/lastmile_qr_scan", "android": "https://dc.lft.to/lastmile_qr_scan"}, "is_reserved": 0}, {"lon": -77.0221065, "bike_id": "563bf03a03c8e367732ca16f7ac593f6", "lat": 38.895202166666664, "fusion_lon": 0.0, "fusion_lat": 0.0, "type": "electric_scooter", "name": "563bf03a03c8e367732ca16f7ac593f6", "is_disabled": 0, "rental_uris": {"ios": "https://dc.lft.to/lastmile_qr_scan", "android": "https://dc.lft.to/lastmile_qr_scan"}, "is_reserved": 0}, {"lon": -77.03174316666667, "bike_id": "f00fd4d7613a0c5a929d0325b6b056cc", "lat": 38.921108333333336, "fusion_lon": 0.0, "fusion_lat": 0.0, "type": "electric_bike", "name": "f00fd4d7613a0c5a929d0325b6b056cc", "is_disabled": 0, "rental_uris": {"ios": "https://dc.lft.to/lastmile_qr_scan", "android": "https://dc.lft.to/lastmile_qr_scan"}, "is_reserved": 0}, {"lon": -77.0149845, "bike_id": "db2c8e5376f46262566deeb1074a8e97", "lat": 38.917660166666664, "fusion_lon": 0.0, "fusion_lat": 0.0, "type": "electric_scooter", "name": "db2c8e5376f46262566deeb1074a8e97", "is_disabled": 0, "rental_uris": {"ios": "https://dc.lft.to/lastmile_qr_scan", "android": "https://dc.lft.to/lastmile_qr_scan"}, "is_reserved": 0}, {"lon": -77.01183883333333, "bike_id": "3fef583d0efe14a49103e6eb046b19b1", "lat": 38.900264166666666, "fusion_lon": 0.0, "fusion_lat": 0.0, "type": "electric_scooter", "name": "3fef583d0efe14a49103e6eb046b19b1", "is_disabled": 0, "rental_uris": {"ios": "https://dc.lft.to/lastmile_qr_scan", "android": "https://dc.lft.to/lastmile_qr_scan"}, "is_reserved": 0}, {"lon": -76.996816, "bike_id": "6fa22d2bec351abfe8c5845a13d632d7", "lat": 38.88124833333333, "fusion_lon": 0.0, "fusion_lat": 0.0, "type": "electric_scooter", "name": "6fa22d2bec351abfe8c5845a13d632d7", "is_disabled": 0, "rental_uris": {"ios": "https://dc.lft.to/lastmile_qr_scan", "android": "https://dc.lft.to/lastmile_qr_scan"}, "is_reserved": 0}, {"lon": -77.03458816666667, "bike_id": "b6268a1d10c62921e993e12a15062af5", "lat": 38.93436666666667, "fusion_lon": 0.0, "fusion_lat": 0.0, "type": "electric_scooter", "name": "b6268a1d10c62921e993e12a15062af5", "is_disabled": 0, "rental_uris": {"ios": "https://dc.lft.to/lastmile_qr_scan", "android": "https://dc.lft.to/lastmile_qr_scan"}, "is_reserved": 0}, {"lon": -77.03442883333334, "bike_id": "59b9feeba3b0f40d2097fb1608c71028", "lat": 38.90954283333333, "fusion_lon": 0.0, "fusion_lat": 0.0, "type": "electric_scooter", "name": "59b9feeba3b0f40d2097fb1608c71028", "is_disabled": 0, "rental_uris": {"ios": "https://dc.lft.to/lastmile_qr_scan", "android": "https://dc.lft.to/lastmile_qr_scan"}, "is_reserved": 0}, {"lon": -77.01244416666667, "bike_id": "e1f796badec9401a803ee0d4383229fa", "lat": 38.91571283333333, "fusion_lon": 0.0, "fusion_lat": 0.0, "type": "electric_scooter", "name": "e1f796badec9401a803ee0d4383229fa", "is_disabled": 0, "rental_uris": {"ios": "https://dc.lft.to/lastmile_qr_scan", "android": "https://dc.lft.to/lastmile_qr_scan"}, "is_reserved": 0}, {"lon": -77.01997983333334, "bike_id": "0653e9e9ce1beef1f42a89d91d11ee7a", "lat": 38.911366, "fusion_lon": 0.0, "fusion_lat": 0.0, "type": "electric_scooter", "name": "0653e9e9ce1beef1f42a89d91d11ee7a", "is_disabled": 0, "rental_uris": {"ios": "https://dc.lft.to/lastmile_qr_scan", "android": "https://dc.lft.to/lastmile_qr_scan"}, "is_reserved": 0}, {"lon": -77.03447066666666, "bike_id": "6a59da37d9f17d548e63c2ad16e33a7a", "lat": 38.916564666666666, "fusion_lon": 0.0, "fusion_lat": 0.0, "type": "electric_scooter", "name": "6a59da37d9f17d548e63c2ad16e33a7a", "is_disabled": 0, "rental_uris": {"ios": "https://dc.lft.to/lastmile_qr_scan", "android": "https://dc.lft.to/lastmile_qr_scan"}, "is_reserved": 0}, {"lon": -77.02976816666667, "bike_id": "709d0781faf4c513d6f47e8a1a688108", "lat": 38.921896, "fusion_lon": 0.0, "fusion_lat": 0.0, "type": "electric_scooter", "name": "709d0781faf4c513d6f47e8a1a688108", "is_disabled": 0, "rental_uris": {"ios": "https://dc.lft.to/lastmile_qr_scan", "android": "https://dc.lft.to/lastmile_qr_scan"}, "is_reserved": 0}, {"lon": -77.04828616666667, "bike_id": "47d3384052322c1d96ead1dfe7fc7c3b", "lat": 38.8974155, "fusion_lon": 0.0, "fusion_lat": 0.0, "type": "electric_scooter", "name": "47d3384052322c1d96ead1dfe7fc7c3b", "is_disabled": 0, "rental_uris": {"ios": "https://dc.lft.to/lastmile_qr_scan", "android": "https://dc.lft.to/lastmile_qr_scan"}, "is_reserved": 0}, {"lon": -77.04506983333333, "bike_id": "a9aa5cca009ae3f41baffd3819a74d16", "lat": 38.9110715, "fusion_lon": 0.0, "fusion_lat": 0.0, "type": "electric_scooter", "name": "a9aa5cca009ae3f41baffd3819a74d16", "is_disabled": 0, "rental_uris": {"ios": "https://dc.lft.to/lastmile_qr_scan", "android": "https://dc.lft.to/lastmile_qr_scan"}, "is_reserved": 0}, {"lon": -77.022051, "bike_id": "a22c62357b485fe9877e07ad12034787", "lat": 38.910448833333334, "fusion_lon": 0.0, "fusion_lat": 0.0, "type": "electric_scooter", "name": "a22c62357b485fe9877e07ad12034787", "is_disabled": 0, "rental_uris": {"ios": "https://dc.lft.to/lastmile_qr_scan", "android": "https://dc.lft.to/lastmile_qr_scan"}, "is_reserved": 0}, {"lon": -76.9888055, "bike_id": "6e4ee9f7ec73b04601f4946540bfba96", "lat": 38.866603166666664, "fusion_lon": 0.0, "fusion_lat": 0.0, "type": "electric_scooter", "name": "6e4ee9f7ec73b04601f4946540bfba96", "is_disabled": 0, "rental_uris": {"ios": "https://dc.lft.to/lastmile_qr_scan", "android": "https://dc.lft.to/lastmile_qr_scan"}, "is_reserved": 0}, {"lon": -77.03183366666667, "bike_id": "6cfa70e1e3f517207da01dc31b67763e", "lat": 38.89575933333333, "fusion_lon": 0.0, "fusion_lat": 0.0, "type": "electric_scooter", "name": "6cfa70e1e3f517207da01dc31b67763e", "is_disabled": 0, "rental_uris": {"ios": "https://dc.lft.to/lastmile_qr_scan", "android": "https://dc.lft.to/lastmile_qr_scan"}, "is_reserved": 0}, {"lon": -77.02303683333334, "bike_id": "e238f4981e37ae029fdc6b31361e774b", "lat": 38.940921, "fusion_lon": 0.0, "fusion_lat": 0.0, "type": "electric_scooter", "name": "e238f4981e37ae029fdc6b31361e774b", "is_disabled": 0, "rental_uris": {"ios": "https://dc.lft.to/lastmile_qr_scan", "android": "https://dc.lft.to/lastmile_qr_scan"}, "is_reserved": 0}, {"lon": -77.039928, "bike_id": "134e7f035eceedbdb2cf6886e0d0761a", "lat": 38.924507166666665, "fusion_lon": 0.0, "fusion_lat": 0.0, "type": "electric_scooter", "name": "134e7f035eceedbdb2cf6886e0d0761a", "is_disabled": 0, "rental_uris": {"ios": "https://dc.lft.to/lastmile_qr_scan", "android": "https://dc.lft.to/lastmile_qr_scan"}, "is_reserved": 0}, {"lon": -77.02399466666667, "bike_id": "4a845dbd8776fff687884e04f00aa917", "lat": 38.919973166666665, "fusion_lon": 0.0, "fusion_lat": 0.0, "type": "electric_scooter", "name": "4a845dbd8776fff687884e04f00aa917", "is_disabled": 0, "rental_uris": {"ios": "https://dc.lft.to/lastmile_qr_scan", "android": "https://dc.lft.to/lastmile_qr_scan"}, "is_reserved": 0}, {"lon": -77.00734983333334, "bike_id": "bf4a1a7bddebf299c3b8860838efeef3", "lat": 38.898362166666665, "fusion_lon": 0.0, "fusion_lat": 0.0, "type": "electric_bike", "name": "bf4a1a7bddebf299c3b8860838efeef3", "is_disabled": 0, "rental_uris": {"ios": "https://dc.lft.to/lastmile_qr_scan", "android": "https://dc.lft.to/lastmile_qr_scan"}, "is_reserved": 0}, {"lon": -77.0215795, "bike_id": "60d2c4ab9289a2c09d32a0b4b0484e60", "lat": 38.892185, "fusion_lon": 0.0, "fusion_lat": 0.0, "type": "electric_scooter", "name": "60d2c4ab9289a2c09d32a0b4b0484e60", "is_disabled": 0, "rental_uris": {"ios": "https://dc.lft.to/lastmile_qr_scan", "android": "https://dc.lft.to/lastmile_qr_scan"}, "is_reserved": 0}, {"lon": -77.0260335, "bike_id": "ab952eadd2e7f97d311b9aa979cdffa3", "lat": 38.9265765, "fusion_lon": 0.0, "fusion_lat": 0.0, "type": "electric_scooter", "name": "ab952eadd2e7f97d311b9aa979cdffa3", "is_disabled": 0, "rental_uris": {"ios": "https://dc.lft.to/lastmile_qr_scan", "android": "https://dc.lft.to/lastmile_qr_scan"}, "is_reserved": 0}, {"lon": -77.046689, "bike_id": "80a8d7e0963d835d5374d31a709e6bbe", "lat": 38.90331416666667, "fusion_lon": 0.0, "fusion_lat": 0.0, "type": "electric_scooter", "name": "80a8d7e0963d835d5374d31a709e6bbe", "is_disabled": 0, "rental_uris": {"ios": "https://dc.lft.to/lastmile_qr_scan", "android": "https://dc.lft.to/lastmile_qr_scan"}, "is_reserved": 0}, {"lon": -77.04926483333334, "bike_id": "775ffda983a748145a0f3f845e1e7b19", "lat": 39.02932916666666, "fusion_lon": 0.0, "fusion_lat": 0.0, "type": "electric_bike", "name": "775ffda983a748145a0f3f845e1e7b19", "is_disabled": 0, "rental_uris": {"ios": "https://dc.lft.to/lastmile_qr_scan", "android": "https://dc.lft.to/lastmile_qr_scan"}, "is_reserved": 0}, {"lon": -77.04187133333333, "bike_id": "13021321caf59bbd543dc2c39d00166f", "lat": 38.920152333333334, "fusion_lon": 0.0, "fusion_lat": 0.0, "type": "electric_scooter", "name": "13021321caf59bbd543dc2c39d00166f", "is_disabled": 0, "rental_uris": {"ios": "https://dc.lft.to/lastmile_qr_scan", "android": "https://dc.lft.to/lastmile_qr_scan"}, "is_reserved": 0}, {"lon": -77.02426266666667, "bike_id": "4d39f8f64bce96eb1bd1fa8e972b4616", "lat": 38.914095, "fusion_lon": 0.0, "fusion_lat": 0.0, "type": "electric_scooter", "name": "4d39f8f64bce96eb1bd1fa8e972b4616", "is_disabled": 0, "rental_uris": {"ios": "https://dc.lft.to/lastmile_qr_scan", "android": "https://dc.lft.to/lastmile_qr_scan"}, "is_reserved": 0}, {"lon": -77.0481615, "bike_id": "f375bb367ece843bbe7fd35a1a837780", "lat": 38.91329133333333, "fusion_lon": 0.0, "fusion_lat": 0.0, "type": "electric_scooter", "name": "f375bb367ece843bbe7fd35a1a837780", "is_disabled": 0, "rental_uris": {"ios": "https://dc.lft.to/lastmile_qr_scan", "android": "https://dc.lft.to/lastmile_qr_scan"}, "is_reserved": 0}, {"lon": -77.023972, "bike_id": "2c17af1c2f990b9a9239315ad8442273", "lat": 38.934632666666666, "fusion_lon": 0.0, "fusion_lat": 0.0, "type": "electric_scooter", "name": "2c17af1c2f990b9a9239315ad8442273", "is_disabled": 0, "rental_uris": {"ios": "https://dc.lft.to/lastmile_qr_scan", "android": "https://dc.lft.to/lastmile_qr_scan"}, "is_reserved": 0}, {"lon": -77.02167516666667, "bike_id": "4c7c9d94a0b5d151af712f078fc271b0", "lat": 38.8874745, "fusion_lon": 0.0, "fusion_lat": 0.0, "type": "electric_scooter", "name": "4c7c9d94a0b5d151af712f078fc271b0", "is_disabled": 0, "rental_uris": {"ios": "https://dc.lft.to/lastmile_qr_scan", "android": "https://dc.lft.to/lastmile_qr_scan"}, "is_reserved": 0}, {"lon": -76.98878283333333, "bike_id": "5ab094204e9a92a0d309e050af3df61d", "lat": 38.866572166666664, "fusion_lon": 0.0, "fusion_lat": 0.0, "type": "electric_scooter", "name": "5ab094204e9a92a0d309e050af3df61d", "is_disabled": 0, "rental_uris": {"ios": "https://dc.lft.to/lastmile_qr_scan", "android": "https://dc.lft.to/lastmile_qr_scan"}, "is_reserved": 0}, {"lon": -77.23321216666666, "bike_id": "83ec0166a47091a70d78004400fb9b0b", "lat": 38.87280416666667, "fusion_lon": 0.0, "fusion_lat": 0.0, "type": "electric_bike", "name": "83ec0166a47091a70d78004400fb9b0b", "is_disabled": 0, "rental_uris": {"ios": "https://dc.lft.to/lastmile_qr_scan", "android": "https://dc.lft.to/lastmile_qr_scan"}, "is_reserved": 0}, {"lon": -76.97297166666667, "bike_id": "2aa5f2e36768a45024eb3e08ef3a3da3", "lat": 38.916403, "fusion_lon": 0.0, "fusion_lat": 0.0, "type": "electric_bike", "name": "2aa5f2e36768a45024eb3e08ef3a3da3", "is_disabled": 0, "rental_uris": {"ios": "https://dc.lft.to/lastmile_qr_scan", "android": "https://dc.lft.to/lastmile_qr_scan"}, "is_reserved": 0}, {"lon": -77.0118955, "bike_id": "52b1cfab5e88247d6cd200807b29386c", "lat": 38.91546133333333, "fusion_lon": 0.0, "fusion_lat": 0.0, "type": "electric_scooter", "name": "52b1cfab5e88247d6cd200807b29386c", "is_disabled": 0, "rental_uris": {"ios": "https://dc.lft.to/lastmile_qr_scan", "android": "https://dc.lft.to/lastmile_qr_scan"}, "is_reserved": 0}, {"lon": -77.00891233333333, "bike_id": "736884583e97c47057aeb8cee9e3e9cd", "lat": 38.92276066666667, "fusion_lon": 0.0, "fusion_lat": 0.0, "type": "electric_scooter", "name": "736884583e97c47057aeb8cee9e3e9cd", "is_disabled": 0, "rental_uris": {"ios": "https://dc.lft.to/lastmile_qr_scan", "android": "https://dc.lft.to/lastmile_qr_scan"}, "is_reserved": 0}, {"lon": -76.94995716666666, "bike_id": "83f5667876dd871a3f807f7af038a9d7", "lat": 38.89382583333333, "fusion_lon": 0.0, "fusion_lat": 0.0, "type": "electric_scooter", "name": "83f5667876dd871a3f807f7af038a9d7", "is_disabled": 0, "rental_uris": {"ios": "https://dc.lft.to/lastmile_qr_scan", "android": "https://dc.lft.to/lastmile_qr_scan"}, "is_reserved": 0}, {"lon": -77.02396833333333, "bike_id": "9f99eda5f0850b25aed942947e7a87c3", "lat": 38.91740033333333, "fusion_lon": 0.0, "fusion_lat": 0.0, "type": "electric_scooter", "name": "9f99eda5f0850b25aed942947e7a87c3", "is_disabled": 0, "rental_uris": {"ios": "https://dc.lft.to/lastmile_qr_scan", "android": "https://dc.lft.to/lastmile_qr_scan"}, "is_reserved": 0}, {"lon": -77.03405083333334, "bike_id": "3f2dc56365a4e7160566f0ea462c5adc", "lat": 38.926336666666664, "fusion_lon": 0.0, "fusion_lat": 0.0, "type": "electric_scooter", "name": "3f2dc56365a4e7160566f0ea462c5adc", "is_disabled": 0, "rental_uris": {"ios": "https://dc.lft.to/lastmile_qr_scan", "android": "https://dc.lft.to/lastmile_qr_scan"}, "is_reserved": 0}, {"lon": -77.03866683333334, "bike_id": "3113a7365cac3e8b7eedaab4c8701a5e", "lat": 38.915473, "fusion_lon": 0.0, "fusion_lat": 0.0, "type": "electric_scooter", "name": "3113a7365cac3e8b7eedaab4c8701a5e", "is_disabled": 0, "rental_uris": {"ios": "https://dc.lft.to/lastmile_qr_scan", "android": "https://dc.lft.to/lastmile_qr_scan"}, "is_reserved": 0}, {"lon": -77.058968, "bike_id": "0ce0c270f2c08b84e0cc8ba1446d032b", "lat": 38.9360565, "fusion_lon": 0.0, "fusion_lat": 0.0, "type": "electric_scooter", "name": "0ce0c270f2c08b84e0cc8ba1446d032b", "is_disabled": 0, "rental_uris": {"ios": "https://dc.lft.to/lastmile_qr_scan", "android": "https://dc.lft.to/lastmile_qr_scan"}, "is_reserved": 0}, {"lon": -77.02890366666666, "bike_id": "8794c132e4896d392ca9c2231aa0c8b1", "lat": 38.90437983333333, "fusion_lon": 0.0, "fusion_lat": 0.0, "type": "electric_scooter", "name": "8794c132e4896d392ca9c2231aa0c8b1", "is_disabled": 0, "rental_uris": {"ios": "https://dc.lft.to/lastmile_qr_scan", "android": "https://dc.lft.to/lastmile_qr_scan"}, "is_reserved": 0}, {"lon": -77.06828916666667, "bike_id": "cbd0a7c8ea4b3a56e437f15838777c6f", "lat": 38.904089166666665, "fusion_lon": 0.0, "fusion_lat": 0.0, "type": "electric_bike", "name": "cbd0a7c8ea4b3a56e437f15838777c6f", "is_disabled": 0, "rental_uris": {"ios": "https://dc.lft.to/lastmile_qr_scan", "android": "https://dc.lft.to/lastmile_qr_scan"}, "is_reserved": 0}, {"lon": -77.0270855, "bike_id": "f833c9fdcf37ead6974e3b545cafc332", "lat": 38.927837833333335, "fusion_lon": 0.0, "fusion_lat": 0.0, "type": "electric_scooter", "name": "f833c9fdcf37ead6974e3b545cafc332", "is_disabled": 0, "rental_uris": {"ios": "https://dc.lft.to/lastmile_qr_scan", "android": "https://dc.lft.to/lastmile_qr_scan"}, "is_reserved": 0}, {"lon": -77.03628483333334, "bike_id": "ae2fa20db778c59ed050a2da93373836", "lat": 38.948155, "fusion_lon": 0.0, "fusion_lat": 0.0, "type": "electric_scooter", "name": "ae2fa20db778c59ed050a2da93373836", "is_disabled": 0, "rental_uris": {"ios": "https://dc.lft.to/lastmile_qr_scan", "android": "https://dc.lft.to/lastmile_qr_scan"}, "is_reserved": 0}, {"lon": -77.233339, "bike_id": "3d8e2757911d7f90bdba69dbdf14d7f2", "lat": 38.8727685, "fusion_lon": 0.0, "fusion_lat": 0.0, "type": "electric_bike", "name": "3d8e2757911d7f90bdba69dbdf14d7f2", "is_disabled": 0, "rental_uris": {"ios": "https://dc.lft.to/lastmile_qr_scan", "android": "https://dc.lft.to/lastmile_qr_scan"}, "is_reserved": 0}, {"lon": -77.02837616666666, "bike_id": "64512a0ade40ec9b9896870b017411fb", "lat": 38.88771366666667, "fusion_lon": 0.0, "fusion_lat": 0.0, "type": "electric_scooter", "name": "64512a0ade40ec9b9896870b017411fb", "is_disabled": 0, "rental_uris": {"ios": "https://dc.lft.to/lastmile_qr_scan", "android": "https://dc.lft.to/lastmile_qr_scan"}, "is_reserved": 0}, {"lon": -77.018589, "bike_id": "c7075a4b6fee3d50ec614787d8b05c7d", "lat": 38.92025616666667, "fusion_lon": 0.0, "fusion_lat": 0.0, "type": "electric_scooter", "name": "c7075a4b6fee3d50ec614787d8b05c7d", "is_disabled": 0, "rental_uris": {"ios": "https://dc.lft.to/lastmile_qr_scan", "android": "https://dc.lft.to/lastmile_qr_scan"}, "is_reserved": 0}, {"lon": -76.96548066666666, "bike_id": "088c7a9204a2b6b44e14963dd3cc22f9", "lat": 38.91854266666667, "fusion_lon": 0.0, "fusion_lat": 0.0, "type": "electric_scooter", "name": "088c7a9204a2b6b44e14963dd3cc22f9", "is_disabled": 0, "rental_uris": {"ios": "https://dc.lft.to/lastmile_qr_scan", "android": "https://dc.lft.to/lastmile_qr_scan"}, "is_reserved": 0}, {"lon": -77.032797, "bike_id": "cd07364fb12f2492487cab5ff65a11b0", "lat": 38.903963, "fusion_lon": 0.0, "fusion_lat": 0.0, "type": "electric_scooter", "name": "cd07364fb12f2492487cab5ff65a11b0", "is_disabled": 0, "rental_uris": {"ios": "https://dc.lft.to/lastmile_qr_scan", "android": "https://dc.lft.to/lastmile_qr_scan"}, "is_reserved": 0}, {"lon": -76.980191, "bike_id": "b9646853a37d923a98e6af115c33998a", "lat": 38.90287266666667, "fusion_lon": 0.0, "fusion_lat": 0.0, "type": "electric_scooter", "name": "b9646853a37d923a98e6af115c33998a", "is_disabled": 0, "rental_uris": {"ios": "https://dc.lft.to/lastmile_qr_scan", "android": "https://dc.lft.to/lastmile_qr_scan"}, "is_reserved": 0}, {"lon": -77.001974, "bike_id": "b788b71e262c94bf968691223ebb98d6", "lat": 38.91590866666667, "fusion_lon": 0.0, "fusion_lat": 0.0, "type": "electric_scooter", "name": "b788b71e262c94bf968691223ebb98d6", "is_disabled": 0, "rental_uris": {"ios": "https://dc.lft.to/lastmile_qr_scan", "android": "https://dc.lft.to/lastmile_qr_scan"}, "is_reserved": 0}, {"lon": -77.02189083333333, "bike_id": "1a0da50db1de8333c6705813c4a2b8bc", "lat": 38.919908666666664, "fusion_lon": 0.0, "fusion_lat": 0.0, "type": "electric_scooter", "name": "1a0da50db1de8333c6705813c4a2b8bc", "is_disabled": 0, "rental_uris": {"ios": "https://dc.lft.to/lastmile_qr_scan", "android": "https://dc.lft.to/lastmile_qr_scan"}, "is_reserved": 0}, {"lon": -77.007681, "bike_id": "70aeab742f28e7c03ba18c335acf159a", "lat": 38.98135083333333, "fusion_lon": 0.0, "fusion_lat": 0.0, "type": "electric_bike", "name": "70aeab742f28e7c03ba18c335acf159a", "is_disabled": 0, "rental_uris": {"ios": "https://dc.lft.to/lastmile_qr_scan", "android": "https://dc.lft.to/lastmile_qr_scan"}, "is_reserved": 0}, {"lon": -77.02902816666666, "bike_id": "73f3d7fc6dcb4591a05c36f67da6d852", "lat": 38.928170333333334, "fusion_lon": 0.0, "fusion_lat": 0.0, "type": "electric_scooter", "name": "73f3d7fc6dcb4591a05c36f67da6d852", "is_disabled": 0, "rental_uris": {"ios": "https://dc.lft.to/lastmile_qr_scan", "android": "https://dc.lft.to/lastmile_qr_scan"}, "is_reserved": 0}, {"lon": -77.0234605, "bike_id": "da4060257ee494fa6a1d5ecd65327fd0", "lat": 38.935323333333336, "fusion_lon": 0.0, "fusion_lat": 0.0, "type": "electric_scooter", "name": "da4060257ee494fa6a1d5ecd65327fd0", "is_disabled": 0, "rental_uris": {"ios": "https://dc.lft.to/lastmile_qr_scan", "android": "https://dc.lft.to/lastmile_qr_scan"}, "is_reserved": 0}, {"lon": -76.998814, "bike_id": "a2935dcf68beee3313c31098d5da5660", "lat": 38.9013135, "fusion_lon": 0.0, "fusion_lat": 0.0, "type": "electric_scooter", "name": "a2935dcf68beee3313c31098d5da5660", "is_disabled": 0, "rental_uris": {"ios": "https://dc.lft.to/lastmile_qr_scan", "android": "https://dc.lft.to/lastmile_qr_scan"}, "is_reserved": 0}, {"lon": -77.034783, "bike_id": "4e169a9df20a1592f44d359865e2b535", "lat": 38.935265333333334, "fusion_lon": 0.0, "fusion_lat": 0.0, "type": "electric_scooter", "name": "4e169a9df20a1592f44d359865e2b535", "is_disabled": 0, "rental_uris": {"ios": "https://dc.lft.to/lastmile_qr_scan", "android": "https://dc.lft.to/lastmile_qr_scan"}, "is_reserved": 0}, {"lon": -77.03538333333333, "bike_id": "956f13f4fdcf49a8b99231bc87dd8e54", "lat": 38.924076, "fusion_lon": 0.0, "fusion_lat": 0.0, "type": "electric_scooter", "name": "956f13f4fdcf49a8b99231bc87dd8e54", "is_disabled": 0, "rental_uris": {"ios": "https://dc.lft.to/lastmile_qr_scan", "android": "https://dc.lft.to/lastmile_qr_scan"}, "is_reserved": 0}, {"lon": -76.98158516666666, "bike_id": "558d8fa2007a565f480b82471bd22983", "lat": 38.92566566666667, "fusion_lon": 0.0, "fusion_lat": 0.0, "type": "electric_scooter", "name": "558d8fa2007a565f480b82471bd22983", "is_disabled": 0, "rental_uris": {"ios": "https://dc.lft.to/lastmile_qr_scan", "android": "https://dc.lft.to/lastmile_qr_scan"}, "is_reserved": 0}, {"lon": -77.0326755, "bike_id": "a493fc3a27d9551cb7684b90ac2c95ee", "lat": 38.90951916666667, "fusion_lon": 0.0, "fusion_lat": 0.0, "type": "electric_scooter", "name": "a493fc3a27d9551cb7684b90ac2c95ee", "is_disabled": 0, "rental_uris": {"ios": "https://dc.lft.to/lastmile_qr_scan", "android": "https://dc.lft.to/lastmile_qr_scan"}, "is_reserved": 0}, {"lon": -77.025887, "bike_id": "eb5b64eaa1822b3b129090e7bc2db86b", "lat": 38.89229866666667, "fusion_lon": 0.0, "fusion_lat": 0.0, "type": "electric_scooter", "name": "eb5b64eaa1822b3b129090e7bc2db86b", "is_disabled": 0, "rental_uris": {"ios": "https://dc.lft.to/lastmile_qr_scan", "android": "https://dc.lft.to/lastmile_qr_scan"}, "is_reserved": 0}, {"lon": -77.05042283333333, "bike_id": "caec55fb1dc74710ac5170f8baf2ad06", "lat": 38.923905, "fusion_lon": 0.0, "fusion_lat": 0.0, "type": "electric_scooter", "name": "caec55fb1dc74710ac5170f8baf2ad06", "is_disabled": 0, "rental_uris": {"ios": "https://dc.lft.to/lastmile_qr_scan", "android": "https://dc.lft.to/lastmile_qr_scan"}, "is_reserved": 0}, {"lon": -77.02284283333333, "bike_id": "15f9da5092ea2fe7a7a188280e12a5a6", "lat": 38.926819, "fusion_lon": 0.0, "fusion_lat": 0.0, "type": "electric_scooter", "name": "15f9da5092ea2fe7a7a188280e12a5a6", "is_disabled": 0, "rental_uris": {"ios": "https://dc.lft.to/lastmile_qr_scan", "android": "https://dc.lft.to/lastmile_qr_scan"}, "is_reserved": 0}, {"lon": -77.04985566666667, "bike_id": "548289066604a4046957a22ae0b8b9ab", "lat": 38.896052166666664, "fusion_lon": 0.0, "fusion_lat": 0.0, "type": "electric_scooter", "name": "548289066604a4046957a22ae0b8b9ab", "is_disabled": 0, "rental_uris": {"ios": "https://dc.lft.to/lastmile_qr_scan", "android": "https://dc.lft.to/lastmile_qr_scan"}, "is_reserved": 0}, {"lon": -77.016168, "bike_id": "3446a531dab6869a32963295a89953b5", "lat": 38.899483333333336, "fusion_lon": 0.0, "fusion_lat": 0.0, "type": "electric_scooter", "name": "3446a531dab6869a32963295a89953b5", "is_disabled": 0, "rental_uris": {"ios": "https://dc.lft.to/lastmile_qr_scan", "android": "https://dc.lft.to/lastmile_qr_scan"}, "is_reserved": 0}, {"lon": -76.9917695, "bike_id": "1c7a98a6d64ee0bea62259bbd3763894", "lat": 38.8899045, "fusion_lon": 0.0, "fusion_lat": 0.0, "type": "electric_scooter", "name": "1c7a98a6d64ee0bea62259bbd3763894", "is_disabled": 0, "rental_uris": {"ios": "https://dc.lft.to/lastmile_qr_scan", "android": "https://dc.lft.to/lastmile_qr_scan"}, "is_reserved": 0}, {"lon": -77.00975883333334, "bike_id": "9c5dcdd39b9a4fa43594d7b6a33a37cf", "lat": 38.911876, "fusion_lon": 0.0, "fusion_lat": 0.0, "type": "electric_scooter", "name": "9c5dcdd39b9a4fa43594d7b6a33a37cf", "is_disabled": 0, "rental_uris": {"ios": "https://dc.lft.to/lastmile_qr_scan", "android": "https://dc.lft.to/lastmile_qr_scan"}, "is_reserved": 0}, {"lon": -76.99652583333334, "bike_id": "bfb82b8622a3978c188dfd0ba28a18e9", "lat": 38.98821916666667, "fusion_lon": 0.0, "fusion_lat": 0.0, "type": "electric_bike", "name": "bfb82b8622a3978c188dfd0ba28a18e9", "is_disabled": 0, "rental_uris": {"ios": "https://dc.lft.to/lastmile_qr_scan", "android": "https://dc.lft.to/lastmile_qr_scan"}, "is_reserved": 0}, {"lon": -77.02972283333334, "bike_id": "b48103488314ace3a0338e39736fd7a1", "lat": 38.896242666666666, "fusion_lon": 0.0, "fusion_lat": 0.0, "type": "electric_scooter", "name": "b48103488314ace3a0338e39736fd7a1", "is_disabled": 0, "rental_uris": {"ios": "https://dc.lft.to/lastmile_qr_scan", "android": "https://dc.lft.to/lastmile_qr_scan"}, "is_reserved": 0}, {"lon": -77.0242655, "bike_id": "aefaf0711c3b68690dd8fb27b309da4f", "lat": 38.9140175, "fusion_lon": 0.0, "fusion_lat": 0.0, "type": "electric_scooter", "name": "aefaf0711c3b68690dd8fb27b309da4f", "is_disabled": 0, "rental_uris": {"ios": "https://dc.lft.to/lastmile_qr_scan", "android": "https://dc.lft.to/lastmile_qr_scan"}, "is_reserved": 0}, {"lon": -77.03659983333333, "bike_id": "061538a3079308185789c9674603adfc", "lat": 38.92094133333333, "fusion_lon": 0.0, "fusion_lat": 0.0, "type": "electric_scooter", "name": "061538a3079308185789c9674603adfc", "is_disabled": 0, "rental_uris": {"ios": "https://dc.lft.to/lastmile_qr_scan", "android": "https://dc.lft.to/lastmile_qr_scan"}, "is_reserved": 0}, {"lon": -77.03446816666667, "bike_id": "b07d625d59029424331fd6f1a6b6cfac", "lat": 38.907356, "fusion_lon": 0.0, "fusion_lat": 0.0, "type": "electric_scooter", "name": "b07d625d59029424331fd6f1a6b6cfac", "is_disabled": 0, "rental_uris": {"ios": "https://dc.lft.to/lastmile_qr_scan", "android": "https://dc.lft.to/lastmile_qr_scan"}, "is_reserved": 0}, {"lon": -77.059232, "bike_id": "9227b923e180ed276c0dce88b4baabad", "lat": 38.862516, "fusion_lon": 0.0, "fusion_lat": 0.0, "type": "electric_scooter", "name": "9227b923e180ed276c0dce88b4baabad", "is_disabled": 0, "rental_uris": {"ios": "https://dc.lft.to/lastmile_qr_scan", "android": "https://dc.lft.to/lastmile_qr_scan"}, "is_reserved": 0}, {"lon": -77.0399245, "bike_id": "8e2c69b6f9bce03238746cb8fc59bdda", "lat": 38.92455316666667, "fusion_lon": 0.0, "fusion_lat": 0.0, "type": "electric_scooter", "name": "8e2c69b6f9bce03238746cb8fc59bdda", "is_disabled": 0, "rental_uris": {"ios": "https://dc.lft.to/lastmile_qr_scan", "android": "https://dc.lft.to/lastmile_qr_scan"}, "is_reserved": 0}, {"lon": -77.01216966666667, "bike_id": "e538d57d209adbdc0dce5c7cca6690c9", "lat": 38.91685966666667, "fusion_lon": 0.0, "fusion_lat": 0.0, "type": "electric_scooter", "name": "e538d57d209adbdc0dce5c7cca6690c9", "is_disabled": 0, "rental_uris": {"ios": "https://dc.lft.to/lastmile_qr_scan", "android": "https://dc.lft.to/lastmile_qr_scan"}, "is_reserved": 0}, {"lon": -77.02400116666666, "bike_id": "6c3e373961c64c6f2c4f839b7c18345f", "lat": 38.900408166666665, "fusion_lon": 0.0, "fusion_lat": 0.0, "type": "electric_scooter", "name": "6c3e373961c64c6f2c4f839b7c18345f", "is_disabled": 0, "rental_uris": {"ios": "https://dc.lft.to/lastmile_qr_scan", "android": "https://dc.lft.to/lastmile_qr_scan"}, "is_reserved": 0}, {"lon": -77.01973416666667, "bike_id": "06ebfd12824684c06de6fff10d3353a5", "lat": 38.977469, "fusion_lon": 0.0, "fusion_lat": 0.0, "type": "electric_scooter", "name": "06ebfd12824684c06de6fff10d3353a5", "is_disabled": 0, "rental_uris": {"ios": "https://dc.lft.to/lastmile_qr_scan", "android": "https://dc.lft.to/lastmile_qr_scan"}, "is_reserved": 0}, {"lon": -77.02734, "bike_id": "b656bdfe5b1165aa6461442d7a3e5801", "lat": 38.93375316666667, "fusion_lon": 0.0, "fusion_lat": 0.0, "type": "electric_scooter", "name": "b656bdfe5b1165aa6461442d7a3e5801", "is_disabled": 0, "rental_uris": {"ios": "https://dc.lft.to/lastmile_qr_scan", "android": "https://dc.lft.to/lastmile_qr_scan"}, "is_reserved": 0}, {"lon": -77.01461833333333, "bike_id": "6596adcf455ef1e83079551b32895f2e", "lat": 38.896367, "fusion_lon": 0.0, "fusion_lat": 0.0, "type": "electric_scooter", "name": "6596adcf455ef1e83079551b32895f2e", "is_disabled": 0, "rental_uris": {"ios": "https://dc.lft.to/lastmile_qr_scan", "android": "https://dc.lft.to/lastmile_qr_scan"}, "is_reserved": 0}, {"lon": -77.0020005, "bike_id": "45bb76b8832f567065f4038e85f2b670", "lat": 38.90227016666667, "fusion_lon": 0.0, "fusion_lat": 0.0, "type": "electric_scooter", "name": "45bb76b8832f567065f4038e85f2b670", "is_disabled": 0, "rental_uris": {"ios": "https://dc.lft.to/lastmile_qr_scan", "android": "https://dc.lft.to/lastmile_qr_scan"}, "is_reserved": 0}, {"lon": -77.0254105, "bike_id": "2f2523747a1240b3a515e378b3d66b71", "lat": 38.90726566666667, "fusion_lon": 0.0, "fusion_lat": 0.0, "type": "electric_scooter", "name": "2f2523747a1240b3a515e378b3d66b71", "is_disabled": 0, "rental_uris": {"ios": "https://dc.lft.to/lastmile_qr_scan", "android": "https://dc.lft.to/lastmile_qr_scan"}, "is_reserved": 0}, {"lon": -77.03969383333333, "bike_id": "d90beb9b2720b48a430962a5e074a477", "lat": 38.9230695, "fusion_lon": 0.0, "fusion_lat": 0.0, "type": "electric_scooter", "name": "d90beb9b2720b48a430962a5e074a477", "is_disabled": 0, "rental_uris": {"ios": "https://dc.lft.to/lastmile_qr_scan", "android": "https://dc.lft.to/lastmile_qr_scan"}, "is_reserved": 0}, {"lon": -77.0083855, "bike_id": "6e7e3577cfe18a074786e6610ec8f3c5", "lat": 38.916228333333336, "fusion_lon": 0.0, "fusion_lat": 0.0, "type": "electric_scooter", "name": "6e7e3577cfe18a074786e6610ec8f3c5", "is_disabled": 0, "rental_uris": {"ios": "https://dc.lft.to/lastmile_qr_scan", "android": "https://dc.lft.to/lastmile_qr_scan"}, "is_reserved": 0}, {"lon": -77.00100516666667, "bike_id": "66e554e8828d6b69ccdd8a4f05c7c8f5", "lat": 38.899930499999996, "fusion_lon": 0.0, "fusion_lat": 0.0, "type": "electric_scooter", "name": "66e554e8828d6b69ccdd8a4f05c7c8f5", "is_disabled": 0, "rental_uris": {"ios": "https://dc.lft.to/lastmile_qr_scan", "android": "https://dc.lft.to/lastmile_qr_scan"}, "is_reserved": 0}, {"lon": -77.00212616666667, "bike_id": "f040ff5bf1cdc50529100e005a3f5ee5", "lat": 38.89539516666667, "fusion_lon": 0.0, "fusion_lat": 0.0, "type": "electric_scooter", "name": "f040ff5bf1cdc50529100e005a3f5ee5", "is_disabled": 0, "rental_uris": {"ios": "https://dc.lft.to/lastmile_qr_scan", "android": "https://dc.lft.to/lastmile_qr_scan"}, "is_reserved": 0}, {"lon": -77.03435566666667, "bike_id": "2bc72e015ea837b73863574b61e1f1a3", "lat": 38.917581, "fusion_lon": 0.0, "fusion_lat": 0.0, "type": "electric_scooter", "name": "2bc72e015ea837b73863574b61e1f1a3", "is_disabled": 0, "rental_uris": {"ios": "https://dc.lft.to/lastmile_qr_scan", "android": "https://dc.lft.to/lastmile_qr_scan"}, "is_reserved": 0}, {"lon": -76.98695583333334, "bike_id": "b09c42de69ac1ac2f68f41f08ab4be8b", "lat": 38.86249883333333, "fusion_lon": 0.0, "fusion_lat": 0.0, "type": "electric_scooter", "name": "b09c42de69ac1ac2f68f41f08ab4be8b", "is_disabled": 0, "rental_uris": {"ios": "https://dc.lft.to/lastmile_qr_scan", "android": "https://dc.lft.to/lastmile_qr_scan"}, "is_reserved": 0}, {"lon": -77.0053285, "bike_id": "4f6d16803563c8e1be30505e6ebc2b6b", "lat": 38.9297075, "fusion_lon": 0.0, "fusion_lat": 0.0, "type": "electric_scooter", "name": "4f6d16803563c8e1be30505e6ebc2b6b", "is_disabled": 0, "rental_uris": {"ios": "https://dc.lft.to/lastmile_qr_scan", "android": "https://dc.lft.to/lastmile_qr_scan"}, "is_reserved": 0}, {"lon": -77.022062, "bike_id": "4ff663ec6cb8a4ea295cbaf897e38db9", "lat": 38.913087833333336, "fusion_lon": 0.0, "fusion_lat": 0.0, "type": "electric_scooter", "name": "4ff663ec6cb8a4ea295cbaf897e38db9", "is_disabled": 0, "rental_uris": {"ios": "https://dc.lft.to/lastmile_qr_scan", "android": "https://dc.lft.to/lastmile_qr_scan"}, "is_reserved": 0}, {"lon": -77.02826833333333, "bike_id": "ebb931eaa66c3e40ab2e36e436895a48", "lat": 38.88730733333333, "fusion_lon": 0.0, "fusion_lat": 0.0, "type": "electric_scooter", "name": "ebb931eaa66c3e40ab2e36e436895a48", "is_disabled": 0, "rental_uris": {"ios": "https://dc.lft.to/lastmile_qr_scan", "android": "https://dc.lft.to/lastmile_qr_scan"}, "is_reserved": 0},