{"data": {"bikes": [{"is_disabled": 0, "fusion_lon": 0.0, "fusion_lat": 0.0, "lat": 38.91196016666667, "type": "electric_scooter", "lon": -77.04172316666667, "bike_id": "a0c95bad6fa31bfb02081b78e83c0409", "rental_uris": {"android": "https://dc.lft.to/lastmile_qr_scan", "ios": "https://dc.lft.to/lastmile_qr_scan"}, "name": "a0c95bad6fa31bfb02081b78e83c0409", "is_reserved": 0}, {"is_disabled": 0, "fusion_lon": 0.0, "fusion_lat": 0.0, "lat": 38.83814733333333, "type": "electric_scooter", "lon": -77.00431033333334, "bike_id": "3dbfd0cab3d7cdef1cb35399601a2bcf", "rental_uris": {"android": "https://dc.lft.to/lastmile_qr_scan", "ios": "https://dc.lft.to/lastmile_qr_scan"}, "name": "3dbfd0cab3d7cdef1cb35399601a2bcf", "is_reserved": 0}, {"is_disabled": 0, "fusion_lon": 0.0, "fusion_lat": 0.0, "lat": 38.93709316666666, "type": "electric_scooter", "lon": -77.02421283333334, "bike_id": "c28b5a8f5b9204b54a08cccbfa15dd8b", "rental_uris": {"android": "https://dc.lft.to/lastmile_qr_scan", "ios": "https://dc.lft.to/lastmile_qr_scan"}, "name": "c28b5a8f5b9204b54a08cccbfa15dd8b", "is_reserved": 0}, {"is_disabled": 0, "fusion_lon": 0.0, "fusion_lat": 0.0, "lat": 38.9370735, "type": "electric_scooter", "lon": -77.06102466666667, "bike_id": "f138b05b5213c49744fadef9f4815882", "rental_uris": {"android": "https://dc.lft.to/lastmile_qr_scan", "ios": "https://dc.lft.to/lastmile_qr_scan"}, "name": "f138b05b5213c49744fadef9f4815882", "is_reserved": 0}, {"is_disabled": 0, "fusion_lon": 0.0, "fusion_lat": 0.0, "lat": 38.921232, "type": "electric_scooter", "lon": -77.01209166666666, "bike_id": "a00e18284c04da1058a93a84aba69c85", "rental_uris": {"android": "https://dc.lft.to/lastmile_qr_scan", "ios": "https://dc.lft.to/lastmile_qr_scan"}, "name": "a00e18284c04da1058a93a84aba69c85", "is_reserved": 0}, {"is_disabled": 0, "fusion_lon": 0.0, "fusion_lat": 0.0, "lat": 38.956335, "type": "electric_scooter", "lon": -77.02981533333333, "bike_id": "36b12ffab127461a79404a75fab04365", "rental_uris": {"android": "https://dc.lft.to/lastmile_qr_scan", "ios": "https://dc.lft.to/lastmile_qr_scan"}, "name": "36b12ffab127461a79404a75fab04365", "is_reserved": 0}, {"is_disabled": 0, "fusion_lon": 0.0, "fusion_lat": 0.0, "lat": 38.927513, "type": "electric_scooter", "lon": -77.07591016666667, "bike_id": "6212cbee97748c0757ff3a995334a799", "rental_uris": {"android": "https://dc.lft.to/lastmile_qr_scan", "ios": "https://dc.lft.to/lastmile_qr_scan"}, "name": "6212cbee97748c0757ff3a995334a799", "is_reserved": 0}, {"is_disabled": 0, "fusion_lon": 0.0, "fusion_lat": 0.0, "lat": 38.93568033333333, "type": "electric_scooter", "lon": -77.08207683333333, "bike_id": "ff8c7ae4b2d012e7c818844f9fed9ada", "rental_uris": {"android": "https://dc.lft.to/lastmile_qr_scan", "ios": "https://dc.lft.to/lastmile_qr_scan"}, "name": "ff8c7ae4b2d012e7c818844f9fed9ada", "is_reserved": 0}, {"is_disabled": 0, "fusion_lon": 0.0, "fusion_lat": 0.0, "lat": 38.8840015, "type": "electric_bike", "lon": -77.03080333333334, "bike_id": "1ce425c98fc4ba64cae5738cc9a29868", "rental_uris": {"android": "https://dc.lft.to/lastmile_qr_scan", "ios": "https://dc.lft.to/lastmile_qr_scan"}, "name": "1ce425c98fc4ba64cae5738cc9a29868", "is_reserved": 0}, {"is_disabled": 0, "fusion_lon": 0.0, "fusion_lat": 0.0, "lat": 38.84598916666667, "type": "electric_bike", "lon": -76.96880116666667, "bike_id": "1df1e5c37c1d59aa482b04b534909279", "rental_uris": {"android": "https://dc.lft.to/lastmile_qr_scan", "ios": "https://dc.lft.to/lastmile_qr_scan"}, "name": "1df1e5c37c1d59aa482b04b534909279", "is_reserved": 0}, {"is_disabled": 0, "fusion_lon": 0.0, "fusion_lat": 0.0, "lat": 38.95960183333333, "type": "electric_scooter", "lon": -77.021127, "bike_id": "c0c886aaad7611f921fc65ee1195fd70", "rental_uris": {"android": "https://dc.lft.to/lastmile_qr_scan", "ios": "https://dc.lft.to/lastmile_qr_scan"}, "name": "c0c886aaad7611f921fc65ee1195fd70", "is_reserved": 0}, {"is_disabled": 0, "fusion_lon": 0.0, "fusion_lat": 0.0, "lat": 38.91092483333333, "type": "electric_scooter", "lon": -76.98479716666667, "bike_id": "3f24dfc2e20ea5251adb43d8541056c2", "rental_uris": {"android": "https://dc.lft.to/lastmile_qr_scan", "ios": "https://dc.lft.to/lastmile_qr_scan"}, "name": "3f24dfc2e20ea5251adb43d8541056c2", "is_reserved": 0}, {"is_disabled": 0, "fusion_lon": 0.0, "fusion_lat": 0.0, "lat": 38.90749183333333, "type": "electric_scooter", "lon": -77.03576616666666, "bike_id": "502271ca55a07f0638993b161d295824", "rental_uris": {"android": "https://dc.lft.to/lastmile_qr_scan", "ios": "https://dc.lft.to/lastmile_qr_scan"}, "name": "502271ca55a07f0638993b161d295824", "is_reserved": 0}, {"is_disabled": 0, "fusion_lon": 0.0, "fusion_lat": 0.0, "lat": 38.887407, "type": "electric_scooter", "lon": -77.015304, "bike_id": "f935656bdf44f31c6409b5d1dce3f6ba", "rental_uris": {"android": "https://dc.lft.to/lastmile_qr_scan", "ios": "https://dc.lft.to/lastmile_qr_scan"}, "name": "f935656bdf44f31c6409b5d1dce3f6ba", "is_reserved": 0}, {"is_disabled": 0, "fusion_lon": 0.0, "fusion_lat": 0.0, "lat": 38.9111115, "type": "electric_scooter", "lon": -77.03831283333334, "bike_id": "c755b8affeec89bdc3396f290c23a338", "rental_uris": {"android": "https://dc.lft.to/lastmile_qr_scan", "ios": "https://dc.lft.to/lastmile_qr_scan"}, "name": "c755b8affeec89bdc3396f290c23a338", "is_reserved": 0}, {"is_disabled": 0, "fusion_lon": 0.0, "fusion_lat": 0.0, "lat": 38.89196483333333, "type": "electric_scooter", "lon": -77.02239766666666, "bike_id": "c7d9cd738854aad3ff28b0e663249382", "rental_uris": {"android": "https://dc.lft.to/lastmile_qr_scan", "ios": "https://dc.lft.to/lastmile_qr_scan"}, "name": "c7d9cd738854aad3ff28b0e663249382", "is_reserved": 0}, {"is_disabled": 0, "fusion_lon": 0.0, "fusion_lat": 0.0, "lat": 38.89508883333333, "type": "electric_scooter", "lon": -77.0161, "bike_id": "439a692b9d69c1b9437769f40bd6ade2", "rental_uris": {"android": "https://dc.lft.to/lastmile_qr_scan", "ios": "https://dc.lft.to/lastmile_qr_scan"}, "name": "439a692b9d69c1b9437769f40bd6ade2", "is_reserved": 0}, {"is_disabled": 0, "fusion_lon": 0.0, "fusion_lat": 0.0, "lat": 38.919072166666666, "type": "electric_scooter", "lon": -77.0247255, "bike_id": "0ec97e6a4cfb91cb6540a499fe56f723", "rental_uris": {"android": "https://dc.lft.to/lastmile_qr_scan", "ios": "https://dc.lft.to/lastmile_qr_scan"}, "name": "0ec97e6a4cfb91cb6540a499fe56f723", "is_reserved": 0}, {"is_disabled": 0, "fusion_lon": 0.0, "fusion_lat": 0.0, "lat": 38.90563016666667, "type": "electric_scooter", "lon": -77.00560516666667, "bike_id": "48b61773dfc4597b6db0a68e75d53b5b", "rental_uris": {"android": "https://dc.lft.to/lastmile_qr_scan", "ios": "https://dc.lft.to/lastmile_qr_scan"}, "name": "48b61773dfc4597b6db0a68e75d53b5b", "is_reserved": 0}, {"is_disabled": 0, "fusion_lon": 0.0, "fusion_lat": 0.0, "lat": 38.93535116666666, "type": "electric_scooter", "lon": -77.02487666666667, "bike_id": "99e15c33bd6ca64dd9d6a45d9d41d52e", "rental_uris": {"android": "https://dc.lft.to/lastmile_qr_scan", "ios": "https://dc.lft.to/lastmile_qr_scan"}, "name": "99e15c33bd6ca64dd9d6a45d9d41d52e", "is_reserved": 0}, {"is_disabled": 0, "fusion_lon": 0.0, "fusion_lat": 0.0, "lat": 38.84296783333333, "type": "electric_scooter", "lon": -76.99949333333333, "bike_id": "b89b72f148666375902f12b7005d3bcd", "rental_uris": {"android": "https://dc.lft.to/lastmile_qr_scan", "ios": "https://dc.lft.to/lastmile_qr_scan"}, "name": "b89b72f148666375902f12b7005d3bcd", "is_reserved": 0}, {"is_disabled": 0, "fusion_lon": 0.0, "fusion_lat": 0.0, "lat": 38.88701233333333, "type": "electric_scooter", "lon": -76.95362833333333, "bike_id": "e348612f94e8414663091097ea8974bc", "rental_uris": {"android": "https://dc.lft.to/lastmile_qr_scan", "ios": "https://dc.lft.to/lastmile_qr_scan"}, "name": "e348612f94e8414663091097ea8974bc", "is_reserved": 0}, {"is_disabled": 0, "fusion_lon": 0.0, "fusion_lat": 0.0, "lat": 38.90838516666667, "type": "electric_scooter", "lon": -76.9970055, "bike_id": "ee24ea28e3c8010f6c0d1ce0d79ef584", "rental_uris": {"android": "https://dc.lft.to/lastmile_qr_scan", "ios": "https://dc.lft.to/lastmile_qr_scan"}, "name": "ee24ea28e3c8010f6c0d1ce0d79ef584", "is_reserved": 0}, {"is_disabled": 0, "fusion_lon": 0.0, "fusion_lat": 0.0, "lat": 38.8717685, "type": "electric_scooter", "lon": -77.00620833333333, "bike_id": "63940547668d7a2e831db2e916d59658", "rental_uris": {"android": "https://dc.lft.to/lastmile_qr_scan", "ios": "https://dc.lft.to/lastmile_qr_scan"}, "name": "63940547668d7a2e831db2e916d59658", "is_reserved": 0}, {"is_disabled": 0, "fusion_lon": 0.0, "fusion_lat": 0.0, "lat": 38.871773, "type": "electric_scooter", "lon": -77.00619433333334, "bike_id": "7360793bb6d6055f8bf72efa65e214c6", "rental_uris": {"android": "https://dc.lft.to/lastmile_qr_scan", "ios": "https://dc.lft.to/lastmile_qr_scan"}, "name": "7360793bb6d6055f8bf72efa65e214c6", "is_reserved": 0}, {"is_disabled": 0, "fusion_lon": 0.0, "fusion_lat": 0.0, "lat": 38.917641333333336, "type": "electric_scooter", "lon": -77.03599866666667, "bike_id": "417b365abb56fd90b06fd915c012c5f6", "rental_uris": {"android": "https://dc.lft.to/lastmile_qr_scan", "ios": "https://dc.lft.to/lastmile_qr_scan"}, "name": "417b365abb56fd90b06fd915c012c5f6", "is_reserved": 0}, {"is_disabled": 0, "fusion_lon": 0.0, "fusion_lat": 0.0, "lat": 38.899548, "type": "electric_scooter", "lon": -77.0513195, "bike_id": "f16ad553a6f47afca1a88b28b7ca977e", "rental_uris": {"android": "https://dc.lft.to/lastmile_qr_scan", "ios": "https://dc.lft.to/lastmile_qr_scan"}, "name": "f16ad553a6f47afca1a88b28b7ca977e", "is_reserved": 0}, {"is_disabled": 0, "fusion_lon": 0.0, "fusion_lat": 0.0, "lat": 38.95079833333333, "type": "electric_scooter", "lon": -77.02874533333333, "bike_id": "5013ca94fe8f9f5573291f7ed84358cc", "rental_uris": {"android": "https://dc.lft.to/lastmile_qr_scan", "ios": "https://dc.lft.to/lastmile_qr_scan"}, "name": "5013ca94fe8f9f5573291f7ed84358cc", "is_reserved": 0}, {"is_disabled": 0, "fusion_lon": 0.0, "fusion_lat": 0.0, "lat": 38.99256366666667, "type": "electric_bike", "lon": -77.04992, "bike_id": "192bfe54b3fe053d23be3017395b3eeb", "rental_uris": {"android": "https://dc.lft.to/lastmile_qr_scan", "ios": "https://dc.lft.to/lastmile_qr_scan"}, "name": "192bfe54b3fe053d23be3017395b3eeb", "is_reserved": 0}, {"is_disabled": 0, "fusion_lon": 0.0, "fusion_lat": 0.0, "lat": 38.931932333333336, "type": "electric_bike", "lon": -77.22936816666666, "bike_id": "a47ecc22dabaeee5dd52141cd783a4f6", "rental_uris": {"android": "https://dc.lft.to/lastmile_qr_scan", "ios": "https://dc.lft.to/lastmile_qr_scan"}, "name": "a47ecc22dabaeee5dd52141cd783a4f6", "is_reserved": 0}, {"is_disabled": 0, "fusion_lon": 0.0, "fusion_lat": 0.0, "lat": 38.92055366666666, "type": "electric_scooter", "lon": -76.99873916666667, "bike_id": "618776bbdc9818b87db0ebeb86ebd762", "rental_uris": {"android": "https://dc.lft.to/lastmile_qr_scan", "ios": "https://dc.lft.to/lastmile_qr_scan"}, "name": "618776bbdc9818b87db0ebeb86ebd762", "is_reserved": 0}, {"is_disabled": 0, "fusion_lon": 0.0, "fusion_lat": 0.0, "lat": 38.92086583333333, "type": "electric_scooter", "lon": -77.0349105, "bike_id": "c5c17ca8a546ae672b9fbdf0c98960b5", "rental_uris": {"android": "https://dc.lft.to/lastmile_qr_scan", "ios": "https://dc.lft.to/lastmile_qr_scan"}, "name": "c5c17ca8a546ae672b9fbdf0c98960b5", "is_reserved": 0}, {"is_disabled": 0, "fusion_lon": 0.0, "fusion_lat": 0.0, "lat": 38.90029466666667, "type": "electric_scooter", "lon": -77.039678, "bike_id": "c63c1b5740a02c4a040e6e78bd5b7767", "rental_uris": {"android": "https://dc.lft.to/lastmile_qr_scan", "ios": "https://dc.lft.to/lastmile_qr_scan"}, "name": "c63c1b5740a02c4a040e6e78bd5b7767", "is_reserved": 0}, {"is_disabled": 0, "fusion_lon": 0.0, "fusion_lat": 0.0, "lat": 38.915937, "type": "electric_scooter", "lon": -77.02125566666666, "bike_id": "5c29a4eabb1df942ddc229544183527c", "rental_uris": {"android": "https://dc.lft.to/lastmile_qr_scan", "ios": "https://dc.lft.to/lastmile_qr_scan"}, "name": "5c29a4eabb1df942ddc229544183527c", "is_reserved": 0}, {"is_disabled": 0, "fusion_lon": 0.0, "fusion_lat": 0.0, "lat": 38.911983666666664, "type": "electric_scooter", "lon": -77.0386805, "bike_id": "51723fa0c59395dc22eb42b5ee700fac", "rental_uris": {"android": "https://dc.lft.to/lastmile_qr_scan", "ios": "https://dc.lft.to/lastmile_qr_scan"}, "name": "51723fa0c59395dc22eb42b5ee700fac", "is_reserved": 0}, {"is_disabled": 0, "fusion_lon": 0.0, "fusion_lat": 0.0, "lat": 38.92444033333334, "type": "electric_scooter", "lon": -77.04030033333333, "bike_id": "ced27cd1a15d81dc4d168cf63dd90267", "rental_uris": {"android": "https://dc.lft.to/lastmile_qr_scan", "ios": "https://dc.lft.to/lastmile_qr_scan"}, "name": "ced27cd1a15d81dc4d168cf63dd90267", "is_reserved": 0}, {"is_disabled": 0, "fusion_lon": 0.0, "fusion_lat": 0.0, "lat": 38.9447795, "type": "electric_bike", "lon": -77.00645583333333, "bike_id": "40e43bf0cc15235af5e8df37d659bcb1", "rental_uris": {"android": "https://dc.lft.to/lastmile_qr_scan", "ios": "https://dc.lft.to/lastmile_qr_scan"}, "name": "40e43bf0cc15235af5e8df37d659bcb1", "is_reserved": 0}, {"is_disabled": 0, "fusion_lon": 0.0, "fusion_lat": 0.0, "lat": 38.886825333333334, "type": "electric_scooter", "lon": -76.95479466666667, "bike_id": "f55091ab9a06e2d465dad3ea459ba2fa", "rental_uris": {"android": "https://dc.lft.to/lastmile_qr_scan", "ios": "https://dc.lft.to/lastmile_qr_scan"}, "name": "f55091ab9a06e2d465dad3ea459ba2fa", "is_reserved": 0}, {"is_disabled": 0, "fusion_lon": 0.0, "fusion_lat": 0.0, "lat": 38.945516, "type": "electric_bike", "lon": -77.05125433333333, "bike_id": "90b29089eb6a7f0ec68076e742253b4a", "rental_uris": {"android": "https://dc.lft.to/lastmile_qr_scan", "ios": "https://dc.lft.to/lastmile_qr_scan"}, "name": "90b29089eb6a7f0ec68076e742253b4a", "is_reserved": 0}, {"is_disabled": 0, "fusion_lon": 0.0, "fusion_lat": 0.0, "lat": 38.905340833333334, "type": "electric_scooter", "lon": -77.0502165, "bike_id": "4b4b7bdef0f938c56d0ed66474e6aaef", "rental_uris": {"android": "https://dc.lft.to/lastmile_qr_scan", "ios": "https://dc.lft.to/lastmile_qr_scan"}, "name": "4b4b7bdef0f938c56d0ed66474e6aaef", "is_reserved": 0}, {"is_disabled": 0, "fusion_lon": 0.0, "fusion_lat": 0.0, "lat": 38.92482016666666, "type": "electric_scooter", "lon": -77.03767816666667, "bike_id": "94a6ce0c1239274f151ca7ef5b2c35db", "rental_uris": {"android": "https://dc.lft.to/lastmile_qr_scan", "ios": "https://dc.lft.to/lastmile_qr_scan"}, "name": "94a6ce0c1239274f151ca7ef5b2c35db", "is_reserved": 0}, {"is_disabled": 0, "fusion_lon": 0.0, "fusion_lat": 0.0, "lat": 38.871766666666666, "type": "electric_scooter", "lon": -77.00619383333333, "bike_id": "d7fa64aa960ede97c4dcfab59159fd6a", "rental_uris": {"android": "https://dc.lft.to/lastmile_qr_scan", "ios": "https://dc.lft.to/lastmile_qr_scan"}, "name": "d7fa64aa960ede97c4dcfab59159fd6a", "is_reserved": 0}, {"is_disabled": 0, "fusion_lon": 0.0, "fusion_lat": 0.0, "lat": 38.88578566666666, "type": "electric_scooter", "lon": -76.9190635, "bike_id": "ffda4532bea36e7e67a5143ff8648d65", "rental_uris": {"android": "https://dc.lft.to/lastmile_qr_scan", "ios": "https://dc.lft.to/lastmile_qr_scan"}, "name": "ffda4532bea36e7e67a5143ff8648d65", "is_reserved": 0}, {"is_disabled": 0, "fusion_lon": 0.0, "fusion_lat": 0.0, "lat": 38.897464166666666, "type": "electric_scooter", "lon": -77.02884133333333, "bike_id": "b8b86afdc9de9e3a32667438e81832f4", "rental_uris": {"android": "https://dc.lft.to/lastmile_qr_scan", "ios": "https://dc.lft.to/lastmile_qr_scan"}, "name": "b8b86afdc9de9e3a32667438e81832f4", "is_reserved": 0}, {"is_disabled": 0, "fusion_lon": 0.0, "fusion_lat": 0.0, "lat": 38.92412683333333, "type": "electric_scooter", "lon": -77.05255566666666, "bike_id": "b90635acdc8e875d3f2f83ab981489bc", "rental_uris": {"android": "https://dc.lft.to/lastmile_qr_scan", "ios": "https://dc.lft.to/lastmile_qr_scan"}, "name": "b90635acdc8e875d3f2f83ab981489bc", "is_reserved": 0}, {"is_disabled": 0, "fusion_lon": 0.0, "fusion_lat": 0.0, "lat": 38.90487133333333, "type": "electric_scooter", "lon": -77.026994, "bike_id": "2549f0d74747b45167f058539cf5fe41", "rental_uris": {"android": "https://dc.lft.to/lastmile_qr_scan", "ios": "https://dc.lft.to/lastmile_qr_scan"}, "name": "2549f0d74747b45167f058539cf5fe41", "is_reserved": 0}, {"is_disabled": 0, "fusion_lon": 0.0, "fusion_lat": 0.0, "lat": 39.0388425, "type": "electric_bike", "lon": -77.109096, "bike_id": "cc754a1ec989f670813a7f918d26702d", "rental_uris": {"android": "https://dc.lft.to/lastmile_qr_scan", "ios": "https://dc.lft.to/lastmile_qr_scan"}, "name": "cc754a1ec989f670813a7f918d26702d", "is_reserved": 0}, {"is_disabled": 0, "fusion_lon": 0.0, "fusion_lat": 0.0, "lat": 38.9562025, "type": "electric_scooter", "lon": -77.02783983333333, "bike_id": "28b45ead3c22717049bee70c72d48226", "rental_uris": {"android": "https://dc.lft.to/lastmile_qr_scan", "ios": "https://dc.lft.to/lastmile_qr_scan"}, "name": "28b45ead3c22717049bee70c72d48226", "is_reserved": 0}, {"is_disabled": 0, "fusion_lon": 0.0, "fusion_lat": 0.0, "lat": 38.953293, "type": "electric_scooter", "lon": -77.0685165, "bike_id": "3f46b69c9cdf803aa87b62f2c5232e2f", "rental_uris": {"android": "https://dc.lft.to/lastmile_qr_scan", "ios": "https://dc.lft.to/lastmile_qr_scan"}, "name": "3f46b69c9cdf803aa87b62f2c5232e2f", "is_reserved": 0}, {"is_disabled": 0, "fusion_lon": 0.0, "fusion_lat": 0.0, "lat": 38.922196666666665, "type": "electric_scooter", "lon": -77.04333116666666, "bike_id": "cd1e60521a7717e8e63f0caa3f050d5f", "rental_uris": {"android": "https://dc.lft.to/lastmile_qr_scan", "ios": "https://dc.lft.to/lastmile_qr_scan"}, "name": "cd1e60521a7717e8e63f0caa3f050d5f", "is_reserved": 0}, {"is_disabled": 0, "fusion_lon": 0.0, "fusion_lat": 0.0, "lat": 38.882519333333335, "type": "electric_bike", "lon": -77.00062783333334, "bike_id": "f2e0fb6090692de939d32776fda59ece", "rental_uris": {"android": "https://dc.lft.to/lastmile_qr_scan", "ios": "https://dc.lft.to/lastmile_qr_scan"}, "name": "f2e0fb6090692de939d32776fda59ece", "is_reserved": 0}, {"is_disabled": 0, "fusion_lon": 0.0, "fusion_lat": 0.0, "lat": 38.9165115, "type": "electric_scooter", "lon": -77.02180683333333, "bike_id": "e7a3613f2b8c5a3c5045e14359da233c", "rental_uris": {"android": "https://dc.lft.to/lastmile_qr_scan", "ios": "https://dc.lft.to/lastmile_qr_scan"}, "name": "e7a3613f2b8c5a3c5045e14359da233c", "is_reserved": 0}, {"is_disabled": 0, "fusion_lon": 0.0, "fusion_lat": 0.0, "lat": 38.9191875, "type": "electric_scooter", "lon": -77.0302435, "bike_id": "057735416767265b4298097f3b26e7d2", "rental_uris": {"android": "https://dc.lft.to/lastmile_qr_scan", "ios": "https://dc.lft.to/lastmile_qr_scan"}, "name": "057735416767265b4298097f3b26e7d2", "is_reserved": 0}, {"is_disabled": 0, "fusion_lon": 0.0, "fusion_lat": 0.0, "lat": 38.8924565, "type": "electric_scooter", "lon": -77.0334665, "bike_id": "3dad2baac1a3d2eb38352c90f7cdd591", "rental_uris": {"android": "https://dc.lft.to/lastmile_qr_scan", "ios": "https://dc.lft.to/lastmile_qr_scan"}, "name": "3dad2baac1a3d2eb38352c90f7cdd591", "is_reserved": 0}, {"is_disabled": 0, "fusion_lon": 0.0, "fusion_lat": 0.0, "lat": 38.9058585, "type": "electric_scooter", "lon": -77.00443083333333, "bike_id": "ff4855b41c3c14e4f550b7ad3eea0dd8", "rental_uris": {"android": "https://dc.lft.to/lastmile_qr_scan", "ios": "https://dc.lft.to/lastmile_qr_scan"}, "name": "ff4855b41c3c14e4f550b7ad3eea0dd8", "is_reserved": 0}, {"is_disabled": 0, "fusion_lon": 0.0, "fusion_lat": 0.0, "lat": 38.90924433333333, "type": "electric_scooter", "lon": -77.03207616666667, "bike_id": "ff9d175f7a26f20cf528fb58616a18b5", "rental_uris": {"android": "https://dc.lft.to/lastmile_qr_scan", "ios": "https://dc.lft.to/lastmile_qr_scan"}, "name": "ff9d175f7a26f20cf528fb58616a18b5", "is_reserved": 0}, {"is_disabled": 0, "fusion_lon": 0.0, "fusion_lat": 0.0, "lat": 38.94985233333333, "type": "electric_scooter", "lon": -77.02701183333333, "bike_id": "51499a95a10af8a5857a60f69e3573a5", "rental_uris": {"android": "https://dc.lft.to/lastmile_qr_scan", "ios": "https://dc.lft.to/lastmile_qr_scan"}, "name": "51499a95a10af8a5857a60f69e3573a5", "is_reserved": 0}, {"is_disabled": 0, "fusion_lon": 0.0, "fusion_lat": 0.0, "lat": 38.905129333333335, "type": "electric_scooter", "lon": -77.00212233333333, "bike_id": "84492182fc9d7faeb8ff138686ee4d4e", "rental_uris": {"android": "https://dc.lft.to/lastmile_qr_scan", "ios": "https://dc.lft.to/lastmile_qr_scan"}, "name": "84492182fc9d7faeb8ff138686ee4d4e", "is_reserved": 0}, {"is_disabled": 0, "fusion_lon": 0.0, "fusion_lat": 0.0, "lat": 38.890005333333335, "type": "electric_scooter", "lon": -77.01502733333334, "bike_id": "6a38e191a1fb2b71222992f1742e2613", "rental_uris": {"android": "https://dc.lft.to/lastmile_qr_scan", "ios": "https://dc.lft.to/lastmile_qr_scan"}, "name": "6a38e191a1fb2b71222992f1742e2613", "is_reserved": 0}, {"is_disabled": 0, "fusion_lon": 0.0, "fusion_lat": 0.0, "lat": 38.89219166666667, "type": "electric_scooter", "lon": -77.02255983333333, "bike_id": "6f5f8862c97b07fb9fc26a22d781fc39", "rental_uris": {"android": "https://dc.lft.to/lastmile_qr_scan", "ios": "https://dc.lft.to/lastmile_qr_scan"}, "name": "6f5f8862c97b07fb9fc26a22d781fc39", "is_reserved": 0}, {"is_disabled": 0, "fusion_lon": 0.0, "fusion_lat": 0.0, "lat": 38.9103845, "type": "electric_scooter", "lon": -77.013709, "bike_id": "c5b740fab3fee843b63dd07ae2ae455d", "rental_uris": {"android": "https://dc.lft.to/lastmile_qr_scan", "ios": "https://dc.lft.to/lastmile_qr_scan"}, "name": "c5b740fab3fee843b63dd07ae2ae455d", "is_reserved": 0}, {"is_disabled": 0, "fusion_lon": 0.0, "fusion_lat": 0.0, "lat": 38.935006333333334, "type": "electric_bike", "lon": -76.94956383333333, "bike_id": "00ff1a0fdff6ec78fe1e055b9fbbbc1d", "rental_uris": {"android": "https://dc.lft.to/lastmile_qr_scan", "ios": "https://dc.lft.to/lastmile_qr_scan"}, "name": "00ff1a0fdff6ec78fe1e055b9fbbbc1d", "is_reserved": 0}, {"is_disabled": 0, "fusion_lon": 0.0, "fusion_lat": 0.0, "lat": 38.88630666666667, "type": "electric_scooter", "lon": -76.99848116666666, "bike_id": "ec255602595b6d2f9460b504153e38cc", "rental_uris": {"android": "https://dc.lft.to/lastmile_qr_scan", "ios": "https://dc.lft.to/lastmile_qr_scan"}, "name": "ec255602595b6d2f9460b504153e38cc", "is_reserved": 0}, {"is_disabled": 0, "fusion_lon": 0.0, "fusion_lat": 0.0, "lat": 38.903061666666666, "type": "electric_scooter", "lon": -77.022247, "bike_id": "a23e97118fcc266d2669ab1bd27047be", "rental_uris": {"android": "https://dc.lft.to/lastmile_qr_scan", "ios": "https://dc.lft.to/lastmile_qr_scan"}, "name": "a23e97118fcc266d2669ab1bd27047be", "is_reserved": 0}, {"is_disabled": 0, "fusion_lon": 0.0, "fusion_lat": 0.0, "lat": 38.83811083333333, "type": "electric_scooter", "lon": -77.0043305, "bike_id": "65afbcc5743d2115a32b667ddae8ae64", "rental_uris": {"android": "https://dc.lft.to/lastmile_qr_scan", "ios": "https://dc.lft.to/lastmile_qr_scan"}, "name": "65afbcc5743d2115a32b667ddae8ae64", "is_reserved": 0}, {"is_disabled": 0, "fusion_lon": 0.0, "fusion_lat": 0.0, "lat": 38.919185166666665, "type": "electric_scooter", "lon": -77.04178066666667, "bike_id": "0d283e11011927a5b31e9e6123b36089", "rental_uris": {"android": "https://dc.lft.to/lastmile_qr_scan", "ios": "https://dc.lft.to/lastmile_qr_scan"}, "name": "0d283e11011927a5b31e9e6123b36089", "is_reserved": 0}, {"is_disabled": 0, "fusion_lon": 0.0, "fusion_lat": 0.0, "lat": 38.842960833333336, "type": "electric_scooter", "lon": -76.99948633333334, "bike_id": "3695c85a8caab86593b1ab29494bd321", "rental_uris": {"android": "https://dc.lft.to/lastmile_qr_scan", "ios": "https://dc.lft.to/lastmile_qr_scan"}, "name": "3695c85a8caab86593b1ab29494bd321", "is_reserved": 0}, {"is_disabled": 0, "fusion_lon": 0.0, "fusion_lat": 0.0, "lat": 38.90245483333333, "type": "electric_scooter", "lon": -77.0534525, "bike_id": "871f57122e9faf44e3dfec32afb57615", "rental_uris": {"android": "https://dc.lft.to/lastmile_qr_scan", "ios": "https://dc.lft.to/lastmile_qr_scan"}, "name": "871f57122e9faf44e3dfec32afb57615", "is_reserved": 0}, {"is_disabled": 0, "fusion_lon": 0.0, "fusion_lat": 0.0, "lat": 38.897365, "type": "electric_scooter", "lon": -77.02822383333333, "bike_id": "ebacef2eefeba9bb86c4d939128f11ba", "rental_uris": {"android": "https://dc.lft.to/lastmile_qr_scan", "ios": "https://dc.lft.to/lastmile_qr_scan"}, "name": "ebacef2eefeba9bb86c4d939128f11ba", "is_reserved": 0}, {"is_disabled": 0, "fusion_lon": 0.0, "fusion_lat": 0.0, "lat": 38.8946395, "type": "electric_scooter", "lon": -76.99487116666667, "bike_id": "da884525224af48084cf93fd34f8a25a", "rental_uris": {"android": "https://dc.lft.to/lastmile_qr_scan", "ios": "https://dc.lft.to/lastmile_qr_scan"}, "name": "da884525224af48084cf93fd34f8a25a", "is_reserved": 0}, {"is_disabled": 0, "fusion_lon": 0.0, "fusion_lat": 0.0, "lat": 38.90728983333333, "type": "electric_scooter", "lon": -77.02983283333333, "bike_id": "5f38dfa670c0a239b2e5e8638f8da351", "rental_uris": {"android": "https://dc.lft.to/lastmile_qr_scan", "ios": "https://dc.lft.to/lastmile_qr_scan"}, "name": "5f38dfa670c0a239b2e5e8638f8da351", "is_reserved": 0}, {"is_disabled": 0, "fusion_lon": 0.0, "fusion_lat": 0.0, "lat": 39.09946766666667, "type": "electric_bike", "lon": -77.18788266666667, "bike_id": "b2cc1968038f99f842e7ee21a507f8e6", "rental_uris": {"android": "https://dc.lft.to/lastmile_qr_scan", "ios": "https://dc.lft.to/lastmile_qr_scan"}, "name": "b2cc1968038f99f842e7ee21a507f8e6", "is_reserved": 0}, {"is_disabled": 0, "fusion_lon": 0.0, "fusion_lat": 0.0, "lat": 38.90972333333333, "type": "electric_scooter", "lon": -77.04055516666666, "bike_id": "d5d81950e3b9c4d29faaea5c581fe70e", "rental_uris": {"android": "https://dc.lft.to/lastmile_qr_scan", "ios": "https://dc.lft.to/lastmile_qr_scan"}, "name": "d5d81950e3b9c4d29faaea5c581fe70e", "is_reserved": 0}, {"is_disabled": 0, "fusion_lon": 0.0, "fusion_lat": 0.0, "lat": 38.915693166666664, "type": "electric_scooter", "lon": -77.0320955, "bike_id": "9d67ef401682df4bfbf076fbab9a1f1c", "rental_uris": {"android": "https://dc.lft.to/lastmile_qr_scan", "ios": "https://dc.lft.to/lastmile_qr_scan"}, "name": "9d67ef401682df4bfbf076fbab9a1f1c", "is_reserved": 0}, {"is_disabled": 0, "fusion_lon": 0.0, "fusion_lat": 0.0, "lat": 38.906014666666664, "type": "electric_scooter", "lon": -77.06296233333333, "bike_id": "4e5f82f0c95e0569e0d169ab6b10032b", "rental_uris": {"android": "https://dc.lft.to/lastmile_qr_scan", "ios": "https://dc.lft.to/lastmile_qr_scan"}, "name": "4e5f82f0c95e0569e0d169ab6b10032b", "is_reserved": 0}, {"is_disabled": 0, "fusion_lon": 0.0, "fusion_lat": 0.0, "lat": 38.897637833333334, "type": "electric_scooter", "lon": -76.99270166666666, "bike_id": "d713adaceb52d1795a4f7fbbc4072027", "rental_uris": {"android": "https://dc.lft.to/lastmile_qr_scan", "ios": "https://dc.lft.to/lastmile_qr_scan"}, "name": "d713adaceb52d1795a4f7fbbc4072027", "is_reserved": 0}, {"is_disabled": 0, "fusion_lon": 0.0, "fusion_lat": 0.0, "lat": 38.9475295, "type": "electric_scooter", "lon": -77.02980433333333, "bike_id": "7a594f0969c4f26c0700daa26c6dfcee", "rental_uris": {"android": "https://dc.lft.to/lastmile_qr_scan", "ios": "https://dc.lft.to/lastmile_qr_scan"}, "name": "7a594f0969c4f26c0700daa26c6dfcee", "is_reserved": 0}, {"is_disabled": 0, "fusion_lon": 0.0, "fusion_lat": 0.0, "lat": 38.93112, "type": "electric_scooter", "lon": -77.012475, "bike_id": "199c1ef69688effe88f27a6071338ba7", "rental_uris": {"android": "https://dc.lft.to/lastmile_qr_scan", "ios": "https://dc.lft.to/lastmile_qr_scan"}, "name": "199c1ef69688effe88f27a6071338ba7", "is_reserved": 0}, {"is_disabled": 0, "fusion_lon": 0.0, "fusion_lat": 0.0, "lat": 38.90522383333333, "type": "electric_scooter", "lon": -77.0498765, "bike_id": "45756149933a33b31c0db8ed91e0a620", "rental_uris": {"android": "https://dc.lft.to/lastmile_qr_scan", "ios": "https://dc.lft.to/lastmile_qr_scan"}, "name": "45756149933a33b31c0db8ed91e0a620", "is_reserved": 0}, {"is_disabled": 0, "fusion_lon": 0.0, "fusion_lat": 0.0, "lat": 38.92748566666667, "type": "electric_scooter", "lon": -77.0248455, "bike_id": "f9ef46170488553034325440291f84b6", "rental_uris": {"android": "https://dc.lft.to/lastmile_qr_scan", "ios": "https://dc.lft.to/lastmile_qr_scan"}, "name": "f9ef46170488553034325440291f84b6", "is_reserved": 0}, {"is_disabled": 0, "fusion_lon": 0.0, "fusion_lat": 0.0, "lat": 38.89990383333333, "type": "electric_scooter", "lon": -77.0336215, "bike_id": "68deb15a054e7ac5a8f4edaf05052861", "rental_uris": {"android": "https://dc.lft.to/lastmile_qr_scan", "ios": "https://dc.lft.to/lastmile_qr_scan"}, "name": "68deb15a054e7ac5a8f4edaf05052861", "is_reserved": 0}, {"is_disabled": 0, "fusion_lon": 0.0, "fusion_lat": 0.0, "lat": 38.90557033333333, "type": "electric_scooter", "lon": -77.03655033333334, "bike_id": "7f36d9abf3d5f39fe1b54030d255f551", "rental_uris": {"android": "https://dc.lft.to/lastmile_qr_scan", "ios": "https://dc.lft.to/lastmile_qr_scan"}, "name": "7f36d9abf3d5f39fe1b54030d255f551", "is_reserved": 0}, {"is_disabled": 0, "fusion_lon": 0.0, "fusion_lat": 0.0, "lat": 38.90537466666667, "type": "electric_bike", "lon": -77.0568805, "bike_id": "16eb3331acb24b9edc6c6864a2436d93", "rental_uris": {"android": "https://dc.lft.to/lastmile_qr_scan", "ios": "https://dc.lft.to/lastmile_qr_scan"}, "name": "16eb3331acb24b9edc6c6864a2436d93", "is_reserved": 0}, {"is_disabled": 0, "fusion_lon": 0.0, "fusion_lat": 0.0, "lat": 38.9140285, "type": "electric_scooter", "lon": -77.031697, "bike_id": "2adfe2df422ace237245b0d4ac760128", "rental_uris": {"android": "https://dc.lft.to/lastmile_qr_scan", "ios": "https://dc.lft.to/lastmile_qr_scan"}, "name": "2adfe2df422ace237245b0d4ac760128", "is_reserved": 0}, {"is_disabled": 0, "fusion_lon": 0.0, "fusion_lat": 0.0, "lat": 38.94331183333333, "type": "electric_bike", "lon": -77.0147685, "bike_id": "5a36c9e1ce20da4b80d6716d5c0694b6", "rental_uris": {"android": "https://dc.lft.to/lastmile_qr_scan", "ios": "https://dc.lft.to/lastmile_qr_scan"}, "name": "5a36c9e1ce20da4b80d6716d5c0694b6", "is_reserved": 0}, {"is_disabled": 0, "fusion_lon": 0.0, "fusion_lat": 0.0, "lat": 38.921310166666665, "type": "electric_scooter", "lon": -77.04436966666667, "bike_id": "6f088678c5bb393a66526176b3125c77", "rental_uris": {"android": "https://dc.lft.to/lastmile_qr_scan", "ios": "https://dc.lft.to/lastmile_qr_scan"}, "name": "6f088678c5bb393a66526176b3125c77", "is_reserved": 0}, {"is_disabled": 0, "fusion_lon": 0.0, "fusion_lat": 0.0, "lat": 38.90797216666667, "type": "electric_scooter", "lon": -77.02383716666667, "bike_id": "1c6c3764008cbfe8597ac9893a8700e5", "rental_uris": {"android": "https://dc.lft.to/lastmile_qr_scan", "ios": "https://dc.lft.to/lastmile_qr_scan"}, "name": "1c6c3764008cbfe8597ac9893a8700e5", "is_reserved": 0}, {"is_disabled": 0, "fusion_lon": 0.0, "fusion_lat": 0.0, "lat": 38.89546266666667, "type": "electric_scooter", "lon": -77.01531616666666, "bike_id": "12980d98158f3db2b52fa0802ead2556", "rental_uris": {"android": "https://dc.lft.to/lastmile_qr_scan", "ios": "https://dc.lft.to/lastmile_qr_scan"}, "name": "12980d98158f3db2b52fa0802ead2556", "is_reserved": 0}, {"is_disabled": 0, "fusion_lon": 0.0, "fusion_lat": 0.0, "lat": 38.9056925, "type": "electric_scooter", "lon": -77.004198, "bike_id": "30760cd99f7fd5a3b05dec883fb4bf39", "rental_uris": {"android": "https://dc.lft.to/lastmile_qr_scan", "ios": "https://dc.lft.to/lastmile_qr_scan"}, "name": "30760cd99f7fd5a3b05dec883fb4bf39", "is_reserved": 0}, {"is_disabled": 0, "fusion_lon": 0.0, "fusion_lat": 0.0, "lat": 38.852856833333334, "type": "electric_bike", "lon": -76.98154083333333, "bike_id": "4b4670f2fb953f6441b3dd2d96e5bdea", "rental_uris": {"android": "https://dc.lft.to/lastmile_qr_scan", "ios": "https://dc.lft.to/lastmile_qr_scan"}, "name": "4b4670f2fb953f6441b3dd2d96e5bdea", "is_reserved": 0}, {"is_disabled": 0, "fusion_lon": 0.0, "fusion_lat": 0.0, "lat": 38.8578175, "type": "electric_bike", "lon": -76.987636, "bike_id": "8e97b6b95bd0e675a64e1f543fcddfde", "rental_uris": {"android": "https://dc.lft.to/lastmile_qr_scan", "ios": "https://dc.lft.to/lastmile_qr_scan"}, "name": "8e97b6b95bd0e675a64e1f543fcddfde", "is_reserved": 0}, {"is_disabled": 0, "fusion_lon": 0.0, "fusion_lat": 0.0, "lat": 38.921315166666666, "type": "electric_scooter", "lon": -77.04227233333333, "bike_id": "fc89d485067091df2ba7d27614bf653c", "rental_uris": {"android": "https://dc.lft.to/lastmile_qr_scan", "ios": "https://dc.lft.to/lastmile_qr_scan"}, "name": "fc89d485067091df2ba7d27614bf653c", "is_reserved": 0}, {"is_disabled": 0, "fusion_lon": 0.0, "fusion_lat": 0.0, "lat": 38.91198266666667, "type": "electric_scooter", "lon": -77.041698, "bike_id": "04bd65232ae24d73741c0566e56ccbb8", "rental_uris": {"android": "https://dc.lft.to/lastmile_qr_scan", "ios": "https://dc.lft.to/lastmile_qr_scan"}, "name": "04bd65232ae24d73741c0566e56ccbb8", "is_reserved": 0}, {"is_disabled": 0, "fusion_lon": 0.0, "fusion_lat": 0.0, "lat": 38.90889966666667, "type": "electric_scooter", "lon": -77.0413185, "bike_id": "5970dec27db24e24b827bffd548325a9", "rental_uris": {"android": "https://dc.lft.to/lastmile_qr_scan", "ios": "https://dc.lft.to/lastmile_qr_scan"}, "name": "5970dec27db24e24b827bffd548325a9", "is_reserved": 0}, {"is_disabled": 0, "fusion_lon": 0.0, "fusion_lat": 0.0, "lat": 38.8939905, "type": "electric_scooter", "lon": -76.949958, "bike_id": "18e7f176c99b296d001a3cddd748aa20", "rental_uris": {"android": "https://dc.lft.to/lastmile_qr_scan", "ios": "https://dc.lft.to/lastmile_qr_scan"}, "name": "18e7f176c99b296d001a3cddd748aa20", "is_reserved": 0}, {"is_disabled": 0, "fusion_lon": 0.0, "fusion_lat": 0.0, "lat": 38.911953833333335, "type": "electric_scooter", "lon": -77.037148, "bike_id": "518a9c8eca5b709aa275834374757503", "rental_uris": {"android": "https://dc.lft.to/lastmile_qr_scan", "ios": "https://dc.lft.to/lastmile_qr_scan"}, "name": "518a9c8eca5b709aa275834374757503", "is_reserved": 0}, {"is_disabled": 0, "fusion_lon": 0.0, "fusion_lat": 0.0, "lat": 38.915633, "type": "electric_scooter", "lon": -77.032433, "bike_id": "a932029a3a6bfb49c10697f88e4a964a", "rental_uris": {"android": "https://dc.lft.to/lastmile_qr_scan", "ios": "https://dc.lft.to/lastmile_qr_scan"}, "name": "a932029a3a6bfb49c10697f88e4a964a", "is_reserved": 0}, {"is_disabled": 0, "fusion_lon": 0.0, "fusion_lat": 0.0, "lat": 38.89521083333333, "type": "electric_scooter", "lon": -77.02682233333333, "bike_id": "620b11167d330d97b619d4256b79dad7", "rental_uris": {"android": "https://dc.lft.to/lastmile_qr_scan", "ios": "https://dc.lft.to/lastmile_qr_scan"}, "name": "620b11167d330d97b619d4256b79dad7", "is_reserved": 0}, {"is_disabled": 0, "fusion_lon": 0.0, "fusion_lat": 0.0, "lat": 38.9126195, "type": "electric_scooter", "lon": -77.03750583333333, "bike_id": "a1832be490f1bae685a758e27347cc75", "rental_uris": {"android": "https://dc.lft.to/lastmile_qr_scan", "ios": "https://dc.lft.to/lastmile_qr_scan"}, "name": "a1832be490f1bae685a758e27347cc75", "is_reserved": 0}, {"is_disabled": 0, "fusion_lon": 0.0, "fusion_lat": 0.0, "lat": 38.91120566666667, "type": "electric_scooter", "lon": -77.04405266666667, "bike_id": "f51f950a76110202de17248ae3e244e9", "rental_uris": {"android": "https://dc.lft.to/lastmile_qr_scan", "ios": "https://dc.lft.to/lastmile_qr_scan"}, "name": "f51f950a76110202de17248ae3e244e9", "is_reserved": 0}, {"is_disabled": 0, "fusion_lon": 0.0, "fusion_lat": 0.0, "lat": 38.891990166666666, "type": "electric_scooter", "lon": -77.02239466666667, "bike_id": "c544da734a8f01124f8466903f4d3938", "rental_uris": {"android": "https://dc.lft.to/lastmile_qr_scan", "ios": "https://dc.lft.to/lastmile_qr_scan"}, "name": "c544da734a8f01124f8466903f4d3938", "is_reserved": 0}, {"is_disabled": 0, "fusion_lon": 0.0, "fusion_lat": 0.0, "lat": 38.90572366666667, "type": "electric_scooter", "lon": -77.04346033333333, "bike_id": "f7df08ba075ad46bd731ca573c282075", "rental_uris": {"android": "https://dc.lft.to/lastmile_qr_scan", "ios": "https://dc.lft.to/lastmile_qr_scan"}, "name": "f7df08ba075ad46bd731ca573c282075", "is_reserved": 0}, {"is_disabled": 0, "fusion_lon": 0.0, "fusion_lat": 0.0, "lat": 38.9115385, "type": "electric_scooter", "lon": -76.98498033333334, "bike_id": "421bfc8e1db5836dc18ecb0c5d121a93", "rental_uris": {"android": "https://dc.lft.to/lastmile_qr_scan", "ios": "https://dc.lft.to/lastmile_qr_scan"}, "name": "421bfc8e1db5836dc18ecb0c5d121a93", "is_reserved": 0}, {"is_disabled": 0, "fusion_lon": 0.0, "fusion_lat": 0.0, "lat": 38.900384833333334, "type": "electric_scooter", "lon": -77.00197133333333, "bike_id": "37042db8715e215a436b10dfb3b8ba59", "rental_uris": {"android": "https://dc.lft.to/lastmile_qr_scan", "ios": "https://dc.lft.to/lastmile_qr_scan"}, "name": "37042db8715e215a436b10dfb3b8ba59", "is_reserved": 0}, {"is_disabled": 0, "fusion_lon": 0.0, "fusion_lat": 0.0, "lat": 38.91191966666667, "type": "electric_scooter", "lon": -77.0416365, "bike_id": "452a61f950cd275987c9891d78ae861a", "rental_uris": {"android": "https://dc.lft.to/lastmile_qr_scan", "ios": "https://dc.lft.to/lastmile_qr_scan"}, "name": "452a61f950cd275987c9891d78ae861a", "is_reserved": 0}, {"is_disabled": 0, "fusion_lon": 0.0, "fusion_lat": 0.0, "lat": 38.8949705, "type": "electric_scooter", "lon": -77.0229545, "bike_id": "e8f5d8d0f3acbb186f1c9e1cf266662a", "rental_uris": {"android": "https://dc.lft.to/lastmile_qr_scan", "ios": "https://dc.lft.to/lastmile_qr_scan"}, "name": "e8f5d8d0f3acbb186f1c9e1cf266662a", "is_reserved": 0}, {"is_disabled": 0, "fusion_lon": 0.0, "fusion_lat": 0.0, "lat": 38.90468, "type": "electric_scooter", "lon": -76.99208016666667, "bike_id": "81fbde22af32d89408649e1a4b7c3c7f", "rental_uris": {"android": "https://dc.lft.to/lastmile_qr_scan", "ios": "https://dc.lft.to/lastmile_qr_scan"}, "name": "81fbde22af32d89408649e1a4b7c3c7f", "is_reserved": 0}, {"is_disabled": 0, "fusion_lon": 0.0, "fusion_lat": 0.0, "lat": 38.916947, "type": "electric_scooter", "lon": -77.03719283333334, "bike_id": "61e228916a85c8dff7cc2b590049edf3", "rental_uris": {"android": "https://dc.lft.to/lastmile_qr_scan", "ios": "https://dc.lft.to/lastmile_qr_scan"}, "name": "61e228916a85c8dff7cc2b590049edf3", "is_reserved": 0}, {"is_disabled": 0, "fusion_lon": 0.0, "fusion_lat": 0.0, "lat": 38.910658833333336, "type": "electric_scooter", "lon": -77.04590716666667, "bike_id": "ab553c8d7c85cd64add89d36871dd272", "rental_uris": {"android": "https://dc.lft.to/lastmile_qr_scan", "ios": "https://dc.lft.to/lastmile_qr_scan"}, "name": "ab553c8d7c85cd64add89d36871dd272", "is_reserved": 0}, {"is_disabled": 0, "fusion_lon": 0.0, "fusion_lat": 0.0, "lat": 38.875290666666665, "type": "electric_scooter", "lon": -77.00073833333333, "bike_id": "a2b270c0ee6a9d9766cbe7258ba6755c", "rental_uris": {"android": "https://dc.lft.to/lastmile_qr_scan", "ios": "https://dc.lft.to/lastmile_qr_scan"}, "name": "a2b270c0ee6a9d9766cbe7258ba6755c", "is_reserved": 0}, {"is_disabled": 0, "fusion_lon": 0.0, "fusion_lat": 0.0, "lat": 38.93559533333333, "type": "electric_scooter", "lon": -77.03445116666667, "bike_id": "2d7b98befe93f0542084593657e24e2a", "rental_uris": {"android": "https://dc.lft.to/lastmile_qr_scan", "ios": "https://dc.lft.to/lastmile_qr_scan"}, "name": "2d7b98befe93f0542084593657e24e2a", "is_reserved": 0}, {"is_disabled": 0, "fusion_lon": 0.0, "fusion_lat": 0.0, "lat": 38.91523633333333, "type": "electric_scooter", "lon": -77.01983433333334, "bike_id": "9d568a075be9665a1057b62e50507dc3", "rental_uris": {"android": "https://dc.lft.to/lastmile_qr_scan", "ios": "https://dc.lft.to/lastmile_qr_scan"}, "name": "9d568a075be9665a1057b62e50507dc3", "is_reserved": 0}, {"is_disabled": 0, "fusion_lon": 0.0, "fusion_lat": 0.0, "lat": 38.931464166666665, "type": "electric_scooter", "lon": -77.07849833333333, "bike_id": "017f848a4a1e8c1dcbfdbe85014b56ba", "rental_uris": {"android": "https://dc.lft.to/lastmile_qr_scan", "ios": "https://dc.lft.to/lastmile_qr_scan"}, "name": "017f848a4a1e8c1dcbfdbe85014b56ba", "is_reserved": 0}, {"is_disabled": 0, "fusion_lon": 0.0, "fusion_lat": 0.0, "lat": 38.90927516666667, "type": "electric_scooter", "lon": -77.05713116666666, "bike_id": "a83e08b5ea3195abcba47106fa99a89e", "rental_uris": {"android": "https://dc.lft.to/lastmile_qr_scan", "ios": "https://dc.lft.to/lastmile_qr_scan"}, "name": "a83e08b5ea3195abcba47106fa99a89e", "is_reserved": 0}, {"is_disabled": 0, "fusion_lon": 0.0, "fusion_lat": 0.0, "lat": 38.94518516666667, "type": "electric_bike", "lon": -77.00679233333334, "bike_id": "a297905da35042f9d93f5bcec96c1779", "rental_uris": {"android": "https://dc.lft.to/lastmile_qr_scan", "ios": "https://dc.lft.to/lastmile_qr_scan"}, "name": "a297905da35042f9d93f5bcec96c1779", "is_reserved": 0}, {"is_disabled": 0, "fusion_lon": 0.0, "fusion_lat": 0.0, "lat": 38.91389066666667, "type": "electric_scooter", "lon": -77.01697783333333, "bike_id": "1bf90213e4783c418bca184ad8be6902", "rental_uris": {"android": "https://dc.lft.to/lastmile_qr_scan", "ios": "https://dc.lft.to/lastmile_qr_scan"}, "name": "1bf90213e4783c418bca184ad8be6902", "is_reserved": 0}, {"is_disabled": 0, "fusion_lon": 0.0, "fusion_lat": 0.0, "lat": 38.90016833333333, "type": "electric_scooter", "lon": -77.03311483333333, "bike_id": "579cc3d04388d2c8443afca7b9b1fd82", "rental_uris": {"android": "https://dc.lft.to/lastmile_qr_scan", "ios": "https://dc.lft.to/lastmile_qr_scan"}, "name": "579cc3d04388d2c8443afca7b9b1fd82", "is_reserved": 0}, {"is_disabled": 0, "fusion_lon": 0.0, "fusion_lat": 0.0, "lat": 38.89728383333333, "type": "electric_scooter", "lon": -77.02167333333334, "bike_id": "7038718b2d98d5689e64e2e9e9cc63fe", "rental_uris": {"android": "https://dc.lft.to/lastmile_qr_scan", "ios": "https://dc.lft.to/lastmile_qr_scan"}, "name": "7038718b2d98d5689e64e2e9e9cc63fe", "is_reserved": 0}, {"is_disabled": 0, "fusion_lon": 0.0, "fusion_lat": 0.0, "lat": 38.933047, "type": "electric_scooter", "lon": -77.02138083333334, "bike_id": "de079d3cb7a3551ca46d2e84b8e44d78", "rental_uris": {"android": "https://dc.lft.to/lastmile_qr_scan", "ios": "https://dc.lft.to/lastmile_qr_scan"}, "name": "de079d3cb7a3551ca46d2e84b8e44d78", "is_reserved": 0}, {"is_disabled": 0, "fusion_lon": 0.0, "fusion_lat": 0.0, "lat": 38.863603, "type": "electric_scooter", "lon": -76.990686, "bike_id": "998cb39824055dc208cfc1e6a3d7b1cb", "rental_uris": {"android": "https://dc.lft.to/lastmile_qr_scan", "ios": "https://dc.lft.to/lastmile_qr_scan"}, "name": "998cb39824055dc208cfc1e6a3d7b1cb", "is_reserved": 0}, {"is_disabled": 0, "fusion_lon": 0.0, "fusion_lat": 0.0, "lat": 38.9286245, "type": "electric_scooter", "lon": -77.01413116666667, "bike_id": "6593af9b61daf981defcb100342e36b0", "rental_uris": {"android": "https://dc.lft.to/lastmile_qr_scan", "ios": "https://dc.lft.to/lastmile_qr_scan"}, "name": "6593af9b61daf981defcb100342e36b0", "is_reserved": 0}, {"is_disabled": 0, "fusion_lon": 0.0, "fusion_lat": 0.0, "lat": 38.96215183333333, "type": "electric_scooter", "lon": -77.0280095, "bike_id": "d97b37ca0348b51a2a5379e212bf21b8", "rental_uris": {"android": "https://dc.lft.to/lastmile_qr_scan", "ios": "https://dc.lft.to/lastmile_qr_scan"}, "name": "d97b37ca0348b51a2a5379e212bf21b8", "is_reserved": 0}, {"is_disabled": 0, "fusion_lon": 0.0, "fusion_lat": 0.0, "lat": 38.89955883333333, "type": "electric_scooter", "lon": -77.05136533333334, "bike_id": "864b2e4b8c1017153c6b44d7c2f1e4e7", "rental_uris": {"android": "https://dc.lft.to/lastmile_qr_scan", "ios": "https://dc.lft.to/lastmile_qr_scan"}, "name": "864b2e4b8c1017153c6b44d7c2f1e4e7", "is_reserved": 0}, {"is_disabled": 0, "fusion_lon": 0.0, "fusion_lat": 0.0, "lat": 38.93784083333333, "type": "electric_scooter", "lon": -77.02305766666667, "bike_id": "0906e0e61952d5def4dab0d9fb0678e0", "rental_uris": {"android": "https://dc.lft.to/lastmile_qr_scan", "ios": "https://dc.lft.to/lastmile_qr_scan"}, "name": "0906e0e61952d5def4dab0d9fb0678e0", "is_reserved": 0}, {"is_disabled": 0, "fusion_lon": 0.0, "fusion_lat": 0.0, "lat": 38.990659, "type": "electric_bike", "lon": -77.10025983333334, "bike_id": "f18028150486b551752eef26043e39fd", "rental_uris": {"android": "https://dc.lft.to/lastmile_qr_scan", "ios": "https://dc.lft.to/lastmile_qr_scan"}, "name": "f18028150486b551752eef26043e39fd", "is_reserved": 0}, {"is_disabled": 0, "fusion_lon": 0.0, "fusion_lat": 0.0, "lat": 38.990908, "type": "electric_bike", "lon": -76.87492916666666, "bike_id": "df2747f67d08e5c5befbd617dc762b77", "rental_uris": {"android": "https://dc.lft.to/lastmile_qr_scan", "ios": "https://dc.lft.to/lastmile_qr_scan"}, "name": "df2747f67d08e5c5befbd617dc762b77", "is_reserved": 0}, {"is_disabled": 0, "fusion_lon": 0.0, "fusion_lat": 0.0, "lat": 38.90725366666667, "type": "electric_scooter", "lon": -77.0407335, "bike_id": "41a0559382455de0634ac38ed9ae88ae", "rental_uris": {"android": "https://dc.lft.to/lastmile_qr_scan", "ios": "https://dc.lft.to/lastmile_qr_scan"}, "name": "41a0559382455de0634ac38ed9ae88ae", "is_reserved": 0}, {"is_disabled": 0, "fusion_lon": 0.0, "fusion_lat": 0.0, "lat": 38.87497066666667, "type": "electric_bike", "lon": -77.049001, "bike_id": "360b5f096d84fd0a5875b370a5467953", "rental_uris": {"android": "https://dc.lft.to/lastmile_qr_scan", "ios": "https://dc.lft.to/lastmile_qr_scan"}, "name": "360b5f096d84fd0a5875b370a5467953", "is_reserved": 0}, {"is_disabled": 0, "fusion_lon": 0.0, "fusion_lat": 0.0, "lat": 38.905423666666664, "type": "electric_scooter", "lon": -77.06522233333334, "bike_id": "1cf405da5f41a01e6d19c6ba51e20a13", "rental_uris": {"android": "https://dc.lft.to/lastmile_qr_scan", "ios": "https://dc.lft.to/lastmile_qr_scan"}, "name": "1cf405da5f41a01e6d19c6ba51e20a13", "is_reserved": 0}, {"is_disabled": 0, "fusion_lon": 0.0, "fusion_lat": 0.0, "lat": 38.90576866666667, "type": "electric_scooter", "lon": -77.03357, "bike_id": "a7e1e5b0c836ab71cac7b3e47aaca03d", "rental_uris": {"android": "https://dc.lft.to/lastmile_qr_scan", "ios": "https://dc.lft.to/lastmile_qr_scan"}, "name": "a7e1e5b0c836ab71cac7b3e47aaca03d", "is_reserved": 0}, {"is_disabled": 0, "fusion_lon": 0.0, "fusion_lat": 0.0, "lat": 38.90196683333333, "type": "electric_scooter", "lon": -77.03944666666666, "bike_id": "5a1e76b2956a312d0f17ed13f61096f4", "rental_uris": {"android": "https://dc.lft.to/lastmile_qr_scan", "ios": "https://dc.lft.to/lastmile_qr_scan"}, "name": "5a1e76b2956a312d0f17ed13f61096f4", "is_reserved": 0}, {"is_disabled": 0, "fusion_lon": 0.0, "fusion_lat": 0.0, "lat": 38.8923385, "type": "electric_scooter", "lon": -77.03376833333333, "bike_id": "6105a466f9c195cbe4a3684ca3e43203", "rental_uris": {"android": "https://dc.lft.to/lastmile_qr_scan", "ios": "https://dc.lft.to/lastmile_qr_scan"}, "name": "6105a466f9c195cbe4a3684ca3e43203", "is_reserved": 0}, {"is_disabled": 0, "fusion_lon": 0.0, "fusion_lat": 0.0, "lat": 38.90838316666667, "type": "electric_scooter", "lon": -76.99697733333333, "bike_id": "d8a8b803654d10902559435e7d6f1c09", "rental_uris": {"android": "https://dc.lft.to/lastmile_qr_scan", "ios": "https://dc.lft.to/lastmile_qr_scan"}, "name": "d8a8b803654d10902559435e7d6f1c09", "is_reserved": 0}, {"is_disabled": 0, "fusion_lon": 0.0, "fusion_lat": 0.0, "lat": 38.90531416666666, "type": "electric_scooter", "lon": -77.060618, "bike_id": "10d77642c79ed04611ab16729e5f938a", "rental_uris": {"android": "https://dc.lft.to/lastmile_qr_scan", "ios": "https://dc.lft.to/lastmile_qr_scan"}, "name": "10d77642c79ed04611ab16729e5f938a", "is_reserved": 0}, {"is_disabled": 0, "fusion_lon": 0.0, "fusion_lat": 0.0, "lat": 38.901609, "type": "electric_scooter", "lon": -77.03173816666667, "bike_id": "f4b4f4ae4e57396207cc2aec9cc06453", "rental_uris": {"android": "https://dc.lft.to/lastmile_qr_scan", "ios": "https://dc.lft.to/lastmile_qr_scan"}, "name": "f4b4f4ae4e57396207cc2aec9cc06453", "is_reserved": 0}, {"is_disabled": 0, "fusion_lon": 0.0, "fusion_lat": 0.0, "lat": 38.84517783333333, "type": "electric_bike", "lon": -77.07796433333333, "bike_id": "a7d77a093bf9a076a432fec6abfb0f32", "rental_uris": {"android": "https://dc.lft.to/lastmile_qr_scan", "ios": "https://dc.lft.to/lastmile_qr_scan"}, "name": "a7d77a093bf9a076a432fec6abfb0f32", "is_reserved": 0}, {"is_disabled": 0, "fusion_lon": 0.0, "fusion_lat": 0.0, "lat": 38.916842833333334, "type": "electric_scooter", "lon": -77.02715266666667, "bike_id": "51eff5119740d614476e4084db0aa7ca", "rental_uris": {"android": "https://dc.lft.to/lastmile_qr_scan", "ios": "https://dc.lft.to/lastmile_qr_scan"}, "name": "51eff5119740d614476e4084db0aa7ca", "is_reserved": 0}, {"is_disabled": 0, "fusion_lon": 0.0, "fusion_lat": 0.0, "lat": 38.906876833333335, "type": "electric_scooter", "lon": -77.0269105, "bike_id": "7e4a341c2f2063a098016a7188279edd", "rental_uris": {"android": "https://dc.lft.to/lastmile_qr_scan", "ios": "https://dc.lft.to/lastmile_qr_scan"}, "name": "7e4a341c2f2063a098016a7188279edd", "is_reserved": 0}, {"is_disabled": 0, "fusion_lon": 0.0, "fusion_lat": 0.0, "lat": 38.92050583333334, "type": "electric_scooter", "lon": -77.02611366666666, "bike_id": "bde1a45942a84c70d9802cc289f88b38", "rental_uris": {"android": "https://dc.lft.to/lastmile_qr_scan", "ios": "https://dc.lft.to/lastmile_qr_scan"}, "name": "bde1a45942a84c70d9802cc289f88b38", "is_reserved": 0}, {"is_disabled": 0, "fusion_lon": 0.0, "fusion_lat": 0.0, "lat": 38.90719133333333, "type": "electric_scooter", "lon": -77.02392783333333, "bike_id": "e59c63cd153c9f0e7f44bb122d042957", "rental_uris": {"android": "https://dc.lft.to/lastmile_qr_scan", "ios": "https://dc.lft.to/lastmile_qr_scan"}, "name": "e59c63cd153c9f0e7f44bb122d042957", "is_reserved": 0}, {"is_disabled": 0, "fusion_lon": 0.0, "fusion_lat": 0.0, "lat": 38.91798333333333, "type": "electric_scooter", "lon": -77.0346505, "bike_id": "45cd3ec0dd9bca25d10be350845a1d42", "rental_uris": {"android": "https://dc.lft.to/lastmile_qr_scan", "ios": "https://dc.lft.to/lastmile_qr_scan"}, "name": "45cd3ec0dd9bca25d10be350845a1d42", "is_reserved": 0}, {"is_disabled": 0, "fusion_lon": 0.0, "fusion_lat": 0.0, "lat": 38.929588833333334, "type": "electric_scooter", "lon": -77.023463, "bike_id": "50d15419a3d42c4006a8ccd0114487d8", "rental_uris": {"android": "https://dc.lft.to/lastmile_qr_scan", "ios": "https://dc.lft.to/lastmile_qr_scan"}, "name": "50d15419a3d42c4006a8ccd0114487d8", "is_reserved": 0}, {"is_disabled": 0, "fusion_lon": 0.0, "fusion_lat": 0.0, "lat": 38.927560666666665, "type": "electric_scooter", "lon": -77.02533133333333, "bike_id": "1af7f79ce5c1bfd95b05d6156b59b3bb", "rental_uris": {"android": "https://dc.lft.to/lastmile_qr_scan", "ios": "https://dc.lft.to/lastmile_qr_scan"}, "name": "1af7f79ce5c1bfd95b05d6156b59b3bb", "is_reserved": 0}, {"is_disabled": 0, "fusion_lon": 0.0, "fusion_lat": 0.0, "lat": 38.917053833333334, "type": "electric_scooter", "lon": -77.04297416666667, "bike_id": "d022003772e1bf6623c9ff6e207da89a", "rental_uris": {"android": "https://dc.lft.to/lastmile_qr_scan", "ios": "https://dc.lft.to/lastmile_qr_scan"}, "name": "d022003772e1bf6623c9ff6e207da89a", "is_reserved": 0}, {"is_disabled": 0, "fusion_lon": 0.0, "fusion_lat": 0.0, "lat": 38.917574, "type": "electric_scooter", "lon": -77.0416115, "bike_id": "57f37c065a77cf9c9bd3c1065ee66c11", "rental_uris": {"android": "https://dc.lft.to/lastmile_qr_scan", "ios": "https://dc.lft.to/lastmile_qr_scan"}, "name": "57f37c065a77cf9c9bd3c1065ee66c11", "is_reserved": 0}, {"is_disabled": 0, "fusion_lon": 0.0, "fusion_lat": 0.0, "lat": 38.90568316666667, "type": "electric_scooter", "lon": -77.02461866666667, "bike_id": "e3d984bd23720924fa53c0bf97046c3a", "rental_uris": {"android": "https://dc.lft.to/lastmile_qr_scan", "ios": "https://dc.lft.to/lastmile_qr_scan"}, "name": "e3d984bd23720924fa53c0bf97046c3a", "is_reserved": 0}, {"is_disabled": 0, "fusion_lon": 0.0, "fusion_lat": 0.0, "lat": 38.928492, "type": "electric_scooter", "lon": -77.05630033333334, "bike_id": "968795b8fa99dc553c1dbee29619faea", "rental_uris": {"android": "https://dc.lft.to/lastmile_qr_scan", "ios": "https://dc.lft.to/lastmile_qr_scan"}, "name": "968795b8fa99dc553c1dbee29619faea", "is_reserved": 0}, {"is_disabled": 0, "fusion_lon": 0.0, "fusion_lat": 0.0, "lat": 38.914986166666665, "type": "electric_scooter", "lon": -76.98371116666667, "bike_id": "bcb3a92cb64f144f2c254442028394f1", "rental_uris": {"android": "https://dc.lft.to/lastmile_qr_scan", "ios": "https://dc.lft.to/lastmile_qr_scan"}, "name": "bcb3a92cb64f144f2c254442028394f1", "is_reserved": 0}, {"is_disabled": 0, "fusion_lon": 0.0, "fusion_lat": 0.0, "lat": 38.87805566666667, "type": "electric_scooter", "lon": -77.01429116666667, "bike_id": "35302a96744218c63812f242b033b0a2", "rental_uris": {"android": "https://dc.lft.to/lastmile_qr_scan", "ios": "https://dc.lft.to/lastmile_qr_scan"}, "name": "35302a96744218c63812f242b033b0a2", "is_reserved": 0}, {"is_disabled": 0, "fusion_lon": 0.0, "fusion_lat": 0.0, "lat": 38.900800333333336, "type": "electric_scooter", "lon": -77.04881833333333, "bike_id": "e69c330bce832fb074805a2b5ee181a1", "rental_uris": {"android": "https://dc.lft.to/lastmile_qr_scan", "ios": "https://dc.lft.to/lastmile_qr_scan"}, "name": "e69c330bce832fb074805a2b5ee181a1", "is_reserved": 0}, {"is_disabled": 0, "fusion_lon": 0.0, "fusion_lat": 0.0, "lat": 38.924732166666665, "type": "electric_scooter", "lon": -77.03537366666667, "bike_id": "975f3d2439f6a94d0a0e114c89d3a683", "rental_uris": {"android": "https://dc.lft.to/lastmile_qr_scan", "ios": "https://dc.lft.to/lastmile_qr_scan"}, "name": "975f3d2439f6a94d0a0e114c89d3a683", "is_reserved": 0}, {"is_disabled": 0, "fusion_lon": 0.0, "fusion_lat": 0.0, "lat": 38.884825166666666, "type": "electric_scooter", "lon": -76.92963433333334, "bike_id": "d5866328050ab4919460d35886a6c2f0", "rental_uris": {"android": "https://dc.lft.to/lastmile_qr_scan", "ios": "https://dc.lft.to/lastmile_qr_scan"}, "name": "d5866328050ab4919460d35886a6c2f0", "is_reserved": 0}, {"is_disabled": 0, "fusion_lon": 0.0, "fusion_lat": 0.0, "lat": 38.8874005, "type": "electric_scooter", "lon": -77.03215183333333, "bike_id": "61371e5dfd378f812ffab54afe5a76e5", "rental_uris": {"android": "https://dc.lft.to/lastmile_qr_scan", "ios": "https://dc.lft.to/lastmile_qr_scan"}, "name": "61371e5dfd378f812ffab54afe5a76e5", "is_reserved": 0}, {"is_disabled": 0, "fusion_lon": 0.0, "fusion_lat": 0.0, "lat": 38.9253575, "type": "electric_scooter", "lon": -77.0441375, "bike_id": "4210fb33b59e4799eed8823546e35826", "rental_uris": {"android": "https://dc.lft.to/lastmile_qr_scan", "ios": "https://dc.lft.to/lastmile_qr_scan"}, "name": "4210fb33b59e4799eed8823546e35826", "is_reserved": 0}, {"is_disabled": 0, "fusion_lon": 0.0, "fusion_lat": 0.0, "lat": 38.91917083333333, "type": "electric_scooter", "lon": -77.04176966666667, "bike_id": "8125a058b8163d3fbda50c37d2dfbd54", "rental_uris": {"android": "https://dc.lft.to/lastmile_qr_scan", "ios": "https://dc.lft.to/lastmile_qr_scan"}, "name": "8125a058b8163d3fbda50c37d2dfbd54", "is_reserved": 0}, {"is_disabled": 0, "fusion_lon": 0.0, "fusion_lat": 0.0, "lat": 38.907833333333336, "type": "electric_scooter", "lon": -77.0321125, "bike_id": "1b33b60aba2ec51f2075bb8e533f57a8", "rental_uris": {"android": "https://dc.lft.to/lastmile_qr_scan", "ios": "https://dc.lft.to/lastmile_qr_scan"}, "name": "1b33b60aba2ec51f2075bb8e533f57a8", "is_reserved": 0}, {"is_disabled": 0, "fusion_lon": 0.0, "fusion_lat": 0.0, "lat": 38.90268833333333, "type": "electric_scooter", "lon": -77.05331583333333, "bike_id": "51401926177a9f20d99bcf0c2ff1de1d", "rental_uris": {"android": "https://dc.lft.to/lastmile_qr_scan", "ios": "https://dc.lft.to/lastmile_qr_scan"}, "name": "51401926177a9f20d99bcf0c2ff1de1d", "is_reserved": 0}, {"is_disabled": 0, "fusion_lon": 0.0, "fusion_lat": 0.0, "lat": 38.91128066666667, "type": "electric_scooter", "lon": -77.05936116666666, "bike_id": "00a35a2f9e753cc7d14aa7a5ce4155af", "rental_uris": {"android": "https://dc.lft.to/lastmile_qr_scan", "ios": "https://dc.lft.to/lastmile_qr_scan"}, "name": "00a35a2f9e753cc7d14aa7a5ce4155af", "is_reserved": 0}, {"is_disabled": 0, "fusion_lon": 0.0, "fusion_lat": 0.0, "lat": 38.897331, "type": "electric_scooter", "lon": -77.02165633333334, "bike_id": "af0e304238962093ee23795dd791db15", "rental_uris": {"android": "https://dc.lft.to/lastmile_qr_scan", "ios": "https://dc.lft.to/lastmile_qr_scan"}, "name": "af0e304238962093ee23795dd791db15", "is_reserved": 0}, {"is_disabled": 0, "fusion_lon": 0.0, "fusion_lat": 0.0, "lat": 38.99454883333333, "type": "electric_bike", "lon": -76.9081535, "bike_id": "0aefa49395097faace74f12396997499", "rental_uris": {"android": "https://dc.lft.to/lastmile_qr_scan", "ios": "https://dc.lft.to/lastmile_qr_scan"}, "name": "0aefa49395097faace74f12396997499", "is_reserved": 0}, {"is_disabled": 0, "fusion_lon": 0.0, "fusion_lat": 0.0, "lat": 38.88013016666667, "type": "electric_bike", "lon": -76.9159335, "bike_id": "49e9965d29ba94b57ef36450036f489a", "rental_uris": {"android": "https://dc.lft.to/lastmile_qr_scan", "ios": "https://dc.lft.to/lastmile_qr_scan"}, "name": "49e9965d29ba94b57ef36450036f489a", "is_reserved": 0}, {"is_disabled": 0, "fusion_lon": 0.0, "fusion_lat": 0.0, "lat": 38.885987166666666, "type": "electric_scooter", "lon": -77.00583383333333, "bike_id": "2b4fd7e1d45a84f7ee79d52ca2a595a6", "rental_uris": {"android": "https://dc.lft.to/lastmile_qr_scan", "ios": "https://dc.lft.to/lastmile_qr_scan"}, "name": "2b4fd7e1d45a84f7ee79d52ca2a595a6", "is_reserved": 0}, {"is_disabled": 0, "fusion_lon": 0.0, "fusion_lat": 0.0, "lat": 38.92396883333333, "type": "electric_scooter", "lon": -77.0409225, "bike_id": "2a2fe6edc5d90e3d6d0e4a0b32b4cf00", "rental_uris": {"android": "https://dc.lft.to/lastmile_qr_scan", "ios": "https://dc.lft.to/lastmile_qr_scan"}, "name": "2a2fe6edc5d90e3d6d0e4a0b32b4cf00", "is_reserved": 0}, {"is_disabled": 0, "fusion_lon": 0.0, "fusion_lat": 0.0, "lat": 38.91237616666667, "type": "electric_scooter", "lon": -77.04521416666667, "bike_id": "b10b2c88d122f0966cfad5280b7eb76f", "rental_uris": {"android": "https://dc.lft.to/lastmile_qr_scan", "ios": "https://dc.lft.to/lastmile_qr_scan"}, "name": "b10b2c88d122f0966cfad5280b7eb76f", "is_reserved": 0}, {"is_disabled": 0, "fusion_lon": 0.0, "fusion_lat": 0.0, "lat": 38.868925833333336, "type": "electric_scooter", "lon": -76.98315183333334, "bike_id": "509decd8b5b25615c74cf9ad2a40fc94", "rental_uris": {"android": "https://dc.lft.to/lastmile_qr_scan", "ios": "https://dc.lft.to/lastmile_qr_scan"}, "name": "509decd8b5b25615c74cf9ad2a40fc94", "is_reserved": 0}, {"is_disabled": 0, "fusion_lon": 0.0, "fusion_lat": 0.0, "lat": 38.85987166666666, "type": "electric_bike", "lon": -76.970499, "bike_id": "9e09ed32b1b476a22f515e730a70e90d", "rental_uris": {"android": "https://dc.lft.to/lastmile_qr_scan", "ios": "https://dc.lft.to/lastmile_qr_scan"}, "name": "9e09ed32b1b476a22f515e730a70e90d", "is_reserved": 0}, {"is_disabled": 0, "fusion_lon": 0.0, "fusion_lat": 0.0, "lat": 38.914675, "type": "electric_scooter", "lon": -77.0279165, "bike_id": "d8fd116198c519b9ad6ae517a0d0b8aa", "rental_uris": {"android": "https://dc.lft.to/lastmile_qr_scan", "ios": "https://dc.lft.to/lastmile_qr_scan"}, "name": "d8fd116198c519b9ad6ae517a0d0b8aa", "is_reserved": 0}, {"is_disabled": 0, "fusion_lon": 0.0, "fusion_lat": 0.0, "lat": 38.902201833333336, "type": "electric_scooter", "lon": -77.02437783333333, "bike_id": "9b1de028fc6d71064defe93b89320159", "rental_uris": {"android": "https://dc.lft.to/lastmile_qr_scan", "ios": "https://dc.lft.to/lastmile_qr_scan"}, "name": "9b1de028fc6d71064defe93b89320159", "is_reserved": 0}, {"is_disabled": 0, "fusion_lon": 0.0, "fusion_lat": 0.0, "lat": 38.94088983333333, "type": "electric_scooter", "lon": -77.03811583333334, "bike_id": "16fe03e50b8b5c8db6a457798cddebde", "rental_uris": {"android": "https://dc.lft.to/lastmile_qr_scan", "ios": "https://dc.lft.to/lastmile_qr_scan"}, "name": "16fe03e50b8b5c8db6a457798cddebde", "is_reserved": 0}, {"is_disabled": 0, "fusion_lon": 0.0, "fusion_lat": 0.0, "lat": 38.8873835, "type": "electric_scooter", "lon": -77.01529833333333, "bike_id": "8d9b3eec64fe30ad7aa1ef0b5e4429ce", "rental_uris": {"android": "https://dc.lft.to/lastmile_qr_scan", "ios": "https://dc.lft.to/lastmile_qr_scan"}, "name": "8d9b3eec64fe30ad7aa1ef0b5e4429ce", "is_reserved": 0}, {"is_disabled": 0, "fusion_lon": 0.0, "fusion_lat": 0.0, "lat": 38.899234166666666, "type": "electric_scooter", "lon": -77.03294533333333, "bike_id": "061ce4ac1f5b5d4781a4c6b5641bbb96", "rental_uris": {"android": "https://dc.lft.to/lastmile_qr_scan", "ios": "https://dc.lft.to/lastmile_qr_scan"}, "name": "061ce4ac1f5b5d4781a4c6b5641bbb96", "is_reserved": 0}, {"is_disabled": 0, "fusion_lon": 0.0, "fusion_lat": 0.0, "lat": 38.915583833333336, "type": "electric_scooter", "lon": -77.03831783333334, "bike_id": "d901f0e0addd03f2b35ea5e3c638aa4d", "rental_uris": {"android": "https://dc.lft.to/lastmile_qr_scan", "ios": "https://dc.lft.to/lastmile_qr_scan"}, "name": "d901f0e0addd03f2b35ea5e3c638aa4d", "is_reserved": 0}, {"is_disabled": 0, "fusion_lon": 0.0, "fusion_lat": 0.0, "lat": 38.89357116666667, "type": "electric_scooter", "lon": -76.98472733333334, "bike_id": "227f9bbfab8e48fa465459c24f13e08d", "rental_uris": {"android": "https://dc.lft.to/lastmile_qr_scan", "ios": "https://dc.lft.to/lastmile_qr_scan"}, "name": "227f9bbfab8e48fa465459c24f13e08d", "is_reserved": 0}, {"is_disabled": 0, "fusion_lon": 0.0, "fusion_lat": 0.0, "lat": 38.9247685, "type": "electric_scooter", "lon": -77.02817283333333, "bike_id": "8260be5e728640e24e2db72b706217ee", "rental_uris": {"android": "https://dc.lft.to/lastmile_qr_scan", "ios": "https://dc.lft.to/lastmile_qr_scan"}, "name": "8260be5e728640e24e2db72b706217ee", "is_reserved": 0}, {"is_disabled": 0, "fusion_lon": 0.0, "fusion_lat": 0.0, "lat": 38.8873625, "type": "electric_scooter", "lon": -77.01744866666667, "bike_id": "e388695f7283b24cb1a4bc5c0129db6b", "rental_uris": {"android": "https://dc.lft.to/lastmile_qr_scan", "ios": "https://dc.lft.to/lastmile_qr_scan"}, "name": "e388695f7283b24cb1a4bc5c0129db6b", "is_reserved": 0}, {"is_disabled": 0, "fusion_lon": 0.0, "fusion_lat": 0.0, "lat": 38.880242, "type": "electric_scooter", "lon": -76.982352, "bike_id": "74f1fa4dc2d814c4b5d5b8906ea23775", "rental_uris": {"android": "https://dc.lft.to/lastmile_qr_scan", "ios": "https://dc.lft.to/lastmile_qr_scan"}, "name": "74f1fa4dc2d814c4b5d5b8906ea23775", "is_reserved": 0}, {"is_disabled": 0, "fusion_lon": 0.0, "fusion_lat": 0.0, "lat": 38.9014605, "type": "electric_scooter", "lon": -77.03992466666666, "bike_id": "662e5b40e5c035f807b8d7dc4d5e9fcd", "rental_uris": {"android": "https://dc.lft.to/lastmile_qr_scan", "ios": "https://dc.lft.to/lastmile_qr_scan"}, "name": "662e5b40e5c035f807b8d7dc4d5e9fcd", "is_reserved": 0}, {"is_disabled": 0, "fusion_lon": 0.0, "fusion_lat": 0.0, "lat": 38.90642316666667, "type": "electric_scooter", "lon": -77.03467333333333, "bike_id": "8e8692966d380da786077683400666a4", "rental_uris": {"android": "https://dc.lft.to/lastmile_qr_scan", "ios": "https://dc.lft.to/lastmile_qr_scan"}, "name": "8e8692966d380da786077683400666a4", "is_reserved": 0}, {"is_disabled": 0, "fusion_lon": 0.0, "fusion_lat": 0.0, "lat": 38.916863666666664, "type": "electric_scooter", "lon": -77.04138383333333, "bike_id": "c34f7c7415eb83c4fd5fc78a2231b402", "rental_uris": {"android": "https://dc.lft.to/lastmile_qr_scan", "ios": "https://dc.lft.to/lastmile_qr_scan"}, "name": "c34f7c7415eb83c4fd5fc78a2231b402", "is_reserved": 0}, {"is_disabled": 0, "fusion_lon": 0.0, "fusion_lat": 0.0, "lat": 38.9197875, "type": "electric_scooter", "lon": -77.04178266666666, "bike_id": "4edffc743371a943ed42215baaf717a8", "rental_uris": {"android": "https://dc.lft.to/lastmile_qr_scan", "ios": "https://dc.lft.to/lastmile_qr_scan"}, "name": "4edffc743371a943ed42215baaf717a8", "is_reserved": 0}, {"is_disabled": 0, "fusion_lon": 0.0, "fusion_lat": 0.0, "lat": 38.956112, "type": "electric_scooter", "lon": -77.02761266666667, "bike_id": "481c0814b2be9c6a962b8d4208079953", "rental_uris": {"android": "https://dc.lft.to/lastmile_qr_scan", "ios": "https://dc.lft.to/lastmile_qr_scan"}, "name": "481c0814b2be9c6a962b8d4208079953", "is_reserved": 0}, {"is_disabled": 0, "fusion_lon": 0.0, "fusion_lat": 0.0, "lat": 38.90017566666667, "type": "electric_scooter", "lon": -77.0338105, "bike_id": "d7b19a2c77f6a4efded525a3188a21d6", "rental_uris": {"android": "https://dc.lft.to/lastmile_qr_scan", "ios": "https://dc.lft.to/lastmile_qr_scan"}, "name": "d7b19a2c77f6a4efded525a3188a21d6", "is_reserved": 0}, {"is_disabled": 0, "fusion_lon": 0.0, "fusion_lat": 0.0, "lat": 38.9244025, "type": "electric_bike", "lon": -76.9075645, "bike_id": "f9e753654c9af54e992c5fe58b80b729", "rental_uris": {"android": "https://dc.lft.to/lastmile_qr_scan", "ios": "https://dc.lft.to/lastmile_qr_scan"}, "name": "f9e753654c9af54e992c5fe58b80b729", "is_reserved": 0}, {"is_disabled": 0, "fusion_lon": 0.0, "fusion_lat": 0.0, "lat": 38.88920066666667, "type": "electric_scooter", "lon": -76.9800225, "bike_id": "bb87071c73463e38cf7bf513fe26093b", "rental_uris": {"android": "https://dc.lft.to/lastmile_qr_scan", "ios": "https://dc.lft.to/lastmile_qr_scan"}, "name": "bb87071c73463e38cf7bf513fe26093b", "is_reserved": 0}, {"is_disabled": 0, "fusion_lon": 0.0, "fusion_lat": 0.0, "lat": 38.917152, "type": "electric_scooter", "lon": -77.02615283333333, "bike_id": "45957099a70621ed0e78d13439a0dbbd", "rental_uris": {"android": "https://dc.lft.to/lastmile_qr_scan", "ios": "https://dc.lft.to/lastmile_qr_scan"}, "name": "45957099a70621ed0e78d13439a0dbbd", "is_reserved": 0}, {"is_disabled": 0, "fusion_lon": 0.0, "fusion_lat": 0.0, "lat": 38.916277, "type": "electric_scooter", "lon": -77.03203533333334, "bike_id": "df7c121d3c880d710cd9a55df9aba3ee", "rental_uris": {"android": "https://dc.lft.to/lastmile_qr_scan", "ios": "https://dc.lft.to/lastmile_qr_scan"}, "name": "df7c121d3c880d710cd9a55df9aba3ee", "is_reserved": 0}, {"is_disabled": 0, "fusion_lon": 0.0, "fusion_lat": 0.0, "lat": 38.9081865, "type": "electric_scooter", "lon": -77.00140633333334, "bike_id": "622903377bc2cb49618aa39e9dbe8021", "rental_uris": {"android": "https://dc.lft.to/lastmile_qr_scan", "ios": "https://dc.lft.to/lastmile_qr_scan"}, "name": "622903377bc2cb49618aa39e9dbe8021", "is_reserved": 0}, {"is_disabled": 0, "fusion_lon": 0.0, "fusion_lat": 0.0, "lat": 38.907048333333336, "type": "electric_scooter", "lon": -77.06321183333333, "bike_id": "f5a805c4c4dd01715cc34171fd0f0c17", "rental_uris": {"android": "https://dc.lft.to/lastmile_qr_scan", "ios": "https://dc.lft.to/lastmile_qr_scan"}, "name": "f5a805c4c4dd01715cc34171fd0f0c17", "is_reserved": 0}, {"is_disabled": 0, "fusion_lon": 0.0, "fusion_lat": 0.0, "lat": 38.905923, "type": "electric_scooter", "lon": -77.06911216666667, "bike_id": "69ecb21f516050c37f5b69de08f99534", "rental_uris": {"android": "https://dc.lft.to/lastmile_qr_scan", "ios": "https://dc.lft.to/lastmile_qr_scan"}, "name": "69ecb21f516050c37f5b69de08f99534", "is_reserved": 0}, {"is_disabled": 0, "fusion_lon": 0.0, "fusion_lat": 0.0, "lat": 38.836851833333334, "type": "electric_bike", "lon": -77.04992216666666, "bike_id": "24d7414db5603966df05b7afa35eabb9", "rental_uris": {"android": "https://dc.lft.to/lastmile_qr_scan", "ios": "https://dc.lft.to/lastmile_qr_scan"}, "name": "24d7414db5603966df05b7afa35eabb9", "is_reserved": 0}, {"is_disabled": 0, "fusion_lon": 0.0, "fusion_lat": 0.0, "lat": 38.898410166666665, "type": "electric_scooter", "lon": -77.02651633333333, "bike_id": "d99c363afb6a853d4409a0ddf00c4218", "rental_uris": {"android": "https://dc.lft.to/lastmile_qr_scan", "ios": "https://dc.lft.to/lastmile_qr_scan"}, "name": "d99c363afb6a853d4409a0ddf00c4218", "is_reserved": 0}, {"is_disabled": 0, "fusion_lon": 0.0, "fusion_lat": 0.0, "lat": 38.881319833333336, "type": "electric_scooter", "lon": -77.0208225, "bike_id": "7826e70f16efdd61ceaa339cc778c91c", "rental_uris": {"android": "https://dc.lft.to/lastmile_qr_scan", "ios": "https://dc.lft.to/lastmile_qr_scan"}, "name": "7826e70f16efdd61ceaa339cc778c91c", "is_reserved": 0}, {"is_disabled": 0, "fusion_lon": 0.0, "fusion_lat": 0.0, "lat": 38.90949116666667, "type": "electric_scooter", "lon": -77.0467165, "bike_id": "8657a8f1dae9d0989d43e35536b743b6", "rental_uris": {"android": "https://dc.lft.to/lastmile_qr_scan", "ios": "https://dc.lft.to/lastmile_qr_scan"}, "name": "8657a8f1dae9d0989d43e35536b743b6", "is_reserved": 0}, {"is_disabled": 0, "fusion_lon": 0.0, "fusion_lat": 0.0, "lat": 38.990772, "type": "electric_bike", "lon": -77.02378033333333, "bike_id": "8cfb1caf41a4f969c78767f8088a40cf", "rental_uris": {"android": "https://dc.lft.to/lastmile_qr_scan", "ios": "https://dc.lft.to/lastmile_qr_scan"}, "name": "8cfb1caf41a4f969c78767f8088a40cf", "is_reserved": 0}, {"is_disabled": 0, "fusion_lon": 0.0, "fusion_lat": 0.0, "lat": 38.8966915, "type": "electric_scooter", "lon": -77.01177983333334, "bike_id": "7eab0815f3da1f44bfed919f585c88af", "rental_uris": {"android": "https://dc.lft.to/lastmile_qr_scan", "ios": "https://dc.lft.to/lastmile_qr_scan"}, "name": "7eab0815f3da1f44bfed919f585c88af", "is_reserved": 0}, {"is_disabled": 0, "fusion_lon": 0.0, "fusion_lat": 0.0, "lat": 38.90366733333333, "type": "electric_scooter", "lon": -77.0220405, "bike_id": "6824f3ba82d2875cdff90f8e31911a66", "rental_uris": {"android": "https://dc.lft.to/lastmile_qr_scan", "ios": "https://dc.lft.to/lastmile_qr_scan"}, "name": "6824f3ba82d2875cdff90f8e31911a66", "is_reserved": 0}, {"is_disabled": 0, "fusion_lon": 0.0, "fusion_lat": 0.0, "lat": 38.8842165, "type": "electric_scooter", "lon": -77.033002, "bike_id": "a240150b97a3306401a5c87970a3e806", "rental_uris": {"android": "https://dc.lft.to/lastmile_qr_scan", "ios": "https://dc.lft.to/lastmile_qr_scan"}, "name": "a240150b97a3306401a5c87970a3e806", "is_reserved": 0}, {"is_disabled": 0, "fusion_lon": 0.0, "fusion_lat": 0.0, "lat": 38.917925833333335, "type": "electric_scooter", "lon": -77.04357033333334, "bike_id": "182d99bc8ba2110370b64a9dc9334319", "rental_uris": {"android": "https://dc.lft.to/lastmile_qr_scan", "ios": "https://dc.lft.to/lastmile_qr_scan"}, "name": "182d99bc8ba2110370b64a9dc9334319", "is_reserved": 0}, {"is_disabled": 0, "fusion_lon": 0.0, "fusion_lat": 0.0, "lat": 38.91150483333333, "type": "electric_bike", "lon": -77.01152083333334, "bike_id": "50ee2fbe42c07da78c59a5f9a72dbb64", "rental_uris": {"android": "https://dc.lft.to/lastmile_qr_scan", "ios": "https://dc.lft.to/lastmile_qr_scan"}, "name": "50ee2fbe42c07da78c59a5f9a72dbb64", "is_reserved": 0}, {"is_disabled": 0, "fusion_lon": 0.0, "fusion_lat": 0.0, "lat": 38.93775983333333, "type": "electric_scooter", "lon": -77.024382, "bike_id": "d60795cb31dc4090f381593b012a1ef6", "rental_uris": {"android": "https://dc.lft.to/lastmile_qr_scan", "ios": "https://dc.lft.to/lastmile_qr_scan"}, "name": "d60795cb31dc4090f381593b012a1ef6", "is_reserved": 0}, {"is_disabled": 0, "fusion_lon": 0.0, "fusion_lat": 0.0, "lat": 38.923490666666666, "type": "electric_bike", "lon": -76.99247066666666, "bike_id": "2d997fe1ed8049bada85b4b4d38fd9a8", "rental_uris": {"android": "https://dc.lft.to/lastmile_qr_scan", "ios": "https://dc.lft.to/lastmile_qr_scan"}, "name": "2d997fe1ed8049bada85b4b4d38fd9a8", "is_reserved": 0}, {"is_disabled": 0, "fusion_lon": 0.0, "fusion_lat": 0.0, "lat": 38.90958216666667, "type": "electric_scooter", "lon": -77.021813, "bike_id": "d5550d0d9ac826f9dd11be7fc97d56e6", "rental_uris": {"android": "https://dc.lft.to/lastmile_qr_scan", "ios": "https://dc.lft.to/lastmile_qr_scan"}, "name": "d5550d0d9ac826f9dd11be7fc97d56e6", "is_reserved": 0}, {"is_disabled": 0, "fusion_lon": 0.0, "fusion_lat": 0.0, "lat": 38.967323666666665, "type": "electric_scooter", "lon": -77.027616, "bike_id": "1bc47de09cad0e32e38aff2d5703b1eb", "rental_uris": {"android": "https://dc.lft.to/lastmile_qr_scan", "ios": "https://dc.lft.to/lastmile_qr_scan"}, "name": "1bc47de09cad0e32e38aff2d5703b1eb", "is_reserved": 0}, {"is_disabled": 0, "fusion_lon": 0.0, "fusion_lat": 0.0, "lat": 38.883737833333335, "type": "electric_scooter", "lon": -77.02515316666667, "bike_id": "06eb4d4104566b08394b0ae890eb400d", "rental_uris": {"android": "https://dc.lft.to/lastmile_qr_scan", "ios": "https://dc.lft.to/lastmile_qr_scan"}, "name": "06eb4d4104566b08394b0ae890eb400d", "is_reserved": 0}, {"is_disabled": 0, "fusion_lon": 0.0, "fusion_lat": 0.0, "lat": 38.846163, "type": "electric_scooter", "lon": -76.99627966666667, "bike_id": "9e6db40292ba8f6ecebea6e5c02a080f", "rental_uris": {"android": "https://dc.lft.to/lastmile_qr_scan", "ios": "https://dc.lft.to/lastmile_qr_scan"}, "name": "9e6db40292ba8f6ecebea6e5c02a080f", "is_reserved": 0}, {"is_disabled": 0, "fusion_lon": 0.0, "fusion_lat": 0.0, "lat": 38.924443833333335, "type": "electric_scooter", "lon": -77.02605366666667, "bike_id": "f17c1900408a031af85e79079ae3aba7", "rental_uris": {"android": "https://dc.lft.to/lastmile_qr_scan", "ios": "https://dc.lft.to/lastmile_qr_scan"}, "name": "f17c1900408a031af85e79079ae3aba7", "is_reserved": 0}, {"is_disabled": 0, "fusion_lon": 0.0, "fusion_lat": 0.0, "lat": 38.9180825, "type": "electric_scooter", "lon": -77.03434116666666, "bike_id": "384615158ffdc441c202d92ee94cacf2", "rental_uris": {"android": "https://dc.lft.to/lastmile_qr_scan", "ios": "https://dc.lft.to/lastmile_qr_scan"}, "name": "384615158ffdc441c202d92ee94cacf2", "is_reserved": 0}, {"is_disabled": 0, "fusion_lon": 0.0, "fusion_lat": 0.0, "lat": 38.862487333333334, "type": "electric_scooter", "lon": -76.99486433333334, "bike_id": "712d42f63e59adff1101bb7f9aba6382", "rental_uris": {"android": "https://dc.lft.to/lastmile_qr_scan", "ios": "https://dc.lft.to/lastmile_qr_scan"}, "name": "712d42f63e59adff1101bb7f9aba6382", "is_reserved": 0}, {"is_disabled": 0, "fusion_lon": 0.0, "fusion_lat": 0.0, "lat": 38.918185333333334, "type": "electric_scooter", "lon": -77.03135666666667, "bike_id": "100ad0e42713a9ea5a09379da9bb4084", "rental_uris": {"android": "https://dc.lft.to/lastmile_qr_scan", "ios": "https://dc.lft.to/lastmile_qr_scan"}, "name": "100ad0e42713a9ea5a09379da9bb4084", "is_reserved": 0}, {"is_disabled": 0, "fusion_lon": 0.0, "fusion_lat": 0.0, "lat": 38.92362283333333, "type": "electric_scooter", "lon": -77.0503445, "bike_id": "83adc9e7bea8f87ffd7d05c82c0ffae9", "rental_uris": {"android": "https://dc.lft.to/lastmile_qr_scan", "ios": "https://dc.lft.to/lastmile_qr_scan"}, "name": "83adc9e7bea8f87ffd7d05c82c0ffae9", "is_reserved": 0}, {"is_disabled": 0, "fusion_lon": 0.0, "fusion_lat": 0.0, "lat": 38.885161, "type": "electric_scooter", "lon": -76.99851616666666, "bike_id": "ab1e3b7b7bc366733b507a2871d096c4", "rental_uris": {"android": "https://dc.lft.to/lastmile_qr_scan", "ios": "https://dc.lft.to/lastmile_qr_scan"}, "name": "ab1e3b7b7bc366733b507a2871d096c4", "is_reserved": 0}, {"is_disabled": 0, "fusion_lon": 0.0, "fusion_lat": 0.0, "lat": 38.9882875, "type": "electric_bike", "lon": -76.98752866666666, "bike_id": "678f0fc39df1a23c99ecfee86c73b7cb", "rental_uris": {"android": "https://dc.lft.to/lastmile_qr_scan", "ios": "https://dc.lft.to/lastmile_qr_scan"}, "name": "678f0fc39df1a23c99ecfee86c73b7cb", "is_reserved": 0}, {"is_disabled": 0, "fusion_lon": 0.0, "fusion_lat": 0.0, "lat": 38.889909333333335, "type": "electric_scooter", "lon": -76.99517366666667, "bike_id": "b07388ffe8b1a7df6e6ccaad80d2572f", "rental_uris": {"android": "https://dc.lft.to/lastmile_qr_scan", "ios": "https://dc.lft.to/lastmile_qr_scan"}, "name": "b07388ffe8b1a7df6e6ccaad80d2572f", "is_reserved": 0}, {"is_disabled": 0, "fusion_lon": 0.0, "fusion_lat": 0.0, "lat": 38.92035933333333, "type": "electric_scooter", "lon": -77.02583416666667, "bike_id": "ee51627d0330205ef4b77084792d0c98", "rental_uris": {"android": "https://dc.lft.to/lastmile_qr_scan", "ios": "https://dc.lft.to/lastmile_qr_scan"}, "name": "ee51627d0330205ef4b77084792d0c98", "is_reserved": 0}, {"is_disabled": 0, "fusion_lon": 0.0, "fusion_lat": 0.0, "lat": 38.924909666666665, "type": "electric_scooter", "lon": -77.02696966666667, "bike_id": "7555a3c2595499b696427cff32003fac", "rental_uris": {"android": "https://dc.lft.to/lastmile_qr_scan", "ios": "https://dc.lft.to/lastmile_qr_scan"}, "name": "7555a3c2595499b696427cff32003fac", "is_reserved": 0}, {"is_disabled": 0, "fusion_lon": 0.0, "fusion_lat": 0.0, "lat": 38.89532116666667, "type": "electric_scooter", "lon": -77.0282865, "bike_id": "cae7823263056747f0c08e4a3132bb08", "rental_uris": {"android": "https://dc.lft.to/lastmile_qr_scan", "ios": "https://dc.lft.to/lastmile_qr_scan"}, "name": "cae7823263056747f0c08e4a3132bb08", "is_reserved": 0}, {"is_disabled": 0, "fusion_lon": 0.0, "fusion_lat": 0.0, "lat": 38.952138833333336, "type": "electric_scooter", "lon": -77.036307, "bike_id": "17e912fdb477fb3a4492a4a3882a678c", "rental_uris": {"android": "https://dc.lft.to/lastmile_qr_scan", "ios": "https://dc.lft.to/lastmile_qr_scan"}, "name": "17e912fdb477fb3a4492a4a3882a678c", "is_reserved": 0}, {"is_disabled": 0, "fusion_lon": 0.0, "fusion_lat": 0.0, "lat": 38.94286183333333, "type": "electric_scooter", "lon": -77.0363215, "bike_id": "9df5dee6d9fa32b80a14b2c0c6c7cf03", "rental_uris": {"android": "https://dc.lft.to/lastmile_qr_scan", "ios": "https://dc.lft.to/lastmile_qr_scan"}, "name": "9df5dee6d9fa32b80a14b2c0c6c7cf03", "is_reserved": 0}, {"is_disabled": 0, "fusion_lon": 0.0, "fusion_lat": 0.0, "lat": 38.916996, "type": "electric_scooter", "lon": -77.02850983333333, "bike_id": "b99b343d8693f82cd1c6a46270772c39", "rental_uris": {"android": "https://dc.lft.to/lastmile_qr_scan", "ios": "https://dc.lft.to/lastmile_qr_scan"}, "name": "b99b343d8693f82cd1c6a46270772c39", "is_reserved": 0}, {"is_disabled": 0, "fusion_lon": 0.0, "fusion_lat": 0.0, "lat": 38.887504, "type": "electric_scooter", "lon": -77.01736516666666, "bike_id": "2434f8c359df2841db787d89606202c3", "rental_uris": {"android": "https://dc.lft.to/lastmile_qr_scan", "ios": "https://dc.lft.to/lastmile_qr_scan"}, "name": "2434f8c359df2841db787d89606202c3", "is_reserved": 0}, {"is_disabled": 0, "fusion_lon": 0.0, "fusion_lat": 0.0, "lat": 38.89476716666667, "type": "electric_scooter", "lon": -76.99523766666667, "bike_id": "106cf38a686331029501437cd5369551", "rental_uris": {"android": "https://dc.lft.to/lastmile_qr_scan", "ios": "https://dc.lft.to/lastmile_qr_scan"}, "name": "106cf38a686331029501437cd5369551", "is_reserved": 0}, {"is_disabled": 0, "fusion_lon": 0.0, "fusion_lat": 0.0, "lat": 38.9213395, "type": "electric_scooter", "lon": -77.02517516666667, "bike_id": "c9068e5e0bf9487807887171400771e0", "rental_uris": {"android": "https://dc.lft.to/lastmile_qr_scan", "ios": "https://dc.lft.to/lastmile_qr_scan"}, "name": "c9068e5e0bf9487807887171400771e0", "is_reserved": 0}, {"is_disabled": 0, "fusion_lon": 0.0, "fusion_lat": 0.0, "lat": 38.914991666666666, "type": "electric_scooter", "lon": -77.01982716666667, "bike_id": "83faf429d2f5a4ba59251e4b3fa1395c", "rental_uris": {"android": "https://dc.lft.to/lastmile_qr_scan", "ios": "https://dc.lft.to/lastmile_qr_scan"}, "name": "83faf429d2f5a4ba59251e4b3fa1395c", "is_reserved": 0}, {"is_disabled": 0, "fusion_lon": 0.0, "fusion_lat": 0.0, "lat": 38.962175333333334, "type": "electric_scooter", "lon": -77.0280545, "bike_id": "79ba6bdbace18725f3ef77a292d2c3b2", "rental_uris": {"android": "https://dc.lft.to/lastmile_qr_scan", "ios": "https://dc.lft.to/lastmile_qr_scan"}, "name": "79ba6bdbace18725f3ef77a292d2c3b2", "is_reserved": 0}, {"is_disabled": 0, "fusion_lon": 0.0, "fusion_lat": 0.0, "lat": 38.92121933333333, "type": "electric_scooter", "lon": -77.01762766666667, "bike_id": "4cbfe6ec86063ff3b36d5b72a8297e44", "rental_uris": {"android": "https://dc.lft.to/lastmile_qr_scan", "ios": "https://dc.lft.to/lastmile_qr_scan"}, "name": "4cbfe6ec86063ff3b36d5b72a8297e44", "is_reserved": 0}, {"is_disabled": 0, "fusion_lon": 0.0, "fusion_lat": 0.0, "lat": 38.961405666666664, "type": "electric_scooter", "lon": -77.027936, "bike_id": "0d2596d3af02ec0977ae5f417714f054", "rental_uris": {"android": "https://dc.lft.to/lastmile_qr_scan", "ios": "https://dc.lft.to/lastmile_qr_scan"}, "name": "0d2596d3af02ec0977ae5f417714f054", "is_reserved": 0}, {"is_disabled": 0, "fusion_lon": 0.0, "fusion_lat": 0.0, "lat": 38.89328116666667, "type": "electric_scooter", "lon": -77.02114683333333, "bike_id": "218a4480aa761aec214637d2a838b4ef", "rental_uris": {"android": "https://dc.lft.to/lastmile_qr_scan", "ios": "https://dc.lft.to/lastmile_qr_scan"}, "name": "218a4480aa761aec214637d2a838b4ef", "is_reserved": 0}, {"is_disabled": 0, "fusion_lon": 0.0, "fusion_lat": 0.0, "lat": 38.86520433333333, "type": "electric_scooter", "lon": -76.973356, "bike_id": "0eb949832efb0e65f81c92d9c7c9cabb", "rental_uris": {"android": "https://dc.lft.to/lastmile_qr_scan", "ios": "https://dc.lft.to/lastmile_qr_scan"}, "name": "0eb949832efb0e65f81c92d9c7c9cabb", "is_reserved": 0}, {"is_disabled": 0, "fusion_lon": 0.0, "fusion_lat": 0.0, "lat": 38.858131, "type": "electric_scooter", "lon": -76.9896215, "bike_id": "01ac5f381dab2219622e5435b8ab39b8", "rental_uris": {"android": "https://dc.lft.to/lastmile_qr_scan", "ios": "https://dc.lft.to/lastmile_qr_scan"}, "name": "01ac5f381dab2219622e5435b8ab39b8", "is_reserved": 0}, {"is_disabled": 0, "fusion_lon": 0.0, "fusion_lat": 0.0, "lat": 38.949843666666666, "type": "electric_scooter", "lon": -77.02703433333333, "bike_id": "ef1ce80b602f239316851cd0d1dc3594", "rental_uris": {"android": "https://dc.lft.to/lastmile_qr_scan", "ios": "https://dc.lft.to/lastmile_qr_scan"}, "name": "ef1ce80b602f239316851cd0d1dc3594", "is_reserved": 0}, {"is_disabled": 0, "fusion_lon": 0.0, "fusion_lat": 0.0, "lat": 38.915623, "type": "electric_scooter", "lon": -77.0326755, "bike_id": "ed3a19a36ee8d6bd15ce15e5ea01985c", "rental_uris": {"android": "https://dc.lft.to/lastmile_qr_scan", "ios": "https://dc.lft.to/lastmile_qr_scan"}, "name": "ed3a19a36ee8d6bd15ce15e5ea01985c", "is_reserved": 0}, {"is_disabled": 0, "fusion_lon": 0.0, "fusion_lat": 0.0, "lat": 38.92761, "type": "electric_scooter", "lon": -77.00592366666666, "bike_id": "efcdfc346dec4f4eb9a8b15e30c0b17f", "rental_uris": {"android": "https://dc.lft.to/lastmile_qr_scan", "ios": "https://dc.lft.to/lastmile_qr_scan"}, "name": "efcdfc346dec4f4eb9a8b15e30c0b17f", "is_reserved": 0}, {"is_disabled": 0, "fusion_lon": 0.0, "fusion_lat": 0.0, "lat": 38.919355, "type": "electric_scooter", "lon": -76.98072033333334, "bike_id": "343138e92c7bed9089c97ff99520f8e8", "rental_uris": {"android": "https://dc.lft.to/lastmile_qr_scan", "ios": "https://dc.lft.to/lastmile_qr_scan"}, "name": "343138e92c7bed9089c97ff99520f8e8", "is_reserved": 0}, {"is_disabled": 0, "fusion_lon": 0.0, "fusion_lat": 0.0, "lat": 38.903943, "type": "electric_scooter", "lon": -76.99006633333333, "bike_id": "d8cc3c087e2ec068a750a8db79a0476b", "rental_uris": {"android": "https://dc.lft.to/lastmile_qr_scan", "ios": "https://dc.lft.to/lastmile_qr_scan"}, "name": "d8cc3c087e2ec068a750a8db79a0476b", "is_reserved": 0}, {"is_disabled": 0, "fusion_lon": 0.0, "fusion_lat": 0.0, "lat": 38.90964733333333, "type": "electric_scooter", "lon": -77.0156755, "bike_id": "caf2223619af96695659455cad16c2dc", "rental_uris": {"android": "https://dc.lft.to/lastmile_qr_scan", "ios": "https://dc.lft.to/lastmile_qr_scan"}, "name": "caf2223619af96695659455cad16c2dc", "is_reserved": 0}, {"is_disabled": 0, "fusion_lon": 0.0, "fusion_lat": 0.0, "lat": 38.885062166666664, "type": "electric_scooter", "lon": -76.996495, "bike_id": "db090d6c3ebffd9c4d2f64f7d4f6b300", "rental_uris": {"android": "https://dc.lft.to/lastmile_qr_scan", "ios": "https://dc.lft.to/lastmile_qr_scan"}, "name": "db090d6c3ebffd9c4d2f64f7d4f6b300", "is_reserved": 0}, {"is_disabled": 0, "fusion_lon": 0.0, "fusion_lat": 0.0, "lat": 38.923634, "type": "electric_scooter", "lon": -77.0503735, "bike_id": "00334d0461d54f85c0ac4d1355e87db9", "rental_uris": {"android": "https://dc.lft.to/lastmile_qr_scan", "ios": "https://dc.lft.to/lastmile_qr_scan"}, "name": "00334d0461d54f85c0ac4d1355e87db9", "is_reserved": 0}, {"is_disabled": 0, "fusion_lon": 0.0, "fusion_lat": 0.0, "lat": 38.855133333333335, "type": "electric_bike", "lon": -76.95838166666667, "bike_id": "3588190ed978b00d6e127a6721d90952", "rental_uris": {"android": "https://dc.lft.to/lastmile_qr_scan", "ios": "https://dc.lft.to/lastmile_qr_scan"}, "name": "3588190ed978b00d6e127a6721d90952", "is_reserved": 0}, {"is_disabled": 0, "fusion_lon": 0.0, "fusion_lat": 0.0, "lat": 38.9725995, "type": "electric_bike", "lon": -76.9916965, "bike_id": "d2f87fd3077f8825f828ecc5eec8c10f", "rental_uris": {"android": "https://dc.lft.to/lastmile_qr_scan", "ios": "https://dc.lft.to/lastmile_qr_scan"}, "name": "d2f87fd3077f8825f828ecc5eec8c10f", "is_reserved": 0}, {"is_disabled": 0, "fusion_lon": 0.0, "fusion_lat": 0.0, "lat": 38.90237116666667, "type": "electric_scooter", "lon": -77.05984383333333, "bike_id": "c05bbf92300becb7889452b5fb728cfd", "rental_uris": {"android": "https://dc.lft.to/lastmile_qr_scan", "ios": "https://dc.lft.to/lastmile_qr_scan"}, "name": "c05bbf92300becb7889452b5fb728cfd", "is_reserved": 0}, {"is_disabled": 0, "fusion_lon": 0.0, "fusion_lat": 0.0, "lat": 38.932265666666666, "type": "electric_scooter", "lon": -76.99484166666667, "bike_id": "74f03bcda1e331558c123c6b1dd6cb34", "rental_uris": {"android": "https://dc.lft.to/lastmile_qr_scan", "ios": "https://dc.lft.to/lastmile_qr_scan"}, "name": "74f03bcda1e331558c123c6b1dd6cb34", "is_reserved": 0}, {"is_disabled": 0, "fusion_lon": 0.0, "fusion_lat": 0.0, "lat": 38.918029, "type": "electric_scooter", "lon": -77.03445666666667, "bike_id": "b7310d064d1e5745a2b6cd66c64d5995", "rental_uris": {"android": "https://dc.lft.to/lastmile_qr_scan", "ios": "https://dc.lft.to/lastmile_qr_scan"}, "name": "b7310d064d1e5745a2b6cd66c64d5995", "is_reserved": 0}, {"is_disabled": 0, "fusion_lon": 0.0, "fusion_lat": 0.0, "lat": 38.83939316666667, "type": "electric_bike", "lon": -77.07903083333333, "bike_id": "598091513c109f52f94bf065626342f5", "rental_uris": {"android": "https://dc.lft.to/lastmile_qr_scan", "ios": "https://dc.lft.to/lastmile_qr_scan"}, "name": "598091513c109f52f94bf065626342f5", "is_reserved": 0}, {"is_disabled": 0, "fusion_lon": 0.0, "fusion_lat": 0.0, "lat": 38.8127135, "type": "electric_bike", "lon": -77.06174983333334, "bike_id": "bffd72eb9b2f13a7188bff5af12acc6e", "rental_uris": {"android": "https://dc.lft.to/lastmile_qr_scan", "ios": "https://dc.lft.to/lastmile_qr_scan"}, "name": "bffd72eb9b2f13a7188bff5af12acc6e", "is_reserved": 0}, {"is_disabled": 0, "fusion_lon": 0.0, "fusion_lat": 0.0, "lat": 38.905653666666666, "type": "electric_scooter", "lon": -77.04549616666667, "bike_id": "609fcfef932309219b1da0c0b448d42e", "rental_uris": {"android": "https://dc.lft.to/lastmile_qr_scan", "ios": "https://dc.lft.to/lastmile_qr_scan"}, "name": "609fcfef932309219b1da0c0b448d42e", "is_reserved": 0}, {"is_disabled": 0, "fusion_lon": 0.0, "fusion_lat": 0.0, "lat": 38.8974515, "type": "electric_scooter", "lon": -77.00981933333334, "bike_id": "803a709476dd56b6433881f9aad7e251", "rental_uris": {"android": "https://dc.lft.to/lastmile_qr_scan", "ios": "https://dc.lft.to/lastmile_qr_scan"}, "name": "803a709476dd56b6433881f9aad7e251", "is_reserved": 0}, {"is_disabled": 0, "fusion_lon": 0.0, "fusion_lat": 0.0, "lat": 38.934712166666664, "type": "electric_scooter", "lon": -77.0688195, "bike_id": "e906cb93f9b3e0d03f94355757a3ca97", "rental_uris": {"android": "https://dc.lft.to/lastmile_qr_scan", "ios": "https://dc.lft.to/lastmile_qr_scan"}, "name": "e906cb93f9b3e0d03f94355757a3ca97", "is_reserved": 0}, {"is_disabled": 0, "fusion_lon": 0.0, "fusion_lat": 0.0, "lat": 38.9133665, "type": "electric_scooter", "lon": -77.0457605, "bike_id": "86f0800c639829e5a68b1fbca9a35fd3", "rental_uris": {"android": "https://dc.lft.to/lastmile_qr_scan", "ios": "https://dc.lft.to/lastmile_qr_scan"}, "name": "86f0800c639829e5a68b1fbca9a35fd3", "is_reserved": 0}, {"is_disabled": 0, "fusion_lon": 0.0, "fusion_lat": 0.0, "lat": 38.96635116666667, "type": "electric_scooter", "lon": -77.03529416666667, "bike_id": "e7ebec728452402d405bb519117fae06", "rental_uris": {"android": "https://dc.lft.to/lastmile_qr_scan", "ios": "https://dc.lft.to/lastmile_qr_scan"}, "name": "e7ebec728452402d405bb519117fae06", "is_reserved": 0}, {"is_disabled": 0, "fusion_lon": 0.0, "fusion_lat": 0.0, "lat": 38.91711316666667, "type": "electric_scooter", "lon": -77.036722, "bike_id": "09593de6af45de364f9920318aed73ef", "rental_uris": {"android": "https://dc.lft.to/lastmile_qr_scan", "ios": "https://dc.lft.to/lastmile_qr_scan"}, "name": "09593de6af45de364f9920318aed73ef", "is_reserved": 0}, {"is_disabled": 0, "fusion_lon": 0.0, "fusion_lat": 0.0, "lat": 38.946208, "type": "electric_scooter", "lon": -77.0362795, "bike_id": "0b90a1c69eaadabbb270397e9566383a", "rental_uris": {"android": "https://dc.lft.to/lastmile_qr_scan", "ios": "https://dc.lft.to/lastmile_qr_scan"}, "name": "0b90a1c69eaadabbb270397e9566383a", "is_reserved": 0}, {"is_disabled": 0, "fusion_lon": 0.0, "fusion_lat": 0.0, "lat": 38.920163333333335, "type": "electric_scooter", "lon": -77.03129816666667, "bike_id": "72573f5944e0869a4f0f67dd64cdf6c6", "rental_uris": {"android": "https://dc.lft.to/lastmile_qr_scan", "ios": "https://dc.lft.to/lastmile_qr_scan"}, "name": "72573f5944e0869a4f0f67dd64cdf6c6", "is_reserved": 0}, {"is_disabled": 0, "fusion_lon": 0.0, "fusion_lat": 0.0, "lat": 38.912715166666665, "type": "electric_scooter", "lon": -77.03362666666666, "bike_id": "ce8b0afb20f92c8c88845c3b45ee61a3", "rental_uris": {"android": "https://dc.lft.to/lastmile_qr_scan", "ios": "https://dc.lft.to/lastmile_qr_scan"}, "name": "ce8b0afb20f92c8c88845c3b45ee61a3", "is_reserved": 0}, {"is_disabled": 0, "fusion_lon": 0.0, "fusion_lat": 0.0, "lat": 38.928200333333336, "type": "electric_scooter", "lon": -77.04338966666667, "bike_id": "5cb28ab95e1a1c24b3e4aecdfac1065e", "rental_uris": {"android": "https://dc.lft.to/lastmile_qr_scan", "ios": "https://dc.lft.to/lastmile_qr_scan"}, "name": "5cb28ab95e1a1c24b3e4aecdfac1065e", "is_reserved": 0}, {"is_disabled": 0, "fusion_lon": 0.0, "fusion_lat": 0.0, "lat": 38.929675333333336, "type": "electric_scooter", "lon": -77.0419645, "bike_id": "39f51f4fe134402bf9ad804c25b61880", "rental_uris": {"android": "https://dc.lft.to/lastmile_qr_scan", "ios": "https://dc.lft.to/lastmile_qr_scan"}, "name": "39f51f4fe134402bf9ad804c25b61880", "is_reserved": 0}, {"is_disabled": 0, "fusion_lon": 0.0, "fusion_lat": 0.0, "lat": 38.9517525, "type": "electric_scooter", "lon": -77.03332016666667, "bike_id": "59933daf7202278853c3df9e7d01a2cd", "rental_uris": {"android": "https://dc.lft.to/lastmile_qr_scan", "ios": "https://dc.lft.to/lastmile_qr_scan"}, "name": "59933daf7202278853c3df9e7d01a2cd", "is_reserved": 0}, {"is_disabled": 0, "fusion_lon": 0.0, "fusion_lat": 0.0, "lat": 38.903267166666666, "type": "electric_scooter", "lon": -77.02123433333334, "bike_id": "f25fec2994bec8604d44dfb0f3553905", "rental_uris": {"android": "https://dc.lft.to/lastmile_qr_scan", "ios": "https://dc.lft.to/lastmile_qr_scan"}, "name": "f25fec2994bec8604d44dfb0f3553905", "is_reserved": 0}, {"is_disabled": 0, "fusion_lon": 0.0, "fusion_lat": 0.0, "lat": 38.9165255, "type": "electric_scooter", "lon": -77.02176716666666, "bike_id": "99383ec96432e12e0c5a684d2e1301f9", "rental_uris": {"android": "https://dc.lft.to/lastmile_qr_scan", "ios": "https://dc.lft.to/lastmile_qr_scan"}, "name": "99383ec96432e12e0c5a684d2e1301f9", "is_reserved": 0}, {"is_disabled": 0, "fusion_lon": 0.0, "fusion_lat": 0.0, "lat": 38.90750633333333, "type": "electric_bike", "lon": -77.00774266666667, "bike_id": "082c8a533a18abad6c1eaf71554e52c7", "rental_uris": {"android": "https://dc.lft.to/lastmile_qr_scan", "ios": "https://dc.lft.to/lastmile_qr_scan"}, "name": "082c8a533a18abad6c1eaf71554e52c7", "is_reserved": 0}, {"is_disabled": 0, "fusion_lon": 0.0, "fusion_lat": 0.0, "lat": 38.91629416666667, "type": "electric_scooter", "lon": -77.04344666666667, "bike_id": "2212a50fb2c2f912ade7dc1b54fad3ab", "rental_uris": {"android": "https://dc.lft.to/lastmile_qr_scan", "ios": "https://dc.lft.to/lastmile_qr_scan"}, "name": "2212a50fb2c2f912ade7dc1b54fad3ab", "is_reserved": 0}, {"is_disabled": 0, "fusion_lon": 0.0, "fusion_lat": 0.0, "lat": 38.97575283333333, "type": "electric_bike", "lon": -76.96403366666667, "bike_id": "be55c27f110a4957747a8825d9e598d5", "rental_uris": {"android": "https://dc.lft.to/lastmile_qr_scan", "ios": "https://dc.lft.to/lastmile_qr_scan"}, "name": "be55c27f110a4957747a8825d9e598d5", "is_reserved": 0}, {"is_disabled": 0, "fusion_lon": 0.0, "fusion_lat": 0.0, "lat": 38.888253166666665, "type": "electric_bike", "lon": -77.127405, "bike_id": "85499526aa3db9c60aaf0a2ba18264ea", "rental_uris": {"android": "https://dc.lft.to/lastmile_qr_scan", "ios": "https://dc.lft.to/lastmile_qr_scan"}, "name": "85499526aa3db9c60aaf0a2ba18264ea", "is_reserved": 0}, {"is_disabled": 0, "fusion_lon": 0.0, "fusion_lat": 0.0, "lat": 38.9083205, "type": "electric_bike", "lon": -76.94157916666667, "bike_id": "39a330728cf74db8e740cf192dd0da76", "rental_uris": {"android": "https://dc.lft.to/lastmile_qr_scan", "ios": "https://dc.lft.to/lastmile_qr_scan"}, "name": "39a330728cf74db8e740cf192dd0da76", "is_reserved": 0}, {"is_disabled": 0, "fusion_lon": 0.0, "fusion_lat": 0.0, "lat": 38.8874035, "type": "electric_scooter", "lon": -77.022727, "bike_id": "61073ee4d341a2858d9616370554a3bd", "rental_uris": {"android": "https://dc.lft.to/lastmile_qr_scan", "ios": "https://dc.lft.to/lastmile_qr_scan"}, "name": "61073ee4d341a2858d9616370554a3bd", "is_reserved": 0}, {"is_disabled": 0, "fusion_lon": 0.0, "fusion_lat": 0.0, "lat": 38.928666666666665, "type": "electric_scooter", "lon": -77.03100383333333, "bike_id": "edaa3235a1b4ebf150556b8af10bd972", "rental_uris": {"android": "https://dc.lft.to/lastmile_qr_scan", "ios": "https://dc.lft.to/lastmile_qr_scan"}, "name": "edaa3235a1b4ebf150556b8af10bd972", "is_reserved": 0}, {"is_disabled": 0, "fusion_lon": 0.0, "fusion_lat": 0.0, "lat": 38.990921, "type": "electric_bike", "lon": -76.87494583333333, "bike_id": "5e2ec892620136497eda8ed7002f651a", "rental_uris": {"android": "https://dc.lft.to/lastmile_qr_scan", "ios": "https://dc.lft.to/lastmile_qr_scan"}, "name": "5e2ec892620136497eda8ed7002f651a", "is_reserved": 0}, {"is_disabled": 0, "fusion_lon": 0.0, "fusion_lat": 0.0, "lat": 38.889692333333336, "type": "electric_bike", "lon": -76.94863416666666, "bike_id": "8ad824ab071a00cd2e02988ef0476e7b", "rental_uris": {"android": "https://dc.lft.to/lastmile_qr_scan", "ios": "https://dc.lft.to/lastmile_qr_scan"}, "name": "8ad824ab071a00cd2e02988ef0476e7b", "is_reserved": 0}, {"is_disabled": 0, "fusion_lon": 0.0, "fusion_lat": 0.0, "lat": 38.93292916666667, "type": "electric_scooter", "lon": -77.02389033333333, "bike_id": "7c23b1f2c6770a952ec1423f866bbb3d", "rental_uris": {"android": "https://dc.lft.to/lastmile_qr_scan", "ios": "https://dc.lft.to/lastmile_qr_scan"}, "name": "7c23b1f2c6770a952ec1423f866bbb3d", "is_reserved": 0}, {"is_disabled": 0, "fusion_lon": 0.0, "fusion_lat": 0.0, "lat": 38.90772166666667, "type": "electric_scooter", "lon": -77.03273666666666, "bike_id": "44eebad66a2c740c4caa40c2d585fab8", "rental_uris": {"android": "https://dc.lft.to/lastmile_qr_scan", "ios": "https://dc.lft.to/lastmile_qr_scan"}, "name": "44eebad66a2c740c4caa40c2d585fab8", "is_reserved": 0}, {"is_disabled": 0, "fusion_lon": 0.0, "fusion_lat": 0.0, "lat": 38.9131245, "type": "electric_scooter", "lon": -77.032067, "bike_id": "6d4e2ebc1fd00bc2889cad4b1e5feab8", "rental_uris": {"android": "https://dc.lft.to/lastmile_qr_scan", "ios": "https://dc.lft.to/lastmile_qr_scan"}, "name": "6d4e2ebc1fd00bc2889cad4b1e5feab8", "is_reserved": 0}, {"is_disabled": 0, "fusion_lon": 0.0, "fusion_lat": 0.0, "lat": 38.91664733333333, "type": "electric_scooter", "lon": -77.027909, "bike_id": "477185edcbb616757e256dab4ddeb3e2", "rental_uris": {"android": "https://dc.lft.to/lastmile_qr_scan", "ios": "https://dc.lft.to/lastmile_qr_scan"}, "name": "477185edcbb616757e256dab4ddeb3e2", "is_reserved": 0}, {"is_disabled": 0, "fusion_lon": 0.0, "fusion_lat": 0.0, "lat": 38.899946166666666, "type": "electric_scooter", "lon": -77.03209366666667, "bike_id": "731c2f21318f5f38b2e54fb33475e3c8", "rental_uris": {"android": "https://dc.lft.to/lastmile_qr_scan", "ios": "https://dc.lft.to/lastmile_qr_scan"}, "name": "731c2f21318f5f38b2e54fb33475e3c8", "is_reserved": 0}, {"is_disabled": 0, "fusion_lon": 0.0, "fusion_lat": 0.0, "lat": 38.84508833333334, "type": "electric_bike", "lon": -76.97212016666667, "bike_id": "d2722b7f358a37b7debe56a617e8df91", "rental_uris": {"android": "https://dc.lft.to/lastmile_qr_scan", "ios": "https://dc.lft.to/lastmile_qr_scan"}, "name": "d2722b7f358a37b7debe56a617e8df91", "is_reserved": 0}, {"is_disabled": 0, "fusion_lon": 0.0, "fusion_lat": 0.0, "lat": 38.90717766666667, "type": "electric_scooter", "lon": -77.0271105, "bike_id": "8728c1959beb9b7840ad0b80290680ff", "rental_uris": {"android": "https://dc.lft.to/lastmile_qr_scan", "ios": "https://dc.lft.to/lastmile_qr_scan"}, "name": "8728c1959beb9b7840ad0b80290680ff", "is_reserved": 0}, {"is_disabled": 0, "fusion_lon": 0.0, "fusion_lat": 0.0, "lat": 38.90262716666667, "type": "electric_scooter", "lon": -77.01755116666666, "bike_id": "8d6f06a55faadea385640fbc52c480c3", "rental_uris": {"android": "https://dc.lft.to/lastmile_qr_scan", "ios": "https://dc.lft.to/lastmile_qr_scan"}, "name": "8d6f06a55faadea385640fbc52c480c3", "is_reserved": 0}, {"is_disabled": 0, "fusion_lon": 0.0, "fusion_lat": 0.0, "lat": 38.956075166666665, "type": "electric_scooter", "lon": -77.036314, "bike_id": "5dbbd3eef1a974e6634afe4ddc7a9843", "rental_uris": {"android": "https://dc.lft.to/lastmile_qr_scan", "ios": "https://dc.lft.to/lastmile_qr_scan"}, "name": "5dbbd3eef1a974e6634afe4ddc7a9843", "is_reserved": 0}, {"is_disabled": 0, "fusion_lon": 0.0, "fusion_lat": 0.0, "lat": 38.93063866666667, "type": "electric_bike", "lon": -77.0381215, "bike_id": "e812eb5dae89e8f2f0a5a91abe6c6be1", "rental_uris": {"android": "https://dc.lft.to/lastmile_qr_scan", "ios": "https://dc.lft.to/lastmile_qr_scan"}, "name": "e812eb5dae89e8f2f0a5a91abe6c6be1", "is_reserved": 0}, {"is_disabled": 0, "fusion_lon": 0.0, "fusion_lat": 0.0, "lat": 38.903808833333336, "type": "electric_scooter", "lon": -77.007254, "bike_id": "bbebf203d9eef82804a0bfc259cbd28c", "rental_uris": {"android": "https://dc.lft.to/lastmile_qr_scan", "ios": "https://dc.lft.to/lastmile_qr_scan"}, "name": "bbebf203d9eef82804a0bfc259cbd28c", "is_reserved": 0}, {"is_disabled": 0, "fusion_lon": 0.0, "fusion_lat": 0.0, "lat": 38.91634633333334, "type": "electric_scooter", "lon": -77.04621633333333, "bike_id": "5fc83b0212ad86b5dac2036e3931f24e", "rental_uris": {"android": "https://dc.lft.to/lastmile_qr_scan", "ios": "https://dc.lft.to/lastmile_qr_scan"}, "name": "5fc83b0212ad86b5dac2036e3931f24e", "is_reserved": 0}, {"is_disabled": 0, "fusion_lon": 0.0, "fusion_lat": 0.0, "lat": 38.910492166666664, "type": "electric_scooter", "lon": -77.0385275, "bike_id": "e1f54f7ca11576bd33a1a4dd0f3d84a0", "rental_uris": {"android": "https://dc.lft.to/lastmile_qr_scan", "ios": "https://dc.lft.to/lastmile_qr_scan"}, "name": "e1f54f7ca11576bd33a1a4dd0f3d84a0", "is_reserved": 0}, {"is_disabled": 0, "fusion_lon": 0.0, "fusion_lat": 0.0, "lat": 38.9101405, "type": "electric_scooter", "lon": -77.0383795, "bike_id": "17bee1d66e318d3b890f3ef95cad92ce", "rental_uris": {"android": "https://dc.lft.to/lastmile_qr_scan", "ios": "https://dc.lft.to/lastmile_qr_scan"}, "name": "17bee1d66e318d3b890f3ef95cad92ce", "is_reserved": 0}, {"is_disabled": 0, "fusion_lon": 0.0, "fusion_lat": 0.0, "lat": 38.91323416666667, "type": "electric_scooter", "lon": -77.03192883333334, "bike_id": "0b61e2b66074ac292850d7b26e82af90", "rental_uris": {"android": "https://dc.lft.to/lastmile_qr_scan", "ios": "https://dc.lft.to/lastmile_qr_scan"}, "name": "0b61e2b66074ac292850d7b26e82af90", "is_reserved": 0},