{"data": {"bikes": [{"fusion_lat": 0.0, "name": "999565cdd42f7564ffc5098294ebc1cc", "is_disabled": 0, "rental_uris": {"android": "https://dc.lft.to/lastmile_qr_scan", "ios": "https://dc.lft.to/lastmile_qr_scan"}, "fusion_lon": 0.0, "lat": 38.9357765, "bike_id": "999565cdd42f7564ffc5098294ebc1cc", "type": "electric_scooter", "is_reserved": 0, "lon": -77.019288}, {"fusion_lat": 0.0, "name": "0bd02d0f8ef4f122875c1a93161402cf", "is_disabled": 0, "rental_uris": {"android": "https://dc.lft.to/lastmile_qr_scan", "ios": "https://dc.lft.to/lastmile_qr_scan"}, "fusion_lon": 0.0, "lat": 38.915790666666666, "bike_id": "0bd02d0f8ef4f122875c1a93161402cf", "type": "electric_scooter", "is_reserved": 0, "lon": -77.03218766666667}, {"fusion_lat": 0.0, "name": "a62d73b762f33ef6ab5da0b3bea1396a", "is_disabled": 0, "rental_uris": {"android": "https://dc.lft.to/lastmile_qr_scan", "ios": "https://dc.lft.to/lastmile_qr_scan"}, "fusion_lon": 0.0, "lat": 38.916100166666666, "bike_id": "a62d73b762f33ef6ab5da0b3bea1396a", "type": "electric_scooter", "is_reserved": 0, "lon": -77.04585883333333}, {"fusion_lat": 0.0, "name": "9373b9171985bd96ceb8ecf2d416ade4", "is_disabled": 0, "rental_uris": {"android": "https://dc.lft.to/lastmile_qr_scan", "ios": "https://dc.lft.to/lastmile_qr_scan"}, "fusion_lon": 0.0, "lat": 38.93502433333333, "bike_id": "9373b9171985bd96ceb8ecf2d416ade4", "type": "electric_scooter", "is_reserved": 0, "lon": -77.03633383333333}, {"fusion_lat": 0.0, "name": "9612d0b8e6530c626bbc3e2b2615992e", "is_disabled": 0, "rental_uris": {"android": "https://dc.lft.to/lastmile_qr_scan", "ios": "https://dc.lft.to/lastmile_qr_scan"}, "fusion_lon": 0.0, "lat": 38.8921955, "bike_id": "9612d0b8e6530c626bbc3e2b2615992e", "type": "electric_scooter", "is_reserved": 0, "lon": -77.02657216666667}, {"fusion_lat": 0.0, "name": "1f16ff3dabe3a5bd05f5d2981770e884", "is_disabled": 0, "rental_uris": {"android": "https://dc.lft.to/lastmile_qr_scan", "ios": "https://dc.lft.to/lastmile_qr_scan"}, "fusion_lon": 0.0, "lat": 38.92782783333333, "bike_id": "1f16ff3dabe3a5bd05f5d2981770e884", "type": "electric_scooter", "is_reserved": 0, "lon": -77.0431915}, {"fusion_lat": 0.0, "name": "6925512cda897e26168ac9c9f9fede66", "is_disabled": 0, "rental_uris": {"android": "https://dc.lft.to/lastmile_qr_scan", "ios": "https://dc.lft.to/lastmile_qr_scan"}, "fusion_lon": 0.0, "lat": 38.89779566666667, "bike_id": "6925512cda897e26168ac9c9f9fede66", "type": "electric_scooter", "is_reserved": 0, "lon": -77.027015}, {"fusion_lat": 0.0, "name": "9401c6b1e71991ef1c8fbb003799565e", "is_disabled": 0, "rental_uris": {"android": "https://dc.lft.to/lastmile_qr_scan", "ios": "https://dc.lft.to/lastmile_qr_scan"}, "fusion_lon": 0.0, "lat": 38.906264, "bike_id": "9401c6b1e71991ef1c8fbb003799565e", "type": "electric_scooter", "is_reserved": 0, "lon": -77.0315065}, {"fusion_lat": 0.0, "name": "4d6a2729eab55dbd58d901ae24a5ce76", "is_disabled": 0, "rental_uris": {"android": "https://dc.lft.to/lastmile_qr_scan", "ios": "https://dc.lft.to/lastmile_qr_scan"}, "fusion_lon": 0.0, "lat": 38.900003833333336, "bike_id": "4d6a2729eab55dbd58d901ae24a5ce76", "type": "electric_scooter", "is_reserved": 0, "lon": -77.01021866666666}, {"fusion_lat": 0.0, "name": "93587205d916f776eda996215aca9a38", "is_disabled": 0, "rental_uris": {"android": "https://dc.lft.to/lastmile_qr_scan", "ios": "https://dc.lft.to/lastmile_qr_scan"}, "fusion_lon": 0.0, "lat": 38.90013733333333, "bike_id": "93587205d916f776eda996215aca9a38", "type": "electric_scooter", "is_reserved": 0, "lon": -77.02201016666666}, {"fusion_lat": 0.0, "name": "114b9c08458f7f9c9cd6918b29a134da", "is_disabled": 0, "rental_uris": {"android": "https://dc.lft.to/lastmile_qr_scan", "ios": "https://dc.lft.to/lastmile_qr_scan"}, "fusion_lon": 0.0, "lat": 38.9170755, "bike_id": "114b9c08458f7f9c9cd6918b29a134da", "type": "electric_scooter", "is_reserved": 0, "lon": -77.041266}, {"fusion_lat": 0.0, "name": "e45f84824a62d73e0bf34bd66b1787db", "is_disabled": 0, "rental_uris": {"android": "https://dc.lft.to/lastmile_qr_scan", "ios": "https://dc.lft.to/lastmile_qr_scan"}, "fusion_lon": 0.0, "lat": 38.997749666666664, "bike_id": "e45f84824a62d73e0bf34bd66b1787db", "type": "electric_bike", "is_reserved": 0, "lon": -77.0471915}, {"fusion_lat": 0.0, "name": "6f03e68b7bc2122645cda7c09896a4aa", "is_disabled": 0, "rental_uris": {"android": "https://dc.lft.to/lastmile_qr_scan", "ios": "https://dc.lft.to/lastmile_qr_scan"}, "fusion_lon": 0.0, "lat": 38.923634666666665, "bike_id": "6f03e68b7bc2122645cda7c09896a4aa", "type": "electric_scooter", "is_reserved": 0, "lon": -77.03371933333334}, {"fusion_lat": 0.0, "name": "baf7190d8887917ea270610cb5a2532a", "is_disabled": 0, "rental_uris": {"android": "https://dc.lft.to/lastmile_qr_scan", "ios": "https://dc.lft.to/lastmile_qr_scan"}, "fusion_lon": 0.0, "lat": 38.888904833333335, "bike_id": "baf7190d8887917ea270610cb5a2532a", "type": "electric_scooter", "is_reserved": 0, "lon": -77.015083}, {"fusion_lat": 0.0, "name": "501d4adaa4c0fbb76135c5a24a712889", "is_disabled": 0, "rental_uris": {"android": "https://dc.lft.to/lastmile_qr_scan", "ios": "https://dc.lft.to/lastmile_qr_scan"}, "fusion_lon": 0.0, "lat": 38.903739, "bike_id": "501d4adaa4c0fbb76135c5a24a712889", "type": "electric_scooter", "is_reserved": 0, "lon": -77.04827983333334}, {"fusion_lat": 0.0, "name": "293eef7a4309952c5818053b41d4c598", "is_disabled": 0, "rental_uris": {"android": "https://dc.lft.to/lastmile_qr_scan", "ios": "https://dc.lft.to/lastmile_qr_scan"}, "fusion_lon": 0.0, "lat": 38.90559983333333, "bike_id": "293eef7a4309952c5818053b41d4c598", "type": "electric_scooter", "is_reserved": 0, "lon": -77.00644483333333}, {"fusion_lat": 0.0, "name": "1c0ebf7aa9abe3875224ec370861c2f6", "is_disabled": 0, "rental_uris": {"android": "https://dc.lft.to/lastmile_qr_scan", "ios": "https://dc.lft.to/lastmile_qr_scan"}, "fusion_lon": 0.0, "lat": 38.905496666666664, "bike_id": "1c0ebf7aa9abe3875224ec370861c2f6", "type": "electric_scooter", "is_reserved": 0, "lon": -77.04555833333333}, {"fusion_lat": 0.0, "name": "489e1c52042abf29ff6d3ad88f57b863", "is_disabled": 0, "rental_uris": {"android": "https://dc.lft.to/lastmile_qr_scan", "ios": "https://dc.lft.to/lastmile_qr_scan"}, "fusion_lon": 0.0, "lat": 38.9052765, "bike_id": "489e1c52042abf29ff6d3ad88f57b863", "type": "electric_scooter", "is_reserved": 0, "lon": -77.06141}, {"fusion_lat": 0.0, "name": "dc875c2293fd0bbe7aa74738b3d6fafc", "is_disabled": 0, "rental_uris": {"android": "https://dc.lft.to/lastmile_qr_scan", "ios": "https://dc.lft.to/lastmile_qr_scan"}, "fusion_lon": 0.0, "lat": 38.909505333333335, "bike_id": "dc875c2293fd0bbe7aa74738b3d6fafc", "type": "electric_scooter", "is_reserved": 0, "lon": -76.98538833333333}, {"fusion_lat": 0.0, "name": "4edd7a99e820f2f48d2c19f17be3b9b7", "is_disabled": 0, "rental_uris": {"android": "https://dc.lft.to/lastmile_qr_scan", "ios": "https://dc.lft.to/lastmile_qr_scan"}, "fusion_lon": 0.0, "lat": 38.87461783333333, "bike_id": "4edd7a99e820f2f48d2c19f17be3b9b7", "type": "electric_scooter", "is_reserved": 0, "lon": -77.000603}, {"fusion_lat": 0.0, "name": "ec4d4fc0a5aef82abda79154e21c61ab", "is_disabled": 0, "rental_uris": {"android": "https://dc.lft.to/lastmile_qr_scan", "ios": "https://dc.lft.to/lastmile_qr_scan"}, "fusion_lon": 0.0, "lat": 38.90194116666667, "bike_id": "ec4d4fc0a5aef82abda79154e21c61ab", "type": "electric_scooter", "is_reserved": 0, "lon": -77.02289516666667}, {"fusion_lat": 0.0, "name": "55b0297114f160f206dea93fdacf69df", "is_disabled": 0, "rental_uris": {"android": "https://dc.lft.to/lastmile_qr_scan", "ios": "https://dc.lft.to/lastmile_qr_scan"}, "fusion_lon": 0.0, "lat": 38.919677, "bike_id": "55b0297114f160f206dea93fdacf69df", "type": "electric_scooter", "is_reserved": 0, "lon": -77.023576}, {"fusion_lat": 0.0, "name": "e13227370127d39d33f3a6b11d5a2207", "is_disabled": 0, "rental_uris": {"android": "https://dc.lft.to/lastmile_qr_scan", "ios": "https://dc.lft.to/lastmile_qr_scan"}, "fusion_lon": 0.0, "lat": 38.91914466666667, "bike_id": "e13227370127d39d33f3a6b11d5a2207", "type": "electric_scooter", "is_reserved": 0, "lon": -77.02403783333334}, {"fusion_lat": 0.0, "name": "9ca7eeeea351a1c0c56a31e3c5b69c8d", "is_disabled": 0, "rental_uris": {"android": "https://dc.lft.to/lastmile_qr_scan", "ios": "https://dc.lft.to/lastmile_qr_scan"}, "fusion_lon": 0.0, "lat": 38.892230833333336, "bike_id": "9ca7eeeea351a1c0c56a31e3c5b69c8d", "type": "electric_scooter", "is_reserved": 0, "lon": -77.02312616666667}, {"fusion_lat": 0.0, "name": "88a44b08f49400e92aa837cd85ce8f93", "is_disabled": 0, "rental_uris": {"android": "https://dc.lft.to/lastmile_qr_scan", "ios": "https://dc.lft.to/lastmile_qr_scan"}, "fusion_lon": 0.0, "lat": 38.921199, "bike_id": "88a44b08f49400e92aa837cd85ce8f93", "type": "electric_scooter", "is_reserved": 0, "lon": -77.01210383333333}, {"fusion_lat": 0.0, "name": "f5b6705eee10cc68b50fbd1250f429b5", "is_disabled": 0, "rental_uris": {"android": "https://dc.lft.to/lastmile_qr_scan", "ios": "https://dc.lft.to/lastmile_qr_scan"}, "fusion_lon": 0.0, "lat": 38.9098325, "bike_id": "f5b6705eee10cc68b50fbd1250f429b5", "type": "electric_scooter", "is_reserved": 0, "lon": -77.03423916666667}, {"fusion_lat": 0.0, "name": "3aa77776717c604b293a2132c6dfca98", "is_disabled": 0, "rental_uris": {"android": "https://dc.lft.to/lastmile_qr_scan", "ios": "https://dc.lft.to/lastmile_qr_scan"}, "fusion_lon": 0.0, "lat": 39.010752333333336, "bike_id": "3aa77776717c604b293a2132c6dfca98", "type": "electric_bike", "is_reserved": 0, "lon": -76.91067533333333}, {"fusion_lat": 0.0, "name": "443a88029036f3a762436a73b9278aaf", "is_disabled": 0, "rental_uris": {"android": "https://dc.lft.to/lastmile_qr_scan", "ios": "https://dc.lft.to/lastmile_qr_scan"}, "fusion_lon": 0.0, "lat": 38.937016, "bike_id": "443a88029036f3a762436a73b9278aaf", "type": "electric_scooter", "is_reserved": 0, "lon": -77.06105416666666}, {"fusion_lat": 0.0, "name": "807edbbbe2d315a187ab6d9d6d6bfe0a", "is_disabled": 0, "rental_uris": {"android": "https://dc.lft.to/lastmile_qr_scan", "ios": "https://dc.lft.to/lastmile_qr_scan"}, "fusion_lon": 0.0, "lat": 38.917017, "bike_id": "807edbbbe2d315a187ab6d9d6d6bfe0a", "type": "electric_scooter", "is_reserved": 0, "lon": -77.02421616666666}, {"fusion_lat": 0.0, "name": "b0e9ebd968754068287faf6cff628a58", "is_disabled": 0, "rental_uris": {"android": "https://dc.lft.to/lastmile_qr_scan", "ios": "https://dc.lft.to/lastmile_qr_scan"}, "fusion_lon": 0.0, "lat": 38.9192255, "bike_id": "b0e9ebd968754068287faf6cff628a58", "type": "electric_scooter", "is_reserved": 0, "lon": -77.0121255}, {"fusion_lat": 0.0, "name": "dea12ae80f014d9ade005e5071f8615b", "is_disabled": 0, "rental_uris": {"android": "https://dc.lft.to/lastmile_qr_scan", "ios": "https://dc.lft.to/lastmile_qr_scan"}, "fusion_lon": 0.0, "lat": 38.899762833333334, "bike_id": "dea12ae80f014d9ade005e5071f8615b", "type": "electric_scooter", "is_reserved": 0, "lon": -77.02218433333333}, {"fusion_lat": 0.0, "name": "d7b1265350e1338e1208ad824f954833", "is_disabled": 0, "rental_uris": {"android": "https://dc.lft.to/lastmile_qr_scan", "ios": "https://dc.lft.to/lastmile_qr_scan"}, "fusion_lon": 0.0, "lat": 38.91571416666667, "bike_id": "d7b1265350e1338e1208ad824f954833", "type": "electric_scooter", "is_reserved": 0, "lon": -77.03198066666667}, {"fusion_lat": 0.0, "name": "ce7df5e67381c0811b18a66f234ea4aa", "is_disabled": 0, "rental_uris": {"android": "https://dc.lft.to/lastmile_qr_scan", "ios": "https://dc.lft.to/lastmile_qr_scan"}, "fusion_lon": 0.0, "lat": 38.892218666666665, "bike_id": "ce7df5e67381c0811b18a66f234ea4aa", "type": "electric_scooter", "is_reserved": 0, "lon": -77.03342516666666}, {"fusion_lat": 0.0, "name": "45ce9f661d0932378ec88086bc3d43cc", "is_disabled": 0, "rental_uris": {"android": "https://dc.lft.to/lastmile_qr_scan", "ios": "https://dc.lft.to/lastmile_qr_scan"}, "fusion_lon": 0.0, "lat": 38.945257833333336, "bike_id": "45ce9f661d0932378ec88086bc3d43cc", "type": "electric_scooter", "is_reserved": 0, "lon": -77.02100216666666}, {"fusion_lat": 0.0, "name": "6ce453c99bca6b558b6c48aedd7834cf", "is_disabled": 0, "rental_uris": {"android": "https://dc.lft.to/lastmile_qr_scan", "ios": "https://dc.lft.to/lastmile_qr_scan"}, "fusion_lon": 0.0, "lat": 38.906524166666664, "bike_id": "6ce453c99bca6b558b6c48aedd7834cf", "type": "electric_scooter", "is_reserved": 0, "lon": -77.0096745}, {"fusion_lat": 0.0, "name": "693d9ad4c36fd5a141b35f23bf465d28", "is_disabled": 0, "rental_uris": {"android": "https://dc.lft.to/lastmile_qr_scan", "ios": "https://dc.lft.to/lastmile_qr_scan"}, "fusion_lon": 0.0, "lat": 38.914083166666664, "bike_id": "693d9ad4c36fd5a141b35f23bf465d28", "type": "electric_scooter", "is_reserved": 0, "lon": -77.04564366666666}, {"fusion_lat": 0.0, "name": "eb6eebb0e6541964ad4e04d69d3bce4d", "is_disabled": 0, "rental_uris": {"android": "https://dc.lft.to/lastmile_qr_scan", "ios": "https://dc.lft.to/lastmile_qr_scan"}, "fusion_lon": 0.0, "lat": 38.9022125, "bike_id": "eb6eebb0e6541964ad4e04d69d3bce4d", "type": "electric_scooter", "is_reserved": 0, "lon": -77.04607233333333}, {"fusion_lat": 0.0, "name": "ef3fefd924a834e40dc826fd155aa251", "is_disabled": 0, "rental_uris": {"android": "https://dc.lft.to/lastmile_qr_scan", "ios": "https://dc.lft.to/lastmile_qr_scan"}, "fusion_lon": 0.0, "lat": 38.90232916666667, "bike_id": "ef3fefd924a834e40dc826fd155aa251", "type": "electric_scooter", "is_reserved": 0, "lon": -77.01912033333333}, {"fusion_lat": 0.0, "name": "278b53aa9987518fc0b9c43c350fbcbb", "is_disabled": 0, "rental_uris": {"android": "https://dc.lft.to/lastmile_qr_scan", "ios": "https://dc.lft.to/lastmile_qr_scan"}, "fusion_lon": 0.0, "lat": 38.83628233333334, "bike_id": "278b53aa9987518fc0b9c43c350fbcbb", "type": "electric_bike", "is_reserved": 0, "lon": -77.06945466666667}, {"fusion_lat": 0.0, "name": "b53e926d61851891e7785cbc7cfa2f84", "is_disabled": 0, "rental_uris": {"android": "https://dc.lft.to/lastmile_qr_scan", "ios": "https://dc.lft.to/lastmile_qr_scan"}, "fusion_lon": 0.0, "lat": 38.91850516666667, "bike_id": "b53e926d61851891e7785cbc7cfa2f84", "type": "electric_bike", "is_reserved": 0, "lon": -76.9609185}, {"fusion_lat": 0.0, "name": "c92ff8916eac19b0cdc57d01e359b2df", "is_disabled": 0, "rental_uris": {"android": "https://dc.lft.to/lastmile_qr_scan", "ios": "https://dc.lft.to/lastmile_qr_scan"}, "fusion_lon": 0.0, "lat": 38.934965166666665, "bike_id": "c92ff8916eac19b0cdc57d01e359b2df", "type": "electric_scooter", "is_reserved": 0, "lon": -77.07263133333333}, {"fusion_lat": 0.0, "name": "49179f8f81e0afde85aa7fe85cf64efb", "is_disabled": 0, "rental_uris": {"android": "https://dc.lft.to/lastmile_qr_scan", "ios": "https://dc.lft.to/lastmile_qr_scan"}, "fusion_lon": 0.0, "lat": 38.90709833333333, "bike_id": "49179f8f81e0afde85aa7fe85cf64efb", "type": "electric_scooter", "is_reserved": 0, "lon": -77.03258233333334}, {"fusion_lat": 0.0, "name": "fae55c8f5209e20033d34c87790ea811", "is_disabled": 0, "rental_uris": {"android": "https://dc.lft.to/lastmile_qr_scan", "ios": "https://dc.lft.to/lastmile_qr_scan"}, "fusion_lon": 0.0, "lat": 38.90556483333334, "bike_id": "fae55c8f5209e20033d34c87790ea811", "type": "electric_scooter", "is_reserved": 0, "lon": -77.02094283333334}, {"fusion_lat": 0.0, "name": "c7c8136f1bbf68ff9a05291a1c9a44de", "is_disabled": 0, "rental_uris": {"android": "https://dc.lft.to/lastmile_qr_scan", "ios": "https://dc.lft.to/lastmile_qr_scan"}, "fusion_lon": 0.0, "lat": 38.916574, "bike_id": "c7c8136f1bbf68ff9a05291a1c9a44de", "type": "electric_scooter", "is_reserved": 0, "lon": -77.03862983333333}, {"fusion_lat": 0.0, "name": "2456ee4582a3fbced386975862b02a3a", "is_disabled": 0, "rental_uris": {"android": "https://dc.lft.to/lastmile_qr_scan", "ios": "https://dc.lft.to/lastmile_qr_scan"}, "fusion_lon": 0.0, "lat": 38.9069125, "bike_id": "2456ee4582a3fbced386975862b02a3a", "type": "electric_scooter", "is_reserved": 0, "lon": -76.95196433333334}, {"fusion_lat": 0.0, "name": "4d3170c979aa4b5505a5e49edf379ecb", "is_disabled": 0, "rental_uris": {"android": "https://dc.lft.to/lastmile_qr_scan", "ios": "https://dc.lft.to/lastmile_qr_scan"}, "fusion_lon": 0.0, "lat": 38.91102866666667, "bike_id": "4d3170c979aa4b5505a5e49edf379ecb", "type": "electric_scooter", "is_reserved": 0, "lon": -77.0216025}, {"fusion_lat": 0.0, "name": "5bae157126f4b4ba4c2d556e78848495", "is_disabled": 0, "rental_uris": {"android": "https://dc.lft.to/lastmile_qr_scan", "ios": "https://dc.lft.to/lastmile_qr_scan"}, "fusion_lon": 0.0, "lat": 38.930405666666665, "bike_id": "5bae157126f4b4ba4c2d556e78848495", "type": "electric_scooter", "is_reserved": 0, "lon": -77.03221916666666}, {"fusion_lat": 0.0, "name": "e72d6b6491e93bf420d384ddb1389173", "is_disabled": 0, "rental_uris": {"android": "https://dc.lft.to/lastmile_qr_scan", "ios": "https://dc.lft.to/lastmile_qr_scan"}, "fusion_lon": 0.0, "lat": 38.8950575, "bike_id": "e72d6b6491e93bf420d384ddb1389173", "type": "electric_scooter", "is_reserved": 0, "lon": -77.00333833333333}, {"fusion_lat": 0.0, "name": "6787b8cdb85828cb964de811ada306e4", "is_disabled": 0, "rental_uris": {"android": "https://dc.lft.to/lastmile_qr_scan", "ios": "https://dc.lft.to/lastmile_qr_scan"}, "fusion_lon": 0.0, "lat": 38.926041833333336, "bike_id": "6787b8cdb85828cb964de811ada306e4", "type": "electric_scooter", "is_reserved": 0, "lon": -77.02382116666666}, {"fusion_lat": 0.0, "name": "e0d4d726ad52244a06125d31de33dbe6", "is_disabled": 0, "rental_uris": {"android": "https://dc.lft.to/lastmile_qr_scan", "ios": "https://dc.lft.to/lastmile_qr_scan"}, "fusion_lon": 0.0, "lat": 38.92616066666667, "bike_id": "e0d4d726ad52244a06125d31de33dbe6", "type": "electric_scooter", "is_reserved": 0, "lon": -77.04193533333333}, {"fusion_lat": 0.0, "name": "b34a863789217b7c8ca388de744480fc", "is_disabled": 0, "rental_uris": {"android": "https://dc.lft.to/lastmile_qr_scan", "ios": "https://dc.lft.to/lastmile_qr_scan"}, "fusion_lon": 0.0, "lat": 38.887322, "bike_id": "b34a863789217b7c8ca388de744480fc", "type": "electric_scooter", "is_reserved": 0, "lon": -77.0151565}, {"fusion_lat": 0.0, "name": "ec39c9674d4d4ae8efbccb390be5e41f", "is_disabled": 0, "rental_uris": {"android": "https://dc.lft.to/lastmile_qr_scan", "ios": "https://dc.lft.to/lastmile_qr_scan"}, "fusion_lon": 0.0, "lat": 38.93368916666667, "bike_id": "ec39c9674d4d4ae8efbccb390be5e41f", "type": "electric_scooter", "is_reserved": 0, "lon": -77.04413433333333}, {"fusion_lat": 0.0, "name": "802f70601aa04003b5a28f9790e9843e", "is_disabled": 0, "rental_uris": {"android": "https://dc.lft.to/lastmile_qr_scan", "ios": "https://dc.lft.to/lastmile_qr_scan"}, "fusion_lon": 0.0, "lat": 38.90724083333333, "bike_id": "802f70601aa04003b5a28f9790e9843e", "type": "electric_scooter", "is_reserved": 0, "lon": -77.00764266666667}, {"fusion_lat": 0.0, "name": "b4a5e93ddb90a3aaa1c83e9f944450bc", "is_disabled": 0, "rental_uris": {"android": "https://dc.lft.to/lastmile_qr_scan", "ios": "https://dc.lft.to/lastmile_qr_scan"}, "fusion_lon": 0.0, "lat": 38.93360216666667, "bike_id": "b4a5e93ddb90a3aaa1c83e9f944450bc", "type": "electric_scooter", "is_reserved": 0, "lon": -77.03897416666666}, {"fusion_lat": 0.0, "name": "3481d543d887694005d72d2584ea035b", "is_disabled": 0, "rental_uris": {"android": "https://dc.lft.to/lastmile_qr_scan", "ios": "https://dc.lft.to/lastmile_qr_scan"}, "fusion_lon": 0.0, "lat": 38.94268866666667, "bike_id": "3481d543d887694005d72d2584ea035b", "type": "electric_scooter", "is_reserved": 0, "lon": -77.03260583333333}, {"fusion_lat": 0.0, "name": "490e4b01190a35d31b5defa6899b8b41", "is_disabled": 0, "rental_uris": {"android": "https://dc.lft.to/lastmile_qr_scan", "ios": "https://dc.lft.to/lastmile_qr_scan"}, "fusion_lon": 0.0, "lat": 38.909120333333334, "bike_id": "490e4b01190a35d31b5defa6899b8b41", "type": "electric_scooter", "is_reserved": 0, "lon": -77.02708866666667}, {"fusion_lat": 0.0, "name": "dd19b9d5aa88e178267d0b1097709d57", "is_disabled": 0, "rental_uris": {"android": "https://dc.lft.to/lastmile_qr_scan", "ios": "https://dc.lft.to/lastmile_qr_scan"}, "fusion_lon": 0.0, "lat": 38.89726666666667, "bike_id": "dd19b9d5aa88e178267d0b1097709d57", "type": "electric_scooter", "is_reserved": 0, "lon": -77.01911766666667}, {"fusion_lat": 0.0, "name": "f4fd9a563b0e60ff6ea297682e73a66c", "is_disabled": 0, "rental_uris": {"android": "https://dc.lft.to/lastmile_qr_scan", "ios": "https://dc.lft.to/lastmile_qr_scan"}, "fusion_lon": 0.0, "lat": 38.90686866666667, "bike_id": "f4fd9a563b0e60ff6ea297682e73a66c", "type": "electric_scooter", "is_reserved": 0, "lon": -77.07211883333333}, {"fusion_lat": 0.0, "name": "32ae356d7b849410a19a972bf1574c56", "is_disabled": 0, "rental_uris": {"android": "https://dc.lft.to/lastmile_qr_scan", "ios": "https://dc.lft.to/lastmile_qr_scan"}, "fusion_lon": 0.0, "lat": 38.9003805, "bike_id": "32ae356d7b849410a19a972bf1574c56", "type": "electric_scooter", "is_reserved": 0, "lon": -76.99154416666667}, {"fusion_lat": 0.0, "name": "150a3064e3be581792754d48aa417c9f", "is_disabled": 0, "rental_uris": {"android": "https://dc.lft.to/lastmile_qr_scan", "ios": "https://dc.lft.to/lastmile_qr_scan"}, "fusion_lon": 0.0, "lat": 38.9023775, "bike_id": "150a3064e3be581792754d48aa417c9f", "type": "electric_scooter", "is_reserved": 0, "lon": -77.04353783333333}, {"fusion_lat": 0.0, "name": "af35e104c98aaffe3c2949d59f1ca709", "is_disabled": 0, "rental_uris": {"android": "https://dc.lft.to/lastmile_qr_scan", "ios": "https://dc.lft.to/lastmile_qr_scan"}, "fusion_lon": 0.0, "lat": 38.915138666666664, "bike_id": "af35e104c98aaffe3c2949d59f1ca709", "type": "electric_scooter", "is_reserved": 0, "lon": -77.01984533333334}, {"fusion_lat": 0.0, "name": "c3acc380ce21c4d375ec5cb5ab3b1c89", "is_disabled": 0, "rental_uris": {"android": "https://dc.lft.to/lastmile_qr_scan", "ios": "https://dc.lft.to/lastmile_qr_scan"}, "fusion_lon": 0.0, "lat": 38.9006115, "bike_id": "c3acc380ce21c4d375ec5cb5ab3b1c89", "type": "electric_scooter", "is_reserved": 0, "lon": -76.9338575}, {"fusion_lat": 0.0, "name": "6c1483ee132b85f13403ed1977333a98", "is_disabled": 0, "rental_uris": {"android": "https://dc.lft.to/lastmile_qr_scan", "ios": "https://dc.lft.to/lastmile_qr_scan"}, "fusion_lon": 0.0, "lat": 38.892221666666664, "bike_id": "6c1483ee132b85f13403ed1977333a98", "type": "electric_scooter", "is_reserved": 0, "lon": -77.043239}, {"fusion_lat": 0.0, "name": "bb12ca2e1aaf87d66cde434850955f8f", "is_disabled": 0, "rental_uris": {"android": "https://dc.lft.to/lastmile_qr_scan", "ios": "https://dc.lft.to/lastmile_qr_scan"}, "fusion_lon": 0.0, "lat": 38.914347166666666, "bike_id": "bb12ca2e1aaf87d66cde434850955f8f", "type": "electric_scooter", "is_reserved": 0, "lon": -77.021944}, {"fusion_lat": 0.0, "name": "6ee1f304e370a8d6801df5fa20eef509", "is_disabled": 0, "rental_uris": {"android": "https://dc.lft.to/lastmile_qr_scan", "ios": "https://dc.lft.to/lastmile_qr_scan"}, "fusion_lon": 0.0, "lat": 38.83507566666667, "bike_id": "6ee1f304e370a8d6801df5fa20eef509", "type": "electric_bike", "is_reserved": 0, "lon": -76.9868175}, {"fusion_lat": 0.0, "name": "ab1e898a3d5d9bd8537ccdc2a2ee4b36", "is_disabled": 0, "rental_uris": {"android": "https://dc.lft.to/lastmile_qr_scan", "ios": "https://dc.lft.to/lastmile_qr_scan"}, "fusion_lon": 0.0, "lat": 38.9469575, "bike_id": "ab1e898a3d5d9bd8537ccdc2a2ee4b36", "type": "electric_scooter", "is_reserved": 0, "lon": -77.07924683333333}, {"fusion_lat": 0.0, "name": "84f958ff4b1a1723863dd6fb9eab0a9d", "is_disabled": 0, "rental_uris": {"android": "https://dc.lft.to/lastmile_qr_scan", "ios": "https://dc.lft.to/lastmile_qr_scan"}, "fusion_lon": 0.0, "lat": 38.934236166666665, "bike_id": "84f958ff4b1a1723863dd6fb9eab0a9d", "type": "electric_scooter", "is_reserved": 0, "lon": -77.02390766666667}, {"fusion_lat": 0.0, "name": "2a77e69bfd58a5ce6a04f891ace2d7b9", "is_disabled": 0, "rental_uris": {"android": "https://dc.lft.to/lastmile_qr_scan", "ios": "https://dc.lft.to/lastmile_qr_scan"}, "fusion_lon": 0.0, "lat": 38.9068755, "bike_id": "2a77e69bfd58a5ce6a04f891ace2d7b9", "type": "electric_scooter", "is_reserved": 0, "lon": -77.06895633333333}, {"fusion_lat": 0.0, "name": "be7ed1293d369f2679652143003fe8e1", "is_disabled": 0, "rental_uris": {"android": "https://dc.lft.to/lastmile_qr_scan", "ios": "https://dc.lft.to/lastmile_qr_scan"}, "fusion_lon": 0.0, "lat": 38.878879833333336, "bike_id": "be7ed1293d369f2679652143003fe8e1", "type": "electric_scooter", "is_reserved": 0, "lon": -76.96544466666667}, {"fusion_lat": 0.0, "name": "8082c97ad848c1c6489ec725ed9c0205", "is_disabled": 0, "rental_uris": {"android": "https://dc.lft.to/lastmile_qr_scan", "ios": "https://dc.lft.to/lastmile_qr_scan"}, "fusion_lon": 0.0, "lat": 38.904273833333335, "bike_id": "8082c97ad848c1c6489ec725ed9c0205", "type": "electric_scooter", "is_reserved": 0, "lon": -77.0362815}, {"fusion_lat": 0.0, "name": "8a1e31d85ce04fc07e0fc6845b0b7eca", "is_disabled": 0, "rental_uris": {"android": "https://dc.lft.to/lastmile_qr_scan", "ios": "https://dc.lft.to/lastmile_qr_scan"}, "fusion_lon": 0.0, "lat": 38.89522566666667, "bike_id": "8a1e31d85ce04fc07e0fc6845b0b7eca", "type": "electric_scooter", "is_reserved": 0, "lon": -77.009286}, {"fusion_lat": 0.0, "name": "46a8acf19b78c867ce551e01fcfa82b6", "is_disabled": 0, "rental_uris": {"android": "https://dc.lft.to/lastmile_qr_scan", "ios": "https://dc.lft.to/lastmile_qr_scan"}, "fusion_lon": 0.0, "lat": 38.899554333333334, "bike_id": "46a8acf19b78c867ce551e01fcfa82b6", "type": "electric_scooter", "is_reserved": 0, "lon": -77.021966}, {"fusion_lat": 0.0, "name": "ec24c651407c4b60645fd1030e144370", "is_disabled": 0, "rental_uris": {"android": "https://dc.lft.to/lastmile_qr_scan", "ios": "https://dc.lft.to/lastmile_qr_scan"}, "fusion_lon": 0.0, "lat": 38.915771666666664, "bike_id": "ec24c651407c4b60645fd1030e144370", "type": "electric_scooter", "is_reserved": 0, "lon": -77.04658766666667}, {"fusion_lat": 0.0, "name": "dfc4defbd2d04a908f60a8ca93bb393e", "is_disabled": 0, "rental_uris": {"android": "https://dc.lft.to/lastmile_qr_scan", "ios": "https://dc.lft.to/lastmile_qr_scan"}, "fusion_lon": 0.0, "lat": 38.9237585, "bike_id": "dfc4defbd2d04a908f60a8ca93bb393e", "type": "electric_scooter", "is_reserved": 0, "lon": -77.02743983333333}, {"fusion_lat": 0.0, "name": "9a008e5e93c469de8a31a8fa209a7e4d", "is_disabled": 0, "rental_uris": {"android": "https://dc.lft.to/lastmile_qr_scan", "ios": "https://dc.lft.to/lastmile_qr_scan"}, "fusion_lon": 0.0, "lat": 38.9116635, "bike_id": "9a008e5e93c469de8a31a8fa209a7e4d", "type": "electric_scooter", "is_reserved": 0, "lon": -76.98724533333333}, {"fusion_lat": 0.0, "name": "a3141c5f807eb9527705b95acf09e165", "is_disabled": 0, "rental_uris": {"android": "https://dc.lft.to/lastmile_qr_scan", "ios": "https://dc.lft.to/lastmile_qr_scan"}, "fusion_lon": 0.0, "lat": 38.8983245, "bike_id": "a3141c5f807eb9527705b95acf09e165", "type": "electric_scooter", "is_reserved": 0, "lon": -77.02707283333334}, {"fusion_lat": 0.0, "name": "c7a6cfc4bba6b1b363994427da7acbfe", "is_disabled": 0, "rental_uris": {"android": "https://dc.lft.to/lastmile_qr_scan", "ios": "https://dc.lft.to/lastmile_qr_scan"}, "fusion_lon": 0.0, "lat": 38.898283, "bike_id": "c7a6cfc4bba6b1b363994427da7acbfe", "type": "electric_scooter", "is_reserved": 0, "lon": -77.02233616666666}, {"fusion_lat": 0.0, "name": "e6b974b0170ab01017b3ab32fde73d88", "is_disabled": 0, "rental_uris": {"android": "https://dc.lft.to/lastmile_qr_scan", "ios": "https://dc.lft.to/lastmile_qr_scan"}, "fusion_lon": 0.0, "lat": 38.927239166666666, "bike_id": "e6b974b0170ab01017b3ab32fde73d88", "type": "electric_scooter", "is_reserved": 0, "lon": -77.03061766666667}, {"fusion_lat": 0.0, "name": "45110f88c759fd13f227c690657d1f39", "is_disabled": 0, "rental_uris": {"android": "https://dc.lft.to/lastmile_qr_scan", "ios": "https://dc.lft.to/lastmile_qr_scan"}, "fusion_lon": 0.0, "lat": 38.90730816666667, "bike_id": "45110f88c759fd13f227c690657d1f39", "type": "electric_scooter", "is_reserved": 0, "lon": -76.9354675}, {"fusion_lat": 0.0, "name": "11c2d056f7c65b433b35177e23c2c6ca", "is_disabled": 0, "rental_uris": {"android": "https://dc.lft.to/lastmile_qr_scan", "ios": "https://dc.lft.to/lastmile_qr_scan"}, "fusion_lon": 0.0, "lat": 38.9170605, "bike_id": "11c2d056f7c65b433b35177e23c2c6ca", "type": "electric_scooter", "is_reserved": 0, "lon": -77.03876166666667}, {"fusion_lat": 0.0, "name": "34898f0e2fba326647f8a445158854f6", "is_disabled": 0, "rental_uris": {"android": "https://dc.lft.to/lastmile_qr_scan", "ios": "https://dc.lft.to/lastmile_qr_scan"}, "fusion_lon": 0.0, "lat": 38.90400316666667, "bike_id": "34898f0e2fba326647f8a445158854f6", "type": "electric_scooter", "is_reserved": 0, "lon": -77.06813616666666}, {"fusion_lat": 0.0, "name": "a4d06122e5084345264224f923f4d865", "is_disabled": 0, "rental_uris": {"android": "https://dc.lft.to/lastmile_qr_scan", "ios": "https://dc.lft.to/lastmile_qr_scan"}, "fusion_lon": 0.0, "lat": 38.8070275, "bike_id": "a4d06122e5084345264224f923f4d865", "type": "electric_bike", "is_reserved": 0, "lon": -77.061838}, {"fusion_lat": 0.0, "name": "ee204f585d3b9e393db3025143584542", "is_disabled": 0, "rental_uris": {"android": "https://dc.lft.to/lastmile_qr_scan", "ios": "https://dc.lft.to/lastmile_qr_scan"}, "fusion_lon": 0.0, "lat": 38.92229016666667, "bike_id": "ee204f585d3b9e393db3025143584542", "type": "electric_scooter", "is_reserved": 0, "lon": -77.04247766666667}, {"fusion_lat": 0.0, "name": "70e9c2eeb088485f46ea05d6c232172f", "is_disabled": 0, "rental_uris": {"android": "https://dc.lft.to/lastmile_qr_scan", "ios": "https://dc.lft.to/lastmile_qr_scan"}, "fusion_lon": 0.0, "lat": 38.92538666666667, "bike_id": "70e9c2eeb088485f46ea05d6c232172f", "type": "electric_scooter", "is_reserved": 0, "lon": -77.007577}, {"fusion_lat": 0.0, "name": "1c43d48af9d9bb524570d764b056968f", "is_disabled": 0, "rental_uris": {"android": "https://dc.lft.to/lastmile_qr_scan", "ios": "https://dc.lft.to/lastmile_qr_scan"}, "fusion_lon": 0.0, "lat": 38.8191365, "bike_id": "1c43d48af9d9bb524570d764b056968f", "type": "electric_bike", "is_reserved": 0, "lon": -77.04797966666666}, {"fusion_lat": 0.0, "name": "1ea725d8c615ef48bc640c77816eaed6", "is_disabled": 0, "rental_uris": {"android": "https://dc.lft.to/lastmile_qr_scan", "ios": "https://dc.lft.to/lastmile_qr_scan"}, "fusion_lon": 0.0, "lat": 38.905587833333335, "bike_id": "1ea725d8c615ef48bc640c77816eaed6", "type": "electric_scooter", "is_reserved": 0, "lon": -77.021}, {"fusion_lat": 0.0, "name": "c96327c18583cd9b712a796e36bc81d5", "is_disabled": 0, "rental_uris": {"android": "https://dc.lft.to/lastmile_qr_scan", "ios": "https://dc.lft.to/lastmile_qr_scan"}, "fusion_lon": 0.0, "lat": 38.8124665, "bike_id": "c96327c18583cd9b712a796e36bc81d5", "type": "electric_bike", "is_reserved": 0, "lon": -77.11775133333333}, {"fusion_lat": 0.0, "name": "2bd2297cdbcdc1e9799bdaee7f5d48e7", "is_disabled": 0, "rental_uris": {"android": "https://dc.lft.to/lastmile_qr_scan", "ios": "https://dc.lft.to/lastmile_qr_scan"}, "fusion_lon": 0.0, "lat": 38.883038666666664, "bike_id": "2bd2297cdbcdc1e9799bdaee7f5d48e7", "type": "electric_scooter", "is_reserved": 0, "lon": -76.94855383333334}, {"fusion_lat": 0.0, "name": "1f5deacce70cbe2bdf091982ba5245c5", "is_disabled": 0, "rental_uris": {"android": "https://dc.lft.to/lastmile_qr_scan", "ios": "https://dc.lft.to/lastmile_qr_scan"}, "fusion_lon": 0.0, "lat": 38.899894833333335, "bike_id": "1f5deacce70cbe2bdf091982ba5245c5", "type": "electric_scooter", "is_reserved": 0, "lon": -76.99260283333334}, {"fusion_lat": 0.0, "name": "bf0564e525da6fb075f735b99400688b", "is_disabled": 0, "rental_uris": {"android": "https://dc.lft.to/lastmile_qr_scan", "ios": "https://dc.lft.to/lastmile_qr_scan"}, "fusion_lon": 0.0, "lat": 38.935826666666664, "bike_id": "bf0564e525da6fb075f735b99400688b", "type": "electric_scooter", "is_reserved": 0, "lon": -77.03350316666666}, {"fusion_lat": 0.0, "name": "d9463e47ba7ba81e22f00efc59e2fc5a", "is_disabled": 0, "rental_uris": {"android": "https://dc.lft.to/lastmile_qr_scan", "ios": "https://dc.lft.to/lastmile_qr_scan"}, "fusion_lon": 0.0, "lat": 38.906229, "bike_id": "d9463e47ba7ba81e22f00efc59e2fc5a", "type": "electric_scooter", "is_reserved": 0, "lon": -77.02545316666667}, {"fusion_lat": 0.0, "name": "7bf3de0f261ad0f7fb4a64ab8d33a43b", "is_disabled": 0, "rental_uris": {"android": "https://dc.lft.to/lastmile_qr_scan", "ios": "https://dc.lft.to/lastmile_qr_scan"}, "fusion_lon": 0.0, "lat": 38.9229075, "bike_id": "7bf3de0f261ad0f7fb4a64ab8d33a43b", "type": "electric_scooter", "is_reserved": 0, "lon": -77.02332983333334}, {"fusion_lat": 0.0, "name": "513fc03e332d6084c85be2ca027337cb", "is_disabled": 0, "rental_uris": {"android": "https://dc.lft.to/lastmile_qr_scan", "ios": "https://dc.lft.to/lastmile_qr_scan"}, "fusion_lon": 0.0, "lat": 38.9213895, "bike_id": "513fc03e332d6084c85be2ca027337cb", "type": "electric_scooter", "is_reserved": 0, "lon": -77.043297}, {"fusion_lat": 0.0, "name": "51c710100f629dbc3551b5a4d7634844", "is_disabled": 0, "rental_uris": {"android": "https://dc.lft.to/lastmile_qr_scan", "ios": "https://dc.lft.to/lastmile_qr_scan"}, "fusion_lon": 0.0, "lat": 38.919211833333335, "bike_id": "51c710100f629dbc3551b5a4d7634844", "type": "electric_scooter", "is_reserved": 0, "lon": -77.03485766666667}, {"fusion_lat": 0.0, "name": "e1342e547d6fa686c301f3beae235526", "is_disabled": 0, "rental_uris": {"android": "https://dc.lft.to/lastmile_qr_scan", "ios": "https://dc.lft.to/lastmile_qr_scan"}, "fusion_lon": 0.0, "lat": 38.88716466666666, "bike_id": "e1342e547d6fa686c301f3beae235526", "type": "electric_scooter", "is_reserved": 0, "lon": -77.02220016666666}, {"fusion_lat": 0.0, "name": "b9dfe17c6485ca8ff8d6bc7651a1e994", "is_disabled": 0, "rental_uris": {"android": "https://dc.lft.to/lastmile_qr_scan", "ios": "https://dc.lft.to/lastmile_qr_scan"}, "fusion_lon": 0.0, "lat": 38.88309983333333, "bike_id": "b9dfe17c6485ca8ff8d6bc7651a1e994", "type": "electric_scooter", "is_reserved": 0, "lon": -77.01385}, {"fusion_lat": 0.0, "name": "5891f17dcb2eb4cc8c43912a910fd4cf", "is_disabled": 0, "rental_uris": {"android": "https://dc.lft.to/lastmile_qr_scan", "ios": "https://dc.lft.to/lastmile_qr_scan"}, "fusion_lon": 0.0, "lat": 38.898265, "bike_id": "5891f17dcb2eb4cc8c43912a910fd4cf", "type": "electric_scooter", "is_reserved": 0, "lon": -77.03371766666666}, {"fusion_lat": 0.0, "name": "3be9c71721276d4a37d120e6547bb7fb", "is_disabled": 0, "rental_uris": {"android": "https://dc.lft.to/lastmile_qr_scan", "ios": "https://dc.lft.to/lastmile_qr_scan"}, "fusion_lon": 0.0, "lat": 38.9207395, "bike_id": "3be9c71721276d4a37d120e6547bb7fb", "type": "electric_scooter", "is_reserved": 0, "lon": -77.02320366666666}, {"fusion_lat": 0.0, "name": "8a4928fd76c93a1f981c5b9255ea8da8", "is_disabled": 0, "rental_uris": {"android": "https://dc.lft.to/lastmile_qr_scan", "ios": "https://dc.lft.to/lastmile_qr_scan"}, "fusion_lon": 0.0, "lat": 38.93173, "bike_id": "8a4928fd76c93a1f981c5b9255ea8da8", "type": "electric_scooter", "is_reserved": 0, "lon": -77.05646316666666}, {"fusion_lat": 0.0, "name": "53b167a1c2e2d33bb10e815895dcf9c7", "is_disabled": 0, "rental_uris": {"android": "https://dc.lft.to/lastmile_qr_scan", "ios": "https://dc.lft.to/lastmile_qr_scan"}, "fusion_lon": 0.0, "lat": 38.912835333333334, "bike_id": "53b167a1c2e2d33bb10e815895dcf9c7", "type": "electric_scooter", "is_reserved": 0, "lon": -77.03185766666667}, {"fusion_lat": 0.0, "name": "b04ca1b9f62ca9f4d7cad0671915df3d", "is_disabled": 0, "rental_uris": {"android": "https://dc.lft.to/lastmile_qr_scan", "ios": "https://dc.lft.to/lastmile_qr_scan"}, "fusion_lon": 0.0, "lat": 38.934797, "bike_id": "b04ca1b9f62ca9f4d7cad0671915df3d", "type": "electric_scooter", "is_reserved": 0, "lon": -77.04536533333334}, {"fusion_lat": 0.0, "name": "dac284c50f27c24a3a8f541f6b1486f2", "is_disabled": 0, "rental_uris": {"android": "https://dc.lft.to/lastmile_qr_scan", "ios": "https://dc.lft.to/lastmile_qr_scan"}, "fusion_lon": 0.0, "lat": 38.90555783333333, "bike_id": "dac284c50f27c24a3a8f541f6b1486f2", "type": "electric_scooter", "is_reserved": 0, "lon": -77.04200233333333}, {"fusion_lat": 0.0, "name": "b5a8dc715bc2893057059d1471765fc8", "is_disabled": 0, "rental_uris": {"android": "https://dc.lft.to/lastmile_qr_scan", "ios": "https://dc.lft.to/lastmile_qr_scan"}, "fusion_lon": 0.0, "lat": 38.90116616666667, "bike_id": "b5a8dc715bc2893057059d1471765fc8", "type": "electric_scooter", "is_reserved": 0, "lon": -77.02790216666666}, {"fusion_lat": 0.0, "name": "4262edbdd6a2561b113f1ed2140a64e2", "is_disabled": 0, "rental_uris": {"android": "https://dc.lft.to/lastmile_qr_scan", "ios": "https://dc.lft.to/lastmile_qr_scan"}, "fusion_lon": 0.0, "lat": 38.90519066666667, "bike_id": "4262edbdd6a2561b113f1ed2140a64e2", "type": "electric_scooter", "is_reserved": 0, "lon": -77.06779166666666}, {"fusion_lat": 0.0, "name": "6288028a6065bb6e8657d44b8a69cd6d", "is_disabled": 0, "rental_uris": {"android": "https://dc.lft.to/lastmile_qr_scan", "ios": "https://dc.lft.to/lastmile_qr_scan"}, "fusion_lon": 0.0, "lat": 38.896753833333335, "bike_id": "6288028a6065bb6e8657d44b8a69cd6d", "type": "electric_scooter", "is_reserved": 0, "lon": -76.93211616666666}, {"fusion_lat": 0.0, "name": "dcf2f95e81412b98831267b7f74ff143", "is_disabled": 0, "rental_uris": {"android": "https://dc.lft.to/lastmile_qr_scan", "ios": "https://dc.lft.to/lastmile_qr_scan"}, "fusion_lon": 0.0, "lat": 38.93239366666667, "bike_id": "dcf2f95e81412b98831267b7f74ff143", "type": "electric_bike", "is_reserved": 0, "lon": -76.97424233333334}, {"fusion_lat": 0.0, "name": "92cc5bf7cf6051ffc715150f169daecd", "is_disabled": 0, "rental_uris": {"android": "https://dc.lft.to/lastmile_qr_scan", "ios": "https://dc.lft.to/lastmile_qr_scan"}, "fusion_lon": 0.0, "lat": 38.932628333333334, "bike_id": "92cc5bf7cf6051ffc715150f169daecd", "type": "electric_scooter", "is_reserved": 0, "lon": -77.019141}, {"fusion_lat": 0.0, "name": "73b422f9a633b6f6795c0ee0c2826504", "is_disabled": 0, "rental_uris": {"android": "https://dc.lft.to/lastmile_qr_scan", "ios": "https://dc.lft.to/lastmile_qr_scan"}, "fusion_lon": 0.0, "lat": 38.90241, "bike_id": "73b422f9a633b6f6795c0ee0c2826504", "type": "electric_scooter", "is_reserved": 0, "lon": -77.03442933333334}, {"fusion_lat": 0.0, "name": "c694eede6be6867a3ad0623baa0b8311", "is_disabled": 0, "rental_uris": {"android": "https://dc.lft.to/lastmile_qr_scan", "ios": "https://dc.lft.to/lastmile_qr_scan"}, "fusion_lon": 0.0, "lat": 38.924944333333336, "bike_id": "c694eede6be6867a3ad0623baa0b8311", "type": "electric_bike", "is_reserved": 0, "lon": -77.233491}, {"fusion_lat": 0.0, "name": "f359b1c7af06f38283372d0cbd07a6f8", "is_disabled": 0, "rental_uris": {"android": "https://dc.lft.to/lastmile_qr_scan", "ios": "https://dc.lft.to/lastmile_qr_scan"}, "fusion_lon": 0.0, "lat": 38.90546033333333, "bike_id": "f359b1c7af06f38283372d0cbd07a6f8", "type": "electric_scooter", "is_reserved": 0, "lon": -76.98331733333333}, {"fusion_lat": 0.0, "name": "3870f94939dba344275e7df2f8f71253", "is_disabled": 0, "rental_uris": {"android": "https://dc.lft.to/lastmile_qr_scan", "ios": "https://dc.lft.to/lastmile_qr_scan"}, "fusion_lon": 0.0, "lat": 38.898380833333334, "bike_id": "3870f94939dba344275e7df2f8f71253", "type": "electric_scooter", "is_reserved": 0, "lon": -77.02812966666667}, {"fusion_lat": 0.0, "name": "1ee409610dae403fa6b348761b69ff31", "is_disabled": 0, "rental_uris": {"android": "https://dc.lft.to/lastmile_qr_scan", "ios": "https://dc.lft.to/lastmile_qr_scan"}, "fusion_lon": 0.0, "lat": 38.8973285, "bike_id": "1ee409610dae403fa6b348761b69ff31", "type": "electric_scooter", "is_reserved": 0, "lon": -77.0463265}, {"fusion_lat": 0.0, "name": "76ddc1bfe533bac6b201a9d162ecc864", "is_disabled": 0, "rental_uris": {"android": "https://dc.lft.to/lastmile_qr_scan", "ios": "https://dc.lft.to/lastmile_qr_scan"}, "fusion_lon": 0.0, "lat": 38.88487383333333, "bike_id": "76ddc1bfe533bac6b201a9d162ecc864", "type": "electric_scooter", "is_reserved": 0, "lon": -77.00711416666667}, {"fusion_lat": 0.0, "name": "dcdf841e32e429c0c0f13ee4cc706d11", "is_disabled": 0, "rental_uris": {"android": "https://dc.lft.to/lastmile_qr_scan", "ios": "https://dc.lft.to/lastmile_qr_scan"}, "fusion_lon": 0.0, "lat": 38.924464666666665, "bike_id": "dcdf841e32e429c0c0f13ee4cc706d11", "type": "electric_scooter", "is_reserved": 0, "lon": -77.020233}, {"fusion_lat": 0.0, "name": "bf7b29dc908557f336979e6f24324320", "is_disabled": 0, "rental_uris": {"android": "https://dc.lft.to/lastmile_qr_scan", "ios": "https://dc.lft.to/lastmile_qr_scan"}, "fusion_lon": 0.0, "lat": 38.915529666666664, "bike_id": "bf7b29dc908557f336979e6f24324320", "type": "electric_scooter", "is_reserved": 0, "lon": -77.021427}, {"fusion_lat": 0.0, "name": "b8138c6e80f1d93886ce10d0f1dfad49", "is_disabled": 0, "rental_uris": {"android": "https://dc.lft.to/lastmile_qr_scan", "ios": "https://dc.lft.to/lastmile_qr_scan"}, "fusion_lon": 0.0, "lat": 38.919958, "bike_id": "b8138c6e80f1d93886ce10d0f1dfad49", "type": "electric_scooter", "is_reserved": 0, "lon": -77.0321965}, {"fusion_lat": 0.0, "name": "f5878765f8d66591f21a1f65000605ed", "is_disabled": 0, "rental_uris": {"android": "https://dc.lft.to/lastmile_qr_scan", "ios": "https://dc.lft.to/lastmile_qr_scan"}, "fusion_lon": 0.0, "lat": 38.902715, "bike_id": "f5878765f8d66591f21a1f65000605ed", "type": "electric_scooter", "is_reserved": 0, "lon": -76.92901266666667}, {"fusion_lat": 0.0, "name": "09f64d4b0db6f424f5fd54a271af4a59", "is_disabled": 0, "rental_uris": {"android": "https://dc.lft.to/lastmile_qr_scan", "ios": "https://dc.lft.to/lastmile_qr_scan"}, "fusion_lon": 0.0, "lat": 38.918933, "bike_id": "09f64d4b0db6f424f5fd54a271af4a59", "type": "electric_scooter", "is_reserved": 0, "lon": -77.02300766666667}, {"fusion_lat": 0.0, "name": "fd06e07db912e8108e9f2a5b0d0a39ea", "is_disabled": 0, "rental_uris": {"android": "https://dc.lft.to/lastmile_qr_scan", "ios": "https://dc.lft.to/lastmile_qr_scan"}, "fusion_lon": 0.0, "lat": 38.8874465, "bike_id": "fd06e07db912e8108e9f2a5b0d0a39ea", "type": "electric_scooter", "is_reserved": 0, "lon": -77.03179233333333}, {"fusion_lat": 0.0, "name": "e2b9e60727cb21f259a6727b2c2ebc84", "is_disabled": 0, "rental_uris": {"android": "https://dc.lft.to/lastmile_qr_scan", "ios": "https://dc.lft.to/lastmile_qr_scan"}, "fusion_lon": 0.0, "lat": 38.89887516666667, "bike_id": "e2b9e60727cb21f259a6727b2c2ebc84", "type": "electric_scooter", "is_reserved": 0, "lon": -77.0529445}, {"fusion_lat": 0.0, "name": "d4b6bff7675b2d20740180ccb4c76ea2", "is_disabled": 0, "rental_uris": {"android": "https://dc.lft.to/lastmile_qr_scan", "ios": "https://dc.lft.to/lastmile_qr_scan"}, "fusion_lon": 0.0, "lat": 38.912753333333335, "bike_id": "d4b6bff7675b2d20740180ccb4c76ea2", "type": "electric_scooter", "is_reserved": 0, "lon": -77.04508566666667}, {"fusion_lat": 0.0, "name": "8c2306a2219fa0f9f4175ba49200e120", "is_disabled": 0, "rental_uris": {"android": "https://dc.lft.to/lastmile_qr_scan", "ios": "https://dc.lft.to/lastmile_qr_scan"}, "fusion_lon": 0.0, "lat": 38.92612283333333, "bike_id": "8c2306a2219fa0f9f4175ba49200e120", "type": "electric_scooter", "is_reserved": 0, "lon": -77.02162133333333}, {"fusion_lat": 0.0, "name": "de20550f2a290a6259855b0ca3ce7803", "is_disabled": 0, "rental_uris": {"android": "https://dc.lft.to/lastmile_qr_scan", "ios": "https://dc.lft.to/lastmile_qr_scan"}, "fusion_lon": 0.0, "lat": 38.911043666666664, "bike_id": "de20550f2a290a6259855b0ca3ce7803", "type": "electric_bike", "is_reserved": 0, "lon": -77.073522}, {"fusion_lat": 0.0, "name": "dc7a0d325d088b00e178329ac3834300", "is_disabled": 0, "rental_uris": {"android": "https://dc.lft.to/lastmile_qr_scan", "ios": "https://dc.lft.to/lastmile_qr_scan"}, "fusion_lon": 0.0, "lat": 38.92236533333333, "bike_id": "dc7a0d325d088b00e178329ac3834300", "type": "electric_scooter", "is_reserved": 0, "lon": -77.02909266666667}, {"fusion_lat": 0.0, "name": "edfe5f1822367f0b4b7f94054e48e429", "is_disabled": 0, "rental_uris": {"android": "https://dc.lft.to/lastmile_qr_scan", "ios": "https://dc.lft.to/lastmile_qr_scan"}, "fusion_lon": 0.0, "lat": 38.90125833333333, "bike_id": "edfe5f1822367f0b4b7f94054e48e429", "type": "electric_scooter", "is_reserved": 0, "lon": -77.0021395}, {"fusion_lat": 0.0, "name": "b8bf9d5b6ef984e5be6a7840490e04b7", "is_disabled": 0, "rental_uris": {"android": "https://dc.lft.to/lastmile_qr_scan", "ios": "https://dc.lft.to/lastmile_qr_scan"}, "fusion_lon": 0.0, "lat": 38.91711, "bike_id": "b8bf9d5b6ef984e5be6a7840490e04b7", "type": "electric_scooter", "is_reserved": 0, "lon": -76.97664216666666}, {"fusion_lat": 0.0, "name": "08e6222586af0d902ed4b1469b53e7e6", "is_disabled": 0, "rental_uris": {"android": "https://dc.lft.to/lastmile_qr_scan", "ios": "https://dc.lft.to/lastmile_qr_scan"}, "fusion_lon": 0.0, "lat": 38.902645666666665, "bike_id": "08e6222586af0d902ed4b1469b53e7e6", "type": "electric_scooter", "is_reserved": 0, "lon": -77.03633716666667}, {"fusion_lat": 0.0, "name": "11d8b3b8455952a2db20f20f99a58118", "is_disabled": 0, "rental_uris": {"android": "https://dc.lft.to/lastmile_qr_scan", "ios": "https://dc.lft.to/lastmile_qr_scan"}, "fusion_lon": 0.0, "lat": 38.92349883333333, "bike_id": "11d8b3b8455952a2db20f20f99a58118", "type": "electric_scooter", "is_reserved": 0, "lon": -77.03900116666667}, {"fusion_lat": 0.0, "name": "2c3bcfeb41d595d7dc6087544623a3e5", "is_disabled": 0, "rental_uris": {"android": "https://dc.lft.to/lastmile_qr_scan", "ios": "https://dc.lft.to/lastmile_qr_scan"}, "fusion_lon": 0.0, "lat": 38.942662166666665, "bike_id": "2c3bcfeb41d595d7dc6087544623a3e5", "type": "electric_scooter", "is_reserved": 0, "lon": -77.03258683333334}, {"fusion_lat": 0.0, "name": "f2a1c47d27474121a19547a7129423e3", "is_disabled": 0, "rental_uris": {"android": "https://dc.lft.to/lastmile_qr_scan", "ios": "https://dc.lft.to/lastmile_qr_scan"}, "fusion_lon": 0.0, "lat": 38.9051845, "bike_id": "f2a1c47d27474121a19547a7129423e3", "type": "electric_scooter", "is_reserved": 0, "lon": -77.0634465}, {"fusion_lat": 0.0, "name": "7364517bd2e47e3ba974e60a1fb8c14f", "is_disabled": 0, "rental_uris": {"android": "https://dc.lft.to/lastmile_qr_scan", "ios": "https://dc.lft.to/lastmile_qr_scan"}, "fusion_lon": 0.0, "lat": 38.90589266666667, "bike_id": "7364517bd2e47e3ba974e60a1fb8c14f", "type": "electric_scooter", "is_reserved": 0, "lon": -77.01621466666667}, {"fusion_lat": 0.0, "name": "08af75b40405bb9c536451343f2d9cf5", "is_disabled": 0, "rental_uris": {"android": "https://dc.lft.to/lastmile_qr_scan", "ios": "https://dc.lft.to/lastmile_qr_scan"}, "fusion_lon": 0.0, "lat": 38.93489266666667, "bike_id": "08af75b40405bb9c536451343f2d9cf5", "type": "electric_scooter", "is_reserved": 0, "lon": -77.07262016666667}, {"fusion_lat": 0.0, "name": "6fb95f80fb0ed0a54d8babf114ef75fe", "is_disabled": 0, "rental_uris": {"android": "https://dc.lft.to/lastmile_qr_scan", "ios": "https://dc.lft.to/lastmile_qr_scan"}, "fusion_lon": 0.0, "lat": 38.89790516666667, "bike_id": "6fb95f80fb0ed0a54d8babf114ef75fe", "type": "electric_scooter", "is_reserved": 0, "lon": -76.94732616666667}, {"fusion_lat": 0.0, "name": "d809a449eed0524996701c34bd7834ab", "is_disabled": 0, "rental_uris": {"android": "https://dc.lft.to/lastmile_qr_scan", "ios": "https://dc.lft.to/lastmile_qr_scan"}, "fusion_lon": 0.0, "lat": 38.90641333333333, "bike_id": "d809a449eed0524996701c34bd7834ab", "type": "electric_scooter", "is_reserved": 0, "lon": -77.06301633333334}, {"fusion_lat": 0.0, "name": "a74ab347b42ec7de63983ea6e577dd68", "is_disabled": 0, "rental_uris": {"android": "https://dc.lft.to/lastmile_qr_scan", "ios": "https://dc.lft.to/lastmile_qr_scan"}, "fusion_lon": 0.0, "lat": 38.94595483333333, "bike_id": "a74ab347b42ec7de63983ea6e577dd68", "type": "electric_scooter", "is_reserved": 0, "lon": -77.029826}, {"fusion_lat": 0.0, "name": "340099b969232985e001e714287e82ef", "is_disabled": 0, "rental_uris": {"android": "https://dc.lft.to/lastmile_qr_scan", "ios": "https://dc.lft.to/lastmile_qr_scan"}, "fusion_lon": 0.0, "lat": 38.921527833333336, "bike_id": "340099b969232985e001e714287e82ef", "type": "electric_scooter", "is_reserved": 0, "lon": -77.043415}, {"fusion_lat": 0.0, "name": "85c4c3ddfbcff6714a117cf375d2abc2", "is_disabled": 0, "rental_uris": {"android": "https://dc.lft.to/lastmile_qr_scan", "ios": "https://dc.lft.to/lastmile_qr_scan"}, "fusion_lon": 0.0, "lat": 38.87088933333333, "bike_id": "85c4c3ddfbcff6714a117cf375d2abc2", "type": "electric_scooter", "is_reserved": 0, "lon": -77.012214}, {"fusion_lat": 0.0, "name": "cab1d1b02c50b92ea6f1e667729d7a7f", "is_disabled": 0, "rental_uris": {"android": "https://dc.lft.to/lastmile_qr_scan", "ios": "https://dc.lft.to/lastmile_qr_scan"}, "fusion_lon": 0.0, "lat": 38.9052975, "bike_id": "cab1d1b02c50b92ea6f1e667729d7a7f", "type": "electric_scooter", "is_reserved": 0, "lon": -77.00572433333333}, {"fusion_lat": 0.0, "name": "4ae1e7132846b73ba877723df6e3373c", "is_disabled": 0, "rental_uris": {"android": "https://dc.lft.to/lastmile_qr_scan", "ios": "https://dc.lft.to/lastmile_qr_scan"}, "fusion_lon": 0.0, "lat": 38.92413666666667, "bike_id": "4ae1e7132846b73ba877723df6e3373c", "type": "electric_scooter", "is_reserved": 0, "lon": -77.04462733333334}, {"fusion_lat": 0.0, "name": "efa2a1cf127343018431411a590c494b", "is_disabled": 0, "rental_uris": {"android": "https://dc.lft.to/lastmile_qr_scan", "ios": "https://dc.lft.to/lastmile_qr_scan"}, "fusion_lon": 0.0, "lat": 38.918559, "bike_id": "efa2a1cf127343018431411a590c494b", "type": "electric_scooter", "is_reserved": 0, "lon": -77.024434}, {"fusion_lat": 0.0, "name": "91591dc81a3b1fcc282787aca2845548", "is_disabled": 0, "rental_uris": {"android": "https://dc.lft.to/lastmile_qr_scan", "ios": "https://dc.lft.to/lastmile_qr_scan"}, "fusion_lon": 0.0, "lat": 38.83935066666667, "bike_id": "91591dc81a3b1fcc282787aca2845548", "type": "electric_bike", "is_reserved": 0, "lon": -77.07902566666667}, {"fusion_lat": 0.0, "name": "d8637f97aa90c67b00cb66dd65c43750", "is_disabled": 0, "rental_uris": {"android": "https://dc.lft.to/lastmile_qr_scan", "ios": "https://dc.lft.to/lastmile_qr_scan"}, "fusion_lon": 0.0, "lat": 38.9182395, "bike_id": "d8637f97aa90c67b00cb66dd65c43750", "type": "electric_scooter", "is_reserved": 0, "lon": -77.01216483333333}, {"fusion_lat": 0.0, "name": "071caad6283eebcc0ee03d055fa4a5d2", "is_disabled": 0, "rental_uris": {"android": "https://dc.lft.to/lastmile_qr_scan", "ios": "https://dc.lft.to/lastmile_qr_scan"}, "fusion_lon": 0.0, "lat": 38.901350666666666, "bike_id": "071caad6283eebcc0ee03d055fa4a5d2", "type": "electric_scooter", "is_reserved": 0, "lon": -77.041571}, {"fusion_lat": 0.0, "name": "905ebfde4db92fed09b1116d2a41a0b5", "is_disabled": 0, "rental_uris": {"android": "https://dc.lft.to/lastmile_qr_scan", "ios": "https://dc.lft.to/lastmile_qr_scan"}, "fusion_lon": 0.0, "lat": 38.97882216666667, "bike_id": "905ebfde4db92fed09b1116d2a41a0b5", "type": "electric_bike", "is_reserved": 0, "lon": -77.0602845}, {"fusion_lat": 0.0, "name": "9cda3fdf2999a1c74695732f4be664e4", "is_disabled": 0, "rental_uris": {"android": "https://dc.lft.to/lastmile_qr_scan", "ios": "https://dc.lft.to/lastmile_qr_scan"}, "fusion_lon": 0.0, "lat": 38.921333, "bike_id": "9cda3fdf2999a1c74695732f4be664e4", "type": "electric_scooter", "is_reserved": 0, "lon": -77.0040315}, {"fusion_lat": 0.0, "name": "cf2cfe3e7a664dab973f72c26347834c", "is_disabled": 0, "rental_uris": {"android": "https://dc.lft.to/lastmile_qr_scan", "ios": "https://dc.lft.to/lastmile_qr_scan"}, "fusion_lon": 0.0, "lat": 38.905551833333334, "bike_id": "cf2cfe3e7a664dab973f72c26347834c", "type": "electric_scooter", "is_reserved": 0, "lon": -77.05810966666667}, {"fusion_lat": 0.0, "name": "88402e951fcd75fc817d51c10bdd0524", "is_disabled": 0, "rental_uris": {"android": "https://dc.lft.to/lastmile_qr_scan", "ios": "https://dc.lft.to/lastmile_qr_scan"}, "fusion_lon": 0.0, "lat": 38.874805, "bike_id": "88402e951fcd75fc817d51c10bdd0524", "type": "electric_scooter", "is_reserved": 0, "lon": -77.00590316666667}, {"fusion_lat": 0.0, "name": "ddc33cf14b197636d16f279aea03fbab", "is_disabled": 0, "rental_uris": {"android": "https://dc.lft.to/lastmile_qr_scan", "ios": "https://dc.lft.to/lastmile_qr_scan"}, "fusion_lon": 0.0, "lat": 38.932999333333335, "bike_id": "ddc33cf14b197636d16f279aea03fbab", "type": "electric_scooter", "is_reserved": 0, "lon": -77.030946}, {"fusion_lat": 0.0, "name": "36141da2cd3c9d53690187d200f3cb28", "is_disabled": 0, "rental_uris": {"android": "https://dc.lft.to/lastmile_qr_scan", "ios": "https://dc.lft.to/lastmile_qr_scan"}, "fusion_lon": 0.0, "lat": 38.921038, "bike_id": "36141da2cd3c9d53690187d200f3cb28", "type": "electric_scooter", "is_reserved": 0, "lon": -77.01779166666667}, {"fusion_lat": 0.0, "name": "b16e6fde8ec3b7022b89fd9a21300a1c", "is_disabled": 0, "rental_uris": {"android": "https://dc.lft.to/lastmile_qr_scan", "ios": "https://dc.lft.to/lastmile_qr_scan"}, "fusion_lon": 0.0, "lat": 38.905904166666666, "bike_id": "b16e6fde8ec3b7022b89fd9a21300a1c", "type": "electric_scooter", "is_reserved": 0, "lon": -77.04694883333333}, {"fusion_lat": 0.0, "name": "81dc78028e5923f1f3afb4c33112ee2d", "is_disabled": 0, "rental_uris": {"android": "https://dc.lft.to/lastmile_qr_scan", "ios": "https://dc.lft.to/lastmile_qr_scan"}, "fusion_lon": 0.0, "lat": 38.91173916666666, "bike_id": "81dc78028e5923f1f3afb4c33112ee2d", "type": "electric_scooter", "is_reserved": 0, "lon": -77.031806}, {"fusion_lat": 0.0, "name": "48e90ab31e5eff62d75d674f7ee8151b", "is_disabled": 0, "rental_uris": {"android": "https://dc.lft.to/lastmile_qr_scan", "ios": "https://dc.lft.to/lastmile_qr_scan"}, "fusion_lon": 0.0, "lat": 38.89896683333333, "bike_id": "48e90ab31e5eff62d75d674f7ee8151b", "type": "electric_scooter", "is_reserved": 0, "lon": -77.040414}, {"fusion_lat": 0.0, "name": "6a4d78f75dc2de50268df56c2b77c4a6", "is_disabled": 0, "rental_uris": {"android": "https://dc.lft.to/lastmile_qr_scan", "ios": "https://dc.lft.to/lastmile_qr_scan"}, "fusion_lon": 0.0, "lat": 38.89959966666667, "bike_id": "6a4d78f75dc2de50268df56c2b77c4a6", "type": "electric_scooter", "is_reserved": 0, "lon": -77.02735983333334}, {"fusion_lat": 0.0, "name": "d4e74cc575a34676408c6911c1ab32f5", "is_disabled": 0, "rental_uris": {"android": "https://dc.lft.to/lastmile_qr_scan", "ios": "https://dc.lft.to/lastmile_qr_scan"}, "fusion_lon": 0.0, "lat": 38.92065, "bike_id": "d4e74cc575a34676408c6911c1ab32f5", "type": "electric_bike", "is_reserved": 0, "lon": -77.23949466666667}, {"fusion_lat": 0.0, "name": "66eead818dcac9d68e8b05403e349dae", "is_disabled": 0, "rental_uris": {"android": "https://dc.lft.to/lastmile_qr_scan", "ios": "https://dc.lft.to/lastmile_qr_scan"}, "fusion_lon": 0.0, "lat": 38.941813833333335, "bike_id": "66eead818dcac9d68e8b05403e349dae", "type": "electric_scooter", "is_reserved": 0, "lon": -77.024901}, {"fusion_lat": 0.0, "name": "a22ffc30f1002fce4f84df6c6a4b4af4", "is_disabled": 0, "rental_uris": {"android": "https://dc.lft.to/lastmile_qr_scan", "ios": "https://dc.lft.to/lastmile_qr_scan"}, "fusion_lon": 0.0, "lat": 38.92153416666667, "bike_id": "a22ffc30f1002fce4f84df6c6a4b4af4", "type": "electric_scooter", "is_reserved": 0, "lon": -77.04238316666667}, {"fusion_lat": 0.0, "name": "0a165c51360d4a0b3186047285407f2e", "is_disabled": 0, "rental_uris": {"android": "https://dc.lft.to/lastmile_qr_scan", "ios": "https://dc.lft.to/lastmile_qr_scan"}, "fusion_lon": 0.0, "lat": 38.91788666666667, "bike_id": "0a165c51360d4a0b3186047285407f2e", "type": "electric_scooter", "is_reserved": 0, "lon": -77.04047683333333}, {"fusion_lat": 0.0, "name": "7f069abfdeceb95b897a5b0289466deb", "is_disabled": 0, "rental_uris": {"android": "https://dc.lft.to/lastmile_qr_scan", "ios": "https://dc.lft.to/lastmile_qr_scan"}, "fusion_lon": 0.0, "lat": 38.9168385, "bike_id": "7f069abfdeceb95b897a5b0289466deb", "type": "electric_scooter", "is_reserved": 0, "lon": -77.029701}, {"fusion_lat": 0.0, "name": "5d63126fa7b2f4058470a05541256127", "is_disabled": 0, "rental_uris": {"android": "https://dc.lft.to/lastmile_qr_scan", "ios": "https://dc.lft.to/lastmile_qr_scan"}, "fusion_lon": 0.0, "lat": 38.89860816666667, "bike_id": "5d63126fa7b2f4058470a05541256127", "type": "electric_scooter", "is_reserved": 0, "lon": -76.9503215}, {"fusion_lat": 0.0, "name": "b15e9747e2730295f61b5983ab59a2e4", "is_disabled": 0, "rental_uris": {"android": "https://dc.lft.to/lastmile_qr_scan", "ios": "https://dc.lft.to/lastmile_qr_scan"}, "fusion_lon": 0.0, "lat": 38.885245166666664, "bike_id": "b15e9747e2730295f61b5983ab59a2e4", "type": "electric_scooter", "is_reserved": 0, "lon": -76.99613433333333}, {"fusion_lat": 0.0, "name": "bbdcd3ea0daec710a33aceb18da3b85f", "is_disabled": 0, "rental_uris": {"android": "https://dc.lft.to/lastmile_qr_scan", "ios": "https://dc.lft.to/lastmile_qr_scan"}, "fusion_lon": 0.0, "lat": 38.969910666666664, "bike_id": "bbdcd3ea0daec710a33aceb18da3b85f", "type": "electric_scooter", "is_reserved": 0, "lon": -77.01157816666667}, {"fusion_lat": 0.0, "name": "891c0b131146dd535bd81f49f35888ed", "is_disabled": 0, "rental_uris": {"android": "https://dc.lft.to/lastmile_qr_scan", "ios": "https://dc.lft.to/lastmile_qr_scan"}, "fusion_lon": 0.0, "lat": 38.89212366666667, "bike_id": "891c0b131146dd535bd81f49f35888ed", "type": "electric_scooter", "is_reserved": 0, "lon": -77.026474}, {"fusion_lat": 0.0, "name": "e677adbc11565c930a7bb90c37f730c0", "is_disabled": 0, "rental_uris": {"android": "https://dc.lft.to/lastmile_qr_scan", "ios": "https://dc.lft.to/lastmile_qr_scan"}, "fusion_lon": 0.0, "lat": 38.90722183333333, "bike_id": "e677adbc11565c930a7bb90c37f730c0", "type": "electric_scooter", "is_reserved": 0, "lon": -77.0250245}, {"fusion_lat": 0.0, "name": "6149d9d2c5a6db5bc01e271e2004e256", "is_disabled": 0, "rental_uris": {"android": "https://dc.lft.to/lastmile_qr_scan", "ios": "https://dc.lft.to/lastmile_qr_scan"}, "fusion_lon": 0.0, "lat": 38.90561, "bike_id": "6149d9d2c5a6db5bc01e271e2004e256", "type": "electric_scooter", "is_reserved": 0, "lon": -77.00209866666667}, {"fusion_lat": 0.0, "name": "edf91ee20f488a52524fd9d50816c285", "is_disabled": 0, "rental_uris": {"android": "https://dc.lft.to/lastmile_qr_scan", "ios": "https://dc.lft.to/lastmile_qr_scan"}, "fusion_lon": 0.0, "lat": 38.874499666666665, "bike_id": "edf91ee20f488a52524fd9d50816c285", "type": "electric_scooter", "is_reserved": 0, "lon": -77.01870116666667}, {"fusion_lat": 0.0, "name": "6d6f4b38c314bf723cf672f2dc6763c3", "is_disabled": 0, "rental_uris": {"android": "https://dc.lft.to/lastmile_qr_scan", "ios": "https://dc.lft.to/lastmile_qr_scan"}, "fusion_lon": 0.0, "lat": 38.884082666666664, "bike_id": "6d6f4b38c314bf723cf672f2dc6763c3", "type": "electric_scooter", "is_reserved": 0, "lon": -77.02523316666667}, {"fusion_lat": 0.0, "name": "ecb476350c5ffbb7853971dfbd095255", "is_disabled": 0, "rental_uris": {"android": "https://dc.lft.to/lastmile_qr_scan", "ios": "https://dc.lft.to/lastmile_qr_scan"}, "fusion_lon": 0.0, "lat": 38.940900666666664, "bike_id": "ecb476350c5ffbb7853971dfbd095255", "type": "electric_scooter", "is_reserved": 0, "lon": -77.02317516666666}, {"fusion_lat": 0.0, "name": "3b7e1cac89807820adbcf6ed76ab478c", "is_disabled": 0, "rental_uris": {"android": "https://dc.lft.to/lastmile_qr_scan", "ios": "https://dc.lft.to/lastmile_qr_scan"}, "fusion_lon": 0.0, "lat": 38.896693, "bike_id": "3b7e1cac89807820adbcf6ed76ab478c", "type": "electric_scooter", "is_reserved": 0, "lon": -77.05052383333333}, {"fusion_lat": 0.0, "name": "24a7f773d26b53f9e45a1ad5bd59448e", "is_disabled": 0, "rental_uris": {"android": "https://dc.lft.to/lastmile_qr_scan", "ios": "https://dc.lft.to/lastmile_qr_scan"}, "fusion_lon": 0.0, "lat": 38.884149666666666, "bike_id": "24a7f773d26b53f9e45a1ad5bd59448e", "type": "electric_scooter", "is_reserved": 0, "lon": -77.02895083333334}, {"fusion_lat": 0.0, "name": "30bc5e255aaa6d49bb2fdee487ebcb5d", "is_disabled": 0, "rental_uris": {"android": "https://dc.lft.to/lastmile_qr_scan", "ios": "https://dc.lft.to/lastmile_qr_scan"}, "fusion_lon": 0.0, "lat": 38.887318, "bike_id": "30bc5e255aaa6d49bb2fdee487ebcb5d", "type": "electric_scooter", "is_reserved": 0, "lon": -77.01340133333333}, {"fusion_lat": 0.0, "name": "dddb263fd8aa330c98fb427fb5f597ff", "is_disabled": 0, "rental_uris": {"android": "https://dc.lft.to/lastmile_qr_scan", "ios": "https://dc.lft.to/lastmile_qr_scan"}, "fusion_lon": 0.0, "lat": 38.900707833333335, "bike_id": "dddb263fd8aa330c98fb427fb5f597ff", "type": "electric_scooter", "is_reserved": 0, "lon": -77.021965}, {"fusion_lat": 0.0, "name": "1a34b576ec697f510e29f0b2f5a7f24c", "is_disabled": 0, "rental_uris": {"android": "https://dc.lft.to/lastmile_qr_scan", "ios": "https://dc.lft.to/lastmile_qr_scan"}, "fusion_lon": 0.0, "lat": 38.89595966666667, "bike_id": "1a34b576ec697f510e29f0b2f5a7f24c", "type": "electric_scooter", "is_reserved": 0, "lon": -77.02209783333333}, {"fusion_lat": 0.0, "name": "4d1813cd9cd32fa13b080da2affe640a", "is_disabled": 0, "rental_uris": {"android": "https://dc.lft.to/lastmile_qr_scan", "ios": "https://dc.lft.to/lastmile_qr_scan"}, "fusion_lon": 0.0, "lat": 38.87767233333334, "bike_id": "4d1813cd9cd32fa13b080da2affe640a", "type": "electric_scooter", "is_reserved": 0, "lon": -77.003325}, {"fusion_lat": 0.0, "name": "7a7c2424019619873a932c374affd08f", "is_disabled": 0, "rental_uris": {"android": "https://dc.lft.to/lastmile_qr_scan", "ios": "https://dc.lft.to/lastmile_qr_scan"}, "fusion_lon": 0.0, "lat": 38.906385, "bike_id": "7a7c2424019619873a932c374affd08f", "type": "electric_scooter", "is_reserved": 0, "lon": -77.05008}, {"fusion_lat": 0.0, "name": "5dab9d06ba8ee45041bdf71080885b06", "is_disabled": 0, "rental_uris": {"android": "https://dc.lft.to/lastmile_qr_scan", "ios": "https://dc.lft.to/lastmile_qr_scan"}, "fusion_lon": 0.0, "lat": 38.89219533333333, "bike_id": "5dab9d06ba8ee45041bdf71080885b06", "type": "electric_scooter", "is_reserved": 0, "lon": -77.03341283333333}, {"fusion_lat": 0.0, "name": "c31d818d54ac95eeb4bbd36d134516c7", "is_disabled": 0, "rental_uris": {"android": "https://dc.lft.to/lastmile_qr_scan", "ios": "https://dc.lft.to/lastmile_qr_scan"}, "fusion_lon": 0.0, "lat": 38.9231335, "bike_id": "c31d818d54ac95eeb4bbd36d134516c7", "type": "electric_scooter", "is_reserved": 0, "lon": -77.0462215}, {"fusion_lat": 0.0, "name": "fbed5f797e4a6cf043aa8edd00b6820d", "is_disabled": 0, "rental_uris": {"android": "https://dc.lft.to/lastmile_qr_scan", "ios": "https://dc.lft.to/lastmile_qr_scan"}, "fusion_lon": 0.0, "lat": 38.89740033333333, "bike_id": "fbed5f797e4a6cf043aa8edd00b6820d", "type": "electric_scooter", "is_reserved": 0, "lon": -76.94718966666667}, {"fusion_lat": 0.0, "name": "ea2bfa92357c83fa0ea80a8660015b7c", "is_disabled": 0, "rental_uris": {"android": "https://dc.lft.to/lastmile_qr_scan", "ios": "https://dc.lft.to/lastmile_qr_scan"}, "fusion_lon": 0.0, "lat": 38.924686666666666, "bike_id": "ea2bfa92357c83fa0ea80a8660015b7c", "type": "electric_scooter", "is_reserved": 0, "lon": -77.03558616666666}, {"fusion_lat": 0.0, "name": "affeb914ec0e70b740b32a5fb30408c3", "is_disabled": 0, "rental_uris": {"android": "https://dc.lft.to/lastmile_qr_scan", "ios": "https://dc.lft.to/lastmile_qr_scan"}, "fusion_lon": 0.0, "lat": 38.93276216666667, "bike_id": "affeb914ec0e70b740b32a5fb30408c3", "type": "electric_scooter", "is_reserved": 0, "lon": -77.0364075}, {"fusion_lat": 0.0, "name": "b54bba1543ced6b887d97239800c39f0", "is_disabled": 0, "rental_uris": {"android": "https://dc.lft.to/lastmile_qr_scan", "ios": "https://dc.lft.to/lastmile_qr_scan"}, "fusion_lon": 0.0, "lat": 38.933466, "bike_id": "b54bba1543ced6b887d97239800c39f0", "type": "electric_scooter", "is_reserved": 0, "lon": -77.0620215}, {"fusion_lat": 0.0, "name": "d2c4bc5b236c3f1b5b471fe1c59b3643", "is_disabled": 0, "rental_uris": {"android": "https://dc.lft.to/lastmile_qr_scan", "ios": "https://dc.lft.to/lastmile_qr_scan"}, "fusion_lon": 0.0, "lat": 38.874661333333336, "bike_id": "d2c4bc5b236c3f1b5b471fe1c59b3643", "type": "electric_scooter", "is_reserved": 0, "lon": -77.00474533333333}, {"fusion_lat": 0.0, "name": "e44bf87fffaf99cf5f040a13a847dcd6", "is_disabled": 0, "rental_uris": {"android": "https://dc.lft.to/lastmile_qr_scan", "ios": "https://dc.lft.to/lastmile_qr_scan"}, "fusion_lon": 0.0, "lat": 38.90627166666667, "bike_id": "e44bf87fffaf99cf5f040a13a847dcd6", "type": "electric_scooter", "is_reserved": 0, "lon": -77.02596933333334}, {"fusion_lat": 0.0, "name": "6d988fd8fe925901ad8cad4e3a6fd740", "is_disabled": 0, "rental_uris": {"android": "https://dc.lft.to/lastmile_qr_scan", "ios": "https://dc.lft.to/lastmile_qr_scan"}, "fusion_lon": 0.0, "lat": 38.9066965, "bike_id": "6d988fd8fe925901ad8cad4e3a6fd740", "type": "electric_scooter", "is_reserved": 0, "lon": -77.02228116666667}, {"fusion_lat": 0.0, "name": "560f3e04688a3b190418173633f46588", "is_disabled": 0, "rental_uris": {"android": "https://dc.lft.to/lastmile_qr_scan", "ios": "https://dc.lft.to/lastmile_qr_scan"}, "fusion_lon": 0.0, "lat": 38.9311835, "bike_id": "560f3e04688a3b190418173633f46588", "type": "electric_scooter", "is_reserved": 0, "lon": -76.99617733333334}, {"fusion_lat": 0.0, "name": "88929d30123d9a3745eeee0c3347ecb0", "is_disabled": 0, "rental_uris": {"android": "https://dc.lft.to/lastmile_qr_scan", "ios": "https://dc.lft.to/lastmile_qr_scan"}, "fusion_lon": 0.0, "lat": 38.9163025, "bike_id": "88929d30123d9a3745eeee0c3347ecb0", "type": "electric_scooter", "is_reserved": 0, "lon": -77.0296835}, {"fusion_lat": 0.0, "name": "5c66b61b04d93f1611475988751174c4", "is_disabled": 0, "rental_uris": {"android": "https://dc.lft.to/lastmile_qr_scan", "ios": "https://dc.lft.to/lastmile_qr_scan"}, "fusion_lon": 0.0, "lat": 38.928723, "bike_id": "5c66b61b04d93f1611475988751174c4", "type": "electric_scooter", "is_reserved": 0, "lon": -76.99565116666666}, {"fusion_lat": 0.0, "name": "5aabb5717c5b0f7d41950c88a21643c1", "is_disabled": 0, "rental_uris": {"android": "https://dc.lft.to/lastmile_qr_scan", "ios": "https://dc.lft.to/lastmile_qr_scan"}, "fusion_lon": 0.0, "lat": 38.90782133333333, "bike_id": "5aabb5717c5b0f7d41950c88a21643c1", "type": "electric_scooter", "is_reserved": 0, "lon": -77.07254283333333}, {"fusion_lat": 0.0, "name": "7da6cfcf2f0d2cf8c6ac2f80e622603b", "is_disabled": 0, "rental_uris": {"android": "https://dc.lft.to/lastmile_qr_scan", "ios": "https://dc.lft.to/lastmile_qr_scan"}, "fusion_lon": 0.0, "lat": 38.88021783333333, "bike_id": "7da6cfcf2f0d2cf8c6ac2f80e622603b", "type": "electric_scooter", "is_reserved": 0, "lon": -76.98068316666667}, {"fusion_lat": 0.0, "name": "b4a3ed396b8876848a55453d789caa00", "is_disabled": 0, "rental_uris": {"android": "https://dc.lft.to/lastmile_qr_scan", "ios": "https://dc.lft.to/lastmile_qr_scan"}, "fusion_lon": 0.0, "lat": 38.90775166666667, "bike_id": "b4a3ed396b8876848a55453d789caa00", "type": "electric_scooter", "is_reserved": 0, "lon": -77.03193}, {"fusion_lat": 0.0, "name": "13c3ddd93fc767f106b8669a8fe20de0", "is_disabled": 0, "rental_uris": {"android": "https://dc.lft.to/lastmile_qr_scan", "ios": "https://dc.lft.to/lastmile_qr_scan"}, "fusion_lon": 0.0, "lat": 38.9023805, "bike_id": "13c3ddd93fc767f106b8669a8fe20de0", "type": "electric_scooter", "is_reserved": 0, "lon": -77.00195}, {"fusion_lat": 0.0, "name": "4f22a30d14b99918fa046cc5624d8ca1", "is_disabled": 0, "rental_uris": {"android": "https://dc.lft.to/lastmile_qr_scan", "ios": "https://dc.lft.to/lastmile_qr_scan"}, "fusion_lon": 0.0, "lat": 38.913123, "bike_id": "4f22a30d14b99918fa046cc5624d8ca1", "type": "electric_scooter", "is_reserved": 0, "lon": -77.03640116666666}, {"fusion_lat": 0.0, "name": "c80f882a979ab2cdcfe605c6e35b5579", "is_disabled": 0, "rental_uris": {"android": "https://dc.lft.to/lastmile_qr_scan", "ios": "https://dc.lft.to/lastmile_qr_scan"}, "fusion_lon": 0.0, "lat": 38.911142166666664, "bike_id": "c80f882a979ab2cdcfe605c6e35b5579", "type": "electric_scooter", "is_reserved": 0, "lon": -77.03171933333333}, {"fusion_lat": 0.0, "name": "ae555e0ff5bd60514f593d136d4340ff", "is_disabled": 0, "rental_uris": {"android": "https://dc.lft.to/lastmile_qr_scan", "ios": "https://dc.lft.to/lastmile_qr_scan"}, "fusion_lon": 0.0, "lat": 38.91853616666667, "bike_id": "ae555e0ff5bd60514f593d136d4340ff", "type": "electric_scooter", "is_reserved": 0, "lon": -77.02445366666667}, {"fusion_lat": 0.0, "name": "97f5d78a6a06b98a6b745de4a6387175", "is_disabled": 0, "rental_uris": {"android": "https://dc.lft.to/lastmile_qr_scan", "ios": "https://dc.lft.to/lastmile_qr_scan"}, "fusion_lon": 0.0, "lat": 38.916642833333334, "bike_id": "97f5d78a6a06b98a6b745de4a6387175", "type": "electric_scooter", "is_reserved": 0, "lon": -77.02302133333333}, {"fusion_lat": 0.0, "name": "68dc936e6fcb469c63d3e9bc0e9ef294", "is_disabled": 0, "rental_uris": {"android": "https://dc.lft.to/lastmile_qr_scan", "ios": "https://dc.lft.to/lastmile_qr_scan"}, "fusion_lon": 0.0, "lat": 38.918230333333334, "bike_id": "68dc936e6fcb469c63d3e9bc0e9ef294", "type": "electric_scooter", "is_reserved": 0, "lon": -77.036833}, {"fusion_lat": 0.0, "name": "03264c99094c9061210c321153be2ba2", "is_disabled": 0, "rental_uris": {"android": "https://dc.lft.to/lastmile_qr_scan", "ios": "https://dc.lft.to/lastmile_qr_scan"}, "fusion_lon": 0.0, "lat": 38.925679, "bike_id": "03264c99094c9061210c321153be2ba2", "type": "electric_scooter", "is_reserved": 0, "lon": -77.043835}, {"fusion_lat": 0.0, "name": "c97b261c9474837b94dfc1a23bf4f2fa", "is_disabled": 0, "rental_uris": {"android": "https://dc.lft.to/lastmile_qr_scan", "ios": "https://dc.lft.to/lastmile_qr_scan"}, "fusion_lon": 0.0, "lat": 38.80495833333333, "bike_id": "c97b261c9474837b94dfc1a23bf4f2fa", "type": "electric_bike", "is_reserved": 0, "lon": -77.1016375}, {"fusion_lat": 0.0, "name": "8e90035366d8752fdd5bfb208c4b9cec", "is_disabled": 0, "rental_uris": {"android": "https://dc.lft.to/lastmile_qr_scan", "ios": "https://dc.lft.to/lastmile_qr_scan"}, "fusion_lon": 0.0, "lat": 38.9041505, "bike_id": "8e90035366d8752fdd5bfb208c4b9cec", "type": "electric_scooter", "is_reserved": 0, "lon": -77.02508116666667}, {"fusion_lat": 0.0, "name": "826c23ab0342026cf5b426e5982d14f2", "is_disabled": 0, "rental_uris": {"android": "https://dc.lft.to/lastmile_qr_scan", "ios": "https://dc.lft.to/lastmile_qr_scan"}, "fusion_lon": 0.0, "lat": 38.89234233333333, "bike_id": "826c23ab0342026cf5b426e5982d14f2", "type": "electric_scooter", "is_reserved": 0, "lon": -77.04678766666666}, {"fusion_lat": 0.0, "name": "5e87a311faa5bad8125db743fff922ea", "is_disabled": 0, "rental_uris": {"android": "https://dc.lft.to/lastmile_qr_scan", "ios": "https://dc.lft.to/lastmile_qr_scan"}, "fusion_lon": 0.0, "lat": 38.90713916666667, "bike_id": "5e87a311faa5bad8125db743fff922ea", "type": "electric_scooter", "is_reserved": 0, "lon": -77.05002066666667}, {"fusion_lat": 0.0, "name": "760f7885c53e9e17dfc15bc65db72bb5", "is_disabled": 0, "rental_uris": {"android": "https://dc.lft.to/lastmile_qr_scan", "ios": "https://dc.lft.to/lastmile_qr_scan"}, "fusion_lon": 0.0, "lat": 38.895839, "bike_id": "760f7885c53e9e17dfc15bc65db72bb5", "type": "electric_scooter", "is_reserved": 0, "lon": -76.98321166666666}, {"fusion_lat": 0.0, "name": "2c36578125a9b92a12d6d6333c205475", "is_disabled": 0, "rental_uris": {"android": "https://dc.lft.to/lastmile_qr_scan", "ios": "https://dc.lft.to/lastmile_qr_scan"}, "fusion_lon": 0.0, "lat": 38.879275666666665, "bike_id": "2c36578125a9b92a12d6d6333c205475", "type": "electric_scooter", "is_reserved": 0, "lon": -77.0237455}, {"fusion_lat": 0.0, "name": "2affc2b7acd8dac91fbdea8ccbbb1c5c", "is_disabled": 0, "rental_uris": {"android": "https://dc.lft.to/lastmile_qr_scan", "ios": "https://dc.lft.to/lastmile_qr_scan"}, "fusion_lon": 0.0, "lat": 38.923377333333335, "bike_id": "2affc2b7acd8dac91fbdea8ccbbb1c5c", "type": "electric_scooter", "is_reserved": 0, "lon": -77.05300116666666}, {"fusion_lat": 0.0, "name": "6b697e6281885087091be836b95bfc7f", "is_disabled": 0, "rental_uris": {"android": "https://dc.lft.to/lastmile_qr_scan", "ios": "https://dc.lft.to/lastmile_qr_scan"}, "fusion_lon": 0.0, "lat": 38.92099366666667, "bike_id": "6b697e6281885087091be836b95bfc7f", "type": "electric_scooter", "is_reserved": 0, "lon": -77.0177065}, {"fusion_lat": 0.0, "name": "c1bc0793e9681d3175989baefbd70b14", "is_disabled": 0, "rental_uris": {"android": "https://dc.lft.to/lastmile_qr_scan", "ios": "https://dc.lft.to/lastmile_qr_scan"}, "fusion_lon": 0.0, "lat": 38.907068333333335, "bike_id": "c1bc0793e9681d3175989baefbd70b14", "type": "electric_scooter", "is_reserved": 0, "lon": -77.007605}, {"fusion_lat": 0.0, "name": "751eaf251a1e720be8d56dede2023701", "is_disabled": 0, "rental_uris": {"android": "https://dc.lft.to/lastmile_qr_scan", "ios": "https://dc.lft.to/lastmile_qr_scan"}, "fusion_lon": 0.0, "lat": 38.9109245, "bike_id": "751eaf251a1e720be8d56dede2023701", "type": "electric_scooter", "is_reserved": 0, "lon": -77.00400266666666}, {"fusion_lat": 0.0, "name": "27f6067396e177adb2b51fc300449adc", "is_disabled": 0, "rental_uris": {"android": "https://dc.lft.to/lastmile_qr_scan", "ios": "https://dc.lft.to/lastmile_qr_scan"}, "fusion_lon": 0.0, "lat": 38.920868, "bike_id": "27f6067396e177adb2b51fc300449adc", "type": "electric_scooter", "is_reserved": 0, "lon": -77.02393933333333}, {"fusion_lat": 0.0, "name": "7f28a631e24de47cb66cb48b41ba42d5", "is_disabled": 0, "rental_uris": {"android": "https://dc.lft.to/lastmile_qr_scan", "ios": "https://dc.lft.to/lastmile_qr_scan"}, "fusion_lon": 0.0, "lat": 38.8818365, "bike_id": "7f28a631e24de47cb66cb48b41ba42d5", "type": "electric_bike", "is_reserved": 0, "lon": -77.08632733333333}, {"fusion_lat": 0.0, "name": "557a712c30f6bbaebdede23f305fc6e7", "is_disabled": 0, "rental_uris": {"android": "https://dc.lft.to/lastmile_qr_scan", "ios": "https://dc.lft.to/lastmile_qr_scan"}, "fusion_lon": 0.0, "lat": 38.907823, "bike_id": "557a712c30f6bbaebdede23f305fc6e7", "type": "electric_scooter", "is_reserved": 0, "lon": -77.07258016666667}, {"fusion_lat": 0.0, "name": "5c58218fa4c84e7915859fbf7b85423d", "is_disabled": 0, "rental_uris": {"android": "https://dc.lft.to/lastmile_qr_scan", "ios": "https://dc.lft.to/lastmile_qr_scan"}, "fusion_lon": 0.0, "lat": 38.9035795, "bike_id": "5c58218fa4c84e7915859fbf7b85423d", "type": "electric_scooter", "is_reserved": 0, "lon": -77.044965}, {"fusion_lat": 0.0, "name": "c92410260e2de1263a2a7330664ae5de", "is_disabled": 0, "rental_uris": {"android": "https://dc.lft.to/lastmile_qr_scan", "ios": "https://dc.lft.to/lastmile_qr_scan"}, "fusion_lon": 0.0, "lat": 38.89727766666667, "bike_id": "c92410260e2de1263a2a7330664ae5de", "type": "electric_scooter", "is_reserved": 0, "lon": -76.99137683333333}, {"fusion_lat": 0.0, "name": "2857d467f017f5766fe451a28ce6e38e", "is_disabled": 0, "rental_uris": {"android": "https://dc.lft.to/lastmile_qr_scan", "ios": "https://dc.lft.to/lastmile_qr_scan"}, "fusion_lon": 0.0, "lat": 38.93580216666667, "bike_id": "2857d467f017f5766fe451a28ce6e38e", "type": "electric_scooter", "is_reserved": 0, "lon": -77.0212315}, {"fusion_lat": 0.0, "name": "deb86fc7d4975b2ea4ef523a6e50abaa", "is_disabled": 0, "rental_uris": {"android": "https://dc.lft.to/lastmile_qr_scan", "ios": "https://dc.lft.to/lastmile_qr_scan"}, "fusion_lon": 0.0, "lat": 38.90227316666667, "bike_id": "deb86fc7d4975b2ea4ef523a6e50abaa", "type": "electric_scooter", "is_reserved": 0, "lon": -77.04258533333334}, {"fusion_lat": 0.0, "name": "baa2e71174b432e23cc528a84a646d73", "is_disabled": 0, "rental_uris": {"android": "https://dc.lft.to/lastmile_qr_scan", "ios": "https://dc.lft.to/lastmile_qr_scan"}, "fusion_lon": 0.0, "lat": 38.874811333333334, "bike_id": "baa2e71174b432e23cc528a84a646d73", "type": "electric_scooter", "is_reserved": 0, "lon": -77.00604683333333}, {"fusion_lat": 0.0, "name": "7c9465bb6443a5df4caa2d83baa6df19", "is_disabled": 0, "rental_uris": {"android": "https://dc.lft.to/lastmile_qr_scan", "ios": "https://dc.lft.to/lastmile_qr_scan"}, "fusion_lon": 0.0, "lat": 38.92100966666667, "bike_id": "7c9465bb6443a5df4caa2d83baa6df19", "type": "electric_scooter", "is_reserved": 0, "lon": -77.02553983333334}, {"fusion_lat": 0.0, "name": "1b203efdfdb25cf3e784468100d3cb4b", "is_disabled": 0, "rental_uris": {"android": "https://dc.lft.to/lastmile_qr_scan", "ios": "https://dc.lft.to/lastmile_qr_scan"}, "fusion_lon": 0.0, "lat": 38.924544166666664, "bike_id": "1b203efdfdb25cf3e784468100d3cb4b", "type": "electric_scooter", "is_reserved": 0, "lon": -77.03969033333334}, {"fusion_lat": 0.0, "name": "edd1a3317c1d83417042ac907d98b2de", "is_disabled": 0, "rental_uris": {"android": "https://dc.lft.to/lastmile_qr_scan", "ios": "https://dc.lft.to/lastmile_qr_scan"}, "fusion_lon": 0.0, "lat": 38.94412833333333, "bike_id": "edd1a3317c1d83417042ac907d98b2de", "type": "electric_scooter", "is_reserved": 0, "lon": -77.063224}, {"fusion_lat": 0.0, "name": "05edaa85e97d884413a8c37cab2f9384", "is_disabled": 0, "rental_uris": {"android": "https://dc.lft.to/lastmile_qr_scan", "ios": "https://dc.lft.to/lastmile_qr_scan"}, "fusion_lon": 0.0, "lat": 38.8853875, "bike_id": "05edaa85e97d884413a8c37cab2f9384", "type": "electric_scooter", "is_reserved": 0, "lon": -77.0006435}, {"fusion_lat": 0.0, "name": "16418a90bd31380ec62ead4f2f7d07ad", "is_disabled": 0, "rental_uris": {"android": "https://dc.lft.to/lastmile_qr_scan", "ios": "https://dc.lft.to/lastmile_qr_scan"}, "fusion_lon": 0.0, "lat": 38.91711866666667, "bike_id": "16418a90bd31380ec62ead4f2f7d07ad", "type": "electric_scooter", "is_reserved": 0, "lon": -77.02411566666666}, {"fusion_lat": 0.0, "name": "6cd54bd65398c5007dfb75040dcf3adb", "is_disabled": 0, "rental_uris": {"android": "https://dc.lft.to/lastmile_qr_scan", "ios": "https://dc.lft.to/lastmile_qr_scan"}, "fusion_lon": 0.0, "lat": 38.90140433333333, "bike_id": "6cd54bd65398c5007dfb75040dcf3adb", "type": "electric_scooter", "is_reserved": 0, "lon": -77.03458333333333}, {"fusion_lat": 0.0, "name": "20e692fa4a808798a8d5c0c8dc729e6e", "is_disabled": 0, "rental_uris": {"android": "https://dc.lft.to/lastmile_qr_scan", "ios": "https://dc.lft.to/lastmile_qr_scan"}, "fusion_lon": 0.0, "lat": 38.885408, "bike_id": "20e692fa4a808798a8d5c0c8dc729e6e", "type": "electric_scooter", "is_reserved": 0, "lon": -77.00065466666666}, {"fusion_lat": 0.0, "name": "c7117d1c8dbca362dc5c652af2a406fd", "is_disabled": 0, "rental_uris": {"android": "https://dc.lft.to/lastmile_qr_scan", "ios": "https://dc.lft.to/lastmile_qr_scan"}, "fusion_lon": 0.0, "lat": 38.87729016666667, "bike_id": "c7117d1c8dbca362dc5c652af2a406fd", "type": "electric_scooter", "is_reserved": 0, "lon": -76.99664616666666}, {"fusion_lat": 0.0, "name": "292f029ae110f75fdcd9e46ad4314718", "is_disabled": 0, "rental_uris": {"android": "https://dc.lft.to/lastmile_qr_scan", "ios": "https://dc.lft.to/lastmile_qr_scan"}, "fusion_lon": 0.0, "lat": 38.905225, "bike_id": "292f029ae110f75fdcd9e46ad4314718", "type": "electric_scooter", "is_reserved": 0, "lon": -77.066156}, {"fusion_lat": 0.0, "name": "640ea6f7259aefa9c5a0b1ef9e027862", "is_disabled": 0, "rental_uris": {"android": "https://dc.lft.to/lastmile_qr_scan", "ios": "https://dc.lft.to/lastmile_qr_scan"}, "fusion_lon": 0.0, "lat": 38.90514866666667, "bike_id": "640ea6f7259aefa9c5a0b1ef9e027862", "type": "electric_scooter", "is_reserved": 0, "lon": -77.05676216666667}, {"fusion_lat": 0.0, "name": "99a2bc61c730673379f5ea4731930e65", "is_disabled": 0, "rental_uris": {"android": "https://dc.lft.to/lastmile_qr_scan", "ios": "https://dc.lft.to/lastmile_qr_scan"}, "fusion_lon": 0.0, "lat": 38.92616266666667, "bike_id": "99a2bc61c730673379f5ea4731930e65", "type": "electric_scooter", "is_reserved": 0, "lon": -77.03963333333333}, {"fusion_lat": 0.0, "name": "e9af221626d00f6ff9bbc9e0054d751b", "is_disabled": 0, "rental_uris": {"android": "https://dc.lft.to/lastmile_qr_scan", "ios": "https://dc.lft.to/lastmile_qr_scan"}, "fusion_lon": 0.0, "lat": 38.904531, "bike_id": "e9af221626d00f6ff9bbc9e0054d751b", "type": "electric_scooter", "is_reserved": 0, "lon": -77.00167533333334}, {"fusion_lat": 0.0, "name": "98d7f0f0804f67907f77c3b00de40809", "is_disabled": 0, "rental_uris": {"android": "https://dc.lft.to/lastmile_qr_scan", "ios": "https://dc.lft.to/lastmile_qr_scan"}, "fusion_lon": 0.0, "lat": 38.92742066666667, "bike_id": "98d7f0f0804f67907f77c3b00de40809", "type": "electric_bike", "is_reserved": 0, "lon": -77.0363805}, {"fusion_lat": 0.0, "name": "939f22be4fca24fb9c1fca9b8fd8feb5", "is_disabled": 0, "rental_uris": {"android": "https://dc.lft.to/lastmile_qr_scan", "ios": "https://dc.lft.to/lastmile_qr_scan"}, "fusion_lon": 0.0, "lat": 38.918095, "bike_id": "939f22be4fca24fb9c1fca9b8fd8feb5", "type": "electric_scooter", "is_reserved": 0, "lon": -77.03906433333333}, {"fusion_lat": 0.0, "name": "bdb304d22e4cb2cdcc8777cdd7d28c17", "is_disabled": 0, "rental_uris": {"android": "https://dc.lft.to/lastmile_qr_scan", "ios": "https://dc.lft.to/lastmile_qr_scan"}, "fusion_lon": 0.0, "lat": 38.928135166666664, "bike_id": "bdb304d22e4cb2cdcc8777cdd7d28c17", "type": "electric_scooter", "is_reserved": 0, "lon": -77.02329183333333}, {"fusion_lat": 0.0, "name": "69800b1a85e54e3d57a007219ad00594", "is_disabled": 0, "rental_uris": {"android": "https://dc.lft.to/lastmile_qr_scan", "ios": "https://dc.lft.to/lastmile_qr_scan"}, "fusion_lon": 0.0, "lat": 38.892982333333336, "bike_id": "69800b1a85e54e3d57a007219ad00594", "type": "electric_scooter", "is_reserved": 0, "lon": -77.03183566666667}, {"fusion_lat": 0.0, "name": "a1e52f6972a772ec9396126d2d139582", "is_disabled": 0, "rental_uris": {"android": "https://dc.lft.to/lastmile_qr_scan", "ios": "https://dc.lft.to/lastmile_qr_scan"}, "fusion_lon": 0.0, "lat": 38.8716025, "bike_id": "a1e52f6972a772ec9396126d2d139582", "type": "electric_scooter", "is_reserved": 0, "lon": -77.00579533333334}, {"fusion_lat": 0.0, "name": "5e7c9875d0211ac0e34b14da38b1c960", "is_disabled": 0, "rental_uris": {"android": "https://dc.lft.to/lastmile_qr_scan", "ios": "https://dc.lft.to/lastmile_qr_scan"}, "fusion_lon": 0.0, "lat": 38.89802983333333, "bike_id": "5e7c9875d0211ac0e34b14da38b1c960", "type": "electric_scooter", "is_reserved": 0, "lon": -76.9846075}, {"fusion_lat": 0.0, "name": "3d6bc06a37679e949138a752ede1f692", "is_disabled": 0, "rental_uris": {"android": "https://dc.lft.to/lastmile_qr_scan", "ios": "https://dc.lft.to/lastmile_qr_scan"}, "fusion_lon": 0.0, "lat": 38.8923155, "bike_id": "3d6bc06a37679e949138a752ede1f692", "type": "electric_scooter", "is_reserved": 0, "lon": -77.02382116666666}, {"fusion_lat": 0.0, "name": "ba6d7bcfdfdd6721c0b9410b7eb42108", "is_disabled": 0, "rental_uris": {"android": "https://dc.lft.to/lastmile_qr_scan", "ios": "https://dc.lft.to/lastmile_qr_scan"}, "fusion_lon": 0.0, "lat": 38.895537166666664, "bike_id": "ba6d7bcfdfdd6721c0b9410b7eb42108", "type": "electric_scooter", "is_reserved": 0, "lon": -77.02698}, {"fusion_lat": 0.0, "name": "73ae890ccf2f68906ee6266aff5a7dde", "is_disabled": 0, "rental_uris": {"android": "https://dc.lft.to/lastmile_qr_scan", "ios": "https://dc.lft.to/lastmile_qr_scan"}, "fusion_lon": 0.0, "lat": 38.91666033333333, "bike_id": "73ae890ccf2f68906ee6266aff5a7dde", "type": "electric_scooter", "is_reserved": 0, "lon": -77.03850166666666}, {"fusion_lat": 0.0, "name": "40112928273557a94a1011170118b10b", "is_disabled": 0, "rental_uris": {"android": "https://dc.lft.to/lastmile_qr_scan", "ios": "https://dc.lft.to/lastmile_qr_scan"}, "fusion_lon": 0.0, "lat": 38.92803466666667, "bike_id": "40112928273557a94a1011170118b10b", "type": "electric_scooter", "is_reserved": 0, "lon": -77.04365783333333}, {"fusion_lat": 0.0, "name": "37d72324afc3333d3f5fb6165de7d32a", "is_disabled": 0, "rental_uris": {"android": "https://dc.lft.to/lastmile_qr_scan", "ios": "https://dc.lft.to/lastmile_qr_scan"}, "fusion_lon": 0.0, "lat": 38.858735833333334, "bike_id": "37d72324afc3333d3f5fb6165de7d32a", "type": "electric_bike", "is_reserved": 0, "lon": -77.0955485}, {"fusion_lat": 0.0, "name": "c2b67c8ad5bc1a7e7e8e16d7fc1ecb64", "is_disabled": 0, "rental_uris": {"android": "https://dc.lft.to/lastmile_qr_scan", "ios": "https://dc.lft.to/lastmile_qr_scan"}, "fusion_lon": 0.0, "lat": 38.903004833333334, "bike_id": "c2b67c8ad5bc1a7e7e8e16d7fc1ecb64", "type": "electric_scooter", "is_reserved": 0, "lon": -77.04950166666667}, {"fusion_lat": 0.0, "name": "8546e4e7428cca6eed9c6691db23d8df", "is_disabled": 0, "rental_uris": {"android": "https://dc.lft.to/lastmile_qr_scan", "ios": "https://dc.lft.to/lastmile_qr_scan"}, "fusion_lon": 0.0, "lat": 38.91962683333333, "bike_id": "8546e4e7428cca6eed9c6691db23d8df", "type": "electric_scooter", "is_reserved": 0, "lon": -77.041548}, {"fusion_lat": 0.0, "name": "2cc428434f29ffe226253a06756a6c13", "is_disabled": 0, "rental_uris": {"android": "https://dc.lft.to/lastmile_qr_scan", "ios": "https://dc.lft.to/lastmile_qr_scan"}, "fusion_lon": 0.0, "lat": 38.931778333333334, "bike_id": "2cc428434f29ffe226253a06756a6c13", "type": "electric_scooter", "is_reserved": 0, "lon": -77.037039}, {"fusion_lat": 0.0, "name": "851baf7e820a4b2b64dc234c34e975ca", "is_disabled": 0, "rental_uris": {"android": "https://dc.lft.to/lastmile_qr_scan", "ios": "https://dc.lft.to/lastmile_qr_scan"}, "fusion_lon": 0.0, "lat": 38.905710666666664, "bike_id": "851baf7e820a4b2b64dc234c34e975ca", "type": "electric_scooter", "is_reserved": 0, "lon": -77.0407015}, {"fusion_lat": 0.0, "name": "06463eeb6de1e1b12415de261f3e2f6f", "is_disabled": 0, "rental_uris": {"android": "https://dc.lft.to/lastmile_qr_scan", "ios": "https://dc.lft.to/lastmile_qr_scan"}, "fusion_lon": 0.0, "lat": 38.93447916666667, "bike_id": "06463eeb6de1e1b12415de261f3e2f6f", "type": "electric_scooter", "is_reserved": 0, "lon": -77.03874633333334}, {"fusion_lat": 0.0, "name": "6e12db27b6da1f2a3f18b320a24913c4", "is_disabled": 0, "rental_uris": {"android": "https://dc.lft.to/lastmile_qr_scan", "ios": "https://dc.lft.to/lastmile_qr_scan"}, "fusion_lon": 0.0, "lat": 38.91340366666667, "bike_id": "6e12db27b6da1f2a3f18b320a24913c4", "type": "electric_scooter", "is_reserved": 0, "lon": -77.03200566666666}, {"fusion_lat": 0.0, "name": "1fd6e534fc80d104b4a477c25991812e", "is_disabled": 0, "rental_uris": {"android": "https://dc.lft.to/lastmile_qr_scan", "ios": "https://dc.lft.to/lastmile_qr_scan"}, "fusion_lon": 0.0, "lat": 38.920663, "bike_id": "1fd6e534fc80d104b4a477c25991812e", "type": "electric_scooter", "is_reserved": 0, "lon": -77.014687}, {"fusion_lat": 0.0, "name": "8c03a8dc369ee9df278a981c1aa21931", "is_disabled": 0, "rental_uris": {"android": "https://dc.lft.to/lastmile_qr_scan", "ios": "https://dc.lft.to/lastmile_qr_scan"}, "fusion_lon": 0.0, "lat": 38.91723283333333, "bike_id": "8c03a8dc369ee9df278a981c1aa21931", "type": "electric_scooter", "is_reserved": 0, "lon": -77.02707916666667}, {"fusion_lat": 0.0, "name": "b28e17ab8ef880769fd8dfe88b8199fb", "is_disabled": 0, "rental_uris": {"android": "https://dc.lft.to/lastmile_qr_scan", "ios": "https://dc.lft.to/lastmile_qr_scan"}, "fusion_lon": 0.0, "lat": 38.92673416666667, "bike_id": "b28e17ab8ef880769fd8dfe88b8199fb", "type": "electric_scooter", "is_reserved": 0, "lon": -77.02784016666666}, {"fusion_lat": 0.0, "name": "e61562f468a3683d9cd274b382f849c8", "is_disabled": 0, "rental_uris": {"android": "https://dc.lft.to/lastmile_qr_scan", "ios": "https://dc.lft.to/lastmile_qr_scan"}, "fusion_lon": 0.0, "lat": 38.92095883333333, "bike_id": "e61562f468a3683d9cd274b382f849c8", "type": "electric_scooter", "is_reserved": 0, "lon": -77.02219416666667}, {"fusion_lat": 0.0, "name": "546c9cbdc8fb80450f4df31f34d840ed", "is_disabled": 0, "rental_uris": {"android": "https://dc.lft.to/lastmile_qr_scan", "ios": "https://dc.lft.to/lastmile_qr_scan"}, "fusion_lon": 0.0, "lat": 38.90224533333333, "bike_id": "546c9cbdc8fb80450f4df31f34d840ed", "type": "electric_scooter", "is_reserved": 0, "lon": -77.02756383333333}, {"fusion_lat": 0.0, "name": "b868d7942ac725c5e2ded62233bf296e", "is_disabled": 0, "rental_uris": {"android": "https://dc.lft.to/lastmile_qr_scan", "ios": "https://dc.lft.to/lastmile_qr_scan"}, "fusion_lon": 0.0, "lat": 38.97286833333333, "bike_id": "b868d7942ac725c5e2ded62233bf296e", "type": "electric_scooter", "is_reserved": 0, "lon": -77.011616}, {"fusion_lat": 0.0, "name": "c453ac74ce64b4a6945c85c46991dfd8", "is_disabled": 0, "rental_uris": {"android": "https://dc.lft.to/lastmile_qr_scan", "ios": "https://dc.lft.to/lastmile_qr_scan"}, "fusion_lon": 0.0, "lat": 38.86727333333333, "bike_id": "c453ac74ce64b4a6945c85c46991dfd8", "type": "electric_scooter", "is_reserved": 0, "lon": -76.987905}, {"fusion_lat": 0.0, "name": "c1850f603cfcc2939ae4f1e61ab97745", "is_disabled": 0, "rental_uris": {"android": "https://dc.lft.to/lastmile_qr_scan", "ios": "https://dc.lft.to/lastmile_qr_scan"}, "fusion_lon": 0.0, "lat": 38.92431933333334, "bike_id": "c1850f603cfcc2939ae4f1e61ab97745", "type": "electric_scooter", "is_reserved": 0, "lon": -77.04490566666666}, {"fusion_lat": 0.0, "name": "944824220c6d242c6c906559c18f8f71", "is_disabled": 0, "rental_uris": {"android": "https://dc.lft.to/lastmile_qr_scan", "ios": "https://dc.lft.to/lastmile_qr_scan"}, "fusion_lon": 0.0, "lat": 38.961831333333336, "bike_id": "944824220c6d242c6c906559c18f8f71", "type": "electric_bike", "is_reserved": 0, "lon": -77.05268083333333}, {"fusion_lat": 0.0, "name": "304faddc516b95db1f543ffd7fbbde33", "is_disabled": 0, "rental_uris": {"android": "https://dc.lft.to/lastmile_qr_scan", "ios": "https://dc.lft.to/lastmile_qr_scan"}, "fusion_lon": 0.0, "lat": 38.897049833333334, "bike_id": "304faddc516b95db1f543ffd7fbbde33", "type": "electric_scooter", "is_reserved": 0, "lon": -77.026765}, {"fusion_lat": 0.0, "name": "8d64b1911b83489fafe757b7ea0629ce", "is_disabled": 0, "rental_uris": {"android": "https://dc.lft.to/lastmile_qr_scan", "ios": "https://dc.lft.to/lastmile_qr_scan"}, "fusion_lon": 0.0, "lat": 38.900002666666666, "bike_id": "8d64b1911b83489fafe757b7ea0629ce", "type": "electric_scooter", "is_reserved": 0, "lon": -77.01191116666666}, {"fusion_lat": 0.0, "name": "1b66060f661ab328cfa931b3b185938f", "is_disabled": 0, "rental_uris": {"android": "https://dc.lft.to/lastmile_qr_scan", "ios": "https://dc.lft.to/lastmile_qr_scan"}, "fusion_lon": 0.0, "lat": 38.883836333333335, "bike_id": "1b66060f661ab328cfa931b3b185938f", "type": "electric_scooter", "is_reserved": 0, "lon": -77.0460915}, {"fusion_lat": 0.0, "name": "36f14b9c25af3b534a56a6fc67614967", "is_disabled": 0, "rental_uris": {"android": "https://dc.lft.to/lastmile_qr_scan", "ios": "https://dc.lft.to/lastmile_qr_scan"}, "fusion_lon": 0.0, "lat": 38.89721083333333, "bike_id": "36f14b9c25af3b534a56a6fc67614967", "type": "electric_scooter", "is_reserved": 0, "lon": -77.01297866666667}, {"fusion_lat": 0.0, "name": "d15127d2a444d5f113dc1201c029a71f", "is_disabled": 0, "rental_uris": {"android": "https://dc.lft.to/lastmile_qr_scan", "ios": "https://dc.lft.to/lastmile_qr_scan"}, "fusion_lon": 0.0, "lat": 38.915521166666664, "bike_id": "d15127d2a444d5f113dc1201c029a71f", "type": "electric_scooter", "is_reserved": 0, "lon": -77.03872866666667}, {"fusion_lat": 0.0, "name": "eeef1923eaf7f5523cbb27eda4dd6633", "is_disabled": 0, "rental_uris": {"android": "https://dc.lft.to/lastmile_qr_scan", "ios": "https://dc.lft.to/lastmile_qr_scan"}, "fusion_lon": 0.0, "lat": 38.90258133333333, "bike_id": "eeef1923eaf7f5523cbb27eda4dd6633", "type": "electric_scooter", "is_reserved": 0, "lon": -77.053251}, {"fusion_lat": 0.0, "name": "d158bc9226884af08183b757bea9ad11", "is_disabled": 0, "rental_uris": {"android": "https://dc.lft.to/lastmile_qr_scan", "ios": "https://dc.lft.to/lastmile_qr_scan"}, "fusion_lon": 0.0, "lat": 38.905615166666664, "bike_id": "d158bc9226884af08183b757bea9ad11", "type": "electric_scooter", "is_reserved": 0, "lon": -77.04200383333334}, {"fusion_lat": 0.0, "name": "c7cb5c50fc3dc34e06b265d8eb2da629", "is_disabled": 0, "rental_uris": {"android": "https://dc.lft.to/lastmile_qr_scan", "ios": "https://dc.lft.to/lastmile_qr_scan"}, "fusion_lon": 0.0, "lat": 38.931997333333335, "bike_id": "c7cb5c50fc3dc34e06b265d8eb2da629", "type": "electric_scooter", "is_reserved": 0, "lon": -77.03857533333333}, {"fusion_lat": 0.0, "name": "f019968f9c05de44033c9bdc96067724", "is_disabled": 0, "rental_uris": {"android": "https://dc.lft.to/lastmile_qr_scan", "ios": "https://dc.lft.to/lastmile_qr_scan"}, "fusion_lon": 0.0, "lat": 38.96065316666667, "bike_id": "f019968f9c05de44033c9bdc96067724", "type": "electric_scooter", "is_reserved": 0, "lon": -77.00101766666667}, {"fusion_lat": 0.0, "name": "52b27bde7d8214562ae9932034dd2330", "is_disabled": 0, "rental_uris": {"android": "https://dc.lft.to/lastmile_qr_scan", "ios": "https://dc.lft.to/lastmile_qr_scan"}, "fusion_lon": 0.0, "lat": 38.89891766666667, "bike_id": "52b27bde7d8214562ae9932034dd2330", "type": "electric_scooter", "is_reserved": 0, "lon": -77.0089705}, {"fusion_lat": 0.0, "name": "84bffb1ae9c62d24661cc4e7b8843e04", "is_disabled": 0, "rental_uris": {"android": "https://dc.lft.to/lastmile_qr_scan", "ios": "https://dc.lft.to/lastmile_qr_scan"}, "fusion_lon": 0.0, "lat": 38.871532, "bike_id": "84bffb1ae9c62d24661cc4e7b8843e04", "type": "electric_bike", "is_reserved": 0, "lon": -77.13144683333333}, {"fusion_lat": 0.0, "name": "7c23a9c7140bc78cf1f8d876b46c1f35", "is_disabled": 0, "rental_uris": {"android": "https://dc.lft.to/lastmile_qr_scan", "ios": "https://dc.lft.to/lastmile_qr_scan"}, "fusion_lon": 0.0, "lat": 38.8973175, "bike_id": "7c23a9c7140bc78cf1f8d876b46c1f35", "type": "electric_scooter", "is_reserved": 0, "lon": -76.94704716666666}, {"fusion_lat": 0.0, "name": "962284710fe39b5255d202e86cba1b5b", "is_disabled": 0, "rental_uris": {"android": "https://dc.lft.to/lastmile_qr_scan", "ios": "https://dc.lft.to/lastmile_qr_scan"}, "fusion_lon": 0.0, "lat": 38.93247483333333, "bike_id": "962284710fe39b5255d202e86cba1b5b", "type": "electric_scooter", "is_reserved": 0, "lon": -77.034172}, {"fusion_lat": 0.0, "name": "3b307a72ee9f4df9dde66fd7e72c5ba2", "is_disabled": 0, "rental_uris": {"android": "https://dc.lft.to/lastmile_qr_scan", "ios": "https://dc.lft.to/lastmile_qr_scan"}, "fusion_lon": 0.0, "lat": 38.895262333333335, "bike_id": "3b307a72ee9f4df9dde66fd7e72c5ba2", "type": "electric_scooter", "is_reserved": 0, "lon": -76.93410533333333}, {"fusion_lat": 0.0, "name": "6f9f339346230aaf6e26a3797e45badf", "is_disabled": 0, "rental_uris": {"android": "https://dc.lft.to/lastmile_qr_scan", "ios": "https://dc.lft.to/lastmile_qr_scan"}, "fusion_lon": 0.0, "lat": 38.93338383333333, "bike_id": "6f9f339346230aaf6e26a3797e45badf", "type": "electric_scooter", "is_reserved": 0, "lon": -77.02625083333334}, {"fusion_lat": 0.0, "name": "e1d373900e6a151ecc9eef8e831480f9", "is_disabled": 0, "rental_uris": {"android": "https://dc.lft.to/lastmile_qr_scan", "ios": "https://dc.lft.to/lastmile_qr_scan"}, "fusion_lon": 0.0, "lat": 38.91275433333333, "bike_id": "e1d373900e6a151ecc9eef8e831480f9", "type": "electric_scooter", "is_reserved": 0, "lon": -77.019885}, {"fusion_lat": 0.0, "name": "2214e09e78b1649eeddf5b2eece01a35", "is_disabled": 0, "rental_uris": {"android": "https://dc.lft.to/lastmile_qr_scan", "ios": "https://dc.lft.to/lastmile_qr_scan"}, "fusion_lon": 0.0, "lat": 38.89584716666667, "bike_id": "2214e09e78b1649eeddf5b2eece01a35", "type": "electric_scooter", "is_reserved": 0, "lon": -77.0217705}, {"fusion_lat": 0.0, "name": "2dae7acbd9d56dffdbd03d461a655faa", "is_disabled": 0, "rental_uris": {"android": "https://dc.lft.to/lastmile_qr_scan", "ios": "https://dc.lft.to/lastmile_qr_scan"}, "fusion_lon": 0.0, "lat": 38.904502, "bike_id": "2dae7acbd9d56dffdbd03d461a655faa", "type": "electric_scooter", "is_reserved": 0, "lon": -77.0465655}, {"fusion_lat": 0.0, "name": "407023a42813904448b371143d32a9c2", "is_disabled": 0, "rental_uris": {"android": "https://dc.lft.to/lastmile_qr_scan", "ios": "https://dc.lft.to/lastmile_qr_scan"}, "fusion_lon": 0.0, "lat": 38.91265883333333, "bike_id": "407023a42813904448b371143d32a9c2", "type": "electric_scooter", "is_reserved": 0, "lon": -77.0193125}, {"fusion_lat": 0.0, "name": "7923737f61b33ab538979164e58b4cfb", "is_disabled": 0, "rental_uris": {"android": "https://dc.lft.to/lastmile_qr_scan", "ios": "https://dc.lft.to/lastmile_qr_scan"}, "fusion_lon": 0.0, "lat": 38.9562295, "bike_id": "7923737f61b33ab538979164e58b4cfb", "type": "electric_bike", "is_reserved": 0, "lon": -76.93872216666666}, {"fusion_lat": 0.0, "name": "fa1229204c9675a3646e0dc95cceb958", "is_disabled": 0, "rental_uris": {"android": "https://dc.lft.to/lastmile_qr_scan", "ios": "https://dc.lft.to/lastmile_qr_scan"}, "fusion_lon": 0.0, "lat": 38.931318, "bike_id": "fa1229204c9675a3646e0dc95cceb958", "type": "electric_scooter", "is_reserved": 0, "lon": -77.03854516666667}, {"fusion_lat": 0.0, "name": "aa5a043764912768cdcb033d917a6b73", "is_disabled": 0, "rental_uris": {"android": "https://dc.lft.to/lastmile_qr_scan", "ios": "https://dc.lft.to/lastmile_qr_scan"}, "fusion_lon": 0.0, "lat": 38.8989345, "bike_id": "aa5a043764912768cdcb033d917a6b73", "type": "electric_scooter", "is_reserved": 0, "lon": -76.993929}, {"fusion_lat": 0.0, "name": "5f85e1a1e0d3cb7e8ac043f3c880ad6c", "is_disabled": 0, "rental_uris": {"android": "https://dc.lft.to/lastmile_qr_scan", "ios": "https://dc.lft.to/lastmile_qr_scan"}, "fusion_lon": 0.0, "lat": 38.90057933333333, "bike_id": "5f85e1a1e0d3cb7e8ac043f3c880ad6c", "type": "electric_scooter", "is_reserved": 0, "lon": -77.049408}, {"fusion_lat": 0.0, "name": "c9aafaf004c1770d64952ce6f1012a8b", "is_disabled": 0, "rental_uris": {"android": "https://dc.lft.to/lastmile_qr_scan", "ios": "https://dc.lft.to/lastmile_qr_scan"}, "fusion_lon": 0.0, "lat": 38.90097266666667, "bike_id": "c9aafaf004c1770d64952ce6f1012a8b", "type": "electric_scooter", "is_reserved": 0, "lon": -77.05907833333333}, {"fusion_lat": 0.0, "name": "115aeedba08e13ed14adb6be428eb921", "is_disabled": 0, "rental_uris": {"android": "https://dc.lft.to/lastmile_qr_scan", "ios": "https://dc.lft.to/lastmile_qr_scan"}, "fusion_lon": 0.0, "lat": 38.88337166666667, "bike_id": "115aeedba08e13ed14adb6be428eb921", "type": "electric_scooter", "is_reserved": 0, "lon": -76.93495216666666}, {"fusion_lat": 0.0, "name": "a1293cc3f8767d7cb6969db44fb7ae88", "is_disabled": 0, "rental_uris": {"android": "https://dc.lft.to/lastmile_qr_scan", "ios": "https://dc.lft.to/lastmile_qr_scan"}, "fusion_lon": 0.0, "lat": 38.91554716666667, "bike_id": "a1293cc3f8767d7cb6969db44fb7ae88", "type": "electric_scooter", "is_reserved": 0, "lon": -77.01040283333333}, {"fusion_lat": 0.0, "name": "a35bf195ca9fa3bd617f6f01a0c59ef4", "is_disabled": 0, "rental_uris": {"android": "https://dc.lft.to/lastmile_qr_scan", "ios": "https://dc.lft.to/lastmile_qr_scan"}, "fusion_lon": 0.0, "lat": 38.911981, "bike_id": "a35bf195ca9fa3bd617f6f01a0c59ef4", "type": "electric_scooter", "is_reserved": 0, "lon": -77.038461}, {"fusion_lat": 0.0, "name": "e7d4eca21d4b34391ae45eb2b886e129", "is_disabled": 0, "rental_uris": {"android": "https://dc.lft.to/lastmile_qr_scan", "ios": "https://dc.lft.to/lastmile_qr_scan"}, "fusion_lon": 0.0, "lat": 38.947329833333335, "bike_id": "e7d4eca21d4b34391ae45eb2b886e129", "type": "electric_scooter", "is_reserved": 0, "lon": -77.06536633333333}, {"fusion_lat": 0.0, "name": "4037bc923ffab3005472de3a81344c6e", "is_disabled": 0, "rental_uris": {"android": "https://dc.lft.to/lastmile_qr_scan", "ios": "https://dc.lft.to/lastmile_qr_scan"}, "fusion_lon": 0.0, "lat": 38.9438225, "bike_id": "4037bc923ffab3005472de3a81344c6e", "type": "electric_scooter", "is_reserved": 0, "lon": -77.09504766666667}, {"fusion_lat": 0.0, "name": "5c809c9724788471d9803c0e49937027", "is_disabled": 0, "rental_uris": {"android": "https://dc.lft.to/lastmile_qr_scan", "ios": "https://dc.lft.to/lastmile_qr_scan"}, "fusion_lon": 0.0, "lat": 38.903977, "bike_id": "5c809c9724788471d9803c0e49937027", "type": "electric_scooter", "is_reserved": 0, "lon": -77.067807},