{"data": {"bikes": [{"bike_id": "96b7666630178e2b1d203f1eab107137", "type": "electric_scooter", "is_disabled": 0, "lat": 38.942156, "rental_uris": {"ios": "https://dc.lft.to/lastmile_qr_scan", "android": "https://dc.lft.to/lastmile_qr_scan"}, "is_reserved": 0, "fusion_lon": 0.0, "fusion_lat": 0.0, "lon": -77.01743666666667, "name": "96b7666630178e2b1d203f1eab107137"}, {"bike_id": "2e9a42319a7a823af620696cf1535749", "type": "electric_scooter", "is_disabled": 0, "lat": 38.92412783333333, "rental_uris": {"ios": "https://dc.lft.to/lastmile_qr_scan", "android": "https://dc.lft.to/lastmile_qr_scan"}, "is_reserved": 0, "fusion_lon": 0.0, "fusion_lat": 0.0, "lon": -76.9937665, "name": "2e9a42319a7a823af620696cf1535749"}, {"bike_id": "82fd9cb3617f72577ba1b6ad201e3549", "type": "electric_scooter", "is_disabled": 0, "lat": 38.87793083333333, "rental_uris": {"ios": "https://dc.lft.to/lastmile_qr_scan", "android": "https://dc.lft.to/lastmile_qr_scan"}, "is_reserved": 0, "fusion_lon": 0.0, "fusion_lat": 0.0, "lon": -77.01764016666667, "name": "82fd9cb3617f72577ba1b6ad201e3549"}, {"bike_id": "4362c6468ccd402aa13b0c7a8d659f5f", "type": "electric_scooter", "is_disabled": 0, "lat": 38.900151666666666, "rental_uris": {"ios": "https://dc.lft.to/lastmile_qr_scan", "android": "https://dc.lft.to/lastmile_qr_scan"}, "is_reserved": 0, "fusion_lon": 0.0, "fusion_lat": 0.0, "lon": -77.00186433333333, "name": "4362c6468ccd402aa13b0c7a8d659f5f"}, {"bike_id": "c0e0dc62f2031f43c8f08f4a7197e540", "type": "electric_bike", "is_disabled": 0, "lat": 38.872991166666665, "rental_uris": {"ios": "https://dc.lft.to/lastmile_qr_scan", "android": "https://dc.lft.to/lastmile_qr_scan"}, "is_reserved": 0, "fusion_lon": 0.0, "fusion_lat": 0.0, "lon": -77.13927966666667, "name": "c0e0dc62f2031f43c8f08f4a7197e540"}, {"bike_id": "a43ff18504ca0becacddafa8e1ce5645", "type": "electric_scooter", "is_disabled": 0, "lat": 38.91709316666667, "rental_uris": {"ios": "https://dc.lft.to/lastmile_qr_scan", "android": "https://dc.lft.to/lastmile_qr_scan"}, "is_reserved": 0, "fusion_lon": 0.0, "fusion_lat": 0.0, "lon": -77.02373383333334, "name": "a43ff18504ca0becacddafa8e1ce5645"}, {"bike_id": "d7a10e5314ccf532b5962e41fe8cf09b", "type": "electric_scooter", "is_disabled": 0, "lat": 38.93282466666667, "rental_uris": {"ios": "https://dc.lft.to/lastmile_qr_scan", "android": "https://dc.lft.to/lastmile_qr_scan"}, "is_reserved": 0, "fusion_lon": 0.0, "fusion_lat": 0.0, "lon": -77.04537483333333, "name": "d7a10e5314ccf532b5962e41fe8cf09b"}, {"bike_id": "5d8d82a15e4276f01ee1dbccd48532fc", "type": "electric_bike", "is_disabled": 0, "lat": 38.837895333333336, "rental_uris": {"ios": "https://dc.lft.to/lastmile_qr_scan", "android": "https://dc.lft.to/lastmile_qr_scan"}, "is_reserved": 0, "fusion_lon": 0.0, "fusion_lat": 0.0, "lon": -77.0934915, "name": "5d8d82a15e4276f01ee1dbccd48532fc"}, {"bike_id": "4ff9865c92046a8009d1c2b50c77aa40", "type": "electric_scooter", "is_disabled": 0, "lat": 38.902579, "rental_uris": {"ios": "https://dc.lft.to/lastmile_qr_scan", "android": "https://dc.lft.to/lastmile_qr_scan"}, "is_reserved": 0, "fusion_lon": 0.0, "fusion_lat": 0.0, "lon": -77.04391433333333, "name": "4ff9865c92046a8009d1c2b50c77aa40"}, {"bike_id": "85f10a88cb1aacb3f12efd297cafc76a", "type": "electric_scooter", "is_disabled": 0, "lat": 38.91636616666667, "rental_uris": {"ios": "https://dc.lft.to/lastmile_qr_scan", "android": "https://dc.lft.to/lastmile_qr_scan"}, "is_reserved": 0, "fusion_lon": 0.0, "fusion_lat": 0.0, "lon": -77.02555333333333, "name": "85f10a88cb1aacb3f12efd297cafc76a"}, {"bike_id": "130322dd686549e3c037bfc33b2ecdb2", "type": "electric_scooter", "is_disabled": 0, "lat": 38.90391483333333, "rental_uris": {"ios": "https://dc.lft.to/lastmile_qr_scan", "android": "https://dc.lft.to/lastmile_qr_scan"}, "is_reserved": 0, "fusion_lon": 0.0, "fusion_lat": 0.0, "lon": -76.9820695, "name": "130322dd686549e3c037bfc33b2ecdb2"}, {"bike_id": "5a9cb30458b2055a3157af4a3c33f72f", "type": "electric_scooter", "is_disabled": 0, "lat": 38.919138, "rental_uris": {"ios": "https://dc.lft.to/lastmile_qr_scan", "android": "https://dc.lft.to/lastmile_qr_scan"}, "is_reserved": 0, "fusion_lon": 0.0, "fusion_lat": 0.0, "lon": -77.0344575, "name": "5a9cb30458b2055a3157af4a3c33f72f"}, {"bike_id": "1039ab5ea91b432af0b86d9c492d9016", "type": "electric_scooter", "is_disabled": 0, "lat": 38.920171, "rental_uris": {"ios": "https://dc.lft.to/lastmile_qr_scan", "android": "https://dc.lft.to/lastmile_qr_scan"}, "is_reserved": 0, "fusion_lon": 0.0, "fusion_lat": 0.0, "lon": -77.0314055, "name": "1039ab5ea91b432af0b86d9c492d9016"}, {"bike_id": "05a09f6b3a33ec74844f3cba4fdd7a81", "type": "electric_scooter", "is_disabled": 0, "lat": 38.900816666666664, "rental_uris": {"ios": "https://dc.lft.to/lastmile_qr_scan", "android": "https://dc.lft.to/lastmile_qr_scan"}, "is_reserved": 0, "fusion_lon": 0.0, "fusion_lat": 0.0, "lon": -77.009225, "name": "05a09f6b3a33ec74844f3cba4fdd7a81"}, {"bike_id": "627ed017d458e2001ea597266c4693f0", "type": "electric_scooter", "is_disabled": 0, "lat": 38.89235033333333, "rental_uris": {"ios": "https://dc.lft.to/lastmile_qr_scan", "android": "https://dc.lft.to/lastmile_qr_scan"}, "is_reserved": 0, "fusion_lon": 0.0, "fusion_lat": 0.0, "lon": -77.02825016666667, "name": "627ed017d458e2001ea597266c4693f0"}, {"bike_id": "c5c2024efd325d3c75a37252095f05ae", "type": "electric_scooter", "is_disabled": 0, "lat": 38.922546, "rental_uris": {"ios": "https://dc.lft.to/lastmile_qr_scan", "android": "https://dc.lft.to/lastmile_qr_scan"}, "is_reserved": 0, "fusion_lon": 0.0, "fusion_lat": 0.0, "lon": -77.03891616666667, "name": "c5c2024efd325d3c75a37252095f05ae"}, {"bike_id": "46601fcd7f318f34a2f017937cc0fe3b", "type": "electric_scooter", "is_disabled": 0, "lat": 38.934018333333334, "rental_uris": {"ios": "https://dc.lft.to/lastmile_qr_scan", "android": "https://dc.lft.to/lastmile_qr_scan"}, "is_reserved": 0, "fusion_lon": 0.0, "fusion_lat": 0.0, "lon": -77.03877283333334, "name": "46601fcd7f318f34a2f017937cc0fe3b"}, {"bike_id": "5f7b65043f3d23f144c5b060a264ae41", "type": "electric_scooter", "is_disabled": 0, "lat": 38.920821333333336, "rental_uris": {"ios": "https://dc.lft.to/lastmile_qr_scan", "android": "https://dc.lft.to/lastmile_qr_scan"}, "is_reserved": 0, "fusion_lon": 0.0, "fusion_lat": 0.0, "lon": -77.02367316666667, "name": "5f7b65043f3d23f144c5b060a264ae41"}, {"bike_id": "e8227ef3d7db0d1a9d82aa17a700957d", "type": "electric_scooter", "is_disabled": 0, "lat": 38.92664766666667, "rental_uris": {"ios": "https://dc.lft.to/lastmile_qr_scan", "android": "https://dc.lft.to/lastmile_qr_scan"}, "is_reserved": 0, "fusion_lon": 0.0, "fusion_lat": 0.0, "lon": -77.037344, "name": "e8227ef3d7db0d1a9d82aa17a700957d"}, {"bike_id": "573e4e35873cdf01e26f533da2736763", "type": "electric_scooter", "is_disabled": 0, "lat": 38.9159485, "rental_uris": {"ios": "https://dc.lft.to/lastmile_qr_scan", "android": "https://dc.lft.to/lastmile_qr_scan"}, "is_reserved": 0, "fusion_lon": 0.0, "fusion_lat": 0.0, "lon": -77.04486783333333, "name": "573e4e35873cdf01e26f533da2736763"}, {"bike_id": "660eb731cdb2bb589b960b3924fd5bd8", "type": "electric_scooter", "is_disabled": 0, "lat": 38.9050925, "rental_uris": {"ios": "https://dc.lft.to/lastmile_qr_scan", "android": "https://dc.lft.to/lastmile_qr_scan"}, "is_reserved": 0, "fusion_lon": 0.0, "fusion_lat": 0.0, "lon": -77.04161183333333, "name": "660eb731cdb2bb589b960b3924fd5bd8"}, {"bike_id": "5813a042143a73b62f973e3b17ac0cc2", "type": "electric_scooter", "is_disabled": 0, "lat": 38.9141925, "rental_uris": {"ios": "https://dc.lft.to/lastmile_qr_scan", "android": "https://dc.lft.to/lastmile_qr_scan"}, "is_reserved": 0, "fusion_lon": 0.0, "fusion_lat": 0.0, "lon": -77.039119, "name": "5813a042143a73b62f973e3b17ac0cc2"}, {"bike_id": "90230215d7c79d55d5fa4680e8de767b", "type": "electric_scooter", "is_disabled": 0, "lat": 38.866272333333335, "rental_uris": {"ios": "https://dc.lft.to/lastmile_qr_scan", "android": "https://dc.lft.to/lastmile_qr_scan"}, "is_reserved": 0, "fusion_lon": 0.0, "fusion_lat": 0.0, "lon": -76.9871635, "name": "90230215d7c79d55d5fa4680e8de767b"}, {"bike_id": "25b5ec2b5295867c4f2ce7b1e556934d", "type": "electric_scooter", "is_disabled": 0, "lat": 38.905591, "rental_uris": {"ios": "https://dc.lft.to/lastmile_qr_scan", "android": "https://dc.lft.to/lastmile_qr_scan"}, "is_reserved": 0, "fusion_lon": 0.0, "fusion_lat": 0.0, "lon": -77.01637916666667, "name": "25b5ec2b5295867c4f2ce7b1e556934d"}, {"bike_id": "e7aeba0567e8775f00c72ae72afe0dcf", "type": "electric_scooter", "is_disabled": 0, "lat": 38.933629833333335, "rental_uris": {"ios": "https://dc.lft.to/lastmile_qr_scan", "android": "https://dc.lft.to/lastmile_qr_scan"}, "is_reserved": 0, "fusion_lon": 0.0, "fusion_lat": 0.0, "lon": -77.088609, "name": "e7aeba0567e8775f00c72ae72afe0dcf"}, {"bike_id": "2f1f8543d872974f320668f839fe26e7", "type": "electric_scooter", "is_disabled": 0, "lat": 38.90270266666667, "rental_uris": {"ios": "https://dc.lft.to/lastmile_qr_scan", "android": "https://dc.lft.to/lastmile_qr_scan"}, "is_reserved": 0, "fusion_lon": 0.0, "fusion_lat": 0.0, "lon": -77.00346616666667, "name": "2f1f8543d872974f320668f839fe26e7"}, {"bike_id": "4c5a0a149c2c30d2e23b5dc42a9e8238", "type": "electric_bike", "is_disabled": 0, "lat": 38.990910166666666, "rental_uris": {"ios": "https://dc.lft.to/lastmile_qr_scan", "android": "https://dc.lft.to/lastmile_qr_scan"}, "is_reserved": 0, "fusion_lon": 0.0, "fusion_lat": 0.0, "lon": -76.87496616666667, "name": "4c5a0a149c2c30d2e23b5dc42a9e8238"}, {"bike_id": "1a28c8216ff4fd9c726a5c0af35ec337", "type": "electric_scooter", "is_disabled": 0, "lat": 38.914902, "rental_uris": {"ios": "https://dc.lft.to/lastmile_qr_scan", "android": "https://dc.lft.to/lastmile_qr_scan"}, "is_reserved": 0, "fusion_lon": 0.0, "fusion_lat": 0.0, "lon": -77.037624, "name": "1a28c8216ff4fd9c726a5c0af35ec337"}, {"bike_id": "4854105520383ccb8f1fd4a8a1b52aa1", "type": "electric_scooter", "is_disabled": 0, "lat": 38.903468833333335, "rental_uris": {"ios": "https://dc.lft.to/lastmile_qr_scan", "android": "https://dc.lft.to/lastmile_qr_scan"}, "is_reserved": 0, "fusion_lon": 0.0, "fusion_lat": 0.0, "lon": -77.041203, "name": "4854105520383ccb8f1fd4a8a1b52aa1"}, {"bike_id": "30c90a3fca7bae544cd02229a4e68922", "type": "electric_scooter", "is_disabled": 0, "lat": 38.90100183333333, "rental_uris": {"ios": "https://dc.lft.to/lastmile_qr_scan", "android": "https://dc.lft.to/lastmile_qr_scan"}, "is_reserved": 0, "fusion_lon": 0.0, "fusion_lat": 0.0, "lon": -77.0177475, "name": "30c90a3fca7bae544cd02229a4e68922"}, {"bike_id": "b52de7fd603350fd1945b950361050a2", "type": "electric_scooter", "is_disabled": 0, "lat": 38.843162166666666, "rental_uris": {"ios": "https://dc.lft.to/lastmile_qr_scan", "android": "https://dc.lft.to/lastmile_qr_scan"}, "is_reserved": 0, "fusion_lon": 0.0, "fusion_lat": 0.0, "lon": -76.99929333333333, "name": "b52de7fd603350fd1945b950361050a2"}, {"bike_id": "cb720c276ad1f7564f6c14b71dfc0378", "type": "electric_scooter", "is_disabled": 0, "lat": 38.90025833333333, "rental_uris": {"ios": "https://dc.lft.to/lastmile_qr_scan", "android": "https://dc.lft.to/lastmile_qr_scan"}, "is_reserved": 0, "fusion_lon": 0.0, "fusion_lat": 0.0, "lon": -76.98152233333333, "name": "cb720c276ad1f7564f6c14b71dfc0378"}, {"bike_id": "d382991bc359cb71c8f403bc99d9a0ad", "type": "electric_scooter", "is_disabled": 0, "lat": 38.884006666666664, "rental_uris": {"ios": "https://dc.lft.to/lastmile_qr_scan", "android": "https://dc.lft.to/lastmile_qr_scan"}, "is_reserved": 0, "fusion_lon": 0.0, "fusion_lat": 0.0, "lon": -76.99624433333334, "name": "d382991bc359cb71c8f403bc99d9a0ad"}, {"bike_id": "de54478bd2cc2e80556e8817b5320aa1", "type": "electric_scooter", "is_disabled": 0, "lat": 38.92035683333334, "rental_uris": {"ios": "https://dc.lft.to/lastmile_qr_scan", "android": "https://dc.lft.to/lastmile_qr_scan"}, "is_reserved": 0, "fusion_lon": 0.0, "fusion_lat": 0.0, "lon": -77.01792566666667, "name": "de54478bd2cc2e80556e8817b5320aa1"}, {"bike_id": "3ee2e2fa8c93dd2a40c8d0bdfa68b995", "type": "electric_scooter", "is_disabled": 0, "lat": 38.929050333333336, "rental_uris": {"ios": "https://dc.lft.to/lastmile_qr_scan", "android": "https://dc.lft.to/lastmile_qr_scan"}, "is_reserved": 0, "fusion_lon": 0.0, "fusion_lat": 0.0, "lon": -77.032746, "name": "3ee2e2fa8c93dd2a40c8d0bdfa68b995"}, {"bike_id": "8504206771305b922da8ab7e430d8168", "type": "electric_scooter", "is_disabled": 0, "lat": 38.904961166666666, "rental_uris": {"ios": "https://dc.lft.to/lastmile_qr_scan", "android": "https://dc.lft.to/lastmile_qr_scan"}, "is_reserved": 0, "fusion_lon": 0.0, "fusion_lat": 0.0, "lon": -77.06031083333333, "name": "8504206771305b922da8ab7e430d8168"}, {"bike_id": "ab6ff49ba9930b85f272699dc2346f45", "type": "electric_scooter", "is_disabled": 0, "lat": 38.91113883333333, "rental_uris": {"ios": "https://dc.lft.to/lastmile_qr_scan", "android": "https://dc.lft.to/lastmile_qr_scan"}, "is_reserved": 0, "fusion_lon": 0.0, "fusion_lat": 0.0, "lon": -77.04901533333333, "name": "ab6ff49ba9930b85f272699dc2346f45"}, {"bike_id": "6883cf8970dfa9dbbe8f8a9d35e924e7", "type": "electric_scooter", "is_disabled": 0, "lat": 38.93675483333333, "rental_uris": {"ios": "https://dc.lft.to/lastmile_qr_scan", "android": "https://dc.lft.to/lastmile_qr_scan"}, "is_reserved": 0, "fusion_lon": 0.0, "fusion_lat": 0.0, "lon": -77.035945, "name": "6883cf8970dfa9dbbe8f8a9d35e924e7"}, {"bike_id": "6277d75be81c8722cc0c4407a6fc64ae", "type": "electric_bike", "is_disabled": 0, "lat": 38.853553, "rental_uris": {"ios": "https://dc.lft.to/lastmile_qr_scan", "android": "https://dc.lft.to/lastmile_qr_scan"}, "is_reserved": 0, "fusion_lon": 0.0, "fusion_lat": 0.0, "lon": -77.08683633333334, "name": "6277d75be81c8722cc0c4407a6fc64ae"}, {"bike_id": "00405745a1f3fe1baa5c480cef048bd5", "type": "electric_scooter", "is_disabled": 0, "lat": 38.86504383333333, "rental_uris": {"ios": "https://dc.lft.to/lastmile_qr_scan", "android": "https://dc.lft.to/lastmile_qr_scan"}, "is_reserved": 0, "fusion_lon": 0.0, "fusion_lat": 0.0, "lon": -76.99002866666666, "name": "00405745a1f3fe1baa5c480cef048bd5"}, {"bike_id": "4b8c65fbfcefb75bb731aad169e68b5f", "type": "electric_scooter", "is_disabled": 0, "lat": 38.8986615, "rental_uris": {"ios": "https://dc.lft.to/lastmile_qr_scan", "android": "https://dc.lft.to/lastmile_qr_scan"}, "is_reserved": 0, "fusion_lon": 0.0, "fusion_lat": 0.0, "lon": -76.94664216666666, "name": "4b8c65fbfcefb75bb731aad169e68b5f"}, {"bike_id": "8bc6ea2733f2655e51ac6e20c26cd6cf", "type": "electric_scooter", "is_disabled": 0, "lat": 38.91794266666667, "rental_uris": {"ios": "https://dc.lft.to/lastmile_qr_scan", "android": "https://dc.lft.to/lastmile_qr_scan"}, "is_reserved": 0, "fusion_lon": 0.0, "fusion_lat": 0.0, "lon": -77.03653183333333, "name": "8bc6ea2733f2655e51ac6e20c26cd6cf"}, {"bike_id": "b3868993af97aeacafaa3689db4e9de0", "type": "electric_scooter", "is_disabled": 0, "lat": 38.91275516666666, "rental_uris": {"ios": "https://dc.lft.to/lastmile_qr_scan", "android": "https://dc.lft.to/lastmile_qr_scan"}, "is_reserved": 0, "fusion_lon": 0.0, "fusion_lat": 0.0, "lon": -77.02226316666666, "name": "b3868993af97aeacafaa3689db4e9de0"}, {"bike_id": "c529313b2f554a5a3babe981ecf21b87", "type": "electric_scooter", "is_disabled": 0, "lat": 38.91416233333333, "rental_uris": {"ios": "https://dc.lft.to/lastmile_qr_scan", "android": "https://dc.lft.to/lastmile_qr_scan"}, "is_reserved": 0, "fusion_lon": 0.0, "fusion_lat": 0.0, "lon": -77.04540166666666, "name": "c529313b2f554a5a3babe981ecf21b87"}, {"bike_id": "71cc5e71d8d32ae9c6b51e21f048a7e0", "type": "electric_scooter", "is_disabled": 0, "lat": 38.885403833333335, "rental_uris": {"ios": "https://dc.lft.to/lastmile_qr_scan", "android": "https://dc.lft.to/lastmile_qr_scan"}, "is_reserved": 0, "fusion_lon": 0.0, "fusion_lat": 0.0, "lon": -76.98056966666667, "name": "71cc5e71d8d32ae9c6b51e21f048a7e0"}, {"bike_id": "3f775b7bc391270822631c4a081a57cd", "type": "electric_scooter", "is_disabled": 0, "lat": 38.9293385, "rental_uris": {"ios": "https://dc.lft.to/lastmile_qr_scan", "android": "https://dc.lft.to/lastmile_qr_scan"}, "is_reserved": 0, "fusion_lon": 0.0, "fusion_lat": 0.0, "lon": -77.0329005, "name": "3f775b7bc391270822631c4a081a57cd"}, {"bike_id": "56a9615c20e4f7d7f194c1f44c6032c6", "type": "electric_scooter", "is_disabled": 0, "lat": 38.923208333333335, "rental_uris": {"ios": "https://dc.lft.to/lastmile_qr_scan", "android": "https://dc.lft.to/lastmile_qr_scan"}, "is_reserved": 0, "fusion_lon": 0.0, "fusion_lat": 0.0, "lon": -77.02140966666667, "name": "56a9615c20e4f7d7f194c1f44c6032c6"}, {"bike_id": "609d7f53719405b2b9aa438a789f6d4a", "type": "electric_scooter", "is_disabled": 0, "lat": 38.91814516666667, "rental_uris": {"ios": "https://dc.lft.to/lastmile_qr_scan", "android": "https://dc.lft.to/lastmile_qr_scan"}, "is_reserved": 0, "fusion_lon": 0.0, "fusion_lat": 0.0, "lon": -77.024769, "name": "609d7f53719405b2b9aa438a789f6d4a"}, {"bike_id": "87d73e268f4a523a909cd012c04b73cd", "type": "electric_scooter", "is_disabled": 0, "lat": 38.9321405, "rental_uris": {"ios": "https://dc.lft.to/lastmile_qr_scan", "android": "https://dc.lft.to/lastmile_qr_scan"}, "is_reserved": 0, "fusion_lon": 0.0, "fusion_lat": 0.0, "lon": -77.03513316666667, "name": "87d73e268f4a523a909cd012c04b73cd"}, {"bike_id": "6cd1b953cf104275e84b12c9aa9358b9", "type": "electric_scooter", "is_disabled": 0, "lat": 38.89844683333333, "rental_uris": {"ios": "https://dc.lft.to/lastmile_qr_scan", "android": "https://dc.lft.to/lastmile_qr_scan"}, "is_reserved": 0, "fusion_lon": 0.0, "fusion_lat": 0.0, "lon": -77.04082966666667, "name": "6cd1b953cf104275e84b12c9aa9358b9"}, {"bike_id": "2ad4e0314a52493ea5c82df81d504e5e", "type": "electric_scooter", "is_disabled": 0, "lat": 38.887717333333335, "rental_uris": {"ios": "https://dc.lft.to/lastmile_qr_scan", "android": "https://dc.lft.to/lastmile_qr_scan"}, "is_reserved": 0, "fusion_lon": 0.0, "fusion_lat": 0.0, "lon": -76.95601183333333, "name": "2ad4e0314a52493ea5c82df81d504e5e"}, {"bike_id": "873e8e5a3b98794aa62d0487b2b99f3f", "type": "electric_scooter", "is_disabled": 0, "lat": 38.923938, "rental_uris": {"ios": "https://dc.lft.to/lastmile_qr_scan", "android": "https://dc.lft.to/lastmile_qr_scan"}, "is_reserved": 0, "fusion_lon": 0.0, "fusion_lat": 0.0, "lon": -77.04088216666666, "name": "873e8e5a3b98794aa62d0487b2b99f3f"}, {"bike_id": "c18a7edb39331e6fe5dbee1222668e2f", "type": "electric_scooter", "is_disabled": 0, "lat": 38.927072333333335, "rental_uris": {"ios": "https://dc.lft.to/lastmile_qr_scan", "android": "https://dc.lft.to/lastmile_qr_scan"}, "is_reserved": 0, "fusion_lon": 0.0, "fusion_lat": 0.0, "lon": -77.03538316666666, "name": "c18a7edb39331e6fe5dbee1222668e2f"}, {"bike_id": "bce82ba5ebd7e6986a6d0bc807aa924b", "type": "electric_scooter", "is_disabled": 0, "lat": 38.927029, "rental_uris": {"ios": "https://dc.lft.to/lastmile_qr_scan", "android": "https://dc.lft.to/lastmile_qr_scan"}, "is_reserved": 0, "fusion_lon": 0.0, "fusion_lat": 0.0, "lon": -77.05369533333334, "name": "bce82ba5ebd7e6986a6d0bc807aa924b"}, {"bike_id": "456e77397f1b135d221aa797afafbb2b", "type": "electric_scooter", "is_disabled": 0, "lat": 38.910574, "rental_uris": {"ios": "https://dc.lft.to/lastmile_qr_scan", "android": "https://dc.lft.to/lastmile_qr_scan"}, "is_reserved": 0, "fusion_lon": 0.0, "fusion_lat": 0.0, "lon": -77.054657, "name": "456e77397f1b135d221aa797afafbb2b"}, {"bike_id": "048994417711ac9dc6e61d8c302449a0", "type": "electric_bike", "is_disabled": 0, "lat": 38.84525683333333, "rental_uris": {"ios": "https://dc.lft.to/lastmile_qr_scan", "android": "https://dc.lft.to/lastmile_qr_scan"}, "is_reserved": 0, "fusion_lon": 0.0, "fusion_lat": 0.0, "lon": -76.9739895, "name": "048994417711ac9dc6e61d8c302449a0"}, {"bike_id": "3f090b038dd51a241acb17c2b52b3768", "type": "electric_scooter", "is_disabled": 0, "lat": 38.90068566666667, "rental_uris": {"ios": "https://dc.lft.to/lastmile_qr_scan", "android": "https://dc.lft.to/lastmile_qr_scan"}, "is_reserved": 0, "fusion_lon": 0.0, "fusion_lat": 0.0, "lon": -76.92742916666667, "name": "3f090b038dd51a241acb17c2b52b3768"}, {"bike_id": "ba965fc8546d183069d1bfeeeb504c2c", "type": "electric_scooter", "is_disabled": 0, "lat": 38.9375265, "rental_uris": {"ios": "https://dc.lft.to/lastmile_qr_scan", "android": "https://dc.lft.to/lastmile_qr_scan"}, "is_reserved": 0, "fusion_lon": 0.0, "fusion_lat": 0.0, "lon": -77.0244685, "name": "ba965fc8546d183069d1bfeeeb504c2c"}, {"bike_id": "d80cd3e793e704c5d2f7a9c8051d2668", "type": "electric_scooter", "is_disabled": 0, "lat": 38.87630016666667, "rental_uris": {"ios": "https://dc.lft.to/lastmile_qr_scan", "android": "https://dc.lft.to/lastmile_qr_scan"}, "is_reserved": 0, "fusion_lon": 0.0, "fusion_lat": 0.0, "lon": -76.96526916666667, "name": "d80cd3e793e704c5d2f7a9c8051d2668"}, {"bike_id": "7a933f5dbf2e5fd24ddaed5698f97bd4", "type": "electric_scooter", "is_disabled": 0, "lat": 38.902985666666666, "rental_uris": {"ios": "https://dc.lft.to/lastmile_qr_scan", "android": "https://dc.lft.to/lastmile_qr_scan"}, "is_reserved": 0, "fusion_lon": 0.0, "fusion_lat": 0.0, "lon": -77.04478016666667, "name": "7a933f5dbf2e5fd24ddaed5698f97bd4"}, {"bike_id": "9b2523b2ec21ecc86bcac9e5ff9c45b2", "type": "electric_scooter", "is_disabled": 0, "lat": 38.911510166666666, "rental_uris": {"ios": "https://dc.lft.to/lastmile_qr_scan", "android": "https://dc.lft.to/lastmile_qr_scan"}, "is_reserved": 0, "fusion_lon": 0.0, "fusion_lat": 0.0, "lon": -77.02286416666666, "name": "9b2523b2ec21ecc86bcac9e5ff9c45b2"}, {"bike_id": "a0e7448c664ae9efc97e4b03109c3196", "type": "electric_scooter", "is_disabled": 0, "lat": 38.90501966666667, "rental_uris": {"ios": "https://dc.lft.to/lastmile_qr_scan", "android": "https://dc.lft.to/lastmile_qr_scan"}, "is_reserved": 0, "fusion_lon": 0.0, "fusion_lat": 0.0, "lon": -77.068871, "name": "a0e7448c664ae9efc97e4b03109c3196"}, {"bike_id": "cea6e69503e49aaa74905b832fcf2467", "type": "electric_scooter", "is_disabled": 0, "lat": 38.91321216666667, "rental_uris": {"ios": "https://dc.lft.to/lastmile_qr_scan", "android": "https://dc.lft.to/lastmile_qr_scan"}, "is_reserved": 0, "fusion_lon": 0.0, "fusion_lat": 0.0, "lon": -77.06300066666667, "name": "cea6e69503e49aaa74905b832fcf2467"}, {"bike_id": "aa9b2206ea07f695af9ff2735b838ff4", "type": "electric_scooter", "is_disabled": 0, "lat": 38.918314333333335, "rental_uris": {"ios": "https://dc.lft.to/lastmile_qr_scan", "android": "https://dc.lft.to/lastmile_qr_scan"}, "is_reserved": 0, "fusion_lon": 0.0, "fusion_lat": 0.0, "lon": -77.049454, "name": "aa9b2206ea07f695af9ff2735b838ff4"}, {"bike_id": "290ed28c59da4c0ce8c485831d961e6d", "type": "electric_scooter", "is_disabled": 0, "lat": 38.8669845, "rental_uris": {"ios": "https://dc.lft.to/lastmile_qr_scan", "android": "https://dc.lft.to/lastmile_qr_scan"}, "is_reserved": 0, "fusion_lon": 0.0, "fusion_lat": 0.0, "lon": -76.98707916666666, "name": "290ed28c59da4c0ce8c485831d961e6d"}, {"bike_id": "9012cc38466b115662c3484e5a71ee9e", "type": "electric_scooter", "is_disabled": 0, "lat": 38.89996333333333, "rental_uris": {"ios": "https://dc.lft.to/lastmile_qr_scan", "android": "https://dc.lft.to/lastmile_qr_scan"}, "is_reserved": 0, "fusion_lon": 0.0, "fusion_lat": 0.0, "lon": -77.04152333333333, "name": "9012cc38466b115662c3484e5a71ee9e"}, {"bike_id": "a5f94e71f5d71ed9d49838b782e22c75", "type": "electric_scooter", "is_disabled": 0, "lat": 38.9313495, "rental_uris": {"ios": "https://dc.lft.to/lastmile_qr_scan", "android": "https://dc.lft.to/lastmile_qr_scan"}, "is_reserved": 0, "fusion_lon": 0.0, "fusion_lat": 0.0, "lon": -76.99578816666667, "name": "a5f94e71f5d71ed9d49838b782e22c75"}, {"bike_id": "636c9f62f3b7a9a3b106750cbd5d52a3", "type": "electric_scooter", "is_disabled": 0, "lat": 38.910502666666666, "rental_uris": {"ios": "https://dc.lft.to/lastmile_qr_scan", "android": "https://dc.lft.to/lastmile_qr_scan"}, "is_reserved": 0, "fusion_lon": 0.0, "fusion_lat": 0.0, "lon": -77.02686833333334, "name": "636c9f62f3b7a9a3b106750cbd5d52a3"}, {"bike_id": "2a020255c97cddb3b9064a832ccf9868", "type": "electric_scooter", "is_disabled": 0, "lat": 38.95621966666667, "rental_uris": {"ios": "https://dc.lft.to/lastmile_qr_scan", "android": "https://dc.lft.to/lastmile_qr_scan"}, "is_reserved": 0, "fusion_lon": 0.0, "fusion_lat": 0.0, "lon": -77.01139616666667, "name": "2a020255c97cddb3b9064a832ccf9868"}, {"bike_id": "b7d1acef5fa4d07d9127274993c47bf4", "type": "electric_bike", "is_disabled": 0, "lat": 39.052838333333334, "rental_uris": {"ios": "https://dc.lft.to/lastmile_qr_scan", "android": "https://dc.lft.to/lastmile_qr_scan"}, "is_reserved": 0, "fusion_lon": 0.0, "fusion_lat": 0.0, "lon": -77.080741, "name": "b7d1acef5fa4d07d9127274993c47bf4"}, {"bike_id": "13b73ecce9dbe2f057fcac51d279f073", "type": "electric_scooter", "is_disabled": 0, "lat": 38.905315, "rental_uris": {"ios": "https://dc.lft.to/lastmile_qr_scan", "android": "https://dc.lft.to/lastmile_qr_scan"}, "is_reserved": 0, "fusion_lon": 0.0, "fusion_lat": 0.0, "lon": -77.0568245, "name": "13b73ecce9dbe2f057fcac51d279f073"}, {"bike_id": "2ca38c6d7013147ea018662f610f52e4", "type": "electric_scooter", "is_disabled": 0, "lat": 38.917044833333335, "rental_uris": {"ios": "https://dc.lft.to/lastmile_qr_scan", "android": "https://dc.lft.to/lastmile_qr_scan"}, "is_reserved": 0, "fusion_lon": 0.0, "fusion_lat": 0.0, "lon": -77.00651866666666, "name": "2ca38c6d7013147ea018662f610f52e4"}, {"bike_id": "cc39b75a450708f47b90640707802e18", "type": "electric_scooter", "is_disabled": 0, "lat": 38.878292333333334, "rental_uris": {"ios": "https://dc.lft.to/lastmile_qr_scan", "android": "https://dc.lft.to/lastmile_qr_scan"}, "is_reserved": 0, "fusion_lon": 0.0, "fusion_lat": 0.0, "lon": -76.96304566666667, "name": "cc39b75a450708f47b90640707802e18"}, {"bike_id": "9d055efccce60d09024ab11a6cafe64a", "type": "electric_scooter", "is_disabled": 0, "lat": 38.94447566666667, "rental_uris": {"ios": "https://dc.lft.to/lastmile_qr_scan", "android": "https://dc.lft.to/lastmile_qr_scan"}, "is_reserved": 0, "fusion_lon": 0.0, "fusion_lat": 0.0, "lon": -77.01461016666667, "name": "9d055efccce60d09024ab11a6cafe64a"}, {"bike_id": "4a9ff89f059d3b5bd17e5151b8445dae", "type": "electric_scooter", "is_disabled": 0, "lat": 38.9122725, "rental_uris": {"ios": "https://dc.lft.to/lastmile_qr_scan", "android": "https://dc.lft.to/lastmile_qr_scan"}, "is_reserved": 0, "fusion_lon": 0.0, "fusion_lat": 0.0, "lon": -77.01211316666667, "name": "4a9ff89f059d3b5bd17e5151b8445dae"}, {"bike_id": "3509d44a506efdc3c2de359e1b9ea909", "type": "electric_scooter", "is_disabled": 0, "lat": 38.923434, "rental_uris": {"ios": "https://dc.lft.to/lastmile_qr_scan", "android": "https://dc.lft.to/lastmile_qr_scan"}, "is_reserved": 0, "fusion_lon": 0.0, "fusion_lat": 0.0, "lon": -77.0417815, "name": "3509d44a506efdc3c2de359e1b9ea909"}, {"bike_id": "c438ea072e5e53004650a9e97bd6dfc9", "type": "electric_scooter", "is_disabled": 0, "lat": 38.92056133333333, "rental_uris": {"ios": "https://dc.lft.to/lastmile_qr_scan", "android": "https://dc.lft.to/lastmile_qr_scan"}, "is_reserved": 0, "fusion_lon": 0.0, "fusion_lat": 0.0, "lon": -77.03196916666667, "name": "c438ea072e5e53004650a9e97bd6dfc9"}, {"bike_id": "cc14905cf25015bf88732cabfcbb33a9", "type": "electric_scooter", "is_disabled": 0, "lat": 38.924706, "rental_uris": {"ios": "https://dc.lft.to/lastmile_qr_scan", "android": "https://dc.lft.to/lastmile_qr_scan"}, "is_reserved": 0, "fusion_lon": 0.0, "fusion_lat": 0.0, "lon": -77.02243983333334, "name": "cc14905cf25015bf88732cabfcbb33a9"}, {"bike_id": "5dddd4748c42e831418f3e924964e0d6", "type": "electric_bike", "is_disabled": 0, "lat": 38.96321616666667, "rental_uris": {"ios": "https://dc.lft.to/lastmile_qr_scan", "android": "https://dc.lft.to/lastmile_qr_scan"}, "is_reserved": 0, "fusion_lon": 0.0, "fusion_lat": 0.0, "lon": -76.973629, "name": "5dddd4748c42e831418f3e924964e0d6"}, {"bike_id": "d8e0ab99d5c26e15705eef1871e0229d", "type": "electric_scooter", "is_disabled": 0, "lat": 38.923824833333335, "rental_uris": {"ios": "https://dc.lft.to/lastmile_qr_scan", "android": "https://dc.lft.to/lastmile_qr_scan"}, "is_reserved": 0, "fusion_lon": 0.0, "fusion_lat": 0.0, "lon": -77.03140116666667, "name": "d8e0ab99d5c26e15705eef1871e0229d"}, {"bike_id": "713af3a72ed9b3a7914281c26daf41bc", "type": "electric_scooter", "is_disabled": 0, "lat": 38.905263166666664, "rental_uris": {"ios": "https://dc.lft.to/lastmile_qr_scan", "android": "https://dc.lft.to/lastmile_qr_scan"}, "is_reserved": 0, "fusion_lon": 0.0, "fusion_lat": 0.0, "lon": -77.05934966666666, "name": "713af3a72ed9b3a7914281c26daf41bc"}, {"bike_id": "b3e9726cb0e23cfa13986fb3c948df74", "type": "electric_bike", "is_disabled": 0, "lat": 38.952309, "rental_uris": {"ios": "https://dc.lft.to/lastmile_qr_scan", "android": "https://dc.lft.to/lastmile_qr_scan"}, "is_reserved": 0, "fusion_lon": 0.0, "fusion_lat": 0.0, "lon": -76.97006933333333, "name": "b3e9726cb0e23cfa13986fb3c948df74"}, {"bike_id": "fc8adff460cca77609cfddf4e10e0076", "type": "electric_scooter", "is_disabled": 0, "lat": 38.866688, "rental_uris": {"ios": "https://dc.lft.to/lastmile_qr_scan", "android": "https://dc.lft.to/lastmile_qr_scan"}, "is_reserved": 0, "fusion_lon": 0.0, "fusion_lat": 0.0, "lon": -76.98522633333333, "name": "fc8adff460cca77609cfddf4e10e0076"}, {"bike_id": "8b275dffcb5e3774992256b7aafe8646", "type": "electric_bike", "is_disabled": 0, "lat": 38.96309883333333, "rental_uris": {"ios": "https://dc.lft.to/lastmile_qr_scan", "android": "https://dc.lft.to/lastmile_qr_scan"}, "is_reserved": 0, "fusion_lon": 0.0, "fusion_lat": 0.0, "lon": -77.01102916666666, "name": "8b275dffcb5e3774992256b7aafe8646"}, {"bike_id": "b6f6fb85ec961611d6ba178a48aa934d", "type": "electric_scooter", "is_disabled": 0, "lat": 38.874252166666665, "rental_uris": {"ios": "https://dc.lft.to/lastmile_qr_scan", "android": "https://dc.lft.to/lastmile_qr_scan"}, "is_reserved": 0, "fusion_lon": 0.0, "fusion_lat": 0.0, "lon": -76.96914233333334, "name": "b6f6fb85ec961611d6ba178a48aa934d"}, {"bike_id": "08bf2a5fde3a3f054af9bccff1bd5bd7", "type": "electric_scooter", "is_disabled": 0, "lat": 38.89722533333333, "rental_uris": {"ios": "https://dc.lft.to/lastmile_qr_scan", "android": "https://dc.lft.to/lastmile_qr_scan"}, "is_reserved": 0, "fusion_lon": 0.0, "fusion_lat": 0.0, "lon": -77.00857966666666, "name": "08bf2a5fde3a3f054af9bccff1bd5bd7"}, {"bike_id": "ae22a9e7adceb69ab1720b5eb0c357cc", "type": "electric_scooter", "is_disabled": 0, "lat": 38.8992485, "rental_uris": {"ios": "https://dc.lft.to/lastmile_qr_scan", "android": "https://dc.lft.to/lastmile_qr_scan"}, "is_reserved": 0, "fusion_lon": 0.0, "fusion_lat": 0.0, "lon": -77.053684, "name": "ae22a9e7adceb69ab1720b5eb0c357cc"}, {"bike_id": "3d57ff1b36bfa71a7d91dd11e1695490", "type": "electric_scooter", "is_disabled": 0, "lat": 38.87481183333333, "rental_uris": {"ios": "https://dc.lft.to/lastmile_qr_scan", "android": "https://dc.lft.to/lastmile_qr_scan"}, "is_reserved": 0, "fusion_lon": 0.0, "fusion_lat": 0.0, "lon": -77.01069266666667, "name": "3d57ff1b36bfa71a7d91dd11e1695490"}, {"bike_id": "077c825cd5d28100005db8aee8dab0a2", "type": "electric_scooter", "is_disabled": 0, "lat": 38.93181383333334, "rental_uris": {"ios": "https://dc.lft.to/lastmile_qr_scan", "android": "https://dc.lft.to/lastmile_qr_scan"}, "is_reserved": 0, "fusion_lon": 0.0, "fusion_lat": 0.0, "lon": -77.02354433333333, "name": "077c825cd5d28100005db8aee8dab0a2"}, {"bike_id": "e83e1d59ef7c6500b944c94159810663", "type": "electric_scooter", "is_disabled": 0, "lat": 38.93649333333333, "rental_uris": {"ios": "https://dc.lft.to/lastmile_qr_scan", "android": "https://dc.lft.to/lastmile_qr_scan"}, "is_reserved": 0, "fusion_lon": 0.0, "fusion_lat": 0.0, "lon": -77.0263665, "name": "e83e1d59ef7c6500b944c94159810663"}, {"bike_id": "7fe80c6477ee601034e7e8b54b8af1c3", "type": "electric_scooter", "is_disabled": 0, "lat": 38.903825833333336, "rental_uris": {"ios": "https://dc.lft.to/lastmile_qr_scan", "android": "https://dc.lft.to/lastmile_qr_scan"}, "is_reserved": 0, "fusion_lon": 0.0, "fusion_lat": 0.0, "lon": -76.98206883333333, "name": "7fe80c6477ee601034e7e8b54b8af1c3"}, {"bike_id": "a838a08b8b3cd3b19a32b1a8b6509a7a", "type": "electric_scooter", "is_disabled": 0, "lat": 38.918200166666665, "rental_uris": {"ios": "https://dc.lft.to/lastmile_qr_scan", "android": "https://dc.lft.to/lastmile_qr_scan"}, "is_reserved": 0, "fusion_lon": 0.0, "fusion_lat": 0.0, "lon": -77.024278, "name": "a838a08b8b3cd3b19a32b1a8b6509a7a"}, {"bike_id": "5a299b890ff1ef7ac219cd569580c5bf", "type": "electric_scooter", "is_disabled": 0, "lat": 38.88436933333333, "rental_uris": {"ios": "https://dc.lft.to/lastmile_qr_scan", "android": "https://dc.lft.to/lastmile_qr_scan"}, "is_reserved": 0, "fusion_lon": 0.0, "fusion_lat": 0.0, "lon": -76.95750066666666, "name": "5a299b890ff1ef7ac219cd569580c5bf"}, {"bike_id": "ecdd9d1f4017abfb518d34f13827bd77", "type": "electric_scooter", "is_disabled": 0, "lat": 38.92274233333333, "rental_uris": {"ios": "https://dc.lft.to/lastmile_qr_scan", "android": "https://dc.lft.to/lastmile_qr_scan"}, "is_reserved": 0, "fusion_lon": 0.0, "fusion_lat": 0.0, "lon": -77.0366885, "name": "ecdd9d1f4017abfb518d34f13827bd77"}, {"bike_id": "75ff62a21237ba17ed575ab23da2e568", "type": "electric_scooter", "is_disabled": 0, "lat": 38.88850566666667, "rental_uris": {"ios": "https://dc.lft.to/lastmile_qr_scan", "android": "https://dc.lft.to/lastmile_qr_scan"}, "is_reserved": 0, "fusion_lon": 0.0, "fusion_lat": 0.0, "lon": -76.92681116666667, "name": "75ff62a21237ba17ed575ab23da2e568"}, {"bike_id": "0cc245467338ed06f41213509dd14db4", "type": "electric_scooter", "is_disabled": 0, "lat": 38.918296833333336, "rental_uris": {"ios": "https://dc.lft.to/lastmile_qr_scan", "android": "https://dc.lft.to/lastmile_qr_scan"}, "is_reserved": 0, "fusion_lon": 0.0, "fusion_lat": 0.0, "lon": -77.024209, "name": "0cc245467338ed06f41213509dd14db4"}, {"bike_id": "6aae9c9ee664bc835eeda5421f6b7e57", "type": "electric_scooter", "is_disabled": 0, "lat": 38.95734816666667, "rental_uris": {"ios": "https://dc.lft.to/lastmile_qr_scan", "android": "https://dc.lft.to/lastmile_qr_scan"}, "is_reserved": 0, "fusion_lon": 0.0, "fusion_lat": 0.0, "lon": -77.02423533333334, "name": "6aae9c9ee664bc835eeda5421f6b7e57"}, {"bike_id": "efe5794cb335d6c1836d92b0a2da5d60", "type": "electric_scooter", "is_disabled": 0, "lat": 38.92941, "rental_uris": {"ios": "https://dc.lft.to/lastmile_qr_scan", "android": "https://dc.lft.to/lastmile_qr_scan"}, "is_reserved": 0, "fusion_lon": 0.0, "fusion_lat": 0.0, "lon": -77.023177, "name": "efe5794cb335d6c1836d92b0a2da5d60"}, {"bike_id": "7180b1436749a8dba760177cb455d659", "type": "electric_scooter", "is_disabled": 0, "lat": 38.9065165, "rental_uris": {"ios": "https://dc.lft.to/lastmile_qr_scan", "android": "https://dc.lft.to/lastmile_qr_scan"}, "is_reserved": 0, "fusion_lon": 0.0, "fusion_lat": 0.0, "lon": -77.0247435, "name": "7180b1436749a8dba760177cb455d659"}, {"bike_id": "03e6bbba47c3f6302b047eae942a3685", "type": "electric_scooter", "is_disabled": 0, "lat": 38.8874575, "rental_uris": {"ios": "https://dc.lft.to/lastmile_qr_scan", "android": "https://dc.lft.to/lastmile_qr_scan"}, "is_reserved": 0, "fusion_lon": 0.0, "fusion_lat": 0.0, "lon": -77.01508533333333, "name": "03e6bbba47c3f6302b047eae942a3685"}, {"bike_id": "1421724af890dd3dc22832934ddb9852", "type": "electric_scooter", "is_disabled": 0, "lat": 38.90980033333334, "rental_uris": {"ios": "https://dc.lft.to/lastmile_qr_scan", "android": "https://dc.lft.to/lastmile_qr_scan"}, "is_reserved": 0, "fusion_lon": 0.0, "fusion_lat": 0.0, "lon": -77.02803033333333, "name": "1421724af890dd3dc22832934ddb9852"}, {"bike_id": "ea0415301451d59d0629bfeceb9c102c", "type": "electric_scooter", "is_disabled": 0, "lat": 38.9269305, "rental_uris": {"ios": "https://dc.lft.to/lastmile_qr_scan", "android": "https://dc.lft.to/lastmile_qr_scan"}, "is_reserved": 0, "fusion_lon": 0.0, "fusion_lat": 0.0, "lon": -77.02778433333333, "name": "ea0415301451d59d0629bfeceb9c102c"}, {"bike_id": "0eb94b369eebf776987b9d42ac5028da", "type": "electric_bike", "is_disabled": 0, "lat": 39.056344, "rental_uris": {"ios": "https://dc.lft.to/lastmile_qr_scan", "android": "https://dc.lft.to/lastmile_qr_scan"}, "is_reserved": 0, "fusion_lon": 0.0, "fusion_lat": 0.0, "lon": -77.12526733333333, "name": "0eb94b369eebf776987b9d42ac5028da"}, {"bike_id": "9194e67092486b2fa26605d8ca2422dd", "type": "electric_scooter", "is_disabled": 0, "lat": 38.91031133333333, "rental_uris": {"ios": "https://dc.lft.to/lastmile_qr_scan", "android": "https://dc.lft.to/lastmile_qr_scan"}, "is_reserved": 0, "fusion_lon": 0.0, "fusion_lat": 0.0, "lon": -77.04261833333334, "name": "9194e67092486b2fa26605d8ca2422dd"}, {"bike_id": "1274d73175664dbe3811721ade823f7a", "type": "electric_scooter", "is_disabled": 0, "lat": 38.895258166666665, "rental_uris": {"ios": "https://dc.lft.to/lastmile_qr_scan", "android": "https://dc.lft.to/lastmile_qr_scan"}, "is_reserved": 0, "fusion_lon": 0.0, "fusion_lat": 0.0, "lon": -77.00218133333334, "name": "1274d73175664dbe3811721ade823f7a"}, {"bike_id": "853415490f23d2b000487af776d486c3", "type": "electric_scooter", "is_disabled": 0, "lat": 38.906796666666665, "rental_uris": {"ios": "https://dc.lft.to/lastmile_qr_scan", "android": "https://dc.lft.to/lastmile_qr_scan"}, "is_reserved": 0, "fusion_lon": 0.0, "fusion_lat": 0.0, "lon": -77.07167466666667, "name": "853415490f23d2b000487af776d486c3"}, {"bike_id": "0af864814a202bf14b827e82b4f76e71", "type": "electric_scooter", "is_disabled": 0, "lat": 38.923337333333336, "rental_uris": {"ios": "https://dc.lft.to/lastmile_qr_scan", "android": "https://dc.lft.to/lastmile_qr_scan"}, "is_reserved": 0, "fusion_lon": 0.0, "fusion_lat": 0.0, "lon": -77.03804633333333, "name": "0af864814a202bf14b827e82b4f76e71"}, {"bike_id": "d301c4edcff479a3833b545bb90d35b9", "type": "electric_scooter", "is_disabled": 0, "lat": 38.94211266666667, "rental_uris": {"ios": "https://dc.lft.to/lastmile_qr_scan", "android": "https://dc.lft.to/lastmile_qr_scan"}, "is_reserved": 0, "fusion_lon": 0.0, "fusion_lat": 0.0, "lon": -77.02586166666667, "name": "d301c4edcff479a3833b545bb90d35b9"}, {"bike_id": "1375ebcaaed2cb6055f28bf809920353", "type": "electric_scooter", "is_disabled": 0, "lat": 38.94783483333333, "rental_uris": {"ios": "https://dc.lft.to/lastmile_qr_scan", "android": "https://dc.lft.to/lastmile_qr_scan"}, "is_reserved": 0, "fusion_lon": 0.0, "fusion_lat": 0.0, "lon": -77.07937266666667, "name": "1375ebcaaed2cb6055f28bf809920353"}, {"bike_id": "cb40ded0ada08bc8ea1122463d74885c", "type": "electric_scooter", "is_disabled": 0, "lat": 38.929871166666665, "rental_uris": {"ios": "https://dc.lft.to/lastmile_qr_scan", "android": "https://dc.lft.to/lastmile_qr_scan"}, "is_reserved": 0, "fusion_lon": 0.0, "fusion_lat": 0.0, "lon": -77.03472816666667, "name": "cb40ded0ada08bc8ea1122463d74885c"}, {"bike_id": "7f997c00dd40249867d3de3b6c11bdb9", "type": "electric_scooter", "is_disabled": 0, "lat": 38.90025816666667, "rental_uris": {"ios": "https://dc.lft.to/lastmile_qr_scan", "android": "https://dc.lft.to/lastmile_qr_scan"}, "is_reserved": 0, "fusion_lon": 0.0, "fusion_lat": 0.0, "lon": -77.0239755, "name": "7f997c00dd40249867d3de3b6c11bdb9"}, {"bike_id": "cb413cb6412a0fce4832e6f4df7a14e8", "type": "electric_scooter", "is_disabled": 0, "lat": 38.907299, "rental_uris": {"ios": "https://dc.lft.to/lastmile_qr_scan", "android": "https://dc.lft.to/lastmile_qr_scan"}, "is_reserved": 0, "fusion_lon": 0.0, "fusion_lat": 0.0, "lon": -77.014859, "name": "cb413cb6412a0fce4832e6f4df7a14e8"}, {"bike_id": "bd38a7f7b4949f4d4da6d5c8771632d4", "type": "electric_scooter", "is_disabled": 0, "lat": 38.90683416666667, "rental_uris": {"ios": "https://dc.lft.to/lastmile_qr_scan", "android": "https://dc.lft.to/lastmile_qr_scan"}, "is_reserved": 0, "fusion_lon": 0.0, "fusion_lat": 0.0, "lon": -77.063406, "name": "bd38a7f7b4949f4d4da6d5c8771632d4"}, {"bike_id": "c60dbf9e45ae13a226f8096b11acf97b", "type": "electric_scooter", "is_disabled": 0, "lat": 38.9297795, "rental_uris": {"ios": "https://dc.lft.to/lastmile_qr_scan", "android": "https://dc.lft.to/lastmile_qr_scan"}, "is_reserved": 0, "fusion_lon": 0.0, "fusion_lat": 0.0, "lon": -77.039471, "name": "c60dbf9e45ae13a226f8096b11acf97b"}, {"bike_id": "104675665e3b50943e634156648f27cd", "type": "electric_scooter", "is_disabled": 0, "lat": 38.899161166666666, "rental_uris": {"ios": "https://dc.lft.to/lastmile_qr_scan", "android": "https://dc.lft.to/lastmile_qr_scan"}, "is_reserved": 0, "fusion_lon": 0.0, "fusion_lat": 0.0, "lon": -76.93367716666667, "name": "104675665e3b50943e634156648f27cd"}, {"bike_id": "b383f2a877bc1fa42336bc951e12e3f5", "type": "electric_scooter", "is_disabled": 0, "lat": 38.934369333333336, "rental_uris": {"ios": "https://dc.lft.to/lastmile_qr_scan", "android": "https://dc.lft.to/lastmile_qr_scan"}, "is_reserved": 0, "fusion_lon": 0.0, "fusion_lat": 0.0, "lon": -77.0453985, "name": "b383f2a877bc1fa42336bc951e12e3f5"}, {"bike_id": "8a8b337bf1cf4bfdd2ff106c49fd993b", "type": "electric_scooter", "is_disabled": 0, "lat": 38.920212666666664, "rental_uris": {"ios": "https://dc.lft.to/lastmile_qr_scan", "android": "https://dc.lft.to/lastmile_qr_scan"}, "is_reserved": 0, "fusion_lon": 0.0, "fusion_lat": 0.0, "lon": -77.03141583333333, "name": "8a8b337bf1cf4bfdd2ff106c49fd993b"}, {"bike_id": "a47035626b964053c624763f567571a5", "type": "electric_scooter", "is_disabled": 0, "lat": 38.928294, "rental_uris": {"ios": "https://dc.lft.to/lastmile_qr_scan", "android": "https://dc.lft.to/lastmile_qr_scan"}, "is_reserved": 0, "fusion_lon": 0.0, "fusion_lat": 0.0, "lon": -77.03277683333333, "name": "a47035626b964053c624763f567571a5"}, {"bike_id": "4d86a0c98e34f896d8f3393a1cd62ac9", "type": "electric_scooter", "is_disabled": 0, "lat": 38.9270175, "rental_uris": {"ios": "https://dc.lft.to/lastmile_qr_scan", "android": "https://dc.lft.to/lastmile_qr_scan"}, "is_reserved": 0, "fusion_lon": 0.0, "fusion_lat": 0.0, "lon": -77.037322, "name": "4d86a0c98e34f896d8f3393a1cd62ac9"}, {"bike_id": "b8ee690b4b7786d608b30a9abe54599b", "type": "electric_scooter", "is_disabled": 0, "lat": 38.95853266666667, "rental_uris": {"ios": "https://dc.lft.to/lastmile_qr_scan", "android": "https://dc.lft.to/lastmile_qr_scan"}, "is_reserved": 0, "fusion_lon": 0.0, "fusion_lat": 0.0, "lon": -77.02797416666667, "name": "b8ee690b4b7786d608b30a9abe54599b"}, {"bike_id": "2ae1d3ed3f8ce4e7de750770e45f005b", "type": "electric_scooter", "is_disabled": 0, "lat": 38.916070833333336, "rental_uris": {"ios": "https://dc.lft.to/lastmile_qr_scan", "android": "https://dc.lft.to/lastmile_qr_scan"}, "is_reserved": 0, "fusion_lon": 0.0, "fusion_lat": 0.0, "lon": -77.02959016666667, "name": "2ae1d3ed3f8ce4e7de750770e45f005b"}, {"bike_id": "943db025366f9da88a52545cacd81fe7", "type": "electric_scooter", "is_disabled": 0, "lat": 38.9163355, "rental_uris": {"ios": "https://dc.lft.to/lastmile_qr_scan", "android": "https://dc.lft.to/lastmile_qr_scan"}, "is_reserved": 0, "fusion_lon": 0.0, "fusion_lat": 0.0, "lon": -77.03958616666667, "name": "943db025366f9da88a52545cacd81fe7"}, {"bike_id": "98751658258f538f88b59ed91f857588", "type": "electric_scooter", "is_disabled": 0, "lat": 38.905725, "rental_uris": {"ios": "https://dc.lft.to/lastmile_qr_scan", "android": "https://dc.lft.to/lastmile_qr_scan"}, "is_reserved": 0, "fusion_lon": 0.0, "fusion_lat": 0.0, "lon": -77.00720116666666, "name": "98751658258f538f88b59ed91f857588"}, {"bike_id": "cd17ca7d0a6cc217d6533b1dc7d2a933", "type": "electric_scooter", "is_disabled": 0, "lat": 38.92821266666667, "rental_uris": {"ios": "https://dc.lft.to/lastmile_qr_scan", "android": "https://dc.lft.to/lastmile_qr_scan"}, "is_reserved": 0, "fusion_lon": 0.0, "fusion_lat": 0.0, "lon": -77.02812266666666, "name": "cd17ca7d0a6cc217d6533b1dc7d2a933"}, {"bike_id": "15eb0ced5a2a099a1ab40c0d06c69eb3", "type": "electric_scooter", "is_disabled": 0, "lat": 38.87512533333334, "rental_uris": {"ios": "https://dc.lft.to/lastmile_qr_scan", "android": "https://dc.lft.to/lastmile_qr_scan"}, "is_reserved": 0, "fusion_lon": 0.0, "fusion_lat": 0.0, "lon": -77.0011495, "name": "15eb0ced5a2a099a1ab40c0d06c69eb3"}, {"bike_id": "5587e007120cebaf0832346dab980a6b", "type": "electric_scooter", "is_disabled": 0, "lat": 38.9216285, "rental_uris": {"ios": "https://dc.lft.to/lastmile_qr_scan", "android": "https://dc.lft.to/lastmile_qr_scan"}, "is_reserved": 0, "fusion_lon": 0.0, "fusion_lat": 0.0, "lon": -77.03320866666667, "name": "5587e007120cebaf0832346dab980a6b"}, {"bike_id": "010d6add5cb178a45127fd0af2b9d0e7", "type": "electric_scooter", "is_disabled": 0, "lat": 38.91007, "rental_uris": {"ios": "https://dc.lft.to/lastmile_qr_scan", "android": "https://dc.lft.to/lastmile_qr_scan"}, "is_reserved": 0, "fusion_lon": 0.0, "fusion_lat": 0.0, "lon": -77.04009083333334, "name": "010d6add5cb178a45127fd0af2b9d0e7"}, {"bike_id": "51427ef46ef54c6b2a98b98a375f19a7", "type": "electric_scooter", "is_disabled": 0, "lat": 38.90532416666667, "rental_uris": {"ios": "https://dc.lft.to/lastmile_qr_scan", "android": "https://dc.lft.to/lastmile_qr_scan"}, "is_reserved": 0, "fusion_lon": 0.0, "fusion_lat": 0.0, "lon": -77.056821, "name": "51427ef46ef54c6b2a98b98a375f19a7"}, {"bike_id": "3d60b9579886e1cad722f733bc6d8410", "type": "electric_scooter", "is_disabled": 0, "lat": 38.90383716666667, "rental_uris": {"ios": "https://dc.lft.to/lastmile_qr_scan", "android": "https://dc.lft.to/lastmile_qr_scan"}, "is_reserved": 0, "fusion_lon": 0.0, "fusion_lat": 0.0, "lon": -77.03853533333333, "name": "3d60b9579886e1cad722f733bc6d8410"}, {"bike_id": "56e2fbd234ea4b4d2fe90c9ea997e336", "type": "electric_scooter", "is_disabled": 0, "lat": 38.92376133333333, "rental_uris": {"ios": "https://dc.lft.to/lastmile_qr_scan", "android": "https://dc.lft.to/lastmile_qr_scan"}, "is_reserved": 0, "fusion_lon": 0.0, "fusion_lat": 0.0, "lon": -77.05245766666667, "name": "56e2fbd234ea4b4d2fe90c9ea997e336"}, {"bike_id": "c12325cee76cb1888f349d59458dfa9f", "type": "electric_bike", "is_disabled": 0, "lat": 38.92435183333333, "rental_uris": {"ios": "https://dc.lft.to/lastmile_qr_scan", "android": "https://dc.lft.to/lastmile_qr_scan"}, "is_reserved": 0, "fusion_lon": 0.0, "fusion_lat": 0.0, "lon": -77.22579766666667, "name": "c12325cee76cb1888f349d59458dfa9f"}, {"bike_id": "e0d57cd094bc41b292c4f4aa395c5f64", "type": "electric_scooter", "is_disabled": 0, "lat": 38.912506, "rental_uris": {"ios": "https://dc.lft.to/lastmile_qr_scan", "android": "https://dc.lft.to/lastmile_qr_scan"}, "is_reserved": 0, "fusion_lon": 0.0, "fusion_lat": 0.0, "lon": -77.0321025, "name": "e0d57cd094bc41b292c4f4aa395c5f64"}, {"bike_id": "1657cc8e3437c5068a0adb3c19ebbcba", "type": "electric_scooter", "is_disabled": 0, "lat": 38.90642583333333, "rental_uris": {"ios": "https://dc.lft.to/lastmile_qr_scan", "android": "https://dc.lft.to/lastmile_qr_scan"}, "is_reserved": 0, "fusion_lon": 0.0, "fusion_lat": 0.0, "lon": -77.00989433333334, "name": "1657cc8e3437c5068a0adb3c19ebbcba"}, {"bike_id": "4d000cebf2401120df6082565088932a", "type": "electric_scooter", "is_disabled": 0, "lat": 38.923167, "rental_uris": {"ios": "https://dc.lft.to/lastmile_qr_scan", "android": "https://dc.lft.to/lastmile_qr_scan"}, "is_reserved": 0, "fusion_lon": 0.0, "fusion_lat": 0.0, "lon": -77.042032, "name": "4d000cebf2401120df6082565088932a"}, {"bike_id": "a4bcea0d3d8a93f8aa2b16e8aabe170a", "type": "electric_scooter", "is_disabled": 0, "lat": 38.911197, "rental_uris": {"ios": "https://dc.lft.to/lastmile_qr_scan", "android": "https://dc.lft.to/lastmile_qr_scan"}, "is_reserved": 0, "fusion_lon": 0.0, "fusion_lat": 0.0, "lon": -77.039164, "name": "a4bcea0d3d8a93f8aa2b16e8aabe170a"}, {"bike_id": "01cf93c717cdd47ecb7f955f3507d214", "type": "electric_scooter", "is_disabled": 0, "lat": 38.935282, "rental_uris": {"ios": "https://dc.lft.to/lastmile_qr_scan", "android": "https://dc.lft.to/lastmile_qr_scan"}, "is_reserved": 0, "fusion_lon": 0.0, "fusion_lat": 0.0, "lon": -77.029663, "name": "01cf93c717cdd47ecb7f955f3507d214"}, {"bike_id": "ca982fa1ef2a5e60ec9c46dc32c83b21", "type": "electric_scooter", "is_disabled": 0, "lat": 38.89271133333333, "rental_uris": {"ios": "https://dc.lft.to/lastmile_qr_scan", "android": "https://dc.lft.to/lastmile_qr_scan"}, "is_reserved": 0, "fusion_lon": 0.0, "fusion_lat": 0.0, "lon": -77.024374, "name": "ca982fa1ef2a5e60ec9c46dc32c83b21"}, {"bike_id": "c8b0284f1e9da61f38f6a330b453ec08", "type": "electric_bike", "is_disabled": 0, "lat": 38.94663516666667, "rental_uris": {"ios": "https://dc.lft.to/lastmile_qr_scan", "android": "https://dc.lft.to/lastmile_qr_scan"}, "is_reserved": 0, "fusion_lon": 0.0, "fusion_lat": 0.0, "lon": -76.95672483333334, "name": "c8b0284f1e9da61f38f6a330b453ec08"}, {"bike_id": "aac30503b89a05f9bcbb6925e8e5defe", "type": "electric_scooter", "is_disabled": 0, "lat": 38.9723575, "rental_uris": {"ios": "https://dc.lft.to/lastmile_qr_scan", "android": "https://dc.lft.to/lastmile_qr_scan"}, "is_reserved": 0, "fusion_lon": 0.0, "fusion_lat": 0.0, "lon": -77.02690916666667, "name": "aac30503b89a05f9bcbb6925e8e5defe"}, {"bike_id": "90fe1206fb59c2583084a8ced29f44ba", "type": "electric_bike", "is_disabled": 0, "lat": 38.95710233333333, "rental_uris": {"ios": "https://dc.lft.to/lastmile_qr_scan", "android": "https://dc.lft.to/lastmile_qr_scan"}, "is_reserved": 0, "fusion_lon": 0.0, "fusion_lat": 0.0, "lon": -77.002832, "name": "90fe1206fb59c2583084a8ced29f44ba"}, {"bike_id": "d7fbdbad2ff5fc62d3f5dfd8c3cf5682", "type": "electric_scooter", "is_disabled": 0, "lat": 38.91200583333333, "rental_uris": {"ios": "https://dc.lft.to/lastmile_qr_scan", "android": "https://dc.lft.to/lastmile_qr_scan"}, "is_reserved": 0, "fusion_lon": 0.0, "fusion_lat": 0.0, "lon": -77.073107, "name": "d7fbdbad2ff5fc62d3f5dfd8c3cf5682"}, {"bike_id": "0077e4f1d2ad1188c3b50eb781cf7fd4", "type": "electric_scooter", "is_disabled": 0, "lat": 38.876488333333334, "rental_uris": {"ios": "https://dc.lft.to/lastmile_qr_scan", "android": "https://dc.lft.to/lastmile_qr_scan"}, "is_reserved": 0, "fusion_lon": 0.0, "fusion_lat": 0.0, "lon": -76.96510033333334, "name": "0077e4f1d2ad1188c3b50eb781cf7fd4"}, {"bike_id": "7655e0c8eaabd48bb5e672b4bd2f95e0", "type": "electric_scooter", "is_disabled": 0, "lat": 38.92145133333333, "rental_uris": {"ios": "https://dc.lft.to/lastmile_qr_scan", "android": "https://dc.lft.to/lastmile_qr_scan"}, "is_reserved": 0, "fusion_lon": 0.0, "fusion_lat": 0.0, "lon": -77.04140433333333, "name": "7655e0c8eaabd48bb5e672b4bd2f95e0"}, {"bike_id": "4c279d8d74cd37d70ff26a0e8a8c8ecc", "type": "electric_scooter", "is_disabled": 0, "lat": 38.8793515, "rental_uris": {"ios": "https://dc.lft.to/lastmile_qr_scan", "android": "https://dc.lft.to/lastmile_qr_scan"}, "is_reserved": 0, "fusion_lon": 0.0, "fusion_lat": 0.0, "lon": -77.02363033333333, "name": "4c279d8d74cd37d70ff26a0e8a8c8ecc"}, {"bike_id": "68b75c9be973187fae96768525bdaf86", "type": "electric_scooter", "is_disabled": 0, "lat": 38.9231615, "rental_uris": {"ios": "https://dc.lft.to/lastmile_qr_scan", "android": "https://dc.lft.to/lastmile_qr_scan"}, "is_reserved": 0, "fusion_lon": 0.0, "fusion_lat": 0.0, "lon": -77.03910366666666, "name": "68b75c9be973187fae96768525bdaf86"}, {"bike_id": "a16e795173eaead6ac6b93c90fbec957", "type": "electric_scooter", "is_disabled": 0, "lat": 38.92053516666667, "rental_uris": {"ios": "https://dc.lft.to/lastmile_qr_scan", "android": "https://dc.lft.to/lastmile_qr_scan"}, "is_reserved": 0, "fusion_lon": 0.0, "fusion_lat": 0.0, "lon": -77.0340215, "name": "a16e795173eaead6ac6b93c90fbec957"}, {"bike_id": "653c2f023975c6f416bdf0659e021664", "type": "electric_bike", "is_disabled": 0, "lat": 38.9087625, "rental_uris": {"ios": "https://dc.lft.to/lastmile_qr_scan", "android": "https://dc.lft.to/lastmile_qr_scan"}, "is_reserved": 0, "fusion_lon": 0.0, "fusion_lat": 0.0, "lon": -76.99133366666666, "name": "653c2f023975c6f416bdf0659e021664"}, {"bike_id": "994951c37cde74dada2bbf0791762dc5", "type": "electric_scooter", "is_disabled": 0, "lat": 38.893241, "rental_uris": {"ios": "https://dc.lft.to/lastmile_qr_scan", "android": "https://dc.lft.to/lastmile_qr_scan"}, "is_reserved": 0, "fusion_lon": 0.0, "fusion_lat": 0.0, "lon": -77.0319915, "name": "994951c37cde74dada2bbf0791762dc5"}, {"bike_id": "76542c060a490030d81493341bf094f6", "type": "electric_scooter", "is_disabled": 0, "lat": 38.90719583333333, "rental_uris": {"ios": "https://dc.lft.to/lastmile_qr_scan", "android": "https://dc.lft.to/lastmile_qr_scan"}, "is_reserved": 0, "fusion_lon": 0.0, "fusion_lat": 0.0, "lon": -77.033605, "name": "76542c060a490030d81493341bf094f6"}, {"bike_id": "b78503f4469542cb6809253a7a57c677", "type": "electric_scooter", "is_disabled": 0, "lat": 38.91105733333333, "rental_uris": {"ios": "https://dc.lft.to/lastmile_qr_scan", "android": "https://dc.lft.to/lastmile_qr_scan"}, "is_reserved": 0, "fusion_lon": 0.0, "fusion_lat": 0.0, "lon": -77.00217416666666, "name": "b78503f4469542cb6809253a7a57c677"}, {"bike_id": "a40f437d163e33e07e470b9a9ba65af5", "type": "electric_scooter", "is_disabled": 0, "lat": 38.902779833333334, "rental_uris": {"ios": "https://dc.lft.to/lastmile_qr_scan", "android": "https://dc.lft.to/lastmile_qr_scan"}, "is_reserved": 0, "fusion_lon": 0.0, "fusion_lat": 0.0, "lon": -77.02316, "name": "a40f437d163e33e07e470b9a9ba65af5"}, {"bike_id": "1da81c1c72a785551b9fdae7b6548a4a", "type": "electric_scooter", "is_disabled": 0, "lat": 38.950036833333336, "rental_uris": {"ios": "https://dc.lft.to/lastmile_qr_scan", "android": "https://dc.lft.to/lastmile_qr_scan"}, "is_reserved": 0, "fusion_lon": 0.0, "fusion_lat": 0.0, "lon": -77.01556966666666, "name": "1da81c1c72a785551b9fdae7b6548a4a"}, {"bike_id": "56abc0f88e6d990bada0e2014838bc01", "type": "electric_scooter", "is_disabled": 0, "lat": 38.956675, "rental_uris": {"ios": "https://dc.lft.to/lastmile_qr_scan", "android": "https://dc.lft.to/lastmile_qr_scan"}, "is_reserved": 0, "fusion_lon": 0.0, "fusion_lat": 0.0, "lon": -77.0240105, "name": "56abc0f88e6d990bada0e2014838bc01"}, {"bike_id": "951ed30545701c0cad2341b41815dc06", "type": "electric_scooter", "is_disabled": 0, "lat": 38.8900645, "rental_uris": {"ios": "https://dc.lft.to/lastmile_qr_scan", "android": "https://dc.lft.to/lastmile_qr_scan"}, "is_reserved": 0, "fusion_lon": 0.0, "fusion_lat": 0.0, "lon": -76.93745166666666, "name": "951ed30545701c0cad2341b41815dc06"}, {"bike_id": "0bb7878d1fad19f8691140291ca6c8df", "type": "electric_scooter", "is_disabled": 0, "lat": 38.917115333333335, "rental_uris": {"ios": "https://dc.lft.to/lastmile_qr_scan", "android": "https://dc.lft.to/lastmile_qr_scan"}, "is_reserved": 0, "fusion_lon": 0.0, "fusion_lat": 0.0, "lon": -77.0238555, "name": "0bb7878d1fad19f8691140291ca6c8df"}, {"bike_id": "a1fc7c1ee62de89675b918159e608b4b", "type": "electric_scooter", "is_disabled": 0, "lat": 38.923148833333336, "rental_uris": {"ios": "https://dc.lft.to/lastmile_qr_scan", "android": "https://dc.lft.to/lastmile_qr_scan"}, "is_reserved": 0, "fusion_lon": 0.0, "fusion_lat": 0.0, "lon": -77.03880416666667, "name": "a1fc7c1ee62de89675b918159e608b4b"}, {"bike_id": "f24d5e6fc16088ab2cbb4a8318302703", "type": "electric_bike", "is_disabled": 0, "lat": 38.987758166666666, "rental_uris": {"ios": "https://dc.lft.to/lastmile_qr_scan", "android": "https://dc.lft.to/lastmile_qr_scan"}, "is_reserved": 0, "fusion_lon": 0.0, "fusion_lat": 0.0, "lon": -77.0264335, "name": "f24d5e6fc16088ab2cbb4a8318302703"}, {"bike_id": "5b55ff26acc0c9a7a56558ed53cf1eee", "type": "electric_scooter", "is_disabled": 0, "lat": 38.92317766666667, "rental_uris": {"ios": "https://dc.lft.to/lastmile_qr_scan", "android": "https://dc.lft.to/lastmile_qr_scan"}, "is_reserved": 0, "fusion_lon": 0.0, "fusion_lat": 0.0, "lon": -77.03914166666667, "name": "5b55ff26acc0c9a7a56558ed53cf1eee"}, {"bike_id": "3ee2f3616c5629a8b309e04a3ac7aceb", "type": "electric_scooter", "is_disabled": 0, "lat": 38.871780333333334, "rental_uris": {"ios": "https://dc.lft.to/lastmile_qr_scan", "android": "https://dc.lft.to/lastmile_qr_scan"}, "is_reserved": 0, "fusion_lon": 0.0, "fusion_lat": 0.0, "lon": -77.006123, "name": "3ee2f3616c5629a8b309e04a3ac7aceb"}, {"bike_id": "e678577a10e94411dc3a7648d223ee18", "type": "electric_scooter", "is_disabled": 0, "lat": 38.876561, "rental_uris": {"ios": "https://dc.lft.to/lastmile_qr_scan", "android": "https://dc.lft.to/lastmile_qr_scan"}, "is_reserved": 0, "fusion_lon": 0.0, "fusion_lat": 0.0, "lon": -77.00753266666666, "name": "e678577a10e94411dc3a7648d223ee18"}, {"bike_id": "b55f0dd45498a8a7c30372152224b94a", "type": "electric_scooter", "is_disabled": 0, "lat": 38.86246283333333, "rental_uris": {"ios": "https://dc.lft.to/lastmile_qr_scan", "android": "https://dc.lft.to/lastmile_qr_scan"}, "is_reserved": 0, "fusion_lon": 0.0, "fusion_lat": 0.0, "lon": -76.995023, "name": "b55f0dd45498a8a7c30372152224b94a"}, {"bike_id": "d4180e062eb31cff0b77d0447705b752", "type": "electric_scooter", "is_disabled": 0, "lat": 38.9025335, "rental_uris": {"ios": "https://dc.lft.to/lastmile_qr_scan", "android": "https://dc.lft.to/lastmile_qr_scan"}, "is_reserved": 0, "fusion_lon": 0.0, "fusion_lat": 0.0, "lon": -77.04133683333333, "name": "d4180e062eb31cff0b77d0447705b752"}, {"bike_id": "f931e6ae7a6754c364384991d4f56958", "type": "electric_scooter", "is_disabled": 0, "lat": 38.900195333333336, "rental_uris": {"ios": "https://dc.lft.to/lastmile_qr_scan", "android": "https://dc.lft.to/lastmile_qr_scan"}, "is_reserved": 0, "fusion_lon": 0.0, "fusion_lat": 0.0, "lon": -76.998118, "name": "f931e6ae7a6754c364384991d4f56958"}, {"bike_id": "c7d91965956ac782bea10ec229e923f8", "type": "electric_scooter", "is_disabled": 0, "lat": 38.92673883333333, "rental_uris": {"ios": "https://dc.lft.to/lastmile_qr_scan", "android": "https://dc.lft.to/lastmile_qr_scan"}, "is_reserved": 0, "fusion_lon": 0.0, "fusion_lat": 0.0, "lon": -77.0150835, "name": "c7d91965956ac782bea10ec229e923f8"}, {"bike_id": "30b3f8d1c0bb3d117605cfe56d596cfe", "type": "electric_scooter", "is_disabled": 0, "lat": 38.90193766666667, "rental_uris": {"ios": "https://dc.lft.to/lastmile_qr_scan", "android": "https://dc.lft.to/lastmile_qr_scan"}, "is_reserved": 0, "fusion_lon": 0.0, "fusion_lat": 0.0, "lon": -77.03947866666667, "name": "30b3f8d1c0bb3d117605cfe56d596cfe"}, {"bike_id": "bcdf2792ad971ce31e7d522d3259a7c8", "type": "electric_scooter", "is_disabled": 0, "lat": 38.91951916666667, "rental_uris": {"ios": "https://dc.lft.to/lastmile_qr_scan", "android": "https://dc.lft.to/lastmile_qr_scan"}, "is_reserved": 0, "fusion_lon": 0.0, "fusion_lat": 0.0, "lon": -77.0488765, "name": "bcdf2792ad971ce31e7d522d3259a7c8"}, {"bike_id": "fa019edea3b7732e3b561b9de306f40f", "type": "electric_scooter", "is_disabled": 0, "lat": 38.928676333333335, "rental_uris": {"ios": "https://dc.lft.to/lastmile_qr_scan", "android": "https://dc.lft.to/lastmile_qr_scan"}, "is_reserved": 0, "fusion_lon": 0.0, "fusion_lat": 0.0, "lon": -77.02179833333334, "name": "fa019edea3b7732e3b561b9de306f40f"}, {"bike_id": "be1a68a3b44281218cbec319795100f4", "type": "electric_bike", "is_disabled": 0, "lat": 38.85440933333334, "rental_uris": {"ios": "https://dc.lft.to/lastmile_qr_scan", "android": "https://dc.lft.to/lastmile_qr_scan"}, "is_reserved": 0, "fusion_lon": 0.0, "fusion_lat": 0.0, "lon": -77.083096, "name": "be1a68a3b44281218cbec319795100f4"}, {"bike_id": "d22f30c4416069b5a8c314ba83e62f73", "type": "electric_scooter", "is_disabled": 0, "lat": 38.9208115, "rental_uris": {"ios": "https://dc.lft.to/lastmile_qr_scan", "android": "https://dc.lft.to/lastmile_qr_scan"}, "is_reserved": 0, "fusion_lon": 0.0, "fusion_lat": 0.0, "lon": -77.00443283333334, "name": "d22f30c4416069b5a8c314ba83e62f73"}, {"bike_id": "5ea07d8aed90f7575513596b4750f592", "type": "electric_scooter", "is_disabled": 0, "lat": 38.95217866666667, "rental_uris": {"ios": "https://dc.lft.to/lastmile_qr_scan", "android": "https://dc.lft.to/lastmile_qr_scan"}, "is_reserved": 0, "fusion_lon": 0.0, "fusion_lat": 0.0, "lon": -77.07067983333333, "name": "5ea07d8aed90f7575513596b4750f592"}, {"bike_id": "6676bcb01a3444e1d40ca177327421ce", "type": "electric_scooter", "is_disabled": 0, "lat": 38.909690499999996, "rental_uris": {"ios": "https://dc.lft.to/lastmile_qr_scan", "android": "https://dc.lft.to/lastmile_qr_scan"}, "is_reserved": 0, "fusion_lon": 0.0, "fusion_lat": 0.0, "lon": -77.022169, "name": "6676bcb01a3444e1d40ca177327421ce"}, {"bike_id": "ce0e33147937a56d3fbe59ff10abab8f", "type": "electric_scooter", "is_disabled": 0, "lat": 38.9086925, "rental_uris": {"ios": "https://dc.lft.to/lastmile_qr_scan", "android": "https://dc.lft.to/lastmile_qr_scan"}, "is_reserved": 0, "fusion_lon": 0.0, "fusion_lat": 0.0, "lon": -77.03223066666666, "name": "ce0e33147937a56d3fbe59ff10abab8f"}, {"bike_id": "8147f1c12a851545b8dab6be2f79341e", "type": "electric_scooter", "is_disabled": 0, "lat": 38.8762585, "rental_uris": {"ios": "https://dc.lft.to/lastmile_qr_scan", "android": "https://dc.lft.to/lastmile_qr_scan"}, "is_reserved": 0, "fusion_lon": 0.0, "fusion_lat": 0.0, "lon": -77.00062766666667, "name": "8147f1c12a851545b8dab6be2f79341e"}, {"bike_id": "e9e9004e525549dbaa7304f19642ec23", "type": "electric_scooter", "is_disabled": 0, "lat": 38.90384433333333, "rental_uris": {"ios": "https://dc.lft.to/lastmile_qr_scan", "android": "https://dc.lft.to/lastmile_qr_scan"}, "is_reserved": 0, "fusion_lon": 0.0, "fusion_lat": 0.0, "lon": -77.0683915, "name": "e9e9004e525549dbaa7304f19642ec23"}, {"bike_id": "f1421bc76ddc92cedb88c7f804a14b54", "type": "electric_scooter", "is_disabled": 0, "lat": 38.9429605, "rental_uris": {"ios": "https://dc.lft.to/lastmile_qr_scan", "android": "https://dc.lft.to/lastmile_qr_scan"}, "is_reserved": 0, "fusion_lon": 0.0, "fusion_lat": 0.0, "lon": -77.00489016666667, "name": "f1421bc76ddc92cedb88c7f804a14b54"}, {"bike_id": "3eaa2df065322001186c7ea80ae9a3db", "type": "electric_scooter", "is_disabled": 0, "lat": 38.91004233333334, "rental_uris": {"ios": "https://dc.lft.to/lastmile_qr_scan", "android": "https://dc.lft.to/lastmile_qr_scan"}, "is_reserved": 0, "fusion_lon": 0.0, "fusion_lat": 0.0, "lon": -77.052913, "name": "3eaa2df065322001186c7ea80ae9a3db"}, {"bike_id": "1345630503e81fd368a83e1c9ba35173", "type": "electric_scooter", "is_disabled": 0, "lat": 38.927352, "rental_uris": {"ios": "https://dc.lft.to/lastmile_qr_scan", "android": "https://dc.lft.to/lastmile_qr_scan"}, "is_reserved": 0, "fusion_lon": 0.0, "fusion_lat": 0.0, "lon": -77.034357, "name": "1345630503e81fd368a83e1c9ba35173"}, {"bike_id": "37dcc646dc3fe475f83681617de03e3c", "type": "electric_scooter", "is_disabled": 0, "lat": 38.931924333333335, "rental_uris": {"ios": "https://dc.lft.to/lastmile_qr_scan", "android": "https://dc.lft.to/lastmile_qr_scan"}, "is_reserved": 0, "fusion_lon": 0.0, "fusion_lat": 0.0, "lon": -77.0202415, "name": "37dcc646dc3fe475f83681617de03e3c"}, {"bike_id": "f6e820a793aad0d8340260e766555a71", "type": "electric_scooter", "is_disabled": 0, "lat": 38.914208, "rental_uris": {"ios": "https://dc.lft.to/lastmile_qr_scan", "android": "https://dc.lft.to/lastmile_qr_scan"}, "is_reserved": 0, "fusion_lon": 0.0, "fusion_lat": 0.0, "lon": -77.03177983333333, "name": "f6e820a793aad0d8340260e766555a71"}, {"bike_id": "c02ec0666f0dfc94b1b0e56a93050765", "type": "electric_scooter", "is_disabled": 0, "lat": 38.9069705, "rental_uris": {"ios": "https://dc.lft.to/lastmile_qr_scan", "android": "https://dc.lft.to/lastmile_qr_scan"}, "is_reserved": 0, "fusion_lon": 0.0, "fusion_lat": 0.0, "lon": -77.06513666666666, "name": "c02ec0666f0dfc94b1b0e56a93050765"}, {"bike_id": "af561e6114717f2e4c1f6ae2b1a11cb6", "type": "electric_scooter", "is_disabled": 0, "lat": 38.95599216666667, "rental_uris": {"ios": "https://dc.lft.to/lastmile_qr_scan", "android": "https://dc.lft.to/lastmile_qr_scan"}, "is_reserved": 0, "fusion_lon": 0.0, "fusion_lat": 0.0, "lon": -77.00100833333333, "name": "af561e6114717f2e4c1f6ae2b1a11cb6"}, {"bike_id": "1424104cf18116b64f4fa2cf3c1cce8e", "type": "electric_scooter", "is_disabled": 0, "lat": 38.922776666666664, "rental_uris": {"ios": "https://dc.lft.to/lastmile_qr_scan", "android": "https://dc.lft.to/lastmile_qr_scan"}, "is_reserved": 0, "fusion_lon": 0.0, "fusion_lat": 0.0, "lon": -76.98632616666667, "name": "1424104cf18116b64f4fa2cf3c1cce8e"}, {"bike_id": "8d3d45f1db10f65ce76d7d7cb0130f4c", "type": "electric_scooter", "is_disabled": 0, "lat": 38.920162, "rental_uris": {"ios": "https://dc.lft.to/lastmile_qr_scan", "android": "https://dc.lft.to/lastmile_qr_scan"}, "is_reserved": 0, "fusion_lon": 0.0, "fusion_lat": 0.0, "lon": -77.0279655, "name": "8d3d45f1db10f65ce76d7d7cb0130f4c"}, {"bike_id": "e69e384f6609b793001437972601de83", "type": "electric_scooter", "is_disabled": 0, "lat": 38.862464333333335, "rental_uris": {"ios": "https://dc.lft.to/lastmile_qr_scan", "android": "https://dc.lft.to/lastmile_qr_scan"}, "is_reserved": 0, "fusion_lon": 0.0, "fusion_lat": 0.0, "lon": -76.995045, "name": "e69e384f6609b793001437972601de83"}, {"bike_id": "0ba41498e7129e05ab9232fc24d9e2b8", "type": "electric_scooter", "is_disabled": 0, "lat": 38.917775166666665, "rental_uris": {"ios": "https://dc.lft.to/lastmile_qr_scan", "android": "https://dc.lft.to/lastmile_qr_scan"}, "is_reserved": 0, "fusion_lon": 0.0, "fusion_lat": 0.0, "lon": -77.02412033333333, "name": "0ba41498e7129e05ab9232fc24d9e2b8"}, {"bike_id": "1c087d83855645ff2dc2af8732095d05", "type": "electric_scooter", "is_disabled": 0, "lat": 38.880585833333335, "rental_uris": {"ios": "https://dc.lft.to/lastmile_qr_scan", "android": "https://dc.lft.to/lastmile_qr_scan"}, "is_reserved": 0, "fusion_lon": 0.0, "fusion_lat": 0.0, "lon": -76.932176, "name": "1c087d83855645ff2dc2af8732095d05"}, {"bike_id": "edcce6ea7e41811a4ba700d87554f9be", "type": "electric_scooter", "is_disabled": 0, "lat": 38.90591333333333, "rental_uris": {"ios": "https://dc.lft.to/lastmile_qr_scan", "android": "https://dc.lft.to/lastmile_qr_scan"}, "is_reserved": 0, "fusion_lon": 0.0, "fusion_lat": 0.0, "lon": -77.07005133333334, "name": "edcce6ea7e41811a4ba700d87554f9be"}, {"bike_id": "79ec6cc5945b6bedf0f26dfc35c65377", "type": "electric_scooter", "is_disabled": 0, "lat": 38.921304, "rental_uris": {"ios": "https://dc.lft.to/lastmile_qr_scan", "android": "https://dc.lft.to/lastmile_qr_scan"}, "is_reserved": 0, "fusion_lon": 0.0, "fusion_lat": 0.0, "lon": -77.01804766666666, "name": "79ec6cc5945b6bedf0f26dfc35c65377"}, {"bike_id": "00719b206dc5e4bd92129d810686aa94", "type": "electric_scooter", "is_disabled": 0, "lat": 38.917299166666666, "rental_uris": {"ios": "https://dc.lft.to/lastmile_qr_scan", "android": "https://dc.lft.to/lastmile_qr_scan"}, "is_reserved": 0, "fusion_lon": 0.0, "fusion_lat": 0.0, "lon": -77.04167933333333, "name": "00719b206dc5e4bd92129d810686aa94"}, {"bike_id": "fc508cce101b3bf6eefe22fc6cdeec13", "type": "electric_scooter", "is_disabled": 0, "lat": 38.92114766666667, "rental_uris": {"ios": "https://dc.lft.to/lastmile_qr_scan", "android": "https://dc.lft.to/lastmile_qr_scan"}, "is_reserved": 0, "fusion_lon": 0.0, "fusion_lat": 0.0, "lon": -77.04229316666667, "name": "fc508cce101b3bf6eefe22fc6cdeec13"}, {"bike_id": "237b23347e8f26fd14184c7e52a4979a", "type": "electric_scooter", "is_disabled": 0, "lat": 38.92221166666667, "rental_uris": {"ios": "https://dc.lft.to/lastmile_qr_scan", "android": "https://dc.lft.to/lastmile_qr_scan"}, "is_reserved": 0, "fusion_lon": 0.0, "fusion_lat": 0.0, "lon": -77.02669416666667, "name": "237b23347e8f26fd14184c7e52a4979a"}, {"bike_id": "c5f4b159ae7aa095c29956ecb9b6586b", "type": "electric_scooter", "is_disabled": 0, "lat": 38.914240166666666, "rental_uris": {"ios": "https://dc.lft.to/lastmile_qr_scan", "android": "https://dc.lft.to/lastmile_qr_scan"}, "is_reserved": 0, "fusion_lon": 0.0, "fusion_lat": 0.0, "lon": -77.032548, "name": "c5f4b159ae7aa095c29956ecb9b6586b"}, {"bike_id": "3ca69588339f6e3608561af0fdd237dc", "type": "electric_scooter", "is_disabled": 0, "lat": 38.908316, "rental_uris": {"ios": "https://dc.lft.to/lastmile_qr_scan", "android": "https://dc.lft.to/lastmile_qr_scan"}, "is_reserved": 0, "fusion_lon": 0.0, "fusion_lat": 0.0, "lon": -77.04351083333333, "name": "3ca69588339f6e3608561af0fdd237dc"}, {"bike_id": "8dc5b1f6346911425d1f9ae7ef9d931b", "type": "electric_scooter", "is_disabled": 0, "lat": 38.91886783333333, "rental_uris": {"ios": "https://dc.lft.to/lastmile_qr_scan", "android": "https://dc.lft.to/lastmile_qr_scan"}, "is_reserved": 0, "fusion_lon": 0.0, "fusion_lat": 0.0, "lon": -77.03483866666667, "name": "8dc5b1f6346911425d1f9ae7ef9d931b"}, {"bike_id": "44c049146c303e2aa33467d597fb95b6", "type": "electric_scooter", "is_disabled": 0, "lat": 38.923633833333334, "rental_uris": {"ios": "https://dc.lft.to/lastmile_qr_scan", "android": "https://dc.lft.to/lastmile_qr_scan"}, "is_reserved": 0, "fusion_lon": 0.0, "fusion_lat": 0.0, "lon": -77.0513295, "name": "44c049146c303e2aa33467d597fb95b6"}, {"bike_id": "34938b9ab6ef7a606c8e435a805d1c5d", "type": "electric_scooter", "is_disabled": 0, "lat": 38.91698616666667, "rental_uris": {"ios": "https://dc.lft.to/lastmile_qr_scan", "android": "https://dc.lft.to/lastmile_qr_scan"}, "is_reserved": 0, "fusion_lon": 0.0, "fusion_lat": 0.0, "lon": -77.0105195, "name": "34938b9ab6ef7a606c8e435a805d1c5d"}, {"bike_id": "deca3b742ea9a164027626beebcd2ec7", "type": "electric_scooter", "is_disabled": 0, "lat": 38.9156325, "rental_uris": {"ios": "https://dc.lft.to/lastmile_qr_scan", "android": "https://dc.lft.to/lastmile_qr_scan"}, "is_reserved": 0, "fusion_lon": 0.0, "fusion_lat": 0.0, "lon": -77.03250483333333, "name": "deca3b742ea9a164027626beebcd2ec7"}, {"bike_id": "464f1699a9406de2a51098b20ff70db8", "type": "electric_scooter", "is_disabled": 0, "lat": 38.92835683333333, "rental_uris": {"ios": "https://dc.lft.to/lastmile_qr_scan", "android": "https://dc.lft.to/lastmile_qr_scan"}, "is_reserved": 0, "fusion_lon": 0.0, "fusion_lat": 0.0, "lon": -77.03289883333333, "name": "464f1699a9406de2a51098b20ff70db8"}, {"bike_id": "c4b90dce6925ada91ad0e0b59859b2c6", "type": "electric_scooter", "is_disabled": 0, "lat": 38.91785516666667, "rental_uris": {"ios": "https://dc.lft.to/lastmile_qr_scan", "android": "https://dc.lft.to/lastmile_qr_scan"}, "is_reserved": 0, "fusion_lon": 0.0, "fusion_lat": 0.0, "lon": -77.04220866666667, "name": "c4b90dce6925ada91ad0e0b59859b2c6"}, {"bike_id": "52bffcd61f6318857d2ecbdb882e40bf", "type": "electric_scooter", "is_disabled": 0, "lat": 38.9095855, "rental_uris": {"ios": "https://dc.lft.to/lastmile_qr_scan", "android": "https://dc.lft.to/lastmile_qr_scan"}, "is_reserved": 0, "fusion_lon": 0.0, "fusion_lat": 0.0, "lon": -77.045146, "name": "52bffcd61f6318857d2ecbdb882e40bf"}, {"bike_id": "33b26129830dcc2997e846e21fa6350d", "type": "electric_scooter", "is_disabled": 0, "lat": 38.936409, "rental_uris": {"ios": "https://dc.lft.to/lastmile_qr_scan", "android": "https://dc.lft.to/lastmile_qr_scan"}, "is_reserved": 0, "fusion_lon": 0.0, "fusion_lat": 0.0, "lon": -77.05887066666666, "name": "33b26129830dcc2997e846e21fa6350d"}, {"bike_id": "c745b22b5cc2125e95f6a878aae3810f", "type": "electric_scooter", "is_disabled": 0, "lat": 38.902778833333336, "rental_uris": {"ios": "https://dc.lft.to/lastmile_qr_scan", "android": "https://dc.lft.to/lastmile_qr_scan"}, "is_reserved": 0, "fusion_lon": 0.0, "fusion_lat": 0.0, "lon": -77.0580695, "name": "c745b22b5cc2125e95f6a878aae3810f"}, {"bike_id": "9d83c05cb719210ca25671d3fc144f65", "type": "electric_scooter", "is_disabled": 0, "lat": 38.87072416666667, "rental_uris": {"ios": "https://dc.lft.to/lastmile_qr_scan", "android": "https://dc.lft.to/lastmile_qr_scan"}, "is_reserved": 0, "fusion_lon": 0.0, "fusion_lat": 0.0, "lon": -76.98133733333333, "name": "9d83c05cb719210ca25671d3fc144f65"}, {"bike_id": "843a4191e0965ef1923dd6dd0ad7e0e4", "type": "electric_scooter", "is_disabled": 0, "lat": 38.933138, "rental_uris": {"ios": "https://dc.lft.to/lastmile_qr_scan", "android": "https://dc.lft.to/lastmile_qr_scan"}, "is_reserved": 0, "fusion_lon": 0.0, "fusion_lat": 0.0, "lon": -77.07224166666667, "name": "843a4191e0965ef1923dd6dd0ad7e0e4"}, {"bike_id": "8ee20775a52dca1a58db02a426ad4790", "type": "electric_scooter", "is_disabled": 0, "lat": 38.932501333333335, "rental_uris": {"ios": "https://dc.lft.to/lastmile_qr_scan", "android": "https://dc.lft.to/lastmile_qr_scan"}, "is_reserved": 0, "fusion_lon": 0.0, "fusion_lat": 0.0, "lon": -77.02000783333334, "name": "8ee20775a52dca1a58db02a426ad4790"}, {"bike_id": "7e53cb3570b7a029a669a38cbe99e392", "type": "electric_scooter", "is_disabled": 0, "lat": 38.92614833333333, "rental_uris": {"ios": "https://dc.lft.to/lastmile_qr_scan", "android": "https://dc.lft.to/lastmile_qr_scan"}, "is_reserved": 0, "fusion_lon": 0.0, "fusion_lat": 0.0, "lon": -77.0216105, "name": "7e53cb3570b7a029a669a38cbe99e392"}, {"bike_id": "0a3038b4afff0542c822661910b90e3d", "type": "electric_scooter", "is_disabled": 0, "lat": 38.90677616666667, "rental_uris": {"ios": "https://dc.lft.to/lastmile_qr_scan", "android": "https://dc.lft.to/lastmile_qr_scan"}, "is_reserved": 0, "fusion_lon": 0.0, "fusion_lat": 0.0, "lon": -77.02387166666666, "name": "0a3038b4afff0542c822661910b90e3d"}, {"bike_id": "71f18d26bffb106e7fb99022d5c3b1d0", "type": "electric_scooter", "is_disabled": 0, "lat": 38.898459, "rental_uris": {"ios": "https://dc.lft.to/lastmile_qr_scan", "android": "https://dc.lft.to/lastmile_qr_scan"}, "is_reserved": 0, "fusion_lon": 0.0, "fusion_lat": 0.0, "lon": -76.9463085, "name": "71f18d26bffb106e7fb99022d5c3b1d0"}, {"bike_id": "dd80e1626cb7033b39dabe27c587b603", "type": "electric_bike", "is_disabled": 0, "lat": 39.054981833333336, "rental_uris": {"ios": "https://dc.lft.to/lastmile_qr_scan", "android": "https://dc.lft.to/lastmile_qr_scan"}, "is_reserved": 0, "fusion_lon": 0.0, "fusion_lat": 0.0, "lon": -77.046476, "name": "dd80e1626cb7033b39dabe27c587b603"}, {"bike_id": "923ddb4320a28a23b5288f9eb75dcbf4", "type": "electric_bike", "is_disabled": 0, "lat": 38.92966033333333, "rental_uris": {"ios": "https://dc.lft.to/lastmile_qr_scan", "android": "https://dc.lft.to/lastmile_qr_scan"}, "is_reserved": 0, "fusion_lon": 0.0, "fusion_lat": 0.0, "lon": -77.18566633333333, "name": "923ddb4320a28a23b5288f9eb75dcbf4"}, {"bike_id": "1f4e797c93dd0eadfba48e296df6bc6a", "type": "electric_scooter", "is_disabled": 0, "lat": 38.903313833333335, "rental_uris": {"ios": "https://dc.lft.to/lastmile_qr_scan", "android": "https://dc.lft.to/lastmile_qr_scan"}, "is_reserved": 0, "fusion_lon": 0.0, "fusion_lat": 0.0, "lon": -77.05260116666666, "name": "1f4e797c93dd0eadfba48e296df6bc6a"}, {"bike_id": "f7cbf6bd99b1ed5aa8c0955e4baaf8ec", "type": "electric_bike", "is_disabled": 0, "lat": 38.97160733333333, "rental_uris": {"ios": "https://dc.lft.to/lastmile_qr_scan", "android": "https://dc.lft.to/lastmile_qr_scan"}, "is_reserved": 0, "fusion_lon": 0.0, "fusion_lat": 0.0, "lon": -77.02723816666666, "name": "f7cbf6bd99b1ed5aa8c0955e4baaf8ec"}, {"bike_id": "6a0f85d98216c3d7d633a27e02467c0d", "type": "electric_scooter", "is_disabled": 0, "lat": 38.884753833333335, "rental_uris": {"ios": "https://dc.lft.to/lastmile_qr_scan", "android": "https://dc.lft.to/lastmile_qr_scan"}, "is_reserved": 0, "fusion_lon": 0.0, "fusion_lat": 0.0, "lon": -77.014959, "name": "6a0f85d98216c3d7d633a27e02467c0d"}, {"bike_id": "0f9fe6db87077212bfc9918bb937af27", "type": "electric_scooter", "is_disabled": 0, "lat": 38.926853, "rental_uris": {"ios": "https://dc.lft.to/lastmile_qr_scan", "android": "https://dc.lft.to/lastmile_qr_scan"}, "is_reserved": 0, "fusion_lon": 0.0, "fusion_lat": 0.0, "lon": -77.021585, "name": "0f9fe6db87077212bfc9918bb937af27"}, {"bike_id": "6916a6133e418ce95e1273d31cf1fcff", "type": "electric_scooter", "is_disabled": 0, "lat": 38.9334225, "rental_uris": {"ios": "https://dc.lft.to/lastmile_qr_scan", "android": "https://dc.lft.to/lastmile_qr_scan"}, "is_reserved": 0, "fusion_lon": 0.0, "fusion_lat": 0.0, "lon": -77.023789, "name": "6916a6133e418ce95e1273d31cf1fcff"}, {"bike_id": "88c0d7aa32a47c5d7bf36484fec73e2b", "type": "electric_scooter", "is_disabled": 0, "lat": 38.956892, "rental_uris": {"ios": "https://dc.lft.to/lastmile_qr_scan", "android": "https://dc.lft.to/lastmile_qr_scan"}, "is_reserved": 0, "fusion_lon": 0.0, "fusion_lat": 0.0, "lon": -77.02403783333334, "name": "88c0d7aa32a47c5d7bf36484fec73e2b"}, {"bike_id": "1599fca182fc079354dd2c86a2fae720", "type": "electric_scooter", "is_disabled": 0, "lat": 38.90730116666667, "rental_uris": {"ios": "https://dc.lft.to/lastmile_qr_scan", "android": "https://dc.lft.to/lastmile_qr_scan"}, "is_reserved": 0, "fusion_lon": 0.0, "fusion_lat": 0.0, "lon": -77.05326533333333, "name": "1599fca182fc079354dd2c86a2fae720"}, {"bike_id": "55f63dbbfa07937ba0daaf4484b9f214", "type": "electric_scooter", "is_disabled": 0, "lat": 38.91430666666667, "rental_uris": {"ios": "https://dc.lft.to/lastmile_qr_scan", "android": "https://dc.lft.to/lastmile_qr_scan"}, "is_reserved": 0, "fusion_lon": 0.0, "fusion_lat": 0.0, "lon": -77.018917, "name": "55f63dbbfa07937ba0daaf4484b9f214"}, {"bike_id": "159abb6e38d097640352222be4bf3790", "type": "electric_scooter", "is_disabled": 0, "lat": 38.932374333333335, "rental_uris": {"ios": "https://dc.lft.to/lastmile_qr_scan", "android": "https://dc.lft.to/lastmile_qr_scan"}, "is_reserved": 0, "fusion_lon": 0.0, "fusion_lat": 0.0, "lon": -77.03587233333333, "name": "159abb6e38d097640352222be4bf3790"}, {"bike_id": "e0efdcbd74f714a767f96a1c025ac4c7", "type": "electric_scooter", "is_disabled": 0, "lat": 38.92072833333334, "rental_uris": {"ios": "https://dc.lft.to/lastmile_qr_scan", "android": "https://dc.lft.to/lastmile_qr_scan"}, "is_reserved": 0, "fusion_lon": 0.0, "fusion_lat": 0.0, "lon": -77.03459066666667, "name": "e0efdcbd74f714a767f96a1c025ac4c7"}, {"bike_id": "898cd8bca39d5ba98488429b2bf9167f", "type": "electric_scooter", "is_disabled": 0, "lat": 38.907399, "rental_uris": {"ios": "https://dc.lft.to/lastmile_qr_scan", "android": "https://dc.lft.to/lastmile_qr_scan"}, "is_reserved": 0, "fusion_lon": 0.0, "fusion_lat": 0.0, "lon": -77.02954783333334, "name": "898cd8bca39d5ba98488429b2bf9167f"}, {"bike_id": "28ec4d4dbf0b8202d0ec9cbc095a9251", "type": "electric_scooter", "is_disabled": 0, "lat": 38.965685, "rental_uris": {"ios": "https://dc.lft.to/lastmile_qr_scan", "android": "https://dc.lft.to/lastmile_qr_scan"}, "is_reserved": 0, "fusion_lon": 0.0, "fusion_lat": 0.0, "lon": -77.027832, "name": "28ec4d4dbf0b8202d0ec9cbc095a9251"}, {"bike_id": "89a34f5509769c6e43a29b873e071ca2", "type": "electric_scooter", "is_disabled": 0, "lat": 38.8764895, "rental_uris": {"ios": "https://dc.lft.to/lastmile_qr_scan", "android": "https://dc.lft.to/lastmile_qr_scan"}, "is_reserved": 0, "fusion_lon": 0.0, "fusion_lat": 0.0, "lon": -76.965105, "name": "89a34f5509769c6e43a29b873e071ca2"}, {"bike_id": "910acdc63834b70764aaac30105454a0", "type": "electric_scooter", "is_disabled": 0, "lat": 38.9033945, "rental_uris": {"ios": "https://dc.lft.to/lastmile_qr_scan", "android": "https://dc.lft.to/lastmile_qr_scan"}, "is_reserved": 0, "fusion_lon": 0.0, "fusion_lat": 0.0, "lon": -77.06934283333334, "name": "910acdc63834b70764aaac30105454a0"}, {"bike_id": "c6312cce6d269a3b7b4abe82a1e9db25", "type": "electric_scooter", "is_disabled": 0, "lat": 38.98434866666667, "rental_uris": {"ios": "https://dc.lft.to/lastmile_qr_scan", "android": "https://dc.lft.to/lastmile_qr_scan"}, "is_reserved": 0, "fusion_lon": 0.0, "fusion_lat": 0.0, "lon": -77.026743, "name": "c6312cce6d269a3b7b4abe82a1e9db25"}, {"bike_id": "bc32eb15ad9652632502e0b710b92812", "type": "electric_scooter", "is_disabled": 0, "lat": 38.862475833333335, "rental_uris": {"ios": "https://dc.lft.to/lastmile_qr_scan", "android": "https://dc.lft.to/lastmile_qr_scan"}, "is_reserved": 0, "fusion_lon": 0.0, "fusion_lat": 0.0, "lon": -76.99507133333333, "name": "bc32eb15ad9652632502e0b710b92812"}, {"bike_id": "c8b31385204999e5f3b38b5d576411b1", "type": "electric_scooter", "is_disabled": 0, "lat": 38.866580666666664, "rental_uris": {"ios": "https://dc.lft.to/lastmile_qr_scan", "android": "https://dc.lft.to/lastmile_qr_scan"}, "is_reserved": 0, "fusion_lon": 0.0, "fusion_lat": 0.0, "lon": -76.988865, "name": "c8b31385204999e5f3b38b5d576411b1"}, {"bike_id": "ffe0b031caa7a415a0ad258a929b843d", "type": "electric_scooter", "is_disabled": 0, "lat": 38.88259583333333, "rental_uris": {"ios": "https://dc.lft.to/lastmile_qr_scan", "android": "https://dc.lft.to/lastmile_qr_scan"}, "is_reserved": 0, "fusion_lon": 0.0, "fusion_lat": 0.0, "lon": -76.9950975, "name": "ffe0b031caa7a415a0ad258a929b843d"}, {"bike_id": "6b97049af54d94a301ae5e84e15ab93e", "type": "electric_scooter", "is_disabled": 0, "lat": 38.907577, "rental_uris": {"ios": "https://dc.lft.to/lastmile_qr_scan", "android": "https://dc.lft.to/lastmile_qr_scan"}, "is_reserved": 0, "fusion_lon": 0.0, "fusion_lat": 0.0, "lon": -77.00091133333333, "name": "6b97049af54d94a301ae5e84e15ab93e"}, {"bike_id": "8700423d64bf5da06ac73d1273e9d376", "type": "electric_scooter", "is_disabled": 0, "lat": 38.92752616666667, "rental_uris": {"ios": "https://dc.lft.to/lastmile_qr_scan", "android": "https://dc.lft.to/lastmile_qr_scan"}, "is_reserved": 0, "fusion_lon": 0.0, "fusion_lat": 0.0, "lon": -77.00600516666667, "name": "8700423d64bf5da06ac73d1273e9d376"}, {"bike_id": "db50e9d505279dedb9b2ccb76771ecde", "type": "electric_scooter", "is_disabled": 0, "lat": 38.900654, "rental_uris": {"ios": "https://dc.lft.to/lastmile_qr_scan", "android": "https://dc.lft.to/lastmile_qr_scan"}, "is_reserved": 0, "fusion_lon": 0.0, "fusion_lat": 0.0, "lon": -77.035026, "name": "db50e9d505279dedb9b2ccb76771ecde"}, {"bike_id": "57b33629397c3a5c42b9402bfb9e27b6", "type": "electric_scooter", "is_disabled": 0, "lat": 38.925940833333335, "rental_uris": {"ios": "https://dc.lft.to/lastmile_qr_scan", "android": "https://dc.lft.to/lastmile_qr_scan"}, "is_reserved": 0, "fusion_lon": 0.0, "fusion_lat": 0.0, "lon": -77.03750033333333, "name": "57b33629397c3a5c42b9402bfb9e27b6"}, {"bike_id": "4f62863641e815da0d6c4cfbc6576959", "type": "electric_scooter", "is_disabled": 0, "lat": 38.906477833333334, "rental_uris": {"ios": "https://dc.lft.to/lastmile_qr_scan", "android": "https://dc.lft.to/lastmile_qr_scan"}, "is_reserved": 0, "fusion_lon": 0.0, "fusion_lat": 0.0, "lon": -77.01457, "name": "4f62863641e815da0d6c4cfbc6576959"}, {"bike_id": "4ef348ff76eeb6d1a30160e76dcf1c8e", "type": "electric_scooter", "is_disabled": 0, "lat": 38.906778333333335, "rental_uris": {"ios": "https://dc.lft.to/lastmile_qr_scan", "android": "https://dc.lft.to/lastmile_qr_scan"}, "is_reserved": 0, "fusion_lon": 0.0, "fusion_lat": 0.0, "lon": -77.07163916666667, "name": "4ef348ff76eeb6d1a30160e76dcf1c8e"}, {"bike_id": "7dcb65184c3d2f3e210b5706ec449c09", "type": "electric_scooter", "is_disabled": 0, "lat": 38.92961916666667, "rental_uris": {"ios": "https://dc.lft.to/lastmile_qr_scan", "android": "https://dc.lft.to/lastmile_qr_scan"}, "is_reserved": 0, "fusion_lon": 0.0, "fusion_lat": 0.0, "lon": -77.03256466666667, "name": "7dcb65184c3d2f3e210b5706ec449c09"}, {"bike_id": "f4e2364f81e2d28b7633af996480665f", "type": "electric_scooter", "is_disabled": 0, "lat": 38.905257166666665, "rental_uris": {"ios": "https://dc.lft.to/lastmile_qr_scan", "android": "https://dc.lft.to/lastmile_qr_scan"}, "is_reserved": 0, "fusion_lon": 0.0, "fusion_lat": 0.0, "lon": -77.06223766666666, "name": "f4e2364f81e2d28b7633af996480665f"}, {"bike_id": "686392ffdca9df34adc32a6ec308fa9e", "type": "electric_scooter", "is_disabled": 0, "lat": 38.928725666666665, "rental_uris": {"ios": "https://dc.lft.to/lastmile_qr_scan", "android": "https://dc.lft.to/lastmile_qr_scan"}, "is_reserved": 0, "fusion_lon": 0.0, "fusion_lat": 0.0, "lon": -77.03442083333333, "name": "686392ffdca9df34adc32a6ec308fa9e"}, {"bike_id": "c80d62997a2cab3d58acfe20bcc81e51", "type": "electric_scooter", "is_disabled": 0, "lat": 38.90101083333333, "rental_uris": {"ios": "https://dc.lft.to/lastmile_qr_scan", "android": "https://dc.lft.to/lastmile_qr_scan"}, "is_reserved": 0, "fusion_lon": 0.0, "fusion_lat": 0.0, "lon": -77.05121966666667, "name": "c80d62997a2cab3d58acfe20bcc81e51"}, {"bike_id": "03f110b305086a3c872e99d5e8e0bef2", "type": "electric_scooter", "is_disabled": 0, "lat": 38.926774333333334, "rental_uris": {"ios": "https://dc.lft.to/lastmile_qr_scan", "android": "https://dc.lft.to/lastmile_qr_scan"}, "is_reserved": 0, "fusion_lon": 0.0, "fusion_lat": 0.0, "lon": -77.01470366666666, "name": "03f110b305086a3c872e99d5e8e0bef2"}, {"bike_id": "b7495b8994ec2f0e275f3802d7a23c11", "type": "electric_scooter", "is_disabled": 0, "lat": 38.906845, "rental_uris": {"ios": "https://dc.lft.to/lastmile_qr_scan", "android": "https://dc.lft.to/lastmile_qr_scan"}, "is_reserved": 0, "fusion_lon": 0.0, "fusion_lat": 0.0, "lon": -77.02695716666666, "name": "b7495b8994ec2f0e275f3802d7a23c11"}, {"bike_id": "e474731578cb9146336a818d43204067", "type": "electric_bike", "is_disabled": 0, "lat": 38.8576865, "rental_uris": {"ios": "https://dc.lft.to/lastmile_qr_scan", "android": "https://dc.lft.to/lastmile_qr_scan"}, "is_reserved": 0, "fusion_lon": 0.0, "fusion_lat": 0.0, "lon": -76.987639, "name": "e474731578cb9146336a818d43204067"}, {"bike_id": "8e65c7bdc318290aa043ea3cb189d4bb", "type": "electric_scooter", "is_disabled": 0, "lat": 38.936554666666666, "rental_uris": {"ios": "https://dc.lft.to/lastmile_qr_scan", "android": "https://dc.lft.to/lastmile_qr_scan"}, "is_reserved": 0, "fusion_lon": 0.0, "fusion_lat": 0.0, "lon": -77.0550685, "name": "8e65c7bdc318290aa043ea3cb189d4bb"}, {"bike_id": "459707b3dc49c90833abfd131a69b2e3", "type": "electric_scooter", "is_disabled": 0, "lat": 38.900743, "rental_uris": {"ios": "https://dc.lft.to/lastmile_qr_scan", "android": "https://dc.lft.to/lastmile_qr_scan"}, "is_reserved": 0, "fusion_lon": 0.0, "fusion_lat": 0.0, "lon": -77.03662116666666, "name": "459707b3dc49c90833abfd131a69b2e3"}, {"bike_id": "f1c043b721bdff8a6ed0b47fb8341182", "type": "electric_scooter", "is_disabled": 0, "lat": 38.9202015, "rental_uris": {"ios": "https://dc.lft.to/lastmile_qr_scan", "android": "https://dc.lft.to/lastmile_qr_scan"}, "is_reserved": 0, "fusion_lon": 0.0, "fusion_lat": 0.0, "lon": -77.03145566666667, "name": "f1c043b721bdff8a6ed0b47fb8341182"}, {"bike_id": "c03961d6e5f07ba4efe012d8a52ef4f4", "type": "electric_scooter", "is_disabled": 0, "lat": 38.92822116666667, "rental_uris": {"ios": "https://dc.lft.to/lastmile_qr_scan", "android": "https://dc.lft.to/lastmile_qr_scan"}, "is_reserved": 0, "fusion_lon": 0.0, "fusion_lat": 0.0, "lon": -77.0225435, "name": "c03961d6e5f07ba4efe012d8a52ef4f4"}, {"bike_id": "c260af74db707c4bc0cdb341e7e0833b", "type": "electric_scooter", "is_disabled": 0, "lat": 38.91415466666667, "rental_uris": {"ios": "https://dc.lft.to/lastmile_qr_scan", "android": "https://dc.lft.to/lastmile_qr_scan"}, "is_reserved": 0, "fusion_lon": 0.0, "fusion_lat": 0.0, "lon": -77.036033, "name": "c260af74db707c4bc0cdb341e7e0833b"}, {"bike_id": "c06fc48f7042d290216a69eb0e50d667", "type": "electric_scooter", "is_disabled": 0, "lat": 38.906045, "rental_uris": {"ios": "https://dc.lft.to/lastmile_qr_scan", "android": "https://dc.lft.to/lastmile_qr_scan"}, "is_reserved": 0, "fusion_lon": 0.0, "fusion_lat": 0.0, "lon": -77.02110883333333, "name": "c06fc48f7042d290216a69eb0e50d667"}, {"bike_id": "60975f02be2c5874d6f9c73f488483c9", "type": "electric_scooter", "is_disabled": 0, "lat": 38.8989555, "rental_uris": {"ios": "https://dc.lft.to/lastmile_qr_scan", "android": "https://dc.lft.to/lastmile_qr_scan"}, "is_reserved": 0, "fusion_lon": 0.0, "fusion_lat": 0.0, "lon": -76.9768925, "name": "60975f02be2c5874d6f9c73f488483c9"}, {"bike_id": "a086722675a8bf03b623889db88a0600", "type": "electric_bike", "is_disabled": 0, "lat": 38.954124166666666, "rental_uris": {"ios": "https://dc.lft.to/lastmile_qr_scan", "android": "https://dc.lft.to/lastmile_qr_scan"}, "is_reserved": 0, "fusion_lon": 0.0, "fusion_lat": 0.0, "lon": -76.9805145, "name": "a086722675a8bf03b623889db88a0600"}, {"bike_id": "9ad64e0c20e0835e39d0afb4a319179d", "type": "electric_scooter", "is_disabled": 0, "lat": 38.939016333333335, "rental_uris": {"ios": "https://dc.lft.to/lastmile_qr_scan", "android": "https://dc.lft.to/lastmile_qr_scan"}, "is_reserved": 0, "fusion_lon": 0.0, "fusion_lat": 0.0, "lon": -77.01682066666666, "name": "9ad64e0c20e0835e39d0afb4a319179d"}, {"bike_id": "8865e6f49ee78237d54c79c913070cce", "type": "electric_scooter", "is_disabled": 0, "lat": 38.90942116666667, "rental_uris": {"ios": "https://dc.lft.to/lastmile_qr_scan", "android": "https://dc.lft.to/lastmile_qr_scan"}, "is_reserved": 0, "fusion_lon": 0.0, "fusion_lat": 0.0, "lon": -77.03190383333333, "name": "8865e6f49ee78237d54c79c913070cce"}, {"bike_id": "63f5279a5e3cc430a487b55d7f57c8cc", "type": "electric_bike", "is_disabled": 0, "lat": 38.838294833333336, "rental_uris": {"ios": "https://dc.lft.to/lastmile_qr_scan", "android": "https://dc.lft.to/lastmile_qr_scan"}, "is_reserved": 0, "fusion_lon": 0.0, "fusion_lat": 0.0, "lon": -77.00272883333334, "name": "63f5279a5e3cc430a487b55d7f57c8cc"}, {"bike_id": "c4aaf8e2dc2bc392728cc140782460a8", "type": "electric_scooter", "is_disabled": 0, "lat": 38.92546433333333, "rental_uris": {"ios": "https://dc.lft.to/lastmile_qr_scan", "android": "https://dc.lft.to/lastmile_qr_scan"}, "is_reserved": 0, "fusion_lon": 0.0, "fusion_lat": 0.0, "lon": -77.0412775, "name": "c4aaf8e2dc2bc392728cc140782460a8"}, {"bike_id": "de1ceb5b31029607e4a057f517f5e532", "type": "electric_scooter", "is_disabled": 0, "lat": 38.896073333333334, "rental_uris": {"ios": "https://dc.lft.to/lastmile_qr_scan", "android": "https://dc.lft.to/lastmile_qr_scan"}, "is_reserved": 0, "fusion_lon": 0.0, "fusion_lat": 0.0, "lon": -77.0033055, "name": "de1ceb5b31029607e4a057f517f5e532"}, {"bike_id": "26f0e20c880e9849d6f08c227e16d5a8", "type": "electric_scooter", "is_disabled": 0, "lat": 38.924748, "rental_uris": {"ios": "https://dc.lft.to/lastmile_qr_scan", "android": "https://dc.lft.to/lastmile_qr_scan"}, "is_reserved": 0, "fusion_lon": 0.0, "fusion_lat": 0.0, "lon": -77.022476, "name": "26f0e20c880e9849d6f08c227e16d5a8"}, {"bike_id": "ac55e1b8430af187c9d02fdd8f959cc1", "type": "electric_scooter", "is_disabled": 0, "lat": 38.923337833333335, "rental_uris": {"ios": "https://dc.lft.to/lastmile_qr_scan", "android": "https://dc.lft.to/lastmile_qr_scan"}, "is_reserved": 0, "fusion_lon": 0.0, "fusion_lat": 0.0, "lon": -77.041782, "name": "ac55e1b8430af187c9d02fdd8f959cc1"}, {"bike_id": "69a5ccddaece5ecab16702587bbc0f63", "type": "electric_bike", "is_disabled": 0, "lat": 38.951025, "rental_uris": {"ios": "https://dc.lft.to/lastmile_qr_scan", "android": "https://dc.lft.to/lastmile_qr_scan"}, "is_reserved": 0, "fusion_lon": 0.0, "fusion_lat": 0.0, "lon": -77.0551765, "name": "69a5ccddaece5ecab16702587bbc0f63"}, {"bike_id": "1d0366560590ad312318318d493e2c1f", "type": "electric_scooter", "is_disabled": 0, "lat": 38.907764666666665, "rental_uris": {"ios": "https://dc.lft.to/lastmile_qr_scan", "android": "https://dc.lft.to/lastmile_qr_scan"}, "is_reserved": 0, "fusion_lon": 0.0, "fusion_lat": 0.0, "lon": -77.07134733333334, "name": "1d0366560590ad312318318d493e2c1f"}, {"bike_id": "9e82c3be2368c31ed4bf041295e1b864", "type": "electric_scooter", "is_disabled": 0, "lat": 38.9154325, "rental_uris": {"ios": "https://dc.lft.to/lastmile_qr_scan", "android": "https://dc.lft.to/lastmile_qr_scan"}, "is_reserved": 0, "fusion_lon": 0.0, "fusion_lat": 0.0, "lon": -77.01266933333333, "name": "9e82c3be2368c31ed4bf041295e1b864"}, {"bike_id": "4a8bceb076b05adf2002651614d4d333", "type": "electric_scooter", "is_disabled": 0, "lat": 38.912586166666664, "rental_uris": {"ios": "https://dc.lft.to/lastmile_qr_scan", "android": "https://dc.lft.to/lastmile_qr_scan"}, "is_reserved": 0, "fusion_lon": 0.0, "fusion_lat": 0.0, "lon": -77.0424525, "name": "4a8bceb076b05adf2002651614d4d333"}, {"bike_id": "6c43a6637fdae99898dc3b5929698b8f", "type": "electric_scooter", "is_disabled": 0, "lat": 38.916172333333336, "rental_uris": {"ios": "https://dc.lft.to/lastmile_qr_scan", "android": "https://dc.lft.to/lastmile_qr_scan"}, "is_reserved": 0, "fusion_lon": 0.0, "fusion_lat": 0.0, "lon": -77.045134, "name": "6c43a6637fdae99898dc3b5929698b8f"}, {"bike_id": "994c1ba7fbabe7a3cad7354a2081f9ab", "type": "electric_scooter", "is_disabled": 0, "lat": 38.90360183333333, "rental_uris": {"ios": "https://dc.lft.to/lastmile_qr_scan", "android": "https://dc.lft.to/lastmile_qr_scan"}, "is_reserved": 0, "fusion_lon": 0.0, "fusion_lat": 0.0, "lon": -77.0219235, "name": "994c1ba7fbabe7a3cad7354a2081f9ab"}, {"bike_id": "3f5f8ae30770e846b3d53a2a23cba5fa", "type": "electric_scooter", "is_disabled": 0, "lat": 38.866279666666664, "rental_uris": {"ios": "https://dc.lft.to/lastmile_qr_scan", "android": "https://dc.lft.to/lastmile_qr_scan"}, "is_reserved": 0, "fusion_lon": 0.0, "fusion_lat": 0.0, "lon": -76.987179, "name": "3f5f8ae30770e846b3d53a2a23cba5fa"}, {"bike_id": "59ee63a735386bd8bce792f2bc3d09cf", "type": "electric_scooter", "is_disabled": 0, "lat": 38.93314316666667, "rental_uris": {"ios": "https://dc.lft.to/lastmile_qr_scan", "android": "https://dc.lft.to/lastmile_qr_scan"}, "is_reserved": 0, "fusion_lon": 0.0, "fusion_lat": 0.0, "lon": -77.03262933333333, "name": "59ee63a735386bd8bce792f2bc3d09cf"}, {"bike_id": "4793dd32023cf58bc3c85f1ba310117d", "type": "electric_scooter", "is_disabled": 0, "lat": 38.928890333333335, "rental_uris": {"ios": "https://dc.lft.to/lastmile_qr_scan", "android": "https://dc.lft.to/lastmile_qr_scan"}, "is_reserved": 0, "fusion_lon": 0.0, "fusion_lat": 0.0, "lon": -77.03259166666666, "name": "4793dd32023cf58bc3c85f1ba310117d"}, {"bike_id": "69961c00dc3d11f1286ce17fb03a8095", "type": "electric_scooter", "is_disabled": 0, "lat": 38.90493283333333, "rental_uris": {"ios": "https://dc.lft.to/lastmile_qr_scan", "android": "https://dc.lft.to/lastmile_qr_scan"}, "is_reserved": 0, "fusion_lon": 0.0, "fusion_lat": 0.0, "lon": -77.06790033333333, "name": "69961c00dc3d11f1286ce17fb03a8095"}, {"bike_id": "2fa8c527c830b45380b2641f38143c7c", "type": "electric_scooter", "is_disabled": 0, "lat": 38.89965333333333, "rental_uris": {"ios": "https://dc.lft.to/lastmile_qr_scan", "android": "https://dc.lft.to/lastmile_qr_scan"}, "is_reserved": 0, "fusion_lon": 0.0, "fusion_lat": 0.0, "lon": -76.92628083333334, "name": "2fa8c527c830b45380b2641f38143c7c"}, {"bike_id": "35d1629526e7cc89e413338da071f0df", "type": "electric_scooter", "is_disabled": 0, "lat": 38.924885333333336, "rental_uris": {"ios": "https://dc.lft.to/lastmile_qr_scan", "android": "https://dc.lft.to/lastmile_qr_scan"}, "is_reserved": 0, "fusion_lon": 0.0, "fusion_lat": 0.0, "lon": -77.05767933333334, "name": "35d1629526e7cc89e413338da071f0df"}, {"bike_id": "d0047dc8aa29ea8c0d5d6a326f332c77", "type": "electric_scooter", "is_disabled": 0, "lat": 38.910440666666666, "rental_uris": {"ios": "https://dc.lft.to/lastmile_qr_scan", "android": "https://dc.lft.to/lastmile_qr_scan"}, "is_reserved": 0, "fusion_lon": 0.0, "fusion_lat": 0.0, "lon": -77.0379975, "name": "d0047dc8aa29ea8c0d5d6a326f332c77"}, {"bike_id": "da5508ec6f4d5c7a91ce453174d33440", "type": "electric_scooter", "is_disabled": 0, "lat": 38.93536, "rental_uris": {"ios": "https://dc.lft.to/lastmile_qr_scan", "android": "https://dc.lft.to/lastmile_qr_scan"}, "is_reserved": 0, "fusion_lon": 0.0, "fusion_lat": 0.0, "lon": -77.058221, "name": "da5508ec6f4d5c7a91ce453174d33440"}, {"bike_id": "46d24a7ee36bc82ae9ea9ac8c8a544fd", "type": "electric_scooter", "is_disabled": 0, "lat": 38.9027735, "rental_uris": {"ios": "https://dc.lft.to/lastmile_qr_scan", "android": "https://dc.lft.to/lastmile_qr_scan"}, "is_reserved": 0, "fusion_lon": 0.0, "fusion_lat": 0.0, "lon": -77.01815216666667, "name": "46d24a7ee36bc82ae9ea9ac8c8a544fd"}, {"bike_id": "8bfacdf52de3060c71ac7018de799ff8", "type": "electric_scooter", "is_disabled": 0, "lat": 38.90257733333333, "rental_uris": {"ios": "https://dc.lft.to/lastmile_qr_scan", "android": "https://dc.lft.to/lastmile_qr_scan"}, "is_reserved": 0, "fusion_lon": 0.0, "fusion_lat": 0.0, "lon": -77.03468766666667, "name": "8bfacdf52de3060c71ac7018de799ff8"}, {"bike_id": "6860014168ba8fe3d2f668cfaa2c18f6", "type": "electric_scooter", "is_disabled": 0, "lat": 38.900732166666664, "rental_uris": {"ios": "https://dc.lft.to/lastmile_qr_scan", "android": "https://dc.lft.to/lastmile_qr_scan"}, "is_reserved": 0, "fusion_lon": 0.0, "fusion_lat": 0.0, "lon": -77.03088333333334, "name": "6860014168ba8fe3d2f668cfaa2c18f6"}, {"bike_id": "74e29f4b694bed4b3fbb6dc36c13e5d5", "type": "electric_scooter", "is_disabled": 0, "lat": 38.91403483333333, "rental_uris": {"ios": "https://dc.lft.to/lastmile_qr_scan", "android": "https://dc.lft.to/lastmile_qr_scan"}, "is_reserved": 0, "fusion_lon": 0.0, "fusion_lat": 0.0, "lon": -77.03148266666666, "name": "74e29f4b694bed4b3fbb6dc36c13e5d5"}, {"bike_id": "d25ff05bc25439e84c3b16b7d0b115ef", "type": "electric_scooter", "is_disabled": 0, "lat": 38.89077833333333, "rental_uris": {"ios": "https://dc.lft.to/lastmile_qr_scan", "android": "https://dc.lft.to/lastmile_qr_scan"}, "is_reserved": 0, "fusion_lon": 0.0, "fusion_lat": 0.0, "lon": -77.01501483333334, "name": "d25ff05bc25439e84c3b16b7d0b115ef"}, {"bike_id": "2f6821a52aed5a130719d321ad4d02ad", "type": "electric_scooter", "is_disabled": 0, "lat": 38.912450166666666, "rental_uris": {"ios": "https://dc.lft.to/lastmile_qr_scan", "android": "https://dc.lft.to/lastmile_qr_scan"}, "is_reserved": 0, "fusion_lon": 0.0, "fusion_lat": 0.0, "lon": -77.038598, "name": "2f6821a52aed5a130719d321ad4d02ad"}, {"bike_id": "9c255dbd4aa695be1f1133fc9d3a6e26", "type": "electric_scooter", "is_disabled": 0, "lat": 38.92749583333333, "rental_uris": {"ios": "https://dc.lft.to/lastmile_qr_scan", "android": "https://dc.lft.to/lastmile_qr_scan"}, "is_reserved": 0, "fusion_lon": 0.0, "fusion_lat": 0.0, "lon": -77.0339205, "name": "9c255dbd4aa695be1f1133fc9d3a6e26"}, {"bike_id": "c9b0f37d884d07f6ce733d760eaae859", "type": "electric_bike", "is_disabled": 0, "lat": 38.836726, "rental_uris": {"ios": "https://dc.lft.to/lastmile_qr_scan", "android": "https://dc.lft.to/lastmile_qr_scan"}, "is_reserved": 0, "fusion_lon": 0.0, "fusion_lat": 0.0, "lon": -76.99363366666667, "name": "c9b0f37d884d07f6ce733d760eaae859"}, {"bike_id": "459c33d50d0255eac60cffca8b3e3681", "type": "electric_scooter", "is_disabled": 0, "lat": 38.904577833333335, "rental_uris": {"ios": "https://dc.lft.to/lastmile_qr_scan", "android": "https://dc.lft.to/lastmile_qr_scan"}, "is_reserved": 0, "fusion_lon": 0.0, "fusion_lat": 0.0, "lon": -77.04866766666666, "name": "459c33d50d0255eac60cffca8b3e3681"}, {"bike_id": "495a9051c8812909fc7c64a5f7cf436f", "type": "electric_scooter", "is_disabled": 0, "lat": 38.900307833333336, "rental_uris": {"ios": "https://dc.lft.to/lastmile_qr_scan", "android": "https://dc.lft.to/lastmile_qr_scan"}, "is_reserved": 0, "fusion_lon": 0.0, "fusion_lat": 0.0, "lon": -77.03515316666666, "name": "495a9051c8812909fc7c64a5f7cf436f"}, {"bike_id": "d1a186400217bc9434b4053535b8f455", "type": "electric_scooter", "is_disabled": 0, "lat": 38.912166666666664, "rental_uris": {"ios": "https://dc.lft.to/lastmile_qr_scan", "android": "https://dc.lft.to/lastmile_qr_scan"}, "is_reserved": 0, "fusion_lon": 0.0, "fusion_lat": 0.0, "lon": -77.03180616666667, "name": "d1a186400217bc9434b4053535b8f455"}, {"bike_id": "7e8d3c7115a9445030cc0b12c8f1ee39", "type": "electric_scooter", "is_disabled": 0, "lat": 38.902645166666666, "rental_uris": {"ios": "https://dc.lft.to/lastmile_qr_scan", "android": "https://dc.lft.to/lastmile_qr_scan"}, "is_reserved": 0, "fusion_lon": 0.0, "fusion_lat": 0.0, "lon": -77.0385005, "name": "7e8d3c7115a9445030cc0b12c8f1ee39"},