{"data": {"bikes": [{"rental_uris": {"android": "https://dc.lft.to/lastmile_qr_scan", "ios": "https://dc.lft.to/lastmile_qr_scan"}, "is_reserved": 0, "is_disabled": 0, "name": "d9fc610973ea52745a9969398bd700a4", "bike_id": "d9fc610973ea52745a9969398bd700a4", "fusion_lat": 0.0, "lon": -77.09822683333333, "type": "electric_bike", "fusion_lon": 0.0, "lat": 38.850214666666666}, {"rental_uris": {"android": "https://dc.lft.to/lastmile_qr_scan", "ios": "https://dc.lft.to/lastmile_qr_scan"}, "is_reserved": 0, "is_disabled": 0, "name": "08be1161cf6424acfe9946ebcee9e4c5", "bike_id": "08be1161cf6424acfe9946ebcee9e4c5", "fusion_lat": 0.0, "lon": -77.043459, "type": "electric_scooter", "fusion_lon": 0.0, "lat": 38.9110155}, {"rental_uris": {"android": "https://dc.lft.to/lastmile_qr_scan", "ios": "https://dc.lft.to/lastmile_qr_scan"}, "is_reserved": 0, "is_disabled": 0, "name": "e0a094087d8a2da049797a2e2a91eaa4", "bike_id": "e0a094087d8a2da049797a2e2a91eaa4", "fusion_lat": 0.0, "lon": -77.05115333333333, "type": "electric_scooter", "fusion_lon": 0.0, "lat": 38.92342583333333}, {"rental_uris": {"android": "https://dc.lft.to/lastmile_qr_scan", "ios": "https://dc.lft.to/lastmile_qr_scan"}, "is_reserved": 0, "is_disabled": 0, "name": "78ea6e11cc3499a015a9f0296d2666cb", "bike_id": "78ea6e11cc3499a015a9f0296d2666cb", "fusion_lat": 0.0, "lon": -77.033144, "type": "electric_scooter", "fusion_lon": 0.0, "lat": 38.921582666666666}, {"rental_uris": {"android": "https://dc.lft.to/lastmile_qr_scan", "ios": "https://dc.lft.to/lastmile_qr_scan"}, "is_reserved": 0, "is_disabled": 0, "name": "997fbefd2527beb35a65524e87a08a1d", "bike_id": "997fbefd2527beb35a65524e87a08a1d", "fusion_lat": 0.0, "lon": -77.00407016666666, "type": "electric_bike", "fusion_lon": 0.0, "lat": 38.98542616666667}, {"rental_uris": {"android": "https://dc.lft.to/lastmile_qr_scan", "ios": "https://dc.lft.to/lastmile_qr_scan"}, "is_reserved": 0, "is_disabled": 0, "name": "383557f15423f3103de9874f26a53fb4", "bike_id": "383557f15423f3103de9874f26a53fb4", "fusion_lat": 0.0, "lon": -76.99096, "type": "electric_bike", "fusion_lon": 0.0, "lat": 38.804797}, {"rental_uris": {"android": "https://dc.lft.to/lastmile_qr_scan", "ios": "https://dc.lft.to/lastmile_qr_scan"}, "is_reserved": 0, "is_disabled": 0, "name": "357d4f7b67d55c040efa6cbd4c1cf761", "bike_id": "357d4f7b67d55c040efa6cbd4c1cf761", "fusion_lat": 0.0, "lon": -77.01086016666666, "type": "electric_scooter", "fusion_lon": 0.0, "lat": 38.895392}, {"rental_uris": {"android": "https://dc.lft.to/lastmile_qr_scan", "ios": "https://dc.lft.to/lastmile_qr_scan"}, "is_reserved": 0, "is_disabled": 0, "name": "dc41536617d7c9bac6c1cc582283fd87", "bike_id": "dc41536617d7c9bac6c1cc582283fd87", "fusion_lat": 0.0, "lon": -77.03375733333333, "type": "electric_scooter", "fusion_lon": 0.0, "lat": 38.921608666666664}, {"rental_uris": {"android": "https://dc.lft.to/lastmile_qr_scan", "ios": "https://dc.lft.to/lastmile_qr_scan"}, "is_reserved": 0, "is_disabled": 0, "name": "42522cc3221646b5fd7d8eb7ab6aa4c0", "bike_id": "42522cc3221646b5fd7d8eb7ab6aa4c0", "fusion_lat": 0.0, "lon": -77.04524583333334, "type": "electric_scooter", "fusion_lon": 0.0, "lat": 38.899688}, {"rental_uris": {"android": "https://dc.lft.to/lastmile_qr_scan", "ios": "https://dc.lft.to/lastmile_qr_scan"}, "is_reserved": 0, "is_disabled": 0, "name": "0733b255844b816c76c847e0b34de8e9", "bike_id": "0733b255844b816c76c847e0b34de8e9", "fusion_lat": 0.0, "lon": -76.93208416666667, "type": "electric_scooter", "fusion_lon": 0.0, "lat": 38.89667083333333}, {"rental_uris": {"android": "https://dc.lft.to/lastmile_qr_scan", "ios": "https://dc.lft.to/lastmile_qr_scan"}, "is_reserved": 0, "is_disabled": 0, "name": "af68520ea4cd13545636ec4bd9d7fc7e", "bike_id": "af68520ea4cd13545636ec4bd9d7fc7e", "fusion_lat": 0.0, "lon": -77.0279305, "type": "electric_scooter", "fusion_lon": 0.0, "lat": 38.962133333333334}, {"rental_uris": {"android": "https://dc.lft.to/lastmile_qr_scan", "ios": "https://dc.lft.to/lastmile_qr_scan"}, "is_reserved": 0, "is_disabled": 0, "name": "cc958e24b8bce19e426d5cb24b3299af", "bike_id": "cc958e24b8bce19e426d5cb24b3299af", "fusion_lat": 0.0, "lon": -76.9862925, "type": "electric_scooter", "fusion_lon": 0.0, "lat": 38.880477}, {"rental_uris": {"android": "https://dc.lft.to/lastmile_qr_scan", "ios": "https://dc.lft.to/lastmile_qr_scan"}, "is_reserved": 0, "is_disabled": 0, "name": "0df2127c4c554efe7cd0337b91b3846c", "bike_id": "0df2127c4c554efe7cd0337b91b3846c", "fusion_lat": 0.0, "lon": -77.0802555, "type": "electric_bike", "fusion_lon": 0.0, "lat": 38.95774516666667}, {"rental_uris": {"android": "https://dc.lft.to/lastmile_qr_scan", "ios": "https://dc.lft.to/lastmile_qr_scan"}, "is_reserved": 0, "is_disabled": 0, "name": "01416ee3040a83f2f104769dd3de6f08", "bike_id": "01416ee3040a83f2f104769dd3de6f08", "fusion_lat": 0.0, "lon": -77.024903, "type": "electric_scooter", "fusion_lon": 0.0, "lat": 38.920745833333335}, {"rental_uris": {"android": "https://dc.lft.to/lastmile_qr_scan", "ios": "https://dc.lft.to/lastmile_qr_scan"}, "is_reserved": 0, "is_disabled": 0, "name": "5d483d9b38f50017fd686d35513eb41e", "bike_id": "5d483d9b38f50017fd686d35513eb41e", "fusion_lat": 0.0, "lon": -77.00192116666666, "type": "electric_scooter", "fusion_lon": 0.0, "lat": 38.9029525}, {"rental_uris": {"android": "https://dc.lft.to/lastmile_qr_scan", "ios": "https://dc.lft.to/lastmile_qr_scan"}, "is_reserved": 0, "is_disabled": 0, "name": "8ac5a5076de4a69d816b08f5dacbda76", "bike_id": "8ac5a5076de4a69d816b08f5dacbda76", "fusion_lat": 0.0, "lon": -77.0152375, "type": "electric_scooter", "fusion_lon": 0.0, "lat": 38.8722225}, {"rental_uris": {"android": "https://dc.lft.to/lastmile_qr_scan", "ios": "https://dc.lft.to/lastmile_qr_scan"}, "is_reserved": 0, "is_disabled": 0, "name": "21eea0130261ff3a8981a70310a92e07", "bike_id": "21eea0130261ff3a8981a70310a92e07", "fusion_lat": 0.0, "lon": -77.032071, "type": "electric_scooter", "fusion_lon": 0.0, "lat": 38.917842}, {"rental_uris": {"android": "https://dc.lft.to/lastmile_qr_scan", "ios": "https://dc.lft.to/lastmile_qr_scan"}, "is_reserved": 0, "is_disabled": 0, "name": "a385f9dce909935b69ece036d4707b79", "bike_id": "a385f9dce909935b69ece036d4707b79", "fusion_lat": 0.0, "lon": -77.06182083333333, "type": "electric_scooter", "fusion_lon": 0.0, "lat": 38.941248}, {"rental_uris": {"android": "https://dc.lft.to/lastmile_qr_scan", "ios": "https://dc.lft.to/lastmile_qr_scan"}, "is_reserved": 0, "is_disabled": 0, "name": "36106d3a1548a8abee1f8234205372c7", "bike_id": "36106d3a1548a8abee1f8234205372c7", "fusion_lat": 0.0, "lon": -77.03708083333333, "type": "electric_scooter", "fusion_lon": 0.0, "lat": 38.928287166666664}, {"rental_uris": {"android": "https://dc.lft.to/lastmile_qr_scan", "ios": "https://dc.lft.to/lastmile_qr_scan"}, "is_reserved": 0, "is_disabled": 0, "name": "2e120e542f2e93e70795649343bf992c", "bike_id": "2e120e542f2e93e70795649343bf992c", "fusion_lat": 0.0, "lon": -77.04069533333333, "type": "electric_scooter", "fusion_lon": 0.0, "lat": 38.9104275}, {"rental_uris": {"android": "https://dc.lft.to/lastmile_qr_scan", "ios": "https://dc.lft.to/lastmile_qr_scan"}, "is_reserved": 0, "is_disabled": 0, "name": "72f7d9799d0377e1c8ef75f28c551883", "bike_id": "72f7d9799d0377e1c8ef75f28c551883", "fusion_lat": 0.0, "lon": -77.065899, "type": "electric_scooter", "fusion_lon": 0.0, "lat": 38.903975}, {"rental_uris": {"android": "https://dc.lft.to/lastmile_qr_scan", "ios": "https://dc.lft.to/lastmile_qr_scan"}, "is_reserved": 0, "is_disabled": 0, "name": "a3c4b386aa07270d1f20a5939e01ae8b", "bike_id": "a3c4b386aa07270d1f20a5939e01ae8b", "fusion_lat": 0.0, "lon": -77.04466833333333, "type": "electric_scooter", "fusion_lon": 0.0, "lat": 38.90320366666667}, {"rental_uris": {"android": "https://dc.lft.to/lastmile_qr_scan", "ios": "https://dc.lft.to/lastmile_qr_scan"}, "is_reserved": 0, "is_disabled": 0, "name": "711ff59aa9489a43288c63005a6b497d", "bike_id": "711ff59aa9489a43288c63005a6b497d", "fusion_lat": 0.0, "lon": -77.01064783333334, "type": "electric_scooter", "fusion_lon": 0.0, "lat": 38.918137333333334}, {"rental_uris": {"android": "https://dc.lft.to/lastmile_qr_scan", "ios": "https://dc.lft.to/lastmile_qr_scan"}, "is_reserved": 0, "is_disabled": 0, "name": "cf7dddeb53d5f4e02ca2bca0d24cd775", "bike_id": "cf7dddeb53d5f4e02ca2bca0d24cd775", "fusion_lat": 0.0, "lon": -77.053151, "type": "electric_scooter", "fusion_lon": 0.0, "lat": 38.90424083333333}, {"rental_uris": {"android": "https://dc.lft.to/lastmile_qr_scan", "ios": "https://dc.lft.to/lastmile_qr_scan"}, "is_reserved": 0, "is_disabled": 0, "name": "d4141b4f28a36543f453e1678d840a17", "bike_id": "d4141b4f28a36543f453e1678d840a17", "fusion_lat": 0.0, "lon": -77.0386015, "type": "electric_scooter", "fusion_lon": 0.0, "lat": 38.917143333333335}, {"rental_uris": {"android": "https://dc.lft.to/lastmile_qr_scan", "ios": "https://dc.lft.to/lastmile_qr_scan"}, "is_reserved": 0, "is_disabled": 0, "name": "9f71ee9f34ba083786a3fbb1f0319c72", "bike_id": "9f71ee9f34ba083786a3fbb1f0319c72", "fusion_lat": 0.0, "lon": -77.04927083333334, "type": "electric_scooter", "fusion_lon": 0.0, "lat": 38.895464}, {"rental_uris": {"android": "https://dc.lft.to/lastmile_qr_scan", "ios": "https://dc.lft.to/lastmile_qr_scan"}, "is_reserved": 0, "is_disabled": 0, "name": "5f9f617300748b8be0fd389e2d0e52d6", "bike_id": "5f9f617300748b8be0fd389e2d0e52d6", "fusion_lat": 0.0, "lon": -76.998367, "type": "electric_bike", "fusion_lon": 0.0, "lat": 38.89997916666667}, {"rental_uris": {"android": "https://dc.lft.to/lastmile_qr_scan", "ios": "https://dc.lft.to/lastmile_qr_scan"}, "is_reserved": 0, "is_disabled": 0, "name": "ee12b46e5be65e16326fb8ae05c2dd8d", "bike_id": "ee12b46e5be65e16326fb8ae05c2dd8d", "fusion_lat": 0.0, "lon": -77.01273683333334, "type": "electric_scooter", "fusion_lon": 0.0, "lat": 38.90949633333334}, {"rental_uris": {"android": "https://dc.lft.to/lastmile_qr_scan", "ios": "https://dc.lft.to/lastmile_qr_scan"}, "is_reserved": 0, "is_disabled": 0, "name": "dd6e09e9202eb782989ed09d4d658aa6", "bike_id": "dd6e09e9202eb782989ed09d4d658aa6", "fusion_lat": 0.0, "lon": -76.983338, "type": "electric_scooter", "fusion_lon": 0.0, "lat": 38.90091116666667}, {"rental_uris": {"android": "https://dc.lft.to/lastmile_qr_scan", "ios": "https://dc.lft.to/lastmile_qr_scan"}, "is_reserved": 0, "is_disabled": 0, "name": "19c30039b05edbe9ba5bad1fd4fc7911", "bike_id": "19c30039b05edbe9ba5bad1fd4fc7911", "fusion_lat": 0.0, "lon": -77.02625733333333, "type": "electric_bike", "fusion_lon": 0.0, "lat": 38.962200333333335}, {"rental_uris": {"android": "https://dc.lft.to/lastmile_qr_scan", "ios": "https://dc.lft.to/lastmile_qr_scan"}, "is_reserved": 0, "is_disabled": 0, "name": "6035b2e0ab75cfa90355cb614e147ab1", "bike_id": "6035b2e0ab75cfa90355cb614e147ab1", "fusion_lat": 0.0, "lon": -77.0319965, "type": "electric_scooter", "fusion_lon": 0.0, "lat": 38.916358333333335}, {"rental_uris": {"android": "https://dc.lft.to/lastmile_qr_scan", "ios": "https://dc.lft.to/lastmile_qr_scan"}, "is_reserved": 0, "is_disabled": 0, "name": "e30e93069a33bd5815cb41b6cc1c1f0a", "bike_id": "e30e93069a33bd5815cb41b6cc1c1f0a", "fusion_lat": 0.0, "lon": -76.99500733333333, "type": "electric_scooter", "fusion_lon": 0.0, "lat": 38.8807825}, {"rental_uris": {"android": "https://dc.lft.to/lastmile_qr_scan", "ios": "https://dc.lft.to/lastmile_qr_scan"}, "is_reserved": 0, "is_disabled": 0, "name": "ac7ce4a5096939683f3454b2129ae415", "bike_id": "ac7ce4a5096939683f3454b2129ae415", "fusion_lat": 0.0, "lon": -77.02941333333334, "type": "electric_scooter", "fusion_lon": 0.0, "lat": 38.90725166666667}, {"rental_uris": {"android": "https://dc.lft.to/lastmile_qr_scan", "ios": "https://dc.lft.to/lastmile_qr_scan"}, "is_reserved": 0, "is_disabled": 0, "name": "10d5a88ac18775d49f86dc034e13a22c", "bike_id": "10d5a88ac18775d49f86dc034e13a22c", "fusion_lat": 0.0, "lon": -77.03227416666667, "type": "electric_scooter", "fusion_lon": 0.0, "lat": 38.89695966666667}, {"rental_uris": {"android": "https://dc.lft.to/lastmile_qr_scan", "ios": "https://dc.lft.to/lastmile_qr_scan"}, "is_reserved": 0, "is_disabled": 0, "name": "608f00449886e08c7a402b922a38f010", "bike_id": "608f00449886e08c7a402b922a38f010", "fusion_lat": 0.0, "lon": -77.03030383333333, "type": "electric_scooter", "fusion_lon": 0.0, "lat": 38.908512333333334}, {"rental_uris": {"android": "https://dc.lft.to/lastmile_qr_scan", "ios": "https://dc.lft.to/lastmile_qr_scan"}, "is_reserved": 0, "is_disabled": 0, "name": "59c3505d0aa918128733ad9729c5b078", "bike_id": "59c3505d0aa918128733ad9729c5b078", "fusion_lat": 0.0, "lon": -77.061106, "type": "electric_scooter", "fusion_lon": 0.0, "lat": 38.90234866666667}, {"rental_uris": {"android": "https://dc.lft.to/lastmile_qr_scan", "ios": "https://dc.lft.to/lastmile_qr_scan"}, "is_reserved": 0, "is_disabled": 0, "name": "455a14f75202d3515a36b0c84a7cca9e", "bike_id": "455a14f75202d3515a36b0c84a7cca9e", "fusion_lat": 0.0, "lon": -77.0665295, "type": "electric_scooter", "fusion_lon": 0.0, "lat": 38.950652166666664}, {"rental_uris": {"android": "https://dc.lft.to/lastmile_qr_scan", "ios": "https://dc.lft.to/lastmile_qr_scan"}, "is_reserved": 0, "is_disabled": 0, "name": "29affb9530ecd25c1767f6e15717ae85", "bike_id": "29affb9530ecd25c1767f6e15717ae85", "fusion_lat": 0.0, "lon": -77.02266433333334, "type": "electric_scooter", "fusion_lon": 0.0, "lat": 38.91695466666667}, {"rental_uris": {"android": "https://dc.lft.to/lastmile_qr_scan", "ios": "https://dc.lft.to/lastmile_qr_scan"}, "is_reserved": 0, "is_disabled": 0, "name": "1abb13627951ea580eb4a606da621d25", "bike_id": "1abb13627951ea580eb4a606da621d25", "fusion_lat": 0.0, "lon": -77.0533595, "type": "electric_scooter", "fusion_lon": 0.0, "lat": 38.901650833333335}, {"rental_uris": {"android": "https://dc.lft.to/lastmile_qr_scan", "ios": "https://dc.lft.to/lastmile_qr_scan"}, "is_reserved": 0, "is_disabled": 0, "name": "33a7cdc4681127adf0ba03893d69408b", "bike_id": "33a7cdc4681127adf0ba03893d69408b", "fusion_lat": 0.0, "lon": -76.9903245, "type": "electric_scooter", "fusion_lon": 0.0, "lat": 38.88856783333333}, {"rental_uris": {"android": "https://dc.lft.to/lastmile_qr_scan", "ios": "https://dc.lft.to/lastmile_qr_scan"}, "is_reserved": 0, "is_disabled": 0, "name": "187c3bc1e1443e39add4df080cf17e3c", "bike_id": "187c3bc1e1443e39add4df080cf17e3c", "fusion_lat": 0.0, "lon": -77.23413666666667, "type": "electric_bike", "fusion_lon": 0.0, "lat": 38.875797666666664}, {"rental_uris": {"android": "https://dc.lft.to/lastmile_qr_scan", "ios": "https://dc.lft.to/lastmile_qr_scan"}, "is_reserved": 0, "is_disabled": 0, "name": "815993b80a787bae7170a299d99c45da", "bike_id": "815993b80a787bae7170a299d99c45da", "fusion_lat": 0.0, "lon": -77.02803716666666, "type": "electric_scooter", "fusion_lon": 0.0, "lat": 38.916739666666665}, {"rental_uris": {"android": "https://dc.lft.to/lastmile_qr_scan", "ios": "https://dc.lft.to/lastmile_qr_scan"}, "is_reserved": 0, "is_disabled": 0, "name": "587c3fe217e558bbf63d1445546fcfd2", "bike_id": "587c3fe217e558bbf63d1445546fcfd2", "fusion_lat": 0.0, "lon": -77.052156, "type": "electric_scooter", "fusion_lon": 0.0, "lat": 38.92486383333333}, {"rental_uris": {"android": "https://dc.lft.to/lastmile_qr_scan", "ios": "https://dc.lft.to/lastmile_qr_scan"}, "is_reserved": 0, "is_disabled": 0, "name": "8644633f08540b3e7c4ae2760f859ba7", "bike_id": "8644633f08540b3e7c4ae2760f859ba7", "fusion_lat": 0.0, "lon": -76.99849683333333, "type": "electric_scooter", "fusion_lon": 0.0, "lat": 38.891884833333336}, {"rental_uris": {"android": "https://dc.lft.to/lastmile_qr_scan", "ios": "https://dc.lft.to/lastmile_qr_scan"}, "is_reserved": 0, "is_disabled": 0, "name": "c44dde9f6d3576960fbf52b2cdff4bdb", "bike_id": "c44dde9f6d3576960fbf52b2cdff4bdb", "fusion_lat": 0.0, "lon": -77.02473866666666, "type": "electric_scooter", "fusion_lon": 0.0, "lat": 38.938514166666664}, {"rental_uris": {"android": "https://dc.lft.to/lastmile_qr_scan", "ios": "https://dc.lft.to/lastmile_qr_scan"}, "is_reserved": 0, "is_disabled": 0, "name": "affe466ca1001cc6f3d4ead1994edc0b", "bike_id": "affe466ca1001cc6f3d4ead1994edc0b", "fusion_lat": 0.0, "lon": -77.02473383333333, "type": "electric_scooter", "fusion_lon": 0.0, "lat": 38.938553166666665}, {"rental_uris": {"android": "https://dc.lft.to/lastmile_qr_scan", "ios": "https://dc.lft.to/lastmile_qr_scan"}, "is_reserved": 0, "is_disabled": 0, "name": "1b09a6921e5bcb7edcc4d1b501db4ca3", "bike_id": "1b09a6921e5bcb7edcc4d1b501db4ca3", "fusion_lat": 0.0, "lon": -77.05269166666666, "type": "electric_bike", "fusion_lon": 0.0, "lat": 38.940866}, {"rental_uris": {"android": "https://dc.lft.to/lastmile_qr_scan", "ios": "https://dc.lft.to/lastmile_qr_scan"}, "is_reserved": 0, "is_disabled": 0, "name": "10a672ab4c917d187cd3418ac82e378e", "bike_id": "10a672ab4c917d187cd3418ac82e378e", "fusion_lat": 0.0, "lon": -77.02962016666666, "type": "electric_scooter", "fusion_lon": 0.0, "lat": 38.93250966666667}, {"rental_uris": {"android": "https://dc.lft.to/lastmile_qr_scan", "ios": "https://dc.lft.to/lastmile_qr_scan"}, "is_reserved": 0, "is_disabled": 0, "name": "dfe8cdd50b33601068bafd09c6591a15", "bike_id": "dfe8cdd50b33601068bafd09c6591a15", "fusion_lat": 0.0, "lon": -77.03798266666666, "type": "electric_bike", "fusion_lon": 0.0, "lat": 38.996784}, {"rental_uris": {"android": "https://dc.lft.to/lastmile_qr_scan", "ios": "https://dc.lft.to/lastmile_qr_scan"}, "is_reserved": 0, "is_disabled": 0, "name": "1b64cf608ed84f59460148f38833db9b", "bike_id": "1b64cf608ed84f59460148f38833db9b", "fusion_lat": 0.0, "lon": -77.03260933333334, "type": "electric_scooter", "fusion_lon": 0.0, "lat": 38.9352205}, {"rental_uris": {"android": "https://dc.lft.to/lastmile_qr_scan", "ios": "https://dc.lft.to/lastmile_qr_scan"}, "is_reserved": 0, "is_disabled": 0, "name": "f4c96f12ec159187415cb61b815284b0", "bike_id": "f4c96f12ec159187415cb61b815284b0", "fusion_lat": 0.0, "lon": -77.01172633333333, "type": "electric_scooter", "fusion_lon": 0.0, "lat": 38.917050333333336}, {"rental_uris": {"android": "https://dc.lft.to/lastmile_qr_scan", "ios": "https://dc.lft.to/lastmile_qr_scan"}, "is_reserved": 0, "is_disabled": 0, "name": "c2b63dc741bfb7523c8ce9223ad259da", "bike_id": "c2b63dc741bfb7523c8ce9223ad259da", "fusion_lat": 0.0, "lon": -77.007153, "type": "electric_bike", "fusion_lon": 0.0, "lat": 38.99511283333333}, {"rental_uris": {"android": "https://dc.lft.to/lastmile_qr_scan", "ios": "https://dc.lft.to/lastmile_qr_scan"}, "is_reserved": 0, "is_disabled": 0, "name": "0457acc34f73d36ffed80154da072216", "bike_id": "0457acc34f73d36ffed80154da072216", "fusion_lat": 0.0, "lon": -77.03876216666667, "type": "electric_scooter", "fusion_lon": 0.0, "lat": 38.932049666666664}, {"rental_uris": {"android": "https://dc.lft.to/lastmile_qr_scan", "ios": "https://dc.lft.to/lastmile_qr_scan"}, "is_reserved": 0, "is_disabled": 0, "name": "d8e88af8615cdd11912445f8d45bd123", "bike_id": "d8e88af8615cdd11912445f8d45bd123", "fusion_lat": 0.0, "lon": -77.01656966666667, "type": "electric_scooter", "fusion_lon": 0.0, "lat": 38.942079}, {"rental_uris": {"android": "https://dc.lft.to/lastmile_qr_scan", "ios": "https://dc.lft.to/lastmile_qr_scan"}, "is_reserved": 0, "is_disabled": 0, "name": "3532d6dc3f5686ed406a2d2dcbf4efb4", "bike_id": "3532d6dc3f5686ed406a2d2dcbf4efb4", "fusion_lat": 0.0, "lon": -77.021884, "type": "electric_scooter", "fusion_lon": 0.0, "lat": 38.92172716666666}, {"rental_uris": {"android": "https://dc.lft.to/lastmile_qr_scan", "ios": "https://dc.lft.to/lastmile_qr_scan"}, "is_reserved": 0, "is_disabled": 0, "name": "ec6e377f2114efdb94bc7abddb29be1c", "bike_id": "ec6e377f2114efdb94bc7abddb29be1c", "fusion_lat": 0.0, "lon": -77.00051933333333, "type": "electric_scooter", "fusion_lon": 0.0, "lat": 38.878811}, {"rental_uris": {"android": "https://dc.lft.to/lastmile_qr_scan", "ios": "https://dc.lft.to/lastmile_qr_scan"}, "is_reserved": 0, "is_disabled": 0, "name": "500b1ca99a8bd4f6f4e0f74f32211465", "bike_id": "500b1ca99a8bd4f6f4e0f74f32211465", "fusion_lat": 0.0, "lon": -77.00796783333334, "type": "electric_scooter", "fusion_lon": 0.0, "lat": 38.8971795}, {"rental_uris": {"android": "https://dc.lft.to/lastmile_qr_scan", "ios": "https://dc.lft.to/lastmile_qr_scan"}, "is_reserved": 0, "is_disabled": 0, "name": "a64a8fde6a4bec997b4785619e77f25c", "bike_id": "a64a8fde6a4bec997b4785619e77f25c", "fusion_lat": 0.0, "lon": -77.04599533333334, "type": "electric_scooter", "fusion_lon": 0.0, "lat": 38.9165745}, {"rental_uris": {"android": "https://dc.lft.to/lastmile_qr_scan", "ios": "https://dc.lft.to/lastmile_qr_scan"}, "is_reserved": 0, "is_disabled": 0, "name": "f750ce8a41a5bfd8cf970b78cfd51370", "bike_id": "f750ce8a41a5bfd8cf970b78cfd51370", "fusion_lat": 0.0, "lon": -77.02429766666667, "type": "electric_bike", "fusion_lon": 0.0, "lat": 38.923014}, {"rental_uris": {"android": "https://dc.lft.to/lastmile_qr_scan", "ios": "https://dc.lft.to/lastmile_qr_scan"}, "is_reserved": 0, "is_disabled": 0, "name": "51ccb27f29a67edbfff0225b5399bf73", "bike_id": "51ccb27f29a67edbfff0225b5399bf73", "fusion_lat": 0.0, "lon": -76.93081766666667, "type": "electric_scooter", "fusion_lon": 0.0, "lat": 38.895549}, {"rental_uris": {"android": "https://dc.lft.to/lastmile_qr_scan", "ios": "https://dc.lft.to/lastmile_qr_scan"}, "is_reserved": 0, "is_disabled": 0, "name": "72cd611f5d39bb8785b6f217b1712835", "bike_id": "72cd611f5d39bb8785b6f217b1712835", "fusion_lat": 0.0, "lon": -77.006083, "type": "electric_scooter", "fusion_lon": 0.0, "lat": 38.90579316666667}, {"rental_uris": {"android": "https://dc.lft.to/lastmile_qr_scan", "ios": "https://dc.lft.to/lastmile_qr_scan"}, "is_reserved": 0, "is_disabled": 0, "name": "ac64a79f1ae14c56ad7873918cd11d09", "bike_id": "ac64a79f1ae14c56ad7873918cd11d09", "fusion_lat": 0.0, "lon": -76.9988095, "type": "electric_scooter", "fusion_lon": 0.0, "lat": 38.9075115}, {"rental_uris": {"android": "https://dc.lft.to/lastmile_qr_scan", "ios": "https://dc.lft.to/lastmile_qr_scan"}, "is_reserved": 0, "is_disabled": 0, "name": "7e49d3c7195cc94810a32cf43396b8bc", "bike_id": "7e49d3c7195cc94810a32cf43396b8bc", "fusion_lat": 0.0, "lon": -77.04501666666667, "type": "electric_scooter", "fusion_lon": 0.0, "lat": 38.89221516666667}, {"rental_uris": {"android": "https://dc.lft.to/lastmile_qr_scan", "ios": "https://dc.lft.to/lastmile_qr_scan"}, "is_reserved": 0, "is_disabled": 0, "name": "dd4bf14d48c99c7e74eb7f2389a511ef", "bike_id": "dd4bf14d48c99c7e74eb7f2389a511ef", "fusion_lat": 0.0, "lon": -77.03481566666666, "type": "electric_scooter", "fusion_lon": 0.0, "lat": 38.915614833333336}, {"rental_uris": {"android": "https://dc.lft.to/lastmile_qr_scan", "ios": "https://dc.lft.to/lastmile_qr_scan"}, "is_reserved": 0, "is_disabled": 0, "name": "b777db13d692d938007e83dd0b7ee694", "bike_id": "b777db13d692d938007e83dd0b7ee694", "fusion_lat": 0.0, "lon": -77.03195633333333, "type": "electric_scooter", "fusion_lon": 0.0, "lat": 38.917892333333334}, {"rental_uris": {"android": "https://dc.lft.to/lastmile_qr_scan", "ios": "https://dc.lft.to/lastmile_qr_scan"}, "is_reserved": 0, "is_disabled": 0, "name": "1b29b0f81f0b0416ae7fd8a375641424", "bike_id": "1b29b0f81f0b0416ae7fd8a375641424", "fusion_lat": 0.0, "lon": -77.03786166666667, "type": "electric_scooter", "fusion_lon": 0.0, "lat": 38.933232}, {"rental_uris": {"android": "https://dc.lft.to/lastmile_qr_scan", "ios": "https://dc.lft.to/lastmile_qr_scan"}, "is_reserved": 0, "is_disabled": 0, "name": "fb27443b4ee24c3038de3a72aecbfb2f", "bike_id": "fb27443b4ee24c3038de3a72aecbfb2f", "fusion_lat": 0.0, "lon": -77.03180666666667, "type": "electric_scooter", "fusion_lon": 0.0, "lat": 38.916521833333334}, {"rental_uris": {"android": "https://dc.lft.to/lastmile_qr_scan", "ios": "https://dc.lft.to/lastmile_qr_scan"}, "is_reserved": 0, "is_disabled": 0, "name": "5d67662c51fb21015b2d9a7c0dd5a561", "bike_id": "5d67662c51fb21015b2d9a7c0dd5a561", "fusion_lat": 0.0, "lon": -77.03300833333333, "type": "electric_scooter", "fusion_lon": 0.0, "lat": 38.926481}, {"rental_uris": {"android": "https://dc.lft.to/lastmile_qr_scan", "ios": "https://dc.lft.to/lastmile_qr_scan"}, "is_reserved": 0, "is_disabled": 0, "name": "f159d1006e48f4b5a42de890b74f591f", "bike_id": "f159d1006e48f4b5a42de890b74f591f", "fusion_lat": 0.0, "lon": -77.04055433333333, "type": "electric_scooter", "fusion_lon": 0.0, "lat": 38.9095275}, {"rental_uris": {"android": "https://dc.lft.to/lastmile_qr_scan", "ios": "https://dc.lft.to/lastmile_qr_scan"}, "is_reserved": 0, "is_disabled": 0, "name": "ab1738f5c43a1b69f18fb4a9593079c8", "bike_id": "ab1738f5c43a1b69f18fb4a9593079c8", "fusion_lat": 0.0, "lon": -77.04334216666666, "type": "electric_scooter", "fusion_lon": 0.0, "lat": 38.92315633333333}, {"rental_uris": {"android": "https://dc.lft.to/lastmile_qr_scan", "ios": "https://dc.lft.to/lastmile_qr_scan"}, "is_reserved": 0, "is_disabled": 0, "name": "12a12ec0b6abdc9f573f4f3ee187c2ba", "bike_id": "12a12ec0b6abdc9f573f4f3ee187c2ba", "fusion_lat": 0.0, "lon": -77.0295305, "type": "electric_scooter", "fusion_lon": 0.0, "lat": 38.9049855}, {"rental_uris": {"android": "https://dc.lft.to/lastmile_qr_scan", "ios": "https://dc.lft.to/lastmile_qr_scan"}, "is_reserved": 0, "is_disabled": 0, "name": "87275c688b561be89344d75e0319919c", "bike_id": "87275c688b561be89344d75e0319919c", "fusion_lat": 0.0, "lon": -77.02153516666667, "type": "electric_scooter", "fusion_lon": 0.0, "lat": 38.924615833333334}, {"rental_uris": {"android": "https://dc.lft.to/lastmile_qr_scan", "ios": "https://dc.lft.to/lastmile_qr_scan"}, "is_reserved": 0, "is_disabled": 0, "name": "1d2b375cf23ac52130c97b93eff7942c", "bike_id": "1d2b375cf23ac52130c97b93eff7942c", "fusion_lat": 0.0, "lon": -76.983341, "type": "electric_scooter", "fusion_lon": 0.0, "lat": 38.8954355}, {"rental_uris": {"android": "https://dc.lft.to/lastmile_qr_scan", "ios": "https://dc.lft.to/lastmile_qr_scan"}, "is_reserved": 0, "is_disabled": 0, "name": "edb8896986e438257f19b59aa4238d1d", "bike_id": "edb8896986e438257f19b59aa4238d1d", "fusion_lat": 0.0, "lon": -77.05044316666667, "type": "electric_scooter", "fusion_lon": 0.0, "lat": 38.90410133333334}, {"rental_uris": {"android": "https://dc.lft.to/lastmile_qr_scan", "ios": "https://dc.lft.to/lastmile_qr_scan"}, "is_reserved": 0, "is_disabled": 0, "name": "517c55a4a082525427117e72413baef8", "bike_id": "517c55a4a082525427117e72413baef8", "fusion_lat": 0.0, "lon": -77.0157665, "type": "electric_scooter", "fusion_lon": 0.0, "lat": 38.916857}, {"rental_uris": {"android": "https://dc.lft.to/lastmile_qr_scan", "ios": "https://dc.lft.to/lastmile_qr_scan"}, "is_reserved": 0, "is_disabled": 0, "name": "28058911e16b6c46c26054b8927f95cb", "bike_id": "28058911e16b6c46c26054b8927f95cb", "fusion_lat": 0.0, "lon": -77.00891516666667, "type": "electric_bike", "fusion_lon": 0.0, "lat": 38.92147283333333}, {"rental_uris": {"android": "https://dc.lft.to/lastmile_qr_scan", "ios": "https://dc.lft.to/lastmile_qr_scan"}, "is_reserved": 0, "is_disabled": 0, "name": "7d4b8173994cbd7c4a30e76d2ebc8d33", "bike_id": "7d4b8173994cbd7c4a30e76d2ebc8d33", "fusion_lat": 0.0, "lon": -77.0075135, "type": "electric_scooter", "fusion_lon": 0.0, "lat": 38.87121233333333}, {"rental_uris": {"android": "https://dc.lft.to/lastmile_qr_scan", "ios": "https://dc.lft.to/lastmile_qr_scan"}, "is_reserved": 0, "is_disabled": 0, "name": "9003c4a6be54d5b45d7920c407f3de1a", "bike_id": "9003c4a6be54d5b45d7920c407f3de1a", "fusion_lat": 0.0, "lon": -77.0279305, "type": "electric_scooter", "fusion_lon": 0.0, "lat": 38.907582166666664}, {"rental_uris": {"android": "https://dc.lft.to/lastmile_qr_scan", "ios": "https://dc.lft.to/lastmile_qr_scan"}, "is_reserved": 0, "is_disabled": 0, "name": "5aa61e0a996971e6242ecdd0242726ea", "bike_id": "5aa61e0a996971e6242ecdd0242726ea", "fusion_lat": 0.0, "lon": -77.03207016666667, "type": "electric_scooter", "fusion_lon": 0.0, "lat": 38.9160325}, {"rental_uris": {"android": "https://dc.lft.to/lastmile_qr_scan", "ios": "https://dc.lft.to/lastmile_qr_scan"}, "is_reserved": 0, "is_disabled": 0, "name": "7179bd90977889ea7e88de560a6f837d", "bike_id": "7179bd90977889ea7e88de560a6f837d", "fusion_lat": 0.0, "lon": -77.06706633333333, "type": "electric_scooter", "fusion_lon": 0.0, "lat": 38.95011866666667}, {"rental_uris": {"android": "https://dc.lft.to/lastmile_qr_scan", "ios": "https://dc.lft.to/lastmile_qr_scan"}, "is_reserved": 0, "is_disabled": 0, "name": "3ab88df2096cb675af89ffc966ece60e", "bike_id": "3ab88df2096cb675af89ffc966ece60e", "fusion_lat": 0.0, "lon": -77.11412416666667, "type": "electric_bike", "fusion_lon": 0.0, "lat": 38.8732345}, {"rental_uris": {"android": "https://dc.lft.to/lastmile_qr_scan", "ios": "https://dc.lft.to/lastmile_qr_scan"}, "is_reserved": 0, "is_disabled": 0, "name": "eaacaa9d0b55784c17187e07c110b29c", "bike_id": "eaacaa9d0b55784c17187e07c110b29c", "fusion_lat": 0.0, "lon": -77.027632, "type": "electric_scooter", "fusion_lon": 0.0, "lat": 38.954199}, {"rental_uris": {"android": "https://dc.lft.to/lastmile_qr_scan", "ios": "https://dc.lft.to/lastmile_qr_scan"}, "is_reserved": 0, "is_disabled": 0, "name": "62b86d8d2f2a330c54f14efc6770790b", "bike_id": "62b86d8d2f2a330c54f14efc6770790b", "fusion_lat": 0.0, "lon": -77.048761, "type": "electric_scooter", "fusion_lon": 0.0, "lat": 38.893253333333334}, {"rental_uris": {"android": "https://dc.lft.to/lastmile_qr_scan", "ios": "https://dc.lft.to/lastmile_qr_scan"}, "is_reserved": 0, "is_disabled": 0, "name": "b89a636cc90c255fbe3fa79265595ece", "bike_id": "b89a636cc90c255fbe3fa79265595ece", "fusion_lat": 0.0, "lon": -77.02814833333333, "type": "electric_scooter", "fusion_lon": 0.0, "lat": 38.914285666666665}, {"rental_uris": {"android": "https://dc.lft.to/lastmile_qr_scan", "ios": "https://dc.lft.to/lastmile_qr_scan"}, "is_reserved": 0, "is_disabled": 0, "name": "aad5acdb7de10721fdefbef53ef4b706", "bike_id": "aad5acdb7de10721fdefbef53ef4b706", "fusion_lat": 0.0, "lon": -77.0228115, "type": "electric_scooter", "fusion_lon": 0.0, "lat": 38.917855833333334}, {"rental_uris": {"android": "https://dc.lft.to/lastmile_qr_scan", "ios": "https://dc.lft.to/lastmile_qr_scan"}, "is_reserved": 0, "is_disabled": 0, "name": "7afcd45329c05af10bb5fc9e6a7e8d6f", "bike_id": "7afcd45329c05af10bb5fc9e6a7e8d6f", "fusion_lat": 0.0, "lon": -77.0280435, "type": "electric_scooter", "fusion_lon": 0.0, "lat": 38.9308225}, {"rental_uris": {"android": "https://dc.lft.to/lastmile_qr_scan", "ios": "https://dc.lft.to/lastmile_qr_scan"}, "is_reserved": 0, "is_disabled": 0, "name": "eb6b0f7323c692442edefc9cd836c9aa", "bike_id": "eb6b0f7323c692442edefc9cd836c9aa", "fusion_lat": 0.0, "lon": -77.04642733333333, "type": "electric_scooter", "fusion_lon": 0.0, "lat": 38.89223466666667}, {"rental_uris": {"android": "https://dc.lft.to/lastmile_qr_scan", "ios": "https://dc.lft.to/lastmile_qr_scan"}, "is_reserved": 0, "is_disabled": 0, "name": "c6a14ab358ac88396e5e36db2cc3b95c", "bike_id": "c6a14ab358ac88396e5e36db2cc3b95c", "fusion_lat": 0.0, "lon": -77.0260935, "type": "electric_scooter", "fusion_lon": 0.0, "lat": 38.92385866666667}, {"rental_uris": {"android": "https://dc.lft.to/lastmile_qr_scan", "ios": "https://dc.lft.to/lastmile_qr_scan"}, "is_reserved": 0, "is_disabled": 0, "name": "4630bbd73acbf2c003e2e0a5ce26fffe", "bike_id": "4630bbd73acbf2c003e2e0a5ce26fffe", "fusion_lat": 0.0, "lon": -77.05400133333333, "type": "electric_scooter", "fusion_lon": 0.0, "lat": 38.901625333333335}, {"rental_uris": {"android": "https://dc.lft.to/lastmile_qr_scan", "ios": "https://dc.lft.to/lastmile_qr_scan"}, "is_reserved": 0, "is_disabled": 0, "name": "b5a2f697d6a1906af409b4a33e4edc71", "bike_id": "b5a2f697d6a1906af409b4a33e4edc71", "fusion_lat": 0.0, "lon": -76.907459, "type": "electric_bike", "fusion_lon": 0.0, "lat": 38.89618383333333}, {"rental_uris": {"android": "https://dc.lft.to/lastmile_qr_scan", "ios": "https://dc.lft.to/lastmile_qr_scan"}, "is_reserved": 0, "is_disabled": 0, "name": "b405de7aee111785f1acd085751b2fd9", "bike_id": "b405de7aee111785f1acd085751b2fd9", "fusion_lat": 0.0, "lon": -77.0107075, "type": "electric_scooter", "fusion_lon": 0.0, "lat": 38.92130566666667}, {"rental_uris": {"android": "https://dc.lft.to/lastmile_qr_scan", "ios": "https://dc.lft.to/lastmile_qr_scan"}, "is_reserved": 0, "is_disabled": 0, "name": "0e3ae68480362c7c3bb47cc6e8d0252c", "bike_id": "0e3ae68480362c7c3bb47cc6e8d0252c", "fusion_lat": 0.0, "lon": -77.033849, "type": "electric_scooter", "fusion_lon": 0.0, "lat": 38.938417333333334}, {"rental_uris": {"android": "https://dc.lft.to/lastmile_qr_scan", "ios": "https://dc.lft.to/lastmile_qr_scan"}, "is_reserved": 0, "is_disabled": 0, "name": "225ce08f6c97acde2381e3d1e053ce33", "bike_id": "225ce08f6c97acde2381e3d1e053ce33", "fusion_lat": 0.0, "lon": -77.0053265, "type": "electric_scooter", "fusion_lon": 0.0, "lat": 38.874718666666666}, {"rental_uris": {"android": "https://dc.lft.to/lastmile_qr_scan", "ios": "https://dc.lft.to/lastmile_qr_scan"}, "is_reserved": 0, "is_disabled": 0, "name": "cea468b745d949e8377f3c8ad6582f49", "bike_id": "cea468b745d949e8377f3c8ad6582f49", "fusion_lat": 0.0, "lon": -77.129794, "type": "electric_bike", "fusion_lon": 0.0, "lat": 38.79984533333333}, {"rental_uris": {"android": "https://dc.lft.to/lastmile_qr_scan", "ios": "https://dc.lft.to/lastmile_qr_scan"}, "is_reserved": 0, "is_disabled": 0, "name": "57e9150999ad97a9d46cb34a94397b18", "bike_id": "57e9150999ad97a9d46cb34a94397b18", "fusion_lat": 0.0, "lon": -77.0403755, "type": "electric_scooter", "fusion_lon": 0.0, "lat": 38.904003833333334}, {"rental_uris": {"android": "https://dc.lft.to/lastmile_qr_scan", "ios": "https://dc.lft.to/lastmile_qr_scan"}, "is_reserved": 0, "is_disabled": 0, "name": "afcaff541dd6755d8e4c09bd657905bd", "bike_id": "afcaff541dd6755d8e4c09bd657905bd", "fusion_lat": 0.0, "lon": -77.02284133333333, "type": "electric_scooter", "fusion_lon": 0.0, "lat": 38.917771}, {"rental_uris": {"android": "https://dc.lft.to/lastmile_qr_scan", "ios": "https://dc.lft.to/lastmile_qr_scan"}, "is_reserved": 0, "is_disabled": 0, "name": "67169c4ae106ad046b305f901c1f308b", "bike_id": "67169c4ae106ad046b305f901c1f308b", "fusion_lat": 0.0, "lon": -76.99803233333333, "type": "electric_scooter", "fusion_lon": 0.0, "lat": 38.905619}, {"rental_uris": {"android": "https://dc.lft.to/lastmile_qr_scan", "ios": "https://dc.lft.to/lastmile_qr_scan"}, "is_reserved": 0, "is_disabled": 0, "name": "4fabffea4bb228ffee61cfb4583d7cb5", "bike_id": "4fabffea4bb228ffee61cfb4583d7cb5", "fusion_lat": 0.0, "lon": -77.04676266666667, "type": "electric_scooter", "fusion_lon": 0.0, "lat": 38.89558483333333}, {"rental_uris": {"android": "https://dc.lft.to/lastmile_qr_scan", "ios": "https://dc.lft.to/lastmile_qr_scan"}, "is_reserved": 0, "is_disabled": 0, "name": "05be39baff91bbf40d8370a92e8907f8", "bike_id": "05be39baff91bbf40d8370a92e8907f8", "fusion_lat": 0.0, "lon": -77.02714216666666, "type": "electric_scooter", "fusion_lon": 0.0, "lat": 38.924662833333336}, {"rental_uris": {"android": "https://dc.lft.to/lastmile_qr_scan", "ios": "https://dc.lft.to/lastmile_qr_scan"}, "is_reserved": 0, "is_disabled": 0, "name": "c7a6b6e60b4fdc0c3d4f5e9dab70bfd1", "bike_id": "c7a6b6e60b4fdc0c3d4f5e9dab70bfd1", "fusion_lat": 0.0, "lon": -77.02174866666667, "type": "electric_scooter", "fusion_lon": 0.0, "lat": 38.914801}, {"rental_uris": {"android": "https://dc.lft.to/lastmile_qr_scan", "ios": "https://dc.lft.to/lastmile_qr_scan"}, "is_reserved": 0, "is_disabled": 0, "name": "3b27d326d79434e7c14243af29e655b6", "bike_id": "3b27d326d79434e7c14243af29e655b6", "fusion_lat": 0.0, "lon": -76.98767083333334, "type": "electric_bike", "fusion_lon": 0.0, "lat": 38.85770016666667}, {"rental_uris": {"android": "https://dc.lft.to/lastmile_qr_scan", "ios": "https://dc.lft.to/lastmile_qr_scan"}, "is_reserved": 0, "is_disabled": 0, "name": "e2bdc14e3a19123e31e671888b3ec78b", "bike_id": "e2bdc14e3a19123e31e671888b3ec78b", "fusion_lat": 0.0, "lon": -77.02018266666667, "type": "electric_scooter", "fusion_lon": 0.0, "lat": 38.9156585}, {"rental_uris": {"android": "https://dc.lft.to/lastmile_qr_scan", "ios": "https://dc.lft.to/lastmile_qr_scan"}, "is_reserved": 0, "is_disabled": 0, "name": "423a68198252d7e1095d9e8c238b676b", "bike_id": "423a68198252d7e1095d9e8c238b676b", "fusion_lat": 0.0, "lon": -76.97334483333333, "type": "electric_scooter", "fusion_lon": 0.0, "lat": 38.904081833333336}, {"rental_uris": {"android": "https://dc.lft.to/lastmile_qr_scan", "ios": "https://dc.lft.to/lastmile_qr_scan"}, "is_reserved": 0, "is_disabled": 0, "name": "4532c3fabcb2e130f2de1456cd226f73", "bike_id": "4532c3fabcb2e130f2de1456cd226f73", "fusion_lat": 0.0, "lon": -77.03022683333333, "type": "electric_scooter", "fusion_lon": 0.0, "lat": 38.878482}, {"rental_uris": {"android": "https://dc.lft.to/lastmile_qr_scan", "ios": "https://dc.lft.to/lastmile_qr_scan"}, "is_reserved": 0, "is_disabled": 0, "name": "cbe85d1df9075195303ff1212216b52d", "bike_id": "cbe85d1df9075195303ff1212216b52d", "fusion_lat": 0.0, "lon": -77.05891716666666, "type": "electric_scooter", "fusion_lon": 0.0, "lat": 38.93607733333333}, {"rental_uris": {"android": "https://dc.lft.to/lastmile_qr_scan", "ios": "https://dc.lft.to/lastmile_qr_scan"}, "is_reserved": 0, "is_disabled": 0, "name": "ea9a541b305e8421c813faa5f297e976", "bike_id": "ea9a541b305e8421c813faa5f297e976", "fusion_lat": 0.0, "lon": -77.00782883333333, "type": "electric_scooter", "fusion_lon": 0.0, "lat": 38.89739983333333}, {"rental_uris": {"android": "https://dc.lft.to/lastmile_qr_scan", "ios": "https://dc.lft.to/lastmile_qr_scan"}, "is_reserved": 0, "is_disabled": 0, "name": "107afc93f1f580ae484bbd995dd2d961", "bike_id": "107afc93f1f580ae484bbd995dd2d961", "fusion_lat": 0.0, "lon": -77.03929216666667, "type": "electric_scooter", "fusion_lon": 0.0, "lat": 38.924739833333334}, {"rental_uris": {"android": "https://dc.lft.to/lastmile_qr_scan", "ios": "https://dc.lft.to/lastmile_qr_scan"}, "is_reserved": 0, "is_disabled": 0, "name": "a98667a88d5dd672f6b97b593d24754b", "bike_id": "a98667a88d5dd672f6b97b593d24754b", "fusion_lat": 0.0, "lon": -77.02942866666666, "type": "electric_scooter", "fusion_lon": 0.0, "lat": 38.9072245}, {"rental_uris": {"android": "https://dc.lft.to/lastmile_qr_scan", "ios": "https://dc.lft.to/lastmile_qr_scan"}, "is_reserved": 0, "is_disabled": 0, "name": "20bde208dae77137da398037ad01d635", "bike_id": "20bde208dae77137da398037ad01d635", "fusion_lat": 0.0, "lon": -77.0201855, "type": "electric_scooter", "fusion_lon": 0.0, "lat": 38.92443333333333}, {"rental_uris": {"android": "https://dc.lft.to/lastmile_qr_scan", "ios": "https://dc.lft.to/lastmile_qr_scan"}, "is_reserved": 0, "is_disabled": 0, "name": "2a6177edab07e8a6168706f0b465f794", "bike_id": "2a6177edab07e8a6168706f0b465f794", "fusion_lat": 0.0, "lon": -77.05025633333334, "type": "electric_scooter", "fusion_lon": 0.0, "lat": 38.89654983333333}, {"rental_uris": {"android": "https://dc.lft.to/lastmile_qr_scan", "ios": "https://dc.lft.to/lastmile_qr_scan"}, "is_reserved": 0, "is_disabled": 0, "name": "2b5a767384ac0ca0fb25336f3211f5b4", "bike_id": "2b5a767384ac0ca0fb25336f3211f5b4", "fusion_lat": 0.0, "lon": -77.0272685, "type": "electric_scooter", "fusion_lon": 0.0, "lat": 38.932540833333334}, {"rental_uris": {"android": "https://dc.lft.to/lastmile_qr_scan", "ios": "https://dc.lft.to/lastmile_qr_scan"}, "is_reserved": 0, "is_disabled": 0, "name": "9e8de6d952f1c52972d59929e17c58fc", "bike_id": "9e8de6d952f1c52972d59929e17c58fc", "fusion_lat": 0.0, "lon": -76.997467, "type": "electric_bike", "fusion_lon": 0.0, "lat": 38.92410983333333}, {"rental_uris": {"android": "https://dc.lft.to/lastmile_qr_scan", "ios": "https://dc.lft.to/lastmile_qr_scan"}, "is_reserved": 0, "is_disabled": 0, "name": "ea91715e93420557c813cb2d7a1897b4", "bike_id": "ea91715e93420557c813cb2d7a1897b4", "fusion_lat": 0.0, "lon": -77.0431845, "type": "electric_scooter", "fusion_lon": 0.0, "lat": 38.9188515}, {"rental_uris": {"android": "https://dc.lft.to/lastmile_qr_scan", "ios": "https://dc.lft.to/lastmile_qr_scan"}, "is_reserved": 0, "is_disabled": 0, "name": "9f51c2d3215b3c953fc1e33871e354b8", "bike_id": "9f51c2d3215b3c953fc1e33871e354b8", "fusion_lat": 0.0, "lon": -77.029553, "type": "electric_scooter", "fusion_lon": 0.0, "lat": 38.91650333333333}, {"rental_uris": {"android": "https://dc.lft.to/lastmile_qr_scan", "ios": "https://dc.lft.to/lastmile_qr_scan"}, "is_reserved": 0, "is_disabled": 0, "name": "44c5fab6cfa8a5a48d09fa1c9695c677", "bike_id": "44c5fab6cfa8a5a48d09fa1c9695c677", "fusion_lat": 0.0, "lon": -77.07850666666667, "type": "electric_scooter", "fusion_lon": 0.0, "lat": 38.945994666666664}, {"rental_uris": {"android": "https://dc.lft.to/lastmile_qr_scan", "ios": "https://dc.lft.to/lastmile_qr_scan"}, "is_reserved": 0, "is_disabled": 0, "name": "ad0475693799b56a11c1077c372447c4", "bike_id": "ad0475693799b56a11c1077c372447c4", "fusion_lat": 0.0, "lon": -77.01816633333334, "type": "electric_scooter", "fusion_lon": 0.0, "lat": 38.921539333333335}, {"rental_uris": {"android": "https://dc.lft.to/lastmile_qr_scan", "ios": "https://dc.lft.to/lastmile_qr_scan"}, "is_reserved": 0, "is_disabled": 0, "name": "44b040d81065c9863d1cb076b7cddf4d", "bike_id": "44b040d81065c9863d1cb076b7cddf4d", "fusion_lat": 0.0, "lon": -77.041534, "type": "electric_scooter", "fusion_lon": 0.0, "lat": 38.9171665}, {"rental_uris": {"android": "https://dc.lft.to/lastmile_qr_scan", "ios": "https://dc.lft.to/lastmile_qr_scan"}, "is_reserved": 0, "is_disabled": 0, "name": "581f5a089d831e73cd703af647014032", "bike_id": "581f5a089d831e73cd703af647014032", "fusion_lat": 0.0, "lon": -77.05357333333333, "type": "electric_scooter", "fusion_lon": 0.0, "lat": 38.927077}, {"rental_uris": {"android": "https://dc.lft.to/lastmile_qr_scan", "ios": "https://dc.lft.to/lastmile_qr_scan"}, "is_reserved": 0, "is_disabled": 0, "name": "0add24f08f38342c44b4ee3f0003ce7e", "bike_id": "0add24f08f38342c44b4ee3f0003ce7e", "fusion_lat": 0.0, "lon": -76.98113816666667, "type": "electric_bike", "fusion_lon": 0.0, "lat": 38.94572216666667}, {"rental_uris": {"android": "https://dc.lft.to/lastmile_qr_scan", "ios": "https://dc.lft.to/lastmile_qr_scan"}, "is_reserved": 0, "is_disabled": 0, "name": "a4f35a658c787b0a4674b7e0d7dad805", "bike_id": "a4f35a658c787b0a4674b7e0d7dad805", "fusion_lat": 0.0, "lon": -77.03438416666667, "type": "electric_scooter", "fusion_lon": 0.0, "lat": 38.91806416666667}, {"rental_uris": {"android": "https://dc.lft.to/lastmile_qr_scan", "ios": "https://dc.lft.to/lastmile_qr_scan"}, "is_reserved": 0, "is_disabled": 0, "name": "c8d3a94562733aa65fed02f6dfc70337", "bike_id": "c8d3a94562733aa65fed02f6dfc70337", "fusion_lat": 0.0, "lon": -77.045672, "type": "electric_scooter", "fusion_lon": 0.0, "lat": 38.91944766666667}, {"rental_uris": {"android": "https://dc.lft.to/lastmile_qr_scan", "ios": "https://dc.lft.to/lastmile_qr_scan"}, "is_reserved": 0, "is_disabled": 0, "name": "f9ec1355e5f95865b8ba53a657b72535", "bike_id": "f9ec1355e5f95865b8ba53a657b72535", "fusion_lat": 0.0, "lon": -77.04027316666667, "type": "electric_scooter", "fusion_lon": 0.0, "lat": 38.89840933333333}, {"rental_uris": {"android": "https://dc.lft.to/lastmile_qr_scan", "ios": "https://dc.lft.to/lastmile_qr_scan"}, "is_reserved": 0, "is_disabled": 0, "name": "e11be97a829d238efc9586ed041a50e1", "bike_id": "e11be97a829d238efc9586ed041a50e1", "fusion_lat": 0.0, "lon": -76.98383183333334, "type": "electric_scooter", "fusion_lon": 0.0, "lat": 38.879423}, {"rental_uris": {"android": "https://dc.lft.to/lastmile_qr_scan", "ios": "https://dc.lft.to/lastmile_qr_scan"}, "is_reserved": 0, "is_disabled": 0, "name": "771fe07d27c6ef08cd2a0992579f7fba", "bike_id": "771fe07d27c6ef08cd2a0992579f7fba", "fusion_lat": 0.0, "lon": -77.082446, "type": "electric_scooter", "fusion_lon": 0.0, "lat": 38.90736}, {"rental_uris": {"android": "https://dc.lft.to/lastmile_qr_scan", "ios": "https://dc.lft.to/lastmile_qr_scan"}, "is_reserved": 0, "is_disabled": 0, "name": "bf69fd65ad55c106bed1277cc5dacd4d", "bike_id": "bf69fd65ad55c106bed1277cc5dacd4d", "fusion_lat": 0.0, "lon": -77.03202316666666, "type": "electric_scooter", "fusion_lon": 0.0, "lat": 38.911458333333336}, {"rental_uris": {"android": "https://dc.lft.to/lastmile_qr_scan", "ios": "https://dc.lft.to/lastmile_qr_scan"}, "is_reserved": 0, "is_disabled": 0, "name": "4657560019368eeffcb7edb4b0237937", "bike_id": "4657560019368eeffcb7edb4b0237937", "fusion_lat": 0.0, "lon": -77.01045583333334, "type": "electric_scooter", "fusion_lon": 0.0, "lat": 38.921238333333335}, {"rental_uris": {"android": "https://dc.lft.to/lastmile_qr_scan", "ios": "https://dc.lft.to/lastmile_qr_scan"}, "is_reserved": 0, "is_disabled": 0, "name": "7c4ce29e5bc2fc450869a3416d2bdb2b", "bike_id": "7c4ce29e5bc2fc450869a3416d2bdb2b", "fusion_lat": 0.0, "lon": -77.11287066666667, "type": "electric_bike", "fusion_lon": 0.0, "lat": 38.83104}, {"rental_uris": {"android": "https://dc.lft.to/lastmile_qr_scan", "ios": "https://dc.lft.to/lastmile_qr_scan"}, "is_reserved": 0, "is_disabled": 0, "name": "8247ad1cc2b0c062b4a1183f2797ee61", "bike_id": "8247ad1cc2b0c062b4a1183f2797ee61", "fusion_lat": 0.0, "lon": -77.034137, "type": "electric_scooter", "fusion_lon": 0.0, "lat": 38.914029666666664}, {"rental_uris": {"android": "https://dc.lft.to/lastmile_qr_scan", "ios": "https://dc.lft.to/lastmile_qr_scan"}, "is_reserved": 0, "is_disabled": 0, "name": "4247a7374ed7c60c984cba3ae7834980", "bike_id": "4247a7374ed7c60c984cba3ae7834980", "fusion_lat": 0.0, "lon": -77.0268965, "type": "electric_scooter", "fusion_lon": 0.0, "lat": 38.930807333333334}, {"rental_uris": {"android": "https://dc.lft.to/lastmile_qr_scan", "ios": "https://dc.lft.to/lastmile_qr_scan"}, "is_reserved": 0, "is_disabled": 0, "name": "403a5285665442031f4f61dd10f5db9a", "bike_id": "403a5285665442031f4f61dd10f5db9a", "fusion_lat": 0.0, "lon": -77.03857583333334, "type": "electric_scooter", "fusion_lon": 0.0, "lat": 38.917142166666665}, {"rental_uris": {"android": "https://dc.lft.to/lastmile_qr_scan", "ios": "https://dc.lft.to/lastmile_qr_scan"}, "is_reserved": 0, "is_disabled": 0, "name": "4bf15e793b31060b60d32dd0142c16b5", "bike_id": "4bf15e793b31060b60d32dd0142c16b5", "fusion_lat": 0.0, "lon": -77.05151633333334, "type": "electric_scooter", "fusion_lon": 0.0, "lat": 38.923751}, {"rental_uris": {"android": "https://dc.lft.to/lastmile_qr_scan", "ios": "https://dc.lft.to/lastmile_qr_scan"}, "is_reserved": 0, "is_disabled": 0, "name": "aaefe25cc39ffbfef0a7c27eb77a21ff", "bike_id": "aaefe25cc39ffbfef0a7c27eb77a21ff", "fusion_lat": 0.0, "lon": -77.02316616666667, "type": "electric_scooter", "fusion_lon": 0.0, "lat": 38.894627666666665}, {"rental_uris": {"android": "https://dc.lft.to/lastmile_qr_scan", "ios": "https://dc.lft.to/lastmile_qr_scan"}, "is_reserved": 0, "is_disabled": 0, "name": "4cee43c28bad5bb43aa7ee83a562390c", "bike_id": "4cee43c28bad5bb43aa7ee83a562390c", "fusion_lat": 0.0, "lon": -77.00385766666666, "type": "electric_bike", "fusion_lon": 0.0, "lat": 38.83431383333333}, {"rental_uris": {"android": "https://dc.lft.to/lastmile_qr_scan", "ios": "https://dc.lft.to/lastmile_qr_scan"}, "is_reserved": 0, "is_disabled": 0, "name": "f90544f957a9df3d20b8c88eaff5a0b3", "bike_id": "f90544f957a9df3d20b8c88eaff5a0b3", "fusion_lat": 0.0, "lon": -77.03214133333333, "type": "electric_bike", "fusion_lon": 0.0, "lat": 38.911584833333336}, {"rental_uris": {"android": "https://dc.lft.to/lastmile_qr_scan", "ios": "https://dc.lft.to/lastmile_qr_scan"}, "is_reserved": 0, "is_disabled": 0, "name": "33414aa241a4004f5007875986d443f0", "bike_id": "33414aa241a4004f5007875986d443f0", "fusion_lat": 0.0, "lon": -77.02009733333334, "type": "electric_bike", "fusion_lon": 0.0, "lat": 39.026226}, {"rental_uris": {"android": "https://dc.lft.to/lastmile_qr_scan", "ios": "https://dc.lft.to/lastmile_qr_scan"}, "is_reserved": 0, "is_disabled": 0, "name": "1c42b28abec1196d96ccb2853bad38b3", "bike_id": "1c42b28abec1196d96ccb2853bad38b3", "fusion_lat": 0.0, "lon": -77.0282945, "type": "electric_scooter", "fusion_lon": 0.0, "lat": 38.931693333333335}, {"rental_uris": {"android": "https://dc.lft.to/lastmile_qr_scan", "ios": "https://dc.lft.to/lastmile_qr_scan"}, "is_reserved": 0, "is_disabled": 0, "name": "142ea1f851ea0c5dfeb97052f15aafe2", "bike_id": "142ea1f851ea0c5dfeb97052f15aafe2", "fusion_lat": 0.0, "lon": -77.05152433333333, "type": "electric_scooter", "fusion_lon": 0.0, "lat": 38.92375166666667}, {"rental_uris": {"android": "https://dc.lft.to/lastmile_qr_scan", "ios": "https://dc.lft.to/lastmile_qr_scan"}, "is_reserved": 0, "is_disabled": 0, "name": "65c87ddd375f1063b4cc85e40989c4af", "bike_id": "65c87ddd375f1063b4cc85e40989c4af", "fusion_lat": 0.0, "lon": -77.02308866666667, "type": "electric_scooter", "fusion_lon": 0.0, "lat": 38.91287366666667}, {"rental_uris": {"android": "https://dc.lft.to/lastmile_qr_scan", "ios": "https://dc.lft.to/lastmile_qr_scan"}, "is_reserved": 0, "is_disabled": 0, "name": "a895f5a99eb852ac48b73947eef2f5f6", "bike_id": "a895f5a99eb852ac48b73947eef2f5f6", "fusion_lat": 0.0, "lon": -77.02970566666667, "type": "electric_scooter", "fusion_lon": 0.0, "lat": 38.9226295}, {"rental_uris": {"android": "https://dc.lft.to/lastmile_qr_scan", "ios": "https://dc.lft.to/lastmile_qr_scan"}, "is_reserved": 0, "is_disabled": 0, "name": "28f471a075af807bdc4dd18ad2543a35", "bike_id": "28f471a075af807bdc4dd18ad2543a35", "fusion_lat": 0.0, "lon": -77.04884916666667, "type": "electric_scooter", "fusion_lon": 0.0, "lat": 38.897532}, {"rental_uris": {"android": "https://dc.lft.to/lastmile_qr_scan", "ios": "https://dc.lft.to/lastmile_qr_scan"}, "is_reserved": 0, "is_disabled": 0, "name": "b86cd7b7b606996fc08f0a5708312d70", "bike_id": "b86cd7b7b606996fc08f0a5708312d70", "fusion_lat": 0.0, "lon": -77.01690016666667, "type": "electric_scooter", "fusion_lon": 0.0, "lat": 38.9064415}, {"rental_uris": {"android": "https://dc.lft.to/lastmile_qr_scan", "ios": "https://dc.lft.to/lastmile_qr_scan"}, "is_reserved": 0, "is_disabled": 0, "name": "a327ba2bc768fb063f3356f9874f4df5", "bike_id": "a327ba2bc768fb063f3356f9874f4df5", "fusion_lat": 0.0, "lon": -77.01285716666666, "type": "electric_scooter", "fusion_lon": 0.0, "lat": 38.900495666666664}, {"rental_uris": {"android": "https://dc.lft.to/lastmile_qr_scan", "ios": "https://dc.lft.to/lastmile_qr_scan"}, "is_reserved": 0, "is_disabled": 0, "name": "d9b8b204a0b8076c3a077b94689a47d9", "bike_id": "d9b8b204a0b8076c3a077b94689a47d9", "fusion_lat": 0.0, "lon": -77.04498516666666, "type": "electric_scooter", "fusion_lon": 0.0, "lat": 38.89226}, {"rental_uris": {"android": "https://dc.lft.to/lastmile_qr_scan", "ios": "https://dc.lft.to/lastmile_qr_scan"}, "is_reserved": 0, "is_disabled": 0, "name": "5ebbb5591113b348a2391b6f545d234b", "bike_id": "5ebbb5591113b348a2391b6f545d234b", "fusion_lat": 0.0, "lon": -77.02823733333334, "type": "electric_scooter", "fusion_lon": 0.0, "lat": 38.88737883333334}, {"rental_uris": {"android": "https://dc.lft.to/lastmile_qr_scan", "ios": "https://dc.lft.to/lastmile_qr_scan"}, "is_reserved": 0, "is_disabled": 0, "name": "06548a56aae077cd958d5e78aec40510", "bike_id": "06548a56aae077cd958d5e78aec40510", "fusion_lat": 0.0, "lon": -77.02190916666666, "type": "electric_scooter", "fusion_lon": 0.0, "lat": 38.9065685}, {"rental_uris": {"android": "https://dc.lft.to/lastmile_qr_scan", "ios": "https://dc.lft.to/lastmile_qr_scan"}, "is_reserved": 0, "is_disabled": 0, "name": "94f7ad8ae27fd09a49078fcf193a1653", "bike_id": "94f7ad8ae27fd09a49078fcf193a1653", "fusion_lat": 0.0, "lon": -77.00543133333333, "type": "electric_scooter", "fusion_lon": 0.0, "lat": 38.88043716666667}, {"rental_uris": {"android": "https://dc.lft.to/lastmile_qr_scan", "ios": "https://dc.lft.to/lastmile_qr_scan"}, "is_reserved": 0, "is_disabled": 0, "name": "f670a3bd0049690c4eb513d9d93f01fd", "bike_id": "f670a3bd0049690c4eb513d9d93f01fd", "fusion_lat": 0.0, "lon": -76.9836045, "type": "electric_scooter", "fusion_lon": 0.0, "lat": 38.887332666666666}, {"rental_uris": {"android": "https://dc.lft.to/lastmile_qr_scan", "ios": "https://dc.lft.to/lastmile_qr_scan"}, "is_reserved": 0, "is_disabled": 0, "name": "1991da3245346abd314d5cdc5e2737fa", "bike_id": "1991da3245346abd314d5cdc5e2737fa", "fusion_lat": 0.0, "lon": -77.00212033333334, "type": "electric_scooter", "fusion_lon": 0.0, "lat": 38.91102566666667}, {"rental_uris": {"android": "https://dc.lft.to/lastmile_qr_scan", "ios": "https://dc.lft.to/lastmile_qr_scan"}, "is_reserved": 0, "is_disabled": 0, "name": "54fe8fa221e177ba63bea5e0ea7cf272", "bike_id": "54fe8fa221e177ba63bea5e0ea7cf272", "fusion_lat": 0.0, "lon": -77.031669, "type": "electric_scooter", "fusion_lon": 0.0, "lat": 38.89215766666667}, {"rental_uris": {"android": "https://dc.lft.to/lastmile_qr_scan", "ios": "https://dc.lft.to/lastmile_qr_scan"}, "is_reserved": 0, "is_disabled": 0, "name": "6c097678516204f681f6b17bac701a5f", "bike_id": "6c097678516204f681f6b17bac701a5f", "fusion_lat": 0.0, "lon": -77.06413816666667, "type": "electric_scooter", "fusion_lon": 0.0, "lat": 38.914610833333334}, {"rental_uris": {"android": "https://dc.lft.to/lastmile_qr_scan", "ios": "https://dc.lft.to/lastmile_qr_scan"}, "is_reserved": 0, "is_disabled": 0, "name": "b2b6b1f8078b68930d9e8bbcc93e4f7d", "bike_id": "b2b6b1f8078b68930d9e8bbcc93e4f7d", "fusion_lat": 0.0, "lon": -77.06451983333334, "type": "electric_scooter", "fusion_lon": 0.0, "lat": 38.948783166666665}, {"rental_uris": {"android": "https://dc.lft.to/lastmile_qr_scan", "ios": "https://dc.lft.to/lastmile_qr_scan"}, "is_reserved": 0, "is_disabled": 0, "name": "45d46a2a9b2d54d6619c95ac93d1f760", "bike_id": "45d46a2a9b2d54d6619c95ac93d1f760", "fusion_lat": 0.0, "lon": -76.925019, "type": "electric_scooter", "fusion_lon": 0.0, "lat": 38.88602916666667}, {"rental_uris": {"android": "https://dc.lft.to/lastmile_qr_scan", "ios": "https://dc.lft.to/lastmile_qr_scan"}, "is_reserved": 0, "is_disabled": 0, "name": "2d2304fd8bfdc61b808653d27fe48e30", "bike_id": "2d2304fd8bfdc61b808653d27fe48e30", "fusion_lat": 0.0, "lon": -77.02478316666667, "type": "electric_scooter", "fusion_lon": 0.0, "lat": 38.918133}, {"rental_uris": {"android": "https://dc.lft.to/lastmile_qr_scan", "ios": "https://dc.lft.to/lastmile_qr_scan"}, "is_reserved": 0, "is_disabled": 0, "name": "6fe4e04991a52be07104716e1fb0a80e", "bike_id": "6fe4e04991a52be07104716e1fb0a80e", "fusion_lat": 0.0, "lon": -77.0047915, "type": "electric_scooter", "fusion_lon": 0.0, "lat": 38.87460216666667}, {"rental_uris": {"android": "https://dc.lft.to/lastmile_qr_scan", "ios": "https://dc.lft.to/lastmile_qr_scan"}, "is_reserved": 0, "is_disabled": 0, "name": "d34ef6dc01f1425e23496821f6d44f64", "bike_id": "d34ef6dc01f1425e23496821f6d44f64", "fusion_lat": 0.0, "lon": -77.01904266666666, "type": "electric_scooter", "fusion_lon": 0.0, "lat": 38.921791}, {"rental_uris": {"android": "https://dc.lft.to/lastmile_qr_scan", "ios": "https://dc.lft.to/lastmile_qr_scan"}, "is_reserved": 0, "is_disabled": 0, "name": "5450f72d30ddc9e341faab871c4f5c22", "bike_id": "5450f72d30ddc9e341faab871c4f5c22", "fusion_lat": 0.0, "lon": -76.977207, "type": "electric_scooter", "fusion_lon": 0.0, "lat": 38.88821033333333}, {"rental_uris": {"android": "https://dc.lft.to/lastmile_qr_scan", "ios": "https://dc.lft.to/lastmile_qr_scan"}, "is_reserved": 0, "is_disabled": 0, "name": "fb2175077cc3eb587093968e97156079", "bike_id": "fb2175077cc3eb587093968e97156079", "fusion_lat": 0.0, "lon": -77.03655283333333, "type": "electric_scooter", "fusion_lon": 0.0, "lat": 38.936431166666665}, {"rental_uris": {"android": "https://dc.lft.to/lastmile_qr_scan", "ios": "https://dc.lft.to/lastmile_qr_scan"}, "is_reserved": 0, "is_disabled": 0, "name": "605e19e66a1ff31830927eec37bd37cc", "bike_id": "605e19e66a1ff31830927eec37bd37cc", "fusion_lat": 0.0, "lon": -77.03174616666666, "type": "electric_scooter", "fusion_lon": 0.0, "lat": 38.88396016666667}, {"rental_uris": {"android": "https://dc.lft.to/lastmile_qr_scan", "ios": "https://dc.lft.to/lastmile_qr_scan"}, "is_reserved": 0, "is_disabled": 0, "name": "08e927065916fc1d09d9bb252583bba4", "bike_id": "08e927065916fc1d09d9bb252583bba4", "fusion_lat": 0.0, "lon": -77.02661633333334, "type": "electric_scooter", "fusion_lon": 0.0, "lat": 38.938736}, {"rental_uris": {"android": "https://dc.lft.to/lastmile_qr_scan", "ios": "https://dc.lft.to/lastmile_qr_scan"}, "is_reserved": 0, "is_disabled": 0, "name": "ed0de6d6435befee14f23008c6986781", "bike_id": "ed0de6d6435befee14f23008c6986781", "fusion_lat": 0.0, "lon": -77.0318375, "type": "electric_scooter", "fusion_lon": 0.0, "lat": 38.9141185}, {"rental_uris": {"android": "https://dc.lft.to/lastmile_qr_scan", "ios": "https://dc.lft.to/lastmile_qr_scan"}, "is_reserved": 0, "is_disabled": 0, "name": "675e74dbe9cbb85175b19da04c350154", "bike_id": "675e74dbe9cbb85175b19da04c350154", "fusion_lat": 0.0, "lon": -77.05812933333333, "type": "electric_scooter", "fusion_lon": 0.0, "lat": 38.9063575}, {"rental_uris": {"android": "https://dc.lft.to/lastmile_qr_scan", "ios": "https://dc.lft.to/lastmile_qr_scan"}, "is_reserved": 0, "is_disabled": 0, "name": "3bd07c4deaeacda689d7eb32cb5f7049", "bike_id": "3bd07c4deaeacda689d7eb32cb5f7049", "fusion_lat": 0.0, "lon": -76.98353716666666, "type": "electric_bike", "fusion_lon": 0.0, "lat": 38.86258183333333}, {"rental_uris": {"android": "https://dc.lft.to/lastmile_qr_scan", "ios": "https://dc.lft.to/lastmile_qr_scan"}, "is_reserved": 0, "is_disabled": 0, "name": "149e99f7afb603a74e2bdcf176663d37", "bike_id": "149e99f7afb603a74e2bdcf176663d37", "fusion_lat": 0.0, "lon": -77.05887366666667, "type": "electric_scooter", "fusion_lon": 0.0, "lat": 38.9361125}, {"rental_uris": {"android": "https://dc.lft.to/lastmile_qr_scan", "ios": "https://dc.lft.to/lastmile_qr_scan"}, "is_reserved": 0, "is_disabled": 0, "name": "e8f28a40ecc40255a9ebc3cebc35f8d0", "bike_id": "e8f28a40ecc40255a9ebc3cebc35f8d0", "fusion_lat": 0.0, "lon": -77.041562, "type": "electric_scooter", "fusion_lon": 0.0, "lat": 38.916200833333335}, {"rental_uris": {"android": "https://dc.lft.to/lastmile_qr_scan", "ios": "https://dc.lft.to/lastmile_qr_scan"}, "is_reserved": 0, "is_disabled": 0, "name": "3c1a0543247e0212b97439258772fbfa", "bike_id": "3c1a0543247e0212b97439258772fbfa", "fusion_lat": 0.0, "lon": -76.98356566666666, "type": "electric_scooter", "fusion_lon": 0.0, "lat": 38.887333166666664}, {"rental_uris": {"android": "https://dc.lft.to/lastmile_qr_scan", "ios": "https://dc.lft.to/lastmile_qr_scan"}, "is_reserved": 0, "is_disabled": 0, "name": "a7588295d34f63263cebd9dfd2dd7327", "bike_id": "a7588295d34f63263cebd9dfd2dd7327", "fusion_lat": 0.0, "lon": -77.03257683333334, "type": "electric_scooter", "fusion_lon": 0.0, "lat": 38.939703333333334}, {"rental_uris": {"android": "https://dc.lft.to/lastmile_qr_scan", "ios": "https://dc.lft.to/lastmile_qr_scan"}, "is_reserved": 0, "is_disabled": 0, "name": "0cfeba923d8f6546f6d9578a094fe2c7", "bike_id": "0cfeba923d8f6546f6d9578a094fe2c7", "fusion_lat": 0.0, "lon": -77.02714733333333, "type": "electric_scooter", "fusion_lon": 0.0, "lat": 38.906848333333336}, {"rental_uris": {"android": "https://dc.lft.to/lastmile_qr_scan", "ios": "https://dc.lft.to/lastmile_qr_scan"}, "is_reserved": 0, "is_disabled": 0, "name": "8052963ad9febd71564c0909c5540c13", "bike_id": "8052963ad9febd71564c0909c5540c13", "fusion_lat": 0.0, "lon": -77.02341933333334, "type": "electric_scooter", "fusion_lon": 0.0, "lat": 38.88137666666667}, {"rental_uris": {"android": "https://dc.lft.to/lastmile_qr_scan", "ios": "https://dc.lft.to/lastmile_qr_scan"}, "is_reserved": 0, "is_disabled": 0, "name": "6b7bf15a6c8214314f122df1ffcbcd41", "bike_id": "6b7bf15a6c8214314f122df1ffcbcd41", "fusion_lat": 0.0, "lon": -77.031899, "type": "electric_scooter", "fusion_lon": 0.0, "lat": 38.91783216666666}, {"rental_uris": {"android": "https://dc.lft.to/lastmile_qr_scan", "ios": "https://dc.lft.to/lastmile_qr_scan"}, "is_reserved": 0, "is_disabled": 0, "name": "434d11a1a18ee2737cc12a649ffbae5f", "bike_id": "434d11a1a18ee2737cc12a649ffbae5f", "fusion_lat": 0.0, "lon": -77.04573883333333, "type": "electric_scooter", "fusion_lon": 0.0, "lat": 38.90710033333333}, {"rental_uris": {"android": "https://dc.lft.to/lastmile_qr_scan", "ios": "https://dc.lft.to/lastmile_qr_scan"}, "is_reserved": 0, "is_disabled": 0, "name": "8133ca7a0dfcbdf9568d5df841aa2f0a", "bike_id": "8133ca7a0dfcbdf9568d5df841aa2f0a", "fusion_lat": 0.0, "lon": -76.97914883333334, "type": "electric_bike", "fusion_lon": 0.0, "lat": 38.95853983333333}, {"rental_uris": {"android": "https://dc.lft.to/lastmile_qr_scan", "ios": "https://dc.lft.to/lastmile_qr_scan"}, "is_reserved": 0, "is_disabled": 0, "name": "7b2367f07742b27ae325d847c00ba861", "bike_id": "7b2367f07742b27ae325d847c00ba861", "fusion_lat": 0.0, "lon": -77.011565, "type": "electric_scooter", "fusion_lon": 0.0, "lat": 38.896578}, {"rental_uris": {"android": "https://dc.lft.to/lastmile_qr_scan", "ios": "https://dc.lft.to/lastmile_qr_scan"}, "is_reserved": 0, "is_disabled": 0, "name": "09058ad72c7a8f23aa48f690cce62a31", "bike_id": "09058ad72c7a8f23aa48f690cce62a31", "fusion_lat": 0.0, "lon": -77.0271375, "type": "electric_scooter", "fusion_lon": 0.0, "lat": 38.92225}, {"rental_uris": {"android": "https://dc.lft.to/lastmile_qr_scan", "ios": "https://dc.lft.to/lastmile_qr_scan"}, "is_reserved": 0, "is_disabled": 0, "name": "85d4b6d28bd382cb3596d1b10003baa7", "bike_id": "85d4b6d28bd382cb3596d1b10003baa7", "fusion_lat": 0.0, "lon": -77.023805, "type": "electric_scooter", "fusion_lon": 0.0, "lat": 38.891931666666665}, {"rental_uris": {"android": "https://dc.lft.to/lastmile_qr_scan", "ios": "https://dc.lft.to/lastmile_qr_scan"}, "is_reserved": 0, "is_disabled": 0, "name": "0aa92c2d04224fc5bc315a90f61a5c23", "bike_id": "0aa92c2d04224fc5bc315a90f61a5c23", "fusion_lat": 0.0, "lon": -76.94577883333334, "type": "electric_scooter", "fusion_lon": 0.0, "lat": 38.89925566666667}, {"rental_uris": {"android": "https://dc.lft.to/lastmile_qr_scan", "ios": "https://dc.lft.to/lastmile_qr_scan"}, "is_reserved": 0, "is_disabled": 0, "name": "02d9645bca9a04ce4c4ca8f5a9fe9d01", "bike_id": "02d9645bca9a04ce4c4ca8f5a9fe9d01", "fusion_lat": 0.0, "lon": -77.127347, "type": "electric_bike", "fusion_lon": 0.0, "lat": 38.895683}, {"rental_uris": {"android": "https://dc.lft.to/lastmile_qr_scan", "ios": "https://dc.lft.to/lastmile_qr_scan"}, "is_reserved": 0, "is_disabled": 0, "name": "708623864207322fdf323e626fb33d0c", "bike_id": "708623864207322fdf323e626fb33d0c", "fusion_lat": 0.0, "lon": -77.004675, "type": "electric_scooter", "fusion_lon": 0.0, "lat": 38.91151983333334}, {"rental_uris": {"android": "https://dc.lft.to/lastmile_qr_scan", "ios": "https://dc.lft.to/lastmile_qr_scan"}, "is_reserved": 0, "is_disabled": 0, "name": "5f659107e16c3f41ffd20fb5a2fa818c", "bike_id": "5f659107e16c3f41ffd20fb5a2fa818c", "fusion_lat": 0.0, "lon": -77.038769, "type": "electric_bike", "fusion_lon": 0.0, "lat": 39.02620016666667}, {"rental_uris": {"android": "https://dc.lft.to/lastmile_qr_scan", "ios": "https://dc.lft.to/lastmile_qr_scan"}, "is_reserved": 0, "is_disabled": 0, "name": "a9f47866040fe7f7e8e9f2e4b4207fc0", "bike_id": "a9f47866040fe7f7e8e9f2e4b4207fc0", "fusion_lat": 0.0, "lon": -77.02051833333333, "type": "electric_scooter", "fusion_lon": 0.0, "lat": 38.92174216666667}, {"rental_uris": {"android": "https://dc.lft.to/lastmile_qr_scan", "ios": "https://dc.lft.to/lastmile_qr_scan"}, "is_reserved": 0, "is_disabled": 0, "name": "b187e6bdc590c97983ef7de1cb9eb8fb", "bike_id": "b187e6bdc590c97983ef7de1cb9eb8fb", "fusion_lat": 0.0, "lon": -77.02698416666667, "type": "electric_scooter", "fusion_lon": 0.0, "lat": 38.94978833333333}, {"rental_uris": {"android": "https://dc.lft.to/lastmile_qr_scan", "ios": "https://dc.lft.to/lastmile_qr_scan"}, "is_reserved": 0, "is_disabled": 0, "name": "4eb51bd03a85cb9294439582b7b70ea0", "bike_id": "4eb51bd03a85cb9294439582b7b70ea0", "fusion_lat": 0.0, "lon": -77.02154883333333, "type": "electric_scooter", "fusion_lon": 0.0, "lat": 38.887446833333335}, {"rental_uris": {"android": "https://dc.lft.to/lastmile_qr_scan", "ios": "https://dc.lft.to/lastmile_qr_scan"}, "is_reserved": 0, "is_disabled": 0, "name": "397649e6f9b8da06b1dc2756bd56aab8", "bike_id": "397649e6f9b8da06b1dc2756bd56aab8", "fusion_lat": 0.0, "lon": -77.03181633333334, "type": "electric_scooter", "fusion_lon": 0.0, "lat": 38.904017}, {"rental_uris": {"android": "https://dc.lft.to/lastmile_qr_scan", "ios": "https://dc.lft.to/lastmile_qr_scan"}, "is_reserved": 0, "is_disabled": 0, "name": "674942402bd4240b654604ac66488378", "bike_id": "674942402bd4240b654604ac66488378", "fusion_lat": 0.0, "lon": -77.04390466666666, "type": "electric_scooter", "fusion_lon": 0.0, "lat": 38.90144266666667}, {"rental_uris": {"android": "https://dc.lft.to/lastmile_qr_scan", "ios": "https://dc.lft.to/lastmile_qr_scan"}, "is_reserved": 0, "is_disabled": 0, "name": "ba9742ff072f1e69fa26928630316b02", "bike_id": "ba9742ff072f1e69fa26928630316b02", "fusion_lat": 0.0, "lon": -77.035118, "type": "electric_scooter", "fusion_lon": 0.0, "lat": 38.9359395}, {"rental_uris": {"android": "https://dc.lft.to/lastmile_qr_scan", "ios": "https://dc.lft.to/lastmile_qr_scan"}, "is_reserved": 0, "is_disabled": 0, "name": "8287de1ec0cd7645c27b8e38ccd0c5d6", "bike_id": "8287de1ec0cd7645c27b8e38ccd0c5d6", "fusion_lat": 0.0, "lon": -77.04122133333334, "type": "electric_scooter", "fusion_lon": 0.0, "lat": 38.91186783333333}, {"rental_uris": {"android": "https://dc.lft.to/lastmile_qr_scan", "ios": "https://dc.lft.to/lastmile_qr_scan"}, "is_reserved": 0, "is_disabled": 0, "name": "e483bdedbd54efd9681dbd430d4409ef", "bike_id": "e483bdedbd54efd9681dbd430d4409ef", "fusion_lat": 0.0, "lon": -77.047367, "type": "electric_scooter", "fusion_lon": 0.0, "lat": 38.9002495}, {"rental_uris": {"android": "https://dc.lft.to/lastmile_qr_scan", "ios": "https://dc.lft.to/lastmile_qr_scan"}, "is_reserved": 0, "is_disabled": 0, "name": "0bf0680765cb0a2280a9b9d320ae4d19", "bike_id": "0bf0680765cb0a2280a9b9d320ae4d19", "fusion_lat": 0.0, "lon": -77.0277985, "type": "electric_scooter", "fusion_lon": 0.0, "lat": 38.918184333333336}, {"rental_uris": {"android": "https://dc.lft.to/lastmile_qr_scan", "ios": "https://dc.lft.to/lastmile_qr_scan"}, "is_reserved": 0, "is_disabled": 0, "name": "7227100300c5b44aa68954908db26fa1", "bike_id": "7227100300c5b44aa68954908db26fa1", "fusion_lat": 0.0, "lon": -77.031951, "type": "electric_scooter", "fusion_lon": 0.0, "lat": 38.915993666666665}, {"rental_uris": {"android": "https://dc.lft.to/lastmile_qr_scan", "ios": "https://dc.lft.to/lastmile_qr_scan"}, "is_reserved": 0, "is_disabled": 0, "name": "91c71f6dbcc403aa0c1a5cd58538745b", "bike_id": "91c71f6dbcc403aa0c1a5cd58538745b", "fusion_lat": 0.0, "lon": -77.0719695, "type": "electric_scooter", "fusion_lon": 0.0, "lat": 38.907604}, {"rental_uris": {"android": "https://dc.lft.to/lastmile_qr_scan", "ios": "https://dc.lft.to/lastmile_qr_scan"}, "is_reserved": 0, "is_disabled": 0, "name": "845159dcf8dd82e14e68a6b73f059435", "bike_id": "845159dcf8dd82e14e68a6b73f059435", "fusion_lat": 0.0, "lon": -77.02110666666667, "type": "electric_scooter", "fusion_lon": 0.0, "lat": 38.90599}, {"rental_uris": {"android": "https://dc.lft.to/lastmile_qr_scan", "ios": "https://dc.lft.to/lastmile_qr_scan"}, "is_reserved": 0, "is_disabled": 0, "name": "ffa7e7c102a99c2d713e251d7dee7a55", "bike_id": "ffa7e7c102a99c2d713e251d7dee7a55", "fusion_lat": 0.0, "lon": -77.032578, "type": "electric_bike", "fusion_lon": 0.0, "lat": 38.935171833333335}, {"rental_uris": {"android": "https://dc.lft.to/lastmile_qr_scan", "ios": "https://dc.lft.to/lastmile_qr_scan"}, "is_reserved": 0, "is_disabled": 0, "name": "66d7c4487a29d8a947871bc3e7c270cc", "bike_id": "66d7c4487a29d8a947871bc3e7c270cc", "fusion_lat": 0.0, "lon": -77.0278355, "type": "electric_scooter", "fusion_lon": 0.0, "lat": 38.962142166666666}, {"rental_uris": {"android": "https://dc.lft.to/lastmile_qr_scan", "ios": "https://dc.lft.to/lastmile_qr_scan"}, "is_reserved": 0, "is_disabled": 0, "name": "333b144d261693b1f0f79c122b73259f", "bike_id": "333b144d261693b1f0f79c122b73259f", "fusion_lat": 0.0, "lon": -77.02376233333334, "type": "electric_scooter", "fusion_lon": 0.0, "lat": 38.892187}, {"rental_uris": {"android": "https://dc.lft.to/lastmile_qr_scan", "ios": "https://dc.lft.to/lastmile_qr_scan"}, "is_reserved": 0, "is_disabled": 0, "name": "c00e7f12759e4ab01418233b15fde677", "bike_id": "c00e7f12759e4ab01418233b15fde677", "fusion_lat": 0.0, "lon": -77.03080516666667, "type": "electric_scooter", "fusion_lon": 0.0, "lat": 38.899803}, {"rental_uris": {"android": "https://dc.lft.to/lastmile_qr_scan", "ios": "https://dc.lft.to/lastmile_qr_scan"}, "is_reserved": 0, "is_disabled": 0, "name": "d8307222ddad27885265b885d3f392fc", "bike_id": "d8307222ddad27885265b885d3f392fc", "fusion_lat": 0.0, "lon": -76.99502016666666, "type": "electric_scooter", "fusion_lon": 0.0, "lat": 38.8900535}, {"rental_uris": {"android": "https://dc.lft.to/lastmile_qr_scan", "ios": "https://dc.lft.to/lastmile_qr_scan"}, "is_reserved": 0, "is_disabled": 0, "name": "c4120df6d0c6feedd2d575b8ecfb7cef", "bike_id": "c4120df6d0c6feedd2d575b8ecfb7cef", "fusion_lat": 0.0, "lon": -76.99608, "type": "electric_scooter", "fusion_lon": 0.0, "lat": 38.93170716666667}, {"rental_uris": {"android": "https://dc.lft.to/lastmile_qr_scan", "ios": "https://dc.lft.to/lastmile_qr_scan"}, "is_reserved": 0, "is_disabled": 0, "name": "95a781daf4372bdb61be0c9a5f85f34c", "bike_id": "95a781daf4372bdb61be0c9a5f85f34c", "fusion_lat": 0.0, "lon": -76.98376716666667, "type": "electric_scooter", "fusion_lon": 0.0, "lat": 38.86032}, {"rental_uris": {"android": "https://dc.lft.to/lastmile_qr_scan", "ios": "https://dc.lft.to/lastmile_qr_scan"}, "is_reserved": 0, "is_disabled": 0, "name": "4b2f3a81daf3abe85ae398709e58a534", "bike_id": "4b2f3a81daf3abe85ae398709e58a534", "fusion_lat": 0.0, "lon": -77.03925983333333, "type": "electric_scooter", "fusion_lon": 0.0, "lat": 38.90274333333333}, {"rental_uris": {"android": "https://dc.lft.to/lastmile_qr_scan", "ios": "https://dc.lft.to/lastmile_qr_scan"}, "is_reserved": 0, "is_disabled": 0, "name": "952c14f6e11e32b34f0481e6ecd59e2b", "bike_id": "952c14f6e11e32b34f0481e6ecd59e2b", "fusion_lat": 0.0, "lon": -76.99103116666667, "type": "electric_scooter", "fusion_lon": 0.0, "lat": 38.85722066666666}, {"rental_uris": {"android": "https://dc.lft.to/lastmile_qr_scan", "ios": "https://dc.lft.to/lastmile_qr_scan"}, "is_reserved": 0, "is_disabled": 0, "name": "aec1d8d57156052135f90f76fb26c700", "bike_id": "aec1d8d57156052135f90f76fb26c700", "fusion_lat": 0.0, "lon": -77.04325866666667, "type": "electric_scooter", "fusion_lon": 0.0, "lat": 38.922249}, {"rental_uris": {"android": "https://dc.lft.to/lastmile_qr_scan", "ios": "https://dc.lft.to/lastmile_qr_scan"}, "is_reserved": 0, "is_disabled": 0, "name": "e1ac958b66be07dfe84108c3d544c704", "bike_id": "e1ac958b66be07dfe84108c3d544c704", "fusion_lat": 0.0, "lon": -77.04242583333334, "type": "electric_scooter", "fusion_lon": 0.0, "lat": 38.91966716666667}, {"rental_uris": {"android": "https://dc.lft.to/lastmile_qr_scan", "ios": "https://dc.lft.to/lastmile_qr_scan"}, "is_reserved": 0, "is_disabled": 0, "name": "237c766300aeaf76b9e7183de0b06513", "bike_id": "237c766300aeaf76b9e7183de0b06513", "fusion_lat": 0.0, "lon": -77.0015355, "type": "electric_bike", "fusion_lon": 0.0, "lat": 38.899244}, {"rental_uris": {"android": "https://dc.lft.to/lastmile_qr_scan", "ios": "https://dc.lft.to/lastmile_qr_scan"}, "is_reserved": 0, "is_disabled": 0, "name": "ff792095be7c2ef2aa2d5be04151e355", "bike_id": "ff792095be7c2ef2aa2d5be04151e355", "fusion_lat": 0.0, "lon": -77.0227865, "type": "electric_scooter", "fusion_lon": 0.0, "lat": 38.916461166666664}, {"rental_uris": {"android": "https://dc.lft.to/lastmile_qr_scan", "ios": "https://dc.lft.to/lastmile_qr_scan"}, "is_reserved": 0, "is_disabled": 0, "name": "0fdb0d2cee43a6cbdb426d90a3a61fc5", "bike_id": "0fdb0d2cee43a6cbdb426d90a3a61fc5", "fusion_lat": 0.0, "lon": -77.04809483333334, "type": "electric_scooter", "fusion_lon": 0.0, "lat": 38.9163165}, {"rental_uris": {"android": "https://dc.lft.to/lastmile_qr_scan", "ios": "https://dc.lft.to/lastmile_qr_scan"}, "is_reserved": 0, "is_disabled": 0, "name": "090ea845cf83f1e3358f32f48a2fc225", "bike_id": "090ea845cf83f1e3358f32f48a2fc225", "fusion_lat": 0.0, "lon": -77.02489466666667, "type": "electric_scooter", "fusion_lon": 0.0, "lat": 38.92072133333333}, {"rental_uris": {"android": "https://dc.lft.to/lastmile_qr_scan", "ios": "https://dc.lft.to/lastmile_qr_scan"}, "is_reserved": 0, "is_disabled": 0, "name": "64daaf88fbb7274570076ff98154ad1b", "bike_id": "64daaf88fbb7274570076ff98154ad1b", "fusion_lat": 0.0, "lon": -77.02823166666667, "type": "electric_scooter", "fusion_lon": 0.0, "lat": 38.88738933333333}, {"rental_uris": {"android": "https://dc.lft.to/lastmile_qr_scan", "ios": "https://dc.lft.to/lastmile_qr_scan"}, "is_reserved": 0, "is_disabled": 0, "name": "aeae3c1c1ade518b6dfd83e025ac48b6", "bike_id": "aeae3c1c1ade518b6dfd83e025ac48b6", "fusion_lat": 0.0, "lon": -76.977187, "type": "electric_scooter", "fusion_lon": 0.0, "lat": 38.88818716666667}, {"rental_uris": {"android": "https://dc.lft.to/lastmile_qr_scan", "ios": "https://dc.lft.to/lastmile_qr_scan"}, "is_reserved": 0, "is_disabled": 0, "name": "63aece8fc2fb95ba5fdf3d20f30c337c", "bike_id": "63aece8fc2fb95ba5fdf3d20f30c337c", "fusion_lat": 0.0, "lon": -77.0464845, "type": "electric_scooter", "fusion_lon": 0.0, "lat": 38.90382066666667}, {"rental_uris": {"android": "https://dc.lft.to/lastmile_qr_scan", "ios": "https://dc.lft.to/lastmile_qr_scan"}, "is_reserved": 0, "is_disabled": 0, "name": "9f7280525d9ec4b23c8ea5c24eb16465", "bike_id": "9f7280525d9ec4b23c8ea5c24eb16465", "fusion_lat": 0.0, "lon": -77.027804, "type": "electric_scooter", "fusion_lon": 0.0, "lat": 38.902523333333335}, {"rental_uris": {"android": "https://dc.lft.to/lastmile_qr_scan", "ios": "https://dc.lft.to/lastmile_qr_scan"}, "is_reserved": 0, "is_disabled": 0, "name": "897f6a8f49a971a25f336c56aa3cf492", "bike_id": "897f6a8f49a971a25f336c56aa3cf492", "fusion_lat": 0.0, "lon": -77.003285, "type": "electric_scooter", "fusion_lon": 0.0, "lat": 38.902671166666664}, {"rental_uris": {"android": "https://dc.lft.to/lastmile_qr_scan", "ios": "https://dc.lft.to/lastmile_qr_scan"}, "is_reserved": 0, "is_disabled": 0, "name": "5572d28ed4da5e0410b38e02aca5177c", "bike_id": "5572d28ed4da5e0410b38e02aca5177c", "fusion_lat": 0.0, "lon": -77.0316715, "type": "electric_scooter", "fusion_lon": 0.0, "lat": 38.923741666666665}, {"rental_uris": {"android": "https://dc.lft.to/lastmile_qr_scan", "ios": "https://dc.lft.to/lastmile_qr_scan"}, "is_reserved": 0, "is_disabled": 0, "name": "1ce4f33d259c247f17ed09bdf807bfa2", "bike_id": "1ce4f33d259c247f17ed09bdf807bfa2", "fusion_lat": 0.0, "lon": -77.03995533333334, "type": "electric_scooter", "fusion_lon": 0.0, "lat": 38.898886}, {"rental_uris": {"android": "https://dc.lft.to/lastmile_qr_scan", "ios": "https://dc.lft.to/lastmile_qr_scan"}, "is_reserved": 0, "is_disabled": 0, "name": "975ab9092a376c4ccdc403aab5016138", "bike_id": "975ab9092a376c4ccdc403aab5016138", "fusion_lat": 0.0, "lon": -77.0551635, "type": "electric_scooter", "fusion_lon": 0.0, "lat": 38.9106085}, {"rental_uris": {"android": "https://dc.lft.to/lastmile_qr_scan", "ios": "https://dc.lft.to/lastmile_qr_scan"}, "is_reserved": 0, "is_disabled": 0, "name": "fca06c42ab4187e5c1c508bbd02f1752", "bike_id": "fca06c42ab4187e5c1c508bbd02f1752", "fusion_lat": 0.0, "lon": -76.98864383333333, "type": "electric_scooter", "fusion_lon": 0.0, "lat": 38.93472783333333}, {"rental_uris": {"android": "https://dc.lft.to/lastmile_qr_scan", "ios": "https://dc.lft.to/lastmile_qr_scan"}, "is_reserved": 0, "is_disabled": 0, "name": "acbf8ff63c8136e6b0841fa7c58668b3", "bike_id": "acbf8ff63c8136e6b0841fa7c58668b3", "fusion_lat": 0.0, "lon": -77.01463816666667, "type": "electric_scooter", "fusion_lon": 0.0, "lat": 38.919197}, {"rental_uris": {"android": "https://dc.lft.to/lastmile_qr_scan", "ios": "https://dc.lft.to/lastmile_qr_scan"}, "is_reserved": 0, "is_disabled": 0, "name": "10a7f8c880c7d3b41937fc3042826e27", "bike_id": "10a7f8c880c7d3b41937fc3042826e27", "fusion_lat": 0.0, "lon": -77.03188533333334, "type": "electric_scooter", "fusion_lon": 0.0, "lat": 38.9152975}, {"rental_uris": {"android": "https://dc.lft.to/lastmile_qr_scan", "ios": "https://dc.lft.to/lastmile_qr_scan"}, "is_reserved": 0, "is_disabled": 0, "name": "8317598659189f6caaa6be4feaf12316", "bike_id": "8317598659189f6caaa6be4feaf12316", "fusion_lat": 0.0, "lon": -77.01995033333333, "type": "electric_scooter", "fusion_lon": 0.0, "lat": 38.914936833333336}, {"rental_uris": {"android": "https://dc.lft.to/lastmile_qr_scan", "ios": "https://dc.lft.to/lastmile_qr_scan"}, "is_reserved": 0, "is_disabled": 0, "name": "f9b870f76cc5150bcf8b7a9eec936189", "bike_id": "f9b870f76cc5150bcf8b7a9eec936189", "fusion_lat": 0.0, "lon": -77.03660866666667, "type": "electric_scooter", "fusion_lon": 0.0, "lat": 38.92120283333333}, {"rental_uris": {"android": "https://dc.lft.to/lastmile_qr_scan", "ios": "https://dc.lft.to/lastmile_qr_scan"}, "is_reserved": 0, "is_disabled": 0, "name": "a1582946db96083cff47c88b544603d4", "bike_id": "a1582946db96083cff47c88b544603d4", "fusion_lat": 0.0, "lon": -77.05050166666666, "type": "electric_scooter", "fusion_lon": 0.0, "lat": 38.903058}, {"rental_uris": {"android": "https://dc.lft.to/lastmile_qr_scan", "ios": "https://dc.lft.to/lastmile_qr_scan"}, "is_reserved": 0, "is_disabled": 0, "name": "cd38d9b84a65b76ccdfe147f3c89542f", "bike_id": "cd38d9b84a65b76ccdfe147f3c89542f", "fusion_lat": 0.0, "lon": -77.00729516666667, "type": "electric_scooter", "fusion_lon": 0.0, "lat": 38.911852833333334}, {"rental_uris": {"android": "https://dc.lft.to/lastmile_qr_scan", "ios": "https://dc.lft.to/lastmile_qr_scan"}, "is_reserved": 0, "is_disabled": 0, "name": "e61c30f215cd04eb26bf28dac85a272a", "bike_id": "e61c30f215cd04eb26bf28dac85a272a", "fusion_lat": 0.0, "lon": -77.03499233333334, "type": "electric_scooter", "fusion_lon": 0.0, "lat": 38.918767333333335}, {"rental_uris": {"android": "https://dc.lft.to/lastmile_qr_scan", "ios": "https://dc.lft.to/lastmile_qr_scan"}, "is_reserved": 0, "is_disabled": 0, "name": "f2e170c113f8c58f18469ca614e8307e", "bike_id": "f2e170c113f8c58f18469ca614e8307e", "fusion_lat": 0.0, "lon": -77.0381055, "type": "electric_scooter", "fusion_lon": 0.0, "lat": 38.920697833333335}, {"rental_uris": {"android": "https://dc.lft.to/lastmile_qr_scan", "ios": "https://dc.lft.to/lastmile_qr_scan"}, "is_reserved": 0, "is_disabled": 0, "name": "bbbad711f9488b8546da327b589bda90", "bike_id": "bbbad711f9488b8546da327b589bda90", "fusion_lat": 0.0, "lon": -77.0248065, "type": "electric_scooter", "fusion_lon": 0.0, "lat": 38.9141305}, {"rental_uris": {"android": "https://dc.lft.to/lastmile_qr_scan", "ios": "https://dc.lft.to/lastmile_qr_scan"}, "is_reserved": 0, "is_disabled": 0, "name": "7105fcb294c44e0666bb4c7040e4388e", "bike_id": "7105fcb294c44e0666bb4c7040e4388e", "fusion_lat": 0.0, "lon": -77.01223716666667, "type": "electric_scooter", "fusion_lon": 0.0, "lat": 38.915207833333334}, {"rental_uris": {"android": "https://dc.lft.to/lastmile_qr_scan", "ios": "https://dc.lft.to/lastmile_qr_scan"}, "is_reserved": 0, "is_disabled": 0, "name": "e79172c3d667dbb3f27144a2a684f21a", "bike_id": "e79172c3d667dbb3f27144a2a684f21a", "fusion_lat": 0.0, "lon": -77.03171366666666, "type": "electric_scooter", "fusion_lon": 0.0, "lat": 38.915649}, {"rental_uris": {"android": "https://dc.lft.to/lastmile_qr_scan", "ios": "https://dc.lft.to/lastmile_qr_scan"}, "is_reserved": 0, "is_disabled": 0, "name": "105633ac41f3279104e24ffac39d811d", "bike_id": "105633ac41f3279104e24ffac39d811d", "fusion_lat": 0.0, "lon": -76.99870833333334, "type": "electric_scooter", "fusion_lon": 0.0, "lat": 38.90023733333334}, {"rental_uris": {"android": "https://dc.lft.to/lastmile_qr_scan", "ios": "https://dc.lft.to/lastmile_qr_scan"}, "is_reserved": 0, "is_disabled": 0, "name": "d56a033cbb967f7df1e048cc57d00aa1", "bike_id": "d56a033cbb967f7df1e048cc57d00aa1", "fusion_lat": 0.0, "lon": -77.003581, "type": "electric_scooter", "fusion_lon": 0.0, "lat": 38.892618166666665}, {"rental_uris": {"android": "https://dc.lft.to/lastmile_qr_scan", "ios": "https://dc.lft.to/lastmile_qr_scan"}, "is_reserved": 0, "is_disabled": 0, "name": "3a760427d76e3eec6faf9d3094461336", "bike_id": "3a760427d76e3eec6faf9d3094461336", "fusion_lat": 0.0, "lon": -77.02958133333334, "type": "electric_scooter", "fusion_lon": 0.0, "lat": 38.9049255}, {"rental_uris": {"android": "https://dc.lft.to/lastmile_qr_scan", "ios": "https://dc.lft.to/lastmile_qr_scan"}, "is_reserved": 0, "is_disabled": 0, "name": "7d346b6af3669a53b8fff975bf97015f", "bike_id": "7d346b6af3669a53b8fff975bf97015f", "fusion_lat": 0.0, "lon": -77.02425933333333, "type": "electric_bike", "fusion_lon": 0.0, "lat": 38.93705033333333}, {"rental_uris": {"android": "https://dc.lft.to/lastmile_qr_scan", "ios": "https://dc.lft.to/lastmile_qr_scan"}, "is_reserved": 0, "is_disabled": 0, "name": "330bd6261e446d25a2fc5561576e09ba", "bike_id": "330bd6261e446d25a2fc5561576e09ba", "fusion_lat": 0.0, "lon": -76.98227633333333, "type": "electric_scooter", "fusion_lon": 0.0, "lat": 38.868874166666664}, {"rental_uris": {"android": "https://dc.lft.to/lastmile_qr_scan", "ios": "https://dc.lft.to/lastmile_qr_scan"}, "is_reserved": 0, "is_disabled": 0, "name": "a829f888d3e4bb6f7c8fd52e670b8eee", "bike_id": "a829f888d3e4bb6f7c8fd52e670b8eee", "fusion_lat": 0.0, "lon": -76.98992133333333, "type": "electric_scooter", "fusion_lon": 0.0, "lat": 38.8643315}, {"rental_uris": {"android": "https://dc.lft.to/lastmile_qr_scan", "ios": "https://dc.lft.to/lastmile_qr_scan"}, "is_reserved": 0, "is_disabled": 0, "name": "49337d1a697a6df8ffddba09d23f79e5", "bike_id": "49337d1a697a6df8ffddba09d23f79e5", "fusion_lat": 0.0, "lon": -76.99515916666667, "type": "electric_scooter", "fusion_lon": 0.0, "lat": 38.88789466666667}, {"rental_uris": {"android": "https://dc.lft.to/lastmile_qr_scan", "ios": "https://dc.lft.to/lastmile_qr_scan"}, "is_reserved": 0, "is_disabled": 0, "name": "3dd516aa9d52a91e43ccb953771441d9", "bike_id": "3dd516aa9d52a91e43ccb953771441d9", "fusion_lat": 0.0, "lon": -77.03859233333333, "type": "electric_scooter", "fusion_lon": 0.0, "lat": 38.917129333333335}, {"rental_uris": {"android": "https://dc.lft.to/lastmile_qr_scan", "ios": "https://dc.lft.to/lastmile_qr_scan"}, "is_reserved": 0, "is_disabled": 0, "name": "a64e29adc45370a60194c3ade5a17fc9", "bike_id": "a64e29adc45370a60194c3ade5a17fc9", "fusion_lat": 0.0, "lon": -77.0568665, "type": "electric_scooter", "fusion_lon": 0.0, "lat": 38.9060125}, {"rental_uris": {"android": "https://dc.lft.to/lastmile_qr_scan", "ios": "https://dc.lft.to/lastmile_qr_scan"}, "is_reserved": 0, "is_disabled": 0, "name": "4e1bf97cfc0fd0537127c60320a6081f", "bike_id": "4e1bf97cfc0fd0537127c60320a6081f", "fusion_lat": 0.0, "lon": -76.965247, "type": "electric_scooter", "fusion_lon": 0.0, "lat": 38.876317}, {"rental_uris": {"android": "https://dc.lft.to/lastmile_qr_scan", "ios": "https://dc.lft.to/lastmile_qr_scan"}, "is_reserved": 0, "is_disabled": 0, "name": "2a57a78483925f707b5f3ba306cd18f4", "bike_id": "2a57a78483925f707b5f3ba306cd18f4", "fusion_lat": 0.0, "lon": -77.04854116666667, "type": "electric_scooter", "fusion_lon": 0.0, "lat": 38.899519}, {"rental_uris": {"android": "https://dc.lft.to/lastmile_qr_scan", "ios": "https://dc.lft.to/lastmile_qr_scan"}, "is_reserved": 0, "is_disabled": 0, "name": "124cc307920a823c05bae333f6aac1a0", "bike_id": "124cc307920a823c05bae333f6aac1a0", "fusion_lat": 0.0, "lon": -77.03405633333334, "type": "electric_scooter", "fusion_lon": 0.0, "lat": 38.930879}, {"rental_uris": {"android": "https://dc.lft.to/lastmile_qr_scan", "ios": "https://dc.lft.to/lastmile_qr_scan"}, "is_reserved": 0, "is_disabled": 0, "name": "61e15c4691390c5b4658c243635f12b0", "bike_id": "61e15c4691390c5b4658c243635f12b0", "fusion_lat": 0.0, "lon": -77.00061816666667, "type": "electric_bike", "fusion_lon": 0.0, "lat": 38.91907066666667}, {"rental_uris": {"android": "https://dc.lft.to/lastmile_qr_scan", "ios": "https://dc.lft.to/lastmile_qr_scan"}, "is_reserved": 0, "is_disabled": 0, "name": "45c881c0a2e56224ee4934ca4dc3a8ef", "bike_id": "45c881c0a2e56224ee4934ca4dc3a8ef", "fusion_lat": 0.0, "lon": -77.027599, "type": "electric_bike", "fusion_lon": 0.0, "lat": 38.919631833333334}, {"rental_uris": {"android": "https://dc.lft.to/lastmile_qr_scan", "ios": "https://dc.lft.to/lastmile_qr_scan"}, "is_reserved": 0, "is_disabled": 0, "name": "f2ce6a30e11e15cc0b4baf8551e4cc84", "bike_id": "f2ce6a30e11e15cc0b4baf8551e4cc84", "fusion_lat": 0.0, "lon": -77.03657166666666, "type": "electric_bike", "fusion_lon": 0.0, "lat": 38.9363075}, {"rental_uris": {"android": "https://dc.lft.to/lastmile_qr_scan", "ios": "https://dc.lft.to/lastmile_qr_scan"}, "is_reserved": 0, "is_disabled": 0, "name": "4e4abd09274d6d685940708a9dd73e49", "bike_id": "4e4abd09274d6d685940708a9dd73e49", "fusion_lat": 0.0, "lon": -77.02101983333333, "type": "electric_scooter", "fusion_lon": 0.0, "lat": 38.92124716666667}, {"rental_uris": {"android": "https://dc.lft.to/lastmile_qr_scan", "ios": "https://dc.lft.to/lastmile_qr_scan"}, "is_reserved": 0, "is_disabled": 0, "name": "c1590b9b5347b480437cba82814904e3", "bike_id": "c1590b9b5347b480437cba82814904e3", "fusion_lat": 0.0, "lon": -77.02417366666667, "type": "electric_scooter", "fusion_lon": 0.0, "lat": 38.92096266666667}, {"rental_uris": {"android": "https://dc.lft.to/lastmile_qr_scan", "ios": "https://dc.lft.to/lastmile_qr_scan"}, "is_reserved": 0, "is_disabled": 0, "name": "07faafab171d750abad41cc18ea7da0d", "bike_id": "07faafab171d750abad41cc18ea7da0d", "fusion_lat": 0.0, "lon": -77.035512, "type": "electric_scooter", "fusion_lon": 0.0, "lat": 38.91824716666667}, {"rental_uris": {"android": "https://dc.lft.to/lastmile_qr_scan", "ios": "https://dc.lft.to/lastmile_qr_scan"}, "is_reserved": 0, "is_disabled": 0, "name": "53539dba29f286f60b3f13a585963a59", "bike_id": "53539dba29f286f60b3f13a585963a59", "fusion_lat": 0.0, "lon": -77.03190233333333, "type": "electric_scooter", "fusion_lon": 0.0, "lat": 38.91819233333333}, {"rental_uris": {"android": "https://dc.lft.to/lastmile_qr_scan", "ios": "https://dc.lft.to/lastmile_qr_scan"}, "is_reserved": 0, "is_disabled": 0, "name": "53742109fab4aa82c8bdf6086498ed92", "bike_id": "53742109fab4aa82c8bdf6086498ed92", "fusion_lat": 0.0, "lon": -77.00668416666667, "type": "electric_scooter", "fusion_lon": 0.0, "lat": 38.909730333333336}, {"rental_uris": {"android": "https://dc.lft.to/lastmile_qr_scan", "ios": "https://dc.lft.to/lastmile_qr_scan"}, "is_reserved": 0, "is_disabled": 0, "name": "dc6d4c275b5d13882a19af244efd9efa", "bike_id": "dc6d4c275b5d13882a19af244efd9efa", "fusion_lat": 0.0, "lon": -77.038548, "type": "electric_scooter", "fusion_lon": 0.0, "lat": 38.9216535}, {"rental_uris": {"android": "https://dc.lft.to/lastmile_qr_scan", "ios": "https://dc.lft.to/lastmile_qr_scan"}, "is_reserved": 0, "is_disabled": 0, "name": "0bcc62581524af6670e40f4fc22c7172", "bike_id": "0bcc62581524af6670e40f4fc22c7172", "fusion_lat": 0.0, "lon": -77.014505, "type": "electric_scooter", "fusion_lon": 0.0, "lat": 38.958197}, {"rental_uris": {"android": "https://dc.lft.to/lastmile_qr_scan", "ios": "https://dc.lft.to/lastmile_qr_scan"}, "is_reserved": 0, "is_disabled": 0, "name": "be005b6159067bfaa99f188ecd675150", "bike_id": "be005b6159067bfaa99f188ecd675150", "fusion_lat": 0.0, "lon": -77.02633816666666, "type": "electric_scooter", "fusion_lon": 0.0, "lat": 38.92918066666667}, {"rental_uris": {"android": "https://dc.lft.to/lastmile_qr_scan", "ios": "https://dc.lft.to/lastmile_qr_scan"}, "is_reserved": 0, "is_disabled": 0, "name": "891c74316cc2480505c5ab7aea3e525f", "bike_id": "891c74316cc2480505c5ab7aea3e525f", "fusion_lat": 0.0, "lon": -77.03643483333333, "type": "electric_bike", "fusion_lon": 0.0, "lat": 38.927430666666666}, {"rental_uris": {"android": "https://dc.lft.to/lastmile_qr_scan", "ios": "https://dc.lft.to/lastmile_qr_scan"}, "is_reserved": 0, "is_disabled": 0, "name": "16f5be7c209e4266245a55de44555027", "bike_id": "16f5be7c209e4266245a55de44555027", "fusion_lat": 0.0, "lon": -77.02180516666667, "type": "electric_scooter", "fusion_lon": 0.0, "lat": 38.8922805}, {"rental_uris": {"android": "https://dc.lft.to/lastmile_qr_scan", "ios": "https://dc.lft.to/lastmile_qr_scan"}, "is_reserved": 0, "is_disabled": 0, "name": "7e15c94696b0acb3ed0362d47eb6d209", "bike_id": "7e15c94696b0acb3ed0362d47eb6d209", "fusion_lat": 0.0, "lon": -77.06529933333333, "type": "electric_scooter", "fusion_lon": 0.0, "lat": 38.90530716666667}, {"rental_uris": {"android": "https://dc.lft.to/lastmile_qr_scan", "ios": "https://dc.lft.to/lastmile_qr_scan"}, "is_reserved": 0, "is_disabled": 0, "name": "e9077352f2e80eb1a60d6e21f3a4ae25", "bike_id": "e9077352f2e80eb1a60d6e21f3a4ae25", "fusion_lat": 0.0, "lon": -77.03725816666666, "type": "electric_scooter", "fusion_lon": 0.0, "lat": 38.917098333333335}, {"rental_uris": {"android": "https://dc.lft.to/lastmile_qr_scan", "ios": "https://dc.lft.to/lastmile_qr_scan"}, "is_reserved": 0, "is_disabled": 0, "name": "d8e52c6e71c71c3136ebb5bd806deb1d", "bike_id": "d8e52c6e71c71c3136ebb5bd806deb1d", "fusion_lat": 0.0, "lon": -77.01956933333334, "type": "electric_scooter", "fusion_lon": 0.0, "lat": 38.923281833333334}, {"rental_uris": {"android": "https://dc.lft.to/lastmile_qr_scan", "ios": "https://dc.lft.to/lastmile_qr_scan"}, "is_reserved": 0, "is_disabled": 0, "name": "5c7372036e6c062f5ad812a892ccc51b", "bike_id": "5c7372036e6c062f5ad812a892ccc51b", "fusion_lat": 0.0, "lon": -77.23177683333333, "type": "electric_bike", "fusion_lon": 0.0, "lat": 38.9289575}, {"rental_uris": {"android": "https://dc.lft.to/lastmile_qr_scan", "ios": "https://dc.lft.to/lastmile_qr_scan"}, "is_reserved": 0, "is_disabled": 0, "name": "1754797f7a64cc64c92893dbebc8d2fd", "bike_id": "1754797f7a64cc64c92893dbebc8d2fd", "fusion_lat": 0.0, "lon": -76.93363633333334, "type": "electric_scooter", "fusion_lon": 0.0, "lat": 38.89830833333333}, {"rental_uris": {"android": "https://dc.lft.to/lastmile_qr_scan", "ios": "https://dc.lft.to/lastmile_qr_scan"}, "is_reserved": 0, "is_disabled": 0, "name": "7372b08161ed4c706bce90750fd25466", "bike_id": "7372b08161ed4c706bce90750fd25466", "fusion_lat": 0.0, "lon": -77.10289566666667, "type": "electric_bike", "fusion_lon": 0.0, "lat": 38.852522}, {"rental_uris": {"android": "https://dc.lft.to/lastmile_qr_scan", "ios": "https://dc.lft.to/lastmile_qr_scan"}, "is_reserved": 0, "is_disabled": 0, "name": "15373287db5cbd51e4b689085b89953d", "bike_id": "15373287db5cbd51e4b689085b89953d", "fusion_lat": 0.0, "lon": -77.03357583333333, "type": "electric_scooter", "fusion_lon": 0.0, "lat": 38.93582933333333}, {"rental_uris": {"android": "https://dc.lft.to/lastmile_qr_scan", "ios": "https://dc.lft.to/lastmile_qr_scan"}, "is_reserved": 0, "is_disabled": 0, "name": "c49c9167ce71e61706ef71f244135d03", "bike_id": "c49c9167ce71e61706ef71f244135d03", "fusion_lat": 0.0, "lon": -77.07915733333333, "type": "electric_bike", "fusion_lon": 0.0, "lat": 38.83828316666666}, {"rental_uris": {"android": "https://dc.lft.to/lastmile_qr_scan", "ios": "https://dc.lft.to/lastmile_qr_scan"}, "is_reserved": 0, "is_disabled": 0, "name": "905bca83bd29e802ea21446cc9988035", "bike_id": "905bca83bd29e802ea21446cc9988035", "fusion_lat": 0.0, "lon": -77.02959966666667, "type": "electric_scooter", "fusion_lon": 0.0, "lat": 38.927238333333335}, {"rental_uris": {"android": "https://dc.lft.to/lastmile_qr_scan", "ios": "https://dc.lft.to/lastmile_qr_scan"}, "is_reserved": 0, "is_disabled": 0, "name": "ce773b21dcba3e06847568e32d083d3a", "bike_id": "ce773b21dcba3e06847568e32d083d3a", "fusion_lat": 0.0, "lon": -77.03942, "type": "electric_scooter", "fusion_lon": 0.0, "lat": 38.91561183333334}, {"rental_uris": {"android": "https://dc.lft.to/lastmile_qr_scan", "ios": "https://dc.lft.to/lastmile_qr_scan"}, "is_reserved": 0, "is_disabled": 0, "name": "c3d07c61c575282f98bdfe42415cb477", "bike_id": "c3d07c61c575282f98bdfe42415cb477", "fusion_lat": 0.0, "lon": -76.9380185, "type": "electric_bike", "fusion_lon": 0.0, "lat": 38.97971033333334}, {"rental_uris": {"android": "https://dc.lft.to/lastmile_qr_scan", "ios": "https://dc.lft.to/lastmile_qr_scan"}, "is_reserved": 0, "is_disabled": 0, "name": "45198884a68921ee2e00ed7ab26061ea", "bike_id": "45198884a68921ee2e00ed7ab26061ea", "fusion_lat": 0.0, "lon": -77.026568, "type": "electric_bike", "fusion_lon": 0.0, "lat": 38.98812616666667}, {"rental_uris": {"android": "https://dc.lft.to/lastmile_qr_scan", "ios": "https://dc.lft.to/lastmile_qr_scan"}, "is_reserved": 0, "is_disabled": 0, "name": "75033a5a88d1e67b5db3600ef098fa70", "bike_id": "75033a5a88d1e67b5db3600ef098fa70", "fusion_lat": 0.0, "lon": -77.0329125, "type": "electric_scooter", "fusion_lon": 0.0, "lat": 38.92737566666667}, {"rental_uris": {"android": "https://dc.lft.to/lastmile_qr_scan", "ios": "https://dc.lft.to/lastmile_qr_scan"}, "is_reserved": 0, "is_disabled": 0, "name": "2b469c736e0c143603d90b4785068161", "bike_id": "2b469c736e0c143603d90b4785068161", "fusion_lat": 0.0, "lon": -77.04380283333333, "type": "electric_scooter", "fusion_lon": 0.0, "lat": 38.920505666666664}, {"rental_uris": {"android": "https://dc.lft.to/lastmile_qr_scan", "ios": "https://dc.lft.to/lastmile_qr_scan"}, "is_reserved": 0, "is_disabled": 0, "name": "c6bd4870cd0dbf226db118c089d2c392", "bike_id": "c6bd4870cd0dbf226db118c089d2c392", "fusion_lat": 0.0, "lon": -77.00955683333333, "type": "electric_bike", "fusion_lon": 0.0, "lat": 38.921323666666666}, {"rental_uris": {"android": "https://dc.lft.to/lastmile_qr_scan", "ios": "https://dc.lft.to/lastmile_qr_scan"}, "is_reserved": 0, "is_disabled": 0, "name": "b74bbcf31ac436a1439b40dbf672684d", "bike_id": "b74bbcf31ac436a1439b40dbf672684d", "fusion_lat": 0.0, "lon": -77.04151983333334, "type": "electric_scooter", "fusion_lon": 0.0, "lat": 38.923314833333336}, {"rental_uris": {"android": "https://dc.lft.to/lastmile_qr_scan", "ios": "https://dc.lft.to/lastmile_qr_scan"}, "is_reserved": 0, "is_disabled": 0, "name": "e6600f7393bed4eddc84d5e10eb8fed2", "bike_id": "e6600f7393bed4eddc84d5e10eb8fed2", "fusion_lat": 0.0, "lon": -77.00289466666666, "type": "electric_scooter", "fusion_lon": 0.0, "lat": 38.89201966666667}, {"rental_uris": {"android": "https://dc.lft.to/lastmile_qr_scan", "ios": "https://dc.lft.to/lastmile_qr_scan"}, "is_reserved": 0, "is_disabled": 0, "name": "dc123ef9c0a6a8d19d3dee1582bad1fb", "bike_id": "dc123ef9c0a6a8d19d3dee1582bad1fb", "fusion_lat": 0.0, "lon": -76.95563183333333, "type": "electric_bike", "fusion_lon": 0.0, "lat": 38.985015}, {"rental_uris": {"android": "https://dc.lft.to/lastmile_qr_scan", "ios": "https://dc.lft.to/lastmile_qr_scan"}, "is_reserved": 0, "is_disabled": 0, "name": "8e155221097913c49042c73959df6ba3", "bike_id": "8e155221097913c49042c73959df6ba3", "fusion_lat": 0.0, "lon": -77.02485516666667, "type": "electric_scooter", "fusion_lon": 0.0, "lat": 38.91919}, {"rental_uris": {"android": "https://dc.lft.to/lastmile_qr_scan", "ios": "https://dc.lft.to/lastmile_qr_scan"}, "is_reserved": 0, "is_disabled": 0, "name": "e43ffb6c78f4553fb101f07e447f113e", "bike_id": "e43ffb6c78f4553fb101f07e447f113e", "fusion_lat": 0.0, "lon": -77.0395355, "type": "electric_scooter", "fusion_lon": 0.0, "lat": 38.902591}, {"rental_uris": {"android": "https://dc.lft.to/lastmile_qr_scan", "ios": "https://dc.lft.to/lastmile_qr_scan"}, "is_reserved": 0, "is_disabled": 0, "name": "da450c770cf32e6ac04d2e76faac1e22", "bike_id": "da450c770cf32e6ac04d2e76faac1e22", "fusion_lat": 0.0, "lon": -77.01483083333333, "type": "electric_scooter", "fusion_lon": 0.0, "lat": 38.914128833333336}, {"rental_uris": {"android": "https://dc.lft.to/lastmile_qr_scan", "ios": "https://dc.lft.to/lastmile_qr_scan"}, "is_reserved": 0, "is_disabled": 0, "name": "9812ae4611db2918f3d90cdd86eab920", "bike_id": "9812ae4611db2918f3d90cdd86eab920", "fusion_lat": 0.0, "lon": -77.01980283333333, "type": "electric_scooter", "fusion_lon": 0.0, "lat": 38.88721866666667}, {"rental_uris": {"android": "https://dc.lft.to/lastmile_qr_scan", "ios": "https://dc.lft.to/lastmile_qr_scan"}, "is_reserved": 0, "is_disabled": 0, "name": "6ce09dcc3ceb240cf7b606e56f378a69", "bike_id": "6ce09dcc3ceb240cf7b606e56f378a69", "fusion_lat": 0.0, "lon": -77.03182666666666, "type": "electric_scooter", "fusion_lon": 0.0, "lat": 38.902074166666665}, {"rental_uris": {"android": "https://dc.lft.to/lastmile_qr_scan", "ios": "https://dc.lft.to/lastmile_qr_scan"}, "is_reserved": 0, "is_disabled": 0, "name": "286be4eaa6647eeedc848ec40794b2e7", "bike_id": "286be4eaa6647eeedc848ec40794b2e7", "fusion_lat": 0.0, "lon": -77.062969, "type": "electric_scooter", "fusion_lon": 0.0, "lat": 38.9039725}, {"rental_uris": {"android": "https://dc.lft.to/lastmile_qr_scan", "ios": "https://dc.lft.to/lastmile_qr_scan"}, "is_reserved": 0, "is_disabled": 0, "name": "8af957702431fbf448deca69e3edce52", "bike_id": "8af957702431fbf448deca69e3edce52", "fusion_lat": 0.0, "lon": -77.044677, "type": "electric_scooter", "fusion_lon": 0.0, "lat": 38.924689666666666}, {"rental_uris": {"android": "https://dc.lft.to/lastmile_qr_scan", "ios": "https://dc.lft.to/lastmile_qr_scan"}, "is_reserved": 0, "is_disabled": 0, "name": "8e9ce869fe32ae151d721ff999017ef0", "bike_id": "8e9ce869fe32ae151d721ff999017ef0", "fusion_lat": 0.0, "lon": -77.0220205, "type": "electric_scooter", "fusion_lon": 0.0, "lat": 38.911271}, {"rental_uris": {"android": "https://dc.lft.to/lastmile_qr_scan", "ios": "https://dc.lft.to/lastmile_qr_scan"}, "is_reserved": 0, "is_disabled": 0, "name": "0787a56a0beb13f935e21fa942fdfc06", "bike_id": "0787a56a0beb13f935e21fa942fdfc06", "fusion_lat": 0.0, "lon": -77.02595933333333, "type": "electric_scooter", "fusion_lon": 0.0, "lat": 38.9209055}, {"rental_uris": {"android": "https://dc.lft.to/lastmile_qr_scan", "ios": "https://dc.lft.to/lastmile_qr_scan"}, "is_reserved": 0, "is_disabled": 0, "name": "ca75db862e13af5e4a5d98418410841f", "bike_id": "ca75db862e13af5e4a5d98418410841f", "fusion_lat": 0.0, "lon": -77.0426485, "type": "electric_scooter", "fusion_lon": 0.0, "lat": 38.92231616666667}, {"rental_uris": {"android": "https://dc.lft.to/lastmile_qr_scan", "ios": "https://dc.lft.to/lastmile_qr_scan"}, "is_reserved": 0, "is_disabled": 0, "name": "5eadb9c4750b1516997f07253491815c", "bike_id": "5eadb9c4750b1516997f07253491815c", "fusion_lat": 0.0, "lon": -77.02815883333334, "type": "electric_scooter", "fusion_lon": 0.0, "lat": 38.917468}, {"rental_uris": {"android": "https://dc.lft.to/lastmile_qr_scan", "ios": "https://dc.lft.to/lastmile_qr_scan"}, "is_reserved": 0, "is_disabled": 0, "name": "9080ab16ff78302b90f18861875c32e7", "bike_id": "9080ab16ff78302b90f18861875c32e7", "fusion_lat": 0.0, "lon": -77.01539866666667, "type": "electric_scooter", "fusion_lon": 0.0, "lat": 38.89165366666667}, {"rental_uris": {"android": "https://dc.lft.to/lastmile_qr_scan", "ios": "https://dc.lft.to/lastmile_qr_scan"}, "is_reserved": 0, "is_disabled": 0, "name": "2baa15a16a73979fa8392528be757877", "bike_id": "2baa15a16a73979fa8392528be757877", "fusion_lat": 0.0, "lon": -77.0120395, "type": "electric_bike", "fusion_lon": 0.0, "lat": 38.95075416666667}, {"rental_uris": {"android": "https://dc.lft.to/lastmile_qr_scan", "ios": "https://dc.lft.to/lastmile_qr_scan"}, "is_reserved": 0, "is_disabled": 0, "name": "c0e9ba30edcb0163191105bd4f0d7778", "bike_id": "c0e9ba30edcb0163191105bd4f0d7778", "fusion_lat": 0.0, "lon": -77.02972333333334, "type": "electric_scooter", "fusion_lon": 0.0, "lat": 38.942955}, {"rental_uris": {"android": "https://dc.lft.to/lastmile_qr_scan", "ios": "https://dc.lft.to/lastmile_qr_scan"},