{"data": {"bikes": [{"lat": 38.916828333333335, "is_disabled": 0, "type": "electric_scooter", "lon": -77.001954, "bike_id": "c4e93765956fb1c68098d188f9308248", "fusion_lat": 0.0, "name": "c4e93765956fb1c68098d188f9308248", "is_reserved": 0, "rental_uris": {"android": "https://dc.lft.to/lastmile_qr_scan", "ios": "https://dc.lft.to/lastmile_qr_scan"}, "fusion_lon": 0.0}, {"lat": 38.883615666666664, "is_disabled": 0, "type": "electric_scooter", "lon": -76.94155816666667, "bike_id": "0a25b2ed512f4c214ba6e48c582caccb", "fusion_lat": 0.0, "name": "0a25b2ed512f4c214ba6e48c582caccb", "is_reserved": 0, "rental_uris": {"android": "https://dc.lft.to/lastmile_qr_scan", "ios": "https://dc.lft.to/lastmile_qr_scan"}, "fusion_lon": 0.0}, {"lat": 38.958800333333336, "is_disabled": 0, "type": "electric_bike", "lon": -76.92484666666667, "bike_id": "7ca1b02896b528d0393741f9822cdb5e", "fusion_lat": 0.0, "name": "7ca1b02896b528d0393741f9822cdb5e", "is_reserved": 0, "rental_uris": {"android": "https://dc.lft.to/lastmile_qr_scan", "ios": "https://dc.lft.to/lastmile_qr_scan"}, "fusion_lon": 0.0}, {"lat": 38.934083666666666, "is_disabled": 0, "type": "electric_scooter", "lon": -77.0329465, "bike_id": "ffd21aa46c5f0015dbe94f8cd0ad81bd", "fusion_lat": 0.0, "name": "ffd21aa46c5f0015dbe94f8cd0ad81bd", "is_reserved": 0, "rental_uris": {"android": "https://dc.lft.to/lastmile_qr_scan", "ios": "https://dc.lft.to/lastmile_qr_scan"}, "fusion_lon": 0.0}, {"lat": 38.925293333333336, "is_disabled": 0, "type": "electric_scooter", "lon": -77.02642366666667, "bike_id": "317e321061a7c648563dc7ef7d30aa52", "fusion_lat": 0.0, "name": "317e321061a7c648563dc7ef7d30aa52", "is_reserved": 0, "rental_uris": {"android": "https://dc.lft.to/lastmile_qr_scan", "ios": "https://dc.lft.to/lastmile_qr_scan"}, "fusion_lon": 0.0}, {"lat": 38.941202, "is_disabled": 0, "type": "electric_scooter", "lon": -77.00072233333333, "bike_id": "dc50398de2ffd63f4487f8779162df8d", "fusion_lat": 0.0, "name": "dc50398de2ffd63f4487f8779162df8d", "is_reserved": 0, "rental_uris": {"android": "https://dc.lft.to/lastmile_qr_scan", "ios": "https://dc.lft.to/lastmile_qr_scan"}, "fusion_lon": 0.0}, {"lat": 38.9189115, "is_disabled": 0, "type": "electric_scooter", "lon": -77.04468716666666, "bike_id": "9151cffdacd781cab6d2d0e23ec40331", "fusion_lat": 0.0, "name": "9151cffdacd781cab6d2d0e23ec40331", "is_reserved": 0, "rental_uris": {"android": "https://dc.lft.to/lastmile_qr_scan", "ios": "https://dc.lft.to/lastmile_qr_scan"}, "fusion_lon": 0.0}, {"lat": 38.92102783333333, "is_disabled": 0, "type": "electric_scooter", "lon": -77.01812316666667, "bike_id": "60a4daef011bf03681283d7ca0cc9d6e", "fusion_lat": 0.0, "name": "60a4daef011bf03681283d7ca0cc9d6e", "is_reserved": 0, "rental_uris": {"android": "https://dc.lft.to/lastmile_qr_scan", "ios": "https://dc.lft.to/lastmile_qr_scan"}, "fusion_lon": 0.0}, {"lat": 38.91920183333333, "is_disabled": 0, "type": "electric_scooter", "lon": -77.03430933333334, "bike_id": "378bc234d9049f7bb42fb02215071e65", "fusion_lat": 0.0, "name": "378bc234d9049f7bb42fb02215071e65", "is_reserved": 0, "rental_uris": {"android": "https://dc.lft.to/lastmile_qr_scan", "ios": "https://dc.lft.to/lastmile_qr_scan"}, "fusion_lon": 0.0}, {"lat": 38.8520605, "is_disabled": 0, "type": "electric_bike", "lon": -77.10126383333333, "bike_id": "f068e42304d5617c31913e61adabb70a", "fusion_lat": 0.0, "name": "f068e42304d5617c31913e61adabb70a", "is_reserved": 0, "rental_uris": {"android": "https://dc.lft.to/lastmile_qr_scan", "ios": "https://dc.lft.to/lastmile_qr_scan"}, "fusion_lon": 0.0}, {"lat": 38.9027675, "is_disabled": 0, "type": "electric_scooter", "lon": -77.03868116666666, "bike_id": "af23e1b5745a5cf85ce13ab3570cf2f1", "fusion_lat": 0.0, "name": "af23e1b5745a5cf85ce13ab3570cf2f1", "is_reserved": 0, "rental_uris": {"android": "https://dc.lft.to/lastmile_qr_scan", "ios": "https://dc.lft.to/lastmile_qr_scan"}, "fusion_lon": 0.0}, {"lat": 38.879189, "is_disabled": 0, "type": "electric_scooter", "lon": -77.03095583333334, "bike_id": "e63b707edb2040774607a5ca454742a4", "fusion_lat": 0.0, "name": "e63b707edb2040774607a5ca454742a4", "is_reserved": 0, "rental_uris": {"android": "https://dc.lft.to/lastmile_qr_scan", "ios": "https://dc.lft.to/lastmile_qr_scan"}, "fusion_lon": 0.0}, {"lat": 38.970885833333334, "is_disabled": 0, "type": "electric_bike", "lon": -77.06964566666667, "bike_id": "42af431a300ce8eb4a8f0fcace06831d", "fusion_lat": 0.0, "name": "42af431a300ce8eb4a8f0fcace06831d", "is_reserved": 0, "rental_uris": {"android": "https://dc.lft.to/lastmile_qr_scan", "ios": "https://dc.lft.to/lastmile_qr_scan"}, "fusion_lon": 0.0}, {"lat": 38.937209833333334, "is_disabled": 0, "type": "electric_scooter", "lon": -77.0326845, "bike_id": "1928d8e481a1e4fe325996d629edd0e0", "fusion_lat": 0.0, "name": "1928d8e481a1e4fe325996d629edd0e0", "is_reserved": 0, "rental_uris": {"android": "https://dc.lft.to/lastmile_qr_scan", "ios": "https://dc.lft.to/lastmile_qr_scan"}, "fusion_lon": 0.0}, {"lat": 38.911849833333335, "is_disabled": 0, "type": "electric_scooter", "lon": -77.040268, "bike_id": "b1cd50409da44bd5c9f0df34bde7357d", "fusion_lat": 0.0, "name": "b1cd50409da44bd5c9f0df34bde7357d", "is_reserved": 0, "rental_uris": {"android": "https://dc.lft.to/lastmile_qr_scan", "ios": "https://dc.lft.to/lastmile_qr_scan"}, "fusion_lon": 0.0}, {"lat": 38.8840365, "is_disabled": 0, "type": "electric_bike", "lon": -76.96061166666667, "bike_id": "490c80910384d5886d43a4b899f3764d", "fusion_lat": 0.0, "name": "490c80910384d5886d43a4b899f3764d", "is_reserved": 0, "rental_uris": {"android": "https://dc.lft.to/lastmile_qr_scan", "ios": "https://dc.lft.to/lastmile_qr_scan"}, "fusion_lon": 0.0}, {"lat": 38.920179, "is_disabled": 0, "type": "electric_scooter", "lon": -77.01431133333334, "bike_id": "72b2b03e028c4d55551aed4e64858926", "fusion_lat": 0.0, "name": "72b2b03e028c4d55551aed4e64858926", "is_reserved": 0, "rental_uris": {"android": "https://dc.lft.to/lastmile_qr_scan", "ios": "https://dc.lft.to/lastmile_qr_scan"}, "fusion_lon": 0.0}, {"lat": 38.937544333333335, "is_disabled": 0, "type": "electric_scooter", "lon": -77.02142333333333, "bike_id": "227f01557d726c79da3ecbe35ea773a2", "fusion_lat": 0.0, "name": "227f01557d726c79da3ecbe35ea773a2", "is_reserved": 0, "rental_uris": {"android": "https://dc.lft.to/lastmile_qr_scan", "ios": "https://dc.lft.to/lastmile_qr_scan"}, "fusion_lon": 0.0}, {"lat": 38.928713, "is_disabled": 0, "type": "electric_scooter", "lon": -77.0332935, "bike_id": "65da4dc3de265ef9b329d4c7f6192584", "fusion_lat": 0.0, "name": "65da4dc3de265ef9b329d4c7f6192584", "is_reserved": 0, "rental_uris": {"android": "https://dc.lft.to/lastmile_qr_scan", "ios": "https://dc.lft.to/lastmile_qr_scan"}, "fusion_lon": 0.0}, {"lat": 38.896757, "is_disabled": 0, "type": "electric_scooter", "lon": -77.05127083333333, "bike_id": "f210744a1ff3a49a8f707d14a7c90b81", "fusion_lat": 0.0, "name": "f210744a1ff3a49a8f707d14a7c90b81", "is_reserved": 0, "rental_uris": {"android": "https://dc.lft.to/lastmile_qr_scan", "ios": "https://dc.lft.to/lastmile_qr_scan"}, "fusion_lon": 0.0}, {"lat": 38.958748166666666, "is_disabled": 0, "type": "electric_bike", "lon": -77.01035683333333, "bike_id": "9b6f1f20bef9eae0cdf0f6684b17613e", "fusion_lat": 0.0, "name": "9b6f1f20bef9eae0cdf0f6684b17613e", "is_reserved": 0, "rental_uris": {"android": "https://dc.lft.to/lastmile_qr_scan", "ios": "https://dc.lft.to/lastmile_qr_scan"}, "fusion_lon": 0.0}, {"lat": 38.9085275, "is_disabled": 0, "type": "electric_scooter", "lon": -77.0062495, "bike_id": "16e35c31afae5387803fe6cc9a4baa1e", "fusion_lat": 0.0, "name": "16e35c31afae5387803fe6cc9a4baa1e", "is_reserved": 0, "rental_uris": {"android": "https://dc.lft.to/lastmile_qr_scan", "ios": "https://dc.lft.to/lastmile_qr_scan"}, "fusion_lon": 0.0}, {"lat": 38.9126285, "is_disabled": 0, "type": "electric_bike", "lon": -77.04574116666667, "bike_id": "c46bf5fa5bcd86c506f22484ce1f6353", "fusion_lat": 0.0, "name": "c46bf5fa5bcd86c506f22484ce1f6353", "is_reserved": 0, "rental_uris": {"android": "https://dc.lft.to/lastmile_qr_scan", "ios": "https://dc.lft.to/lastmile_qr_scan"}, "fusion_lon": 0.0}, {"lat": 38.917974, "is_disabled": 0, "type": "electric_bike", "lon": -77.22339466666666, "bike_id": "b38ab9aa8cf8f0d967c60ec33dcc6eb1", "fusion_lat": 0.0, "name": "b38ab9aa8cf8f0d967c60ec33dcc6eb1", "is_reserved": 0, "rental_uris": {"android": "https://dc.lft.to/lastmile_qr_scan", "ios": "https://dc.lft.to/lastmile_qr_scan"}, "fusion_lon": 0.0}, {"lat": 38.906339, "is_disabled": 0, "type": "electric_scooter", "lon": -77.02496533333333, "bike_id": "9cc6e7ab1767d5874119dedd2d2538ef", "fusion_lat": 0.0, "name": "9cc6e7ab1767d5874119dedd2d2538ef", "is_reserved": 0, "rental_uris": {"android": "https://dc.lft.to/lastmile_qr_scan", "ios": "https://dc.lft.to/lastmile_qr_scan"}, "fusion_lon": 0.0}, {"lat": 38.900625, "is_disabled": 0, "type": "electric_scooter", "lon": -77.05060433333334, "bike_id": "a8f35b26a266be16b9cdf4ad1d09c69c", "fusion_lat": 0.0, "name": "a8f35b26a266be16b9cdf4ad1d09c69c", "is_reserved": 0, "rental_uris": {"android": "https://dc.lft.to/lastmile_qr_scan", "ios": "https://dc.lft.to/lastmile_qr_scan"}, "fusion_lon": 0.0}, {"lat": 38.871394, "is_disabled": 0, "type": "electric_bike", "lon": -76.93705416666667, "bike_id": "1695d8dda2a784a8eeb4d096b212f03e", "fusion_lat": 0.0, "name": "1695d8dda2a784a8eeb4d096b212f03e", "is_reserved": 0, "rental_uris": {"android": "https://dc.lft.to/lastmile_qr_scan", "ios": "https://dc.lft.to/lastmile_qr_scan"}, "fusion_lon": 0.0}, {"lat": 38.836906666666664, "is_disabled": 0, "type": "electric_scooter", "lon": -77.103109, "bike_id": "ab8679bda7e8102b59292f6d66430af6", "fusion_lat": 0.0, "name": "ab8679bda7e8102b59292f6d66430af6", "is_reserved": 0, "rental_uris": {"android": "https://dc.lft.to/lastmile_qr_scan", "ios": "https://dc.lft.to/lastmile_qr_scan"}, "fusion_lon": 0.0}, {"lat": 38.9162165, "is_disabled": 0, "type": "electric_scooter", "lon": -77.03286133333333, "bike_id": "373a4edc0c742c91c08d0f040a0e8e46", "fusion_lat": 0.0, "name": "373a4edc0c742c91c08d0f040a0e8e46", "is_reserved": 0, "rental_uris": {"android": "https://dc.lft.to/lastmile_qr_scan", "ios": "https://dc.lft.to/lastmile_qr_scan"}, "fusion_lon": 0.0}, {"lat": 38.868302666666665, "is_disabled": 0, "type": "electric_scooter", "lon": -76.97741766666667, "bike_id": "b05195a088ab5e08a87432b3435d66d4", "fusion_lat": 0.0, "name": "b05195a088ab5e08a87432b3435d66d4", "is_reserved": 0, "rental_uris": {"android": "https://dc.lft.to/lastmile_qr_scan", "ios": "https://dc.lft.to/lastmile_qr_scan"}, "fusion_lon": 0.0}, {"lat": 38.92703816666667, "is_disabled": 0, "type": "electric_scooter", "lon": -77.02095933333334, "bike_id": "d553d4ae5e86f9f6070fe354d109625d", "fusion_lat": 0.0, "name": "d553d4ae5e86f9f6070fe354d109625d", "is_reserved": 0, "rental_uris": {"android": "https://dc.lft.to/lastmile_qr_scan", "ios": "https://dc.lft.to/lastmile_qr_scan"}, "fusion_lon": 0.0}, {"lat": 38.91422766666667, "is_disabled": 0, "type": "electric_scooter", "lon": -77.046516, "bike_id": "779ac982de7fbaf4da509699db234ee4", "fusion_lat": 0.0, "name": "779ac982de7fbaf4da509699db234ee4", "is_reserved": 0, "rental_uris": {"android": "https://dc.lft.to/lastmile_qr_scan", "ios": "https://dc.lft.to/lastmile_qr_scan"}, "fusion_lon": 0.0}, {"lat": 38.9161335, "is_disabled": 0, "type": "electric_scooter", "lon": -77.04859466666667, "bike_id": "db8d7ce17b144e24eb00dda542b22e3a", "fusion_lat": 0.0, "name": "db8d7ce17b144e24eb00dda542b22e3a", "is_reserved": 0, "rental_uris": {"android": "https://dc.lft.to/lastmile_qr_scan", "ios": "https://dc.lft.to/lastmile_qr_scan"}, "fusion_lon": 0.0}, {"lat": 38.9330905, "is_disabled": 0, "type": "electric_scooter", "lon": -77.04527783333333, "bike_id": "5f6ef51148fc9201021ffc0469c52fef", "fusion_lat": 0.0, "name": "5f6ef51148fc9201021ffc0469c52fef", "is_reserved": 0, "rental_uris": {"android": "https://dc.lft.to/lastmile_qr_scan", "ios": "https://dc.lft.to/lastmile_qr_scan"}, "fusion_lon": 0.0}, {"lat": 38.898722166666666, "is_disabled": 0, "type": "electric_scooter", "lon": -77.02034633333334, "bike_id": "f7c43e0d48d0f2600121b942599fee85", "fusion_lat": 0.0, "name": "f7c43e0d48d0f2600121b942599fee85", "is_reserved": 0, "rental_uris": {"android": "https://dc.lft.to/lastmile_qr_scan", "ios": "https://dc.lft.to/lastmile_qr_scan"}, "fusion_lon": 0.0}, {"lat": 38.878626833333335, "is_disabled": 0, "type": "electric_scooter", "lon": -77.00732516666666, "bike_id": "9ce6e2e21554e21b09a52887a175ee14", "fusion_lat": 0.0, "name": "9ce6e2e21554e21b09a52887a175ee14", "is_reserved": 0, "rental_uris": {"android": "https://dc.lft.to/lastmile_qr_scan", "ios": "https://dc.lft.to/lastmile_qr_scan"}, "fusion_lon": 0.0}, {"lat": 38.9061125, "is_disabled": 0, "type": "electric_scooter", "lon": -77.039958, "bike_id": "485a38f25af5b210e59398b8320af2b5", "fusion_lat": 0.0, "name": "485a38f25af5b210e59398b8320af2b5", "is_reserved": 0, "rental_uris": {"android": "https://dc.lft.to/lastmile_qr_scan", "ios": "https://dc.lft.to/lastmile_qr_scan"}, "fusion_lon": 0.0}, {"lat": 38.86671166666667, "is_disabled": 0, "type": "electric_scooter", "lon": -76.985385, "bike_id": "f12686b294501b5803f564c1946513ab", "fusion_lat": 0.0, "name": "f12686b294501b5803f564c1946513ab", "is_reserved": 0, "rental_uris": {"android": "https://dc.lft.to/lastmile_qr_scan", "ios": "https://dc.lft.to/lastmile_qr_scan"}, "fusion_lon": 0.0}, {"lat": 38.89587816666667, "is_disabled": 0, "type": "electric_scooter", "lon": -77.0257195, "bike_id": "b41550337e9735df27d2278cab047101", "fusion_lat": 0.0, "name": "b41550337e9735df27d2278cab047101", "is_reserved": 0, "rental_uris": {"android": "https://dc.lft.to/lastmile_qr_scan", "ios": "https://dc.lft.to/lastmile_qr_scan"}, "fusion_lon": 0.0}, {"lat": 38.89743033333333, "is_disabled": 0, "type": "electric_scooter", "lon": -77.00075333333334, "bike_id": "2475f7693fee581a5737f19cb1b62fb0", "fusion_lat": 0.0, "name": "2475f7693fee581a5737f19cb1b62fb0", "is_reserved": 0, "rental_uris": {"android": "https://dc.lft.to/lastmile_qr_scan", "ios": "https://dc.lft.to/lastmile_qr_scan"}, "fusion_lon": 0.0}, {"lat": 38.91763566666667, "is_disabled": 0, "type": "electric_scooter", "lon": -77.02817616666667, "bike_id": "e975df1df2e85962097bd6bbe51efc9c", "fusion_lat": 0.0, "name": "e975df1df2e85962097bd6bbe51efc9c", "is_reserved": 0, "rental_uris": {"android": "https://dc.lft.to/lastmile_qr_scan", "ios": "https://dc.lft.to/lastmile_qr_scan"}, "fusion_lon": 0.0}, {"lat": 38.91776816666667, "is_disabled": 0, "type": "electric_scooter", "lon": -77.036588, "bike_id": "3da8fe9be7f64f647cf5acebc4f0b6fd", "fusion_lat": 0.0, "name": "3da8fe9be7f64f647cf5acebc4f0b6fd", "is_reserved": 0, "rental_uris": {"android": "https://dc.lft.to/lastmile_qr_scan", "ios": "https://dc.lft.to/lastmile_qr_scan"}, "fusion_lon": 0.0}, {"lat": 38.905325166666664, "is_disabled": 0, "type": "electric_scooter", "lon": -77.05715983333333, "bike_id": "d4323e0670f8b68abf0309de46b12fa9", "fusion_lat": 0.0, "name": "d4323e0670f8b68abf0309de46b12fa9", "is_reserved": 0, "rental_uris": {"android": "https://dc.lft.to/lastmile_qr_scan", "ios": "https://dc.lft.to/lastmile_qr_scan"}, "fusion_lon": 0.0}, {"lat": 38.877302666666665, "is_disabled": 0, "type": "electric_bike", "lon": -76.98107916666666, "bike_id": "f606ff848ffaf39517a2a9df12aafe44", "fusion_lat": 0.0, "name": "f606ff848ffaf39517a2a9df12aafe44", "is_reserved": 0, "rental_uris": {"android": "https://dc.lft.to/lastmile_qr_scan", "ios": "https://dc.lft.to/lastmile_qr_scan"}, "fusion_lon": 0.0}, {"lat": 38.92210633333333, "is_disabled": 0, "type": "electric_scooter", "lon": -77.04023716666667, "bike_id": "f7886758e02c5b47841a67bca4119b88", "fusion_lat": 0.0, "name": "f7886758e02c5b47841a67bca4119b88", "is_reserved": 0, "rental_uris": {"android": "https://dc.lft.to/lastmile_qr_scan", "ios": "https://dc.lft.to/lastmile_qr_scan"}, "fusion_lon": 0.0}, {"lat": 38.90969883333333, "is_disabled": 0, "type": "electric_scooter", "lon": -77.0387025, "bike_id": "e8f1c7ac79a5e6f19392568d16cb093a", "fusion_lat": 0.0, "name": "e8f1c7ac79a5e6f19392568d16cb093a", "is_reserved": 0, "rental_uris": {"android": "https://dc.lft.to/lastmile_qr_scan", "ios": "https://dc.lft.to/lastmile_qr_scan"}, "fusion_lon": 0.0}, {"lat": 38.900650666666664, "is_disabled": 0, "type": "electric_scooter", "lon": -77.002204, "bike_id": "cb3eff0637e9da77434a745a498d1c71", "fusion_lat": 0.0, "name": "cb3eff0637e9da77434a745a498d1c71", "is_reserved": 0, "rental_uris": {"android": "https://dc.lft.to/lastmile_qr_scan", "ios": "https://dc.lft.to/lastmile_qr_scan"}, "fusion_lon": 0.0}, {"lat": 38.8724175, "is_disabled": 0, "type": "electric_scooter", "lon": -76.97728316666667, "bike_id": "38b0fa963be2fa36d2ae8ded0df2bd50", "fusion_lat": 0.0, "name": "38b0fa963be2fa36d2ae8ded0df2bd50", "is_reserved": 0, "rental_uris": {"android": "https://dc.lft.to/lastmile_qr_scan", "ios": "https://dc.lft.to/lastmile_qr_scan"}, "fusion_lon": 0.0}, {"lat": 38.91686883333333, "is_disabled": 0, "type": "electric_scooter", "lon": -77.02690366666667, "bike_id": "2fde05a39ffdabd61554d41b13fc03b7", "fusion_lat": 0.0, "name": "2fde05a39ffdabd61554d41b13fc03b7", "is_reserved": 0, "rental_uris": {"android": "https://dc.lft.to/lastmile_qr_scan", "ios": "https://dc.lft.to/lastmile_qr_scan"}, "fusion_lon": 0.0}, {"lat": 38.917062333333334, "is_disabled": 0, "type": "electric_scooter", "lon": -77.03351533333333, "bike_id": "68ed598deab7b706d761321bb571b3b5", "fusion_lat": 0.0, "name": "68ed598deab7b706d761321bb571b3b5", "is_reserved": 0, "rental_uris": {"android": "https://dc.lft.to/lastmile_qr_scan", "ios": "https://dc.lft.to/lastmile_qr_scan"}, "fusion_lon": 0.0}, {"lat": 38.90851083333333, "is_disabled": 0, "type": "electric_scooter", "lon": -77.04773033333333, "bike_id": "d8c657f435a6d303eafc54a80ecf6e52", "fusion_lat": 0.0, "name": "d8c657f435a6d303eafc54a80ecf6e52", "is_reserved": 0, "rental_uris": {"android": "https://dc.lft.to/lastmile_qr_scan", "ios": "https://dc.lft.to/lastmile_qr_scan"}, "fusion_lon": 0.0}, {"lat": 38.9440595, "is_disabled": 0, "type": "electric_scooter", "lon": -77.0264555, "bike_id": "0c85ff4e3edee341a91a8411447cd3b7", "fusion_lat": 0.0, "name": "0c85ff4e3edee341a91a8411447cd3b7", "is_reserved": 0, "rental_uris": {"android": "https://dc.lft.to/lastmile_qr_scan", "ios": "https://dc.lft.to/lastmile_qr_scan"}, "fusion_lon": 0.0}, {"lat": 38.88925966666667, "is_disabled": 0, "type": "electric_scooter", "lon": -76.973754, "bike_id": "260033a263c1c63b89bdacc520dd17a9", "fusion_lat": 0.0, "name": "260033a263c1c63b89bdacc520dd17a9", "is_reserved": 0, "rental_uris": {"android": "https://dc.lft.to/lastmile_qr_scan", "ios": "https://dc.lft.to/lastmile_qr_scan"}, "fusion_lon": 0.0}, {"lat": 38.9191615, "is_disabled": 0, "type": "electric_scooter", "lon": -77.0241385, "bike_id": "0942545f1882cebbe145f43b969c7091", "fusion_lat": 0.0, "name": "0942545f1882cebbe145f43b969c7091", "is_reserved": 0, "rental_uris": {"android": "https://dc.lft.to/lastmile_qr_scan", "ios": "https://dc.lft.to/lastmile_qr_scan"}, "fusion_lon": 0.0}, {"lat": 38.9172565, "is_disabled": 0, "type": "electric_scooter", "lon": -77.022985, "bike_id": "10d30eeaf19289e9be0fe4c240a0b42a", "fusion_lat": 0.0, "name": "10d30eeaf19289e9be0fe4c240a0b42a", "is_reserved": 0, "rental_uris": {"android": "https://dc.lft.to/lastmile_qr_scan", "ios": "https://dc.lft.to/lastmile_qr_scan"}, "fusion_lon": 0.0}, {"lat": 38.8988825, "is_disabled": 0, "type": "electric_scooter", "lon": -77.02169233333333, "bike_id": "8d1afa81c575b6daa7079893382d4ca3", "fusion_lat": 0.0, "name": "8d1afa81c575b6daa7079893382d4ca3", "is_reserved": 0, "rental_uris": {"android": "https://dc.lft.to/lastmile_qr_scan", "ios": "https://dc.lft.to/lastmile_qr_scan"}, "fusion_lon": 0.0}, {"lat": 38.91679766666667, "is_disabled": 0, "type": "electric_scooter", "lon": -77.02803983333334, "bike_id": "3b76c0922beeab440821d1021c51a0c3", "fusion_lat": 0.0, "name": "3b76c0922beeab440821d1021c51a0c3", "is_reserved": 0, "rental_uris": {"android": "https://dc.lft.to/lastmile_qr_scan", "ios": "https://dc.lft.to/lastmile_qr_scan"}, "fusion_lon": 0.0}, {"lat": 38.90416483333333, "is_disabled": 0, "type": "electric_scooter", "lon": -77.06891033333333, "bike_id": "2dc5a546d3a88ee092bf3a7647f5db3a", "fusion_lat": 0.0, "name": "2dc5a546d3a88ee092bf3a7647f5db3a", "is_reserved": 0, "rental_uris": {"android": "https://dc.lft.to/lastmile_qr_scan", "ios": "https://dc.lft.to/lastmile_qr_scan"}, "fusion_lon": 0.0}, {"lat": 38.90982983333333, "is_disabled": 0, "type": "electric_scooter", "lon": -77.03374166666667, "bike_id": "f6e43853f658116fe5a17938b82c8fdd", "fusion_lat": 0.0, "name": "f6e43853f658116fe5a17938b82c8fdd", "is_reserved": 0, "rental_uris": {"android": "https://dc.lft.to/lastmile_qr_scan", "ios": "https://dc.lft.to/lastmile_qr_scan"}, "fusion_lon": 0.0}, {"lat": 38.887351, "is_disabled": 0, "type": "electric_scooter", "lon": -77.0153965, "bike_id": "587ae8131afe2bd99848b5f9c39767a5", "fusion_lat": 0.0, "name": "587ae8131afe2bd99848b5f9c39767a5", "is_reserved": 0, "rental_uris": {"android": "https://dc.lft.to/lastmile_qr_scan", "ios": "https://dc.lft.to/lastmile_qr_scan"}, "fusion_lon": 0.0}, {"lat": 38.912889666666665, "is_disabled": 0, "type": "electric_scooter", "lon": -77.023816, "bike_id": "908e3b0714139cf937e9109ae461c473", "fusion_lat": 0.0, "name": "908e3b0714139cf937e9109ae461c473", "is_reserved": 0, "rental_uris": {"android": "https://dc.lft.to/lastmile_qr_scan", "ios": "https://dc.lft.to/lastmile_qr_scan"}, "fusion_lon": 0.0}, {"lat": 38.9005545, "is_disabled": 0, "type": "electric_scooter", "lon": -77.0022015, "bike_id": "fe41d13be118e0e7a4bbe7f28e3346e6", "fusion_lat": 0.0, "name": "fe41d13be118e0e7a4bbe7f28e3346e6", "is_reserved": 0, "rental_uris": {"android": "https://dc.lft.to/lastmile_qr_scan", "ios": "https://dc.lft.to/lastmile_qr_scan"}, "fusion_lon": 0.0}, {"lat": 38.91133716666667, "is_disabled": 0, "type": "electric_scooter", "lon": -77.0269835, "bike_id": "911b3f11ba8663896670b587f3998d3f", "fusion_lat": 0.0, "name": "911b3f11ba8663896670b587f3998d3f", "is_reserved": 0, "rental_uris": {"android": "https://dc.lft.to/lastmile_qr_scan", "ios": "https://dc.lft.to/lastmile_qr_scan"}, "fusion_lon": 0.0}, {"lat": 38.88653933333333, "is_disabled": 0, "type": "electric_bike", "lon": -77.16234866666667, "bike_id": "77220a257083921672c0a6119650acc5", "fusion_lat": 0.0, "name": "77220a257083921672c0a6119650acc5", "is_reserved": 0, "rental_uris": {"android": "https://dc.lft.to/lastmile_qr_scan", "ios": "https://dc.lft.to/lastmile_qr_scan"}, "fusion_lon": 0.0}, {"lat": 38.9010795, "is_disabled": 0, "type": "electric_scooter", "lon": -76.99548133333333, "bike_id": "fc9c9ea19c3213bf9885cfb40a03b403", "fusion_lat": 0.0, "name": "fc9c9ea19c3213bf9885cfb40a03b403", "is_reserved": 0, "rental_uris": {"android": "https://dc.lft.to/lastmile_qr_scan", "ios": "https://dc.lft.to/lastmile_qr_scan"}, "fusion_lon": 0.0}, {"lat": 38.918940166666665, "is_disabled": 0, "type": "electric_scooter", "lon": -77.00051566666667, "bike_id": "0bdc1064284895ebf06faf1ef6587f58", "fusion_lat": 0.0, "name": "0bdc1064284895ebf06faf1ef6587f58", "is_reserved": 0, "rental_uris": {"android": "https://dc.lft.to/lastmile_qr_scan", "ios": "https://dc.lft.to/lastmile_qr_scan"}, "fusion_lon": 0.0}, {"lat": 38.93281483333333, "is_disabled": 0, "type": "electric_scooter", "lon": -77.02835983333334, "bike_id": "678b5f17590ceecfed554ca2a834a7f5", "fusion_lat": 0.0, "name": "678b5f17590ceecfed554ca2a834a7f5", "is_reserved": 0, "rental_uris": {"android": "https://dc.lft.to/lastmile_qr_scan", "ios": "https://dc.lft.to/lastmile_qr_scan"}, "fusion_lon": 0.0}, {"lat": 38.90838466666666, "is_disabled": 0, "type": "electric_scooter", "lon": -76.997098, "bike_id": "3e2bb01e806bb4d7b3ee007e85c81d19", "fusion_lat": 0.0, "name": "3e2bb01e806bb4d7b3ee007e85c81d19", "is_reserved": 0, "rental_uris": {"android": "https://dc.lft.to/lastmile_qr_scan", "ios": "https://dc.lft.to/lastmile_qr_scan"}, "fusion_lon": 0.0}, {"lat": 38.93316933333333, "is_disabled": 0, "type": "electric_scooter", "lon": -77.04529783333334, "bike_id": "16db7587e60767ebea40c194b072e1f4", "fusion_lat": 0.0, "name": "16db7587e60767ebea40c194b072e1f4", "is_reserved": 0, "rental_uris": {"android": "https://dc.lft.to/lastmile_qr_scan", "ios": "https://dc.lft.to/lastmile_qr_scan"}, "fusion_lon": 0.0}, {"lat": 38.903188666666665, "is_disabled": 0, "type": "electric_scooter", "lon": -77.03773566666666, "bike_id": "4f50193f62a9c0652ff69539c7a93eb6", "fusion_lat": 0.0, "name": "4f50193f62a9c0652ff69539c7a93eb6", "is_reserved": 0, "rental_uris": {"android": "https://dc.lft.to/lastmile_qr_scan", "ios": "https://dc.lft.to/lastmile_qr_scan"}, "fusion_lon": 0.0}, {"lat": 38.92232, "is_disabled": 0, "type": "electric_scooter", "lon": -77.045758, "bike_id": "2bfa9aab0e4127569fbce3ecfc5877dc", "fusion_lat": 0.0, "name": "2bfa9aab0e4127569fbce3ecfc5877dc", "is_reserved": 0, "rental_uris": {"android": "https://dc.lft.to/lastmile_qr_scan", "ios": "https://dc.lft.to/lastmile_qr_scan"}, "fusion_lon": 0.0}, {"lat": 38.972252, "is_disabled": 0, "type": "electric_bike", "lon": -76.99345883333334, "bike_id": "55dcbeb08f25525ad9b7b787a80bbf77", "fusion_lat": 0.0, "name": "55dcbeb08f25525ad9b7b787a80bbf77", "is_reserved": 0, "rental_uris": {"android": "https://dc.lft.to/lastmile_qr_scan", "ios": "https://dc.lft.to/lastmile_qr_scan"}, "fusion_lon": 0.0}, {"lat": 38.90267683333333, "is_disabled": 0, "type": "electric_scooter", "lon": -77.00351516666667, "bike_id": "7069d8207cf026c2d6cecca2558adea0", "fusion_lat": 0.0, "name": "7069d8207cf026c2d6cecca2558adea0", "is_reserved": 0, "rental_uris": {"android": "https://dc.lft.to/lastmile_qr_scan", "ios": "https://dc.lft.to/lastmile_qr_scan"}, "fusion_lon": 0.0}, {"lat": 38.865053, "is_disabled": 0, "type": "electric_scooter", "lon": -76.9900735, "bike_id": "57f0d1c5410da0ea4312ad8b45fb6ee2", "fusion_lat": 0.0, "name": "57f0d1c5410da0ea4312ad8b45fb6ee2", "is_reserved": 0, "rental_uris": {"android": "https://dc.lft.to/lastmile_qr_scan", "ios": "https://dc.lft.to/lastmile_qr_scan"}, "fusion_lon": 0.0}, {"lat": 38.9031765, "is_disabled": 0, "type": "electric_scooter", "lon": -77.02884966666667, "bike_id": "12244c212664e8300010b254cb0ed310", "fusion_lat": 0.0, "name": "12244c212664e8300010b254cb0ed310", "is_reserved": 0, "rental_uris": {"android": "https://dc.lft.to/lastmile_qr_scan", "ios": "https://dc.lft.to/lastmile_qr_scan"}, "fusion_lon": 0.0}, {"lat": 38.89974, "is_disabled": 0, "type": "electric_scooter", "lon": -77.02068516666667, "bike_id": "5da4ce2150b9b62ec32a559265bff306", "fusion_lat": 0.0, "name": "5da4ce2150b9b62ec32a559265bff306", "is_reserved": 0, "rental_uris": {"android": "https://dc.lft.to/lastmile_qr_scan", "ios": "https://dc.lft.to/lastmile_qr_scan"}, "fusion_lon": 0.0}, {"lat": 38.881038, "is_disabled": 0, "type": "electric_scooter", "lon": -77.026383, "bike_id": "79a2e304444e638027e63912b0cd2a47", "fusion_lat": 0.0, "name": "79a2e304444e638027e63912b0cd2a47", "is_reserved": 0, "rental_uris": {"android": "https://dc.lft.to/lastmile_qr_scan", "ios": "https://dc.lft.to/lastmile_qr_scan"}, "fusion_lon": 0.0}, {"lat": 38.85674433333333, "is_disabled": 0, "type": "electric_scooter", "lon": -76.98183016666667, "bike_id": "895d3f0f0dd7cc11a89351dda422dde8", "fusion_lat": 0.0, "name": "895d3f0f0dd7cc11a89351dda422dde8", "is_reserved": 0, "rental_uris": {"android": "https://dc.lft.to/lastmile_qr_scan", "ios": "https://dc.lft.to/lastmile_qr_scan"}, "fusion_lon": 0.0}, {"lat": 38.895449166666666, "is_disabled": 0, "type": "electric_scooter", "lon": -77.004373, "bike_id": "96bc295b553a34e5eadb9c9b852fa1c3", "fusion_lat": 0.0, "name": "96bc295b553a34e5eadb9c9b852fa1c3", "is_reserved": 0, "rental_uris": {"android": "https://dc.lft.to/lastmile_qr_scan", "ios": "https://dc.lft.to/lastmile_qr_scan"}, "fusion_lon": 0.0}, {"lat": 38.84271316666667, "is_disabled": 0, "type": "electric_bike", "lon": -76.98844233333334, "bike_id": "372185a1237bf1a5d720de03c02f7379", "fusion_lat": 0.0, "name": "372185a1237bf1a5d720de03c02f7379", "is_reserved": 0, "rental_uris": {"android": "https://dc.lft.to/lastmile_qr_scan", "ios": "https://dc.lft.to/lastmile_qr_scan"}, "fusion_lon": 0.0}, {"lat": 38.93597283333333, "is_disabled": 0, "type": "electric_scooter", "lon": -77.0253375, "bike_id": "292156cb4315c5219f28b305d8e6fb10", "fusion_lat": 0.0, "name": "292156cb4315c5219f28b305d8e6fb10", "is_reserved": 0, "rental_uris": {"android": "https://dc.lft.to/lastmile_qr_scan", "ios": "https://dc.lft.to/lastmile_qr_scan"}, "fusion_lon": 0.0}, {"lat": 38.9340495, "is_disabled": 0, "type": "electric_scooter", "lon": -77.02468416666666, "bike_id": "e264c0907b7d1378d3f25800f1c30de8", "fusion_lat": 0.0, "name": "e264c0907b7d1378d3f25800f1c30de8", "is_reserved": 0, "rental_uris": {"android": "https://dc.lft.to/lastmile_qr_scan", "ios": "https://dc.lft.to/lastmile_qr_scan"}, "fusion_lon": 0.0}, {"lat": 38.92163816666667, "is_disabled": 0, "type": "electric_scooter", "lon": -77.03212083333334, "bike_id": "c944a3476478a7433ddb1c551b51d2cc", "fusion_lat": 0.0, "name": "c944a3476478a7433ddb1c551b51d2cc", "is_reserved": 0, "rental_uris": {"android": "https://dc.lft.to/lastmile_qr_scan", "ios": "https://dc.lft.to/lastmile_qr_scan"}, "fusion_lon": 0.0}, {"lat": 38.9176445, "is_disabled": 0, "type": "electric_scooter", "lon": -77.0187645, "bike_id": "6470a6310753ecefe1d8f51493c9d473", "fusion_lat": 0.0, "name": "6470a6310753ecefe1d8f51493c9d473", "is_reserved": 0, "rental_uris": {"android": "https://dc.lft.to/lastmile_qr_scan", "ios": "https://dc.lft.to/lastmile_qr_scan"}, "fusion_lon": 0.0}, {"lat": 38.92039716666667, "is_disabled": 0, "type": "electric_scooter", "lon": -76.993357, "bike_id": "232ace1566398623dd9a9c9e5f016dc3", "fusion_lat": 0.0, "name": "232ace1566398623dd9a9c9e5f016dc3", "is_reserved": 0, "rental_uris": {"android": "https://dc.lft.to/lastmile_qr_scan", "ios": "https://dc.lft.to/lastmile_qr_scan"}, "fusion_lon": 0.0}, {"lat": 38.837185833333336, "is_disabled": 0, "type": "electric_bike", "lon": -76.997667, "bike_id": "f55e215ac695f331fa0d5922c2a394fa", "fusion_lat": 0.0, "name": "f55e215ac695f331fa0d5922c2a394fa", "is_reserved": 0, "rental_uris": {"android": "https://dc.lft.to/lastmile_qr_scan", "ios": "https://dc.lft.to/lastmile_qr_scan"}, "fusion_lon": 0.0}, {"lat": 38.936845166666664, "is_disabled": 0, "type": "electric_bike", "lon": -77.0564725, "bike_id": "65085f2784703e4ed2339998b895b3eb", "fusion_lat": 0.0, "name": "65085f2784703e4ed2339998b895b3eb", "is_reserved": 0, "rental_uris": {"android": "https://dc.lft.to/lastmile_qr_scan", "ios": "https://dc.lft.to/lastmile_qr_scan"}, "fusion_lon": 0.0}, {"lat": 38.920157, "is_disabled": 0, "type": "electric_scooter", "lon": -77.02527916666666, "bike_id": "99f58449f0fc83dce1bdff206062c59b", "fusion_lat": 0.0, "name": "99f58449f0fc83dce1bdff206062c59b", "is_reserved": 0, "rental_uris": {"android": "https://dc.lft.to/lastmile_qr_scan", "ios": "https://dc.lft.to/lastmile_qr_scan"}, "fusion_lon": 0.0}, {"lat": 38.91930933333333, "is_disabled": 0, "type": "electric_scooter", "lon": -76.97016633333334, "bike_id": "79368e4b63ee81053fd5e5c4e732fcd1", "fusion_lat": 0.0, "name": "79368e4b63ee81053fd5e5c4e732fcd1", "is_reserved": 0, "rental_uris": {"android": "https://dc.lft.to/lastmile_qr_scan", "ios": "https://dc.lft.to/lastmile_qr_scan"}, "fusion_lon": 0.0}, {"lat": 38.925437, "is_disabled": 0, "type": "electric_scooter", "lon": -77.03223133333333, "bike_id": "97d89cc6f925445d44f2dc52ac380f8d", "fusion_lat": 0.0, "name": "97d89cc6f925445d44f2dc52ac380f8d", "is_reserved": 0, "rental_uris": {"android": "https://dc.lft.to/lastmile_qr_scan", "ios": "https://dc.lft.to/lastmile_qr_scan"}, "fusion_lon": 0.0}, {"lat": 38.90461116666667, "is_disabled": 0, "type": "electric_scooter", "lon": -77.03904083333333, "bike_id": "26fce7a7b74530ef34e40497ab1b5af7", "fusion_lat": 0.0, "name": "26fce7a7b74530ef34e40497ab1b5af7", "is_reserved": 0, "rental_uris": {"android": "https://dc.lft.to/lastmile_qr_scan", "ios": "https://dc.lft.to/lastmile_qr_scan"}, "fusion_lon": 0.0}, {"lat": 38.9283495, "is_disabled": 0, "type": "electric_scooter", "lon": -77.01414316666667, "bike_id": "1bd38dd81eec58fbd420556331bd684e", "fusion_lat": 0.0, "name": "1bd38dd81eec58fbd420556331bd684e", "is_reserved": 0, "rental_uris": {"android": "https://dc.lft.to/lastmile_qr_scan", "ios": "https://dc.lft.to/lastmile_qr_scan"}, "fusion_lon": 0.0}, {"lat": 38.884847, "is_disabled": 0, "type": "electric_scooter", "lon": -77.03474366666667, "bike_id": "c741ca038eb437fc9b64cef6e7d60119", "fusion_lat": 0.0, "name": "c741ca038eb437fc9b64cef6e7d60119", "is_reserved": 0, "rental_uris": {"android": "https://dc.lft.to/lastmile_qr_scan", "ios": "https://dc.lft.to/lastmile_qr_scan"}, "fusion_lon": 0.0}, {"lat": 38.906344833333335, "is_disabled": 0, "type": "electric_scooter", "lon": -77.02496483333333, "bike_id": "67dc8defe6eb7e53fefaa51ef0cc6799", "fusion_lat": 0.0, "name": "67dc8defe6eb7e53fefaa51ef0cc6799", "is_reserved": 0, "rental_uris": {"android": "https://dc.lft.to/lastmile_qr_scan", "ios": "https://dc.lft.to/lastmile_qr_scan"}, "fusion_lon": 0.0}, {"lat": 38.86366266666667, "is_disabled": 0, "type": "electric_scooter", "lon": -76.99031383333333, "bike_id": "b006036613db2bd7b7727ccad0ba05b0", "fusion_lat": 0.0, "name": "b006036613db2bd7b7727ccad0ba05b0", "is_reserved": 0, "rental_uris": {"android": "https://dc.lft.to/lastmile_qr_scan", "ios": "https://dc.lft.to/lastmile_qr_scan"}, "fusion_lon": 0.0}, {"lat": 38.953766, "is_disabled": 0, "type": "electric_bike", "lon": -76.97959483333334, "bike_id": "960b31fe5eec60e3181f3e4fe2177355", "fusion_lat": 0.0, "name": "960b31fe5eec60e3181f3e4fe2177355", "is_reserved": 0, "rental_uris": {"android": "https://dc.lft.to/lastmile_qr_scan", "ios": "https://dc.lft.to/lastmile_qr_scan"}, "fusion_lon": 0.0}, {"lat": 38.87350583333333, "is_disabled": 0, "type": "electric_scooter", "lon": -77.00877683333333, "bike_id": "48a17a1bc738969619f8f69745368f04", "fusion_lat": 0.0, "name": "48a17a1bc738969619f8f69745368f04", "is_reserved": 0, "rental_uris": {"android": "https://dc.lft.to/lastmile_qr_scan", "ios": "https://dc.lft.to/lastmile_qr_scan"}, "fusion_lon": 0.0}, {"lat": 38.80225633333333, "is_disabled": 0, "type": "electric_bike", "lon": -77.07915, "bike_id": "bc8500d0f246aeef7d17621ec8f540cd", "fusion_lat": 0.0, "name": "bc8500d0f246aeef7d17621ec8f540cd", "is_reserved": 0, "rental_uris": {"android": "https://dc.lft.to/lastmile_qr_scan", "ios": "https://dc.lft.to/lastmile_qr_scan"}, "fusion_lon": 0.0}, {"lat": 38.9223395, "is_disabled": 0, "type": "electric_scooter", "lon": -77.04352366666667, "bike_id": "1b9c56b6f52ee364815bd62e1178e102", "fusion_lat": 0.0, "name": "1b9c56b6f52ee364815bd62e1178e102", "is_reserved": 0, "rental_uris": {"android": "https://dc.lft.to/lastmile_qr_scan", "ios": "https://dc.lft.to/lastmile_qr_scan"}, "fusion_lon": 0.0}, {"lat": 38.90441783333333, "is_disabled": 0, "type": "electric_scooter", "lon": -77.06135533333334, "bike_id": "c647f1c16c4fa14348553d8b74103c3a", "fusion_lat": 0.0, "name": "c647f1c16c4fa14348553d8b74103c3a", "is_reserved": 0, "rental_uris": {"android": "https://dc.lft.to/lastmile_qr_scan", "ios": "https://dc.lft.to/lastmile_qr_scan"}, "fusion_lon": 0.0}, {"lat": 38.908616, "is_disabled": 0, "type": "electric_bike", "lon": -76.9400895, "bike_id": "081b7ea9d7dd28c52424abb99ae3d4cf", "fusion_lat": 0.0, "name": "081b7ea9d7dd28c52424abb99ae3d4cf", "is_reserved": 0, "rental_uris": {"android": "https://dc.lft.to/lastmile_qr_scan", "ios": "https://dc.lft.to/lastmile_qr_scan"}, "fusion_lon": 0.0}, {"lat": 38.90583683333333, "is_disabled": 0, "type": "electric_scooter", "lon": -76.98622916666666, "bike_id": "dcfb4fbb28bab7c80d07ada418fd37c7", "fusion_lat": 0.0, "name": "dcfb4fbb28bab7c80d07ada418fd37c7", "is_reserved": 0, "rental_uris": {"android": "https://dc.lft.to/lastmile_qr_scan", "ios": "https://dc.lft.to/lastmile_qr_scan"}, "fusion_lon": 0.0}, {"lat": 38.912654, "is_disabled": 0, "type": "electric_scooter", "lon": -77.0225515, "bike_id": "844c5da488f1e33af0c2d693f72c3e52", "fusion_lat": 0.0, "name": "844c5da488f1e33af0c2d693f72c3e52", "is_reserved": 0, "rental_uris": {"android": "https://dc.lft.to/lastmile_qr_scan", "ios": "https://dc.lft.to/lastmile_qr_scan"}, "fusion_lon": 0.0}, {"lat": 38.896511833333335, "is_disabled": 0, "type": "electric_scooter", "lon": -77.00519683333333, "bike_id": "ef49cb4de1507292dcc384c9a3b20506", "fusion_lat": 0.0, "name": "ef49cb4de1507292dcc384c9a3b20506", "is_reserved": 0, "rental_uris": {"android": "https://dc.lft.to/lastmile_qr_scan", "ios": "https://dc.lft.to/lastmile_qr_scan"}, "fusion_lon": 0.0}, {"lat": 38.86707233333333, "is_disabled": 0, "type": "electric_scooter", "lon": -76.98726316666666, "bike_id": "8b3028c55b17b92457b753daa5a6e2f1", "fusion_lat": 0.0, "name": "8b3028c55b17b92457b753daa5a6e2f1", "is_reserved": 0, "rental_uris": {"android": "https://dc.lft.to/lastmile_qr_scan", "ios": "https://dc.lft.to/lastmile_qr_scan"}, "fusion_lon": 0.0}, {"lat": 38.91255666666667, "is_disabled": 0, "type": "electric_scooter", "lon": -77.05142333333333, "bike_id": "038e5f89f8e5d62068517a7f8a7e6296", "fusion_lat": 0.0, "name": "038e5f89f8e5d62068517a7f8a7e6296", "is_reserved": 0, "rental_uris": {"android": "https://dc.lft.to/lastmile_qr_scan", "ios": "https://dc.lft.to/lastmile_qr_scan"}, "fusion_lon": 0.0}, {"lat": 38.845063333333336, "is_disabled": 0, "type": "electric_bike", "lon": -76.9935535, "bike_id": "990631f9b644ed2193b5f34b174aa5b7", "fusion_lat": 0.0, "name": "990631f9b644ed2193b5f34b174aa5b7", "is_reserved": 0, "rental_uris": {"android": "https://dc.lft.to/lastmile_qr_scan", "ios": "https://dc.lft.to/lastmile_qr_scan"}, "fusion_lon": 0.0}, {"lat": 38.9118875, "is_disabled": 0, "type": "electric_scooter", "lon": -77.032159, "bike_id": "4e8fe68ab39bbf12a18042e23706d419", "fusion_lat": 0.0, "name": "4e8fe68ab39bbf12a18042e23706d419", "is_reserved": 0, "rental_uris": {"android": "https://dc.lft.to/lastmile_qr_scan", "ios": "https://dc.lft.to/lastmile_qr_scan"}, "fusion_lon": 0.0}, {"lat": 38.91869416666667, "is_disabled": 0, "type": "electric_scooter", "lon": -77.03501483333334, "bike_id": "ef7bdee3dd4445704fc20dbcc4661a24", "fusion_lat": 0.0, "name": "ef7bdee3dd4445704fc20dbcc4661a24", "is_reserved": 0, "rental_uris": {"android": "https://dc.lft.to/lastmile_qr_scan", "ios": "https://dc.lft.to/lastmile_qr_scan"}, "fusion_lon": 0.0}, {"lat": 38.911842666666665, "is_disabled": 0, "type": "electric_scooter", "lon": -77.044705, "bike_id": "4ddd1e1b3ebfff11e527bd513f3ce32b", "fusion_lat": 0.0, "name": "4ddd1e1b3ebfff11e527bd513f3ce32b", "is_reserved": 0, "rental_uris": {"android": "https://dc.lft.to/lastmile_qr_scan", "ios": "https://dc.lft.to/lastmile_qr_scan"}, "fusion_lon": 0.0}, {"lat": 38.91705916666667, "is_disabled": 0, "type": "electric_scooter", "lon": -77.04044033333334, "bike_id": "b9e330bda58aff15a1c1e01ecfdeae50", "fusion_lat": 0.0, "name": "b9e330bda58aff15a1c1e01ecfdeae50", "is_reserved": 0, "rental_uris": {"android": "https://dc.lft.to/lastmile_qr_scan", "ios": "https://dc.lft.to/lastmile_qr_scan"}, "fusion_lon": 0.0}, {"lat": 38.910978, "is_disabled": 0, "type": "electric_scooter", "lon": -77.04836916666666, "bike_id": "fcd0fd204a19481c1f5a7b095e748fbb", "fusion_lat": 0.0, "name": "fcd0fd204a19481c1f5a7b095e748fbb", "is_reserved": 0, "rental_uris": {"android": "https://dc.lft.to/lastmile_qr_scan", "ios": "https://dc.lft.to/lastmile_qr_scan"}, "fusion_lon": 0.0}, {"lat": 38.910395, "is_disabled": 0, "type": "electric_scooter", "lon": -77.03863166666666, "bike_id": "a0329d9dc2880defcb8b349dc6a568a5", "fusion_lat": 0.0, "name": "a0329d9dc2880defcb8b349dc6a568a5", "is_reserved": 0, "rental_uris": {"android": "https://dc.lft.to/lastmile_qr_scan", "ios": "https://dc.lft.to/lastmile_qr_scan"}, "fusion_lon": 0.0}, {"lat": 38.91430116666667, "is_disabled": 0, "type": "electric_scooter", "lon": -77.02346516666667, "bike_id": "64f2dc485f59400bdd7261613860ce00", "fusion_lat": 0.0, "name": "64f2dc485f59400bdd7261613860ce00", "is_reserved": 0, "rental_uris": {"android": "https://dc.lft.to/lastmile_qr_scan", "ios": "https://dc.lft.to/lastmile_qr_scan"}, "fusion_lon": 0.0}, {"lat": 38.896018833333336, "is_disabled": 0, "type": "electric_scooter", "lon": -77.05471083333333, "bike_id": "0807eaaad5f83f7639c5f2809b648960", "fusion_lat": 0.0, "name": "0807eaaad5f83f7639c5f2809b648960", "is_reserved": 0, "rental_uris": {"android": "https://dc.lft.to/lastmile_qr_scan", "ios": "https://dc.lft.to/lastmile_qr_scan"}, "fusion_lon": 0.0}, {"lat": 38.90735433333333, "is_disabled": 0, "type": "electric_scooter", "lon": -77.03448016666667, "bike_id": "23500a6958552d04dbdef55c96b68826", "fusion_lat": 0.0, "name": "23500a6958552d04dbdef55c96b68826", "is_reserved": 0, "rental_uris": {"android": "https://dc.lft.to/lastmile_qr_scan", "ios": "https://dc.lft.to/lastmile_qr_scan"}, "fusion_lon": 0.0}, {"lat": 38.8789355, "is_disabled": 0, "type": "electric_scooter", "lon": -77.02210033333333, "bike_id": "19d84d1e38a9312fcb5b736263854e96", "fusion_lat": 0.0, "name": "19d84d1e38a9312fcb5b736263854e96", "is_reserved": 0, "rental_uris": {"android": "https://dc.lft.to/lastmile_qr_scan", "ios": "https://dc.lft.to/lastmile_qr_scan"}, "fusion_lon": 0.0}, {"lat": 38.90148283333333, "is_disabled": 0, "type": "electric_scooter", "lon": -77.000676, "bike_id": "8ad6a612d4f0ee14ce93afa8e3007b44", "fusion_lat": 0.0, "name": "8ad6a612d4f0ee14ce93afa8e3007b44", "is_reserved": 0, "rental_uris": {"android": "https://dc.lft.to/lastmile_qr_scan", "ios": "https://dc.lft.to/lastmile_qr_scan"}, "fusion_lon": 0.0}, {"lat": 38.90267133333333, "is_disabled": 0, "type": "electric_scooter", "lon": -77.06233416666667, "bike_id": "7bacfccd9f4777419b716e744cc2a410", "fusion_lat": 0.0, "name": "7bacfccd9f4777419b716e744cc2a410", "is_reserved": 0, "rental_uris": {"android": "https://dc.lft.to/lastmile_qr_scan", "ios": "https://dc.lft.to/lastmile_qr_scan"}, "fusion_lon": 0.0}, {"lat": 38.921056, "is_disabled": 0, "type": "electric_scooter", "lon": -77.01807383333333, "bike_id": "3217f8e43113012a7de0918039f82dc3", "fusion_lat": 0.0, "name": "3217f8e43113012a7de0918039f82dc3", "is_reserved": 0, "rental_uris": {"android": "https://dc.lft.to/lastmile_qr_scan", "ios": "https://dc.lft.to/lastmile_qr_scan"}, "fusion_lon": 0.0}, {"lat": 38.90603616666667, "is_disabled": 0, "type": "electric_scooter", "lon": -76.989816, "bike_id": "62612528eab7fca6a304ec5b259e22f7", "fusion_lat": 0.0, "name": "62612528eab7fca6a304ec5b259e22f7", "is_reserved": 0, "rental_uris": {"android": "https://dc.lft.to/lastmile_qr_scan", "ios": "https://dc.lft.to/lastmile_qr_scan"}, "fusion_lon": 0.0}, {"lat": 38.86524283333333, "is_disabled": 0, "type": "electric_scooter", "lon": -76.99027883333333, "bike_id": "206415f1e2ac1ad1ba931872fe7b2a9b", "fusion_lat": 0.0, "name": "206415f1e2ac1ad1ba931872fe7b2a9b", "is_reserved": 0, "rental_uris": {"android": "https://dc.lft.to/lastmile_qr_scan", "ios": "https://dc.lft.to/lastmile_qr_scan"}, "fusion_lon": 0.0}, {"lat": 38.934434833333334, "is_disabled": 0, "type": "electric_scooter", "lon": -77.0308845, "bike_id": "cec31d6720ae4e4b338786577b50bd01", "fusion_lat": 0.0, "name": "cec31d6720ae4e4b338786577b50bd01", "is_reserved": 0, "rental_uris": {"android": "https://dc.lft.to/lastmile_qr_scan", "ios": "https://dc.lft.to/lastmile_qr_scan"}, "fusion_lon": 0.0}, {"lat": 38.923205833333334, "is_disabled": 0, "type": "electric_bike", "lon": -77.03804466666666, "bike_id": "9d3e7b634613cf2dc85a8e242b5971f9", "fusion_lat": 0.0, "name": "9d3e7b634613cf2dc85a8e242b5971f9", "is_reserved": 0, "rental_uris": {"android": "https://dc.lft.to/lastmile_qr_scan", "ios": "https://dc.lft.to/lastmile_qr_scan"}, "fusion_lon": 0.0}, {"lat": 38.90518866666667, "is_disabled": 0, "type": "electric_scooter", "lon": -77.06237333333333, "bike_id": "1b330cab6eaf9392329a66734ce1c957", "fusion_lat": 0.0, "name": "1b330cab6eaf9392329a66734ce1c957", "is_reserved": 0, "rental_uris": {"android": "https://dc.lft.to/lastmile_qr_scan", "ios": "https://dc.lft.to/lastmile_qr_scan"}, "fusion_lon": 0.0}, {"lat": 38.919827, "is_disabled": 0, "type": "electric_scooter", "lon": -77.02400333333334, "bike_id": "6a8bba1246f53bec8bc530237f85520c", "fusion_lat": 0.0, "name": "6a8bba1246f53bec8bc530237f85520c", "is_reserved": 0, "rental_uris": {"android": "https://dc.lft.to/lastmile_qr_scan", "ios": "https://dc.lft.to/lastmile_qr_scan"}, "fusion_lon": 0.0}, {"lat": 38.900932833333336, "is_disabled": 0, "type": "electric_scooter", "lon": -77.031776, "bike_id": "fc95cfdd2ea74b2412ccc594e00f869d", "fusion_lat": 0.0, "name": "fc95cfdd2ea74b2412ccc594e00f869d", "is_reserved": 0, "rental_uris": {"android": "https://dc.lft.to/lastmile_qr_scan", "ios": "https://dc.lft.to/lastmile_qr_scan"}, "fusion_lon": 0.0}, {"lat": 38.903466, "is_disabled": 0, "type": "electric_scooter", "lon": -77.04243083333333, "bike_id": "662180e02eacf038c37b85dc1735ea80", "fusion_lat": 0.0, "name": "662180e02eacf038c37b85dc1735ea80", "is_reserved": 0, "rental_uris": {"android": "https://dc.lft.to/lastmile_qr_scan", "ios": "https://dc.lft.to/lastmile_qr_scan"}, "fusion_lon": 0.0}, {"lat": 38.916923833333335, "is_disabled": 0, "type": "electric_scooter", "lon": -77.02690016666666, "bike_id": "0810d0ee904bb6e1684272f8de76c288", "fusion_lat": 0.0, "name": "0810d0ee904bb6e1684272f8de76c288", "is_reserved": 0, "rental_uris": {"android": "https://dc.lft.to/lastmile_qr_scan", "ios": "https://dc.lft.to/lastmile_qr_scan"}, "fusion_lon": 0.0}, {"lat": 38.92404716666667, "is_disabled": 0, "type": "electric_scooter", "lon": -77.02748433333333, "bike_id": "39d9964927231c49ed8c981448db3643", "fusion_lat": 0.0, "name": "39d9964927231c49ed8c981448db3643", "is_reserved": 0, "rental_uris": {"android": "https://dc.lft.to/lastmile_qr_scan", "ios": "https://dc.lft.to/lastmile_qr_scan"}, "fusion_lon": 0.0}, {"lat": 38.89398116666667, "is_disabled": 0, "type": "electric_scooter", "lon": -76.98666566666667, "bike_id": "07f5fb961e8faeab7309d6e0241a8a0c", "fusion_lat": 0.0, "name": "07f5fb961e8faeab7309d6e0241a8a0c", "is_reserved": 0, "rental_uris": {"android": "https://dc.lft.to/lastmile_qr_scan", "ios": "https://dc.lft.to/lastmile_qr_scan"}, "fusion_lon": 0.0}, {"lat": 38.9167435, "is_disabled": 0, "type": "electric_scooter", "lon": -77.03192533333333, "bike_id": "485b335232e716d6cb8ad26885ea6197", "fusion_lat": 0.0, "name": "485b335232e716d6cb8ad26885ea6197", "is_reserved": 0, "rental_uris": {"android": "https://dc.lft.to/lastmile_qr_scan", "ios": "https://dc.lft.to/lastmile_qr_scan"}, "fusion_lon": 0.0}, {"lat": 38.86995983333333, "is_disabled": 0, "type": "electric_bike", "lon": -77.06568833333333, "bike_id": "195eb97f698bc9f296bf7f3698b96681", "fusion_lat": 0.0, "name": "195eb97f698bc9f296bf7f3698b96681", "is_reserved": 0, "rental_uris": {"android": "https://dc.lft.to/lastmile_qr_scan", "ios": "https://dc.lft.to/lastmile_qr_scan"}, "fusion_lon": 0.0}, {"lat": 38.903918833333336, "is_disabled": 0, "type": "electric_scooter", "lon": -76.990077, "bike_id": "6102a2a208ce91630940b2d2369d5328", "fusion_lat": 0.0, "name": "6102a2a208ce91630940b2d2369d5328", "is_reserved": 0, "rental_uris": {"android": "https://dc.lft.to/lastmile_qr_scan", "ios": "https://dc.lft.to/lastmile_qr_scan"}, "fusion_lon": 0.0}, {"lat": 38.88615166666666, "is_disabled": 0, "type": "electric_scooter", "lon": -77.0188855, "bike_id": "1ba1bc4a10415e66433f363bda620ca9", "fusion_lat": 0.0, "name": "1ba1bc4a10415e66433f363bda620ca9", "is_reserved": 0, "rental_uris": {"android": "https://dc.lft.to/lastmile_qr_scan", "ios": "https://dc.lft.to/lastmile_qr_scan"}, "fusion_lon": 0.0}, {"lat": 38.886803, "is_disabled": 0, "type": "electric_bike", "lon": -77.16235733333333, "bike_id": "0d2c7da037aa549c8e166bb0582f478c", "fusion_lat": 0.0, "name": "0d2c7da037aa549c8e166bb0582f478c", "is_reserved": 0, "rental_uris": {"android": "https://dc.lft.to/lastmile_qr_scan", "ios": "https://dc.lft.to/lastmile_qr_scan"}, "fusion_lon": 0.0}, {"lat": 38.948223166666665, "is_disabled": 0, "type": "electric_scooter", "lon": -76.9990655, "bike_id": "5e5aa48c2216dfa6d1fa02d622ada813", "fusion_lat": 0.0, "name": "5e5aa48c2216dfa6d1fa02d622ada813", "is_reserved": 0, "rental_uris": {"android": "https://dc.lft.to/lastmile_qr_scan", "ios": "https://dc.lft.to/lastmile_qr_scan"}, "fusion_lon": 0.0}, {"lat": 38.919614333333335, "is_disabled": 0, "type": "electric_scooter", "lon": -77.01435416666666, "bike_id": "eaa3e2fe278d6ee05fae0d8582b050de", "fusion_lat": 0.0, "name": "eaa3e2fe278d6ee05fae0d8582b050de", "is_reserved": 0, "rental_uris": {"android": "https://dc.lft.to/lastmile_qr_scan", "ios": "https://dc.lft.to/lastmile_qr_scan"}, "fusion_lon": 0.0}, {"lat": 38.915998, "is_disabled": 0, "type": "electric_bike", "lon": -77.01354866666667, "bike_id": "823e773b9a696b9e83db1cfa7a603fde", "fusion_lat": 0.0, "name": "823e773b9a696b9e83db1cfa7a603fde", "is_reserved": 0, "rental_uris": {"android": "https://dc.lft.to/lastmile_qr_scan", "ios": "https://dc.lft.to/lastmile_qr_scan"}, "fusion_lon": 0.0}, {"lat": 38.90144383333333, "is_disabled": 0, "type": "electric_scooter", "lon": -77.03987, "bike_id": "c801fd4bc5b95a1f0fbca480bc6d464d", "fusion_lat": 0.0, "name": "c801fd4bc5b95a1f0fbca480bc6d464d", "is_reserved": 0, "rental_uris": {"android": "https://dc.lft.to/lastmile_qr_scan", "ios": "https://dc.lft.to/lastmile_qr_scan"}, "fusion_lon": 0.0}, {"lat": 38.88551183333333, "is_disabled": 0, "type": "electric_bike", "lon": -77.11788116666666, "bike_id": "aa873a1d77ea39eb08dac465ea38e7a8", "fusion_lat": 0.0, "name": "aa873a1d77ea39eb08dac465ea38e7a8", "is_reserved": 0, "rental_uris": {"android": "https://dc.lft.to/lastmile_qr_scan", "ios": "https://dc.lft.to/lastmile_qr_scan"}, "fusion_lon": 0.0}, {"lat": 38.95705566666667, "is_disabled": 0, "type": "electric_scooter", "lon": -77.02412933333333, "bike_id": "2c0923096e110bceabb3333e1465126d", "fusion_lat": 0.0, "name": "2c0923096e110bceabb3333e1465126d", "is_reserved": 0, "rental_uris": {"android": "https://dc.lft.to/lastmile_qr_scan", "ios": "https://dc.lft.to/lastmile_qr_scan"}, "fusion_lon": 0.0}, {"lat": 38.904081, "is_disabled": 0, "type": "electric_scooter", "lon": -77.05056533333334, "bike_id": "1a761c59fe6bdb3e014202a20236cb5e", "fusion_lat": 0.0, "name": "1a761c59fe6bdb3e014202a20236cb5e", "is_reserved": 0, "rental_uris": {"android": "https://dc.lft.to/lastmile_qr_scan", "ios": "https://dc.lft.to/lastmile_qr_scan"}, "fusion_lon": 0.0}, {"lat": 38.92205833333333, "is_disabled": 0, "type": "electric_bike", "lon": -77.0820285, "bike_id": "8e54519cb6874b842cac238d30f25eeb", "fusion_lat": 0.0, "name": "8e54519cb6874b842cac238d30f25eeb", "is_reserved": 0, "rental_uris": {"android": "https://dc.lft.to/lastmile_qr_scan", "ios": "https://dc.lft.to/lastmile_qr_scan"}, "fusion_lon": 0.0}, {"lat": 38.908263833333336, "is_disabled": 0, "type": "electric_scooter", "lon": -77.02008583333334, "bike_id": "bfa79c0363ed08cde33927d21d7c7b66", "fusion_lat": 0.0, "name": "bfa79c0363ed08cde33927d21d7c7b66", "is_reserved": 0, "rental_uris": {"android": "https://dc.lft.to/lastmile_qr_scan", "ios": "https://dc.lft.to/lastmile_qr_scan"}, "fusion_lon": 0.0}, {"lat": 38.90664133333333, "is_disabled": 0, "type": "electric_scooter", "lon": -77.00811916666666, "bike_id": "b0edb9cba7a3e252047248b6a455c9fb", "fusion_lat": 0.0, "name": "b0edb9cba7a3e252047248b6a455c9fb", "is_reserved": 0, "rental_uris": {"android": "https://dc.lft.to/lastmile_qr_scan", "ios": "https://dc.lft.to/lastmile_qr_scan"}, "fusion_lon": 0.0}, {"lat": 38.91633483333333, "is_disabled": 0, "type": "electric_scooter", "lon": -77.04780133333334, "bike_id": "988e80a5250590332c079b91150ac8d0", "fusion_lat": 0.0, "name": "988e80a5250590332c079b91150ac8d0", "is_reserved": 0, "rental_uris": {"android": "https://dc.lft.to/lastmile_qr_scan", "ios": "https://dc.lft.to/lastmile_qr_scan"}, "fusion_lon": 0.0}, {"lat": 38.914762, "is_disabled": 0, "type": "electric_scooter", "lon": -77.03258516666666, "bike_id": "c6f84d1c9e3952a5a0981a887896829f", "fusion_lat": 0.0, "name": "c6f84d1c9e3952a5a0981a887896829f", "is_reserved": 0, "rental_uris": {"android": "https://dc.lft.to/lastmile_qr_scan", "ios": "https://dc.lft.to/lastmile_qr_scan"}, "fusion_lon": 0.0}, {"lat": 38.930813, "is_disabled": 0, "type": "electric_scooter", "lon": -77.03743166666666, "bike_id": "a54c617a93b94041b4d5e64e73ec94e3", "fusion_lat": 0.0, "name": "a54c617a93b94041b4d5e64e73ec94e3", "is_reserved": 0, "rental_uris": {"android": "https://dc.lft.to/lastmile_qr_scan", "ios": "https://dc.lft.to/lastmile_qr_scan"}, "fusion_lon": 0.0}, {"lat": 38.91683, "is_disabled": 0, "type": "electric_scooter", "lon": -77.025572, "bike_id": "19d1f790f30652e5557445a69437e435", "fusion_lat": 0.0, "name": "19d1f790f30652e5557445a69437e435", "is_reserved": 0, "rental_uris": {"android": "https://dc.lft.to/lastmile_qr_scan", "ios": "https://dc.lft.to/lastmile_qr_scan"}, "fusion_lon": 0.0}, {"lat": 38.89349583333333, "is_disabled": 0, "type": "electric_scooter", "lon": -77.04138983333333, "bike_id": "4cb808f8988371145e8ee7e8b5d07e2b", "fusion_lat": 0.0, "name": "4cb808f8988371145e8ee7e8b5d07e2b", "is_reserved": 0, "rental_uris": {"android": "https://dc.lft.to/lastmile_qr_scan", "ios": "https://dc.lft.to/lastmile_qr_scan"}, "fusion_lon": 0.0}, {"lat": 38.92529, "is_disabled": 0, "type": "electric_scooter", "lon": -77.04429483333334, "bike_id": "ee921821e32219260d7469a31c33559d", "fusion_lat": 0.0, "name": "ee921821e32219260d7469a31c33559d", "is_reserved": 0, "rental_uris": {"android": "https://dc.lft.to/lastmile_qr_scan", "ios": "https://dc.lft.to/lastmile_qr_scan"}, "fusion_lon": 0.0}, {"lat": 38.9003545, "is_disabled": 0, "type": "electric_scooter", "lon": -76.99379033333334, "bike_id": "b199372e0133de86877ce5770793cca8", "fusion_lat": 0.0, "name": "b199372e0133de86877ce5770793cca8", "is_reserved": 0, "rental_uris": {"android": "https://dc.lft.to/lastmile_qr_scan", "ios": "https://dc.lft.to/lastmile_qr_scan"}, "fusion_lon": 0.0}, {"lat": 38.90073683333333, "is_disabled": 0, "type": "electric_scooter", "lon": -77.01829866666667, "bike_id": "75894cd402e0b4d6b0df6b420d5a5ab9", "fusion_lat": 0.0, "name": "75894cd402e0b4d6b0df6b420d5a5ab9", "is_reserved": 0, "rental_uris": {"android": "https://dc.lft.to/lastmile_qr_scan", "ios": "https://dc.lft.to/lastmile_qr_scan"}, "fusion_lon": 0.0}, {"lat": 38.92255466666667, "is_disabled": 0, "type": "electric_scooter", "lon": -77.04306266666667, "bike_id": "3f98f0bfb7347d938ff406a909f9d3c8", "fusion_lat": 0.0, "name": "3f98f0bfb7347d938ff406a909f9d3c8", "is_reserved": 0, "rental_uris": {"android": "https://dc.lft.to/lastmile_qr_scan", "ios": "https://dc.lft.to/lastmile_qr_scan"}, "fusion_lon": 0.0}, {"lat": 38.93635866666666, "is_disabled": 0, "type": "electric_scooter", "lon": -77.02504616666667, "bike_id": "3e543cbdd2858db9404fd980144ac3bb", "fusion_lat": 0.0, "name": "3e543cbdd2858db9404fd980144ac3bb", "is_reserved": 0, "rental_uris": {"android": "https://dc.lft.to/lastmile_qr_scan", "ios": "https://dc.lft.to/lastmile_qr_scan"}, "fusion_lon": 0.0}, {"lat": 38.91117466666667, "is_disabled": 0, "type": "electric_scooter", "lon": -77.0436585, "bike_id": "d48fd83f03bfb37fa78ce869e6110b96", "fusion_lat": 0.0, "name": "d48fd83f03bfb37fa78ce869e6110b96", "is_reserved": 0, "rental_uris": {"android": "https://dc.lft.to/lastmile_qr_scan", "ios": "https://dc.lft.to/lastmile_qr_scan"}, "fusion_lon": 0.0}, {"lat": 38.920610333333336, "is_disabled": 0, "type": "electric_scooter", "lon": -77.04334566666667, "bike_id": "ae6d6c8e4b8bfd7f29db50cef8ee11cb", "fusion_lat": 0.0, "name": "ae6d6c8e4b8bfd7f29db50cef8ee11cb", "is_reserved": 0, "rental_uris": {"android": "https://dc.lft.to/lastmile_qr_scan", "ios": "https://dc.lft.to/lastmile_qr_scan"}, "fusion_lon": 0.0}, {"lat": 38.884866833333334, "is_disabled": 0, "type": "electric_scooter", "lon": -77.0347385, "bike_id": "b165e17377a46560d48b67c6804af0ee", "fusion_lat": 0.0, "name": "b165e17377a46560d48b67c6804af0ee", "is_reserved": 0, "rental_uris": {"android": "https://dc.lft.to/lastmile_qr_scan", "ios": "https://dc.lft.to/lastmile_qr_scan"}, "fusion_lon": 0.0}, {"lat": 38.913227666666664, "is_disabled": 0, "type": "electric_scooter", "lon": -77.03269383333334, "bike_id": "e174c3ff7df26e67d300e99641f4bdfe", "fusion_lat": 0.0, "name": "e174c3ff7df26e67d300e99641f4bdfe", "is_reserved": 0, "rental_uris": {"android": "https://dc.lft.to/lastmile_qr_scan", "ios": "https://dc.lft.to/lastmile_qr_scan"}, "fusion_lon": 0.0}, {"lat": 38.91764216666667, "is_disabled": 0, "type": "electric_bike", "lon": -77.01077266666667, "bike_id": "e2f2e6777b84f850c9018b7584b3d440", "fusion_lat": 0.0, "name": "e2f2e6777b84f850c9018b7584b3d440", "is_reserved": 0, "rental_uris": {"android": "https://dc.lft.to/lastmile_qr_scan", "ios": "https://dc.lft.to/lastmile_qr_scan"}, "fusion_lon": 0.0}, {"lat": 38.92501133333333, "is_disabled": 0, "type": "electric_scooter", "lon": -77.02139716666667, "bike_id": "1d5150e201e7a7a31537f96f65b06998", "fusion_lat": 0.0, "name": "1d5150e201e7a7a31537f96f65b06998", "is_reserved": 0, "rental_uris": {"android": "https://dc.lft.to/lastmile_qr_scan", "ios": "https://dc.lft.to/lastmile_qr_scan"}, "fusion_lon": 0.0}, {"lat": 38.9167635, "is_disabled": 0, "type": "electric_scooter", "lon": -77.0335535, "bike_id": "18c2db7f26a6f4e833008ac5aa797e11", "fusion_lat": 0.0, "name": "18c2db7f26a6f4e833008ac5aa797e11", "is_reserved": 0, "rental_uris": {"android": "https://dc.lft.to/lastmile_qr_scan", "ios": "https://dc.lft.to/lastmile_qr_scan"}, "fusion_lon": 0.0}, {"lat": 38.91788616666667, "is_disabled": 0, "type": "electric_scooter", "lon": -77.03214666666666, "bike_id": "5fe89a2597712e5efca7b50ae5f31448", "fusion_lat": 0.0, "name": "5fe89a2597712e5efca7b50ae5f31448", "is_reserved": 0, "rental_uris": {"android": "https://dc.lft.to/lastmile_qr_scan", "ios": "https://dc.lft.to/lastmile_qr_scan"}, "fusion_lon": 0.0}, {"lat": 38.9595215, "is_disabled": 0, "type": "electric_bike", "lon": -77.1009065, "bike_id": "43c26464a5370f79516727f68ebc923a", "fusion_lat": 0.0, "name": "43c26464a5370f79516727f68ebc923a", "is_reserved": 0, "rental_uris": {"android": "https://dc.lft.to/lastmile_qr_scan", "ios": "https://dc.lft.to/lastmile_qr_scan"}, "fusion_lon": 0.0}, {"lat": 38.900426333333336, "is_disabled": 0, "type": "electric_scooter", "lon": -77.0187735, "bike_id": "7595e6edec085097e2cf28c0b621ea89", "fusion_lat": 0.0, "name": "7595e6edec085097e2cf28c0b621ea89", "is_reserved": 0, "rental_uris": {"android": "https://dc.lft.to/lastmile_qr_scan", "ios": "https://dc.lft.to/lastmile_qr_scan"}, "fusion_lon": 0.0}, {"lat": 38.8709925, "is_disabled": 0, "type": "electric_bike", "lon": -77.01206783333333, "bike_id": "109e5e95159847d650e1ac0a467a92e5", "fusion_lat": 0.0, "name": "109e5e95159847d650e1ac0a467a92e5", "is_reserved": 0, "rental_uris": {"android": "https://dc.lft.to/lastmile_qr_scan", "ios": "https://dc.lft.to/lastmile_qr_scan"}, "fusion_lon": 0.0}, {"lat": 38.9054625, "is_disabled": 0, "type": "electric_scooter", "lon": -77.05709466666667, "bike_id": "5de354a82afe347d1783ea3f36a1e499", "fusion_lat": 0.0, "name": "5de354a82afe347d1783ea3f36a1e499", "is_reserved": 0, "rental_uris": {"android": "https://dc.lft.to/lastmile_qr_scan", "ios": "https://dc.lft.to/lastmile_qr_scan"}, "fusion_lon": 0.0}, {"lat": 38.919213666666664, "is_disabled": 0, "type": "electric_scooter", "lon": -77.04810716666667, "bike_id": "aecbc39474557b700aa7ab0995ab1c25", "fusion_lat": 0.0, "name": "aecbc39474557b700aa7ab0995ab1c25", "is_reserved": 0, "rental_uris": {"android": "https://dc.lft.to/lastmile_qr_scan", "ios": "https://dc.lft.to/lastmile_qr_scan"}, "fusion_lon": 0.0}, {"lat": 38.91680933333333, "is_disabled": 0, "type": "electric_scooter", "lon": -77.01226466666667, "bike_id": "e8b7cff522a63118d3f80d01959ae777", "fusion_lat": 0.0, "name": "e8b7cff522a63118d3f80d01959ae777", "is_reserved": 0, "rental_uris": {"android": "https://dc.lft.to/lastmile_qr_scan", "ios": "https://dc.lft.to/lastmile_qr_scan"}, "fusion_lon": 0.0}, {"lat": 38.881508833333335, "is_disabled": 0, "type": "electric_scooter", "lon": -77.0273665, "bike_id": "6ad2f4091c2e05175edaa9bf755a23e6", "fusion_lat": 0.0, "name": "6ad2f4091c2e05175edaa9bf755a23e6", "is_reserved": 0, "rental_uris": {"android": "https://dc.lft.to/lastmile_qr_scan", "ios": "https://dc.lft.to/lastmile_qr_scan"}, "fusion_lon": 0.0}, {"lat": 38.933558833333336, "is_disabled": 0, "type": "electric_bike", "lon": -77.09959366666666, "bike_id": "cbc39d50b9133123e08e1bd6a98bcd06", "fusion_lat": 0.0, "name": "cbc39d50b9133123e08e1bd6a98bcd06", "is_reserved": 0, "rental_uris": {"android": "https://dc.lft.to/lastmile_qr_scan", "ios": "https://dc.lft.to/lastmile_qr_scan"}, "fusion_lon": 0.0}, {"lat": 38.91863516666667, "is_disabled": 0, "type": "electric_scooter", "lon": -77.01219283333333, "bike_id": "459293f5e5bf83b8ee25c568d4f33523", "fusion_lat": 0.0, "name": "459293f5e5bf83b8ee25c568d4f33523", "is_reserved": 0, "rental_uris": {"android": "https://dc.lft.to/lastmile_qr_scan", "ios": "https://dc.lft.to/lastmile_qr_scan"}, "fusion_lon": 0.0}, {"lat": 38.90068733333333, "is_disabled": 0, "type": "electric_scooter", "lon": -77.00209283333334, "bike_id": "26ab4b26603b1b1ce81399c5f6592e86", "fusion_lat": 0.0, "name": "26ab4b26603b1b1ce81399c5f6592e86", "is_reserved": 0, "rental_uris": {"android": "https://dc.lft.to/lastmile_qr_scan", "ios": "https://dc.lft.to/lastmile_qr_scan"}, "fusion_lon": 0.0}, {"lat": 38.9578645, "is_disabled": 0, "type": "electric_bike", "lon": -76.979727, "bike_id": "24a06466d079d9127e51a07ef38c3903", "fusion_lat": 0.0, "name": "24a06466d079d9127e51a07ef38c3903", "is_reserved": 0, "rental_uris": {"android": "https://dc.lft.to/lastmile_qr_scan", "ios": "https://dc.lft.to/lastmile_qr_scan"}, "fusion_lon": 0.0}, {"lat": 38.91302783333333, "is_disabled": 0, "type": "electric_scooter", "lon": -77.0240505, "bike_id": "eb10361f13097a9d85a5254c356d21e4", "fusion_lat": 0.0, "name": "eb10361f13097a9d85a5254c356d21e4", "is_reserved": 0, "rental_uris": {"android": "https://dc.lft.to/lastmile_qr_scan", "ios": "https://dc.lft.to/lastmile_qr_scan"}, "fusion_lon": 0.0}, {"lat": 38.90733016666667, "is_disabled": 0, "type": "electric_scooter", "lon": -77.034681, "bike_id": "9c51a4d61e50cdb73146501292b748a0", "fusion_lat": 0.0, "name": "9c51a4d61e50cdb73146501292b748a0", "is_reserved": 0, "rental_uris": {"android": "https://dc.lft.to/lastmile_qr_scan", "ios": "https://dc.lft.to/lastmile_qr_scan"}, "fusion_lon": 0.0}, {"lat": 38.903470666666664, "is_disabled": 0, "type": "electric_scooter", "lon": -77.0447075, "bike_id": "7233bd012b8225ad92bbadc9d6efd456", "fusion_lat": 0.0, "name": "7233bd012b8225ad92bbadc9d6efd456", "is_reserved": 0, "rental_uris": {"android": "https://dc.lft.to/lastmile_qr_scan", "ios": "https://dc.lft.to/lastmile_qr_scan"}, "fusion_lon": 0.0}, {"lat": 38.90257583333333, "is_disabled": 0, "type": "electric_scooter", "lon": -77.03970483333333, "bike_id": "76fd025343e2964d193250eb109e8b68", "fusion_lat": 0.0, "name": "76fd025343e2964d193250eb109e8b68", "is_reserved": 0, "rental_uris": {"android": "https://dc.lft.to/lastmile_qr_scan", "ios": "https://dc.lft.to/lastmile_qr_scan"}, "fusion_lon": 0.0}, {"lat": 38.9206535, "is_disabled": 0, "type": "electric_scooter", "lon": -77.02548816666666, "bike_id": "fdabd79e4c4f3a0da338e1c1975e7322", "fusion_lat": 0.0, "name": "fdabd79e4c4f3a0da338e1c1975e7322", "is_reserved": 0, "rental_uris": {"android": "https://dc.lft.to/lastmile_qr_scan", "ios": "https://dc.lft.to/lastmile_qr_scan"}, "fusion_lon": 0.0}, {"lat": 38.908481333333334, "is_disabled": 0, "type": "electric_scooter", "lon": -77.02060333333333, "bike_id": "ce1b54b8278dda95fd01b5f5087b6fad", "fusion_lat": 0.0, "name": "ce1b54b8278dda95fd01b5f5087b6fad", "is_reserved": 0, "rental_uris": {"android": "https://dc.lft.to/lastmile_qr_scan", "ios": "https://dc.lft.to/lastmile_qr_scan"}, "fusion_lon": 0.0}, {"lat": 38.914264333333335, "is_disabled": 0, "type": "electric_scooter", "lon": -77.03216133333333, "bike_id": "2fbf521b0f7c912c234d4f0a681e0f15", "fusion_lat": 0.0, "name": "2fbf521b0f7c912c234d4f0a681e0f15", "is_reserved": 0, "rental_uris": {"android": "https://dc.lft.to/lastmile_qr_scan", "ios": "https://dc.lft.to/lastmile_qr_scan"}, "fusion_lon": 0.0}, {"lat": 38.8005915, "is_disabled": 0, "type": "electric_bike", "lon": -77.0712635, "bike_id": "2944bec7551230f361e150e714816d6b", "fusion_lat": 0.0, "name": "2944bec7551230f361e150e714816d6b", "is_reserved": 0, "rental_uris": {"android": "https://dc.lft.to/lastmile_qr_scan", "ios": "https://dc.lft.to/lastmile_qr_scan"}, "fusion_lon": 0.0}, {"lat": 38.906950333333334, "is_disabled": 0, "type": "electric_scooter", "lon": -76.999423, "bike_id": "dbe8a85c4893e4524f2e9dee4af8f8e4", "fusion_lat": 0.0, "name": "dbe8a85c4893e4524f2e9dee4af8f8e4", "is_reserved": 0, "rental_uris": {"android": "https://dc.lft.to/lastmile_qr_scan", "ios": "https://dc.lft.to/lastmile_qr_scan"}, "fusion_lon": 0.0}, {"lat": 38.940371166666665, "is_disabled": 0, "type": "electric_bike", "lon": -76.98819283333333, "bike_id": "55b14b6e6e2e59e1942461de82dfe0c4", "fusion_lat": 0.0, "name": "55b14b6e6e2e59e1942461de82dfe0c4", "is_reserved": 0, "rental_uris": {"android": "https://dc.lft.to/lastmile_qr_scan", "ios": "https://dc.lft.to/lastmile_qr_scan"}, "fusion_lon": 0.0}, {"lat": 38.956287, "is_disabled": 0, "type": "electric_bike", "lon": -77.02298016666667, "bike_id": "6354df0d28779ea8e37efe08001e21b4", "fusion_lat": 0.0, "name": "6354df0d28779ea8e37efe08001e21b4", "is_reserved": 0, "rental_uris": {"android": "https://dc.lft.to/lastmile_qr_scan", "ios": "https://dc.lft.to/lastmile_qr_scan"}, "fusion_lon": 0.0}, {"lat": 38.866501, "is_disabled": 0, "type": "electric_scooter", "lon": -76.98885133333333, "bike_id": "fa9f5f8c0ddb414e725bacf46973e54c", "fusion_lat": 0.0, "name": "fa9f5f8c0ddb414e725bacf46973e54c", "is_reserved": 0, "rental_uris": {"android": "https://dc.lft.to/lastmile_qr_scan", "ios": "https://dc.lft.to/lastmile_qr_scan"}, "fusion_lon": 0.0}, {"lat": 38.8849025, "is_disabled": 0, "type": "electric_scooter", "lon": -77.0070525, "bike_id": "ea722204fec47ff1220f1fe344b90063", "fusion_lat": 0.0, "name": "ea722204fec47ff1220f1fe344b90063", "is_reserved": 0, "rental_uris": {"android": "https://dc.lft.to/lastmile_qr_scan", "ios": "https://dc.lft.to/lastmile_qr_scan"}, "fusion_lon": 0.0}, {"lat": 38.9076175, "is_disabled": 0, "type": "electric_scooter", "lon": -76.98306183333334, "bike_id": "a5264e428f54c14437aa264fd125d0a7", "fusion_lat": 0.0, "name": "a5264e428f54c14437aa264fd125d0a7", "is_reserved": 0, "rental_uris": {"android": "https://dc.lft.to/lastmile_qr_scan", "ios": "https://dc.lft.to/lastmile_qr_scan"}, "fusion_lon": 0.0}, {"lat": 38.95561383333333, "is_disabled": 0, "type": "electric_scooter", "lon": -77.022369, "bike_id": "2e45bf0444504cdf44e4395ccd6eb820", "fusion_lat": 0.0, "name": "2e45bf0444504cdf44e4395ccd6eb820", "is_reserved": 0, "rental_uris": {"android": "https://dc.lft.to/lastmile_qr_scan", "ios": "https://dc.lft.to/lastmile_qr_scan"}, "fusion_lon": 0.0}, {"lat": 38.86558566666667, "is_disabled": 0, "type": "electric_scooter", "lon": -76.98946716666667, "bike_id": "48859d992568d007dc79f780952ea4f1", "fusion_lat": 0.0, "name": "48859d992568d007dc79f780952ea4f1", "is_reserved": 0, "rental_uris": {"android": "https://dc.lft.to/lastmile_qr_scan", "ios": "https://dc.lft.to/lastmile_qr_scan"}, "fusion_lon": 0.0}, {"lat": 38.934955, "is_disabled": 0, "type": "electric_scooter", "lon": -77.02726633333333, "bike_id": "7874e237a41e5ae0cdb13b97c79a0bc8", "fusion_lat": 0.0, "name": "7874e237a41e5ae0cdb13b97c79a0bc8", "is_reserved": 0, "rental_uris": {"android": "https://dc.lft.to/lastmile_qr_scan", "ios": "https://dc.lft.to/lastmile_qr_scan"}, "fusion_lon": 0.0}, {"lat": 38.9228205, "is_disabled": 0, "type": "electric_scooter", "lon": -77.02965216666666, "bike_id": "a64ec3bbd44d0bcea5552f0305d1e5b4", "fusion_lat": 0.0, "name": "a64ec3bbd44d0bcea5552f0305d1e5b4", "is_reserved": 0, "rental_uris": {"android": "https://dc.lft.to/lastmile_qr_scan", "ios": "https://dc.lft.to/lastmile_qr_scan"}, "fusion_lon": 0.0}, {"lat": 38.930855666666666, "is_disabled": 0, "type": "electric_scooter", "lon": -77.037405, "bike_id": "e0d01e1def151707fc1d06ca4b5764d1", "fusion_lat": 0.0, "name": "e0d01e1def151707fc1d06ca4b5764d1", "is_reserved": 0, "rental_uris": {"android": "https://dc.lft.to/lastmile_qr_scan", "ios": "https://dc.lft.to/lastmile_qr_scan"}, "fusion_lon": 0.0}, {"lat": 38.91202083333334, "is_disabled": 0, "type": "electric_scooter", "lon": -77.01467783333334, "bike_id": "b84826075a510125ec160d7dd5533acc", "fusion_lat": 0.0, "name": "b84826075a510125ec160d7dd5533acc", "is_reserved": 0, "rental_uris": {"android": "https://dc.lft.to/lastmile_qr_scan", "ios": "https://dc.lft.to/lastmile_qr_scan"}, "fusion_lon": 0.0}, {"lat": 38.893452833333335, "is_disabled": 0, "type": "electric_scooter", "lon": -77.04161733333333, "bike_id": "81d818c98be62dd2f59fc7b2ad2cf537", "fusion_lat": 0.0, "name": "81d818c98be62dd2f59fc7b2ad2cf537", "is_reserved": 0, "rental_uris": {"android": "https://dc.lft.to/lastmile_qr_scan", "ios": "https://dc.lft.to/lastmile_qr_scan"}, "fusion_lon": 0.0}, {"lat": 38.90278133333333, "is_disabled": 0, "type": "electric_scooter", "lon": -77.03654016666667, "bike_id": "09d2c073bff3d9f2ccb68d657f6fb985", "fusion_lat": 0.0, "name": "09d2c073bff3d9f2ccb68d657f6fb985", "is_reserved": 0, "rental_uris": {"android": "https://dc.lft.to/lastmile_qr_scan", "ios": "https://dc.lft.to/lastmile_qr_scan"}, "fusion_lon": 0.0}, {"lat": 38.918559, "is_disabled": 0, "type": "electric_scooter", "lon": -77.0318045, "bike_id": "b5e57e7c02d210af79f1bb65cd6cf983", "fusion_lat": 0.0, "name": "b5e57e7c02d210af79f1bb65cd6cf983", "is_reserved": 0, "rental_uris": {"android": "https://dc.lft.to/lastmile_qr_scan", "ios": "https://dc.lft.to/lastmile_qr_scan"}, "fusion_lon": 0.0}, {"lat": 38.9548365, "is_disabled": 0, "type": "electric_scooter", "lon": -77.06564316666666, "bike_id": "8d08017abcc7871bd38523832da1b85f", "fusion_lat": 0.0, "name": "8d08017abcc7871bd38523832da1b85f", "is_reserved": 0, "rental_uris": {"android": "https://dc.lft.to/lastmile_qr_scan", "ios": "https://dc.lft.to/lastmile_qr_scan"}, "fusion_lon": 0.0}, {"lat": 38.911825666666665, "is_disabled": 0, "type": "electric_scooter", "lon": -77.03424033333333, "bike_id": "131fb1d7268c17f9e8e28f25124214b3", "fusion_lat": 0.0, "name": "131fb1d7268c17f9e8e28f25124214b3", "is_reserved": 0, "rental_uris": {"android": "https://dc.lft.to/lastmile_qr_scan", "ios": "https://dc.lft.to/lastmile_qr_scan"}, "fusion_lon": 0.0}, {"lat": 38.900614, "is_disabled": 0, "type": "electric_scooter", "lon": -77.05030133333334, "bike_id": "1d88a96d93417010aa72a486feb3d599", "fusion_lat": 0.0, "name": "1d88a96d93417010aa72a486feb3d599", "is_reserved": 0, "rental_uris": {"android": "https://dc.lft.to/lastmile_qr_scan", "ios": "https://dc.lft.to/lastmile_qr_scan"}, "fusion_lon": 0.0}, {"lat": 38.916312166666664, "is_disabled": 0, "type": "electric_scooter", "lon": -77.02554283333333, "bike_id": "a4a30704f75b29027d0a87e0d4e3391d", "fusion_lat": 0.0, "name": "a4a30704f75b29027d0a87e0d4e3391d", "is_reserved": 0, "rental_uris": {"android": "https://dc.lft.to/lastmile_qr_scan", "ios": "https://dc.lft.to/lastmile_qr_scan"}, "fusion_lon": 0.0}, {"lat": 38.9049845, "is_disabled": 0, "type": "electric_scooter", "lon": -77.04823716666667, "bike_id": "d3c1179b507e0df6e4f255337cca4370", "fusion_lat": 0.0, "name": "d3c1179b507e0df6e4f255337cca4370", "is_reserved": 0, "rental_uris": {"android": "https://dc.lft.to/lastmile_qr_scan", "ios": "https://dc.lft.to/lastmile_qr_scan"}, "fusion_lon": 0.0}, {"lat": 38.913548166666665, "is_disabled": 0, "type": "electric_scooter", "lon": -77.0416235, "bike_id": "3936e2d3cc5814194f50b047ec7c538f", "fusion_lat": 0.0, "name": "3936e2d3cc5814194f50b047ec7c538f", "is_reserved": 0, "rental_uris": {"android": "https://dc.lft.to/lastmile_qr_scan", "ios": "https://dc.lft.to/lastmile_qr_scan"}, "fusion_lon": 0.0}, {"lat": 38.87191266666667, "is_disabled": 0, "type": "electric_scooter", "lon": -77.01356566666666, "bike_id": "e3420660f5b392f9b5e8325c64ce2694", "fusion_lat": 0.0, "name": "e3420660f5b392f9b5e8325c64ce2694", "is_reserved": 0, "rental_uris": {"android": "https://dc.lft.to/lastmile_qr_scan", "ios": "https://dc.lft.to/lastmile_qr_scan"}, "fusion_lon": 0.0}, {"lat": 38.813463, "is_disabled": 0, "type": "electric_bike", "lon": -77.0491935, "bike_id": "198a53c0e165644b8d7884cc9e8029ca", "fusion_lat": 0.0, "name": "198a53c0e165644b8d7884cc9e8029ca", "is_reserved": 0, "rental_uris": {"android": "https://dc.lft.to/lastmile_qr_scan", "ios": "https://dc.lft.to/lastmile_qr_scan"}, "fusion_lon": 0.0}, {"lat": 38.962007166666666, "is_disabled": 0, "type": "electric_bike", "lon": -77.0351365, "bike_id": "5673e806614786124b4d2335b8e11ba1", "fusion_lat": 0.0, "name": "5673e806614786124b4d2335b8e11ba1", "is_reserved": 0, "rental_uris": {"android": "https://dc.lft.to/lastmile_qr_scan", "ios": "https://dc.lft.to/lastmile_qr_scan"}, "fusion_lon": 0.0}, {"lat": 38.9072795, "is_disabled": 0, "type": "electric_scooter", "lon": -77.02975666666667, "bike_id": "75472310fa7b474054ff6c9c2b5d4074", "fusion_lat": 0.0, "name": "75472310fa7b474054ff6c9c2b5d4074", "is_reserved": 0, "rental_uris": {"android": "https://dc.lft.to/lastmile_qr_scan", "ios": "https://dc.lft.to/lastmile_qr_scan"}, "fusion_lon": 0.0}, {"lat": 38.925728, "is_disabled": 0, "type": "electric_scooter", "lon": -77.04013516666667, "bike_id": "23c9194c19d1c7d3085f523403057125", "fusion_lat": 0.0, "name": "23c9194c19d1c7d3085f523403057125", "is_reserved": 0, "rental_uris": {"android": "https://dc.lft.to/lastmile_qr_scan", "ios": "https://dc.lft.to/lastmile_qr_scan"}, "fusion_lon": 0.0}, {"lat": 38.911140333333336, "is_disabled": 0, "type": "electric_scooter", "lon": -77.0381965, "bike_id": "7de2a5ddca349f95acb1bac717e806c6", "fusion_lat": 0.0, "name": "7de2a5ddca349f95acb1bac717e806c6", "is_reserved": 0, "rental_uris": {"android": "https://dc.lft.to/lastmile_qr_scan", "ios": "https://dc.lft.to/lastmile_qr_scan"}, "fusion_lon": 0.0}, {"lat": 38.90428283333333, "is_disabled": 0, "type": "electric_scooter", "lon": -77.00211883333333, "bike_id": "53c41110b546cf74b65068d111ff66b1", "fusion_lat": 0.0, "name": "53c41110b546cf74b65068d111ff66b1", "is_reserved": 0, "rental_uris": {"android": "https://dc.lft.to/lastmile_qr_scan", "ios": "https://dc.lft.to/lastmile_qr_scan"}, "fusion_lon": 0.0}, {"lat": 38.896182833333334, "is_disabled": 0, "type": "electric_scooter", "lon": -76.9565335, "bike_id": "ab392b57a1a05dd21dd4f35f4b15e73e", "fusion_lat": 0.0, "name": "ab392b57a1a05dd21dd4f35f4b15e73e", "is_reserved": 0, "rental_uris": {"android": "https://dc.lft.to/lastmile_qr_scan", "ios": "https://dc.lft.to/lastmile_qr_scan"}, "fusion_lon": 0.0}, {"lat": 38.85315833333333, "is_disabled": 0, "type": "electric_scooter", "lon": -76.98027366666666, "bike_id": "49b973757ec3ed978042fcf9e570f3ac", "fusion_lat": 0.0, "name": "49b973757ec3ed978042fcf9e570f3ac", "is_reserved": 0, "rental_uris": {"android": "https://dc.lft.to/lastmile_qr_scan", "ios": "https://dc.lft.to/lastmile_qr_scan"}, "fusion_lon": 0.0}, {"lat": 38.912879833333335, "is_disabled": 0, "type": "electric_scooter", "lon": -77.0385925, "bike_id": "afd0c6c5f07db1857ee0548bed516522", "fusion_lat": 0.0, "name": "afd0c6c5f07db1857ee0548bed516522", "is_reserved": 0, "rental_uris": {"android": "https://dc.lft.to/lastmile_qr_scan", "ios": "https://dc.lft.to/lastmile_qr_scan"}, "fusion_lon": 0.0}, {"lat": 38.94506666666667, "is_disabled": 0, "type": "electric_scooter", "lon": -77.0639905, "bike_id": "937b1e54228722ab95bd02da77ecebb6", "fusion_lat": 0.0, "name": "937b1e54228722ab95bd02da77ecebb6", "is_reserved": 0, "rental_uris": {"android": "https://dc.lft.to/lastmile_qr_scan", "ios": "https://dc.lft.to/lastmile_qr_scan"}, "fusion_lon": 0.0}, {"lat": 38.9025795, "is_disabled": 0, "type": "electric_scooter", "lon": -77.00327516666667, "bike_id": "82deda78d472a69ee35ac538b310fd0a", "fusion_lat": 0.0, "name": "82deda78d472a69ee35ac538b310fd0a", "is_reserved": 0, "rental_uris": {"android": "https://dc.lft.to/lastmile_qr_scan", "ios": "https://dc.lft.to/lastmile_qr_scan"}, "fusion_lon": 0.0}, {"lat": 38.9411095, "is_disabled": 0, "type": "electric_scooter", "lon": -77.00049516666667, "bike_id": "0465e963e99d09855baa3592ef4d7a5a", "fusion_lat": 0.0, "name": "0465e963e99d09855baa3592ef4d7a5a", "is_reserved": 0, "rental_uris": {"android": "https://dc.lft.to/lastmile_qr_scan", "ios": "https://dc.lft.to/lastmile_qr_scan"}, "fusion_lon": 0.0}, {"lat": 38.89551016666667, "is_disabled": 0, "type": "electric_scooter", "lon": -77.00363333333334, "bike_id": "f43f1a2a5cae906362f8bbc504ca1829", "fusion_lat": 0.0, "name": "f43f1a2a5cae906362f8bbc504ca1829", "is_reserved": 0, "rental_uris": {"android": "https://dc.lft.to/lastmile_qr_scan", "ios": "https://dc.lft.to/lastmile_qr_scan"}, "fusion_lon": 0.0}, {"lat": 38.920950500000004, "is_disabled": 0, "type": "electric_scooter", "lon": -77.03951916666666, "bike_id": "be372d1705bf1bffc255eee44f199487", "fusion_lat": 0.0, "name": "be372d1705bf1bffc255eee44f199487", "is_reserved": 0, "rental_uris": {"android": "https://dc.lft.to/lastmile_qr_scan", "ios": "https://dc.lft.to/lastmile_qr_scan"}, "fusion_lon": 0.0}, {"lat": 38.885237333333336, "is_disabled": 0, "type": "electric_scooter", "lon": -77.01135516666666, "bike_id": "0783c87a3a528e2acc06e8ce18b0d6ae", "fusion_lat": 0.0, "name": "0783c87a3a528e2acc06e8ce18b0d6ae", "is_reserved": 0, "rental_uris": {"android": "https://dc.lft.to/lastmile_qr_scan", "ios": "https://dc.lft.to/lastmile_qr_scan"}, "fusion_lon": 0.0}, {"lat": 38.917340333333335, "is_disabled": 0, "type": "electric_scooter", "lon": -77.03208633333334, "bike_id": "8b4b4cce1e7382a0f50bc17e091da37d", "fusion_lat": 0.0, "name": "8b4b4cce1e7382a0f50bc17e091da37d", "is_reserved": 0, "rental_uris": {"android": "https://dc.lft.to/lastmile_qr_scan", "ios": "https://dc.lft.to/lastmile_qr_scan"}, "fusion_lon": 0.0}, {"lat": 38.93114533333333, "is_disabled": 0, "type": "electric_scooter", "lon": -77.02098233333334, "bike_id": "92bf6666ee0a86369a97ec257e541d0e", "fusion_lat": 0.0, "name": "92bf6666ee0a86369a97ec257e541d0e", "is_reserved": 0, "rental_uris": {"android": "https://dc.lft.to/lastmile_qr_scan", "ios": "https://dc.lft.to/lastmile_qr_scan"}, "fusion_lon": 0.0}, {"lat": 38.861695, "is_disabled": 0, "type": "electric_bike", "lon": -77.1314615, "bike_id": "73af9c4f6bf79119fce462c2561e8ca9", "fusion_lat": 0.0, "name": "73af9c4f6bf79119fce462c2561e8ca9", "is_reserved": 0, "rental_uris": {"android": "https://dc.lft.to/lastmile_qr_scan", "ios": "https://dc.lft.to/lastmile_qr_scan"}, "fusion_lon": 0.0}, {"lat": 38.866962, "is_disabled": 0, "type": "electric_scooter", "lon": -76.9871365, "bike_id": "504186eae3c95494b8fc19b5699eec67", "fusion_lat": 0.0, "name": "504186eae3c95494b8fc19b5699eec67", "is_reserved": 0, "rental_uris": {"android": "https://dc.lft.to/lastmile_qr_scan", "ios": "https://dc.lft.to/lastmile_qr_scan"}, "fusion_lon": 0.0}, {"lat": 38.91786783333333, "is_disabled": 0, "type": "electric_bike", "lon": -76.971854, "bike_id": "e37f54b5888b272ddafbaba4d79f3977", "fusion_lat": 0.0, "name": "e37f54b5888b272ddafbaba4d79f3977", "is_reserved": 0, "rental_uris": {"android": "https://dc.lft.to/lastmile_qr_scan", "ios": "https://dc.lft.to/lastmile_qr_scan"}, "fusion_lon": 0.0}, {"lat": 38.906721166666664, "is_disabled": 0, "type": "electric_scooter", "lon": -77.02715416666666, "bike_id": "177890855496cca0d17aeadc96fcc27e", "fusion_lat": 0.0, "name": "177890855496cca0d17aeadc96fcc27e", "is_reserved": 0, "rental_uris": {"android": "https://dc.lft.to/lastmile_qr_scan", "ios": "https://dc.lft.to/lastmile_qr_scan"}, "fusion_lon": 0.0}, {"lat": 38.90557033333333, "is_disabled": 0, "type": "electric_scooter", "lon": -77.01772983333333, "bike_id": "39166475d8dc4f97baa5ebd50cf75210", "fusion_lat": 0.0, "name": "39166475d8dc4f97baa5ebd50cf75210", "is_reserved": 0, "rental_uris": {"android": "https://dc.lft.to/lastmile_qr_scan", "ios": "https://dc.lft.to/lastmile_qr_scan"}, "fusion_lon": 0.0}, {"lat": 38.954003666666665, "is_disabled": 0, "type": "electric_scooter", "lon": -77.03631733333333, "bike_id": "fc850dfa2a4ceb73e3d0ac6b5745c99c", "fusion_lat": 0.0, "name": "fc850dfa2a4ceb73e3d0ac6b5745c99c", "is_reserved": 0, "rental_uris": {"android": "https://dc.lft.to/lastmile_qr_scan", "ios": "https://dc.lft.to/lastmile_qr_scan"}, "fusion_lon": 0.0}, {"lat": 38.90500433333333, "is_disabled": 0, "type": "electric_scooter", "lon": -77.02814283333333, "bike_id": "d88b0e9c133fec92fefd2ea2b647443c", "fusion_lat": 0.0, "name": "d88b0e9c133fec92fefd2ea2b647443c", "is_reserved": 0, "rental_uris": {"android": "https://dc.lft.to/lastmile_qr_scan", "ios": "https://dc.lft.to/lastmile_qr_scan"}, "fusion_lon": 0.0}, {"lat": 38.92025666666667, "is_disabled": 0, "type": "electric_scooter", "lon": -77.01808183333333, "bike_id": "f31ed005804c46a0c71d8db462e9c3a2", "fusion_lat": 0.0, "name": "f31ed005804c46a0c71d8db462e9c3a2", "is_reserved": 0, "rental_uris": {"android": "https://dc.lft.to/lastmile_qr_scan", "ios": "https://dc.lft.to/lastmile_qr_scan"}, "fusion_lon": 0.0}, {"lat": 38.95566733333333, "is_disabled": 0, "type": "electric_scooter", "lon": -77.070124, "bike_id": "7245aab3108f7c9051e99e30f66b90d5", "fusion_lat": 0.0, "name": "7245aab3108f7c9051e99e30f66b90d5", "is_reserved": 0, "rental_uris": {"android": "https://dc.lft.to/lastmile_qr_scan", "ios": "https://dc.lft.to/lastmile_qr_scan"}, "fusion_lon": 0.0}, {"lat": 38.9208525, "is_disabled": 0, "type": "electric_scooter", "lon": -77.042207, "bike_id": "d08ec73e90440c3cb35587f17dde0f48", "fusion_lat": 0.0, "name": "d08ec73e90440c3cb35587f17dde0f48", "is_reserved": 0, "rental_uris": {"android": "https://dc.lft.to/lastmile_qr_scan", "ios": "https://dc.lft.to/lastmile_qr_scan"}, "fusion_lon": 0.0}, {"lat": 38.910455666666664, "is_disabled": 0, "type": "electric_scooter", "lon": -77.01511866666667, "bike_id": "79f48bcaef6bfa0cf48badcab7ee2ea6", "fusion_lat": 0.0, "name": "79f48bcaef6bfa0cf48badcab7ee2ea6", "is_reserved": 0, "rental_uris": {"android": "https://dc.lft.to/lastmile_qr_scan", "ios": "https://dc.lft.to/lastmile_qr_scan"}, "fusion_lon": 0.0}, {"lat": 38.869045, "is_disabled": 0, "type": "electric_bike", "lon": -77.13176483333334, "bike_id": "280b4fa536b5bf52b2f54f0de143627c", "fusion_lat": 0.0, "name": "280b4fa536b5bf52b2f54f0de143627c", "is_reserved": 0, "rental_uris": {"android": "https://dc.lft.to/lastmile_qr_scan", "ios": "https://dc.lft.to/lastmile_qr_scan"}, "fusion_lon": 0.0}, {"lat": 38.804376166666664, "is_disabled": 0, "type": "electric_bike", "lon": -77.06092133333334, "bike_id": "839a6760f1244115268ae5612611b11a", "fusion_lat": 0.0, "name": "839a6760f1244115268ae5612611b11a", "is_reserved": 0, "rental_uris": {"android": "https://dc.lft.to/lastmile_qr_scan", "ios": "https://dc.lft.to/lastmile_qr_scan"}, "fusion_lon": 0.0}, {"lat": 39.01576716666667, "is_disabled": 0, "type": "electric_bike", "lon": -77.04236216666666, "bike_id": "0a0954d120c3e6f3a9a0e63807d6021b", "fusion_lat": 0.0, "name": "0a0954d120c3e6f3a9a0e63807d6021b", "is_reserved": 0, "rental_uris": {"android": "https://dc.lft.to/lastmile_qr_scan", "ios": "https://dc.lft.to/lastmile_qr_scan"}, "fusion_lon": 0.0}, {"lat": 38.9077375, "is_disabled": 0, "type": "electric_scooter", "lon": -77.042433, "bike_id": "90d61f7e23051ed39d75d881eb091d95", "fusion_lat": 0.0, "name": "90d61f7e23051ed39d75d881eb091d95", "is_reserved": 0, "rental_uris": {"android": "https://dc.lft.to/lastmile_qr_scan", "ios": "https://dc.lft.to/lastmile_qr_scan"}, "fusion_lon": 0.0}, {"lat": 38.9587685, "is_disabled": 0, "type": "electric_bike", "lon": -77.010337, "bike_id": "ecd5a3f916f2af316dcc3369e422d8fd", "fusion_lat": 0.0, "name": "ecd5a3f916f2af316dcc3369e422d8fd", "is_reserved": 0, "rental_uris": {"android": "https://dc.lft.to/lastmile_qr_scan", "ios": "https://dc.lft.to/lastmile_qr_scan"}, "fusion_lon": 0.0}, {"lat": 38.92199083333333, "is_disabled": 0, "type": "electric_scooter", "lon": -77.04023116666667, "bike_id": "c110895cda3ebc240dffe7901faf558f", "fusion_lat": 0.0, "name": "c110895cda3ebc240dffe7901faf558f", "is_reserved": 0, "rental_uris": {"android": "https://dc.lft.to/lastmile_qr_scan", "ios": "https://dc.lft.to/lastmile_qr_scan"}, "fusion_lon": 0.0}, {"lat": 38.90551033333333, "is_disabled": 0, "type": "electric_scooter", "lon": -77.05704433333334, "bike_id": "5889836a4e3b53efdfb4a95b45924147", "fusion_lat": 0.0, "name": "5889836a4e3b53efdfb4a95b45924147", "is_reserved": 0, "rental_uris": {"android": "https://dc.lft.to/lastmile_qr_scan", "ios": "https://dc.lft.to/lastmile_qr_scan"}, "fusion_lon": 0.0}, {"lat": 38.8904015, "is_disabled": 0, "type": "electric_scooter", "lon": -76.951399, "bike_id": "bf45377eade6ecb34540711ff5207d63", "fusion_lat": 0.0, "name": "bf45377eade6ecb34540711ff5207d63", "is_reserved": 0, "rental_uris": {"android": "https://dc.lft.to/lastmile_qr_scan", "ios": "https://dc.lft.to/lastmile_qr_scan"}, "fusion_lon": 0.0}, {"lat": 38.88058216666667, "is_disabled": 0, "type": "electric_scooter", "lon": -77.02486933333333, "bike_id": "2a0baa79224aa89d21cb055524102fe9", "fusion_lat": 0.0, "name": "2a0baa79224aa89d21cb055524102fe9", "is_reserved": 0, "rental_uris": {"android": "https://dc.lft.to/lastmile_qr_scan", "ios": "https://dc.lft.to/lastmile_qr_scan"}, "fusion_lon": 0.0}, {"lat": 38.897110166666664, "is_disabled": 0, "type": "electric_scooter", "lon": -77.02143416666667, "bike_id": "61159a3eb3cc239ab41e2071c91e893f", "fusion_lat": 0.0, "name": "61159a3eb3cc239ab41e2071c91e893f", "is_reserved": 0, "rental_uris": {"android": "https://dc.lft.to/lastmile_qr_scan", "ios": "https://dc.lft.to/lastmile_qr_scan"}, "fusion_lon": 0.0}, {"lat": 38.91206716666667, "is_disabled": 0, "type": "electric_scooter", "lon": -77.04481533333333, "bike_id": "31c7acb15c7a8343f1803b7f52149877", "fusion_lat": 0.0, "name": "31c7acb15c7a8343f1803b7f52149877", "is_reserved": 0, "rental_uris": {"android": "https://dc.lft.to/lastmile_qr_scan", "ios": "https://dc.lft.to/lastmile_qr_scan"}, "fusion_lon": 0.0}, {"lat": 38.899218833333336, "is_disabled": 0, "type": "electric_scooter", "lon": -77.032859, "bike_id": "fed495502aeed4030091667fb63c0fde", "fusion_lat": 0.0, "name": "fed495502aeed4030091667fb63c0fde", "is_reserved": 0, "rental_uris": {"android": "https://dc.lft.to/lastmile_qr_scan", "ios": "https://dc.lft.to/lastmile_qr_scan"}, "fusion_lon": 0.0}, {"lat": 38.920637666666664, "is_disabled": 0, "type": "electric_scooter", "lon": -77.03200966666667, "bike_id": "4575ca440b876693f17d5a8a809e1fe7", "fusion_lat": 0.0, "name": "4575ca440b876693f17d5a8a809e1fe7", "is_reserved": 0, "rental_uris": {"android": "https://dc.lft.to/lastmile_qr_scan", "ios": "https://dc.lft.to/lastmile_qr_scan"}, "fusion_lon": 0.0}, {"lat": 38.914095833333334, "is_disabled": 0, "type": "electric_scooter", "lon": -77.025666, "bike_id": "806c53f48d339c683976eba19fe50e01", "fusion_lat": 0.0, "name": "806c53f48d339c683976eba19fe50e01", "is_reserved": 0, "rental_uris": {"android": "https://dc.lft.to/lastmile_qr_scan", "ios": "https://dc.lft.to/lastmile_qr_scan"}, "fusion_lon": 0.0}, {"lat": 38.903957166666665, "is_disabled": 0, "type": "electric_scooter", "lon": -77.0403735, "bike_id": "0d9c22bbd82b269387b6c8d77460f0e9", "fusion_lat": 0.0, "name": "0d9c22bbd82b269387b6c8d77460f0e9", "is_reserved": 0, "rental_uris": {"android": "https://dc.lft.to/lastmile_qr_scan", "ios": "https://dc.lft.to/lastmile_qr_scan"}, "fusion_lon": 0.0}, {"lat": 38.94358033333334, "is_disabled": 0, "type": "electric_bike", "lon": -76.9678015, "bike_id": "13f0ce4154db7b6ef741c54014bbd45d", "fusion_lat": 0.0, "name": "13f0ce4154db7b6ef741c54014bbd45d", "is_reserved": 0, "rental_uris": {"android": "https://dc.lft.to/lastmile_qr_scan", "ios": "https://dc.lft.to/lastmile_qr_scan"}, "fusion_lon": 0.0}, {"lat": 38.896163, "is_disabled": 0, "type": "electric_scooter", "lon": -77.03000733333333, "bike_id": "1824df31a908a276ee59216f58d8e369", "fusion_lat": 0.0, "name": "1824df31a908a276ee59216f58d8e369", "is_reserved": 0, "rental_uris": {"android": "https://dc.lft.to/lastmile_qr_scan", "ios": "https://dc.lft.to/lastmile_qr_scan"}, "fusion_lon": 0.0}, {"lat": 38.906062166666665, "is_disabled": 0, "type": "electric_scooter", "lon": -77.04138516666667, "bike_id": "58f0691f62d7328b90d83b2486216d64", "fusion_lat": 0.0, "name": "58f0691f62d7328b90d83b2486216d64", "is_reserved": 0, "rental_uris": {"android": "https://dc.lft.to/lastmile_qr_scan", "ios": "https://dc.lft.to/lastmile_qr_scan"}, "fusion_lon": 0.0}, {"lat": 38.904974, "is_disabled": 0, "type": "electric_scooter", "lon": -77.06279733333334, "bike_id": "0544ab01df26c49d88a716a7cc625d72", "fusion_lat": 0.0, "name": "0544ab01df26c49d88a716a7cc625d72", "is_reserved": 0, "rental_uris": {"android": "https://dc.lft.to/lastmile_qr_scan", "ios": "https://dc.lft.to/lastmile_qr_scan"}, "fusion_lon": 0.0}, {"lat": 38.913020333333336, "is_disabled": 0, "type": "electric_scooter", "lon": -77.016172, "bike_id": "1aeb1d391845252e119d8f84b04acd04", "fusion_lat": 0.0, "name": "1aeb1d391845252e119d8f84b04acd04", "is_reserved": 0, "rental_uris": {"android": "https://dc.lft.to/lastmile_qr_scan", "ios": "https://dc.lft.to/lastmile_qr_scan"}, "fusion_lon": 0.0}, {"lat": 38.9274305, "is_disabled": 0, "type": "electric_scooter", "lon": -76.99724266666666, "bike_id": "18f4e63f3a37cb7992cd153e60c982c7", "fusion_lat": 0.0, "name": "18f4e63f3a37cb7992cd153e60c982c7", "is_reserved": 0, "rental_uris": {"android": "https://dc.lft.to/lastmile_qr_scan", "ios": "https://dc.lft.to/lastmile_qr_scan"}, "fusion_lon": 0.0}, {"lat": 38.8636815, "is_disabled": 0, "type": "electric_scooter", "lon": -76.99033366666667, "bike_id": "442b57e5dfe6e755fe4b013a418b2317", "fusion_lat": 0.0, "name": "442b57e5dfe6e755fe4b013a418b2317", "is_reserved": 0, "rental_uris": {"android": "https://dc.lft.to/lastmile_qr_scan", "ios": "https://dc.lft.to/lastmile_qr_scan"}, "fusion_lon": 0.0}, {"lat": 39.03042533333333, "is_disabled": 0, "type": "electric_bike", "lon": -77.0949005, "bike_id": "d067ae6525fbd1897694c72ce853cf47", "fusion_lat": 0.0, "name": "d067ae6525fbd1897694c72ce853cf47", "is_reserved": 0, "rental_uris": {"android": "https://dc.lft.to/lastmile_qr_scan", "ios": "https://dc.lft.to/lastmile_qr_scan"}, "fusion_lon": 0.0}, {"lat": 38.875728, "is_disabled": 0, "type": "electric_scooter", "lon": -77.020809, "bike_id": "a177383fd784fecd02a8ba25e176d67f", "fusion_lat": 0.0, "name": "a177383fd784fecd02a8ba25e176d67f", "is_reserved": 0, "rental_uris": {"android": "https://dc.lft.to/lastmile_qr_scan", "ios": "https://dc.lft.to/lastmile_qr_scan"}, "fusion_lon": 0.0}, {"lat": 38.90381933333333, "is_disabled": 0, "type": "electric_scooter", "lon": -77.0291505, "bike_id": "21ada3e4bb93dbd7b9520d1c72213e8a", "fusion_lat": 0.0, "name": "21ada3e4bb93dbd7b9520d1c72213e8a", "is_reserved": 0, "rental_uris": {"android": "https://dc.lft.to/lastmile_qr_scan", "ios": "https://dc.lft.to/lastmile_qr_scan"}, "fusion_lon": 0.0}, {"lat": 38.91335316666667, "is_disabled": 0, "type": "electric_scooter", "lon": -77.04886616666667, "bike_id": "18be69b58a562a0d79e81f8d94dd5590", "fusion_lat": 0.0, "name": "18be69b58a562a0d79e81f8d94dd5590", "is_reserved": 0, "rental_uris": {"android": "https://dc.lft.to/lastmile_qr_scan", "ios": "https://dc.lft.to/lastmile_qr_scan"}, "fusion_lon": 0.0}, {"lat": 38.8851185, "is_disabled": 0, "type": "electric_scooter", "lon": -77.00680533333333, "bike_id": "c651e8fd87cc48096f700b9f361f9305", "fusion_lat": 0.0, "name": "c651e8fd87cc48096f700b9f361f9305", "is_reserved": 0, "rental_uris": {"android": "https://dc.lft.to/lastmile_qr_scan", "ios": "https://dc.lft.to/lastmile_qr_scan"}, "fusion_lon": 0.0}, {"lat": 38.923734833333334, "is_disabled": 0, "type": "electric_scooter", "lon": -77.0432325, "bike_id": "adda9c8a321ce0bd9bd5a26cef3eadc5", "fusion_lat": 0.0, "name": "adda9c8a321ce0bd9bd5a26cef3eadc5", "is_reserved": 0, "rental_uris": {"android": "https://dc.lft.to/lastmile_qr_scan", "ios": "https://dc.lft.to/lastmile_qr_scan"}, "fusion_lon": 0.0}, {"lat": 38.932902, "is_disabled": 0, "type": "electric_scooter", "lon": -77.045359, "bike_id": "579413340166c32ec502bebdbd55a2cf", "fusion_lat": 0.0, "name": "579413340166c32ec502bebdbd55a2cf", "is_reserved": 0, "rental_uris": {"android": "https://dc.lft.to/lastmile_qr_scan", "ios": "https://dc.lft.to/lastmile_qr_scan"}, "fusion_lon": 0.0}, {"lat": 38.91456566666667, "is_disabled": 0, "type": "electric_scooter", "lon": -77.01431966666667, "bike_id": "797d653b4bcbe2e25c51b28861e166aa", "fusion_lat": 0.0, "name": "797d653b4bcbe2e25c51b28861e166aa", "is_reserved": 0, "rental_uris": {"android": "https://dc.lft.to/lastmile_qr_scan", "ios": "https://dc.lft.to/lastmile_qr_scan"}, "fusion_lon": 0.0}, {"lat": 38.923269833333336, "is_disabled": 0, "type": "electric_scooter", "lon": -77.035488, "bike_id": "5edecc5b00314dc4aee269f45feec4d8", "fusion_lat": 0.0, "name": "5edecc5b00314dc4aee269f45feec4d8", "is_reserved": 0, "rental_uris": {"android": "https://dc.lft.to/lastmile_qr_scan", "ios": "https://dc.lft.to/lastmile_qr_scan"}, "fusion_lon": 0.0}, {"lat": 38.88798333333333, "is_disabled": 0, "type": "electric_scooter", "lon": -76.93360666666666, "bike_id": "72b6dc44cd90920ac91fb47cd1291611", "fusion_lat": 0.0, "name": "72b6dc44cd90920ac91fb47cd1291611", "is_reserved": 0, "rental_uris": {"android": "https://dc.lft.to/lastmile_qr_scan", "ios": "https://dc.lft.to/lastmile_qr_scan"}, "fusion_lon": 0.0}, {"lat": 38.88201216666667, "is_disabled": 0, "type": "electric_scooter", "lon": -76.98926283333333, "bike_id": "51cef3146ab24e05b1ef3fcc13db2bd7", "fusion_lat": 0.0, "name": "51cef3146ab24e05b1ef3fcc13db2bd7", "is_reserved": 0, "rental_uris": {"android": "https://dc.lft.to/lastmile_qr_scan", "ios": "https://dc.lft.to/lastmile_qr_scan"}, "fusion_lon": 0.0}, {"lat": 38.8707315, "is_disabled": 0, "type": "electric_bike", "lon": -76.9784005, "bike_id": "66f24ace32c669bdc73134395d39dbb3", "fusion_lat": 0.0, "name": "66f24ace32c669bdc73134395d39dbb3", "is_reserved": 0, "rental_uris": {"android": "https://dc.lft.to/lastmile_qr_scan", "ios": "https://dc.lft.to/lastmile_qr_scan"}, "fusion_lon": 0.0}, {"lat": 38.9205085, "is_disabled": 0, "type": "electric_scooter", "lon": -77.04193566666666, "bike_id": "7e90da11ffdfb4b91f17c159a6969a77", "fusion_lat": 0.0, "name": "7e90da11ffdfb4b91f17c159a6969a77", "is_reserved": 0, "rental_uris": {"android": "https://dc.lft.to/lastmile_qr_scan", "ios": "https://dc.lft.to/lastmile_qr_scan"}, "fusion_lon": 0.0}, {"lat": 38.87945066666666, "is_disabled": 0, "type": "electric_scooter", "lon": -76.995001, "bike_id": "bb66cc98992b06a4ca4cdc56d4814f7d", "fusion_lat": 0.0, "name": "bb66cc98992b06a4ca4cdc56d4814f7d", "is_reserved": 0, "rental_uris": {"android": "https://dc.lft.to/lastmile_qr_scan", "ios": "https://dc.lft.to/lastmile_qr_scan"}, "fusion_lon": 0.0}, {"lat": 38.877024666666664, "is_disabled": 0, "type": "electric_bike", "lon": -77.0036735, "bike_id": "3c632d784bc929d9df712531dda669a9", "fusion_lat": 0.0, "name": "3c632d784bc929d9df712531dda669a9", "is_reserved": 0, "rental_uris": {"android": "https://dc.lft.to/lastmile_qr_scan", "ios": "https://dc.lft.to/lastmile_qr_scan"}, "fusion_lon": 0.0}, {"lat": 38.83671666666667, "is_disabled": 0, "type": "electric_scooter", "lon": -77.005719, "bike_id": "947cde8cc6e6b1e8c9cdbfa61cd1d2e8", "fusion_lat": 0.0, "name": "947cde8cc6e6b1e8c9cdbfa61cd1d2e8", "is_reserved": 0, "rental_uris": {"android": "https://dc.lft.to/lastmile_qr_scan", "ios": "https://dc.lft.to/lastmile_qr_scan"}, "fusion_lon": 0.0}, {"lat": 38.908204833333336, "is_disabled": 0, "type": "electric_scooter", "lon": -77.01795316666667, "bike_id": "9356ce9e43bcd2c7b4977af2a624e4e1", "fusion_lat": 0.0, "name": "9356ce9e43bcd2c7b4977af2a624e4e1", "is_reserved": 0, "rental_uris": {"android": "https://dc.lft.to/lastmile_qr_scan", "ios": "https://dc.lft.to/lastmile_qr_scan"}, "fusion_lon": 0.0}, {"lat": 38.908435833333336, "is_disabled": 0, "type": "electric_scooter", "lon": -77.04771416666667, "bike_id": "63c451aa24a90adcfee2e377bf6218f0", "fusion_lat": 0.0, "name": "63c451aa24a90adcfee2e377bf6218f0", "is_reserved": 0, "rental_uris": {"android": "https://dc.lft.to/lastmile_qr_scan", "ios": "https://dc.lft.to/lastmile_qr_scan"}, "fusion_lon": 0.0}, {"lat": 38.8998725, "is_disabled": 0, "type": "electric_scooter", "lon": -76.99480383333334, "bike_id": "6133f296abd64ea548757ae7a47c50dd", "fusion_lat": 0.0, "name": "6133f296abd64ea548757ae7a47c50dd", "is_reserved": 0, "rental_uris": {"android": "https://dc.lft.to/lastmile_qr_scan", "ios": "https://dc.lft.to/lastmile_qr_scan"}, "fusion_lon": 0.0}, {"lat": 38.912481, "is_disabled": 0, "type": "electric_scooter", "lon": -77.02214033333334, "bike_id": "a5ebbdfae785a1e13658f96bf2b3500a", "fusion_lat": 0.0, "name": "a5ebbdfae785a1e13658f96bf2b3500a", "is_reserved": 0, "rental_uris": {"android": "https://dc.lft.to/lastmile_qr_scan", "ios": "https://dc.lft.to/lastmile_qr_scan"}, "fusion_lon": 0.0}, {"lat": 38.9005735, "is_disabled": 0, "type": "electric_scooter", "lon": -77.00203683333334, "bike_id": "3e6a99201a38b68afc0830a60ad107e1", "fusion_lat": 0.0, "name": "3e6a99201a38b68afc0830a60ad107e1", "is_reserved": 0, "rental_uris": {"android": "https://dc.lft.to/lastmile_qr_scan", "ios": "https://dc.lft.to/lastmile_qr_scan"}, "fusion_lon": 0.0}, {"lat": 38.910507, "is_disabled": 0, "type": "electric_scooter", "lon": -77.05584816666666, "bike_id": "6ca5b3c40cec60a08d942a9addb4fe11", "fusion_lat": 0.0, "name": "6ca5b3c40cec60a08d942a9addb4fe11", "is_reserved": 0, "rental_uris": {"android": "https://dc.lft.to/lastmile_qr_scan", "ios": "https://dc.lft.to/lastmile_qr_scan"}, "fusion_lon": 0.0}, {"lat": 38.9086375, "is_disabled": 0, "type": "electric_scooter", "lon": -77.0459965, "bike_id": "f3b3893691d76bb0dd9ea7814b86d570", "fusion_lat": 0.0, "name": "f3b3893691d76bb0dd9ea7814b86d570", "is_reserved": 0, "rental_uris": {"android": "https://dc.lft.to/lastmile_qr_scan", "ios": "https://dc.lft.to/lastmile_qr_scan"}, "fusion_lon": 0.0}, {"lat": 39.00477683333333, "is_disabled": 0, "type": "electric_bike", "lon": -76.90127633333333, "bike_id": "387e0f1440565205bf9b81a87f377e71", "fusion_lat": 0.0, "name": "387e0f1440565205bf9b81a87f377e71", "is_reserved": 0, "rental_uris": {"android": "https://dc.lft.to/lastmile_qr_scan", "ios": "https://dc.lft.to/lastmile_qr_scan"}, "fusion_lon": 0.0}, {"lat": 38.9231575, "is_disabled": 0, "type": "electric_scooter", "lon": -77.02804033333334, "bike_id": "9afa7af528591c8aa36ee450bcf4b721", "fusion_lat": 0.0, "name": "9afa7af528591c8aa36ee450bcf4b721", "is_reserved": 0, "rental_uris": {"android": "https://dc.lft.to/lastmile_qr_scan", "ios": "https://dc.lft.to/lastmile_qr_scan"}, "fusion_lon": 0.0}, {"lat": 38.91036966666667, "is_disabled": 0, "type": "electric_scooter", "lon": -77.03537066666667, "bike_id": "af076d1cbe6a117d5c4126bd4f8f2ea9", "fusion_lat": 0.0, "name": "af076d1cbe6a117d5c4126bd4f8f2ea9", "is_reserved": 0, "rental_uris": {"android": "https://dc.lft.to/lastmile_qr_scan", "ios": "https://dc.lft.to/lastmile_qr_scan"}, "fusion_lon": 0.0}, {"lat": 38.9301015, "is_disabled": 0, "type": "electric_scooter", "lon": -77.04446533333333, "bike_id": "f0ea2c6d8afcfcca6480cb0069a98dc2", "fusion_lat": 0.0, "name": "f0ea2c6d8afcfcca6480cb0069a98dc2", "is_reserved": 0, "rental_uris": {"android": "https://dc.lft.to/lastmile_qr_scan", "ios": "https://dc.lft.to/lastmile_qr_scan"}, "fusion_lon": 0.0},