{"data": {"bikes": [{"fusion_lat": 0.0, "name": "b402372d337789c0c8157e94ed5cb60e", "is_disabled": 0, "rental_uris": {"android": "https://dc.lft.to/lastmile_qr_scan", "ios": "https://dc.lft.to/lastmile_qr_scan"}, "fusion_lon": 0.0, "lat": 38.9098515, "bike_id": "b402372d337789c0c8157e94ed5cb60e", "type": "electric_bike", "is_reserved": 0, "lon": -77.00908433333333}, {"fusion_lat": 0.0, "name": "45c900d11e9cba5c3abe0422519fc93a", "is_disabled": 0, "rental_uris": {"android": "https://dc.lft.to/lastmile_qr_scan", "ios": "https://dc.lft.to/lastmile_qr_scan"}, "fusion_lon": 0.0, "lat": 38.85764866666667, "bike_id": "45c900d11e9cba5c3abe0422519fc93a", "type": "electric_bike", "is_reserved": 0, "lon": -76.98766733333333}, {"fusion_lat": 0.0, "name": "99b475629d795a3d00400a537a81beef", "is_disabled": 0, "rental_uris": {"android": "https://dc.lft.to/lastmile_qr_scan", "ios": "https://dc.lft.to/lastmile_qr_scan"}, "fusion_lon": 0.0, "lat": 38.91560283333333, "bike_id": "99b475629d795a3d00400a537a81beef", "type": "electric_scooter", "is_reserved": 0, "lon": -77.03214133333333}, {"fusion_lat": 0.0, "name": "dbfe542a62519ad2638717fccbf03336", "is_disabled": 0, "rental_uris": {"android": "https://dc.lft.to/lastmile_qr_scan", "ios": "https://dc.lft.to/lastmile_qr_scan"}, "fusion_lon": 0.0, "lat": 38.9408445, "bike_id": "dbfe542a62519ad2638717fccbf03336", "type": "electric_scooter", "is_reserved": 0, "lon": -77.06173566666666}, {"fusion_lat": 0.0, "name": "f1bc744506faa07fffa830bf12b99425", "is_disabled": 0, "rental_uris": {"android": "https://dc.lft.to/lastmile_qr_scan", "ios": "https://dc.lft.to/lastmile_qr_scan"}, "fusion_lon": 0.0, "lat": 38.883872333333336, "bike_id": "f1bc744506faa07fffa830bf12b99425", "type": "electric_scooter", "is_reserved": 0, "lon": -76.93043816666666}, {"fusion_lat": 0.0, "name": "9d2abf14e048fdadd3f564aa5c78d14a", "is_disabled": 0, "rental_uris": {"android": "https://dc.lft.to/lastmile_qr_scan", "ios": "https://dc.lft.to/lastmile_qr_scan"}, "fusion_lon": 0.0, "lat": 38.93393416666667, "bike_id": "9d2abf14e048fdadd3f564aa5c78d14a", "type": "electric_scooter", "is_reserved": 0, "lon": -77.02851666666666}, {"fusion_lat": 0.0, "name": "78c3aea5fc72317213acb35ee8ba0ebc", "is_disabled": 0, "rental_uris": {"android": "https://dc.lft.to/lastmile_qr_scan", "ios": "https://dc.lft.to/lastmile_qr_scan"}, "fusion_lon": 0.0, "lat": 38.91093, "bike_id": "78c3aea5fc72317213acb35ee8ba0ebc", "type": "electric_scooter", "is_reserved": 0, "lon": -77.03841933333334}, {"fusion_lat": 0.0, "name": "6d7a3889563b29807c0a078d2a1f0186", "is_disabled": 0, "rental_uris": {"android": "https://dc.lft.to/lastmile_qr_scan", "ios": "https://dc.lft.to/lastmile_qr_scan"}, "fusion_lon": 0.0, "lat": 38.90225516666667, "bike_id": "6d7a3889563b29807c0a078d2a1f0186", "type": "electric_scooter", "is_reserved": 0, "lon": -77.026166}, {"fusion_lat": 0.0, "name": "8630bf59d3da248ad5f1ddd87fd14e1f", "is_disabled": 0, "rental_uris": {"android": "https://dc.lft.to/lastmile_qr_scan", "ios": "https://dc.lft.to/lastmile_qr_scan"}, "fusion_lon": 0.0, "lat": 38.92522, "bike_id": "8630bf59d3da248ad5f1ddd87fd14e1f", "type": "electric_scooter", "is_reserved": 0, "lon": -77.0385825}, {"fusion_lat": 0.0, "name": "c8ff221432a8839f20175e0b1ba077f9", "is_disabled": 0, "rental_uris": {"android": "https://dc.lft.to/lastmile_qr_scan", "ios": "https://dc.lft.to/lastmile_qr_scan"}, "fusion_lon": 0.0, "lat": 38.9165865, "bike_id": "c8ff221432a8839f20175e0b1ba077f9", "type": "electric_scooter", "is_reserved": 0, "lon": -77.02819416666667}, {"fusion_lat": 0.0, "name": "6e05931fd59454bded28d4addee142d6", "is_disabled": 0, "rental_uris": {"android": "https://dc.lft.to/lastmile_qr_scan", "ios": "https://dc.lft.to/lastmile_qr_scan"}, "fusion_lon": 0.0, "lat": 38.913991833333334, "bike_id": "6e05931fd59454bded28d4addee142d6", "type": "electric_scooter", "is_reserved": 0, "lon": -77.03319183333333}, {"fusion_lat": 0.0, "name": "357c769d3453f660b751a7d6d6952ba4", "is_disabled": 0, "rental_uris": {"android": "https://dc.lft.to/lastmile_qr_scan", "ios": "https://dc.lft.to/lastmile_qr_scan"}, "fusion_lon": 0.0, "lat": 38.92093883333333, "bike_id": "357c769d3453f660b751a7d6d6952ba4", "type": "electric_scooter", "is_reserved": 0, "lon": -77.02217333333333}, {"fusion_lat": 0.0, "name": "9c9f02656729fe4dda0e935f9d12df59", "is_disabled": 0, "rental_uris": {"android": "https://dc.lft.to/lastmile_qr_scan", "ios": "https://dc.lft.to/lastmile_qr_scan"}, "fusion_lon": 0.0, "lat": 38.892418166666666, "bike_id": "9c9f02656729fe4dda0e935f9d12df59", "type": "electric_scooter", "is_reserved": 0, "lon": -77.02206066666666}, {"fusion_lat": 0.0, "name": "da460abef02a3571832d6d44bc816c05", "is_disabled": 0, "rental_uris": {"android": "https://dc.lft.to/lastmile_qr_scan", "ios": "https://dc.lft.to/lastmile_qr_scan"}, "fusion_lon": 0.0, "lat": 38.887381833333336, "bike_id": "da460abef02a3571832d6d44bc816c05", "type": "electric_scooter", "is_reserved": 0, "lon": -77.0320545}, {"fusion_lat": 0.0, "name": "cd2b13fa8d21a3f049b4abddc180ff76", "is_disabled": 0, "rental_uris": {"android": "https://dc.lft.to/lastmile_qr_scan", "ios": "https://dc.lft.to/lastmile_qr_scan"}, "fusion_lon": 0.0, "lat": 38.99775833333333, "bike_id": "cd2b13fa8d21a3f049b4abddc180ff76", "type": "electric_bike", "is_reserved": 0, "lon": -77.04718116666666}, {"fusion_lat": 0.0, "name": "abad3c3e194355afbfd888d80c59486d", "is_disabled": 0, "rental_uris": {"android": "https://dc.lft.to/lastmile_qr_scan", "ios": "https://dc.lft.to/lastmile_qr_scan"}, "fusion_lon": 0.0, "lat": 38.896179833333335, "bike_id": "abad3c3e194355afbfd888d80c59486d", "type": "electric_scooter", "is_reserved": 0, "lon": -77.031715}, {"fusion_lat": 0.0, "name": "37baec6b8c1e1a862f6ab1fa3cf46d5b", "is_disabled": 0, "rental_uris": {"android": "https://dc.lft.to/lastmile_qr_scan", "ios": "https://dc.lft.to/lastmile_qr_scan"}, "fusion_lon": 0.0, "lat": 38.9339525, "bike_id": "37baec6b8c1e1a862f6ab1fa3cf46d5b", "type": "electric_scooter", "is_reserved": 0, "lon": -77.05745083333333}, {"fusion_lat": 0.0, "name": "5c236fe4faf94b8e8a7506fd4c438ea3", "is_disabled": 0, "rental_uris": {"android": "https://dc.lft.to/lastmile_qr_scan", "ios": "https://dc.lft.to/lastmile_qr_scan"}, "fusion_lon": 0.0, "lat": 38.90580216666667, "bike_id": "5c236fe4faf94b8e8a7506fd4c438ea3", "type": "electric_scooter", "is_reserved": 0, "lon": -77.03855666666666}, {"fusion_lat": 0.0, "name": "fed8785947c1b7cec645fc45d53fadc1", "is_disabled": 0, "rental_uris": {"android": "https://dc.lft.to/lastmile_qr_scan", "ios": "https://dc.lft.to/lastmile_qr_scan"}, "fusion_lon": 0.0, "lat": 38.938580333333334, "bike_id": "fed8785947c1b7cec645fc45d53fadc1", "type": "electric_scooter", "is_reserved": 0, "lon": -77.02323583333333}, {"fusion_lat": 0.0, "name": "cb2378fdf8860a4b3a69fcb4e0185189", "is_disabled": 0, "rental_uris": {"android": "https://dc.lft.to/lastmile_qr_scan", "ios": "https://dc.lft.to/lastmile_qr_scan"}, "fusion_lon": 0.0, "lat": 38.90290433333333, "bike_id": "cb2378fdf8860a4b3a69fcb4e0185189", "type": "electric_scooter", "is_reserved": 0, "lon": -76.976338}, {"fusion_lat": 0.0, "name": "e7cf20cb3680156bc9f14bc3b5d917f0", "is_disabled": 0, "rental_uris": {"android": "https://dc.lft.to/lastmile_qr_scan", "ios": "https://dc.lft.to/lastmile_qr_scan"}, "fusion_lon": 0.0, "lat": 38.941558666666666, "bike_id": "e7cf20cb3680156bc9f14bc3b5d917f0", "type": "electric_scooter", "is_reserved": 0, "lon": -77.02628383333334}, {"fusion_lat": 0.0, "name": "85f3ba7bcbc168c137c33310146e84e2", "is_disabled": 0, "rental_uris": {"android": "https://dc.lft.to/lastmile_qr_scan", "ios": "https://dc.lft.to/lastmile_qr_scan"}, "fusion_lon": 0.0, "lat": 38.903028666666664, "bike_id": "85f3ba7bcbc168c137c33310146e84e2", "type": "electric_bike", "is_reserved": 0, "lon": -76.9765225}, {"fusion_lat": 0.0, "name": "97b5bbb36ca80dd432d51ea25ef14028", "is_disabled": 0, "rental_uris": {"android": "https://dc.lft.to/lastmile_qr_scan", "ios": "https://dc.lft.to/lastmile_qr_scan"}, "fusion_lon": 0.0, "lat": 38.91993883333333, "bike_id": "97b5bbb36ca80dd432d51ea25ef14028", "type": "electric_scooter", "is_reserved": 0, "lon": -77.02178916666666}, {"fusion_lat": 0.0, "name": "abbefc29477a40042983d2dea976061f", "is_disabled": 0, "rental_uris": {"android": "https://dc.lft.to/lastmile_qr_scan", "ios": "https://dc.lft.to/lastmile_qr_scan"}, "fusion_lon": 0.0, "lat": 38.9175805, "bike_id": "abbefc29477a40042983d2dea976061f", "type": "electric_scooter", "is_reserved": 0, "lon": -77.02406016666667}, {"fusion_lat": 0.0, "name": "e9dff77db132db402767e05c748e164e", "is_disabled": 0, "rental_uris": {"android": "https://dc.lft.to/lastmile_qr_scan", "ios": "https://dc.lft.to/lastmile_qr_scan"}, "fusion_lon": 0.0, "lat": 38.90257666666667, "bike_id": "e9dff77db132db402767e05c748e164e", "type": "electric_scooter", "is_reserved": 0, "lon": -77.0396585}, {"fusion_lat": 0.0, "name": "07ed46a943af29468cb8baba229aa647", "is_disabled": 0, "rental_uris": {"android": "https://dc.lft.to/lastmile_qr_scan", "ios": "https://dc.lft.to/lastmile_qr_scan"}, "fusion_lon": 0.0, "lat": 38.9620715, "bike_id": "07ed46a943af29468cb8baba229aa647", "type": "electric_scooter", "is_reserved": 0, "lon": -77.0223525}, {"fusion_lat": 0.0, "name": "c3d4d10aaaea1398846913f6b48c5a77", "is_disabled": 0, "rental_uris": {"android": "https://dc.lft.to/lastmile_qr_scan", "ios": "https://dc.lft.to/lastmile_qr_scan"}, "fusion_lon": 0.0, "lat": 38.88356233333333, "bike_id": "c3d4d10aaaea1398846913f6b48c5a77", "type": "electric_scooter", "is_reserved": 0, "lon": -76.9948135}, {"fusion_lat": 0.0, "name": "0f3eccee4439c075b237702a0431b740", "is_disabled": 0, "rental_uris": {"android": "https://dc.lft.to/lastmile_qr_scan", "ios": "https://dc.lft.to/lastmile_qr_scan"}, "fusion_lon": 0.0, "lat": 38.855100166666666, "bike_id": "0f3eccee4439c075b237702a0431b740", "type": "electric_bike", "is_reserved": 0, "lon": -77.10539683333333}, {"fusion_lat": 0.0, "name": "01b0a7fc8f363f1fc7cb81c0b52daab0", "is_disabled": 0, "rental_uris": {"android": "https://dc.lft.to/lastmile_qr_scan", "ios": "https://dc.lft.to/lastmile_qr_scan"}, "fusion_lon": 0.0, "lat": 38.88871666666667, "bike_id": "01b0a7fc8f363f1fc7cb81c0b52daab0", "type": "electric_scooter", "is_reserved": 0, "lon": -76.9845765}, {"fusion_lat": 0.0, "name": "3f0838a78ccb742f312b594aff36d272", "is_disabled": 0, "rental_uris": {"android": "https://dc.lft.to/lastmile_qr_scan", "ios": "https://dc.lft.to/lastmile_qr_scan"}, "fusion_lon": 0.0, "lat": 38.91969116666667, "bike_id": "3f0838a78ccb742f312b594aff36d272", "type": "electric_scooter", "is_reserved": 0, "lon": -77.0011035}, {"fusion_lat": 0.0, "name": "9fc567478c332fb58884c57800c52a93", "is_disabled": 0, "rental_uris": {"android": "https://dc.lft.to/lastmile_qr_scan", "ios": "https://dc.lft.to/lastmile_qr_scan"}, "fusion_lon": 0.0, "lat": 38.901830333333336, "bike_id": "9fc567478c332fb58884c57800c52a93", "type": "electric_scooter", "is_reserved": 0, "lon": -76.92897166666667}, {"fusion_lat": 0.0, "name": "7b38d628ab023e7b84d4bed55308ea14", "is_disabled": 0, "rental_uris": {"android": "https://dc.lft.to/lastmile_qr_scan", "ios": "https://dc.lft.to/lastmile_qr_scan"}, "fusion_lon": 0.0, "lat": 38.88647016666667, "bike_id": "7b38d628ab023e7b84d4bed55308ea14", "type": "electric_scooter", "is_reserved": 0, "lon": -76.9258885}, {"fusion_lat": 0.0, "name": "1a65631a9e53f22a8b0ded37f5e3a042", "is_disabled": 0, "rental_uris": {"android": "https://dc.lft.to/lastmile_qr_scan", "ios": "https://dc.lft.to/lastmile_qr_scan"}, "fusion_lon": 0.0, "lat": 38.90723666666667, "bike_id": "1a65631a9e53f22a8b0ded37f5e3a042", "type": "electric_scooter", "is_reserved": 0, "lon": -77.02544533333334}, {"fusion_lat": 0.0, "name": "1f75900df59d7994a974f88cd84d22f1", "is_disabled": 0, "rental_uris": {"android": "https://dc.lft.to/lastmile_qr_scan", "ios": "https://dc.lft.to/lastmile_qr_scan"}, "fusion_lon": 0.0, "lat": 38.92044883333333, "bike_id": "1f75900df59d7994a974f88cd84d22f1", "type": "electric_scooter", "is_reserved": 0, "lon": -77.00209916666667}, {"fusion_lat": 0.0, "name": "9a0ed79f5627fe41e8f8dbb77e560003", "is_disabled": 0, "rental_uris": {"android": "https://dc.lft.to/lastmile_qr_scan", "ios": "https://dc.lft.to/lastmile_qr_scan"}, "fusion_lon": 0.0, "lat": 38.89217433333334, "bike_id": "9a0ed79f5627fe41e8f8dbb77e560003", "type": "electric_scooter", "is_reserved": 0, "lon": -77.03989466666667}, {"fusion_lat": 0.0, "name": "300bad50db0887e1c41fba35710638b7", "is_disabled": 0, "rental_uris": {"android": "https://dc.lft.to/lastmile_qr_scan", "ios": "https://dc.lft.to/lastmile_qr_scan"}, "fusion_lon": 0.0, "lat": 38.92832966666667, "bike_id": "300bad50db0887e1c41fba35710638b7", "type": "electric_scooter", "is_reserved": 0, "lon": -77.05441683333333}, {"fusion_lat": 0.0, "name": "0fc3e3d4ed1214ee7a73117104793374", "is_disabled": 0, "rental_uris": {"android": "https://dc.lft.to/lastmile_qr_scan", "ios": "https://dc.lft.to/lastmile_qr_scan"}, "fusion_lon": 0.0, "lat": 38.905756333333336, "bike_id": "0fc3e3d4ed1214ee7a73117104793374", "type": "electric_scooter", "is_reserved": 0, "lon": -77.030556}, {"fusion_lat": 0.0, "name": "c75d675a2fe87f28d2aca987d4c3c049", "is_disabled": 0, "rental_uris": {"android": "https://dc.lft.to/lastmile_qr_scan", "ios": "https://dc.lft.to/lastmile_qr_scan"}, "fusion_lon": 0.0, "lat": 38.94625416666667, "bike_id": "c75d675a2fe87f28d2aca987d4c3c049", "type": "electric_scooter", "is_reserved": 0, "lon": -77.03284933333333}, {"fusion_lat": 0.0, "name": "ab6aab3a55cf025849f5c5de255abce2", "is_disabled": 0, "rental_uris": {"android": "https://dc.lft.to/lastmile_qr_scan", "ios": "https://dc.lft.to/lastmile_qr_scan"}, "fusion_lon": 0.0, "lat": 38.90314583333333, "bike_id": "ab6aab3a55cf025849f5c5de255abce2", "type": "electric_scooter", "is_reserved": 0, "lon": -76.978035}, {"fusion_lat": 0.0, "name": "bc1349d5915b66da4af8ce6f65a6f8cd", "is_disabled": 0, "rental_uris": {"android": "https://dc.lft.to/lastmile_qr_scan", "ios": "https://dc.lft.to/lastmile_qr_scan"}, "fusion_lon": 0.0, "lat": 38.882957, "bike_id": "bc1349d5915b66da4af8ce6f65a6f8cd", "type": "electric_bike", "is_reserved": 0, "lon": -77.03020833333333}, {"fusion_lat": 0.0, "name": "70fad475086f0db6fff70bd1ccced577", "is_disabled": 0, "rental_uris": {"android": "https://dc.lft.to/lastmile_qr_scan", "ios": "https://dc.lft.to/lastmile_qr_scan"}, "fusion_lon": 0.0, "lat": 38.941320166666664, "bike_id": "70fad475086f0db6fff70bd1ccced577", "type": "electric_scooter", "is_reserved": 0, "lon": -77.01544316666667}, {"fusion_lat": 0.0, "name": "255457b1cf578e0c8fc811b0f3b00c01", "is_disabled": 0, "rental_uris": {"android": "https://dc.lft.to/lastmile_qr_scan", "ios": "https://dc.lft.to/lastmile_qr_scan"}, "fusion_lon": 0.0, "lat": 38.9101505, "bike_id": "255457b1cf578e0c8fc811b0f3b00c01", "type": "electric_scooter", "is_reserved": 0, "lon": -77.0385735}, {"fusion_lat": 0.0, "name": "b29c5fdf70280afd8d2c3d83621c8a2c", "is_disabled": 0, "rental_uris": {"android": "https://dc.lft.to/lastmile_qr_scan", "ios": "https://dc.lft.to/lastmile_qr_scan"}, "fusion_lon": 0.0, "lat": 38.950209666666666, "bike_id": "b29c5fdf70280afd8d2c3d83621c8a2c", "type": "electric_scooter", "is_reserved": 0, "lon": -77.033494}, {"fusion_lat": 0.0, "name": "b82966c478e267311f63914cc66a366c", "is_disabled": 0, "rental_uris": {"android": "https://dc.lft.to/lastmile_qr_scan", "ios": "https://dc.lft.to/lastmile_qr_scan"}, "fusion_lon": 0.0, "lat": 38.93899283333333, "bike_id": "b82966c478e267311f63914cc66a366c", "type": "electric_scooter", "is_reserved": 0, "lon": -77.03323533333334}, {"fusion_lat": 0.0, "name": "ca0997a0c5234a37151b922c98bc79bb", "is_disabled": 0, "rental_uris": {"android": "https://dc.lft.to/lastmile_qr_scan", "ios": "https://dc.lft.to/lastmile_qr_scan"}, "fusion_lon": 0.0, "lat": 38.900984, "bike_id": "ca0997a0c5234a37151b922c98bc79bb", "type": "electric_scooter", "is_reserved": 0, "lon": -77.05808033333334}, {"fusion_lat": 0.0, "name": "3ee2e813ec59d00e7633c203a7e77e7f", "is_disabled": 0, "rental_uris": {"android": "https://dc.lft.to/lastmile_qr_scan", "ios": "https://dc.lft.to/lastmile_qr_scan"}, "fusion_lon": 0.0, "lat": 38.92717916666667, "bike_id": "3ee2e813ec59d00e7633c203a7e77e7f", "type": "electric_scooter", "is_reserved": 0, "lon": -77.02325466666667}, {"fusion_lat": 0.0, "name": "8fd048397a05b47c76102f3fcee5f53e", "is_disabled": 0, "rental_uris": {"android": "https://dc.lft.to/lastmile_qr_scan", "ios": "https://dc.lft.to/lastmile_qr_scan"}, "fusion_lon": 0.0, "lat": 38.93072083333333, "bike_id": "8fd048397a05b47c76102f3fcee5f53e", "type": "electric_scooter", "is_reserved": 0, "lon": -77.03160083333333}, {"fusion_lat": 0.0, "name": "29b2c64668e7e186bbf57356eba3b043", "is_disabled": 0, "rental_uris": {"android": "https://dc.lft.to/lastmile_qr_scan", "ios": "https://dc.lft.to/lastmile_qr_scan"}, "fusion_lon": 0.0, "lat": 38.92496716666667, "bike_id": "29b2c64668e7e186bbf57356eba3b043", "type": "electric_scooter", "is_reserved": 0, "lon": -77.02171883333334}, {"fusion_lat": 0.0, "name": "528147dc8f2f5ba2defe3cf4f7fb5fce", "is_disabled": 0, "rental_uris": {"android": "https://dc.lft.to/lastmile_qr_scan", "ios": "https://dc.lft.to/lastmile_qr_scan"}, "fusion_lon": 0.0, "lat": 38.929249666666664, "bike_id": "528147dc8f2f5ba2defe3cf4f7fb5fce", "type": "electric_scooter", "is_reserved": 0, "lon": -77.03248066666667}, {"fusion_lat": 0.0, "name": "29affd9fa84355fd29d26b7a6622ea33", "is_disabled": 0, "rental_uris": {"android": "https://dc.lft.to/lastmile_qr_scan", "ios": "https://dc.lft.to/lastmile_qr_scan"}, "fusion_lon": 0.0, "lat": 38.956351833333336, "bike_id": "29affd9fa84355fd29d26b7a6622ea33", "type": "electric_scooter", "is_reserved": 0, "lon": -77.0330385}, {"fusion_lat": 0.0, "name": "f203670a771b4676875f2b0803e8a8c3", "is_disabled": 0, "rental_uris": {"android": "https://dc.lft.to/lastmile_qr_scan", "ios": "https://dc.lft.to/lastmile_qr_scan"}, "fusion_lon": 0.0, "lat": 38.8354305, "bike_id": "f203670a771b4676875f2b0803e8a8c3", "type": "electric_bike", "is_reserved": 0, "lon": -76.98730583333334}, {"fusion_lat": 0.0, "name": "511af28dfd1de7c8f6c09eeea1d65d85", "is_disabled": 0, "rental_uris": {"android": "https://dc.lft.to/lastmile_qr_scan", "ios": "https://dc.lft.to/lastmile_qr_scan"}, "fusion_lon": 0.0, "lat": 38.902537833333334, "bike_id": "511af28dfd1de7c8f6c09eeea1d65d85", "type": "electric_scooter", "is_reserved": 0, "lon": -77.04685033333334}, {"fusion_lat": 0.0, "name": "3ca1d904457642da5da03d540d34c6aa", "is_disabled": 0, "rental_uris": {"android": "https://dc.lft.to/lastmile_qr_scan", "ios": "https://dc.lft.to/lastmile_qr_scan"}, "fusion_lon": 0.0, "lat": 38.90062133333333, "bike_id": "3ca1d904457642da5da03d540d34c6aa", "type": "electric_scooter", "is_reserved": 0, "lon": -76.933861}, {"fusion_lat": 0.0, "name": "0d617dfcd9e5d927b7cdeb755acacb77", "is_disabled": 0, "rental_uris": {"android": "https://dc.lft.to/lastmile_qr_scan", "ios": "https://dc.lft.to/lastmile_qr_scan"}, "fusion_lon": 0.0, "lat": 38.905585333333335, "bike_id": "0d617dfcd9e5d927b7cdeb755acacb77", "type": "electric_scooter", "is_reserved": 0, "lon": -77.00575216666667}, {"fusion_lat": 0.0, "name": "e67b0f05483cd9046aac37f7ecec5371", "is_disabled": 0, "rental_uris": {"android": "https://dc.lft.to/lastmile_qr_scan", "ios": "https://dc.lft.to/lastmile_qr_scan"}, "fusion_lon": 0.0, "lat": 38.94823266666667, "bike_id": "e67b0f05483cd9046aac37f7ecec5371", "type": "electric_scooter", "is_reserved": 0, "lon": -77.02613716666667}, {"fusion_lat": 0.0, "name": "2e95c552893fcec77f2c653e30e29bc7", "is_disabled": 0, "rental_uris": {"android": "https://dc.lft.to/lastmile_qr_scan", "ios": "https://dc.lft.to/lastmile_qr_scan"}, "fusion_lon": 0.0, "lat": 38.922311, "bike_id": "2e95c552893fcec77f2c653e30e29bc7", "type": "electric_scooter", "is_reserved": 0, "lon": -77.0425515}, {"fusion_lat": 0.0, "name": "8b477561f7782d571a9587cde1e736f0", "is_disabled": 0, "rental_uris": {"android": "https://dc.lft.to/lastmile_qr_scan", "ios": "https://dc.lft.to/lastmile_qr_scan"}, "fusion_lon": 0.0, "lat": 38.89240433333333, "bike_id": "8b477561f7782d571a9587cde1e736f0", "type": "electric_scooter", "is_reserved": 0, "lon": -77.03351733333334}, {"fusion_lat": 0.0, "name": "5aed71aa6c34a541f07a429628cf759f", "is_disabled": 0, "rental_uris": {"android": "https://dc.lft.to/lastmile_qr_scan", "ios": "https://dc.lft.to/lastmile_qr_scan"}, "fusion_lon": 0.0, "lat": 38.8861165, "bike_id": "5aed71aa6c34a541f07a429628cf759f", "type": "electric_scooter", "is_reserved": 0, "lon": -77.015572}, {"fusion_lat": 0.0, "name": "a19bd5093d6b01e900770d28593f3cf0", "is_disabled": 0, "rental_uris": {"android": "https://dc.lft.to/lastmile_qr_scan", "ios": "https://dc.lft.to/lastmile_qr_scan"}, "fusion_lon": 0.0, "lat": 38.932561666666665, "bike_id": "a19bd5093d6b01e900770d28593f3cf0", "type": "electric_scooter", "is_reserved": 0, "lon": -77.03449866666666}, {"fusion_lat": 0.0, "name": "6252a5e739425281548af3440ba0d899", "is_disabled": 0, "rental_uris": {"android": "https://dc.lft.to/lastmile_qr_scan", "ios": "https://dc.lft.to/lastmile_qr_scan"}, "fusion_lon": 0.0, "lat": 38.884699166666664, "bike_id": "6252a5e739425281548af3440ba0d899", "type": "electric_scooter", "is_reserved": 0, "lon": -76.996724}, {"fusion_lat": 0.0, "name": "11c358f4de788d77d46ec50ebad9cd84", "is_disabled": 0, "rental_uris": {"android": "https://dc.lft.to/lastmile_qr_scan", "ios": "https://dc.lft.to/lastmile_qr_scan"}, "fusion_lon": 0.0, "lat": 38.92116716666666, "bike_id": "11c358f4de788d77d46ec50ebad9cd84", "type": "electric_scooter", "is_reserved": 0, "lon": -77.04207}, {"fusion_lat": 0.0, "name": "037ecb3fe4450e5432254cdbd0a1bff5", "is_disabled": 0, "rental_uris": {"android": "https://dc.lft.to/lastmile_qr_scan", "ios": "https://dc.lft.to/lastmile_qr_scan"}, "fusion_lon": 0.0, "lat": 38.93431366666667, "bike_id": "037ecb3fe4450e5432254cdbd0a1bff5", "type": "electric_scooter", "is_reserved": 0, "lon": -77.03999966666667}, {"fusion_lat": 0.0, "name": "ca447dd89cdd6001d4253c7d87320274", "is_disabled": 0, "rental_uris": {"android": "https://dc.lft.to/lastmile_qr_scan", "ios": "https://dc.lft.to/lastmile_qr_scan"}, "fusion_lon": 0.0, "lat": 38.931371666666664, "bike_id": "ca447dd89cdd6001d4253c7d87320274", "type": "electric_scooter", "is_reserved": 0, "lon": -77.0383685}, {"fusion_lat": 0.0, "name": "f447898d52d05327d7d24370c0a19014", "is_disabled": 0, "rental_uris": {"android": "https://dc.lft.to/lastmile_qr_scan", "ios": "https://dc.lft.to/lastmile_qr_scan"}, "fusion_lon": 0.0, "lat": 38.92876416666667, "bike_id": "f447898d52d05327d7d24370c0a19014", "type": "electric_bike", "is_reserved": 0, "lon": -77.03225716666667}, {"fusion_lat": 0.0, "name": "dcd9970a44c421d2e4497d6ce533ffa4", "is_disabled": 0, "rental_uris": {"android": "https://dc.lft.to/lastmile_qr_scan", "ios": "https://dc.lft.to/lastmile_qr_scan"}, "fusion_lon": 0.0, "lat": 38.903224, "bike_id": "dcd9970a44c421d2e4497d6ce533ffa4", "type": "electric_scooter", "is_reserved": 0, "lon": -77.0651035}, {"fusion_lat": 0.0, "name": "18bb6c3a98cf041b970276ee5ca8bec2", "is_disabled": 0, "rental_uris": {"android": "https://dc.lft.to/lastmile_qr_scan", "ios": "https://dc.lft.to/lastmile_qr_scan"}, "fusion_lon": 0.0, "lat": 38.9055885, "bike_id": "18bb6c3a98cf041b970276ee5ca8bec2", "type": "electric_scooter", "is_reserved": 0, "lon": -77.01310383333333}, {"fusion_lat": 0.0, "name": "cf31a85eb403302da86a6cbe27f1971a", "is_disabled": 0, "rental_uris": {"android": "https://dc.lft.to/lastmile_qr_scan", "ios": "https://dc.lft.to/lastmile_qr_scan"}, "fusion_lon": 0.0, "lat": 38.8717685, "bike_id": "cf31a85eb403302da86a6cbe27f1971a", "type": "electric_scooter", "is_reserved": 0, "lon": -77.00614383333334}, {"fusion_lat": 0.0, "name": "2c340b827e11ebbb39c6554b2c848c7b", "is_disabled": 0, "rental_uris": {"android": "https://dc.lft.to/lastmile_qr_scan", "ios": "https://dc.lft.to/lastmile_qr_scan"}, "fusion_lon": 0.0, "lat": 38.930656, "bike_id": "2c340b827e11ebbb39c6554b2c848c7b", "type": "electric_scooter", "is_reserved": 0, "lon": -77.02980383333333}, {"fusion_lat": 0.0, "name": "6200c7a2a115aa952b73c341a9c1a9ca", "is_disabled": 0, "rental_uris": {"android": "https://dc.lft.to/lastmile_qr_scan", "ios": "https://dc.lft.to/lastmile_qr_scan"}, "fusion_lon": 0.0, "lat": 38.8827735, "bike_id": "6200c7a2a115aa952b73c341a9c1a9ca", "type": "electric_bike", "is_reserved": 0, "lon": -76.99529416666667}, {"fusion_lat": 0.0, "name": "f038f740ba5014f18c88927d927aed2c", "is_disabled": 0, "rental_uris": {"android": "https://dc.lft.to/lastmile_qr_scan", "ios": "https://dc.lft.to/lastmile_qr_scan"}, "fusion_lon": 0.0, "lat": 38.93522083333333, "bike_id": "f038f740ba5014f18c88927d927aed2c", "type": "electric_scooter", "is_reserved": 0, "lon": -77.03080533333333}, {"fusion_lat": 0.0, "name": "f029e9d71985e85a6a9eb3a837033cc5", "is_disabled": 0, "rental_uris": {"android": "https://dc.lft.to/lastmile_qr_scan", "ios": "https://dc.lft.to/lastmile_qr_scan"}, "fusion_lon": 0.0, "lat": 38.91274283333333, "bike_id": "f029e9d71985e85a6a9eb3a837033cc5", "type": "electric_scooter", "is_reserved": 0, "lon": -77.03131883333333}, {"fusion_lat": 0.0, "name": "3435a9e3786be2c24affcb34f1994ae2", "is_disabled": 0, "rental_uris": {"android": "https://dc.lft.to/lastmile_qr_scan", "ios": "https://dc.lft.to/lastmile_qr_scan"}, "fusion_lon": 0.0, "lat": 38.93039733333333, "bike_id": "3435a9e3786be2c24affcb34f1994ae2", "type": "electric_scooter", "is_reserved": 0, "lon": -77.02965266666666}, {"fusion_lat": 0.0, "name": "88e802d855edd80d5e0c55b7c640338c", "is_disabled": 0, "rental_uris": {"android": "https://dc.lft.to/lastmile_qr_scan", "ios": "https://dc.lft.to/lastmile_qr_scan"}, "fusion_lon": 0.0, "lat": 38.857946, "bike_id": "88e802d855edd80d5e0c55b7c640338c", "type": "electric_bike", "is_reserved": 0, "lon": -77.12013316666666}, {"fusion_lat": 0.0, "name": "21763a1a7b588631c3976e941c276b85", "is_disabled": 0, "rental_uris": {"android": "https://dc.lft.to/lastmile_qr_scan", "ios": "https://dc.lft.to/lastmile_qr_scan"}, "fusion_lon": 0.0, "lat": 38.930427333333334, "bike_id": "21763a1a7b588631c3976e941c276b85", "type": "electric_scooter", "is_reserved": 0, "lon": -77.03607133333334}, {"fusion_lat": 0.0, "name": "1b27cb0dfad862bf9899b5420760d980", "is_disabled": 0, "rental_uris": {"android": "https://dc.lft.to/lastmile_qr_scan", "ios": "https://dc.lft.to/lastmile_qr_scan"}, "fusion_lon": 0.0, "lat": 38.931851333333334, "bike_id": "1b27cb0dfad862bf9899b5420760d980", "type": "electric_scooter", "is_reserved": 0, "lon": -77.04297083333333}, {"fusion_lat": 0.0, "name": "86e44fece9975f9ca24d12cf21a225e9", "is_disabled": 0, "rental_uris": {"android": "https://dc.lft.to/lastmile_qr_scan", "ios": "https://dc.lft.to/lastmile_qr_scan"}, "fusion_lon": 0.0, "lat": 38.91118916666667, "bike_id": "86e44fece9975f9ca24d12cf21a225e9", "type": "electric_scooter", "is_reserved": 0, "lon": -77.04232883333333}, {"fusion_lat": 0.0, "name": "9175939997ebdee7e75e1422c42ae9d8", "is_disabled": 0, "rental_uris": {"android": "https://dc.lft.to/lastmile_qr_scan", "ios": "https://dc.lft.to/lastmile_qr_scan"}, "fusion_lon": 0.0, "lat": 38.90580883333333, "bike_id": "9175939997ebdee7e75e1422c42ae9d8", "type": "electric_scooter", "is_reserved": 0, "lon": -77.02208066666667}, {"fusion_lat": 0.0, "name": "4914f1ae1c681f8e339a5bea77994b67", "is_disabled": 0, "rental_uris": {"android": "https://dc.lft.to/lastmile_qr_scan", "ios": "https://dc.lft.to/lastmile_qr_scan"}, "fusion_lon": 0.0, "lat": 38.892422, "bike_id": "4914f1ae1c681f8e339a5bea77994b67", "type": "electric_scooter", "is_reserved": 0, "lon": -77.03345333333333}, {"fusion_lat": 0.0, "name": "556dbba18e111e55cf6c51046a249607", "is_disabled": 0, "rental_uris": {"android": "https://dc.lft.to/lastmile_qr_scan", "ios": "https://dc.lft.to/lastmile_qr_scan"}, "fusion_lon": 0.0, "lat": 38.92285966666667, "bike_id": "556dbba18e111e55cf6c51046a249607", "type": "electric_scooter", "is_reserved": 0, "lon": -77.03664233333333}, {"fusion_lat": 0.0, "name": "81ab97ae838516e17cb388a93278f70e", "is_disabled": 0, "rental_uris": {"android": "https://dc.lft.to/lastmile_qr_scan", "ios": "https://dc.lft.to/lastmile_qr_scan"}, "fusion_lon": 0.0, "lat": 38.937019, "bike_id": "81ab97ae838516e17cb388a93278f70e", "type": "electric_scooter", "is_reserved": 0, "lon": -77.06104766666667}, {"fusion_lat": 0.0, "name": "871ee9bd986927d1a4770520ebedc3f5", "is_disabled": 0, "rental_uris": {"android": "https://dc.lft.to/lastmile_qr_scan", "ios": "https://dc.lft.to/lastmile_qr_scan"}, "fusion_lon": 0.0, "lat": 38.890042333333334, "bike_id": "871ee9bd986927d1a4770520ebedc3f5", "type": "electric_scooter", "is_reserved": 0, "lon": -76.93746266666666}, {"fusion_lat": 0.0, "name": "6da3da1667317008ae74d710d04e87bc", "is_disabled": 0, "rental_uris": {"android": "https://dc.lft.to/lastmile_qr_scan", "ios": "https://dc.lft.to/lastmile_qr_scan"}, "fusion_lon": 0.0, "lat": 38.93259033333333, "bike_id": "6da3da1667317008ae74d710d04e87bc", "type": "electric_scooter", "is_reserved": 0, "lon": -77.03264233333333}, {"fusion_lat": 0.0, "name": "30aa662325f7b3f92a396166afa57005", "is_disabled": 0, "rental_uris": {"android": "https://dc.lft.to/lastmile_qr_scan", "ios": "https://dc.lft.to/lastmile_qr_scan"}, "fusion_lon": 0.0, "lat": 38.924280333333336, "bike_id": "30aa662325f7b3f92a396166afa57005", "type": "electric_scooter", "is_reserved": 0, "lon": -77.05189033333333}, {"fusion_lat": 0.0, "name": "48c53f96cf8d1567afcf2f961a33d608", "is_disabled": 0, "rental_uris": {"android": "https://dc.lft.to/lastmile_qr_scan", "ios": "https://dc.lft.to/lastmile_qr_scan"}, "fusion_lon": 0.0, "lat": 38.9396885, "bike_id": "48c53f96cf8d1567afcf2f961a33d608", "type": "electric_scooter", "is_reserved": 0, "lon": -77.0325965}, {"fusion_lat": 0.0, "name": "50749ffd23b722a191749ba4b3f79b83", "is_disabled": 0, "rental_uris": {"android": "https://dc.lft.to/lastmile_qr_scan", "ios": "https://dc.lft.to/lastmile_qr_scan"}, "fusion_lon": 0.0, "lat": 38.887154, "bike_id": "50749ffd23b722a191749ba4b3f79b83", "type": "electric_scooter", "is_reserved": 0, "lon": -76.99680566666666}, {"fusion_lat": 0.0, "name": "381c8b4a54fc489d930b1b3359af2e98", "is_disabled": 0, "rental_uris": {"android": "https://dc.lft.to/lastmile_qr_scan", "ios": "https://dc.lft.to/lastmile_qr_scan"}, "fusion_lon": 0.0, "lat": 38.89222383333333, "bike_id": "381c8b4a54fc489d930b1b3359af2e98", "type": "electric_scooter", "is_reserved": 0, "lon": -77.031799}, {"fusion_lat": 0.0, "name": "8dd706878dd85f26abd691a8d4265a21", "is_disabled": 0, "rental_uris": {"android": "https://dc.lft.to/lastmile_qr_scan", "ios": "https://dc.lft.to/lastmile_qr_scan"}, "fusion_lon": 0.0, "lat": 38.86253883333333, "bike_id": "8dd706878dd85f26abd691a8d4265a21", "type": "electric_scooter", "is_reserved": 0, "lon": -76.99511416666667}, {"fusion_lat": 0.0, "name": "808978c157686733d9dcd79b9d70b566", "is_disabled": 0, "rental_uris": {"android": "https://dc.lft.to/lastmile_qr_scan", "ios": "https://dc.lft.to/lastmile_qr_scan"}, "fusion_lon": 0.0, "lat": 38.90700733333333, "bike_id": "808978c157686733d9dcd79b9d70b566", "type": "electric_scooter", "is_reserved": 0, "lon": -76.986975}, {"fusion_lat": 0.0, "name": "8a3cd606a6effd9225811321066d24ab", "is_disabled": 0, "rental_uris": {"android": "https://dc.lft.to/lastmile_qr_scan", "ios": "https://dc.lft.to/lastmile_qr_scan"}, "fusion_lon": 0.0, "lat": 38.89942033333333, "bike_id": "8a3cd606a6effd9225811321066d24ab", "type": "electric_scooter", "is_reserved": 0, "lon": -76.98166233333333}, {"fusion_lat": 0.0, "name": "d6166e0a6e7fed524c67af9d1b003e81", "is_disabled": 0, "rental_uris": {"android": "https://dc.lft.to/lastmile_qr_scan", "ios": "https://dc.lft.to/lastmile_qr_scan"}, "fusion_lon": 0.0, "lat": 38.920673666666666, "bike_id": "d6166e0a6e7fed524c67af9d1b003e81", "type": "electric_scooter", "is_reserved": 0, "lon": -77.024358}, {"fusion_lat": 0.0, "name": "0ebef19cc31cd44aa9d1fd0a80b512e1", "is_disabled": 0, "rental_uris": {"android": "https://dc.lft.to/lastmile_qr_scan", "ios": "https://dc.lft.to/lastmile_qr_scan"}, "fusion_lon": 0.0, "lat": 38.90022116666667, "bike_id": "0ebef19cc31cd44aa9d1fd0a80b512e1", "type": "electric_scooter", "is_reserved": 0, "lon": -77.01185116666667}, {"fusion_lat": 0.0, "name": "f16c2449c45380fd2168e8fee13282be", "is_disabled": 0, "rental_uris": {"android": "https://dc.lft.to/lastmile_qr_scan", "ios": "https://dc.lft.to/lastmile_qr_scan"}, "fusion_lon": 0.0, "lat": 38.886628333333334, "bike_id": "f16c2449c45380fd2168e8fee13282be", "type": "electric_scooter", "is_reserved": 0, "lon": -77.0279095}, {"fusion_lat": 0.0, "name": "d1d6eaef1ee153fc38fa172632ff3749", "is_disabled": 0, "rental_uris": {"android": "https://dc.lft.to/lastmile_qr_scan", "ios": "https://dc.lft.to/lastmile_qr_scan"}, "fusion_lon": 0.0, "lat": 38.92436816666667, "bike_id": "d1d6eaef1ee153fc38fa172632ff3749", "type": "electric_scooter", "is_reserved": 0, "lon": -77.03404516666667}, {"fusion_lat": 0.0, "name": "785eb9d83333b11a79e32db717dfd52f", "is_disabled": 0, "rental_uris": {"android": "https://dc.lft.to/lastmile_qr_scan", "ios": "https://dc.lft.to/lastmile_qr_scan"}, "fusion_lon": 0.0, "lat": 38.92611816666667, "bike_id": "785eb9d83333b11a79e32db717dfd52f", "type": "electric_scooter", "is_reserved": 0, "lon": -77.02161516666666}, {"fusion_lat": 0.0, "name": "06bdd10a8df98a329a6f19ea5b13f3f1", "is_disabled": 0, "rental_uris": {"android": "https://dc.lft.to/lastmile_qr_scan", "ios": "https://dc.lft.to/lastmile_qr_scan"}, "fusion_lon": 0.0, "lat": 38.9325755, "bike_id": "06bdd10a8df98a329a6f19ea5b13f3f1", "type": "electric_scooter", "is_reserved": 0, "lon": -77.06620483333333}, {"fusion_lat": 0.0, "name": "04d36cede78bed004002dad5120c6bfe", "is_disabled": 0, "rental_uris": {"android": "https://dc.lft.to/lastmile_qr_scan", "ios": "https://dc.lft.to/lastmile_qr_scan"}, "fusion_lon": 0.0, "lat": 38.896088666666664, "bike_id": "04d36cede78bed004002dad5120c6bfe", "type": "electric_scooter", "is_reserved": 0, "lon": -77.00924316666666}, {"fusion_lat": 0.0, "name": "f62df46ee36e6d2fe9f19e6a47c26d39", "is_disabled": 0, "rental_uris": {"android": "https://dc.lft.to/lastmile_qr_scan", "ios": "https://dc.lft.to/lastmile_qr_scan"}, "fusion_lon": 0.0, "lat": 38.892266166666666, "bike_id": "f62df46ee36e6d2fe9f19e6a47c26d39", "type": "electric_scooter", "is_reserved": 0, "lon": -77.0333895}, {"fusion_lat": 0.0, "name": "44879402345cca627a1cc8d448cef8fe", "is_disabled": 0, "rental_uris": {"android": "https://dc.lft.to/lastmile_qr_scan", "ios": "https://dc.lft.to/lastmile_qr_scan"}, "fusion_lon": 0.0, "lat": 38.89875833333333, "bike_id": "44879402345cca627a1cc8d448cef8fe", "type": "electric_scooter", "is_reserved": 0, "lon": -76.93182566666667}, {"fusion_lat": 0.0, "name": "dc1f087b7733985388cb4bc1ed214fa0", "is_disabled": 0, "rental_uris": {"android": "https://dc.lft.to/lastmile_qr_scan", "ios": "https://dc.lft.to/lastmile_qr_scan"}, "fusion_lon": 0.0, "lat": 38.9240105, "bike_id": "dc1f087b7733985388cb4bc1ed214fa0", "type": "electric_scooter", "is_reserved": 0, "lon": -77.024835}, {"fusion_lat": 0.0, "name": "56667547baa966df3df8b0d1670184a6", "is_disabled": 0, "rental_uris": {"android": "https://dc.lft.to/lastmile_qr_scan", "ios": "https://dc.lft.to/lastmile_qr_scan"}, "fusion_lon": 0.0, "lat": 38.904531, "bike_id": "56667547baa966df3df8b0d1670184a6", "type": "electric_scooter", "is_reserved": 0, "lon": -77.01768966666667}, {"fusion_lat": 0.0, "name": "1506c0b1190e91b678de0fb77cf75c41", "is_disabled": 0, "rental_uris": {"android": "https://dc.lft.to/lastmile_qr_scan", "ios": "https://dc.lft.to/lastmile_qr_scan"}, "fusion_lon": 0.0, "lat": 38.917096666666666, "bike_id": "1506c0b1190e91b678de0fb77cf75c41", "type": "electric_scooter", "is_reserved": 0, "lon": -77.03661133333334}, {"fusion_lat": 0.0, "name": "9e935701d1eda1eca8cddfa6ba86d4f6", "is_disabled": 0, "rental_uris": {"android": "https://dc.lft.to/lastmile_qr_scan", "ios": "https://dc.lft.to/lastmile_qr_scan"}, "fusion_lon": 0.0, "lat": 38.87707, "bike_id": "9e935701d1eda1eca8cddfa6ba86d4f6", "type": "electric_scooter", "is_reserved": 0, "lon": -76.99379183333333}, {"fusion_lat": 0.0, "name": "d36efbd51747b17e69d6bf96f2a1ceec", "is_disabled": 0, "rental_uris": {"android": "https://dc.lft.to/lastmile_qr_scan", "ios": "https://dc.lft.to/lastmile_qr_scan"}, "fusion_lon": 0.0, "lat": 38.927798333333335, "bike_id": "d36efbd51747b17e69d6bf96f2a1ceec", "type": "electric_scooter", "is_reserved": 0, "lon": -77.05285766666667}, {"fusion_lat": 0.0, "name": "3926ee52f0de24cca83088facdd21b12", "is_disabled": 0, "rental_uris": {"android": "https://dc.lft.to/lastmile_qr_scan", "ios": "https://dc.lft.to/lastmile_qr_scan"}, "fusion_lon": 0.0, "lat": 38.886099, "bike_id": "3926ee52f0de24cca83088facdd21b12", "type": "electric_scooter", "is_reserved": 0, "lon": -77.01556166666667}, {"fusion_lat": 0.0, "name": "12acc421626499bdbd0e52b94c11209f", "is_disabled": 0, "rental_uris": {"android": "https://dc.lft.to/lastmile_qr_scan", "ios": "https://dc.lft.to/lastmile_qr_scan"}, "fusion_lon": 0.0, "lat": 38.91723566666667, "bike_id": "12acc421626499bdbd0e52b94c11209f", "type": "electric_scooter", "is_reserved": 0, "lon": -77.041544}, {"fusion_lat": 0.0, "name": "de3ede33f4c2081b9fa1847e02fab3b1", "is_disabled": 0, "rental_uris": {"android": "https://dc.lft.to/lastmile_qr_scan", "ios": "https://dc.lft.to/lastmile_qr_scan"}, "fusion_lon": 0.0, "lat": 38.91666166666667, "bike_id": "de3ede33f4c2081b9fa1847e02fab3b1", "type": "electric_scooter", "is_reserved": 0, "lon": -77.038537}, {"fusion_lat": 0.0, "name": "e62754afa442dcbc5fa20e2f9b0b735d", "is_disabled": 0, "rental_uris": {"android": "https://dc.lft.to/lastmile_qr_scan", "ios": "https://dc.lft.to/lastmile_qr_scan"}, "fusion_lon": 0.0, "lat": 38.892586666666666, "bike_id": "e62754afa442dcbc5fa20e2f9b0b735d", "type": "electric_scooter", "is_reserved": 0, "lon": -77.0261165}, {"fusion_lat": 0.0, "name": "dd0ac6824cb70e31d157864f31d0873b", "is_disabled": 0, "rental_uris": {"android": "https://dc.lft.to/lastmile_qr_scan", "ios": "https://dc.lft.to/lastmile_qr_scan"}, "fusion_lon": 0.0, "lat": 38.92601833333333, "bike_id": "dd0ac6824cb70e31d157864f31d0873b", "type": "electric_scooter", "is_reserved": 0, "lon": -77.02152666666667}, {"fusion_lat": 0.0, "name": "3fdeba2baebeb147d19f9320f4ee9456", "is_disabled": 0, "rental_uris": {"android": "https://dc.lft.to/lastmile_qr_scan", "ios": "https://dc.lft.to/lastmile_qr_scan"}, "fusion_lon": 0.0, "lat": 38.87896816666667, "bike_id": "3fdeba2baebeb147d19f9320f4ee9456", "type": "electric_scooter", "is_reserved": 0, "lon": -77.01359783333334}, {"fusion_lat": 0.0, "name": "041697c259d92ad4b0fe3bad8ac585ea", "is_disabled": 0, "rental_uris": {"android": "https://dc.lft.to/lastmile_qr_scan", "ios": "https://dc.lft.to/lastmile_qr_scan"}, "fusion_lon": 0.0, "lat": 38.907312833333336, "bike_id": "041697c259d92ad4b0fe3bad8ac585ea", "type": "electric_scooter", "is_reserved": 0, "lon": -77.03859816666667}, {"fusion_lat": 0.0, "name": "c774733a4a3db5ca9a4fa53ea6f44d9c", "is_disabled": 0, "rental_uris": {"android": "https://dc.lft.to/lastmile_qr_scan", "ios": "https://dc.lft.to/lastmile_qr_scan"}, "fusion_lon": 0.0, "lat": 38.9067515, "bike_id": "c774733a4a3db5ca9a4fa53ea6f44d9c", "type": "electric_scooter", "is_reserved": 0, "lon": -77.047243}, {"fusion_lat": 0.0, "name": "eff48518a8d22059ab1aa5389f3748b0", "is_disabled": 0, "rental_uris": {"android": "https://dc.lft.to/lastmile_qr_scan", "ios": "https://dc.lft.to/lastmile_qr_scan"}, "fusion_lon": 0.0, "lat": 38.898292166666664, "bike_id": "eff48518a8d22059ab1aa5389f3748b0", "type": "electric_scooter", "is_reserved": 0, "lon": -76.94649716666666}, {"fusion_lat": 0.0, "name": "78e989002ebcd5f168aac68f557fb2a8", "is_disabled": 0, "rental_uris": {"android": "https://dc.lft.to/lastmile_qr_scan", "ios": "https://dc.lft.to/lastmile_qr_scan"}, "fusion_lon": 0.0, "lat": 38.902340833333334, "bike_id": "78e989002ebcd5f168aac68f557fb2a8", "type": "electric_scooter", "is_reserved": 0, "lon": -77.00196516666666}, {"fusion_lat": 0.0, "name": "c2f430042d4dedcd33c87d945f1b6a48", "is_disabled": 0, "rental_uris": {"android": "https://dc.lft.to/lastmile_qr_scan", "ios": "https://dc.lft.to/lastmile_qr_scan"}, "fusion_lon": 0.0, "lat": 38.944070833333335, "bike_id": "c2f430042d4dedcd33c87d945f1b6a48", "type": "electric_scooter", "is_reserved": 0, "lon": -77.0320665}, {"fusion_lat": 0.0, "name": "fe5d32c4eb7ba51af1241099d39016be", "is_disabled": 0, "rental_uris": {"android": "https://dc.lft.to/lastmile_qr_scan", "ios": "https://dc.lft.to/lastmile_qr_scan"}, "fusion_lon": 0.0, "lat": 38.927681166666666, "bike_id": "fe5d32c4eb7ba51af1241099d39016be", "type": "electric_scooter", "is_reserved": 0, "lon": -77.01612933333334}, {"fusion_lat": 0.0, "name": "5328779535ed3bf98e2503465ffbab24", "is_disabled": 0, "rental_uris": {"android": "https://dc.lft.to/lastmile_qr_scan", "ios": "https://dc.lft.to/lastmile_qr_scan"}, "fusion_lon": 0.0, "lat": 38.913303, "bike_id": "5328779535ed3bf98e2503465ffbab24", "type": "electric_scooter", "is_reserved": 0, "lon": -77.03198566666667}, {"fusion_lat": 0.0, "name": "a9672a2264caf5f56b8f9b4a8a46ed37", "is_disabled": 0, "rental_uris": {"android": "https://dc.lft.to/lastmile_qr_scan", "ios": "https://dc.lft.to/lastmile_qr_scan"}, "fusion_lon": 0.0, "lat": 38.909651, "bike_id": "a9672a2264caf5f56b8f9b4a8a46ed37", "type": "electric_scooter", "is_reserved": 0, "lon": -77.00896183333333}, {"fusion_lat": 0.0, "name": "ffc1d4227a2ca302ebb2b713d16169d6", "is_disabled": 0, "rental_uris": {"android": "https://dc.lft.to/lastmile_qr_scan", "ios": "https://dc.lft.to/lastmile_qr_scan"}, "fusion_lon": 0.0, "lat": 38.90262633333333, "bike_id": "ffc1d4227a2ca302ebb2b713d16169d6", "type": "electric_bike", "is_reserved": 0, "lon": -77.03745133333334}, {"fusion_lat": 0.0, "name": "26aefe30942f165720cb4b8c38b18665", "is_disabled": 0, "rental_uris": {"android": "https://dc.lft.to/lastmile_qr_scan", "ios": "https://dc.lft.to/lastmile_qr_scan"}, "fusion_lon": 0.0, "lat": 38.92848333333333, "bike_id": "26aefe30942f165720cb4b8c38b18665", "type": "electric_scooter", "is_reserved": 0, "lon": -77.024405}, {"fusion_lat": 0.0, "name": "1624b9e70d982907330f458ec814a9bc", "is_disabled": 0, "rental_uris": {"android": "https://dc.lft.to/lastmile_qr_scan", "ios": "https://dc.lft.to/lastmile_qr_scan"}, "fusion_lon": 0.0, "lat": 38.88768316666667, "bike_id": "1624b9e70d982907330f458ec814a9bc", "type": "electric_scooter", "is_reserved": 0, "lon": -76.97747583333333}, {"fusion_lat": 0.0, "name": "fc4125a94bb9782821ed0069f76ca906", "is_disabled": 0, "rental_uris": {"android": "https://dc.lft.to/lastmile_qr_scan", "ios": "https://dc.lft.to/lastmile_qr_scan"}, "fusion_lon": 0.0, "lat": 38.9213415, "bike_id": "fc4125a94bb9782821ed0069f76ca906", "type": "electric_scooter", "is_reserved": 0, "lon": -77.00958116666666}, {"fusion_lat": 0.0, "name": "bece9e8561be0222bf87b95e4b3e624a", "is_disabled": 0, "rental_uris": {"android": "https://dc.lft.to/lastmile_qr_scan", "ios": "https://dc.lft.to/lastmile_qr_scan"}, "fusion_lon": 0.0, "lat": 38.87716066666667, "bike_id": "bece9e8561be0222bf87b95e4b3e624a", "type": "electric_scooter", "is_reserved": 0, "lon": -77.01756083333333}, {"fusion_lat": 0.0, "name": "b7622507ec9e929c0214b96df51a53df", "is_disabled": 0, "rental_uris": {"android": "https://dc.lft.to/lastmile_qr_scan", "ios": "https://dc.lft.to/lastmile_qr_scan"}, "fusion_lon": 0.0, "lat": 38.9170505, "bike_id": "b7622507ec9e929c0214b96df51a53df", "type": "electric_scooter", "is_reserved": 0, "lon": -77.03215066666667}, {"fusion_lat": 0.0, "name": "c34f66134a03d35b61e2624f05a35f7a", "is_disabled": 0, "rental_uris": {"android": "https://dc.lft.to/lastmile_qr_scan", "ios": "https://dc.lft.to/lastmile_qr_scan"}, "fusion_lon": 0.0, "lat": 38.916623666666666, "bike_id": "c34f66134a03d35b61e2624f05a35f7a", "type": "electric_scooter", "is_reserved": 0, "lon": -77.03857383333333}, {"fusion_lat": 0.0, "name": "e6caedcc88d7558263074711e85b0de4", "is_disabled": 0, "rental_uris": {"android": "https://dc.lft.to/lastmile_qr_scan", "ios": "https://dc.lft.to/lastmile_qr_scan"}, "fusion_lon": 0.0, "lat": 38.88609816666666, "bike_id": "e6caedcc88d7558263074711e85b0de4", "type": "electric_scooter", "is_reserved": 0, "lon": -77.01556066666667}, {"fusion_lat": 0.0, "name": "0aab16e46832913f585a9afeb1af0833", "is_disabled": 0, "rental_uris": {"android": "https://dc.lft.to/lastmile_qr_scan", "ios": "https://dc.lft.to/lastmile_qr_scan"}, "fusion_lon": 0.0, "lat": 38.854598, "bike_id": "0aab16e46832913f585a9afeb1af0833", "type": "electric_scooter", "is_reserved": 0, "lon": -76.972273}, {"fusion_lat": 0.0, "name": "41e2d8c87d9a9b1b120fcb756408a632", "is_disabled": 0, "rental_uris": {"android": "https://dc.lft.to/lastmile_qr_scan", "ios": "https://dc.lft.to/lastmile_qr_scan"}, "fusion_lon": 0.0, "lat": 38.896366666666665, "bike_id": "41e2d8c87d9a9b1b120fcb756408a632", "type": "electric_scooter", "is_reserved": 0, "lon": -77.00918833333333}, {"fusion_lat": 0.0, "name": "28a666a0af7ef09b539ecf5642c0bece", "is_disabled": 0, "rental_uris": {"android": "https://dc.lft.to/lastmile_qr_scan", "ios": "https://dc.lft.to/lastmile_qr_scan"}, "fusion_lon": 0.0, "lat": 38.892307833333334, "bike_id": "28a666a0af7ef09b539ecf5642c0bece", "type": "electric_scooter", "is_reserved": 0, "lon": -77.01712583333334}, {"fusion_lat": 0.0, "name": "8efd31e030d962bc336a623ff80dffd6", "is_disabled": 0, "rental_uris": {"android": "https://dc.lft.to/lastmile_qr_scan", "ios": "https://dc.lft.to/lastmile_qr_scan"}, "fusion_lon": 0.0, "lat": 38.873732833333335, "bike_id": "8efd31e030d962bc336a623ff80dffd6", "type": "electric_scooter", "is_reserved": 0, "lon": -77.00082166666667}, {"fusion_lat": 0.0, "name": "ada8e23c98b8f2aabb2b26821c3e07c9", "is_disabled": 0, "rental_uris": {"android": "https://dc.lft.to/lastmile_qr_scan", "ios": "https://dc.lft.to/lastmile_qr_scan"}, "fusion_lon": 0.0, "lat": 38.96368583333334, "bike_id": "ada8e23c98b8f2aabb2b26821c3e07c9", "type": "electric_scooter", "is_reserved": 0, "lon": -77.02047716666667}, {"fusion_lat": 0.0, "name": "84fcc9d67a9102511ec1250f86968cb0", "is_disabled": 0, "rental_uris": {"android": "https://dc.lft.to/lastmile_qr_scan", "ios": "https://dc.lft.to/lastmile_qr_scan"}, "fusion_lon": 0.0, "lat": 38.88472683333333, "bike_id": "84fcc9d67a9102511ec1250f86968cb0", "type": "electric_scooter", "is_reserved": 0, "lon": -76.99605483333333}, {"fusion_lat": 0.0, "name": "973245127b20dbb08155e0b0acba9293", "is_disabled": 0, "rental_uris": {"android": "https://dc.lft.to/lastmile_qr_scan", "ios": "https://dc.lft.to/lastmile_qr_scan"}, "fusion_lon": 0.0, "lat": 38.91804283333333, "bike_id": "973245127b20dbb08155e0b0acba9293", "type": "electric_scooter", "is_reserved": 0, "lon": -76.99980966666666}, {"fusion_lat": 0.0, "name": "7953cbb3f80b264850a8553a652147d1", "is_disabled": 0, "rental_uris": {"android": "https://dc.lft.to/lastmile_qr_scan", "ios": "https://dc.lft.to/lastmile_qr_scan"}, "fusion_lon": 0.0, "lat": 38.94703166666667, "bike_id": "7953cbb3f80b264850a8553a652147d1", "type": "electric_scooter", "is_reserved": 0, "lon": -77.01940666666667}, {"fusion_lat": 0.0, "name": "d47250adb0c94de633047be4f3929553", "is_disabled": 0, "rental_uris": {"android": "https://dc.lft.to/lastmile_qr_scan", "ios": "https://dc.lft.to/lastmile_qr_scan"}, "fusion_lon": 0.0, "lat": 38.931929, "bike_id": "d47250adb0c94de633047be4f3929553", "type": "electric_scooter", "is_reserved": 0, "lon": -77.0429755}, {"fusion_lat": 0.0, "name": "71616473e0940c03e89154a05d446dd3", "is_disabled": 0, "rental_uris": {"android": "https://dc.lft.to/lastmile_qr_scan", "ios": "https://dc.lft.to/lastmile_qr_scan"}, "fusion_lon": 0.0, "lat": 38.961179, "bike_id": "71616473e0940c03e89154a05d446dd3", "type": "electric_scooter", "is_reserved": 0, "lon": -77.0286685}, {"fusion_lat": 0.0, "name": "d94b727c55d815c7a458d71a34a95742", "is_disabled": 0, "rental_uris": {"android": "https://dc.lft.to/lastmile_qr_scan", "ios": "https://dc.lft.to/lastmile_qr_scan"}, "fusion_lon": 0.0, "lat": 38.8922125, "bike_id": "d94b727c55d815c7a458d71a34a95742", "type": "electric_scooter", "is_reserved": 0, "lon": -77.04123366666667}, {"fusion_lat": 0.0, "name": "c00ba5838a232b289f81eda540b0f210", "is_disabled": 0, "rental_uris": {"android": "https://dc.lft.to/lastmile_qr_scan", "ios": "https://dc.lft.to/lastmile_qr_scan"}, "fusion_lon": 0.0, "lat": 38.920820666666664, "bike_id": "c00ba5838a232b289f81eda540b0f210", "type": "electric_scooter", "is_reserved": 0, "lon": -77.004585}, {"fusion_lat": 0.0, "name": "0803ecb5a8e649a9b5a99ceffa2aeac1", "is_disabled": 0, "rental_uris": {"android": "https://dc.lft.to/lastmile_qr_scan", "ios": "https://dc.lft.to/lastmile_qr_scan"}, "fusion_lon": 0.0, "lat": 38.929511833333336, "bike_id": "0803ecb5a8e649a9b5a99ceffa2aeac1", "type": "electric_scooter", "is_reserved": 0, "lon": -77.044043}, {"fusion_lat": 0.0, "name": "24be8d38a2434b6b7a1f8296e4f64c32", "is_disabled": 0, "rental_uris": {"android": "https://dc.lft.to/lastmile_qr_scan", "ios": "https://dc.lft.to/lastmile_qr_scan"}, "fusion_lon": 0.0, "lat": 38.916932833333334, "bike_id": "24be8d38a2434b6b7a1f8296e4f64c32", "type": "electric_scooter", "is_reserved": 0, "lon": -77.03758983333333}, {"fusion_lat": 0.0, "name": "718743e8bf0def251df2394025ce4c31", "is_disabled": 0, "rental_uris": {"android": "https://dc.lft.to/lastmile_qr_scan", "ios": "https://dc.lft.to/lastmile_qr_scan"}, "fusion_lon": 0.0, "lat": 38.88508733333333, "bike_id": "718743e8bf0def251df2394025ce4c31", "type": "electric_scooter", "is_reserved": 0, "lon": -76.92953266666666}, {"fusion_lat": 0.0, "name": "e0626da469cd7827382c164000dc001d", "is_disabled": 0, "rental_uris": {"android": "https://dc.lft.to/lastmile_qr_scan", "ios": "https://dc.lft.to/lastmile_qr_scan"}, "fusion_lon": 0.0, "lat": 38.884558, "bike_id": "e0626da469cd7827382c164000dc001d", "type": "electric_scooter", "is_reserved": 0, "lon": -76.9982905}, {"fusion_lat": 0.0, "name": "fa4882d804f5961db7468c5d0d46a1a2", "is_disabled": 0, "rental_uris": {"android": "https://dc.lft.to/lastmile_qr_scan", "ios": "https://dc.lft.to/lastmile_qr_scan"}, "fusion_lon": 0.0, "lat": 38.93294066666667, "bike_id": "fa4882d804f5961db7468c5d0d46a1a2", "type": "electric_scooter", "is_reserved": 0, "lon": -77.024692}, {"fusion_lat": 0.0, "name": "4e632da21ab0c0d5a715ed9b5a3fae28", "is_disabled": 0, "rental_uris": {"android": "https://dc.lft.to/lastmile_qr_scan", "ios": "https://dc.lft.to/lastmile_qr_scan"}, "fusion_lon": 0.0, "lat": 38.91919583333333, "bike_id": "4e632da21ab0c0d5a715ed9b5a3fae28", "type": "electric_scooter", "is_reserved": 0, "lon": -77.033071}, {"fusion_lat": 0.0, "name": "6a1914ff0ebf3bbccda09702987037ec", "is_disabled": 0, "rental_uris": {"android": "https://dc.lft.to/lastmile_qr_scan", "ios": "https://dc.lft.to/lastmile_qr_scan"}, "fusion_lon": 0.0, "lat": 38.9377615, "bike_id": "6a1914ff0ebf3bbccda09702987037ec", "type": "electric_scooter", "is_reserved": 0, "lon": -77.02465716666667}, {"fusion_lat": 0.0, "name": "cfe958b50fb02bd8f921b5aaec839c26", "is_disabled": 0, "rental_uris": {"android": "https://dc.lft.to/lastmile_qr_scan", "ios": "https://dc.lft.to/lastmile_qr_scan"}, "fusion_lon": 0.0, "lat": 38.9176345, "bike_id": "cfe958b50fb02bd8f921b5aaec839c26", "type": "electric_scooter", "is_reserved": 0, "lon": -77.01518183333333}, {"fusion_lat": 0.0, "name": "f53b93bbc71a5f50a3b66b17a32677c6", "is_disabled": 0, "rental_uris": {"android": "https://dc.lft.to/lastmile_qr_scan", "ios": "https://dc.lft.to/lastmile_qr_scan"}, "fusion_lon": 0.0, "lat": 38.958992333333335, "bike_id": "f53b93bbc71a5f50a3b66b17a32677c6", "type": "electric_bike", "is_reserved": 0, "lon": -77.00268333333334}, {"fusion_lat": 0.0, "name": "3fed1053b6914e1f3ad30dbb8f4b4ae2", "is_disabled": 0, "rental_uris": {"android": "https://dc.lft.to/lastmile_qr_scan", "ios": "https://dc.lft.to/lastmile_qr_scan"}, "fusion_lon": 0.0, "lat": 38.918509, "bike_id": "3fed1053b6914e1f3ad30dbb8f4b4ae2", "type": "electric_scooter", "is_reserved": 0, "lon": -77.0270765}, {"fusion_lat": 0.0, "name": "5f45dd09ac457f4849609a60b019eafa", "is_disabled": 0, "rental_uris": {"android": "https://dc.lft.to/lastmile_qr_scan", "ios": "https://dc.lft.to/lastmile_qr_scan"}, "fusion_lon": 0.0, "lat": 38.90821716666667, "bike_id": "5f45dd09ac457f4849609a60b019eafa", "type": "electric_scooter", "is_reserved": 0, "lon": -77.05494033333333}, {"fusion_lat": 0.0, "name": "632fa491270f76fceac225be5a245271", "is_disabled": 0, "rental_uris": {"android": "https://dc.lft.to/lastmile_qr_scan", "ios": "https://dc.lft.to/lastmile_qr_scan"}, "fusion_lon": 0.0, "lat": 38.92219633333333, "bike_id": "632fa491270f76fceac225be5a245271", "type": "electric_scooter", "is_reserved": 0, "lon": -77.04331783333333}, {"fusion_lat": 0.0, "name": "d64f8f4ad54c928323c034387d0d805f", "is_disabled": 0, "rental_uris": {"android": "https://dc.lft.to/lastmile_qr_scan", "ios": "https://dc.lft.to/lastmile_qr_scan"}, "fusion_lon": 0.0, "lat": 38.98280233333333, "bike_id": "d64f8f4ad54c928323c034387d0d805f", "type": "electric_scooter", "is_reserved": 0, "lon": -77.02643316666666}, {"fusion_lat": 0.0, "name": "019eb2c527e346a2477452242fa146b5", "is_disabled": 0, "rental_uris": {"android": "https://dc.lft.to/lastmile_qr_scan", "ios": "https://dc.lft.to/lastmile_qr_scan"}, "fusion_lon": 0.0, "lat": 38.95113716666667, "bike_id": "019eb2c527e346a2477452242fa146b5", "type": "electric_scooter", "is_reserved": 0, "lon": -77.01367916666666}, {"fusion_lat": 0.0, "name": "8ff5d4fca9bdbfc5162d59ffb5941db5", "is_disabled": 0, "rental_uris": {"android": "https://dc.lft.to/lastmile_qr_scan", "ios": "https://dc.lft.to/lastmile_qr_scan"}, "fusion_lon": 0.0, "lat": 38.90571683333334, "bike_id": "8ff5d4fca9bdbfc5162d59ffb5941db5", "type": "electric_scooter", "is_reserved": 0, "lon": -77.03444283333333}, {"fusion_lat": 0.0, "name": "83fff07ac3ade845793b951eb99b95f4", "is_disabled": 0, "rental_uris": {"android": "https://dc.lft.to/lastmile_qr_scan", "ios": "https://dc.lft.to/lastmile_qr_scan"}, "fusion_lon": 0.0, "lat": 38.873852, "bike_id": "83fff07ac3ade845793b951eb99b95f4", "type": "electric_scooter", "is_reserved": 0, "lon": -77.000598}, {"fusion_lat": 0.0, "name": "294f78e3b29da79b0d221aa0abde0325", "is_disabled": 0, "rental_uris": {"android": "https://dc.lft.to/lastmile_qr_scan", "ios": "https://dc.lft.to/lastmile_qr_scan"}, "fusion_lon": 0.0, "lat": 38.91590766666667, "bike_id": "294f78e3b29da79b0d221aa0abde0325", "type": "electric_scooter", "is_reserved": 0, "lon": -77.04650366666667}, {"fusion_lat": 0.0, "name": "20b27502677796ee4d3f8644b3f54cfa", "is_disabled": 0, "rental_uris": {"android": "https://dc.lft.to/lastmile_qr_scan", "ios": "https://dc.lft.to/lastmile_qr_scan"}, "fusion_lon": 0.0, "lat": 38.8676475, "bike_id": "20b27502677796ee4d3f8644b3f54cfa", "type": "electric_scooter", "is_reserved": 0, "lon": -76.9827265}, {"fusion_lat": 0.0, "name": "66a7555779c6576c82f3aa75f50b1193", "is_disabled": 0, "rental_uris": {"android": "https://dc.lft.to/lastmile_qr_scan", "ios": "https://dc.lft.to/lastmile_qr_scan"}, "fusion_lon": 0.0, "lat": 38.916290833333335, "bike_id": "66a7555779c6576c82f3aa75f50b1193", "type": "electric_scooter", "is_reserved": 0, "lon": -77.04540383333334}, {"fusion_lat": 0.0, "name": "3a52c5ed8afcffe3f59daac566e008bf", "is_disabled": 0, "rental_uris": {"android": "https://dc.lft.to/lastmile_qr_scan", "ios": "https://dc.lft.to/lastmile_qr_scan"}, "fusion_lon": 0.0, "lat": 38.8890715, "bike_id": "3a52c5ed8afcffe3f59daac566e008bf", "type": "electric_scooter", "is_reserved": 0, "lon": -76.977334}, {"fusion_lat": 0.0, "name": "faae0f18ddcdba7fcd2ca3bd59b99c10", "is_disabled": 0, "rental_uris": {"android": "https://dc.lft.to/lastmile_qr_scan", "ios": "https://dc.lft.to/lastmile_qr_scan"}, "fusion_lon": 0.0, "lat": 38.928081666666664, "bike_id": "faae0f18ddcdba7fcd2ca3bd59b99c10", "type": "electric_scooter", "is_reserved": 0, "lon": -77.02397133333334}, {"fusion_lat": 0.0, "name": "d6864ee7592685e80e362ccfdcdc6bc6", "is_disabled": 0, "rental_uris": {"android": "https://dc.lft.to/lastmile_qr_scan", "ios": "https://dc.lft.to/lastmile_qr_scan"}, "fusion_lon": 0.0, "lat": 38.92830683333333, "bike_id": "d6864ee7592685e80e362ccfdcdc6bc6", "type": "electric_scooter", "is_reserved": 0, "lon": -77.03284416666666}, {"fusion_lat": 0.0, "name": "88702210bb21938d288c66e9ecdf35f5", "is_disabled": 0, "rental_uris": {"android": "https://dc.lft.to/lastmile_qr_scan", "ios": "https://dc.lft.to/lastmile_qr_scan"}, "fusion_lon": 0.0, "lat": 38.92253983333333, "bike_id": "88702210bb21938d288c66e9ecdf35f5", "type": "electric_scooter", "is_reserved": 0, "lon": -77.04209466666667}, {"fusion_lat": 0.0, "name": "9e2c2f749800d927775f3917a5bea3ff", "is_disabled": 0, "rental_uris": {"android": "https://dc.lft.to/lastmile_qr_scan", "ios": "https://dc.lft.to/lastmile_qr_scan"}, "fusion_lon": 0.0, "lat": 38.9040145, "bike_id": "9e2c2f749800d927775f3917a5bea3ff", "type": "electric_scooter", "is_reserved": 0, "lon": -77.03856083333334}, {"fusion_lat": 0.0, "name": "95d77f7fe0e940678c1c39bf0ecd5349", "is_disabled": 0, "rental_uris": {"android": "https://dc.lft.to/lastmile_qr_scan", "ios": "https://dc.lft.to/lastmile_qr_scan"}, "fusion_lon": 0.0, "lat": 38.935250833333335, "bike_id": "95d77f7fe0e940678c1c39bf0ecd5349", "type": "electric_scooter", "is_reserved": 0, "lon": -77.03646133333334}, {"fusion_lat": 0.0, "name": "cc9252876370c89afe3067aa32b0e28d", "is_disabled": 0, "rental_uris": {"android": "https://dc.lft.to/lastmile_qr_scan", "ios": "https://dc.lft.to/lastmile_qr_scan"}, "fusion_lon": 0.0, "lat": 38.92412516666667, "bike_id": "cc9252876370c89afe3067aa32b0e28d", "type": "electric_scooter", "is_reserved": 0, "lon": -77.05061066666667}, {"fusion_lat": 0.0, "name": "30fdac92887a5325d9a7c30e7059881f", "is_disabled": 0, "rental_uris": {"android": "https://dc.lft.to/lastmile_qr_scan", "ios": "https://dc.lft.to/lastmile_qr_scan"}, "fusion_lon": 0.0, "lat": 38.85309616666667, "bike_id": "30fdac92887a5325d9a7c30e7059881f", "type": "electric_bike", "is_reserved": 0, "lon": -77.04613783333333}, {"fusion_lat": 0.0, "name": "6ed24b6b6b7b7df8c86c8ae1c476544d", "is_disabled": 0, "rental_uris": {"android": "https://dc.lft.to/lastmile_qr_scan", "ios": "https://dc.lft.to/lastmile_qr_scan"}, "fusion_lon": 0.0, "lat": 38.899973, "bike_id": "6ed24b6b6b7b7df8c86c8ae1c476544d", "type": "electric_scooter", "is_reserved": 0, "lon": -76.93162366666667}, {"fusion_lat": 0.0, "name": "f4130ddb2a82867a76de253b95fe0fa9", "is_disabled": 0, "rental_uris": {"android": "https://dc.lft.to/lastmile_qr_scan", "ios": "https://dc.lft.to/lastmile_qr_scan"}, "fusion_lon": 0.0, "lat": 38.909740166666666, "bike_id": "f4130ddb2a82867a76de253b95fe0fa9", "type": "electric_scooter", "is_reserved": 0, "lon": -77.04480466666666}, {"fusion_lat": 0.0, "name": "c1e308c04ff51579fa0ddb68090c85ab", "is_disabled": 0, "rental_uris": {"android": "https://dc.lft.to/lastmile_qr_scan", "ios": "https://dc.lft.to/lastmile_qr_scan"}, "fusion_lon": 0.0, "lat": 38.90427666666667, "bike_id": "c1e308c04ff51579fa0ddb68090c85ab", "type": "electric_scooter", "is_reserved": 0, "lon": -77.0383965}, {"fusion_lat": 0.0, "name": "9fa7a66ab2eb5ba33257fcdfabc1339b", "is_disabled": 0, "rental_uris": {"android": "https://dc.lft.to/lastmile_qr_scan", "ios": "https://dc.lft.to/lastmile_qr_scan"}, "fusion_lon": 0.0, "lat": 38.842817333333336, "bike_id": "9fa7a66ab2eb5ba33257fcdfabc1339b", "type": "electric_bike", "is_reserved": 0, "lon": -77.0450745}, {"fusion_lat": 0.0, "name": "7da46ed9eafd5bcbda285fb498855ec8", "is_disabled": 0, "rental_uris": {"android": "https://dc.lft.to/lastmile_qr_scan", "ios": "https://dc.lft.to/lastmile_qr_scan"}, "fusion_lon": 0.0, "lat": 38.900211, "bike_id": "7da46ed9eafd5bcbda285fb498855ec8", "type": "electric_scooter", "is_reserved": 0, "lon": -77.00721683333333}, {"fusion_lat": 0.0, "name": "2081ab859c8e9bf7140432905a3d3bf7", "is_disabled": 0, "rental_uris": {"android": "https://dc.lft.to/lastmile_qr_scan", "ios": "https://dc.lft.to/lastmile_qr_scan"}, "fusion_lon": 0.0, "lat": 38.89736633333333, "bike_id": "2081ab859c8e9bf7140432905a3d3bf7", "type": "electric_scooter", "is_reserved": 0, "lon": -77.04351266666667}, {"fusion_lat": 0.0, "name": "548dd101aca448683f5896c1ab4a0d53", "is_disabled": 0, "rental_uris": {"android": "https://dc.lft.to/lastmile_qr_scan", "ios": "https://dc.lft.to/lastmile_qr_scan"}, "fusion_lon": 0.0, "lat": 38.927477333333336, "bike_id": "548dd101aca448683f5896c1ab4a0d53", "type": "electric_scooter", "is_reserved": 0, "lon": -77.02431616666667}, {"fusion_lat": 0.0, "name": "516b464c18b63ed6068f2f90cf800988", "is_disabled": 0, "rental_uris": {"android": "https://dc.lft.to/lastmile_qr_scan", "ios": "https://dc.lft.to/lastmile_qr_scan"}, "fusion_lon": 0.0, "lat": 38.899162, "bike_id": "516b464c18b63ed6068f2f90cf800988", "type": "electric_scooter", "is_reserved": 0, "lon": -77.00363983333334}, {"fusion_lat": 0.0, "name": "2dbcaf1e97abd44370ad64f30b3ceb1b", "is_disabled": 0, "rental_uris": {"android": "https://dc.lft.to/lastmile_qr_scan", "ios": "https://dc.lft.to/lastmile_qr_scan"}, "fusion_lon": 0.0, "lat": 39.05254383333333, "bike_id": "2dbcaf1e97abd44370ad64f30b3ceb1b", "type": "electric_bike", "is_reserved": 0, "lon": -77.08066466666666}, {"fusion_lat": 0.0, "name": "3ab4b723568069aaa44846ab39a0052f", "is_disabled": 0, "rental_uris": {"android": "https://dc.lft.to/lastmile_qr_scan", "ios": "https://dc.lft.to/lastmile_qr_scan"}, "fusion_lon": 0.0, "lat": 38.8832805, "bike_id": "3ab4b723568069aaa44846ab39a0052f", "type": "electric_scooter", "is_reserved": 0, "lon": -77.0176375}, {"fusion_lat": 0.0, "name": "76fcd26a120774e7f95147d24ba1583a", "is_disabled": 0, "rental_uris": {"android": "https://dc.lft.to/lastmile_qr_scan", "ios": "https://dc.lft.to/lastmile_qr_scan"}, "fusion_lon": 0.0, "lat": 38.912755, "bike_id": "76fcd26a120774e7f95147d24ba1583a", "type": "electric_scooter", "is_reserved": 0, "lon": -77.00149366666666}, {"fusion_lat": 0.0, "name": "b446bbff758acd370c6efc4fdfd741fe", "is_disabled": 0, "rental_uris": {"android": "https://dc.lft.to/lastmile_qr_scan", "ios": "https://dc.lft.to/lastmile_qr_scan"}, "fusion_lon": 0.0, "lat": 38.90811216666667, "bike_id": "b446bbff758acd370c6efc4fdfd741fe", "type": "electric_scooter", "is_reserved": 0, "lon": -77.034229}, {"fusion_lat": 0.0, "name": "8834f809850b85fe0adcc4b680f81c00", "is_disabled": 0, "rental_uris": {"android": "https://dc.lft.to/lastmile_qr_scan", "ios": "https://dc.lft.to/lastmile_qr_scan"}, "fusion_lon": 0.0, "lat": 38.8962115, "bike_id": "8834f809850b85fe0adcc4b680f81c00", "type": "electric_scooter", "is_reserved": 0, "lon": -77.0091025}, {"fusion_lat": 0.0, "name": "2b49b3f956707780993f14dbcf73cf3e", "is_disabled": 0, "rental_uris": {"android": "https://dc.lft.to/lastmile_qr_scan", "ios": "https://dc.lft.to/lastmile_qr_scan"}, "fusion_lon": 0.0, "lat": 38.935224166666664, "bike_id": "2b49b3f956707780993f14dbcf73cf3e", "type": "electric_scooter", "is_reserved": 0, "lon": -77.07261283333334}, {"fusion_lat": 0.0, "name": "20d0057ed51eb871f683e53c3b2598a9", "is_disabled": 0, "rental_uris": {"android": "https://dc.lft.to/lastmile_qr_scan", "ios": "https://dc.lft.to/lastmile_qr_scan"}, "fusion_lon": 0.0, "lat": 38.89872966666667, "bike_id": "20d0057ed51eb871f683e53c3b2598a9", "type": "electric_scooter", "is_reserved": 0, "lon": -76.931834}, {"fusion_lat": 0.0, "name": "8b2158e8d30c3f94986f3ee985557eec", "is_disabled": 0, "rental_uris": {"android": "https://dc.lft.to/lastmile_qr_scan", "ios": "https://dc.lft.to/lastmile_qr_scan"}, "fusion_lon": 0.0, "lat": 38.86242433333334, "bike_id": "8b2158e8d30c3f94986f3ee985557eec", "type": "electric_scooter", "is_reserved": 0, "lon": -76.99498466666667}, {"fusion_lat": 0.0, "name": "7379691ba6c1331744c2353d8eb570fb", "is_disabled": 0, "rental_uris": {"android": "https://dc.lft.to/lastmile_qr_scan", "ios": "https://dc.lft.to/lastmile_qr_scan"}, "fusion_lon": 0.0, "lat": 38.88329866666667, "bike_id": "7379691ba6c1331744c2353d8eb570fb", "type": "electric_scooter", "is_reserved": 0, "lon": -77.0173165}, {"fusion_lat": 0.0, "name": "499d03c6dd6cf584948188c6d64f4f12", "is_disabled": 0, "rental_uris": {"android": "https://dc.lft.to/lastmile_qr_scan", "ios": "https://dc.lft.to/lastmile_qr_scan"}, "fusion_lon": 0.0, "lat": 38.902684, "bike_id": "499d03c6dd6cf584948188c6d64f4f12", "type": "electric_scooter", "is_reserved": 0, "lon": -77.0197635}, {"fusion_lat": 0.0, "name": "c4906c7457fa8aa0a08b19849e49bc42", "is_disabled": 0, "rental_uris": {"android": "https://dc.lft.to/lastmile_qr_scan", "ios": "https://dc.lft.to/lastmile_qr_scan"}, "fusion_lon": 0.0, "lat": 38.87395316666667, "bike_id": "c4906c7457fa8aa0a08b19849e49bc42", "type": "electric_scooter", "is_reserved": 0, "lon": -76.99997133333333}, {"fusion_lat": 0.0, "name": "34149120eea2199a5af5229c359b5daa", "is_disabled": 0, "rental_uris": {"android": "https://dc.lft.to/lastmile_qr_scan", "ios": "https://dc.lft.to/lastmile_qr_scan"}, "fusion_lon": 0.0, "lat": 38.927068, "bike_id": "34149120eea2199a5af5229c359b5daa", "type": "electric_scooter", "is_reserved": 0, "lon": -77.02080933333333}, {"fusion_lat": 0.0, "name": "9b7983963ee5139badf9d4ca309523da", "is_disabled": 0, "rental_uris": {"android": "https://dc.lft.to/lastmile_qr_scan", "ios": "https://dc.lft.to/lastmile_qr_scan"}, "fusion_lon": 0.0, "lat": 38.9005655, "bike_id": "9b7983963ee5139badf9d4ca309523da", "type": "electric_scooter", "is_reserved": 0, "lon": -76.98718933333333}, {"fusion_lat": 0.0, "name": "d2666f8cecbf46e7171fb416af361287", "is_disabled": 0, "rental_uris": {"android": "https://dc.lft.to/lastmile_qr_scan", "ios": "https://dc.lft.to/lastmile_qr_scan"}, "fusion_lon": 0.0, "lat": 38.8850305, "bike_id": "d2666f8cecbf46e7171fb416af361287", "type": "electric_scooter", "is_reserved": 0, "lon": -76.99754266666666}, {"fusion_lat": 0.0, "name": "354ecab7b9b6f0e8124ac4804ef5e185", "is_disabled": 0, "rental_uris": {"android": "https://dc.lft.to/lastmile_qr_scan", "ios": "https://dc.lft.to/lastmile_qr_scan"}, "fusion_lon": 0.0, "lat": 38.88716, "bike_id": "354ecab7b9b6f0e8124ac4804ef5e185", "type": "electric_scooter", "is_reserved": 0, "lon": -77.02206283333334}, {"fusion_lat": 0.0, "name": "3b71d4dc1cd4df31410af5746ac2320e", "is_disabled": 0, "rental_uris": {"android": "https://dc.lft.to/lastmile_qr_scan", "ios": "https://dc.lft.to/lastmile_qr_scan"}, "fusion_lon": 0.0, "lat": 38.905985, "bike_id": "3b71d4dc1cd4df31410af5746ac2320e", "type": "electric_scooter", "is_reserved": 0, "lon": -77.0450205}, {"fusion_lat": 0.0, "name": "ecce1b3532c7c4b27ecb74337afadda3", "is_disabled": 0, "rental_uris": {"android": "https://dc.lft.to/lastmile_qr_scan", "ios": "https://dc.lft.to/lastmile_qr_scan"}, "fusion_lon": 0.0, "lat": 38.849114166666666, "bike_id": "ecce1b3532c7c4b27ecb74337afadda3", "type": "electric_bike", "is_reserved": 0, "lon": -77.07923183333334}, {"fusion_lat": 0.0, "name": "c24ff9d2861b54364188e92b60d167b4", "is_disabled": 0, "rental_uris": {"android": "https://dc.lft.to/lastmile_qr_scan", "ios": "https://dc.lft.to/lastmile_qr_scan"}, "fusion_lon": 0.0, "lat": 38.8160665, "bike_id": "c24ff9d2861b54364188e92b60d167b4", "type": "electric_bike", "is_reserved": 0, "lon": -76.99661266666666}, {"fusion_lat": 0.0, "name": "854c8e99462e83beb75beeed727cbc53", "is_disabled": 0, "rental_uris": {"android": "https://dc.lft.to/lastmile_qr_scan", "ios": "https://dc.lft.to/lastmile_qr_scan"}, "fusion_lon": 0.0, "lat": 38.904214333333336, "bike_id": "854c8e99462e83beb75beeed727cbc53", "type": "electric_scooter", "is_reserved": 0, "lon": -77.02668966666667}, {"fusion_lat": 0.0, "name": "31bca9db99ca7aaaa4c1e3db33e29abf", "is_disabled": 0, "rental_uris": {"android": "https://dc.lft.to/lastmile_qr_scan", "ios": "https://dc.lft.to/lastmile_qr_scan"}, "fusion_lon": 0.0, "lat": 39.014169833333334, "bike_id": "31bca9db99ca7aaaa4c1e3db33e29abf", "type": "electric_bike", "is_reserved": 0, "lon": -77.04497}, {"fusion_lat": 0.0, "name": "eedf8570a17d6fb5343b88b8d4dce7a5", "is_disabled": 0, "rental_uris": {"android": "https://dc.lft.to/lastmile_qr_scan", "ios": "https://dc.lft.to/lastmile_qr_scan"}, "fusion_lon": 0.0, "lat": 38.90026433333333, "bike_id": "eedf8570a17d6fb5343b88b8d4dce7a5", "type": "electric_scooter", "is_reserved": 0, "lon": -77.00031383333334}, {"fusion_lat": 0.0, "name": "451e4de9d4ada922d56f6bd324e4de77", "is_disabled": 0, "rental_uris": {"android": "https://dc.lft.to/lastmile_qr_scan", "ios": "https://dc.lft.to/lastmile_qr_scan"}, "fusion_lon": 0.0, "lat": 38.9251045, "bike_id": "451e4de9d4ada922d56f6bd324e4de77", "type": "electric_scooter", "is_reserved": 0, "lon": -77.0021705}, {"fusion_lat": 0.0, "name": "06e1aaef84fdc9ca091b58eeaa889376", "is_disabled": 0, "rental_uris": {"android": "https://dc.lft.to/lastmile_qr_scan", "ios": "https://dc.lft.to/lastmile_qr_scan"}, "fusion_lon": 0.0, "lat": 38.906144166666664, "bike_id": "06e1aaef84fdc9ca091b58eeaa889376", "type": "electric_scooter", "is_reserved": 0, "lon": -77.056921}, {"fusion_lat": 0.0, "name": "294868e7c18edd42e461e938fda72ffb", "is_disabled": 0, "rental_uris": {"android": "https://dc.lft.to/lastmile_qr_scan", "ios": "https://dc.lft.to/lastmile_qr_scan"}, "fusion_lon": 0.0, "lat": 38.9064395, "bike_id": "294868e7c18edd42e461e938fda72ffb", "type": "electric_scooter", "is_reserved": 0, "lon": -77.0114155}, {"fusion_lat": 0.0, "name": "8885c12cb8fb014e7396fa2fb3994ffc", "is_disabled": 0, "rental_uris": {"android": "https://dc.lft.to/lastmile_qr_scan", "ios": "https://dc.lft.to/lastmile_qr_scan"}, "fusion_lon": 0.0, "lat": 38.92508266666667, "bike_id": "8885c12cb8fb014e7396fa2fb3994ffc", "type": "electric_scooter", "is_reserved": 0, "lon": -77.00225283333333}, {"fusion_lat": 0.0, "name": "426af6a6bed5dabefba4c9f1f7eef9f1", "is_disabled": 0, "rental_uris": {"android": "https://dc.lft.to/lastmile_qr_scan", "ios": "https://dc.lft.to/lastmile_qr_scan"}, "fusion_lon": 0.0, "lat": 38.92317516666667, "bike_id": "426af6a6bed5dabefba4c9f1f7eef9f1", "type": "electric_scooter", "is_reserved": 0, "lon": -77.0213265}, {"fusion_lat": 0.0, "name": "0c26ef27369b9a35932a3f4ca26fb030", "is_disabled": 0, "rental_uris": {"android": "https://dc.lft.to/lastmile_qr_scan", "ios": "https://dc.lft.to/lastmile_qr_scan"}, "fusion_lon": 0.0, "lat": 38.9170605, "bike_id": "0c26ef27369b9a35932a3f4ca26fb030", "type": "electric_scooter", "is_reserved": 0, "lon": -77.040355}, {"fusion_lat": 0.0, "name": "0aa7cdd724851f3e62b1840a961188c5", "is_disabled": 0, "rental_uris": {"android": "https://dc.lft.to/lastmile_qr_scan", "ios": "https://dc.lft.to/lastmile_qr_scan"}, "fusion_lon": 0.0, "lat": 38.85552466666667, "bike_id": "0aa7cdd724851f3e62b1840a961188c5", "type": "electric_scooter", "is_reserved": 0, "lon": -76.98758016666666}, {"fusion_lat": 0.0, "name": "7504bf52b97fa14013eaf6616deb3935", "is_disabled": 0, "rental_uris": {"android": "https://dc.lft.to/lastmile_qr_scan", "ios": "https://dc.lft.to/lastmile_qr_scan"}, "fusion_lon": 0.0, "lat": 38.84086833333333, "bike_id": "7504bf52b97fa14013eaf6616deb3935", "type": "electric_bike", "is_reserved": 0, "lon": -76.970285}, {"fusion_lat": 0.0, "name": "a5bea5c1cb724d91dd7bb40ad92e0127", "is_disabled": 0, "rental_uris": {"android": "https://dc.lft.to/lastmile_qr_scan", "ios": "https://dc.lft.to/lastmile_qr_scan"}, "fusion_lon": 0.0, "lat": 38.925067166666665, "bike_id": "a5bea5c1cb724d91dd7bb40ad92e0127", "type": "electric_scooter", "is_reserved": 0, "lon": -77.02165683333334}, {"fusion_lat": 0.0, "name": "2d33e0cb41d59e226f3ef1131782a24c", "is_disabled": 0, "rental_uris": {"android": "https://dc.lft.to/lastmile_qr_scan", "ios": "https://dc.lft.to/lastmile_qr_scan"}, "fusion_lon": 0.0, "lat": 38.938387666666664, "bike_id": "2d33e0cb41d59e226f3ef1131782a24c", "type": "electric_scooter", "is_reserved": 0, "lon": -77.062449}, {"fusion_lat": 0.0, "name": "6961a15d9802c7b1fe9402444af3da51", "is_disabled": 0, "rental_uris": {"android": "https://dc.lft.to/lastmile_qr_scan", "ios": "https://dc.lft.to/lastmile_qr_scan"}, "fusion_lon": 0.0, "lat": 38.903067166666666, "bike_id": "6961a15d9802c7b1fe9402444af3da51", "type": "electric_scooter", "is_reserved": 0, "lon": -77.04500166666666}, {"fusion_lat": 0.0, "name": "71452d8682a68a76880cbd1f6061e89c", "is_disabled": 0, "rental_uris": {"android": "https://dc.lft.to/lastmile_qr_scan", "ios": "https://dc.lft.to/lastmile_qr_scan"}, "fusion_lon": 0.0, "lat": 38.91995033333333, "bike_id": "71452d8682a68a76880cbd1f6061e89c", "type": "electric_scooter", "is_reserved": 0, "lon": -77.07113333333334}, {"fusion_lat": 0.0, "name": "3eb553b7520ac1635ea69338708d0d7d", "is_disabled": 0, "rental_uris": {"android": "https://dc.lft.to/lastmile_qr_scan", "ios": "https://dc.lft.to/lastmile_qr_scan"}, "fusion_lon": 0.0, "lat": 38.9532935, "bike_id": "3eb553b7520ac1635ea69338708d0d7d", "type": "electric_bike", "is_reserved": 0, "lon": -76.98253916666667}, {"fusion_lat": 0.0, "name": "5f52d2c7bc6008a8b5ea3148ddb6b8cb", "is_disabled": 0, "rental_uris": {"android": "https://dc.lft.to/lastmile_qr_scan", "ios": "https://dc.lft.to/lastmile_qr_scan"}, "fusion_lon": 0.0, "lat": 38.9112385, "bike_id": "5f52d2c7bc6008a8b5ea3148ddb6b8cb", "type": "electric_scooter", "is_reserved": 0, "lon": -77.03643733333334}, {"fusion_lat": 0.0, "name": "1cc837b80ebe6f2925bab11f442692c0", "is_disabled": 0, "rental_uris": {"android": "https://dc.lft.to/lastmile_qr_scan", "ios": "https://dc.lft.to/lastmile_qr_scan"}, "fusion_lon": 0.0, "lat": 38.940545666666665, "bike_id": "1cc837b80ebe6f2925bab11f442692c0", "type": "electric_bike", "is_reserved": 0, "lon": -76.904194}, {"fusion_lat": 0.0, "name": "8b0ae1a4ed3c69a05a9bb0c6770d5f49", "is_disabled": 0, "rental_uris": {"android": "https://dc.lft.to/lastmile_qr_scan", "ios": "https://dc.lft.to/lastmile_qr_scan"}, "fusion_lon": 0.0, "lat": 38.892290833333334, "bike_id": "8b0ae1a4ed3c69a05a9bb0c6770d5f49", "type": "electric_scooter", "is_reserved": 0, "lon": -77.03181233333333}, {"fusion_lat": 0.0, "name": "b1ea5b99a1596ddfc1a22f583c6d01d9", "is_disabled": 0, "rental_uris": {"android": "https://dc.lft.to/lastmile_qr_scan", "ios": "https://dc.lft.to/lastmile_qr_scan"}, "fusion_lon": 0.0, "lat": 38.99440083333333, "bike_id": "b1ea5b99a1596ddfc1a22f583c6d01d9", "type": "electric_bike", "is_reserved": 0, "lon": -76.99585816666666}, {"fusion_lat": 0.0, "name": "8875cd7a94147510a0e98c8870eb2e56", "is_disabled": 0, "rental_uris": {"android": "https://dc.lft.to/lastmile_qr_scan", "ios": "https://dc.lft.to/lastmile_qr_scan"}, "fusion_lon": 0.0, "lat": 38.986678166666664, "bike_id": "8875cd7a94147510a0e98c8870eb2e56", "type": "electric_bike", "is_reserved": 0, "lon": -76.99997083333334}, {"fusion_lat": 0.0, "name": "c8caf2bea2c81b9e1faca090fb503319", "is_disabled": 0, "rental_uris": {"android": "https://dc.lft.to/lastmile_qr_scan", "ios": "https://dc.lft.to/lastmile_qr_scan"}, "fusion_lon": 0.0, "lat": 38.935458, "bike_id": "c8caf2bea2c81b9e1faca090fb503319", "type": "electric_scooter", "is_reserved": 0, "lon": -77.03265233333333}, {"fusion_lat": 0.0, "name": "20029d9417aca7502dacb38d494d0efd", "is_disabled": 0, "rental_uris": {"android": "https://dc.lft.to/lastmile_qr_scan", "ios": "https://dc.lft.to/lastmile_qr_scan"}, "fusion_lon": 0.0, "lat": 38.9169615, "bike_id": "20029d9417aca7502dacb38d494d0efd", "type": "electric_scooter", "is_reserved": 0, "lon": -77.02518816666667}, {"fusion_lat": 0.0, "name": "fd9c29c7c4f47b72e8540f451a22065d", "is_disabled": 0, "rental_uris": {"android": "https://dc.lft.to/lastmile_qr_scan", "ios": "https://dc.lft.to/lastmile_qr_scan"}, "fusion_lon": 0.0, "lat": 38.90428516666667, "bike_id": "fd9c29c7c4f47b72e8540f451a22065d", "type": "electric_scooter", "is_reserved": 0, "lon": -77.02486666666667}, {"fusion_lat": 0.0, "name": "8b56fd01d350c52401f2e0e8897c40d8", "is_disabled": 0, "rental_uris": {"android": "https://dc.lft.to/lastmile_qr_scan", "ios": "https://dc.lft.to/lastmile_qr_scan"}, "fusion_lon": 0.0, "lat": 38.91665666666667, "bike_id": "8b56fd01d350c52401f2e0e8897c40d8", "type": "electric_scooter", "is_reserved": 0, "lon": -77.03466216666666}, {"fusion_lat": 0.0, "name": "15249a4bc6f3e1ba9a0f05b89e82a70c", "is_disabled": 0, "rental_uris": {"android": "https://dc.lft.to/lastmile_qr_scan", "ios": "https://dc.lft.to/lastmile_qr_scan"}, "fusion_lon": 0.0, "lat": 38.91697466666667, "bike_id": "15249a4bc6f3e1ba9a0f05b89e82a70c", "type": "electric_scooter", "is_reserved": 0, "lon": -77.02891716666667}, {"fusion_lat": 0.0, "name": "d11b991c3745756c85a7731e9d80b21d", "is_disabled": 0, "rental_uris": {"android": "https://dc.lft.to/lastmile_qr_scan", "ios": "https://dc.lft.to/lastmile_qr_scan"}, "fusion_lon": 0.0, "lat": 38.871139166666666, "bike_id": "d11b991c3745756c85a7731e9d80b21d", "type": "electric_scooter", "is_reserved": 0, "lon": -76.9659155}, {"fusion_lat": 0.0, "name": "6586bc2174d54c951245a32b613b0110", "is_disabled": 0, "rental_uris": {"android": "https://dc.lft.to/lastmile_qr_scan", "ios": "https://dc.lft.to/lastmile_qr_scan"}, "fusion_lon": 0.0, "lat": 38.89240933333333, "bike_id": "6586bc2174d54c951245a32b613b0110", "type": "electric_scooter", "is_reserved": 0, "lon": -77.02206283333334}, {"fusion_lat": 0.0, "name": "52d49421b39b3a8d652e8c1f447db48a", "is_disabled": 0, "rental_uris": {"android": "https://dc.lft.to/lastmile_qr_scan", "ios": "https://dc.lft.to/lastmile_qr_scan"}, "fusion_lon": 0.0, "lat": 38.879126, "bike_id": "52d49421b39b3a8d652e8c1f447db48a", "type": "electric_scooter", "is_reserved": 0, "lon": -77.02201433333333}, {"fusion_lat": 0.0, "name": "26fbe0fa71f5fde94389feda865f163d", "is_disabled": 0, "rental_uris": {"android": "https://dc.lft.to/lastmile_qr_scan", "ios": "https://dc.lft.to/lastmile_qr_scan"}, "fusion_lon": 0.0, "lat": 38.902506, "bike_id": "26fbe0fa71f5fde94389feda865f163d", "type": "electric_scooter", "is_reserved": 0, "lon": -77.0444385}, {"fusion_lat": 0.0, "name": "885104d40d0b0374ae419f0fb7140611", "is_disabled": 0, "rental_uris": {"android": "https://dc.lft.to/lastmile_qr_scan", "ios": "https://dc.lft.to/lastmile_qr_scan"}, "fusion_lon": 0.0, "lat": 38.897266333333334, "bike_id": "885104d40d0b0374ae419f0fb7140611", "type": "electric_scooter", "is_reserved": 0, "lon": -77.02316633333334}, {"fusion_lat": 0.0, "name": "505196f402bd765e3cdaee6b6d46d9db", "is_disabled": 0, "rental_uris": {"android": "https://dc.lft.to/lastmile_qr_scan", "ios": "https://dc.lft.to/lastmile_qr_scan"}, "fusion_lon": 0.0, "lat": 38.9292865, "bike_id": "505196f402bd765e3cdaee6b6d46d9db", "type": "electric_scooter", "is_reserved": 0, "lon": -77.027802}, {"fusion_lat": 0.0, "name": "89a595ccbf05278572d2c4059ce94059", "is_disabled": 0, "rental_uris": {"android": "https://dc.lft.to/lastmile_qr_scan", "ios": "https://dc.lft.to/lastmile_qr_scan"}, "fusion_lon": 0.0, "lat": 38.864524833333334, "bike_id": "89a595ccbf05278572d2c4059ce94059", "type": "electric_bike", "is_reserved": 0, "lon": -77.10684166666667}, {"fusion_lat": 0.0, "name": "a848317f14349366a9f7bf165f0b0df8", "is_disabled": 0, "rental_uris": {"android": "https://dc.lft.to/lastmile_qr_scan", "ios": "https://dc.lft.to/lastmile_qr_scan"}, "fusion_lon": 0.0, "lat": 38.9239575, "bike_id": "a848317f14349366a9f7bf165f0b0df8", "type": "electric_scooter", "is_reserved": 0, "lon": -77.024942}, {"fusion_lat": 0.0, "name": "20c7f483fb985325aac60eeca975ee57", "is_disabled": 0, "rental_uris": {"android": "https://dc.lft.to/lastmile_qr_scan", "ios": "https://dc.lft.to/lastmile_qr_scan"}, "fusion_lon": 0.0, "lat": 38.909863333333334, "bike_id": "20c7f483fb985325aac60eeca975ee57", "type": "electric_scooter", "is_reserved": 0, "lon": -77.04543966666667}, {"fusion_lat": 0.0, "name": "ab9196e76cf1c850e90c69b5084ee086", "is_disabled": 0, "rental_uris": {"android": "https://dc.lft.to/lastmile_qr_scan", "ios": "https://dc.lft.to/lastmile_qr_scan"}, "fusion_lon": 0.0, "lat": 38.90629766666667, "bike_id": "ab9196e76cf1c850e90c69b5084ee086", "type": "electric_scooter", "is_reserved": 0, "lon": -77.010262}, {"fusion_lat": 0.0, "name": "ae2fdc55078e5aaa5e0bc72c6d0c92ce", "is_disabled": 0, "rental_uris": {"android": "https://dc.lft.to/lastmile_qr_scan", "ios": "https://dc.lft.to/lastmile_qr_scan"}, "fusion_lon": 0.0, "lat": 38.90025983333334, "bike_id": "ae2fdc55078e5aaa5e0bc72c6d0c92ce", "type": "electric_scooter", "is_reserved": 0, "lon": -77.01186066666666}, {"fusion_lat": 0.0, "name": "0945a8c847ccd1369c1ed34119e113c9", "is_disabled": 0, "rental_uris": {"android": "https://dc.lft.to/lastmile_qr_scan", "ios": "https://dc.lft.to/lastmile_qr_scan"}, "fusion_lon": 0.0, "lat": 38.910721333333335, "bike_id": "0945a8c847ccd1369c1ed34119e113c9", "type": "electric_scooter", "is_reserved": 0, "lon": -77.04097083333333}, {"fusion_lat": 0.0, "name": "8609576d84d49b06e3254e3aff44e6f2", "is_disabled": 0, "rental_uris": {"android": "https://dc.lft.to/lastmile_qr_scan", "ios": "https://dc.lft.to/lastmile_qr_scan"}, "fusion_lon": 0.0, "lat": 38.873056, "bike_id": "8609576d84d49b06e3254e3aff44e6f2", "type": "electric_scooter", "is_reserved": 0, "lon": -77.000483}, {"fusion_lat": 0.0, "name": "818d7b45475fbf4fa7e60ed1c8e3cfd8", "is_disabled": 0, "rental_uris": {"android": "https://dc.lft.to/lastmile_qr_scan", "ios": "https://dc.lft.to/lastmile_qr_scan"}, "fusion_lon": 0.0, "lat": 38.91925666666667, "bike_id": "818d7b45475fbf4fa7e60ed1c8e3cfd8", "type": "electric_scooter", "is_reserved": 0, "lon": -77.009838}, {"fusion_lat": 0.0, "name": "5658e3a6f676b86fd1fa9f41b8c2271b", "is_disabled": 0, "rental_uris": {"android": "https://dc.lft.to/lastmile_qr_scan", "ios": "https://dc.lft.to/lastmile_qr_scan"}, "fusion_lon": 0.0, "lat": 38.876522666666666, "bike_id": "5658e3a6f676b86fd1fa9f41b8c2271b", "type": "electric_scooter", "is_reserved": 0, "lon": -77.00414633333334}, {"fusion_lat": 0.0, "name": "8a3321779c7ba4d10ce1555b6e393aeb", "is_disabled": 0, "rental_uris": {"android": "https://dc.lft.to/lastmile_qr_scan", "ios": "https://dc.lft.to/lastmile_qr_scan"}, "fusion_lon": 0.0, "lat": 38.98768616666667, "bike_id": "8a3321779c7ba4d10ce1555b6e393aeb", "type": "electric_bike", "is_reserved": 0, "lon": -77.14059816666666}, {"fusion_lat": 0.0, "name": "7e596ba37edc085ff54e59a23ebec4d5", "is_disabled": 0, "rental_uris": {"android": "https://dc.lft.to/lastmile_qr_scan", "ios": "https://dc.lft.to/lastmile_qr_scan"}, "fusion_lon": 0.0, "lat": 38.91416233333333, "bike_id": "7e596ba37edc085ff54e59a23ebec4d5", "type": "electric_scooter", "is_reserved": 0, "lon": -77.02213033333334}, {"fusion_lat": 0.0, "name": "cb7ba3273fe4fc4ce2856f25be0d57cf", "is_disabled": 0, "rental_uris": {"android": "https://dc.lft.to/lastmile_qr_scan", "ios": "https://dc.lft.to/lastmile_qr_scan"}, "fusion_lon": 0.0, "lat": 38.90708216666667, "bike_id": "cb7ba3273fe4fc4ce2856f25be0d57cf", "type": "electric_scooter", "is_reserved": 0, "lon": -77.02395833333334}, {"fusion_lat": 0.0, "name": "a0fb0290919971b27a9945b6cca67b67", "is_disabled": 0, "rental_uris": {"android": "https://dc.lft.to/lastmile_qr_scan", "ios": "https://dc.lft.to/lastmile_qr_scan"}, "fusion_lon": 0.0, "lat": 38.904121, "bike_id": "a0fb0290919971b27a9945b6cca67b67", "type": "electric_scooter", "is_reserved": 0, "lon": -76.97329983333333}, {"fusion_lat": 0.0, "name": "12711ebd3b4cd7af5c507fbf28a3d4c5", "is_disabled": 0, "rental_uris": {"android": "https://dc.lft.to/lastmile_qr_scan", "ios": "https://dc.lft.to/lastmile_qr_scan"}, "fusion_lon": 0.0, "lat": 38.955982666666664, "bike_id": "12711ebd3b4cd7af5c507fbf28a3d4c5", "type": "electric_bike", "is_reserved": 0, "lon": -77.01015166666667}, {"fusion_lat": 0.0, "name": "de520dc21ff6d93ef8360dd2bb09ec12", "is_disabled": 0, "rental_uris": {"android": "https://dc.lft.to/lastmile_qr_scan", "ios": "https://dc.lft.to/lastmile_qr_scan"}, "fusion_lon": 0.0, "lat": 38.897521833333336, "bike_id": "de520dc21ff6d93ef8360dd2bb09ec12", "type": "electric_scooter", "is_reserved": 0, "lon": -77.04400283333334}, {"fusion_lat": 0.0, "name": "d27bf464b74bf73ff00a600a2a0bd104", "is_disabled": 0, "rental_uris": {"android": "https://dc.lft.to/lastmile_qr_scan", "ios": "https://dc.lft.to/lastmile_qr_scan"}, "fusion_lon": 0.0, "lat": 38.9169985, "bike_id": "d27bf464b74bf73ff00a600a2a0bd104", "type": "electric_scooter", "is_reserved": 0, "lon": -77.03587483333334}, {"fusion_lat": 0.0, "name": "83d4e6a984039456b08fca7bebb64bb2", "is_disabled": 0, "rental_uris": {"android": "https://dc.lft.to/lastmile_qr_scan", "ios": "https://dc.lft.to/lastmile_qr_scan"}, "fusion_lon": 0.0, "lat": 38.941534, "bike_id": "83d4e6a984039456b08fca7bebb64bb2", "type": "electric_bike", "is_reserved": 0, "lon": -77.00197833333333}, {"fusion_lat": 0.0, "name": "8b7d5a2f816257f99bb8b6f44cc1b6d9", "is_disabled": 0, "rental_uris": {"android": "https://dc.lft.to/lastmile_qr_scan", "ios": "https://dc.lft.to/lastmile_qr_scan"}, "fusion_lon": 0.0, "lat": 38.91054283333333, "bike_id": "8b7d5a2f816257f99bb8b6f44cc1b6d9", "type": "electric_scooter", "is_reserved": 0, "lon": -77.053214}, {"fusion_lat": 0.0, "name": "50e66d0409ee5e326ba7aeeacc209097", "is_disabled": 0, "rental_uris": {"android": "https://dc.lft.to/lastmile_qr_scan", "ios": "https://dc.lft.to/lastmile_qr_scan"}, "fusion_lon": 0.0, "lat": 38.8724635, "bike_id": "50e66d0409ee5e326ba7aeeacc209097", "type": "electric_scooter", "is_reserved": 0, "lon": -76.97731383333333}, {"fusion_lat": 0.0, "name": "5529f64baffa26f5ba541ef98a2ef087", "is_disabled": 0, "rental_uris": {"android": "https://dc.lft.to/lastmile_qr_scan", "ios": "https://dc.lft.to/lastmile_qr_scan"}, "fusion_lon": 0.0, "lat": 38.86512883333333, "bike_id": "5529f64baffa26f5ba541ef98a2ef087", "type": "electric_bike", "is_reserved": 0, "lon": -77.129338}, {"fusion_lat": 0.0, "name": "6dc8cb86254b902be5e1ed5b847e2307", "is_disabled": 0, "rental_uris": {"android": "https://dc.lft.to/lastmile_qr_scan", "ios": "https://dc.lft.to/lastmile_qr_scan"}, "fusion_lon": 0.0, "lat": 38.892193666666664, "bike_id": "6dc8cb86254b902be5e1ed5b847e2307", "type": "electric_scooter", "is_reserved": 0, "lon": -77.04122983333333}, {"fusion_lat": 0.0, "name": "7dc287951ba841242f42a554a628cab2", "is_disabled": 0, "rental_uris": {"android": "https://dc.lft.to/lastmile_qr_scan", "ios": "https://dc.lft.to/lastmile_qr_scan"}, "fusion_lon": 0.0, "lat": 38.90217466666667, "bike_id": "7dc287951ba841242f42a554a628cab2", "type": "electric_scooter", "is_reserved": 0, "lon": -76.995098}, {"fusion_lat": 0.0, "name": "ba3ba84be075bacb020e2195c7e74d78", "is_disabled": 0, "rental_uris": {"android": "https://dc.lft.to/lastmile_qr_scan", "ios": "https://dc.lft.to/lastmile_qr_scan"}, "fusion_lon": 0.0, "lat": 38.90375983333333, "bike_id": "ba3ba84be075bacb020e2195c7e74d78", "type": "electric_scooter", "is_reserved": 0, "lon": -76.99561933333334}, {"fusion_lat": 0.0, "name": "19b76a5701f9f99ec18d7833a393788b", "is_disabled": 0, "rental_uris": {"android": "https://dc.lft.to/lastmile_qr_scan", "ios": "https://dc.lft.to/lastmile_qr_scan"}, "fusion_lon": 0.0, "lat": 38.915657833333334, "bike_id": "19b76a5701f9f99ec18d7833a393788b", "type": "electric_scooter", "is_reserved": 0, "lon": -77.03153333333333}, {"fusion_lat": 0.0, "name": "ca8f5995af37946ecefb0d4f452a16fe", "is_disabled": 0, "rental_uris": {"android": "https://dc.lft.to/lastmile_qr_scan", "ios": "https://dc.lft.to/lastmile_qr_scan"}, "fusion_lon": 0.0, "lat": 38.924895666666664, "bike_id": "ca8f5995af37946ecefb0d4f452a16fe", "type": "electric_scooter", "is_reserved": 0, "lon": -77.05112416666667}, {"fusion_lat": 0.0, "name": "a36f5c4db78420acc2f2d3ea28ea2e16", "is_disabled": 0, "rental_uris": {"android": "https://dc.lft.to/lastmile_qr_scan", "ios": "https://dc.lft.to/lastmile_qr_scan"}, "fusion_lon": 0.0, "lat": 38.938135833333334, "bike_id": "a36f5c4db78420acc2f2d3ea28ea2e16", "type": "electric_scooter", "is_reserved": 0, "lon": -77.06018083333333}, {"fusion_lat": 0.0, "name": "169fb1dcea573e08b1c7c4b2e168faf6", "is_disabled": 0, "rental_uris": {"android": "https://dc.lft.to/lastmile_qr_scan", "ios": "https://dc.lft.to/lastmile_qr_scan"}, "fusion_lon": 0.0, "lat": 38.91926083333333, "bike_id": "169fb1dcea573e08b1c7c4b2e168faf6", "type": "electric_scooter", "is_reserved": 0, "lon": -77.02500683333334}, {"fusion_lat": 0.0, "name": "191f87ba1d4fc55c517c44102c4a31f3", "is_disabled": 0, "rental_uris": {"android": "https://dc.lft.to/lastmile_qr_scan", "ios": "https://dc.lft.to/lastmile_qr_scan"}, "fusion_lon": 0.0, "lat": 38.9077555, "bike_id": "191f87ba1d4fc55c517c44102c4a31f3", "type": "electric_scooter", "is_reserved": 0, "lon": -77.03858133333334}, {"fusion_lat": 0.0, "name": "cc2e9c0f218e48a63717cb6bd1e67ae1", "is_disabled": 0, "rental_uris": {"android": "https://dc.lft.to/lastmile_qr_scan", "ios": "https://dc.lft.to/lastmile_qr_scan"}, "fusion_lon": 0.0, "lat": 38.93393483333333, "bike_id": "cc2e9c0f218e48a63717cb6bd1e67ae1", "type": "electric_scooter", "is_reserved": 0, "lon": -77.05769183333334}, {"fusion_lat": 0.0, "name": "bbd57353d641e6c708f91edcecad5315", "is_disabled": 0, "rental_uris": {"android": "https://dc.lft.to/lastmile_qr_scan", "ios": "https://dc.lft.to/lastmile_qr_scan"}, "fusion_lon": 0.0, "lat": 38.92874233333333, "bike_id": "bbd57353d641e6c708f91edcecad5315", "type": "electric_scooter", "is_reserved": 0, "lon": -77.03215716666666}, {"fusion_lat": 0.0, "name": "b61768c7f530cb6668fc31f3a520d3d0", "is_disabled": 0, "rental_uris": {"android": "https://dc.lft.to/lastmile_qr_scan", "ios": "https://dc.lft.to/lastmile_qr_scan"}, "fusion_lon": 0.0, "lat": 38.93401183333334, "bike_id": "b61768c7f530cb6668fc31f3a520d3d0", "type": "electric_scooter", "is_reserved": 0, "lon": -77.0284255}, {"fusion_lat": 0.0, "name": "aa3050014ab6b07907d01f4893a26487", "is_disabled": 0, "rental_uris": {"android": "https://dc.lft.to/lastmile_qr_scan", "ios": "https://dc.lft.to/lastmile_qr_scan"}, "fusion_lon": 0.0, "lat": 38.899649833333335, "bike_id": "aa3050014ab6b07907d01f4893a26487", "type": "electric_scooter", "is_reserved": 0, "lon": -76.98162583333334}, {"fusion_lat": 0.0, "name": "da34cd06188904fcf20ae573926c015b", "is_disabled": 0, "rental_uris": {"android": "https://dc.lft.to/lastmile_qr_scan", "ios": "https://dc.lft.to/lastmile_qr_scan"}, "fusion_lon": 0.0, "lat": 38.89225183333333, "bike_id": "da34cd06188904fcf20ae573926c015b", "type": "electric_scooter", "is_reserved": 0, "lon": -77.0450225}, {"fusion_lat": 0.0, "name": "c585727da1636f389899e98de7477309", "is_disabled": 0, "rental_uris": {"android": "https://dc.lft.to/lastmile_qr_scan", "ios": "https://dc.lft.to/lastmile_qr_scan"}, "fusion_lon": 0.0, "lat": 38.89753916666667, "bike_id": "c585727da1636f389899e98de7477309", "type": "electric_scooter", "is_reserved": 0, "lon": -77.02381783333334}, {"fusion_lat": 0.0, "name": "24d943053ba3ffe3e908567c0ce78bd1", "is_disabled": 0, "rental_uris": {"android": "https://dc.lft.to/lastmile_qr_scan", "ios": "https://dc.lft.to/lastmile_qr_scan"}, "fusion_lon": 0.0, "lat": 38.93882033333333, "bike_id": "24d943053ba3ffe3e908567c0ce78bd1", "type": "electric_scooter", "is_reserved": 0, "lon": -77.032848}, {"fusion_lat": 0.0, "name": "e778e2f42b0d20bc8ae7b4128a0b81d7", "is_disabled": 0, "rental_uris": {"android": "https://dc.lft.to/lastmile_qr_scan", "ios": "https://dc.lft.to/lastmile_qr_scan"}, "fusion_lon": 0.0, "lat": 38.917308, "bike_id": "e778e2f42b0d20bc8ae7b4128a0b81d7", "type": "electric_scooter", "is_reserved": 0, "lon": -77.0417655}, {"fusion_lat": 0.0, "name": "5e89a30026d34f0dc21cd96df237d8e6", "is_disabled": 0, "rental_uris": {"android": "https://dc.lft.to/lastmile_qr_scan", "ios": "https://dc.lft.to/lastmile_qr_scan"}, "fusion_lon": 0.0, "lat": 38.90954516666667, "bike_id": "5e89a30026d34f0dc21cd96df237d8e6", "type": "electric_scooter", "is_reserved": 0, "lon": -76.98537966666666}, {"fusion_lat": 0.0, "name": "2d7970e46e95d74c5e2d37a616962f3d", "is_disabled": 0, "rental_uris": {"android": "https://dc.lft.to/lastmile_qr_scan", "ios": "https://dc.lft.to/lastmile_qr_scan"}, "fusion_lon": 0.0, "lat": 38.902532, "bike_id": "2d7970e46e95d74c5e2d37a616962f3d", "type": "electric_scooter", "is_reserved": 0, "lon": -77.03463633333334}, {"fusion_lat": 0.0, "name": "c052f282ded3699bdb659d8c5fd314f0", "is_disabled": 0, "rental_uris": {"android": "https://dc.lft.to/lastmile_qr_scan", "ios": "https://dc.lft.to/lastmile_qr_scan"}, "fusion_lon": 0.0, "lat": 38.95280183333333, "bike_id": "c052f282ded3699bdb659d8c5fd314f0", "type": "electric_bike", "is_reserved": 0, "lon": -76.999969}, {"fusion_lat": 0.0, "name": "936b4cc939ae08b1db64d2c2b42d3275", "is_disabled": 0, "rental_uris": {"android": "https://dc.lft.to/lastmile_qr_scan", "ios": "https://dc.lft.to/lastmile_qr_scan"}, "fusion_lon": 0.0, "lat": 38.906287666666664, "bike_id": "936b4cc939ae08b1db64d2c2b42d3275", "type": "electric_scooter", "is_reserved": 0, "lon": -77.00604116666666}, {"fusion_lat": 0.0, "name": "396d6283252356c4210648fbb43a5017", "is_disabled": 0, "rental_uris": {"android": "https://dc.lft.to/lastmile_qr_scan", "ios": "https://dc.lft.to/lastmile_qr_scan"}, "fusion_lon": 0.0, "lat": 38.923912, "bike_id": "396d6283252356c4210648fbb43a5017", "type": "electric_scooter", "is_reserved": 0, "lon": -77.04301133333334}, {"fusion_lat": 0.0, "name": "9958d6559e3c89ff2d13328c4d8d0b21", "is_disabled": 0, "rental_uris": {"android": "https://dc.lft.to/lastmile_qr_scan", "ios": "https://dc.lft.to/lastmile_qr_scan"}, "fusion_lon": 0.0, "lat": 38.8412875, "bike_id": "9958d6559e3c89ff2d13328c4d8d0b21", "type": "electric_bike", "is_reserved": 0, "lon": -77.0630885}, {"fusion_lat": 0.0, "name": "2835ef93b53beb1765b871d44f469af7", "is_disabled": 0, "rental_uris": {"android": "https://dc.lft.to/lastmile_qr_scan", "ios": "https://dc.lft.to/lastmile_qr_scan"}, "fusion_lon": 0.0, "lat": 38.903028666666664, "bike_id": "2835ef93b53beb1765b871d44f469af7", "type": "electric_scooter", "is_reserved": 0, "lon": -77.04505966666666}, {"fusion_lat": 0.0, "name": "8e5e52abbfad7d4aa98176b00e1a0b6e", "is_disabled": 0, "rental_uris": {"android": "https://dc.lft.to/lastmile_qr_scan", "ios": "https://dc.lft.to/lastmile_qr_scan"}, "fusion_lon": 0.0, "lat": 38.894896333333335, "bike_id": "8e5e52abbfad7d4aa98176b00e1a0b6e", "type": "electric_scooter", "is_reserved": 0, "lon": -77.00255816666666}, {"fusion_lat": 0.0, "name": "73aa40579a94c2b626b4535ece1792ff", "is_disabled": 0, "rental_uris": {"android": "https://dc.lft.to/lastmile_qr_scan", "ios": "https://dc.lft.to/lastmile_qr_scan"}, "fusion_lon": 0.0, "lat": 38.94290866666667, "bike_id": "73aa40579a94c2b626b4535ece1792ff", "type": "electric_scooter", "is_reserved": 0, "lon": -77.021733}, {"fusion_lat": 0.0, "name": "1d2db9eb14be145ef9d1651555f8ebfa", "is_disabled": 0, "rental_uris": {"android": "https://dc.lft.to/lastmile_qr_scan", "ios": "https://dc.lft.to/lastmile_qr_scan"}, "fusion_lon": 0.0, "lat": 38.8972075, "bike_id": "1d2db9eb14be145ef9d1651555f8ebfa", "type": "electric_scooter", "is_reserved": 0, "lon": -77.00340833333334}, {"fusion_lat": 0.0, "name": "0c10daea886159d511563b50b6e61c69", "is_disabled": 0, "rental_uris": {"android": "https://dc.lft.to/lastmile_qr_scan", "ios": "https://dc.lft.to/lastmile_qr_scan"}, "fusion_lon": 0.0, "lat": 38.8906425, "bike_id": "0c10daea886159d511563b50b6e61c69", "type": "electric_scooter", "is_reserved": 0, "lon": -76.94458466666667}, {"fusion_lat": 0.0, "name": "97b4b15cfe774d936d31675481adf49f", "is_disabled": 0, "rental_uris": {"android": "https://dc.lft.to/lastmile_qr_scan", "ios": "https://dc.lft.to/lastmile_qr_scan"}, "fusion_lon": 0.0, "lat": 38.9247845, "bike_id": "97b4b15cfe774d936d31675481adf49f", "type": "electric_scooter", "is_reserved": 0, "lon": -77.026541}, {"fusion_lat": 0.0, "name": "76fa2d5571958b61ecee9f8e030ae8fd", "is_disabled": 0, "rental_uris": {"android": "https://dc.lft.to/lastmile_qr_scan", "ios": "https://dc.lft.to/lastmile_qr_scan"}, "fusion_lon": 0.0, "lat": 38.90140366666667, "bike_id": "76fa2d5571958b61ecee9f8e030ae8fd", "type": "electric_scooter", "is_reserved": 0, "lon": -77.00253616666667}, {"fusion_lat": 0.0, "name": "c4709f782e516efccfa7fc0c5c547bc8", "is_disabled": 0, "rental_uris": {"android": "https://dc.lft.to/lastmile_qr_scan", "ios": "https://dc.lft.to/lastmile_qr_scan"}, "fusion_lon": 0.0, "lat": 38.8916985, "bike_id": "c4709f782e516efccfa7fc0c5c547bc8", "type": "electric_scooter", "is_reserved": 0, "lon": -76.99466616666666}, {"fusion_lat": 0.0, "name": "83acc9d3b4558fa22482a22455953ad8", "is_disabled": 0, "rental_uris": {"android": "https://dc.lft.to/lastmile_qr_scan", "ios": "https://dc.lft.to/lastmile_qr_scan"}, "fusion_lon": 0.0, "lat": 38.899349, "bike_id": "83acc9d3b4558fa22482a22455953ad8", "type": "electric_scooter", "is_reserved": 0, "lon": -77.00370616666666}, {"fusion_lat": 0.0, "name": "b55aa2eb40d714177ee666fad558a348", "is_disabled": 0, "rental_uris": {"android": "https://dc.lft.to/lastmile_qr_scan", "ios": "https://dc.lft.to/lastmile_qr_scan"}, "fusion_lon": 0.0, "lat": 38.93202616666667, "bike_id": "b55aa2eb40d714177ee666fad558a348", "type": "electric_scooter", "is_reserved": 0, "lon": -77.0279505}, {"fusion_lat": 0.0, "name": "09aacd6c47ec1de618549c1996de7240", "is_disabled": 0, "rental_uris": {"android": "https://dc.lft.to/lastmile_qr_scan", "ios": "https://dc.lft.to/lastmile_qr_scan"}, "fusion_lon": 0.0, "lat": 38.895477, "bike_id": "09aacd6c47ec1de618549c1996de7240", "type": "electric_scooter", "is_reserved": 0, "lon": -77.0122095}, {"fusion_lat": 0.0, "name": "808e3d5de8db09102579f3501c15caa6", "is_disabled": 0, "rental_uris": {"android": "https://dc.lft.to/lastmile_qr_scan", "ios": "https://dc.lft.to/lastmile_qr_scan"}, "fusion_lon": 0.0, "lat": 38.925130833333334, "bike_id": "808e3d5de8db09102579f3501c15caa6", "type": "electric_scooter", "is_reserved": 0, "lon": -76.9956765}, {"fusion_lat": 0.0, "name": "bce5dbfaabaa50eae98edab5656c8d24", "is_disabled": 0, "rental_uris": {"android": "https://dc.lft.to/lastmile_qr_scan", "ios": "https://dc.lft.to/lastmile_qr_scan"}, "fusion_lon": 0.0, "lat": 38.956398166666666, "bike_id": "bce5dbfaabaa50eae98edab5656c8d24", "type": "electric_scooter", "is_reserved": 0, "lon": -77.02413016666667}, {"fusion_lat": 0.0, "name": "b6d351a7240a5455362547a617ceeee5", "is_disabled": 0, "rental_uris": {"android": "https://dc.lft.to/lastmile_qr_scan", "ios": "https://dc.lft.to/lastmile_qr_scan"}, "fusion_lon": 0.0, "lat": 38.87549766666667, "bike_id": "b6d351a7240a5455362547a617ceeee5", "type": "electric_scooter", "is_reserved": 0, "lon": -77.0056605}, {"fusion_lat": 0.0, "name": "27651843284a0267e94d99b5f1265412", "is_disabled": 0, "rental_uris": {"android": "https://dc.lft.to/lastmile_qr_scan", "ios": "https://dc.lft.to/lastmile_qr_scan"}, "fusion_lon": 0.0, "lat": 38.91390633333334, "bike_id": "27651843284a0267e94d99b5f1265412", "type": "electric_scooter", "is_reserved": 0, "lon": -77.033214}, {"fusion_lat": 0.0, "name": "f7d720b049524fd49e37e3310f3ca1c0", "is_disabled": 0, "rental_uris": {"android": "https://dc.lft.to/lastmile_qr_scan", "ios": "https://dc.lft.to/lastmile_qr_scan"}, "fusion_lon": 0.0, "lat": 38.91123266666666, "bike_id": "f7d720b049524fd49e37e3310f3ca1c0", "type": "electric_scooter", "is_reserved": 0, "lon": -77.03832333333334}, {"fusion_lat": 0.0, "name": "a6c85f53a8c4b16ea2809ffe871d54a1", "is_disabled": 0, "rental_uris": {"android": "https://dc.lft.to/lastmile_qr_scan", "ios": "https://dc.lft.to/lastmile_qr_scan"}, "fusion_lon": 0.0, "lat": 38.899012, "bike_id": "a6c85f53a8c4b16ea2809ffe871d54a1", "type": "electric_scooter", "is_reserved": 0, "lon": -77.05673}, {"fusion_lat": 0.0, "name": "442dc04d44d496e076e765ed4d8d791b", "is_disabled": 0, "rental_uris": {"android": "https://dc.lft.to/lastmile_qr_scan", "ios": "https://dc.lft.to/lastmile_qr_scan"}, "fusion_lon": 0.0, "lat": 38.90458666666667, "bike_id": "442dc04d44d496e076e765ed4d8d791b", "type": "electric_scooter", "is_reserved": 0, "lon": -77.00337066666667},