{"data": {"bikes": [{"lon": -77.00670233333334, "bike_id": "259bad0504d30ebdb6dfe0a3494a6f76", "lat": 38.94507, "fusion_lon": 0.0, "fusion_lat": 0.0, "type": "electric_bike", "name": "259bad0504d30ebdb6dfe0a3494a6f76", "is_disabled": 0, "rental_uris": {"ios": "https://dc.lft.to/lastmile_qr_scan", "android": "https://dc.lft.to/lastmile_qr_scan"}, "is_reserved": 0}, {"lon": -76.985569, "bike_id": "1fe045ecfb16fe619f1f70ec782ed560", "lat": 38.9103535, "fusion_lon": 0.0, "fusion_lat": 0.0, "type": "electric_scooter", "name": "1fe045ecfb16fe619f1f70ec782ed560", "is_disabled": 0, "rental_uris": {"ios": "https://dc.lft.to/lastmile_qr_scan", "android": "https://dc.lft.to/lastmile_qr_scan"}, "is_reserved": 0}, {"lon": -77.0818535, "bike_id": "b126f7bc631a8771c8d3920199be8e85", "lat": 38.922147833333334, "fusion_lon": 0.0, "fusion_lat": 0.0, "type": "electric_bike", "name": "b126f7bc631a8771c8d3920199be8e85", "is_disabled": 0, "rental_uris": {"ios": "https://dc.lft.to/lastmile_qr_scan", "android": "https://dc.lft.to/lastmile_qr_scan"}, "is_reserved": 0}, {"lon": -76.97404733333333, "bike_id": "8609f16e8f55a6b37a1edb4259f72c04", "lat": 38.92165883333333, "fusion_lon": 0.0, "fusion_lat": 0.0, "type": "electric_bike", "name": "8609f16e8f55a6b37a1edb4259f72c04", "is_disabled": 0, "rental_uris": {"ios": "https://dc.lft.to/lastmile_qr_scan", "android": "https://dc.lft.to/lastmile_qr_scan"}, "is_reserved": 0}, {"lon": -77.04120116666667, "bike_id": "bcce638b09b9832beaa869cbe760d577", "lat": 38.944099333333334, "fusion_lon": 0.0, "fusion_lat": 0.0, "type": "electric_bike", "name": "bcce638b09b9832beaa869cbe760d577", "is_disabled": 0, "rental_uris": {"ios": "https://dc.lft.to/lastmile_qr_scan", "android": "https://dc.lft.to/lastmile_qr_scan"}, "is_reserved": 0}, {"lon": -77.03800916666667, "bike_id": "e6dd0db4c290b82b4982bbdf821694e4", "lat": 38.920682, "fusion_lon": 0.0, "fusion_lat": 0.0, "type": "electric_scooter", "name": "e6dd0db4c290b82b4982bbdf821694e4", "is_disabled": 0, "rental_uris": {"ios": "https://dc.lft.to/lastmile_qr_scan", "android": "https://dc.lft.to/lastmile_qr_scan"}, "is_reserved": 0}, {"lon": -77.04005183333334, "bike_id": "7cb5829fe9e69903427f7a874a3bde25", "lat": 38.93304283333333, "fusion_lon": 0.0, "fusion_lat": 0.0, "type": "electric_scooter", "name": "7cb5829fe9e69903427f7a874a3bde25", "is_disabled": 0, "rental_uris": {"ios": "https://dc.lft.to/lastmile_qr_scan", "android": "https://dc.lft.to/lastmile_qr_scan"}, "is_reserved": 0}, {"lon": -77.00586283333334, "bike_id": "f85c865f2e242f6a2dafb1edcd4e6446", "lat": 38.87480383333333, "fusion_lon": 0.0, "fusion_lat": 0.0, "type": "electric_scooter", "name": "f85c865f2e242f6a2dafb1edcd4e6446", "is_disabled": 0, "rental_uris": {"ios": "https://dc.lft.to/lastmile_qr_scan", "android": "https://dc.lft.to/lastmile_qr_scan"}, "is_reserved": 0}, {"lon": -77.016647, "bike_id": "cb0e4620a656336b730cede0065ee715", "lat": 38.88127133333333, "fusion_lon": 0.0, "fusion_lat": 0.0, "type": "electric_scooter", "name": "cb0e4620a656336b730cede0065ee715", "is_disabled": 0, "rental_uris": {"ios": "https://dc.lft.to/lastmile_qr_scan", "android": "https://dc.lft.to/lastmile_qr_scan"}, "is_reserved": 0}, {"lon": -77.03320666666667, "bike_id": "b734c8ae51de22813a7c91c0cf719369", "lat": 38.915812, "fusion_lon": 0.0, "fusion_lat": 0.0, "type": "electric_scooter", "name": "b734c8ae51de22813a7c91c0cf719369", "is_disabled": 0, "rental_uris": {"ios": "https://dc.lft.to/lastmile_qr_scan", "android": "https://dc.lft.to/lastmile_qr_scan"}, "is_reserved": 0}, {"lon": -77.0226785, "bike_id": "a14882231c76bdcaf2fa9070ede53832", "lat": 38.91276116666667, "fusion_lon": 0.0, "fusion_lat": 0.0, "type": "electric_scooter", "name": "a14882231c76bdcaf2fa9070ede53832", "is_disabled": 0, "rental_uris": {"ios": "https://dc.lft.to/lastmile_qr_scan", "android": "https://dc.lft.to/lastmile_qr_scan"}, "is_reserved": 0}, {"lon": -77.01791383333334, "bike_id": "1906b6f4a21d639e8f2bd5aa8dc31aaf", "lat": 38.900778833333334, "fusion_lon": 0.0, "fusion_lat": 0.0, "type": "electric_scooter", "name": "1906b6f4a21d639e8f2bd5aa8dc31aaf", "is_disabled": 0, "rental_uris": {"ios": "https://dc.lft.to/lastmile_qr_scan", "android": "https://dc.lft.to/lastmile_qr_scan"}, "is_reserved": 0}, {"lon": -77.000423, "bike_id": "55049e90fbdfd28a5a527843c0bb062f", "lat": 38.87434866666667, "fusion_lon": 0.0, "fusion_lat": 0.0, "type": "electric_scooter", "name": "55049e90fbdfd28a5a527843c0bb062f", "is_disabled": 0, "rental_uris": {"ios": "https://dc.lft.to/lastmile_qr_scan", "android": "https://dc.lft.to/lastmile_qr_scan"}, "is_reserved": 0}, {"lon": -76.92577583333333, "bike_id": "e6e7b913cf1c627f6dc266345dbcddcf", "lat": 38.8978525, "fusion_lon": 0.0, "fusion_lat": 0.0, "type": "electric_scooter", "name": "e6e7b913cf1c627f6dc266345dbcddcf", "is_disabled": 0, "rental_uris": {"ios": "https://dc.lft.to/lastmile_qr_scan", "android": "https://dc.lft.to/lastmile_qr_scan"}, "is_reserved": 0}, {"lon": -77.023961, "bike_id": "97c5d87d292369572363f14d32c78fd9", "lat": 38.881360666666666, "fusion_lon": 0.0, "fusion_lat": 0.0, "type": "electric_scooter", "name": "97c5d87d292369572363f14d32c78fd9", "is_disabled": 0, "rental_uris": {"ios": "https://dc.lft.to/lastmile_qr_scan", "android": "https://dc.lft.to/lastmile_qr_scan"}, "is_reserved": 0}, {"lon": -77.044951, "bike_id": "7287132da43d3714aadfeb6c0902d290", "lat": 38.912934, "fusion_lon": 0.0, "fusion_lat": 0.0, "type": "electric_scooter", "name": "7287132da43d3714aadfeb6c0902d290", "is_disabled": 0, "rental_uris": {"ios": "https://dc.lft.to/lastmile_qr_scan", "android": "https://dc.lft.to/lastmile_qr_scan"}, "is_reserved": 0}, {"lon": -76.99271033333333, "bike_id": "7ecbf0389e354166e06d2ec32c0c0532", "lat": 38.8961535, "fusion_lon": 0.0, "fusion_lat": 0.0, "type": "electric_scooter", "name": "7ecbf0389e354166e06d2ec32c0c0532", "is_disabled": 0, "rental_uris": {"ios": "https://dc.lft.to/lastmile_qr_scan", "android": "https://dc.lft.to/lastmile_qr_scan"}, "is_reserved": 0}, {"lon": -77.0472715, "bike_id": "306ab4e0ee9f552207dfc10c33c8624a", "lat": 38.899721, "fusion_lon": 0.0, "fusion_lat": 0.0, "type": "electric_scooter", "name": "306ab4e0ee9f552207dfc10c33c8624a", "is_disabled": 0, "rental_uris": {"ios": "https://dc.lft.to/lastmile_qr_scan", "android": "https://dc.lft.to/lastmile_qr_scan"}, "is_reserved": 0}, {"lon": -77.03181, "bike_id": "71d90a3ca94f89c6c52b839c3989155e", "lat": 38.892241, "fusion_lon": 0.0, "fusion_lat": 0.0, "type": "electric_scooter", "name": "71d90a3ca94f89c6c52b839c3989155e", "is_disabled": 0, "rental_uris": {"ios": "https://dc.lft.to/lastmile_qr_scan", "android": "https://dc.lft.to/lastmile_qr_scan"}, "is_reserved": 0}, {"lon": -77.03630216666667, "bike_id": "2bdd04b3b42beb2c0ad82edc552fb235", "lat": 38.93768016666667, "fusion_lon": 0.0, "fusion_lat": 0.0, "type": "electric_bike", "name": "2bdd04b3b42beb2c0ad82edc552fb235", "is_disabled": 0, "rental_uris": {"ios": "https://dc.lft.to/lastmile_qr_scan", "android": "https://dc.lft.to/lastmile_qr_scan"}, "is_reserved": 0}, {"lon": -77.05735016666667, "bike_id": "4e083ae2ccbbcbb7ffb4c8ec3ad4bc50", "lat": 38.933611, "fusion_lon": 0.0, "fusion_lat": 0.0, "type": "electric_scooter", "name": "4e083ae2ccbbcbb7ffb4c8ec3ad4bc50", "is_disabled": 0, "rental_uris": {"ios": "https://dc.lft.to/lastmile_qr_scan", "android": "https://dc.lft.to/lastmile_qr_scan"}, "is_reserved": 0}, {"lon": -76.979065, "bike_id": "5b44da297ec3db1de78a62097edcf2d0", "lat": 38.92461183333333, "fusion_lon": 0.0, "fusion_lat": 0.0, "type": "electric_bike", "name": "5b44da297ec3db1de78a62097edcf2d0", "is_disabled": 0, "rental_uris": {"ios": "https://dc.lft.to/lastmile_qr_scan", "android": "https://dc.lft.to/lastmile_qr_scan"}, "is_reserved": 0}, {"lon": -76.97325133333334, "bike_id": "9c5dcd1acf51248acf08b3f3b21882ab", "lat": 38.904829166666666, "fusion_lon": 0.0, "fusion_lat": 0.0, "type": "electric_bike", "name": "9c5dcd1acf51248acf08b3f3b21882ab", "is_disabled": 0, "rental_uris": {"ios": "https://dc.lft.to/lastmile_qr_scan", "android": "https://dc.lft.to/lastmile_qr_scan"}, "is_reserved": 0}, {"lon": -77.065234, "bike_id": "1ae4b21b95cf6c47458395bba2797a05", "lat": 38.90888066666667, "fusion_lon": 0.0, "fusion_lat": 0.0, "type": "electric_scooter", "name": "1ae4b21b95cf6c47458395bba2797a05", "is_disabled": 0, "rental_uris": {"ios": "https://dc.lft.to/lastmile_qr_scan", "android": "https://dc.lft.to/lastmile_qr_scan"}, "is_reserved": 0}, {"lon": -76.99795333333333, "bike_id": "b289edd7cc3a46769338c638907400ed", "lat": 38.956428, "fusion_lon": 0.0, "fusion_lat": 0.0, "type": "electric_bike", "name": "b289edd7cc3a46769338c638907400ed", "is_disabled": 0, "rental_uris": {"ios": "https://dc.lft.to/lastmile_qr_scan", "android": "https://dc.lft.to/lastmile_qr_scan"}, "is_reserved": 0}, {"lon": -77.03169533333333, "bike_id": "2420c59ffca0eb25dd45501d303bfc74", "lat": 38.936041, "fusion_lon": 0.0, "fusion_lat": 0.0, "type": "electric_scooter", "name": "2420c59ffca0eb25dd45501d303bfc74", "is_disabled": 0, "rental_uris": {"ios": "https://dc.lft.to/lastmile_qr_scan", "android": "https://dc.lft.to/lastmile_qr_scan"}, "is_reserved": 0}, {"lon": -76.98771116666667, "bike_id": "9a6ee7442b6bce695c533a0e812bfd74", "lat": 38.8660695, "fusion_lon": 0.0, "fusion_lat": 0.0, "type": "electric_bike", "name": "9a6ee7442b6bce695c533a0e812bfd74", "is_disabled": 0, "rental_uris": {"ios": "https://dc.lft.to/lastmile_qr_scan", "android": "https://dc.lft.to/lastmile_qr_scan"}, "is_reserved": 0}, {"lon": -77.03185566666667, "bike_id": "507282da03c69d7b5cf79ae56d653ab1", "lat": 38.929227, "fusion_lon": 0.0, "fusion_lat": 0.0, "type": "electric_scooter", "name": "507282da03c69d7b5cf79ae56d653ab1", "is_disabled": 0, "rental_uris": {"ios": "https://dc.lft.to/lastmile_qr_scan", "android": "https://dc.lft.to/lastmile_qr_scan"}, "is_reserved": 0}, {"lon": -77.0065585, "bike_id": "af3318b77191e321e961a163ab076d11", "lat": 38.944619333333335, "fusion_lon": 0.0, "fusion_lat": 0.0, "type": "electric_scooter", "name": "af3318b77191e321e961a163ab076d11", "is_disabled": 0, "rental_uris": {"ios": "https://dc.lft.to/lastmile_qr_scan", "android": "https://dc.lft.to/lastmile_qr_scan"}, "is_reserved": 0}, {"lon": -77.03445533333333, "bike_id": "bab8f7c3ecd58ebeff6b9c0ee776f14e", "lat": 38.910105333333334, "fusion_lon": 0.0, "fusion_lat": 0.0, "type": "electric_scooter", "name": "bab8f7c3ecd58ebeff6b9c0ee776f14e", "is_disabled": 0, "rental_uris": {"ios": "https://dc.lft.to/lastmile_qr_scan", "android": "https://dc.lft.to/lastmile_qr_scan"}, "is_reserved": 0}, {"lon": -77.00478483333333, "bike_id": "7f5be61ef48d5de3f75cdca4c022c03d", "lat": 38.89583283333333, "fusion_lon": 0.0, "fusion_lat": 0.0, "type": "electric_scooter", "name": "7f5be61ef48d5de3f75cdca4c022c03d", "is_disabled": 0, "rental_uris": {"ios": "https://dc.lft.to/lastmile_qr_scan", "android": "https://dc.lft.to/lastmile_qr_scan"}, "is_reserved": 0}, {"lon": -77.18559983333333, "bike_id": "c7b7d69e84b7fe24da585ccf53eb5488", "lat": 39.09975283333333, "fusion_lon": 0.0, "fusion_lat": 0.0, "type": "electric_bike", "name": "c7b7d69e84b7fe24da585ccf53eb5488", "is_disabled": 0, "rental_uris": {"ios": "https://dc.lft.to/lastmile_qr_scan", "android": "https://dc.lft.to/lastmile_qr_scan"}, "is_reserved": 0}, {"lon": -76.96258466666667, "bike_id": "db3853875e85d41cbcef21855f77d525", "lat": 38.8824915, "fusion_lon": 0.0, "fusion_lat": 0.0, "type": "electric_bike", "name": "db3853875e85d41cbcef21855f77d525", "is_disabled": 0, "rental_uris": {"ios": "https://dc.lft.to/lastmile_qr_scan", "android": "https://dc.lft.to/lastmile_qr_scan"}, "is_reserved": 0}, {"lon": -77.00197633333333, "bike_id": "742e510b8e04ba153207992cce9e2c24", "lat": 38.8910665, "fusion_lon": 0.0, "fusion_lat": 0.0, "type": "electric_scooter", "name": "742e510b8e04ba153207992cce9e2c24", "is_disabled": 0, "rental_uris": {"ios": "https://dc.lft.to/lastmile_qr_scan", "android": "https://dc.lft.to/lastmile_qr_scan"}, "is_reserved": 0}, {"lon": -77.0252865, "bike_id": "e9857c575d8f05b62fa36f2ae4552b27", "lat": 38.928970666666665, "fusion_lon": 0.0, "fusion_lat": 0.0, "type": "electric_scooter", "name": "e9857c575d8f05b62fa36f2ae4552b27", "is_disabled": 0, "rental_uris": {"ios": "https://dc.lft.to/lastmile_qr_scan", "android": "https://dc.lft.to/lastmile_qr_scan"}, "is_reserved": 0}, {"lon": -77.03130933333334, "bike_id": "8334ee552387147c393b3e4dc900275f", "lat": 38.91563583333333, "fusion_lon": 0.0, "fusion_lat": 0.0, "type": "electric_scooter", "name": "8334ee552387147c393b3e4dc900275f", "is_disabled": 0, "rental_uris": {"ios": "https://dc.lft.to/lastmile_qr_scan", "android": "https://dc.lft.to/lastmile_qr_scan"}, "is_reserved": 0}, {"lon": -76.96524616666666, "bike_id": "c5c3600c2b4a937cbbc335147d8ef643", "lat": 38.8762825, "fusion_lon": 0.0, "fusion_lat": 0.0, "type": "electric_scooter", "name": "c5c3600c2b4a937cbbc335147d8ef643", "is_disabled": 0, "rental_uris": {"ios": "https://dc.lft.to/lastmile_qr_scan", "android": "https://dc.lft.to/lastmile_qr_scan"}, "is_reserved": 0}, {"lon": -77.03761483333334, "bike_id": "7089dce0d6b3289f20354333ee0f8715", "lat": 38.907758666666666, "fusion_lon": 0.0, "fusion_lat": 0.0, "type": "electric_scooter", "name": "7089dce0d6b3289f20354333ee0f8715", "is_disabled": 0, "rental_uris": {"ios": "https://dc.lft.to/lastmile_qr_scan", "android": "https://dc.lft.to/lastmile_qr_scan"}, "is_reserved": 0}, {"lon": -77.005988, "bike_id": "40f029a09855305daa0505654188b6f1", "lat": 38.905526, "fusion_lon": 0.0, "fusion_lat": 0.0, "type": "electric_scooter", "name": "40f029a09855305daa0505654188b6f1", "is_disabled": 0, "rental_uris": {"ios": "https://dc.lft.to/lastmile_qr_scan", "android": "https://dc.lft.to/lastmile_qr_scan"}, "is_reserved": 0}, {"lon": -77.027453, "bike_id": "1499dc7607826c52859cee576b32d8cd", "lat": 38.928947666666666, "fusion_lon": 0.0, "fusion_lat": 0.0, "type": "electric_scooter", "name": "1499dc7607826c52859cee576b32d8cd", "is_disabled": 0, "rental_uris": {"ios": "https://dc.lft.to/lastmile_qr_scan", "android": "https://dc.lft.to/lastmile_qr_scan"}, "is_reserved": 0}, {"lon": -77.1002655, "bike_id": "b69f82b02e4901ac9c086db2debca408", "lat": 38.871354333333336, "fusion_lon": 0.0, "fusion_lat": 0.0, "type": "electric_bike", "name": "b69f82b02e4901ac9c086db2debca408", "is_disabled": 0, "rental_uris": {"ios": "https://dc.lft.to/lastmile_qr_scan", "android": "https://dc.lft.to/lastmile_qr_scan"}, "is_reserved": 0}, {"lon": -77.01341716666667, "bike_id": "f8c65f7435507f96faa8718129886b53", "lat": 38.87815466666667, "fusion_lon": 0.0, "fusion_lat": 0.0, "type": "electric_scooter", "name": "f8c65f7435507f96faa8718129886b53", "is_disabled": 0, "rental_uris": {"ios": "https://dc.lft.to/lastmile_qr_scan", "android": "https://dc.lft.to/lastmile_qr_scan"}, "is_reserved": 0}, {"lon": -77.02877466666666, "bike_id": "ec3acc1235cd1a8ec82e6c03416027d8", "lat": 38.9169095, "fusion_lon": 0.0, "fusion_lat": 0.0, "type": "electric_scooter", "name": "ec3acc1235cd1a8ec82e6c03416027d8", "is_disabled": 0, "rental_uris": {"ios": "https://dc.lft.to/lastmile_qr_scan", "android": "https://dc.lft.to/lastmile_qr_scan"}, "is_reserved": 0}, {"lon": -77.02973383333334, "bike_id": "7f6f24fc10020cf5a3990760b5a0d4e8", "lat": 38.906545333333334, "fusion_lon": 0.0, "fusion_lat": 0.0, "type": "electric_scooter", "name": "7f6f24fc10020cf5a3990760b5a0d4e8", "is_disabled": 0, "rental_uris": {"ios": "https://dc.lft.to/lastmile_qr_scan", "android": "https://dc.lft.to/lastmile_qr_scan"}, "is_reserved": 0}, {"lon": -77.02236433333333, "bike_id": "f55f39404d8a479580e7aa49b74324ef", "lat": 38.96206733333333, "fusion_lon": 0.0, "fusion_lat": 0.0, "type": "electric_scooter", "name": "f55f39404d8a479580e7aa49b74324ef", "is_disabled": 0, "rental_uris": {"ios": "https://dc.lft.to/lastmile_qr_scan", "android": "https://dc.lft.to/lastmile_qr_scan"}, "is_reserved": 0}, {"lon": -76.98228416666667, "bike_id": "85f146d8d98254a8eeeeb99a406efd63", "lat": 38.91653316666667, "fusion_lon": 0.0, "fusion_lat": 0.0, "type": "electric_scooter", "name": "85f146d8d98254a8eeeeb99a406efd63", "is_disabled": 0, "rental_uris": {"ios": "https://dc.lft.to/lastmile_qr_scan", "android": "https://dc.lft.to/lastmile_qr_scan"}, "is_reserved": 0}, {"lon": -77.02827866666667, "bike_id": "24a5acade87dce827e65cf3b33e4f5cc", "lat": 38.895152833333334, "fusion_lon": 0.0, "fusion_lat": 0.0, "type": "electric_scooter", "name": "24a5acade87dce827e65cf3b33e4f5cc", "is_disabled": 0, "rental_uris": {"ios": "https://dc.lft.to/lastmile_qr_scan", "android": "https://dc.lft.to/lastmile_qr_scan"}, "is_reserved": 0}, {"lon": -76.99874133333333, "bike_id": "b642baeb14c90d6dcc656033702096f6", "lat": 38.909423333333336, "fusion_lon": 0.0, "fusion_lat": 0.0, "type": "electric_scooter", "name": "b642baeb14c90d6dcc656033702096f6", "is_disabled": 0, "rental_uris": {"ios": "https://dc.lft.to/lastmile_qr_scan", "android": "https://dc.lft.to/lastmile_qr_scan"}, "is_reserved": 0}, {"lon": -76.99224316666667, "bike_id": "1599c26e526f16203081cc34c323b266", "lat": 38.922151, "fusion_lon": 0.0, "fusion_lat": 0.0, "type": "electric_scooter", "name": "1599c26e526f16203081cc34c323b266", "is_disabled": 0, "rental_uris": {"ios": "https://dc.lft.to/lastmile_qr_scan", "android": "https://dc.lft.to/lastmile_qr_scan"}, "is_reserved": 0}, {"lon": -77.04736883333334, "bike_id": "e258eb6f990cabd36bd91fe3e39b97a9", "lat": 38.91763233333333, "fusion_lon": 0.0, "fusion_lat": 0.0, "type": "electric_scooter", "name": "e258eb6f990cabd36bd91fe3e39b97a9", "is_disabled": 0, "rental_uris": {"ios": "https://dc.lft.to/lastmile_qr_scan", "android": "https://dc.lft.to/lastmile_qr_scan"}, "is_reserved": 0}, {"lon": -76.9994115, "bike_id": "22c47cd22872360adeb751d53093607d", "lat": 38.90623383333333, "fusion_lon": 0.0, "fusion_lat": 0.0, "type": "electric_scooter", "name": "22c47cd22872360adeb751d53093607d", "is_disabled": 0, "rental_uris": {"ios": "https://dc.lft.to/lastmile_qr_scan", "android": "https://dc.lft.to/lastmile_qr_scan"}, "is_reserved": 0}, {"lon": -77.046311, "bike_id": "c1c7bdcca817cc1543a9e33f0c322139", "lat": 38.919095166666665, "fusion_lon": 0.0, "fusion_lat": 0.0, "type": "electric_scooter", "name": "c1c7bdcca817cc1543a9e33f0c322139", "is_disabled": 0, "rental_uris": {"ios": "https://dc.lft.to/lastmile_qr_scan", "android": "https://dc.lft.to/lastmile_qr_scan"}, "is_reserved": 0}, {"lon": -77.01220266666667, "bike_id": "7807a4622c1f3c48ffe342bcdb616dc7", "lat": 38.8929405, "fusion_lon": 0.0, "fusion_lat": 0.0, "type": "electric_scooter", "name": "7807a4622c1f3c48ffe342bcdb616dc7", "is_disabled": 0, "rental_uris": {"ios": "https://dc.lft.to/lastmile_qr_scan", "android": "https://dc.lft.to/lastmile_qr_scan"}, "is_reserved": 0}, {"lon": -77.03188, "bike_id": "3b81181aa8b12628e21ed8aa577ade5b", "lat": 38.91741966666667, "fusion_lon": 0.0, "fusion_lat": 0.0, "type": "electric_scooter", "name": "3b81181aa8b12628e21ed8aa577ade5b", "is_disabled": 0, "rental_uris": {"ios": "https://dc.lft.to/lastmile_qr_scan", "android": "https://dc.lft.to/lastmile_qr_scan"}, "is_reserved": 0}, {"lon": -77.03173266666667, "bike_id": "dd5ea5e10ea85ebca5e599d4fcf4af03", "lat": 38.8922825, "fusion_lon": 0.0, "fusion_lat": 0.0, "type": "electric_scooter", "name": "dd5ea5e10ea85ebca5e599d4fcf4af03", "is_disabled": 0, "rental_uris": {"ios": "https://dc.lft.to/lastmile_qr_scan", "android": "https://dc.lft.to/lastmile_qr_scan"}, "is_reserved": 0}, {"lon": -77.0157835, "bike_id": "701ef5b9d0262a322cf7e593b79e158a", "lat": 38.96569383333333, "fusion_lon": 0.0, "fusion_lat": 0.0, "type": "electric_scooter", "name": "701ef5b9d0262a322cf7e593b79e158a", "is_disabled": 0, "rental_uris": {"ios": "https://dc.lft.to/lastmile_qr_scan", "android": "https://dc.lft.to/lastmile_qr_scan"}, "is_reserved": 0}, {"lon": -77.03584116666667, "bike_id": "a28589ad339dd37c25dbc9b258eda411", "lat": 38.917688, "fusion_lon": 0.0, "fusion_lat": 0.0, "type": "electric_scooter", "name": "a28589ad339dd37c25dbc9b258eda411", "is_disabled": 0, "rental_uris": {"ios": "https://dc.lft.to/lastmile_qr_scan", "android": "https://dc.lft.to/lastmile_qr_scan"}, "is_reserved": 0}, {"lon": -77.0423035, "bike_id": "f8054c7ab252f2b3cfc967a861859bac", "lat": 38.911193833333336, "fusion_lon": 0.0, "fusion_lat": 0.0, "type": "electric_scooter", "name": "f8054c7ab252f2b3cfc967a861859bac", "is_disabled": 0, "rental_uris": {"ios": "https://dc.lft.to/lastmile_qr_scan", "android": "https://dc.lft.to/lastmile_qr_scan"}, "is_reserved": 0}, {"lon": -77.03266, "bike_id": "1da701f3e2432ac07d452618e6ea9e62", "lat": 38.936649833333334, "fusion_lon": 0.0, "fusion_lat": 0.0, "type": "electric_scooter", "name": "1da701f3e2432ac07d452618e6ea9e62", "is_disabled": 0, "rental_uris": {"ios": "https://dc.lft.to/lastmile_qr_scan", "android": "https://dc.lft.to/lastmile_qr_scan"}, "is_reserved": 0}, {"lon": -77.02134316666667, "bike_id": "9b53d71845747cdc6346fd5389e9d842", "lat": 38.916007, "fusion_lon": 0.0, "fusion_lat": 0.0, "type": "electric_scooter", "name": "9b53d71845747cdc6346fd5389e9d842", "is_disabled": 0, "rental_uris": {"ios": "https://dc.lft.to/lastmile_qr_scan", "android": "https://dc.lft.to/lastmile_qr_scan"}, "is_reserved": 0}, {"lon": -77.02157333333334, "bike_id": "bd58af50d2a4c36f7d48ab929d3afb4a", "lat": 38.897277, "fusion_lon": 0.0, "fusion_lat": 0.0, "type": "electric_scooter", "name": "bd58af50d2a4c36f7d48ab929d3afb4a", "is_disabled": 0, "rental_uris": {"ios": "https://dc.lft.to/lastmile_qr_scan", "android": "https://dc.lft.to/lastmile_qr_scan"}, "is_reserved": 0}, {"lon": -77.00213483333333, "bike_id": "3b4447e65dd02b599beb1c5f8b61d1f5", "lat": 38.9004625, "fusion_lon": 0.0, "fusion_lat": 0.0, "type": "electric_scooter", "name": "3b4447e65dd02b599beb1c5f8b61d1f5", "is_disabled": 0, "rental_uris": {"ios": "https://dc.lft.to/lastmile_qr_scan", "android": "https://dc.lft.to/lastmile_qr_scan"}, "is_reserved": 0}, {"lon": -77.1191305, "bike_id": "c60e022b0b39c2ace589ea07cb5e7635", "lat": 38.87634966666667, "fusion_lon": 0.0, "fusion_lat": 0.0, "type": "electric_bike", "name": "c60e022b0b39c2ace589ea07cb5e7635", "is_disabled": 0, "rental_uris": {"ios": "https://dc.lft.to/lastmile_qr_scan", "android": "https://dc.lft.to/lastmile_qr_scan"}, "is_reserved": 0}, {"lon": -77.010602, "bike_id": "f96dea5c9d0ccf4b4a2a84a86e2139b5", "lat": 38.96341783333333, "fusion_lon": 0.0, "fusion_lat": 0.0, "type": "electric_scooter", "name": "f96dea5c9d0ccf4b4a2a84a86e2139b5", "is_disabled": 0, "rental_uris": {"ios": "https://dc.lft.to/lastmile_qr_scan", "android": "https://dc.lft.to/lastmile_qr_scan"}, "is_reserved": 0}, {"lon": -77.03182333333334, "bike_id": "ffc577c03d0cecd898c3d68be631a4f0", "lat": 38.908722, "fusion_lon": 0.0, "fusion_lat": 0.0, "type": "electric_scooter", "name": "ffc577c03d0cecd898c3d68be631a4f0", "is_disabled": 0, "rental_uris": {"ios": "https://dc.lft.to/lastmile_qr_scan", "android": "https://dc.lft.to/lastmile_qr_scan"}, "is_reserved": 0}, {"lon": -77.03204316666667, "bike_id": "d38e6dc1ebb286f35933a24865a6e527", "lat": 38.909530333333336, "fusion_lon": 0.0, "fusion_lat": 0.0, "type": "electric_scooter", "name": "d38e6dc1ebb286f35933a24865a6e527", "is_disabled": 0, "rental_uris": {"ios": "https://dc.lft.to/lastmile_qr_scan", "android": "https://dc.lft.to/lastmile_qr_scan"}, "is_reserved": 0}, {"lon": -77.02834283333334, "bike_id": "da07f689c5a02bc041e32a46f0f58c44", "lat": 38.89527866666667, "fusion_lon": 0.0, "fusion_lat": 0.0, "type": "electric_scooter", "name": "da07f689c5a02bc041e32a46f0f58c44", "is_disabled": 0, "rental_uris": {"ios": "https://dc.lft.to/lastmile_qr_scan", "android": "https://dc.lft.to/lastmile_qr_scan"}, "is_reserved": 0}, {"lon": -77.0258955, "bike_id": "415757a3352a3ed45f828e2771483656", "lat": 38.904984, "fusion_lon": 0.0, "fusion_lat": 0.0, "type": "electric_scooter", "name": "415757a3352a3ed45f828e2771483656", "is_disabled": 0, "rental_uris": {"ios": "https://dc.lft.to/lastmile_qr_scan", "android": "https://dc.lft.to/lastmile_qr_scan"}, "is_reserved": 0}, {"lon": -77.00746183333334, "bike_id": "8ac9f0e5b3ca6c1a0ed87d30952454ae", "lat": 38.90484283333333, "fusion_lon": 0.0, "fusion_lat": 0.0, "type": "electric_scooter", "name": "8ac9f0e5b3ca6c1a0ed87d30952454ae", "is_disabled": 0, "rental_uris": {"ios": "https://dc.lft.to/lastmile_qr_scan", "android": "https://dc.lft.to/lastmile_qr_scan"}, "is_reserved": 0}, {"lon": -77.042155, "bike_id": "bd1b36c9e552af323a890a5eff1ab984", "lat": 38.91706083333333, "fusion_lon": 0.0, "fusion_lat": 0.0, "type": "electric_scooter", "name": "bd1b36c9e552af323a890a5eff1ab984", "is_disabled": 0, "rental_uris": {"ios": "https://dc.lft.to/lastmile_qr_scan", "android": "https://dc.lft.to/lastmile_qr_scan"}, "is_reserved": 0}, {"lon": -76.99531033333334, "bike_id": "5fba397c6972acdce0c9ccc78b468f50", "lat": 38.883733166666666, "fusion_lon": 0.0, "fusion_lat": 0.0, "type": "electric_scooter", "name": "5fba397c6972acdce0c9ccc78b468f50", "is_disabled": 0, "rental_uris": {"ios": "https://dc.lft.to/lastmile_qr_scan", "android": "https://dc.lft.to/lastmile_qr_scan"}, "is_reserved": 0}, {"lon": -77.01908133333333, "bike_id": "e3341d1eaa23f84720ea6d271cfe9928", "lat": 38.88602183333333, "fusion_lon": 0.0, "fusion_lat": 0.0, "type": "electric_scooter", "name": "e3341d1eaa23f84720ea6d271cfe9928", "is_disabled": 0, "rental_uris": {"ios": "https://dc.lft.to/lastmile_qr_scan", "android": "https://dc.lft.to/lastmile_qr_scan"}, "is_reserved": 0}, {"lon": -77.01021816666666, "bike_id": "e9d04e9b856350950befa09b4b246e9f", "lat": 38.894762666666665, "fusion_lon": 0.0, "fusion_lat": 0.0, "type": "electric_scooter", "name": "e9d04e9b856350950befa09b4b246e9f", "is_disabled": 0, "rental_uris": {"ios": "https://dc.lft.to/lastmile_qr_scan", "android": "https://dc.lft.to/lastmile_qr_scan"}, "is_reserved": 0}, {"lon": -77.03425166666666, "bike_id": "e58fb32ff2e2f1695e9902bfb872ec2f", "lat": 38.91930633333333, "fusion_lon": 0.0, "fusion_lat": 0.0, "type": "electric_scooter", "name": "e58fb32ff2e2f1695e9902bfb872ec2f", "is_disabled": 0, "rental_uris": {"ios": "https://dc.lft.to/lastmile_qr_scan", "android": "https://dc.lft.to/lastmile_qr_scan"}, "is_reserved": 0}, {"lon": -77.02624233333333, "bike_id": "a1bf9e5a0f0ba47e520cfd38684d8dd8", "lat": 38.962182, "fusion_lon": 0.0, "fusion_lat": 0.0, "type": "electric_bike", "name": "a1bf9e5a0f0ba47e520cfd38684d8dd8", "is_disabled": 0, "rental_uris": {"ios": "https://dc.lft.to/lastmile_qr_scan", "android": "https://dc.lft.to/lastmile_qr_scan"}, "is_reserved": 0}, {"lon": -77.03207333333333, "bike_id": "6b2230e085cabe39ac14fcd9ff1d1022", "lat": 38.9219015, "fusion_lon": 0.0, "fusion_lat": 0.0, "type": "electric_scooter", "name": "6b2230e085cabe39ac14fcd9ff1d1022", "is_disabled": 0, "rental_uris": {"ios": "https://dc.lft.to/lastmile_qr_scan", "android": "https://dc.lft.to/lastmile_qr_scan"}, "is_reserved": 0}, {"lon": -77.00924166666667, "bike_id": "dac680e6b064c356fd373c09d31d76c9", "lat": 38.89606116666667, "fusion_lon": 0.0, "fusion_lat": 0.0, "type": "electric_scooter", "name": "dac680e6b064c356fd373c09d31d76c9", "is_disabled": 0, "rental_uris": {"ios": "https://dc.lft.to/lastmile_qr_scan", "android": "https://dc.lft.to/lastmile_qr_scan"}, "is_reserved": 0}, {"lon": -77.01453333333333, "bike_id": "2dd132f86016b966cca8f63bff067266", "lat": 38.905194, "fusion_lon": 0.0, "fusion_lat": 0.0, "type": "electric_scooter", "name": "2dd132f86016b966cca8f63bff067266", "is_disabled": 0, "rental_uris": {"ios": "https://dc.lft.to/lastmile_qr_scan", "android": "https://dc.lft.to/lastmile_qr_scan"}, "is_reserved": 0}, {"lon": -77.03215933333334, "bike_id": "2545897741959206d97361b35b72f880", "lat": 38.89225066666667, "fusion_lon": 0.0, "fusion_lat": 0.0, "type": "electric_scooter", "name": "2545897741959206d97361b35b72f880", "is_disabled": 0, "rental_uris": {"ios": "https://dc.lft.to/lastmile_qr_scan", "android": "https://dc.lft.to/lastmile_qr_scan"}, "is_reserved": 0}, {"lon": -76.98843716666667, "bike_id": "f3369625000c624323d16f39d12916b8", "lat": 38.9012875, "fusion_lon": 0.0, "fusion_lat": 0.0, "type": "electric_scooter", "name": "f3369625000c624323d16f39d12916b8", "is_disabled": 0, "rental_uris": {"ios": "https://dc.lft.to/lastmile_qr_scan", "android": "https://dc.lft.to/lastmile_qr_scan"}, "is_reserved": 0}, {"lon": -77.03470183333333, "bike_id": "867632e2accca8a39d8665b31f78d189", "lat": 38.900313, "fusion_lon": 0.0, "fusion_lat": 0.0, "type": "electric_scooter", "name": "867632e2accca8a39d8665b31f78d189", "is_disabled": 0, "rental_uris": {"ios": "https://dc.lft.to/lastmile_qr_scan", "android": "https://dc.lft.to/lastmile_qr_scan"}, "is_reserved": 0}, {"lon": -77.01534666666667, "bike_id": "cebcb9702c0c50c9d61cc9b6616a023a", "lat": 38.9097075, "fusion_lon": 0.0, "fusion_lat": 0.0, "type": "electric_bike", "name": "cebcb9702c0c50c9d61cc9b6616a023a", "is_disabled": 0, "rental_uris": {"ios": "https://dc.lft.to/lastmile_qr_scan", "android": "https://dc.lft.to/lastmile_qr_scan"}, "is_reserved": 0}, {"lon": -77.1221905, "bike_id": "bf30ee704a38e52cacf35561c5443d05", "lat": 38.8530305, "fusion_lon": 0.0, "fusion_lat": 0.0, "type": "electric_bike", "name": "bf30ee704a38e52cacf35561c5443d05", "is_disabled": 0, "rental_uris": {"ios": "https://dc.lft.to/lastmile_qr_scan", "android": "https://dc.lft.to/lastmile_qr_scan"}, "is_reserved": 0}, {"lon": -77.04058533333334, "bike_id": "06cdfc5ddc1db083a254dff558cdc816", "lat": 38.914828166666666, "fusion_lon": 0.0, "fusion_lat": 0.0, "type": "electric_scooter", "name": "06cdfc5ddc1db083a254dff558cdc816", "is_disabled": 0, "rental_uris": {"ios": "https://dc.lft.to/lastmile_qr_scan", "android": "https://dc.lft.to/lastmile_qr_scan"}, "is_reserved": 0}, {"lon": -77.01124866666666, "bike_id": "16df278b4435bf66dca0f93f5556c4cd", "lat": 38.894770333333334, "fusion_lon": 0.0, "fusion_lat": 0.0, "type": "electric_scooter", "name": "16df278b4435bf66dca0f93f5556c4cd", "is_disabled": 0, "rental_uris": {"ios": "https://dc.lft.to/lastmile_qr_scan", "android": "https://dc.lft.to/lastmile_qr_scan"}, "is_reserved": 0}, {"lon": -77.02168116666667, "bike_id": "5709e6df96f5b696e5980c81c883bcaf", "lat": 38.9250775, "fusion_lon": 0.0, "fusion_lat": 0.0, "type": "electric_scooter", "name": "5709e6df96f5b696e5980c81c883bcaf", "is_disabled": 0, "rental_uris": {"ios": "https://dc.lft.to/lastmile_qr_scan", "android": "https://dc.lft.to/lastmile_qr_scan"}, "is_reserved": 0}, {"lon": -77.0113625, "bike_id": "cfb1148bd37e7e444ccce3ec2595b813", "lat": 38.8955605, "fusion_lon": 0.0, "fusion_lat": 0.0, "type": "electric_scooter", "name": "cfb1148bd37e7e444ccce3ec2595b813", "is_disabled": 0, "rental_uris": {"ios": "https://dc.lft.to/lastmile_qr_scan", "android": "https://dc.lft.to/lastmile_qr_scan"}, "is_reserved": 0}, {"lon": -77.10839583333333, "bike_id": "b6cb3fc97db1d1f8974b5768b97a6e90", "lat": 38.81200366666667, "fusion_lon": 0.0, "fusion_lat": 0.0, "type": "electric_bike", "name": "b6cb3fc97db1d1f8974b5768b97a6e90", "is_disabled": 0, "rental_uris": {"ios": "https://dc.lft.to/lastmile_qr_scan", "android": "https://dc.lft.to/lastmile_qr_scan"}, "is_reserved": 0}, {"lon": -77.02970066666667, "bike_id": "e7795cf5f28bdecc319d246d2137f8bc", "lat": 38.9049545, "fusion_lon": 0.0, "fusion_lat": 0.0, "type": "electric_scooter", "name": "e7795cf5f28bdecc319d246d2137f8bc", "is_disabled": 0, "rental_uris": {"ios": "https://dc.lft.to/lastmile_qr_scan", "android": "https://dc.lft.to/lastmile_qr_scan"}, "is_reserved": 0}, {"lon": -77.0325945, "bike_id": "1c3e2f1860d0cd3b0cfa9aad62d69b15", "lat": 38.901167666666666, "fusion_lon": 0.0, "fusion_lat": 0.0, "type": "electric_scooter", "name": "1c3e2f1860d0cd3b0cfa9aad62d69b15", "is_disabled": 0, "rental_uris": {"ios": "https://dc.lft.to/lastmile_qr_scan", "android": "https://dc.lft.to/lastmile_qr_scan"}, "is_reserved": 0}, {"lon": -77.03486716666667, "bike_id": "8190a2676b051153aa934f4546f7ba27", "lat": 38.919922166666666, "fusion_lon": 0.0, "fusion_lat": 0.0, "type": "electric_scooter", "name": "8190a2676b051153aa934f4546f7ba27", "is_disabled": 0, "rental_uris": {"ios": "https://dc.lft.to/lastmile_qr_scan", "android": "https://dc.lft.to/lastmile_qr_scan"}, "is_reserved": 0}, {"lon": -77.01456733333333, "bike_id": "f645c6061d6cc4c3ede1d73415ecca2a", "lat": 38.917700333333336, "fusion_lon": 0.0, "fusion_lat": 0.0, "type": "electric_scooter", "name": "f645c6061d6cc4c3ede1d73415ecca2a", "is_disabled": 0, "rental_uris": {"ios": "https://dc.lft.to/lastmile_qr_scan", "android": "https://dc.lft.to/lastmile_qr_scan"}, "is_reserved": 0}, {"lon": -77.04008083333333, "bike_id": "f8998b1c28d0be76ed747b9526ed5b08", "lat": 38.90993116666667, "fusion_lon": 0.0, "fusion_lat": 0.0, "type": "electric_scooter", "name": "f8998b1c28d0be76ed747b9526ed5b08", "is_disabled": 0, "rental_uris": {"ios": "https://dc.lft.to/lastmile_qr_scan", "android": "https://dc.lft.to/lastmile_qr_scan"}, "is_reserved": 0}, {"lon": -77.03629666666667, "bike_id": "8e68f635e720f52871052bda55ec3a20", "lat": 38.9316035, "fusion_lon": 0.0, "fusion_lat": 0.0, "type": "electric_scooter", "name": "8e68f635e720f52871052bda55ec3a20", "is_disabled": 0, "rental_uris": {"ios": "https://dc.lft.to/lastmile_qr_scan", "android": "https://dc.lft.to/lastmile_qr_scan"}, "is_reserved": 0}, {"lon": -77.0256675, "bike_id": "7369c7c20252fa36e9dcc1ada2092c04", "lat": 38.914887666666665, "fusion_lon": 0.0, "fusion_lat": 0.0, "type": "electric_scooter", "name": "7369c7c20252fa36e9dcc1ada2092c04", "is_disabled": 0, "rental_uris": {"ios": "https://dc.lft.to/lastmile_qr_scan", "android": "https://dc.lft.to/lastmile_qr_scan"}, "is_reserved": 0}, {"lon": -76.89537983333334, "bike_id": "c4708a380c8d79aad2233ac4078eae5b", "lat": 38.94555733333333, "fusion_lon": 0.0, "fusion_lat": 0.0, "type": "electric_bike", "name": "c4708a380c8d79aad2233ac4078eae5b", "is_disabled": 0, "rental_uris": {"ios": "https://dc.lft.to/lastmile_qr_scan", "android": "https://dc.lft.to/lastmile_qr_scan"}, "is_reserved": 0}, {"lon": -77.03216016666667, "bike_id": "c7cfdfc647b41793c7960ad2b3bd9ccd", "lat": 38.907316333333334, "fusion_lon": 0.0, "fusion_lat": 0.0, "type": "electric_scooter", "name": "c7cfdfc647b41793c7960ad2b3bd9ccd", "is_disabled": 0, "rental_uris": {"ios": "https://dc.lft.to/lastmile_qr_scan", "android": "https://dc.lft.to/lastmile_qr_scan"}, "is_reserved": 0}, {"lon": -77.020759, "bike_id": "f28e2c1a0cb5891bf797a691fb67105b", "lat": 38.899898666666665, "fusion_lon": 0.0, "fusion_lat": 0.0, "type": "electric_scooter", "name": "f28e2c1a0cb5891bf797a691fb67105b", "is_disabled": 0, "rental_uris": {"ios": "https://dc.lft.to/lastmile_qr_scan", "android": "https://dc.lft.to/lastmile_qr_scan"}, "is_reserved": 0}, {"lon": -76.97812983333333, "bike_id": "9b685a99a1b12b4a950e114b98a54ace", "lat": 38.90673266666667, "fusion_lon": 0.0, "fusion_lat": 0.0, "type": "electric_scooter", "name": "9b685a99a1b12b4a950e114b98a54ace", "is_disabled": 0, "rental_uris": {"ios": "https://dc.lft.to/lastmile_qr_scan", "android": "https://dc.lft.to/lastmile_qr_scan"}, "is_reserved": 0}, {"lon": -77.07108966666667, "bike_id": "fbccc39c7c7ec22a8286ebabf342819f", "lat": 38.91972666666667, "fusion_lon": 0.0, "fusion_lat": 0.0, "type": "electric_scooter", "name": "fbccc39c7c7ec22a8286ebabf342819f", "is_disabled": 0, "rental_uris": {"ios": "https://dc.lft.to/lastmile_qr_scan", "android": "https://dc.lft.to/lastmile_qr_scan"}, "is_reserved": 0}, {"lon": -76.9917795, "bike_id": "ada2da862aba63dc4ed69dec3014777d", "lat": 38.90509016666667, "fusion_lon": 0.0, "fusion_lat": 0.0, "type": "electric_scooter", "name": "ada2da862aba63dc4ed69dec3014777d", "is_disabled": 0, "rental_uris": {"ios": "https://dc.lft.to/lastmile_qr_scan", "android": "https://dc.lft.to/lastmile_qr_scan"}, "is_reserved": 0}, {"lon": -77.037626, "bike_id": "4a35ff9003ced58a35e3e913c598e30e", "lat": 38.92560016666667, "fusion_lon": 0.0, "fusion_lat": 0.0, "type": "electric_scooter", "name": "4a35ff9003ced58a35e3e913c598e30e", "is_disabled": 0, "rental_uris": {"ios": "https://dc.lft.to/lastmile_qr_scan", "android": "https://dc.lft.to/lastmile_qr_scan"}, "is_reserved": 0}, {"lon": -76.97926583333333, "bike_id": "8c57b7a483415bdb8e0e63d54f430223", "lat": 38.90500183333333, "fusion_lon": 0.0, "fusion_lat": 0.0, "type": "electric_scooter", "name": "8c57b7a483415bdb8e0e63d54f430223", "is_disabled": 0, "rental_uris": {"ios": "https://dc.lft.to/lastmile_qr_scan", "android": "https://dc.lft.to/lastmile_qr_scan"}, "is_reserved": 0}, {"lon": -76.9945415, "bike_id": "289c403da78b5af15fd21241c1250699", "lat": 38.96620033333333, "fusion_lon": 0.0, "fusion_lat": 0.0, "type": "electric_bike", "name": "289c403da78b5af15fd21241c1250699", "is_disabled": 0, "rental_uris": {"ios": "https://dc.lft.to/lastmile_qr_scan", "android": "https://dc.lft.to/lastmile_qr_scan"}, "is_reserved": 0}, {"lon": -77.0986465, "bike_id": "39b772f2a75e7fdc50512547712fcece", "lat": 38.94969566666666, "fusion_lon": 0.0, "fusion_lat": 0.0, "type": "electric_scooter", "name": "39b772f2a75e7fdc50512547712fcece", "is_disabled": 0, "rental_uris": {"ios": "https://dc.lft.to/lastmile_qr_scan", "android": "https://dc.lft.to/lastmile_qr_scan"}, "is_reserved": 0}, {"lon": -77.02726316666667, "bike_id": "8b32eeb0f4a2421fb28a3ef71e9d620f", "lat": 38.897199666666666, "fusion_lon": 0.0, "fusion_lat": 0.0, "type": "electric_scooter", "name": "8b32eeb0f4a2421fb28a3ef71e9d620f", "is_disabled": 0, "rental_uris": {"ios": "https://dc.lft.to/lastmile_qr_scan", "android": "https://dc.lft.to/lastmile_qr_scan"}, "is_reserved": 0}, {"lon": -77.03738816666667, "bike_id": "85b181feb7d567289227e661f03b137f", "lat": 38.9180695, "fusion_lon": 0.0, "fusion_lat": 0.0, "type": "electric_scooter", "name": "85b181feb7d567289227e661f03b137f", "is_disabled": 0, "rental_uris": {"ios": "https://dc.lft.to/lastmile_qr_scan", "android": "https://dc.lft.to/lastmile_qr_scan"}, "is_reserved": 0}, {"lon": -76.99543583333333, "bike_id": "3e5cf3f385c449741c95d95c495dfaf8", "lat": 38.86261183333333, "fusion_lon": 0.0, "fusion_lat": 0.0, "type": "electric_scooter", "name": "3e5cf3f385c449741c95d95c495dfaf8", "is_disabled": 0, "rental_uris": {"ios": "https://dc.lft.to/lastmile_qr_scan", "android": "https://dc.lft.to/lastmile_qr_scan"}, "is_reserved": 0}, {"lon": -77.013144, "bike_id": "26072184d6b6d5ba8e7e9b7ddbef08b6", "lat": 38.8715255, "fusion_lon": 0.0, "fusion_lat": 0.0, "type": "electric_scooter", "name": "26072184d6b6d5ba8e7e9b7ddbef08b6", "is_disabled": 0, "rental_uris": {"ios": "https://dc.lft.to/lastmile_qr_scan", "android": "https://dc.lft.to/lastmile_qr_scan"}, "is_reserved": 0}, {"lon": -77.0006865, "bike_id": "b2cd3e8cef620bd146de6a31b7509c21", "lat": 38.875363666666665, "fusion_lon": 0.0, "fusion_lat": 0.0, "type": "electric_scooter", "name": "b2cd3e8cef620bd146de6a31b7509c21", "is_disabled": 0, "rental_uris": {"ios": "https://dc.lft.to/lastmile_qr_scan", "android": "https://dc.lft.to/lastmile_qr_scan"}, "is_reserved": 0}, {"lon": -77.011428, "bike_id": "b4622e4c0b1d6bcb93d3ee396397937b", "lat": 38.90028266666667, "fusion_lon": 0.0, "fusion_lat": 0.0, "type": "electric_scooter", "name": "b4622e4c0b1d6bcb93d3ee396397937b", "is_disabled": 0, "rental_uris": {"ios": "https://dc.lft.to/lastmile_qr_scan", "android": "https://dc.lft.to/lastmile_qr_scan"}, "is_reserved": 0}, {"lon": -76.99001816666667, "bike_id": "97bfa6e4fd69b5cf71c6eedeb3479f53", "lat": 38.865077666666664, "fusion_lon": 0.0, "fusion_lat": 0.0, "type": "electric_scooter", "name": "97bfa6e4fd69b5cf71c6eedeb3479f53", "is_disabled": 0, "rental_uris": {"ios": "https://dc.lft.to/lastmile_qr_scan", "android": "https://dc.lft.to/lastmile_qr_scan"}, "is_reserved": 0}, {"lon": -76.993655, "bike_id": "c7d8da31a8639a52bac5c4f736f3119a", "lat": 38.879784, "fusion_lon": 0.0, "fusion_lat": 0.0, "type": "electric_scooter", "name": "c7d8da31a8639a52bac5c4f736f3119a", "is_disabled": 0, "rental_uris": {"ios": "https://dc.lft.to/lastmile_qr_scan", "android": "https://dc.lft.to/lastmile_qr_scan"}, "is_reserved": 0}, {"lon": -77.00835133333334, "bike_id": "616c423a892e9bd6ce0f3824b09c6e57", "lat": 38.913468333333334, "fusion_lon": 0.0, "fusion_lat": 0.0, "type": "electric_scooter", "name": "616c423a892e9bd6ce0f3824b09c6e57", "is_disabled": 0, "rental_uris": {"ios": "https://dc.lft.to/lastmile_qr_scan", "android": "https://dc.lft.to/lastmile_qr_scan"}, "is_reserved": 0}, {"lon": -77.044784, "bike_id": "eebfa0ea30f0b9713289973692c7fc84", "lat": 38.92422766666667, "fusion_lon": 0.0, "fusion_lat": 0.0, "type": "electric_scooter", "name": "eebfa0ea30f0b9713289973692c7fc84", "is_disabled": 0, "rental_uris": {"ios": "https://dc.lft.to/lastmile_qr_scan", "android": "https://dc.lft.to/lastmile_qr_scan"}, "is_reserved": 0}, {"lon": -77.03950683333333, "bike_id": "d84a8a4914a3533fa6fb12eb61f40ce2", "lat": 38.913924, "fusion_lon": 0.0, "fusion_lat": 0.0, "type": "electric_scooter", "name": "d84a8a4914a3533fa6fb12eb61f40ce2", "is_disabled": 0, "rental_uris": {"ios": "https://dc.lft.to/lastmile_qr_scan", "android": "https://dc.lft.to/lastmile_qr_scan"}, "is_reserved": 0}, {"lon": -77.04134766666667, "bike_id": "c95a4beb9c7384a87ec8c2a2be83d571", "lat": 38.90633166666667, "fusion_lon": 0.0, "fusion_lat": 0.0, "type": "electric_scooter", "name": "c95a4beb9c7384a87ec8c2a2be83d571", "is_disabled": 0, "rental_uris": {"ios": "https://dc.lft.to/lastmile_qr_scan", "android": "https://dc.lft.to/lastmile_qr_scan"}, "is_reserved": 0}, {"lon": -77.02745616666667, "bike_id": "a257603bc1017793adb3d26529817e1c", "lat": 38.9418335, "fusion_lon": 0.0, "fusion_lat": 0.0, "type": "electric_scooter", "name": "a257603bc1017793adb3d26529817e1c", "is_disabled": 0, "rental_uris": {"ios": "https://dc.lft.to/lastmile_qr_scan", "android": "https://dc.lft.to/lastmile_qr_scan"}, "is_reserved": 0}, {"lon": -76.99639966666666, "bike_id": "4a4221bcfd38cbfd3859925d61a68199", "lat": 38.900297333333334, "fusion_lon": 0.0, "fusion_lat": 0.0, "type": "electric_scooter", "name": "4a4221bcfd38cbfd3859925d61a68199", "is_disabled": 0, "rental_uris": {"ios": "https://dc.lft.to/lastmile_qr_scan", "android": "https://dc.lft.to/lastmile_qr_scan"}, "is_reserved": 0}, {"lon": -77.03052333333333, "bike_id": "bf62a5944daca98ca3f5a0f5800a9189", "lat": 38.8841725, "fusion_lon": 0.0, "fusion_lat": 0.0, "type": "electric_scooter", "name": "bf62a5944daca98ca3f5a0f5800a9189", "is_disabled": 0, "rental_uris": {"ios": "https://dc.lft.to/lastmile_qr_scan", "android": "https://dc.lft.to/lastmile_qr_scan"}, "is_reserved": 0}, {"lon": -77.05197183333334, "bike_id": "5e17c4a0797d2df992189412f7e656e9", "lat": 38.899554, "fusion_lon": 0.0, "fusion_lat": 0.0, "type": "electric_scooter", "name": "5e17c4a0797d2df992189412f7e656e9", "is_disabled": 0, "rental_uris": {"ios": "https://dc.lft.to/lastmile_qr_scan", "android": "https://dc.lft.to/lastmile_qr_scan"}, "is_reserved": 0}, {"lon": -77.01823866666666, "bike_id": "f47ec78337d9e87542211c8184ea7b0e", "lat": 38.90139966666667, "fusion_lon": 0.0, "fusion_lat": 0.0, "type": "electric_scooter", "name": "f47ec78337d9e87542211c8184ea7b0e", "is_disabled": 0, "rental_uris": {"ios": "https://dc.lft.to/lastmile_qr_scan", "android": "https://dc.lft.to/lastmile_qr_scan"}, "is_reserved": 0}, {"lon": -76.99626466666666, "bike_id": "5908e0f2a8f37d858818ce632868bc71", "lat": 38.8880155, "fusion_lon": 0.0, "fusion_lat": 0.0, "type": "electric_scooter", "name": "5908e0f2a8f37d858818ce632868bc71", "is_disabled": 0, "rental_uris": {"ios": "https://dc.lft.to/lastmile_qr_scan", "android": "https://dc.lft.to/lastmile_qr_scan"}, "is_reserved": 0}, {"lon": -76.94123066666667, "bike_id": "0391f2e12597da40997b058d88dbfe84", "lat": 38.908300833333335, "fusion_lon": 0.0, "fusion_lat": 0.0, "type": "electric_scooter", "name": "0391f2e12597da40997b058d88dbfe84", "is_disabled": 0, "rental_uris": {"ios": "https://dc.lft.to/lastmile_qr_scan", "android": "https://dc.lft.to/lastmile_qr_scan"}, "is_reserved": 0}, {"lon": -77.04317333333333, "bike_id": "58b78965db0ba3f27478110f7e7af3b8", "lat": 38.9126995, "fusion_lon": 0.0, "fusion_lat": 0.0, "type": "electric_scooter", "name": "58b78965db0ba3f27478110f7e7af3b8", "is_disabled": 0, "rental_uris": {"ios": "https://dc.lft.to/lastmile_qr_scan", "android": "https://dc.lft.to/lastmile_qr_scan"}, "is_reserved": 0}, {"lon": -76.99049166666667, "bike_id": "db54b174ed3ef4f80056971abedf82ed", "lat": 38.863823833333335, "fusion_lon": 0.0, "fusion_lat": 0.0, "type": "electric_scooter", "name": "db54b174ed3ef4f80056971abedf82ed", "is_disabled": 0, "rental_uris": {"ios": "https://dc.lft.to/lastmile_qr_scan", "android": "https://dc.lft.to/lastmile_qr_scan"}, "is_reserved": 0}, {"lon": -77.05290483333333, "bike_id": "c4ad6d77474ed1ec8fa0b9ddb60bff0f", "lat": 38.903389833333335, "fusion_lon": 0.0, "fusion_lat": 0.0, "type": "electric_scooter", "name": "c4ad6d77474ed1ec8fa0b9ddb60bff0f", "is_disabled": 0, "rental_uris": {"ios": "https://dc.lft.to/lastmile_qr_scan", "android": "https://dc.lft.to/lastmile_qr_scan"}, "is_reserved": 0}, {"lon": -77.033909, "bike_id": "98440b98d8d3a57e1a6e8f3110179ff1", "lat": 38.938879166666666, "fusion_lon": 0.0, "fusion_lat": 0.0, "type": "electric_scooter", "name": "98440b98d8d3a57e1a6e8f3110179ff1", "is_disabled": 0, "rental_uris": {"ios": "https://dc.lft.to/lastmile_qr_scan", "android": "https://dc.lft.to/lastmile_qr_scan"}, "is_reserved": 0}, {"lon": -77.00066316666667, "bike_id": "6f9ca56af3d68af8230cb2b2ebdbe400", "lat": 38.900872666666665, "fusion_lon": 0.0, "fusion_lat": 0.0, "type": "electric_scooter", "name": "6f9ca56af3d68af8230cb2b2ebdbe400", "is_disabled": 0, "rental_uris": {"ios": "https://dc.lft.to/lastmile_qr_scan", "android": "https://dc.lft.to/lastmile_qr_scan"}, "is_reserved": 0}, {"lon": -77.0385705, "bike_id": "b7344eb2077bebaa40a48c0f3c549585", "lat": 38.912570333333335, "fusion_lon": 0.0, "fusion_lat": 0.0, "type": "electric_scooter", "name": "b7344eb2077bebaa40a48c0f3c549585", "is_disabled": 0, "rental_uris": {"ios": "https://dc.lft.to/lastmile_qr_scan", "android": "https://dc.lft.to/lastmile_qr_scan"}, "is_reserved": 0}, {"lon": -77.02579883333334, "bike_id": "333d6501c182094e669f765d8130e7e9", "lat": 38.88740133333334, "fusion_lon": 0.0, "fusion_lat": 0.0, "type": "electric_scooter", "name": "333d6501c182094e669f765d8130e7e9", "is_disabled": 0, "rental_uris": {"ios": "https://dc.lft.to/lastmile_qr_scan", "android": "https://dc.lft.to/lastmile_qr_scan"}, "is_reserved": 0}, {"lon": -76.99373183333333, "bike_id": "8f79597410ddea2d3a0fa72899038f8f", "lat": 38.893735, "fusion_lon": 0.0, "fusion_lat": 0.0, "type": "electric_scooter", "name": "8f79597410ddea2d3a0fa72899038f8f", "is_disabled": 0, "rental_uris": {"ios": "https://dc.lft.to/lastmile_qr_scan", "android": "https://dc.lft.to/lastmile_qr_scan"}, "is_reserved": 0}, {"lon": -77.02317283333333, "bike_id": "81e8e65e9494672c9eeb44de4cb8d4f5", "lat": 38.94967233333333, "fusion_lon": 0.0, "fusion_lat": 0.0, "type": "electric_scooter", "name": "81e8e65e9494672c9eeb44de4cb8d4f5", "is_disabled": 0, "rental_uris": {"ios": "https://dc.lft.to/lastmile_qr_scan", "android": "https://dc.lft.to/lastmile_qr_scan"}, "is_reserved": 0}, {"lon": -77.0067915, "bike_id": "5bcdc809b9509a7a3c8602f904cb8f28", "lat": 38.834984, "fusion_lon": 0.0, "fusion_lat": 0.0, "type": "electric_scooter", "name": "5bcdc809b9509a7a3c8602f904cb8f28", "is_disabled": 0, "rental_uris": {"ios": "https://dc.lft.to/lastmile_qr_scan", "android": "https://dc.lft.to/lastmile_qr_scan"}, "is_reserved": 0}, {"lon": -76.94790233333333, "bike_id": "d25917c9fb2774f243ea10172c529562", "lat": 38.861865333333334, "fusion_lon": 0.0, "fusion_lat": 0.0, "type": "electric_bike", "name": "d25917c9fb2774f243ea10172c529562", "is_disabled": 0, "rental_uris": {"ios": "https://dc.lft.to/lastmile_qr_scan", "android": "https://dc.lft.to/lastmile_qr_scan"}, "is_reserved": 0}, {"lon": -77.017679, "bike_id": "441e7c0098f8548ada7e7a74fac570d2", "lat": 38.8873915, "fusion_lon": 0.0, "fusion_lat": 0.0, "type": "electric_scooter", "name": "441e7c0098f8548ada7e7a74fac570d2", "is_disabled": 0, "rental_uris": {"ios": "https://dc.lft.to/lastmile_qr_scan", "android": "https://dc.lft.to/lastmile_qr_scan"}, "is_reserved": 0}, {"lon": -76.94880033333334, "bike_id": "639d3b9a7c762d8549af7e8110837e46", "lat": 38.894294333333335, "fusion_lon": 0.0, "fusion_lat": 0.0, "type": "electric_scooter", "name": "639d3b9a7c762d8549af7e8110837e46", "is_disabled": 0, "rental_uris": {"ios": "https://dc.lft.to/lastmile_qr_scan", "android": "https://dc.lft.to/lastmile_qr_scan"}, "is_reserved": 0}, {"lon": -76.97727533333334, "bike_id": "6951df06d7c0f526ac94f44dabf26243", "lat": 38.872435833333334, "fusion_lon": 0.0, "fusion_lat": 0.0, "type": "electric_scooter", "name": "6951df06d7c0f526ac94f44dabf26243", "is_disabled": 0, "rental_uris": {"ios": "https://dc.lft.to/lastmile_qr_scan", "android": "https://dc.lft.to/lastmile_qr_scan"}, "is_reserved": 0}, {"lon": -77.06803716666667, "bike_id": "28d140ea2052830e1ddedde61ad6a484", "lat": 38.912763, "fusion_lon": 0.0, "fusion_lat": 0.0, "type": "electric_scooter", "name": "28d140ea2052830e1ddedde61ad6a484", "is_disabled": 0, "rental_uris": {"ios": "https://dc.lft.to/lastmile_qr_scan", "android": "https://dc.lft.to/lastmile_qr_scan"}, "is_reserved": 0}, {"lon": -76.921068, "bike_id": "18cfaeec8139d19edffab08a2300f965", "lat": 38.891085, "fusion_lon": 0.0, "fusion_lat": 0.0, "type": "electric_scooter", "name": "18cfaeec8139d19edffab08a2300f965", "is_disabled": 0, "rental_uris": {"ios": "https://dc.lft.to/lastmile_qr_scan", "android": "https://dc.lft.to/lastmile_qr_scan"}, "is_reserved": 0}, {"lon": -77.1392755, "bike_id": "a3a7189cf1bbfc7af6c96392e929c41f", "lat": 38.872974666666664, "fusion_lon": 0.0, "fusion_lat": 0.0, "type": "electric_bike", "name": "a3a7189cf1bbfc7af6c96392e929c41f", "is_disabled": 0, "rental_uris": {"ios": "https://dc.lft.to/lastmile_qr_scan", "android": "https://dc.lft.to/lastmile_qr_scan"}, "is_reserved": 0}, {"lon": -76.98233583333334, "bike_id": "128cb36a34db630553fd295a052eabe2", "lat": 38.8647795, "fusion_lon": 0.0, "fusion_lat": 0.0, "type": "electric_scooter", "name": "128cb36a34db630553fd295a052eabe2", "is_disabled": 0, "rental_uris": {"ios": "https://dc.lft.to/lastmile_qr_scan", "android": "https://dc.lft.to/lastmile_qr_scan"}, "is_reserved": 0}, {"lon": -76.97208633333334, "bike_id": "9d67cde7ce76728154cec3734d23c2f2", "lat": 38.892914166666664, "fusion_lon": 0.0, "fusion_lat": 0.0, "type": "electric_bike", "name": "9d67cde7ce76728154cec3734d23c2f2", "is_disabled": 0, "rental_uris": {"ios": "https://dc.lft.to/lastmile_qr_scan", "android": "https://dc.lft.to/lastmile_qr_scan"}, "is_reserved": 0}, {"lon": -77.0563295, "bike_id": "27b7de6e8b3012d83aa970e228fb8858", "lat": 38.923253, "fusion_lon": 0.0, "fusion_lat": 0.0, "type": "electric_scooter", "name": "27b7de6e8b3012d83aa970e228fb8858", "is_disabled": 0, "rental_uris": {"ios": "https://dc.lft.to/lastmile_qr_scan", "android": "https://dc.lft.to/lastmile_qr_scan"}, "is_reserved": 0}, {"lon": -77.00975633333333, "bike_id": "a96aa58df964b6132fc88e0a096a5852", "lat": 38.870740166666664, "fusion_lon": 0.0, "fusion_lat": 0.0, "type": "electric_scooter", "name": "a96aa58df964b6132fc88e0a096a5852", "is_disabled": 0, "rental_uris": {"ios": "https://dc.lft.to/lastmile_qr_scan", "android": "https://dc.lft.to/lastmile_qr_scan"}, "is_reserved": 0}, {"lon": -77.03506383333334, "bike_id": "e516a27ffe808551677e83e5a7d63440", "lat": 38.9651045, "fusion_lon": 0.0, "fusion_lat": 0.0, "type": "electric_bike", "name": "e516a27ffe808551677e83e5a7d63440", "is_disabled": 0, "rental_uris": {"ios": "https://dc.lft.to/lastmile_qr_scan", "android": "https://dc.lft.to/lastmile_qr_scan"}, "is_reserved": 0}, {"lon": -76.98843266666667, "bike_id": "b1fa4304bbb0ca3d845a7baedbf6baea", "lat": 38.89671216666667, "fusion_lon": 0.0, "fusion_lat": 0.0, "type": "electric_scooter", "name": "b1fa4304bbb0ca3d845a7baedbf6baea", "is_disabled": 0, "rental_uris": {"ios": "https://dc.lft.to/lastmile_qr_scan", "android": "https://dc.lft.to/lastmile_qr_scan"}, "is_reserved": 0}, {"lon": -77.02485483333334, "bike_id": "593a1aeb2f58a356a0ef0671de82ad1f", "lat": 38.90325816666667, "fusion_lon": 0.0, "fusion_lat": 0.0, "type": "electric_scooter", "name": "593a1aeb2f58a356a0ef0671de82ad1f", "is_disabled": 0, "rental_uris": {"ios": "https://dc.lft.to/lastmile_qr_scan", "android": "https://dc.lft.to/lastmile_qr_scan"}, "is_reserved": 0}, {"lon": -77.022117, "bike_id": "fa55d1e306216bd5655351554f0cec4d", "lat": 38.893528, "fusion_lon": 0.0, "fusion_lat": 0.0, "type": "electric_scooter", "name": "fa55d1e306216bd5655351554f0cec4d", "is_disabled": 0, "rental_uris": {"ios": "https://dc.lft.to/lastmile_qr_scan", "android": "https://dc.lft.to/lastmile_qr_scan"}, "is_reserved": 0}, {"lon": -77.01515483333333, "bike_id": "b0cf3c4edea7b70dbe6b07567e2545d6", "lat": 38.918729, "fusion_lon": 0.0, "fusion_lat": 0.0, "type": "electric_scooter", "name": "b0cf3c4edea7b70dbe6b07567e2545d6", "is_disabled": 0, "rental_uris": {"ios": "https://dc.lft.to/lastmile_qr_scan", "android": "https://dc.lft.to/lastmile_qr_scan"}, "is_reserved": 0}, {"lon": -77.048672, "bike_id": "3016f651ded7bee32a76f5b1e08958fd", "lat": 38.90607416666667, "fusion_lon": 0.0, "fusion_lat": 0.0, "type": "electric_scooter", "name": "3016f651ded7bee32a76f5b1e08958fd", "is_disabled": 0, "rental_uris": {"ios": "https://dc.lft.to/lastmile_qr_scan", "android": "https://dc.lft.to/lastmile_qr_scan"}, "is_reserved": 0}, {"lon": -77.01701516666667, "bike_id": "19c628ff2a8eab33cb50fddf4b341083", "lat": 38.9045875, "fusion_lon": 0.0, "fusion_lat": 0.0, "type": "electric_scooter", "name": "19c628ff2a8eab33cb50fddf4b341083", "is_disabled": 0, "rental_uris": {"ios": "https://dc.lft.to/lastmile_qr_scan", "android": "https://dc.lft.to/lastmile_qr_scan"}, "is_reserved": 0}, {"lon": -76.972455, "bike_id": "ae2734591d6cc972903d5de91245c87f", "lat": 38.903438, "fusion_lon": 0.0, "fusion_lat": 0.0, "type": "electric_scooter", "name": "ae2734591d6cc972903d5de91245c87f", "is_disabled": 0, "rental_uris": {"ios": "https://dc.lft.to/lastmile_qr_scan", "android": "https://dc.lft.to/lastmile_qr_scan"}, "is_reserved": 0}, {"lon": -76.98334466666667, "bike_id": "10b0a3c2fadf55fd5ab99786a522487f", "lat": 38.895466, "fusion_lon": 0.0, "fusion_lat": 0.0, "type": "electric_scooter", "name": "10b0a3c2fadf55fd5ab99786a522487f", "is_disabled": 0, "rental_uris": {"ios": "https://dc.lft.to/lastmile_qr_scan", "android": "https://dc.lft.to/lastmile_qr_scan"}, "is_reserved": 0}, {"lon": -76.997094, "bike_id": "e16f974c9b55b0203482ca5da13061b8", "lat": 38.8925515, "fusion_lon": 0.0, "fusion_lat": 0.0, "type": "electric_scooter", "name": "e16f974c9b55b0203482ca5da13061b8", "is_disabled": 0, "rental_uris": {"ios": "https://dc.lft.to/lastmile_qr_scan", "android": "https://dc.lft.to/lastmile_qr_scan"}, "is_reserved": 0}, {"lon": -77.0198555, "bike_id": "eaffffba1254b7b98c7365d0df032efa", "lat": 38.88588416666666, "fusion_lon": 0.0, "fusion_lat": 0.0, "type": "electric_scooter", "name": "eaffffba1254b7b98c7365d0df032efa", "is_disabled": 0, "rental_uris": {"ios": "https://dc.lft.to/lastmile_qr_scan", "android": "https://dc.lft.to/lastmile_qr_scan"}, "is_reserved": 0}, {"lon": -76.9909865, "bike_id": "c1d7bf3fa6f5b05ae7e77c5d42781dd3", "lat": 38.903183166666665, "fusion_lon": 0.0, "fusion_lat": 0.0, "type": "electric_scooter", "name": "c1d7bf3fa6f5b05ae7e77c5d42781dd3", "is_disabled": 0, "rental_uris": {"ios": "https://dc.lft.to/lastmile_qr_scan", "android": "https://dc.lft.to/lastmile_qr_scan"}, "is_reserved": 0}, {"lon": -77.01835133333333, "bike_id": "2e3e96d126751afc3993343a57763ac2", "lat": 38.90934283333333, "fusion_lon": 0.0, "fusion_lat": 0.0, "type": "electric_scooter", "name": "2e3e96d126751afc3993343a57763ac2", "is_disabled": 0, "rental_uris": {"ios": "https://dc.lft.to/lastmile_qr_scan", "android": "https://dc.lft.to/lastmile_qr_scan"}, "is_reserved": 0}, {"lon": -77.02179433333333, "bike_id": "31874331cf297aaa7d1653f8286605d4", "lat": 38.914907, "fusion_lon": 0.0, "fusion_lat": 0.0, "type": "electric_scooter", "name": "31874331cf297aaa7d1653f8286605d4", "is_disabled": 0, "rental_uris": {"ios": "https://dc.lft.to/lastmile_qr_scan", "android": "https://dc.lft.to/lastmile_qr_scan"}, "is_reserved": 0}, {"lon": -77.0210555, "bike_id": "ba1a5a6fa3814ce917019396615b5de3", "lat": 38.90564633333334, "fusion_lon": 0.0, "fusion_lat": 0.0, "type": "electric_scooter", "name": "ba1a5a6fa3814ce917019396615b5de3", "is_disabled": 0, "rental_uris": {"ios": "https://dc.lft.to/lastmile_qr_scan", "android": "https://dc.lft.to/lastmile_qr_scan"}, "is_reserved": 0}, {"lon": -77.06419616666666, "bike_id": "f1ac9645dbae9caec558bd9960dd260e", "lat": 38.993374, "fusion_lon": 0.0, "fusion_lat": 0.0, "type": "electric_scooter", "name": "f1ac9645dbae9caec558bd9960dd260e", "is_disabled": 0, "rental_uris": {"ios": "https://dc.lft.to/lastmile_qr_scan", "android": "https://dc.lft.to/lastmile_qr_scan"}, "is_reserved": 0}, {"lon": -76.9415515, "bike_id": "659e1a557565c5fe29da90c1536f0280", "lat": 38.908319, "fusion_lon": 0.0, "fusion_lat": 0.0, "type": "electric_bike", "name": "659e1a557565c5fe29da90c1536f0280", "is_disabled": 0, "rental_uris": {"ios": "https://dc.lft.to/lastmile_qr_scan", "android": "https://dc.lft.to/lastmile_qr_scan"}, "is_reserved": 0}, {"lon": -77.0381985, "bike_id": "c9b112b5f24f67c558f2a138b008ed1e", "lat": 38.909709, "fusion_lon": 0.0, "fusion_lat": 0.0, "type": "electric_scooter", "name": "c9b112b5f24f67c558f2a138b008ed1e", "is_disabled": 0, "rental_uris": {"ios": "https://dc.lft.to/lastmile_qr_scan", "android": "https://dc.lft.to/lastmile_qr_scan"}, "is_reserved": 0}, {"lon": -76.98735316666667, "bike_id": "036c1a489692a5c587ee70b8b28ded73", "lat": 38.865832166666664, "fusion_lon": 0.0, "fusion_lat": 0.0, "type": "electric_bike", "name": "036c1a489692a5c587ee70b8b28ded73", "is_disabled": 0, "rental_uris": {"ios": "https://dc.lft.to/lastmile_qr_scan", "android": "https://dc.lft.to/lastmile_qr_scan"}, "is_reserved": 0}, {"lon": -76.965239, "bike_id": "28b11ffd358acbb43312b230af9ea9d6", "lat": 38.8763065, "fusion_lon": 0.0, "fusion_lat": 0.0, "type": "electric_scooter", "name": "28b11ffd358acbb43312b230af9ea9d6", "is_disabled": 0, "rental_uris": {"ios": "https://dc.lft.to/lastmile_qr_scan", "android": "https://dc.lft.to/lastmile_qr_scan"}, "is_reserved": 0}, {"lon": -77.05543683333333, "bike_id": "be900b5181ed926bf335eca3d5c8eb6f", "lat": 38.93010566666667, "fusion_lon": 0.0, "fusion_lat": 0.0, "type": "electric_scooter", "name": "be900b5181ed926bf335eca3d5c8eb6f", "is_disabled": 0, "rental_uris": {"ios": "https://dc.lft.to/lastmile_qr_scan", "android": "https://dc.lft.to/lastmile_qr_scan"}, "is_reserved": 0}, {"lon": -77.035148, "bike_id": "9a79e470296bea0637df80f4584e2946", "lat": 38.927207833333334, "fusion_lon": 0.0, "fusion_lat": 0.0, "type": "electric_scooter", "name": "9a79e470296bea0637df80f4584e2946", "is_disabled": 0, "rental_uris": {"ios": "https://dc.lft.to/lastmile_qr_scan", "android": "https://dc.lft.to/lastmile_qr_scan"}, "is_reserved": 0}, {"lon": -77.03627633333333, "bike_id": "9d3277edec08cc10fab867140dca0766", "lat": 38.94498466666667, "fusion_lon": 0.0, "fusion_lat": 0.0, "type": "electric_scooter", "name": "9d3277edec08cc10fab867140dca0766", "is_disabled": 0, "rental_uris": {"ios": "https://dc.lft.to/lastmile_qr_scan", "android": "https://dc.lft.to/lastmile_qr_scan"}, "is_reserved": 0}, {"lon": -77.02325966666666, "bike_id": "790cda32de11321a8473b259dcfbe23f", "lat": 38.92408016666667, "fusion_lon": 0.0, "fusion_lat": 0.0, "type": "electric_scooter", "name": "790cda32de11321a8473b259dcfbe23f", "is_disabled": 0, "rental_uris": {"ios": "https://dc.lft.to/lastmile_qr_scan", "android": "https://dc.lft.to/lastmile_qr_scan"}, "is_reserved": 0}, {"lon": -77.03958566666667, "bike_id": "4eac2cd07ffa82e0a7cedd6844dd0741", "lat": 38.915690166666664, "fusion_lon": 0.0, "fusion_lat": 0.0, "type": "electric_scooter", "name": "4eac2cd07ffa82e0a7cedd6844dd0741", "is_disabled": 0, "rental_uris": {"ios": "https://dc.lft.to/lastmile_qr_scan", "android": "https://dc.lft.to/lastmile_qr_scan"}, "is_reserved": 0}, {"lon": -76.975436, "bike_id": "640c5cce1671d7ee2cdc1fc3b03ad898", "lat": 38.9031435, "fusion_lon": 0.0, "fusion_lat": 0.0, "type": "electric_scooter", "name": "640c5cce1671d7ee2cdc1fc3b03ad898", "is_disabled": 0, "rental_uris": {"ios": "https://dc.lft.to/lastmile_qr_scan", "android": "https://dc.lft.to/lastmile_qr_scan"}, "is_reserved": 0}, {"lon": -77.0297835, "bike_id": "c541af7da3f936d8d39b04a790514e20", "lat": 38.93936033333333, "fusion_lon": 0.0, "fusion_lat": 0.0, "type": "electric_scooter", "name": "c541af7da3f936d8d39b04a790514e20", "is_disabled": 0, "rental_uris": {"ios": "https://dc.lft.to/lastmile_qr_scan", "android": "https://dc.lft.to/lastmile_qr_scan"}, "is_reserved": 0}, {"lon": -77.03801016666667, "bike_id": "83041222b2b52037269c362945f82a69", "lat": 38.925729, "fusion_lon": 0.0, "fusion_lat": 0.0, "type": "electric_scooter", "name": "83041222b2b52037269c362945f82a69", "is_disabled": 0, "rental_uris": {"ios": "https://dc.lft.to/lastmile_qr_scan", "android": "https://dc.lft.to/lastmile_qr_scan"}, "is_reserved": 0}, {"lon": -77.032454, "bike_id": "7aea813f439aa3f7f5fe673470cab7b9", "lat": 38.929855333333336, "fusion_lon": 0.0, "fusion_lat": 0.0, "type": "electric_scooter", "name": "7aea813f439aa3f7f5fe673470cab7b9", "is_disabled": 0, "rental_uris": {"ios": "https://dc.lft.to/lastmile_qr_scan", "android": "https://dc.lft.to/lastmile_qr_scan"}, "is_reserved": 0}, {"lon": -77.0235335, "bike_id": "3704ecc71a77b52daf2cfdfc76a834e6", "lat": 38.896308166666664, "fusion_lon": 0.0, "fusion_lat": 0.0, "type": "electric_scooter", "name": "3704ecc71a77b52daf2cfdfc76a834e6", "is_disabled": 0, "rental_uris": {"ios": "https://dc.lft.to/lastmile_qr_scan", "android": "https://dc.lft.to/lastmile_qr_scan"}, "is_reserved": 0}, {"lon": -76.98798183333334, "bike_id": "7766441af36a0d77e92f12b930777db2", "lat": 38.89240266666667, "fusion_lon": 0.0, "fusion_lat": 0.0, "type": "electric_scooter", "name": "7766441af36a0d77e92f12b930777db2", "is_disabled": 0, "rental_uris": {"ios": "https://dc.lft.to/lastmile_qr_scan", "android": "https://dc.lft.to/lastmile_qr_scan"}, "is_reserved": 0}, {"lon": -77.01883333333333, "bike_id": "8b0099fb85a5023fb6c91480003d8173", "lat": 38.906125, "fusion_lon": 0.0, "fusion_lat": 0.0, "type": "electric_scooter", "name": "8b0099fb85a5023fb6c91480003d8173", "is_disabled": 0, "rental_uris": {"ios": "https://dc.lft.to/lastmile_qr_scan", "android": "https://dc.lft.to/lastmile_qr_scan"}, "is_reserved": 0}, {"lon": -77.03218716666667, "bike_id": "18522aa0a04191facfabb53f9e3bcef6", "lat": 38.9073295, "fusion_lon": 0.0, "fusion_lat": 0.0, "type": "electric_scooter", "name": "18522aa0a04191facfabb53f9e3bcef6", "is_disabled": 0, "rental_uris": {"ios": "https://dc.lft.to/lastmile_qr_scan", "android": "https://dc.lft.to/lastmile_qr_scan"}, "is_reserved": 0}, {"lon": -77.02286466666666, "bike_id": "935be3adfc277b606d43e43a07227923", "lat": 38.92561633333333, "fusion_lon": 0.0, "fusion_lat": 0.0, "type": "electric_scooter", "name": "935be3adfc277b606d43e43a07227923", "is_disabled": 0, "rental_uris": {"ios": "https://dc.lft.to/lastmile_qr_scan", "android": "https://dc.lft.to/lastmile_qr_scan"}, "is_reserved": 0}, {"lon": -77.05558433333333, "bike_id": "37d4458f4d0065111adc0dab7071df09", "lat": 38.9304175, "fusion_lon": 0.0, "fusion_lat": 0.0, "type": "electric_scooter", "name": "37d4458f4d0065111adc0dab7071df09", "is_disabled": 0, "rental_uris": {"ios": "https://dc.lft.to/lastmile_qr_scan", "android": "https://dc.lft.to/lastmile_qr_scan"}, "is_reserved": 0}, {"lon": -77.10523366666666, "bike_id": "8db7bc57582aed257a38efeb9b4635e2", "lat": 38.87373433333333, "fusion_lon": 0.0, "fusion_lat": 0.0, "type": "electric_bike", "name": "8db7bc57582aed257a38efeb9b4635e2", "is_disabled": 0, "rental_uris": {"ios": "https://dc.lft.to/lastmile_qr_scan", "android": "https://dc.lft.to/lastmile_qr_scan"}, "is_reserved": 0}, {"lon": -76.98312733333333, "bike_id": "884f041b0a4fb5cc9120b600fdd8c8e4", "lat": 38.89970733333333, "fusion_lon": 0.0, "fusion_lat": 0.0, "type": "electric_scooter", "name": "884f041b0a4fb5cc9120b600fdd8c8e4", "is_disabled": 0, "rental_uris": {"ios": "https://dc.lft.to/lastmile_qr_scan", "android": "https://dc.lft.to/lastmile_qr_scan"}, "is_reserved": 0}, {"lon": -77.03356216666667, "bike_id": "232d43200440f8d1af74970eb7ee378c", "lat": 38.905637, "fusion_lon": 0.0, "fusion_lat": 0.0, "type": "electric_scooter", "name": "232d43200440f8d1af74970eb7ee378c", "is_disabled": 0, "rental_uris": {"ios": "https://dc.lft.to/lastmile_qr_scan", "android": "https://dc.lft.to/lastmile_qr_scan"}, "is_reserved": 0}, {"lon": -76.98140983333333, "bike_id": "a3bf1a34da42f74fc09dcd60c099367c", "lat": 38.90565733333333, "fusion_lon": 0.0, "fusion_lat": 0.0, "type": "electric_scooter", "name": "a3bf1a34da42f74fc09dcd60c099367c", "is_disabled": 0, "rental_uris": {"ios": "https://dc.lft.to/lastmile_qr_scan", "android": "https://dc.lft.to/lastmile_qr_scan"}, "is_reserved": 0}, {"lon": -76.99262566666667, "bike_id": "8d85b2364b8a16a5be11c14d14122d98", "lat": 38.90388816666667, "fusion_lon": 0.0, "fusion_lat": 0.0, "type": "electric_scooter", "name": "8d85b2364b8a16a5be11c14d14122d98", "is_disabled": 0, "rental_uris": {"ios": "https://dc.lft.to/lastmile_qr_scan", "android": "https://dc.lft.to/lastmile_qr_scan"}, "is_reserved": 0}, {"lon": -77.0271445, "bike_id": "c7ef16123c375f12c426aaa1adb668fd", "lat": 38.9067295, "fusion_lon": 0.0, "fusion_lat": 0.0, "type": "electric_scooter", "name": "c7ef16123c375f12c426aaa1adb668fd", "is_disabled": 0, "rental_uris": {"ios": "https://dc.lft.to/lastmile_qr_scan", "android": "https://dc.lft.to/lastmile_qr_scan"}, "is_reserved": 0}, {"lon": -76.99103466666666, "bike_id": "1419eb6c44799164fa69620e42223a65", "lat": 38.903197166666665, "fusion_lon": 0.0, "fusion_lat": 0.0, "type": "electric_scooter", "name": "1419eb6c44799164fa69620e42223a65", "is_disabled": 0, "rental_uris": {"ios": "https://dc.lft.to/lastmile_qr_scan", "android": "https://dc.lft.to/lastmile_qr_scan"}, "is_reserved": 0}, {"lon": -77.07820666666667, "bike_id": "97ca19d365d7027a954d5e6095d5184d", "lat": 38.923717, "fusion_lon": 0.0, "fusion_lat": 0.0, "type": "electric_scooter", "name": "97ca19d365d7027a954d5e6095d5184d", "is_disabled": 0, "rental_uris": {"ios": "https://dc.lft.to/lastmile_qr_scan", "android": "https://dc.lft.to/lastmile_qr_scan"}, "is_reserved": 0}, {"lon": -77.04109266666667, "bike_id": "d0d01121d1e3cdf41c2e111c31df63e5", "lat": 38.91552183333334, "fusion_lon": 0.0, "fusion_lat": 0.0, "type": "electric_scooter", "name": "d0d01121d1e3cdf41c2e111c31df63e5", "is_disabled": 0, "rental_uris": {"ios": "https://dc.lft.to/lastmile_qr_scan", "android": "https://dc.lft.to/lastmile_qr_scan"}, "is_reserved": 0}, {"lon": -77.03668, "bike_id": "be9e1109cf4d6d0d7e149fb8f1f15bee", "lat": 38.918191666666665, "fusion_lon": 0.0, "fusion_lat": 0.0, "type": "electric_scooter", "name": "be9e1109cf4d6d0d7e149fb8f1f15bee", "is_disabled": 0, "rental_uris": {"ios": "https://dc.lft.to/lastmile_qr_scan", "android": "https://dc.lft.to/lastmile_qr_scan"}, "is_reserved": 0}, {"lon": -77.00575766666667, "bike_id": "425871394d68577de93caaac33eac7fe", "lat": 38.8299825, "fusion_lon": 0.0, "fusion_lat": 0.0, "type": "electric_scooter", "name": "425871394d68577de93caaac33eac7fe", "is_disabled": 0, "rental_uris": {"ios": "https://dc.lft.to/lastmile_qr_scan", "android": "https://dc.lft.to/lastmile_qr_scan"}, "is_reserved": 0}, {"lon": -77.064091, "bike_id": "1aab27e641b1af9b1b0b5d53e21c0396", "lat": 38.909363, "fusion_lon": 0.0, "fusion_lat": 0.0, "type": "electric_scooter", "name": "1aab27e641b1af9b1b0b5d53e21c0396", "is_disabled": 0, "rental_uris": {"ios": "https://dc.lft.to/lastmile_qr_scan", "android": "https://dc.lft.to/lastmile_qr_scan"}, "is_reserved": 0}, {"lon": -76.99192583333334, "bike_id": "9df3e7aca8f6112ff66238471f2493f7", "lat": 38.88266016666667, "fusion_lon": 0.0, "fusion_lat": 0.0, "type": "electric_scooter", "name": "9df3e7aca8f6112ff66238471f2493f7", "is_disabled": 0, "rental_uris": {"ios": "https://dc.lft.to/lastmile_qr_scan", "android": "https://dc.lft.to/lastmile_qr_scan"}, "is_reserved": 0}, {"lon": -77.02802216666667, "bike_id": "2875360d52c9dc88741ed56685a0383c", "lat": 38.92289616666667, "fusion_lon": 0.0, "fusion_lat": 0.0, "type": "electric_scooter", "name": "2875360d52c9dc88741ed56685a0383c", "is_disabled": 0, "rental_uris": {"ios": "https://dc.lft.to/lastmile_qr_scan", "android": "https://dc.lft.to/lastmile_qr_scan"}, "is_reserved": 0}, {"lon": -77.01641483333333, "bike_id": "0ae1a09f746b8008a1215bf1e59777d7", "lat": 38.8997215, "fusion_lon": 0.0, "fusion_lat": 0.0, "type": "electric_scooter", "name": "0ae1a09f746b8008a1215bf1e59777d7", "is_disabled": 0, "rental_uris": {"ios": "https://dc.lft.to/lastmile_qr_scan", "android": "https://dc.lft.to/lastmile_qr_scan"}, "is_reserved": 0}, {"lon": -77.03209, "bike_id": "ae45de20a44c107e352cfa902d03bcd8", "lat": 38.936162833333334, "fusion_lon": 0.0, "fusion_lat": 0.0, "type": "electric_scooter", "name": "ae45de20a44c107e352cfa902d03bcd8", "is_disabled": 0, "rental_uris": {"ios": "https://dc.lft.to/lastmile_qr_scan", "android": "https://dc.lft.to/lastmile_qr_scan"}, "is_reserved": 0}, {"lon": -77.036366, "bike_id": "12f1777e34fbaeca9258b7bb7cff80d5", "lat": 38.9155635, "fusion_lon": 0.0, "fusion_lat": 0.0, "type": "electric_scooter", "name": "12f1777e34fbaeca9258b7bb7cff80d5", "is_disabled": 0, "rental_uris": {"ios": "https://dc.lft.to/lastmile_qr_scan", "android": "https://dc.lft.to/lastmile_qr_scan"}, "is_reserved": 0}, {"lon": -77.00537, "bike_id": "40b535c3bacd4fd5788302372b17c14a", "lat": 38.875470166666666, "fusion_lon": 0.0, "fusion_lat": 0.0, "type": "electric_scooter", "name": "40b535c3bacd4fd5788302372b17c14a", "is_disabled": 0, "rental_uris": {"ios": "https://dc.lft.to/lastmile_qr_scan", "android": "https://dc.lft.to/lastmile_qr_scan"}, "is_reserved": 0}, {"lon": -77.03140016666667, "bike_id": "48fffdc4f0359b033599f78b5de35c5b", "lat": 38.91567633333333, "fusion_lon": 0.0, "fusion_lat": 0.0, "type": "electric_scooter", "name": "48fffdc4f0359b033599f78b5de35c5b", "is_disabled": 0, "rental_uris": {"ios": "https://dc.lft.to/lastmile_qr_scan", "android": "https://dc.lft.to/lastmile_qr_scan"}, "is_reserved": 0}, {"lon": -77.0191825, "bike_id": "2dde1e1b2d117eee9750e4b6d4060945", "lat": 38.87849283333333, "fusion_lon": 0.0, "fusion_lat": 0.0, "type": "electric_bike", "name": "2dde1e1b2d117eee9750e4b6d4060945", "is_disabled": 0, "rental_uris": {"ios": "https://dc.lft.to/lastmile_qr_scan", "android": "https://dc.lft.to/lastmile_qr_scan"}, "is_reserved": 0}, {"lon": -76.93276033333333, "bike_id": "9c84038f451dbadaed5cab6afc0d0d83", "lat": 38.9542195, "fusion_lon": 0.0, "fusion_lat": 0.0, "type": "electric_bike", "name": "9c84038f451dbadaed5cab6afc0d0d83", "is_disabled": 0, "rental_uris": {"ios": "https://dc.lft.to/lastmile_qr_scan", "android": "https://dc.lft.to/lastmile_qr_scan"}, "is_reserved": 0}, {"lon": -77.07256316666667, "bike_id": "42b06d7e8d72f540600b37f20590aae9", "lat": 38.934377, "fusion_lon": 0.0, "fusion_lat": 0.0, "type": "electric_scooter", "name": "42b06d7e8d72f540600b37f20590aae9", "is_disabled": 0, "rental_uris": {"ios": "https://dc.lft.to/lastmile_qr_scan", "android": "https://dc.lft.to/lastmile_qr_scan"}, "is_reserved": 0}, {"lon": -77.0222845, "bike_id": "de7604648aa99a751d8530e944e7b37e", "lat": 38.956892833333335, "fusion_lon": 0.0, "fusion_lat": 0.0, "type": "electric_bike", "name": "de7604648aa99a751d8530e944e7b37e", "is_disabled": 0, "rental_uris": {"ios": "https://dc.lft.to/lastmile_qr_scan", "android": "https://dc.lft.to/lastmile_qr_scan"}, "is_reserved": 0}, {"lon": -77.00130433333334, "bike_id": "88e6d85567dc988bd4cb18d25d124a15", "lat": 38.8781775, "fusion_lon": 0.0, "fusion_lat": 0.0, "type": "electric_scooter", "name": "88e6d85567dc988bd4cb18d25d124a15", "is_disabled": 0, "rental_uris": {"ios": "https://dc.lft.to/lastmile_qr_scan", "android": "https://dc.lft.to/lastmile_qr_scan"}, "is_reserved": 0}, {"lon": -77.0237115, "bike_id": "d5eac6ffc20ee89e0340a8efb71e3a85", "lat": 38.9062045, "fusion_lon": 0.0, "fusion_lat": 0.0, "type": "electric_scooter", "name": "d5eac6ffc20ee89e0340a8efb71e3a85", "is_disabled": 0, "rental_uris": {"ios": "https://dc.lft.to/lastmile_qr_scan", "android": "https://dc.lft.to/lastmile_qr_scan"}, "is_reserved": 0}, {"lon": -77.0177855, "bike_id": "123cf164d6d2e5bdddf39a96e8f511f5", "lat": 38.903886666666665, "fusion_lon": 0.0, "fusion_lat": 0.0, "type": "electric_scooter", "name": "123cf164d6d2e5bdddf39a96e8f511f5", "is_disabled": 0, "rental_uris": {"ios": "https://dc.lft.to/lastmile_qr_scan", "android": "https://dc.lft.to/lastmile_qr_scan"}, "is_reserved": 0}, {"lon": -77.04325433333334, "bike_id": "802a51653f81a147ca6fd7a2cc880012", "lat": 38.918767833333334, "fusion_lon": 0.0, "fusion_lat": 0.0, "type": "electric_scooter", "name": "802a51653f81a147ca6fd7a2cc880012", "is_disabled": 0, "rental_uris": {"ios": "https://dc.lft.to/lastmile_qr_scan", "android": "https://dc.lft.to/lastmile_qr_scan"}, "is_reserved": 0}, {"lon": -77.03625583333333, "bike_id": "6d5f23c6a7704bdade6485b732ac2c42", "lat": 38.9329985, "fusion_lon": 0.0, "fusion_lat": 0.0, "type": "electric_scooter", "name": "6d5f23c6a7704bdade6485b732ac2c42", "is_disabled": 0, "rental_uris": {"ios": "https://dc.lft.to/lastmile_qr_scan", "android": "https://dc.lft.to/lastmile_qr_scan"}, "is_reserved": 0}, {"lon": -77.02851866666667, "bike_id": "a06258dbba59968c019ef51df26b2400", "lat": 38.887427333333335, "fusion_lon": 0.0, "fusion_lat": 0.0, "type": "electric_scooter", "name": "a06258dbba59968c019ef51df26b2400", "is_disabled": 0, "rental_uris": {"ios": "https://dc.lft.to/lastmile_qr_scan", "android": "https://dc.lft.to/lastmile_qr_scan"}, "is_reserved": 0}, {"lon": -77.0330455, "bike_id": "051b9bc34bce288d703d8079084c44d5", "lat": 38.909684166666665, "fusion_lon": 0.0, "fusion_lat": 0.0, "type": "electric_scooter", "name": "051b9bc34bce288d703d8079084c44d5", "is_disabled": 0, "rental_uris": {"ios": "https://dc.lft.to/lastmile_qr_scan", "android": "https://dc.lft.to/lastmile_qr_scan"}, "is_reserved": 0}, {"lon": -76.976256, "bike_id": "f5d1d7233b8e97bec9bf807bdcf5e15c", "lat": 38.905747166666664, "fusion_lon": 0.0, "fusion_lat": 0.0, "type": "electric_scooter", "name": "f5d1d7233b8e97bec9bf807bdcf5e15c", "is_disabled": 0, "rental_uris": {"ios": "https://dc.lft.to/lastmile_qr_scan", "android": "https://dc.lft.to/lastmile_qr_scan"}, "is_reserved": 0}, {"lon": -77.02496233333333, "bike_id": "485123d15e1262ef1b32f82524dc8f73", "lat": 38.939620833333336, "fusion_lon": 0.0, "fusion_lat": 0.0, "type": "electric_scooter", "name": "485123d15e1262ef1b32f82524dc8f73", "is_disabled": 0, "rental_uris": {"ios": "https://dc.lft.to/lastmile_qr_scan", "android": "https://dc.lft.to/lastmile_qr_scan"}, "is_reserved": 0}, {"lon": -77.12524466666666, "bike_id": "0b223efaecec745e18e3be9c84ede203", "lat": 39.05636766666667, "fusion_lon": 0.0, "fusion_lat": 0.0, "type": "electric_bike", "name": "0b223efaecec745e18e3be9c84ede203", "is_disabled": 0, "rental_uris": {"ios": "https://dc.lft.to/lastmile_qr_scan", "android": "https://dc.lft.to/lastmile_qr_scan"}, "is_reserved": 0}, {"lon": -77.07451033333334, "bike_id": "14bae30a1513dc7245a9bf9c1c06bda9", "lat": 38.94511966666666, "fusion_lon": 0.0, "fusion_lat": 0.0, "type": "electric_scooter", "name": "14bae30a1513dc7245a9bf9c1c06bda9", "is_disabled": 0, "rental_uris": {"ios": "https://dc.lft.to/lastmile_qr_scan", "android": "https://dc.lft.to/lastmile_qr_scan"}, "is_reserved": 0}, {"lon": -76.9993215, "bike_id": "4128d7a8b6aa7e5eec7b15d48368234a", "lat": 38.843162166666666, "fusion_lon": 0.0, "fusion_lat": 0.0, "type": "electric_scooter", "name": "4128d7a8b6aa7e5eec7b15d48368234a", "is_disabled": 0, "rental_uris": {"ios": "https://dc.lft.to/lastmile_qr_scan", "android": "https://dc.lft.to/lastmile_qr_scan"}, "is_reserved": 0}, {"lon": -77.02704333333334, "bike_id": "70b2d05cbfffe506a5dee36f8b30e05f", "lat": 38.906722333333335, "fusion_lon": 0.0, "fusion_lat": 0.0, "type": "electric_scooter", "name": "70b2d05cbfffe506a5dee36f8b30e05f", "is_disabled": 0, "rental_uris": {"ios": "https://dc.lft.to/lastmile_qr_scan", "android": "https://dc.lft.to/lastmile_qr_scan"}, "is_reserved": 0}, {"lon": -77.032908, "bike_id": "1eef2297643d66cecd0c13ccfa779618", "lat": 38.927475333333334, "fusion_lon": 0.0, "fusion_lat": 0.0, "type": "electric_scooter", "name": "1eef2297643d66cecd0c13ccfa779618", "is_disabled": 0, "rental_uris": {"ios": "https://dc.lft.to/lastmile_qr_scan", "android": "https://dc.lft.to/lastmile_qr_scan"}, "is_reserved": 0}, {"lon": -77.02083283333333, "bike_id": "3fb777f3398833b315cd32f9c4f28b47", "lat": 38.930106333333335, "fusion_lon": 0.0, "fusion_lat": 0.0, "type": "electric_scooter", "name": "3fb777f3398833b315cd32f9c4f28b47", "is_disabled": 0, "rental_uris": {"ios": "https://dc.lft.to/lastmile_qr_scan", "android": "https://dc.lft.to/lastmile_qr_scan"}, "is_reserved": 0}, {"lon": -77.014106, "bike_id": "186ea91f499281af60ca21b8e74ec415", "lat": 38.92828816666667, "fusion_lon": 0.0, "fusion_lat": 0.0, "type": "electric_scooter", "name": "186ea91f499281af60ca21b8e74ec415", "is_disabled": 0, "rental_uris": {"ios": "https://dc.lft.to/lastmile_qr_scan", "android": "https://dc.lft.to/lastmile_qr_scan"}, "is_reserved": 0}, {"lon": -77.038892, "bike_id": "0bdd8382571db0c4ba02204c56e78e0f", "lat": 38.92013266666667, "fusion_lon": 0.0, "fusion_lat": 0.0, "type": "electric_scooter", "name": "0bdd8382571db0c4ba02204c56e78e0f", "is_disabled": 0, "rental_uris": {"ios": "https://dc.lft.to/lastmile_qr_scan", "android": "https://dc.lft.to/lastmile_qr_scan"}, "is_reserved": 0}, {"lon": -77.0211505, "bike_id": "f085e87e1c9c1157814cbfc15847492b", "lat": 38.95305116666667, "fusion_lon": 0.0, "fusion_lat": 0.0, "type": "electric_bike", "name": "f085e87e1c9c1157814cbfc15847492b", "is_disabled": 0, "rental_uris": {"ios": "https://dc.lft.to/lastmile_qr_scan", "android": "https://dc.lft.to/lastmile_qr_scan"}, "is_reserved": 0}, {"lon": -77.0271155, "bike_id": "0102320efe6467df9ebd220e666009bc", "lat": 38.927684166666666, "fusion_lon": 0.0, "fusion_lat": 0.0, "type": "electric_scooter", "name": "0102320efe6467df9ebd220e666009bc", "is_disabled": 0, "rental_uris": {"ios": "https://dc.lft.to/lastmile_qr_scan", "android": "https://dc.lft.to/lastmile_qr_scan"}, "is_reserved": 0}, {"lon": -77.10909633333333, "bike_id": "1845e812fff3a0de69a62d9dec6e6580", "lat": 39.052066333333336, "fusion_lon": 0.0, "fusion_lat": 0.0, "type": "electric_bike", "name": "1845e812fff3a0de69a62d9dec6e6580", "is_disabled": 0, "rental_uris": {"ios": "https://dc.lft.to/lastmile_qr_scan", "android": "https://dc.lft.to/lastmile_qr_scan"}, "is_reserved": 0}, {"lon": -77.0651675, "bike_id": "0b3f0658c5ebefa61786e332e7d82b77", "lat": 38.9059175, "fusion_lon": 0.0, "fusion_lat": 0.0, "type": "electric_scooter", "name": "0b3f0658c5ebefa61786e332e7d82b77", "is_disabled": 0, "rental_uris": {"ios": "https://dc.lft.to/lastmile_qr_scan", "android": "https://dc.lft.to/lastmile_qr_scan"}, "is_reserved": 0}, {"lon": -77.04018533333333, "bike_id": "c8c6ead5ec9448fa28d50b3f6c5586ec", "lat": 38.91117, "fusion_lon": 0.0, "fusion_lat": 0.0, "type": "electric_scooter", "name": "c8c6ead5ec9448fa28d50b3f6c5586ec", "is_disabled": 0, "rental_uris": {"ios": "https://dc.lft.to/lastmile_qr_scan", "android": "https://dc.lft.to/lastmile_qr_scan"}, "is_reserved": 0}, {"lon": -76.92998116666666, "bike_id": "7c91724d8eaf04ce8f4de3f05e5177f9", "lat": 38.901900833333336, "fusion_lon": 0.0, "fusion_lat": 0.0, "type": "electric_scooter", "name": "7c91724d8eaf04ce8f4de3f05e5177f9", "is_disabled": 0, "rental_uris": {"ios": "https://dc.lft.to/lastmile_qr_scan", "android": "https://dc.lft.to/lastmile_qr_scan"}, "is_reserved": 0}, {"lon": -77.05575266666666, "bike_id": "1a5bee4d7b40d3dab81237a5fcf2a26c", "lat": 38.91597566666667, "fusion_lon": 0.0, "fusion_lat": 0.0, "type": "electric_scooter", "name": "1a5bee4d7b40d3dab81237a5fcf2a26c", "is_disabled": 0, "rental_uris": {"ios": "https://dc.lft.to/lastmile_qr_scan", "android": "https://dc.lft.to/lastmile_qr_scan"}, "is_reserved": 0}, {"lon": -77.02643233333333, "bike_id": "8ff17ab1af68740455fc7835537532f7", "lat": 38.897155, "fusion_lon": 0.0, "fusion_lat": 0.0, "type": "electric_scooter", "name": "8ff17ab1af68740455fc7835537532f7", "is_disabled": 0, "rental_uris": {"ios": "https://dc.lft.to/lastmile_qr_scan", "android": "https://dc.lft.to/lastmile_qr_scan"}, "is_reserved": 0}, {"lon": -77.0232725, "bike_id": "2de28c9f3b095f85bb9906c76a998b27", "lat": 38.9222685, "fusion_lon": 0.0, "fusion_lat": 0.0, "type": "electric_scooter", "name": "2de28c9f3b095f85bb9906c76a998b27", "is_disabled": 0, "rental_uris": {"ios": "https://dc.lft.to/lastmile_qr_scan", "android": "https://dc.lft.to/lastmile_qr_scan"}, "is_reserved": 0}, {"lon": -77.04422683333334, "bike_id": "c9b6e827cc75c0f75c2c474bdccae5c0", "lat": 38.90889033333333, "fusion_lon": 0.0, "fusion_lat": 0.0, "type": "electric_scooter", "name": "c9b6e827cc75c0f75c2c474bdccae5c0", "is_disabled": 0, "rental_uris": {"ios": "https://dc.lft.to/lastmile_qr_scan", "android": "https://dc.lft.to/lastmile_qr_scan"}, "is_reserved": 0}, {"lon": -77.03326466666667, "bike_id": "631674f902f3ed4f33f650a4f3fb3fa3", "lat": 38.93647216666667, "fusion_lon": 0.0, "fusion_lat": 0.0, "type": "electric_scooter", "name": "631674f902f3ed4f33f650a4f3fb3fa3", "is_disabled": 0, "rental_uris": {"ios": "https://dc.lft.to/lastmile_qr_scan", "android": "https://dc.lft.to/lastmile_qr_scan"}, "is_reserved": 0}, {"lon": -76.98722333333333, "bike_id": "50567e29c2fd9de684f3e46f05f6c459", "lat": 38.86715, "fusion_lon": 0.0, "fusion_lat": 0.0, "type": "electric_scooter", "name": "50567e29c2fd9de684f3e46f05f6c459", "is_disabled": 0, "rental_uris": {"ios": "https://dc.lft.to/lastmile_qr_scan", "android": "https://dc.lft.to/lastmile_qr_scan"}, "is_reserved": 0}, {"lon": -76.9870625, "bike_id": "f4562ddd9bd8fa76f8503792037dab7b", "lat": 38.86540133333333, "fusion_lon": 0.0, "fusion_lat": 0.0, "type": "electric_scooter", "name": "f4562ddd9bd8fa76f8503792037dab7b", "is_disabled": 0, "rental_uris": {"ios": "https://dc.lft.to/lastmile_qr_scan", "android": "https://dc.lft.to/lastmile_qr_scan"}, "is_reserved": 0}, {"lon": -77.03310766666667, "bike_id": "e6263a961f2ad423cd789f03c3e43e67", "lat": 38.9036205, "fusion_lon": 0.0, "fusion_lat": 0.0, "type": "electric_scooter", "name": "e6263a961f2ad423cd789f03c3e43e67", "is_disabled": 0, "rental_uris": {"ios": "https://dc.lft.to/lastmile_qr_scan", "android": "https://dc.lft.to/lastmile_qr_scan"}, "is_reserved": 0}, {"lon": -76.993336, "bike_id": "fe582de923944918620c476a6040e09c", "lat": 38.87141, "fusion_lon": 0.0, "fusion_lat": 0.0, "type": "electric_scooter", "name": "fe582de923944918620c476a6040e09c", "is_disabled": 0, "rental_uris": {"ios": "https://dc.lft.to/lastmile_qr_scan", "android": "https://dc.lft.to/lastmile_qr_scan"}, "is_reserved": 0}, {"lon": -76.94886183333334, "bike_id": "9cc9bc20913b468bbe2c98555e6a1cd4", "lat": 38.895132333333336, "fusion_lon": 0.0, "fusion_lat": 0.0, "type": "electric_scooter", "name": "9cc9bc20913b468bbe2c98555e6a1cd4", "is_disabled": 0, "rental_uris": {"ios": "https://dc.lft.to/lastmile_qr_scan", "android": "https://dc.lft.to/lastmile_qr_scan"}, "is_reserved": 0}, {"lon": -77.016632, "bike_id": "b93f136f4d9d578bd5019653e6fded97", "lat": 38.8810995, "fusion_lon": 0.0, "fusion_lat": 0.0, "type": "electric_scooter", "name": "b93f136f4d9d578bd5019653e6fded97", "is_disabled": 0, "rental_uris": {"ios": "https://dc.lft.to/lastmile_qr_scan", "android": "https://dc.lft.to/lastmile_qr_scan"}, "is_reserved": 0}, {"lon": -77.02709916666667, "bike_id": "32a55064b00fef41e83359f3a902d03c", "lat": 38.910698, "fusion_lon": 0.0, "fusion_lat": 0.0, "type": "electric_scooter", "name": "32a55064b00fef41e83359f3a902d03c", "is_disabled": 0, "rental_uris": {"ios": "https://dc.lft.to/lastmile_qr_scan", "android": "https://dc.lft.to/lastmile_qr_scan"}, "is_reserved": 0}, {"lon": -77.0208805, "bike_id": "4f24a56c3bf00773c8ec2a3018bc5401", "lat": 38.95755116666667, "fusion_lon": 0.0, "fusion_lat": 0.0, "type": "electric_scooter", "name": "4f24a56c3bf00773c8ec2a3018bc5401", "is_disabled": 0, "rental_uris": {"ios": "https://dc.lft.to/lastmile_qr_scan", "android": "https://dc.lft.to/lastmile_qr_scan"}, "is_reserved": 0}, {"lon": -77.02424516666666, "bike_id": "ec289507e49d04389bb9bfd952128b4f", "lat": 38.8997305, "fusion_lon": 0.0, "fusion_lat": 0.0, "type": "electric_scooter", "name": "ec289507e49d04389bb9bfd952128b4f", "is_disabled": 0, "rental_uris": {"ios": "https://dc.lft.to/lastmile_qr_scan", "android": "https://dc.lft.to/lastmile_qr_scan"}, "is_reserved": 0}, {"lon": -76.98094466666667, "bike_id": "06eb4a3a16e93b596d418c8281216fb0", "lat": 38.95358083333333, "fusion_lon": 0.0, "fusion_lat": 0.0, "type": "electric_bike", "name": "06eb4a3a16e93b596d418c8281216fb0", "is_disabled": 0, "rental_uris": {"ios": "https://dc.lft.to/lastmile_qr_scan", "android": "https://dc.lft.to/lastmile_qr_scan"}, "is_reserved": 0}, {"lon": -76.99003, "bike_id": "4f59bd658293179dbb11541b46558f6f", "lat": 38.8650475, "fusion_lon": 0.0, "fusion_lat": 0.0, "type": "electric_scooter", "name": "4f59bd658293179dbb11541b46558f6f", "is_disabled": 0, "rental_uris": {"ios": "https://dc.lft.to/lastmile_qr_scan", "android": "https://dc.lft.to/lastmile_qr_scan"}, "is_reserved": 0}, {"lon": -77.04384566666667, "bike_id": "f3a1bd2a911439bf5d52f3f1222a5143", "lat": 38.91268816666667, "fusion_lon": 0.0, "fusion_lat": 0.0, "type": "electric_scooter", "name": "f3a1bd2a911439bf5d52f3f1222a5143", "is_disabled": 0, "rental_uris": {"ios": "https://dc.lft.to/lastmile_qr_scan", "android": "https://dc.lft.to/lastmile_qr_scan"}, "is_reserved": 0}, {"lon": -77.02973183333333, "bike_id": "9445f6da939c39a2701a850a6d3857a0", "lat": 38.904915833333334, "fusion_lon": 0.0, "fusion_lat": 0.0, "type": "electric_scooter", "name": "9445f6da939c39a2701a850a6d3857a0", "is_disabled": 0, "rental_uris": {"ios": "https://dc.lft.to/lastmile_qr_scan", "android": "https://dc.lft.to/lastmile_qr_scan"}, "is_reserved": 0}, {"lon": -76.99376233333334, "bike_id": "ff6b28d49f61e4315781cd72fd221d90", "lat": 38.923964833333336, "fusion_lon": 0.0, "fusion_lat": 0.0, "type": "electric_scooter", "name": "ff6b28d49f61e4315781cd72fd221d90", "is_disabled": 0, "rental_uris": {"ios": "https://dc.lft.to/lastmile_qr_scan", "android": "https://dc.lft.to/lastmile_qr_scan"}, "is_reserved": 0}, {"lon": -77.0013575, "bike_id": "85d76794642aed388e7a52d1c0a381f5", "lat": 38.925512499999996, "fusion_lon": 0.0, "fusion_lat": 0.0, "type": "electric_bike", "name": "85d76794642aed388e7a52d1c0a381f5", "is_disabled": 0, "rental_uris": {"ios": "https://dc.lft.to/lastmile_qr_scan", "android": "https://dc.lft.to/lastmile_qr_scan"}, "is_reserved": 0}, {"lon": -77.0268, "bike_id": "d14e45ad804aba1f00aa34d461a15652", "lat": 38.92069716666666, "fusion_lon": 0.0, "fusion_lat": 0.0, "type": "electric_scooter", "name": "d14e45ad804aba1f00aa34d461a15652", "is_disabled": 0, "rental_uris": {"ios": "https://dc.lft.to/lastmile_qr_scan", "android": "https://dc.lft.to/lastmile_qr_scan"}, "is_reserved": 0}, {"lon": -77.03321816666667, "bike_id": "74dbc00325e4bd4d18b4842ee572b8c1", "lat": 38.93899966666667, "fusion_lon": 0.0, "fusion_lat": 0.0, "type": "electric_scooter", "name": "74dbc00325e4bd4d18b4842ee572b8c1", "is_disabled": 0, "rental_uris": {"ios": "https://dc.lft.to/lastmile_qr_scan", "android": "https://dc.lft.to/lastmile_qr_scan"}, "is_reserved": 0}, {"lon": -77.01761583333334, "bike_id": "271ceaf4ed5b3761a83d721cc8e57cf3", "lat": 38.90387233333333, "fusion_lon": 0.0, "fusion_lat": 0.0, "type": "electric_scooter", "name": "271ceaf4ed5b3761a83d721cc8e57cf3", "is_disabled": 0, "rental_uris": {"ios": "https://dc.lft.to/lastmile_qr_scan", "android": "https://dc.lft.to/lastmile_qr_scan"}, "is_reserved": 0}, {"lon": -77.03282866666666, "bike_id": "8a15f9fa05eb991d83962b8ac4db0ff3", "lat": 38.928438166666666, "fusion_lon": 0.0, "fusion_lat": 0.0, "type": "electric_scooter", "name": "8a15f9fa05eb991d83962b8ac4db0ff3", "is_disabled": 0, "rental_uris": {"ios": "https://dc.lft.to/lastmile_qr_scan", "android": "https://dc.lft.to/lastmile_qr_scan"}, "is_reserved": 0}, {"lon": -77.04653866666666, "bike_id": "6f830dfb6339f162445dafcfec8581e6", "lat": 38.913619833333335, "fusion_lon": 0.0, "fusion_lat": 0.0, "type": "electric_scooter", "name": "6f830dfb6339f162445dafcfec8581e6", "is_disabled": 0, "rental_uris": {"ios": "https://dc.lft.to/lastmile_qr_scan", "android": "https://dc.lft.to/lastmile_qr_scan"}, "is_reserved": 0}, {"lon": -77.022002, "bike_id": "f7080ab5e3ba03cc9b356fd2a98c59e0", "lat": 38.909855666666665, "fusion_lon": 0.0, "fusion_lat": 0.0, "type": "electric_scooter", "name": "f7080ab5e3ba03cc9b356fd2a98c59e0", "is_disabled": 0, "rental_uris": {"ios": "https://dc.lft.to/lastmile_qr_scan", "android": "https://dc.lft.to/lastmile_qr_scan"}, "is_reserved": 0}, {"lon": -77.0100765, "bike_id": "5e4890e4eeff57ffa604f82eb2aee758", "lat": 38.86716283333333, "fusion_lon": 0.0, "fusion_lat": 0.0, "type": "electric_scooter", "name": "5e4890e4eeff57ffa604f82eb2aee758", "is_disabled": 0, "rental_uris": {"ios": "https://dc.lft.to/lastmile_qr_scan", "android": "https://dc.lft.to/lastmile_qr_scan"}, "is_reserved": 0}, {"lon": -76.9753245, "bike_id": "20f1773e660c8b334ed44309bd91964e", "lat": 38.9032895, "fusion_lon": 0.0, "fusion_lat": 0.0, "type": "electric_bike", "name": "20f1773e660c8b334ed44309bd91964e", "is_disabled": 0, "rental_uris": {"ios": "https://dc.lft.to/lastmile_qr_scan", "android": "https://dc.lft.to/lastmile_qr_scan"}, "is_reserved": 0}, {"lon": -77.01155116666666, "bike_id": "4a1322e8b2f99d3ff7fd63bd35e4f481", "lat": 38.914041166666664, "fusion_lon": 0.0, "fusion_lat": 0.0, "type": "electric_scooter", "name": "4a1322e8b2f99d3ff7fd63bd35e4f481", "is_disabled": 0, "rental_uris": {"ios": "https://dc.lft.to/lastmile_qr_scan", "android": "https://dc.lft.to/lastmile_qr_scan"}, "is_reserved": 0}, {"lon": -77.01745016666666, "bike_id": "513cc2ca3ede798c4ce30469d4b17152", "lat": 38.902605666666666, "fusion_lon": 0.0, "fusion_lat": 0.0, "type": "electric_scooter", "name": "513cc2ca3ede798c4ce30469d4b17152", "is_disabled": 0, "rental_uris": {"ios": "https://dc.lft.to/lastmile_qr_scan", "android": "https://dc.lft.to/lastmile_qr_scan"}, "is_reserved": 0}, {"lon": -77.05859433333333, "bike_id": "fd9e930e42ca95b8eb8c5551ac157ecd", "lat": 38.93608116666667, "fusion_lon": 0.0, "fusion_lat": 0.0, "type": "electric_scooter", "name": "fd9e930e42ca95b8eb8c5551ac157ecd", "is_disabled": 0, "rental_uris": {"ios": "https://dc.lft.to/lastmile_qr_scan", "android": "https://dc.lft.to/lastmile_qr_scan"}, "is_reserved": 0}, {"lon": -77.02020183333333, "bike_id": "20c1e4eed8249f7889c97a7a2e99fedc", "lat": 38.89907616666667, "fusion_lon": 0.0, "fusion_lat": 0.0, "type": "electric_scooter", "name": "20c1e4eed8249f7889c97a7a2e99fedc", "is_disabled": 0, "rental_uris": {"ios": "https://dc.lft.to/lastmile_qr_scan", "android": "https://dc.lft.to/lastmile_qr_scan"}, "is_reserved": 0}, {"lon": -77.04236316666666, "bike_id": "3b9e9a9b3a7980a2f2eea5b3ae9c36d9", "lat": 38.914887, "fusion_lon": 0.0, "fusion_lat": 0.0, "type": "electric_scooter", "name": "3b9e9a9b3a7980a2f2eea5b3ae9c36d9", "is_disabled": 0, "rental_uris": {"ios": "https://dc.lft.to/lastmile_qr_scan", "android": "https://dc.lft.to/lastmile_qr_scan"}, "is_reserved": 0}, {"lon": -77.05510583333333, "bike_id": "17ef3363a9972c26b4c707eeae57eaea", "lat": 38.89979816666666, "fusion_lon": 0.0, "fusion_lat": 0.0, "type": "electric_scooter", "name": "17ef3363a9972c26b4c707eeae57eaea", "is_disabled": 0, "rental_uris": {"ios": "https://dc.lft.to/lastmile_qr_scan", "android": "https://dc.lft.to/lastmile_qr_scan"}, "is_reserved": 0}, {"lon": -77.02758416666667, "bike_id": "a50cb894679de2a1ddb17eda7d6157c3", "lat": 38.944065, "fusion_lon": 0.0, "fusion_lat": 0.0, "type": "electric_scooter", "name": "a50cb894679de2a1ddb17eda7d6157c3", "is_disabled": 0, "rental_uris": {"ios": "https://dc.lft.to/lastmile_qr_scan", "android": "https://dc.lft.to/lastmile_qr_scan"}, "is_reserved": 0}, {"lon": -77.0213165, "bike_id": "4b0da6255c030a96f9a7d1683927d276", "lat": 38.90092666666666, "fusion_lon": 0.0, "fusion_lat": 0.0, "type": "electric_scooter", "name": "4b0da6255c030a96f9a7d1683927d276", "is_disabled": 0, "rental_uris": {"ios": "https://dc.lft.to/lastmile_qr_scan", "android": "https://dc.lft.to/lastmile_qr_scan"}, "is_reserved": 0}, {"lon": -77.0332195, "bike_id": "803ae2b1428692e6af8b8a6514e787f5", "lat": 38.91561316666667, "fusion_lon": 0.0, "fusion_lat": 0.0, "type": "electric_scooter", "name": "803ae2b1428692e6af8b8a6514e787f5", "is_disabled": 0, "rental_uris": {"ios": "https://dc.lft.to/lastmile_qr_scan", "android": "https://dc.lft.to/lastmile_qr_scan"}, "is_reserved": 0}, {"lon": -77.03068666666667, "bike_id": "fb133338cac3af21be221b7873387342", "lat": 38.90257316666667, "fusion_lon": 0.0, "fusion_lat": 0.0, "type": "electric_scooter", "name": "fb133338cac3af21be221b7873387342", "is_disabled": 0, "rental_uris": {"ios": "https://dc.lft.to/lastmile_qr_scan", "android": "https://dc.lft.to/lastmile_qr_scan"}, "is_reserved": 0}, {"lon": -77.0376535, "bike_id": "c68b7a6b3befe082de85792104154b4d", "lat": 38.9288865, "fusion_lon": 0.0, "fusion_lat": 0.0, "type": "electric_scooter", "name": "c68b7a6b3befe082de85792104154b4d", "is_disabled": 0, "rental_uris": {"ios": "https://dc.lft.to/lastmile_qr_scan", "android": "https://dc.lft.to/lastmile_qr_scan"}, "is_reserved": 0}, {"lon": -77.0483905, "bike_id": "5ccc1e05981884092bbe12a4402b4cfd", "lat": 38.89739983333333, "fusion_lon": 0.0, "fusion_lat": 0.0, "type": "electric_scooter", "name": "5ccc1e05981884092bbe12a4402b4cfd", "is_disabled": 0, "rental_uris": {"ios": "https://dc.lft.to/lastmile_qr_scan", "android": "https://dc.lft.to/lastmile_qr_scan"}, "is_reserved": 0}, {"lon": -77.04386933333333, "bike_id": "a002f3db695f48344830e40c43fe5186", "lat": 39.047182166666666, "fusion_lon": 0.0, "fusion_lat": 0.0, "type": "electric_bike", "name": "a002f3db695f48344830e40c43fe5186", "is_disabled": 0, "rental_uris": {"ios": "https://dc.lft.to/lastmile_qr_scan", "android": "https://dc.lft.to/lastmile_qr_scan"}, "is_reserved": 0}, {"lon": -77.02109966666667, "bike_id": "550e18c1ad5521857bd85c6e9d63828e", "lat": 38.906056, "fusion_lon": 0.0, "fusion_lat": 0.0, "type": "electric_scooter", "name": "550e18c1ad5521857bd85c6e9d63828e", "is_disabled": 0, "rental_uris": {"ios": "https://dc.lft.to/lastmile_qr_scan", "android": "https://dc.lft.to/lastmile_qr_scan"}, "is_reserved": 0}, {"lon": -77.0284295, "bike_id": "3bfec12a7abd48be8e381452f6dd4aab", "lat": 38.925699, "fusion_lon": 0.0, "fusion_lat": 0.0, "type": "electric_scooter", "name": "3bfec12a7abd48be8e381452f6dd4aab", "is_disabled": 0, "rental_uris": {"ios": "https://dc.lft.to/lastmile_qr_scan", "android": "https://dc.lft.to/lastmile_qr_scan"}, "is_reserved": 0}, {"lon": -76.98927033333334, "bike_id": "58576c1821e3812e663516fa763eb5ad", "lat": 38.8581385, "fusion_lon": 0.0, "fusion_lat": 0.0, "type": "electric_scooter", "name": "58576c1821e3812e663516fa763eb5ad", "is_disabled": 0, "rental_uris": {"ios": "https://dc.lft.to/lastmile_qr_scan", "android": "https://dc.lft.to/lastmile_qr_scan"}, "is_reserved": 0}, {"lon": -76.97190833333333, "bike_id": "b73f762a25c09a37d694d2265049febd", "lat": 38.87392083333334, "fusion_lon": 0.0, "fusion_lat": 0.0, "type": "electric_scooter", "name": "b73f762a25c09a37d694d2265049febd", "is_disabled": 0, "rental_uris": {"ios": "https://dc.lft.to/lastmile_qr_scan", "android": "https://dc.lft.to/lastmile_qr_scan"}, "is_reserved": 0}, {"lon": -77.03445166666667, "bike_id": "3c1e80c5f742aef93a7e36ab2475ecc2", "lat": 38.9094875, "fusion_lon": 0.0, "fusion_lat": 0.0, "type": "electric_scooter", "name": "3c1e80c5f742aef93a7e36ab2475ecc2", "is_disabled": 0, "rental_uris": {"ios": "https://dc.lft.to/lastmile_qr_scan", "android": "https://dc.lft.to/lastmile_qr_scan"}, "is_reserved": 0}, {"lon": -77.0221945, "bike_id": "cf1d0bc64f79dc2eea534b3efb813b2c", "lat": 38.926128, "fusion_lon": 0.0, "fusion_lat": 0.0, "type": "electric_scooter", "name": "cf1d0bc64f79dc2eea534b3efb813b2c", "is_disabled": 0, "rental_uris": {"ios": "https://dc.lft.to/lastmile_qr_scan", "android": "https://dc.lft.to/lastmile_qr_scan"}, "is_reserved": 0}, {"lon": -77.02238716666666, "bike_id": "0055999dbcb251dee733f26f07c14411", "lat": 38.962151, "fusion_lon": 0.0, "fusion_lat": 0.0, "type": "electric_bike", "name": "0055999dbcb251dee733f26f07c14411", "is_disabled": 0, "rental_uris": {"ios": "https://dc.lft.to/lastmile_qr_scan", "android": "https://dc.lft.to/lastmile_qr_scan"}, "is_reserved": 0}, {"lon": -77.03136833333333, "bike_id": "661868dfbd3e1ee3274149b96483b07e", "lat": 38.917596333333336, "fusion_lon": 0.0, "fusion_lat": 0.0, "type": "electric_scooter", "name": "661868dfbd3e1ee3274149b96483b07e", "is_disabled": 0, "rental_uris": {"ios": "https://dc.lft.to/lastmile_qr_scan", "android": "https://dc.lft.to/lastmile_qr_scan"}, "is_reserved": 0}, {"lon": -77.035225, "bike_id": "3c09c001850e9ef9d15378e425d32fc9", "lat": 38.927335, "fusion_lon": 0.0, "fusion_lat": 0.0, "type": "electric_scooter", "name": "3c09c001850e9ef9d15378e425d32fc9", "is_disabled": 0, "rental_uris": {"ios": "https://dc.lft.to/lastmile_qr_scan", "android": "https://dc.lft.to/lastmile_qr_scan"}, "is_reserved": 0}, {"lon": -77.02975583333334, "bike_id": "eee7e4ddc9239c16b29573670b74a847", "lat": 38.92899466666667, "fusion_lon": 0.0, "fusion_lat": 0.0, "type": "electric_scooter", "name": "eee7e4ddc9239c16b29573670b74a847", "is_disabled": 0, "rental_uris": {"ios": "https://dc.lft.to/lastmile_qr_scan", "android": "https://dc.lft.to/lastmile_qr_scan"}, "is_reserved": 0}, {"lon": -77.01723316666667, "bike_id": "aef580c9b39b56a03e698fee3b49225f", "lat": 38.90562, "fusion_lon": 0.0, "fusion_lat": 0.0, "type": "electric_scooter", "name": "aef580c9b39b56a03e698fee3b49225f", "is_disabled": 0, "rental_uris": {"ios": "https://dc.lft.to/lastmile_qr_scan", "android": "https://dc.lft.to/lastmile_qr_scan"}, "is_reserved": 0}, {"lon": -77.03470266666666, "bike_id": "4f12b1e7dcef6da975a612708ac59cd5", "lat": 38.907440333333334, "fusion_lon": 0.0, "fusion_lat": 0.0, "type": "electric_scooter", "name": "4f12b1e7dcef6da975a612708ac59cd5", "is_disabled": 0, "rental_uris": {"ios": "https://dc.lft.to/lastmile_qr_scan", "android": "https://dc.lft.to/lastmile_qr_scan"}, "is_reserved": 0}, {"lon": -77.01185416666667, "bike_id": "50501d0e29c867696d52651a604876f3", "lat": 38.90023016666667, "fusion_lon": 0.0, "fusion_lat": 0.0, "type": "electric_scooter", "name": "50501d0e29c867696d52651a604876f3", "is_disabled": 0, "rental_uris": {"ios": "https://dc.lft.to/lastmile_qr_scan", "android": "https://dc.lft.to/lastmile_qr_scan"}, "is_reserved": 0}, {"lon": -77.018004, "bike_id": "e6f1f58bedde27c61a97fa5080960527", "lat": 38.9010185, "fusion_lon": 0.0, "fusion_lat": 0.0, "type": "electric_scooter", "name": "e6f1f58bedde27c61a97fa5080960527", "is_disabled": 0, "rental_uris": {"ios": "https://dc.lft.to/lastmile_qr_scan", "android": "https://dc.lft.to/lastmile_qr_scan"}, "is_reserved": 0}, {"lon": -76.9782615, "bike_id": "8515da451d047b1e6559592d8933259a", "lat": 38.84373133333333, "fusion_lon": 0.0, "fusion_lat": 0.0, "type": "electric_bike", "name": "8515da451d047b1e6559592d8933259a", "is_disabled": 0, "rental_uris": {"ios": "https://dc.lft.to/lastmile_qr_scan", "android": "https://dc.lft.to/lastmile_qr_scan"}, "is_reserved": 0}, {"lon": -77.03585, "bike_id": "04a8f877da22a93ee3d34afb217a3fc0", "lat": 38.99225116666667, "fusion_lon": 0.0, "fusion_lat": 0.0, "type": "electric_scooter", "name": "04a8f877da22a93ee3d34afb217a3fc0", "is_disabled": 0, "rental_uris": {"ios": "https://dc.lft.to/lastmile_qr_scan", "android": "https://dc.lft.to/lastmile_qr_scan"}, "is_reserved": 0},