{"data": {"bikes": [{"is_reserved": 0, "lat": 38.907493333333335, "rental_uris": {"android": "https://dc.lft.to/lastmile_qr_scan", "ios": "https://dc.lft.to/lastmile_qr_scan"}, "bike_id": "974afbfa101423c4d5294667445ac101", "fusion_lon": 0.0, "fusion_lat": 0.0, "is_disabled": 0, "name": "974afbfa101423c4d5294667445ac101", "type": "electric_scooter", "lon": -76.99905183333334}, {"is_reserved": 0, "lat": 38.932438, "rental_uris": {"android": "https://dc.lft.to/lastmile_qr_scan", "ios": "https://dc.lft.to/lastmile_qr_scan"}, "bike_id": "f55d95cec11d508387dbedfac97522b6", "fusion_lon": 0.0, "fusion_lat": 0.0, "is_disabled": 0, "name": "f55d95cec11d508387dbedfac97522b6", "type": "electric_scooter", "lon": -77.03845883333334}, {"is_reserved": 0, "lat": 38.944220333333334, "rental_uris": {"android": "https://dc.lft.to/lastmile_qr_scan", "ios": "https://dc.lft.to/lastmile_qr_scan"}, "bike_id": "2b14f8dbeba9d0d49ff08b4e4ffa80e8", "fusion_lon": 0.0, "fusion_lat": 0.0, "is_disabled": 0, "name": "2b14f8dbeba9d0d49ff08b4e4ffa80e8", "type": "electric_scooter", "lon": -77.06255783333333}, {"is_reserved": 0, "lat": 38.928752833333334, "rental_uris": {"android": "https://dc.lft.to/lastmile_qr_scan", "ios": "https://dc.lft.to/lastmile_qr_scan"}, "bike_id": "6e6350a3d3252140bb219c75533aacaa", "fusion_lon": 0.0, "fusion_lat": 0.0, "is_disabled": 0, "name": "6e6350a3d3252140bb219c75533aacaa", "type": "electric_bike", "lon": -77.01244833333334}, {"is_reserved": 0, "lat": 38.900227666666666, "rental_uris": {"android": "https://dc.lft.to/lastmile_qr_scan", "ios": "https://dc.lft.to/lastmile_qr_scan"}, "bike_id": "eb6cb76ebcfef85a6053c7280b21bd6c", "fusion_lon": 0.0, "fusion_lat": 0.0, "is_disabled": 0, "name": "eb6cb76ebcfef85a6053c7280b21bd6c", "type": "electric_scooter", "lon": -77.0117235}, {"is_reserved": 0, "lat": 38.916948833333336, "rental_uris": {"android": "https://dc.lft.to/lastmile_qr_scan", "ios": "https://dc.lft.to/lastmile_qr_scan"}, "bike_id": "912fec946503d8dc3a1c1c5702bbb9a5", "fusion_lon": 0.0, "fusion_lat": 0.0, "is_disabled": 0, "name": "912fec946503d8dc3a1c1c5702bbb9a5", "type": "electric_scooter", "lon": -77.03337683333334}, {"is_reserved": 0, "lat": 38.9308835, "rental_uris": {"android": "https://dc.lft.to/lastmile_qr_scan", "ios": "https://dc.lft.to/lastmile_qr_scan"}, "bike_id": "34dc226ba9df4cf05f7cd127f5006561", "fusion_lon": 0.0, "fusion_lat": 0.0, "is_disabled": 0, "name": "34dc226ba9df4cf05f7cd127f5006561", "type": "electric_scooter", "lon": -77.02497683333333}, {"is_reserved": 0, "lat": 38.906777166666664, "rental_uris": {"android": "https://dc.lft.to/lastmile_qr_scan", "ios": "https://dc.lft.to/lastmile_qr_scan"}, "bike_id": "1d240cf7a60e89a821268471269b66f9", "fusion_lon": 0.0, "fusion_lat": 0.0, "is_disabled": 0, "name": "1d240cf7a60e89a821268471269b66f9", "type": "electric_scooter", "lon": -77.026976}, {"is_reserved": 0, "lat": 38.9057205, "rental_uris": {"android": "https://dc.lft.to/lastmile_qr_scan", "ios": "https://dc.lft.to/lastmile_qr_scan"}, "bike_id": "d80d9a0b5f54a2317d9e06fe3ccb6a45", "fusion_lon": 0.0, "fusion_lat": 0.0, "is_disabled": 0, "name": "d80d9a0b5f54a2317d9e06fe3ccb6a45", "type": "electric_scooter", "lon": -77.03075583333333}, {"is_reserved": 0, "lat": 38.91974833333333, "rental_uris": {"android": "https://dc.lft.to/lastmile_qr_scan", "ios": "https://dc.lft.to/lastmile_qr_scan"}, "bike_id": "a4bebaa59a19f275f65fa2e4ffe38aff", "fusion_lon": 0.0, "fusion_lat": 0.0, "is_disabled": 0, "name": "a4bebaa59a19f275f65fa2e4ffe38aff", "type": "electric_scooter", "lon": -77.01209966666667}, {"is_reserved": 0, "lat": 38.916853, "rental_uris": {"android": "https://dc.lft.to/lastmile_qr_scan", "ios": "https://dc.lft.to/lastmile_qr_scan"}, "bike_id": "cd8883d4d0c05429fd82f6f7dfb27efa", "fusion_lon": 0.0, "fusion_lat": 0.0, "is_disabled": 0, "name": "cd8883d4d0c05429fd82f6f7dfb27efa", "type": "electric_scooter", "lon": -77.029728}, {"is_reserved": 0, "lat": 38.89497133333333, "rental_uris": {"android": "https://dc.lft.to/lastmile_qr_scan", "ios": "https://dc.lft.to/lastmile_qr_scan"}, "bike_id": "0f7ff1a31a8a4266df2ee5e979e372cd", "fusion_lon": 0.0, "fusion_lat": 0.0, "is_disabled": 0, "name": "0f7ff1a31a8a4266df2ee5e979e372cd", "type": "electric_scooter", "lon": -77.00209733333334}, {"is_reserved": 0, "lat": 38.937474333333334, "rental_uris": {"android": "https://dc.lft.to/lastmile_qr_scan", "ios": "https://dc.lft.to/lastmile_qr_scan"}, "bike_id": "6ca40950350399378d07b2fe7f1ea3d2", "fusion_lon": 0.0, "fusion_lat": 0.0, "is_disabled": 0, "name": "6ca40950350399378d07b2fe7f1ea3d2", "type": "electric_scooter", "lon": -77.0345695}, {"is_reserved": 0, "lat": 38.91703966666667, "rental_uris": {"android": "https://dc.lft.to/lastmile_qr_scan", "ios": "https://dc.lft.to/lastmile_qr_scan"}, "bike_id": "1a4f8569824e50025fa32184952c7503", "fusion_lon": 0.0, "fusion_lat": 0.0, "is_disabled": 0, "name": "1a4f8569824e50025fa32184952c7503", "type": "electric_scooter", "lon": -77.009656}, {"is_reserved": 0, "lat": 38.946183833333336, "rental_uris": {"android": "https://dc.lft.to/lastmile_qr_scan", "ios": "https://dc.lft.to/lastmile_qr_scan"}, "bike_id": "e8bc6c98312b4e895bb803e313ecfbac", "fusion_lon": 0.0, "fusion_lat": 0.0, "is_disabled": 0, "name": "e8bc6c98312b4e895bb803e313ecfbac", "type": "electric_scooter", "lon": -77.0251355}, {"is_reserved": 0, "lat": 38.931934, "rental_uris": {"android": "https://dc.lft.to/lastmile_qr_scan", "ios": "https://dc.lft.to/lastmile_qr_scan"}, "bike_id": "7bf708af179f991700fb2bbb5142fa6b", "fusion_lon": 0.0, "fusion_lat": 0.0, "is_disabled": 0, "name": "7bf708af179f991700fb2bbb5142fa6b", "type": "electric_scooter", "lon": -77.0283265}, {"is_reserved": 0, "lat": 38.923312833333334, "rental_uris": {"android": "https://dc.lft.to/lastmile_qr_scan", "ios": "https://dc.lft.to/lastmile_qr_scan"}, "bike_id": "929aa473bb290fbf37f7db6e53240ac4", "fusion_lon": 0.0, "fusion_lat": 0.0, "is_disabled": 0, "name": "929aa473bb290fbf37f7db6e53240ac4", "type": "electric_scooter", "lon": -77.036105}, {"is_reserved": 0, "lat": 38.98649866666667, "rental_uris": {"android": "https://dc.lft.to/lastmile_qr_scan", "ios": "https://dc.lft.to/lastmile_qr_scan"}, "bike_id": "12c2dd039214936ab39981aaa17e7a73", "fusion_lon": 0.0, "fusion_lat": 0.0, "is_disabled": 0, "name": "12c2dd039214936ab39981aaa17e7a73", "type": "electric_bike", "lon": -77.05633883333333}, {"is_reserved": 0, "lat": 38.91799366666667, "rental_uris": {"android": "https://dc.lft.to/lastmile_qr_scan", "ios": "https://dc.lft.to/lastmile_qr_scan"}, "bike_id": "960d3015020168e26c97206602203255", "fusion_lon": 0.0, "fusion_lat": 0.0, "is_disabled": 0, "name": "960d3015020168e26c97206602203255", "type": "electric_scooter", "lon": -77.04015133333333}, {"is_reserved": 0, "lat": 38.905620166666665, "rental_uris": {"android": "https://dc.lft.to/lastmile_qr_scan", "ios": "https://dc.lft.to/lastmile_qr_scan"}, "bike_id": "229d3c0feeb189309538767751d82c11", "fusion_lon": 0.0, "fusion_lat": 0.0, "is_disabled": 0, "name": "229d3c0feeb189309538767751d82c11", "type": "electric_scooter", "lon": -77.027968}, {"is_reserved": 0, "lat": 38.87644483333333, "rental_uris": {"android": "https://dc.lft.to/lastmile_qr_scan", "ios": "https://dc.lft.to/lastmile_qr_scan"}, "bike_id": "4985685ef593c9f498b49cbd194b7987", "fusion_lon": 0.0, "fusion_lat": 0.0, "is_disabled": 0, "name": "4985685ef593c9f498b49cbd194b7987", "type": "electric_bike", "lon": -77.00413133333333}, {"is_reserved": 0, "lat": 38.91730166666667, "rental_uris": {"android": "https://dc.lft.to/lastmile_qr_scan", "ios": "https://dc.lft.to/lastmile_qr_scan"}, "bike_id": "831e5668fc996d6884dd64891d95198f", "fusion_lon": 0.0, "fusion_lat": 0.0, "is_disabled": 0, "name": "831e5668fc996d6884dd64891d95198f", "type": "electric_scooter", "lon": -77.0320565}, {"is_reserved": 0, "lat": 38.90773866666667, "rental_uris": {"android": "https://dc.lft.to/lastmile_qr_scan", "ios": "https://dc.lft.to/lastmile_qr_scan"}, "bike_id": "be85efd2ad6761be0f81cbbdb94e857d", "fusion_lon": 0.0, "fusion_lat": 0.0, "is_disabled": 0, "name": "be85efd2ad6761be0f81cbbdb94e857d", "type": "electric_scooter", "lon": -77.0386115}, {"is_reserved": 0, "lat": 39.0156545, "rental_uris": {"android": "https://dc.lft.to/lastmile_qr_scan", "ios": "https://dc.lft.to/lastmile_qr_scan"}, "bike_id": "b2aca3abe359bbc20d9e8f98b2907fb3", "fusion_lon": 0.0, "fusion_lat": 0.0, "is_disabled": 0, "name": "b2aca3abe359bbc20d9e8f98b2907fb3", "type": "electric_bike", "lon": -77.04416766666667}, {"is_reserved": 0, "lat": 38.922018333333334, "rental_uris": {"android": "https://dc.lft.to/lastmile_qr_scan", "ios": "https://dc.lft.to/lastmile_qr_scan"}, "bike_id": "aa64333b8dd7cd5c8d860038a73f04b9", "fusion_lon": 0.0, "fusion_lat": 0.0, "is_disabled": 0, "name": "aa64333b8dd7cd5c8d860038a73f04b9", "type": "electric_scooter", "lon": -77.04012883333333}, {"is_reserved": 0, "lat": 38.9141165, "rental_uris": {"android": "https://dc.lft.to/lastmile_qr_scan", "ios": "https://dc.lft.to/lastmile_qr_scan"}, "bike_id": "156ceada337e9ab5bc024805f29c4fd3", "fusion_lon": 0.0, "fusion_lat": 0.0, "is_disabled": 0, "name": "156ceada337e9ab5bc024805f29c4fd3", "type": "electric_scooter", "lon": -77.02605833333334}, {"is_reserved": 0, "lat": 38.95400866666667, "rental_uris": {"android": "https://dc.lft.to/lastmile_qr_scan", "ios": "https://dc.lft.to/lastmile_qr_scan"}, "bike_id": "5b632b4a4548b4d6273268ce4a6c7c4a", "fusion_lon": 0.0, "fusion_lat": 0.0, "is_disabled": 0, "name": "5b632b4a4548b4d6273268ce4a6c7c4a", "type": "electric_scooter", "lon": -77.03625716666667}, {"is_reserved": 0, "lat": 38.91804, "rental_uris": {"android": "https://dc.lft.to/lastmile_qr_scan", "ios": "https://dc.lft.to/lastmile_qr_scan"}, "bike_id": "2a06c06788e031d9b4c8c6c3205e6838", "fusion_lon": 0.0, "fusion_lat": 0.0, "is_disabled": 0, "name": "2a06c06788e031d9b4c8c6c3205e6838", "type": "electric_scooter", "lon": -77.04027533333333}, {"is_reserved": 0, "lat": 38.898441166666665, "rental_uris": {"android": "https://dc.lft.to/lastmile_qr_scan", "ios": "https://dc.lft.to/lastmile_qr_scan"}, "bike_id": "9c4d7c8ecb21d0b13599f791a148e003", "fusion_lon": 0.0, "fusion_lat": 0.0, "is_disabled": 0, "name": "9c4d7c8ecb21d0b13599f791a148e003", "type": "electric_scooter", "lon": -76.94635333333333}, {"is_reserved": 0, "lat": 38.89915083333333, "rental_uris": {"android": "https://dc.lft.to/lastmile_qr_scan", "ios": "https://dc.lft.to/lastmile_qr_scan"}, "bike_id": "52ddfe3e79437caaa46de6d28d617421", "fusion_lon": 0.0, "fusion_lat": 0.0, "is_disabled": 0, "name": "52ddfe3e79437caaa46de6d28d617421", "type": "electric_scooter", "lon": -77.02690333333334}, {"is_reserved": 0, "lat": 38.88129566666667, "rental_uris": {"android": "https://dc.lft.to/lastmile_qr_scan", "ios": "https://dc.lft.to/lastmile_qr_scan"}, "bike_id": "4130b99d275c81581feb4e64f8b6cbb7", "fusion_lon": 0.0, "fusion_lat": 0.0, "is_disabled": 0, "name": "4130b99d275c81581feb4e64f8b6cbb7", "type": "electric_scooter", "lon": -77.0131055}, {"is_reserved": 0, "lat": 38.8988735, "rental_uris": {"android": "https://dc.lft.to/lastmile_qr_scan", "ios": "https://dc.lft.to/lastmile_qr_scan"}, "bike_id": "67c2cc70401d0d1508f3325c33c9d21b", "fusion_lon": 0.0, "fusion_lat": 0.0, "is_disabled": 0, "name": "67c2cc70401d0d1508f3325c33c9d21b", "type": "electric_scooter", "lon": -77.0327645}, {"is_reserved": 0, "lat": 38.905483, "rental_uris": {"android": "https://dc.lft.to/lastmile_qr_scan", "ios": "https://dc.lft.to/lastmile_qr_scan"}, "bike_id": "eb13c208677e6189cdd7e98112792939", "fusion_lon": 0.0, "fusion_lat": 0.0, "is_disabled": 0, "name": "eb13c208677e6189cdd7e98112792939", "type": "electric_scooter", "lon": -77.05712216666667}, {"is_reserved": 0, "lat": 38.917613833333334, "rental_uris": {"android": "https://dc.lft.to/lastmile_qr_scan", "ios": "https://dc.lft.to/lastmile_qr_scan"}, "bike_id": "0270449e48422806bc2bc1b932b27d2a", "fusion_lon": 0.0, "fusion_lat": 0.0, "is_disabled": 0, "name": "0270449e48422806bc2bc1b932b27d2a", "type": "electric_scooter", "lon": -77.02326416666666}, {"is_reserved": 0, "lat": 38.90761633333334, "rental_uris": {"android": "https://dc.lft.to/lastmile_qr_scan", "ios": "https://dc.lft.to/lastmile_qr_scan"}, "bike_id": "49ff1924757425d10598caaf2775d90d", "fusion_lon": 0.0, "fusion_lat": 0.0, "is_disabled": 0, "name": "49ff1924757425d10598caaf2775d90d", "type": "electric_scooter", "lon": -77.0424535}, {"is_reserved": 0, "lat": 38.9104455, "rental_uris": {"android": "https://dc.lft.to/lastmile_qr_scan", "ios": "https://dc.lft.to/lastmile_qr_scan"}, "bike_id": "8a11603d0c6c184a8812bd09349fbd52", "fusion_lon": 0.0, "fusion_lat": 0.0, "is_disabled": 0, "name": "8a11603d0c6c184a8812bd09349fbd52", "type": "electric_scooter", "lon": -77.015139}, {"is_reserved": 0, "lat": 38.91194133333333, "rental_uris": {"android": "https://dc.lft.to/lastmile_qr_scan", "ios": "https://dc.lft.to/lastmile_qr_scan"}, "bike_id": "b576a350ff7c51bc8bb9597df2db3fe2", "fusion_lon": 0.0, "fusion_lat": 0.0, "is_disabled": 0, "name": "b576a350ff7c51bc8bb9597df2db3fe2", "type": "electric_scooter", "lon": -77.04495183333333}, {"is_reserved": 0, "lat": 38.9169145, "rental_uris": {"android": "https://dc.lft.to/lastmile_qr_scan", "ios": "https://dc.lft.to/lastmile_qr_scan"}, "bike_id": "8e41b57b4c904047474d1adef279038d", "fusion_lon": 0.0, "fusion_lat": 0.0, "is_disabled": 0, "name": "8e41b57b4c904047474d1adef279038d", "type": "electric_scooter", "lon": -77.026865}, {"is_reserved": 0, "lat": 38.95527883333333, "rental_uris": {"android": "https://dc.lft.to/lastmile_qr_scan", "ios": "https://dc.lft.to/lastmile_qr_scan"}, "bike_id": "20e361640caf434ec8576317de811cdf", "fusion_lon": 0.0, "fusion_lat": 0.0, "is_disabled": 0, "name": "20e361640caf434ec8576317de811cdf", "type": "electric_scooter", "lon": -77.07010483333333}, {"is_reserved": 0, "lat": 38.90075316666667, "rental_uris": {"android": "https://dc.lft.to/lastmile_qr_scan", "ios": "https://dc.lft.to/lastmile_qr_scan"}, "bike_id": "3cde6643785b8bbd77e27788208b93cf", "fusion_lon": 0.0, "fusion_lat": 0.0, "is_disabled": 0, "name": "3cde6643785b8bbd77e27788208b93cf", "type": "electric_scooter", "lon": -77.026693}, {"is_reserved": 0, "lat": 38.90732766666667, "rental_uris": {"android": "https://dc.lft.to/lastmile_qr_scan", "ios": "https://dc.lft.to/lastmile_qr_scan"}, "bike_id": "8d21db27e61ca5596e4cf738c6ba29d9", "fusion_lon": 0.0, "fusion_lat": 0.0, "is_disabled": 0, "name": "8d21db27e61ca5596e4cf738c6ba29d9", "type": "electric_scooter", "lon": -77.02595733333334}, {"is_reserved": 0, "lat": 38.893469833333334, "rental_uris": {"android": "https://dc.lft.to/lastmile_qr_scan", "ios": "https://dc.lft.to/lastmile_qr_scan"}, "bike_id": "9ad69692b077f1e2a97598d0dda52008", "fusion_lon": 0.0, "fusion_lat": 0.0, "is_disabled": 0, "name": "9ad69692b077f1e2a97598d0dda52008", "type": "electric_bike", "lon": -77.18743216666667}, {"is_reserved": 0, "lat": 38.958786333333336, "rental_uris": {"android": "https://dc.lft.to/lastmile_qr_scan", "ios": "https://dc.lft.to/lastmile_qr_scan"}, "bike_id": "526718a1c46225eedd191c3e0932414e", "fusion_lon": 0.0, "fusion_lat": 0.0, "is_disabled": 0, "name": "526718a1c46225eedd191c3e0932414e", "type": "electric_bike", "lon": -77.01035616666667}, {"is_reserved": 0, "lat": 38.902538666666665, "rental_uris": {"android": "https://dc.lft.to/lastmile_qr_scan", "ios": "https://dc.lft.to/lastmile_qr_scan"}, "bike_id": "a1e378c96fa65489f346e6b27b94ee97", "fusion_lon": 0.0, "fusion_lat": 0.0, "is_disabled": 0, "name": "a1e378c96fa65489f346e6b27b94ee97", "type": "electric_scooter", "lon": -76.97703666666666}, {"is_reserved": 0, "lat": 38.885243333333335, "rental_uris": {"android": "https://dc.lft.to/lastmile_qr_scan", "ios": "https://dc.lft.to/lastmile_qr_scan"}, "bike_id": "b7095a528051f55ddc8ac20704c130aa", "fusion_lon": 0.0, "fusion_lat": 0.0, "is_disabled": 0, "name": "b7095a528051f55ddc8ac20704c130aa", "type": "electric_scooter", "lon": -77.01133833333333}, {"is_reserved": 0, "lat": 38.859399, "rental_uris": {"android": "https://dc.lft.to/lastmile_qr_scan", "ios": "https://dc.lft.to/lastmile_qr_scan"}, "bike_id": "459c7dd69213b8474665f9eba59c77f7", "fusion_lon": 0.0, "fusion_lat": 0.0, "is_disabled": 0, "name": "459c7dd69213b8474665f9eba59c77f7", "type": "electric_bike", "lon": -77.08606916666666}, {"is_reserved": 0, "lat": 38.9324815, "rental_uris": {"android": "https://dc.lft.to/lastmile_qr_scan", "ios": "https://dc.lft.to/lastmile_qr_scan"}, "bike_id": "6282969c76cb796f8978361f5f74441d", "fusion_lon": 0.0, "fusion_lat": 0.0, "is_disabled": 0, "name": "6282969c76cb796f8978361f5f74441d", "type": "electric_scooter", "lon": -77.02726133333333}, {"is_reserved": 0, "lat": 38.93078766666667, "rental_uris": {"android": "https://dc.lft.to/lastmile_qr_scan", "ios": "https://dc.lft.to/lastmile_qr_scan"}, "bike_id": "a8481040ab25e98491ee89fb28c48cdd", "fusion_lon": 0.0, "fusion_lat": 0.0, "is_disabled": 0, "name": "a8481040ab25e98491ee89fb28c48cdd", "type": "electric_scooter", "lon": -77.03429583333333}, {"is_reserved": 0, "lat": 38.90247, "rental_uris": {"android": "https://dc.lft.to/lastmile_qr_scan", "ios": "https://dc.lft.to/lastmile_qr_scan"}, "bike_id": "480104aeb18fe355b83850dd21733882", "fusion_lon": 0.0, "fusion_lat": 0.0, "is_disabled": 0, "name": "480104aeb18fe355b83850dd21733882", "type": "electric_scooter", "lon": -77.0374205}, {"is_reserved": 0, "lat": 38.89219766666667, "rental_uris": {"android": "https://dc.lft.to/lastmile_qr_scan", "ios": "https://dc.lft.to/lastmile_qr_scan"}, "bike_id": "0788b00eb241dfd5901ab334ed02035e", "fusion_lon": 0.0, "fusion_lat": 0.0, "is_disabled": 0, "name": "0788b00eb241dfd5901ab334ed02035e", "type": "electric_scooter", "lon": -77.04866966666667}, {"is_reserved": 0, "lat": 38.93326733333333, "rental_uris": {"android": "https://dc.lft.to/lastmile_qr_scan", "ios": "https://dc.lft.to/lastmile_qr_scan"}, "bike_id": "c495859f1d1c50decf03b9602536548d", "fusion_lon": 0.0, "fusion_lat": 0.0, "is_disabled": 0, "name": "c495859f1d1c50decf03b9602536548d", "type": "electric_scooter", "lon": -77.0436665}, {"is_reserved": 0, "lat": 38.90237616666667, "rental_uris": {"android": "https://dc.lft.to/lastmile_qr_scan", "ios": "https://dc.lft.to/lastmile_qr_scan"}, "bike_id": "cf954ac9a8c75ae850658b32d5e8358c", "fusion_lon": 0.0, "fusion_lat": 0.0, "is_disabled": 0, "name": "cf954ac9a8c75ae850658b32d5e8358c", "type": "electric_scooter", "lon": -77.0606295}, {"is_reserved": 0, "lat": 38.91946316666667, "rental_uris": {"android": "https://dc.lft.to/lastmile_qr_scan", "ios": "https://dc.lft.to/lastmile_qr_scan"}, "bike_id": "5202e4f563ed0f369ba98fae2636a02c", "fusion_lon": 0.0, "fusion_lat": 0.0, "is_disabled": 0, "name": "5202e4f563ed0f369ba98fae2636a02c", "type": "electric_scooter", "lon": -76.980786}, {"is_reserved": 0, "lat": 38.92324766666667, "rental_uris": {"android": "https://dc.lft.to/lastmile_qr_scan", "ios": "https://dc.lft.to/lastmile_qr_scan"}, "bike_id": "0b851d20b551a88c6c50eb61302ba835", "fusion_lon": 0.0, "fusion_lat": 0.0, "is_disabled": 0, "name": "0b851d20b551a88c6c50eb61302ba835", "type": "electric_scooter", "lon": -77.0388395}, {"is_reserved": 0, "lat": 38.915688833333334, "rental_uris": {"android": "https://dc.lft.to/lastmile_qr_scan", "ios": "https://dc.lft.to/lastmile_qr_scan"}, "bike_id": "aa5761b8b145f2c2ac708d237bf614e8", "fusion_lon": 0.0, "fusion_lat": 0.0, "is_disabled": 0, "name": "aa5761b8b145f2c2ac708d237bf614e8", "type": "electric_scooter", "lon": -77.02184566666666}, {"is_reserved": 0, "lat": 38.87235033333333, "rental_uris": {"android": "https://dc.lft.to/lastmile_qr_scan", "ios": "https://dc.lft.to/lastmile_qr_scan"}, "bike_id": "009da24925ccf8dbd2bf1ca76a0c74da", "fusion_lon": 0.0, "fusion_lat": 0.0, "is_disabled": 0, "name": "009da24925ccf8dbd2bf1ca76a0c74da", "type": "electric_bike", "lon": -77.011737}, {"is_reserved": 0, "lat": 38.892821, "rental_uris": {"android": "https://dc.lft.to/lastmile_qr_scan", "ios": "https://dc.lft.to/lastmile_qr_scan"}, "bike_id": "3681161d067b7a8bdd391ceacbc80ccf", "fusion_lon": 0.0, "fusion_lat": 0.0, "is_disabled": 0, "name": "3681161d067b7a8bdd391ceacbc80ccf", "type": "electric_scooter", "lon": -77.05040616666666}, {"is_reserved": 0, "lat": 38.9067485, "rental_uris": {"android": "https://dc.lft.to/lastmile_qr_scan", "ios": "https://dc.lft.to/lastmile_qr_scan"}, "bike_id": "4aec8277c7648f96ad6d63bc46d4fc4f", "fusion_lon": 0.0, "fusion_lat": 0.0, "is_disabled": 0, "name": "4aec8277c7648f96ad6d63bc46d4fc4f", "type": "electric_scooter", "lon": -77.026951}, {"is_reserved": 0, "lat": 39.0885595, "rental_uris": {"android": "https://dc.lft.to/lastmile_qr_scan", "ios": "https://dc.lft.to/lastmile_qr_scan"}, "bike_id": "bc7884bc6a9e05d9043171af230ec59a", "fusion_lon": 0.0, "fusion_lat": 0.0, "is_disabled": 0, "name": "bc7884bc6a9e05d9043171af230ec59a", "type": "electric_bike", "lon": -77.17840483333333}, {"is_reserved": 0, "lat": 38.89976733333334, "rental_uris": {"android": "https://dc.lft.to/lastmile_qr_scan", "ios": "https://dc.lft.to/lastmile_qr_scan"}, "bike_id": "12e236510cf1d140344b3da8bce320c5", "fusion_lon": 0.0, "fusion_lat": 0.0, "is_disabled": 0, "name": "12e236510cf1d140344b3da8bce320c5", "type": "electric_scooter", "lon": -76.93988833333333}, {"is_reserved": 0, "lat": 38.91009433333333, "rental_uris": {"android": "https://dc.lft.to/lastmile_qr_scan", "ios": "https://dc.lft.to/lastmile_qr_scan"}, "bike_id": "bd5137f99b51880d58f8005d69f74ed0", "fusion_lon": 0.0, "fusion_lat": 0.0, "is_disabled": 0, "name": "bd5137f99b51880d58f8005d69f74ed0", "type": "electric_scooter", "lon": -77.0442475}, {"is_reserved": 0, "lat": 38.928549333333336, "rental_uris": {"android": "https://dc.lft.to/lastmile_qr_scan", "ios": "https://dc.lft.to/lastmile_qr_scan"}, "bike_id": "4f772fe025a60d819501684a6799cfd0", "fusion_lon": 0.0, "fusion_lat": 0.0, "is_disabled": 0, "name": "4f772fe025a60d819501684a6799cfd0", "type": "electric_bike", "lon": -77.22225733333333}, {"is_reserved": 0, "lat": 38.90734883333333, "rental_uris": {"android": "https://dc.lft.to/lastmile_qr_scan", "ios": "https://dc.lft.to/lastmile_qr_scan"}, "bike_id": "c2a4c7d6d6b34dc898d0160a7924dfc0", "fusion_lon": 0.0, "fusion_lat": 0.0, "is_disabled": 0, "name": "c2a4c7d6d6b34dc898d0160a7924dfc0", "type": "electric_scooter", "lon": -77.02416166666667}, {"is_reserved": 0, "lat": 38.924298666666665, "rental_uris": {"android": "https://dc.lft.to/lastmile_qr_scan", "ios": "https://dc.lft.to/lastmile_qr_scan"}, "bike_id": "20ee7820d78458c319b7fb8806e3a4e0", "fusion_lon": 0.0, "fusion_lat": 0.0, "is_disabled": 0, "name": "20ee7820d78458c319b7fb8806e3a4e0", "type": "electric_scooter", "lon": -77.05207683333333}, {"is_reserved": 0, "lat": 38.8765425, "rental_uris": {"android": "https://dc.lft.to/lastmile_qr_scan", "ios": "https://dc.lft.to/lastmile_qr_scan"}, "bike_id": "ba8c0b0cb3fc2b95797d81f626810d9c", "fusion_lon": 0.0, "fusion_lat": 0.0, "is_disabled": 0, "name": "ba8c0b0cb3fc2b95797d81f626810d9c", "type": "electric_scooter", "lon": -77.004346}, {"is_reserved": 0, "lat": 38.911194, "rental_uris": {"android": "https://dc.lft.to/lastmile_qr_scan", "ios": "https://dc.lft.to/lastmile_qr_scan"}, "bike_id": "33e8452c2480e3c3f72bf20e747f530a", "fusion_lon": 0.0, "fusion_lat": 0.0, "is_disabled": 0, "name": "33e8452c2480e3c3f72bf20e747f530a", "type": "electric_scooter", "lon": -77.03796183333333}, {"is_reserved": 0, "lat": 38.917952166666666, "rental_uris": {"android": "https://dc.lft.to/lastmile_qr_scan", "ios": "https://dc.lft.to/lastmile_qr_scan"}, "bike_id": "1ce75f176d5657b962be2e136a28d421", "fusion_lon": 0.0, "fusion_lat": 0.0, "is_disabled": 0, "name": "1ce75f176d5657b962be2e136a28d421", "type": "electric_scooter", "lon": -77.03448516666667}, {"is_reserved": 0, "lat": 38.8904205, "rental_uris": {"android": "https://dc.lft.to/lastmile_qr_scan", "ios": "https://dc.lft.to/lastmile_qr_scan"}, "bike_id": "b14a5ce2a87c51744a2ad63a3de7986d", "fusion_lon": 0.0, "fusion_lat": 0.0, "is_disabled": 0, "name": "b14a5ce2a87c51744a2ad63a3de7986d", "type": "electric_scooter", "lon": -76.95246566666667}, {"is_reserved": 0, "lat": 38.90284333333334, "rental_uris": {"android": "https://dc.lft.to/lastmile_qr_scan", "ios": "https://dc.lft.to/lastmile_qr_scan"}, "bike_id": "e5905c2639f1dfd82a48114c4bf6bf9f", "fusion_lon": 0.0, "fusion_lat": 0.0, "is_disabled": 0, "name": "e5905c2639f1dfd82a48114c4bf6bf9f", "type": "electric_scooter", "lon": -77.04384483333334}, {"is_reserved": 0, "lat": 38.887380666666665, "rental_uris": {"android": "https://dc.lft.to/lastmile_qr_scan", "ios": "https://dc.lft.to/lastmile_qr_scan"}, "bike_id": "cd5ef3d86009989e7c40c3ac3512b8d0", "fusion_lon": 0.0, "fusion_lat": 0.0, "is_disabled": 0, "name": "cd5ef3d86009989e7c40c3ac3512b8d0", "type": "electric_scooter", "lon": -77.01531066666666}, {"is_reserved": 0, "lat": 39.056346833333336, "rental_uris": {"android": "https://dc.lft.to/lastmile_qr_scan", "ios": "https://dc.lft.to/lastmile_qr_scan"}, "bike_id": "cd44cc76ae73be27a1204bc2f167ca86", "fusion_lon": 0.0, "fusion_lat": 0.0, "is_disabled": 0, "name": "cd44cc76ae73be27a1204bc2f167ca86", "type": "electric_bike", "lon": -77.1252575}, {"is_reserved": 0, "lat": 38.917555, "rental_uris": {"android": "https://dc.lft.to/lastmile_qr_scan", "ios": "https://dc.lft.to/lastmile_qr_scan"}, "bike_id": "fc1e8a30147eeeb53573da3ae407d256", "fusion_lon": 0.0, "fusion_lat": 0.0, "is_disabled": 0, "name": "fc1e8a30147eeeb53573da3ae407d256", "type": "electric_scooter", "lon": -77.036491}, {"is_reserved": 0, "lat": 38.91863, "rental_uris": {"android": "https://dc.lft.to/lastmile_qr_scan", "ios": "https://dc.lft.to/lastmile_qr_scan"}, "bike_id": "4077ce397e6a560e01fcbc9cb0ac213b", "fusion_lon": 0.0, "fusion_lat": 0.0, "is_disabled": 0, "name": "4077ce397e6a560e01fcbc9cb0ac213b", "type": "electric_scooter", "lon": -77.03180083333334}, {"is_reserved": 0, "lat": 38.89822, "rental_uris": {"android": "https://dc.lft.to/lastmile_qr_scan", "ios": "https://dc.lft.to/lastmile_qr_scan"}, "bike_id": "b9dc65654b43f56fdfc2d5b6c4be06d1", "fusion_lon": 0.0, "fusion_lat": 0.0, "is_disabled": 0, "name": "b9dc65654b43f56fdfc2d5b6c4be06d1", "type": "electric_scooter", "lon": -76.9465325}, {"is_reserved": 0, "lat": 38.89802816666667, "rental_uris": {"android": "https://dc.lft.to/lastmile_qr_scan", "ios": "https://dc.lft.to/lastmile_qr_scan"}, "bike_id": "f2441e082b0576da04c9c60915a399b4", "fusion_lon": 0.0, "fusion_lat": 0.0, "is_disabled": 0, "name": "f2441e082b0576da04c9c60915a399b4", "type": "electric_scooter", "lon": -77.03099983333334}, {"is_reserved": 0, "lat": 38.91566183333333, "rental_uris": {"android": "https://dc.lft.to/lastmile_qr_scan", "ios": "https://dc.lft.to/lastmile_qr_scan"}, "bike_id": "721008dbf9027d6dac959dbb807b5cb2", "fusion_lon": 0.0, "fusion_lat": 0.0, "is_disabled": 0, "name": "721008dbf9027d6dac959dbb807b5cb2", "type": "electric_scooter", "lon": -77.01178333333333}, {"is_reserved": 0, "lat": 38.93364483333333, "rental_uris": {"android": "https://dc.lft.to/lastmile_qr_scan", "ios": "https://dc.lft.to/lastmile_qr_scan"}, "bike_id": "7ba7119812eae7f001043e1d1c8feb92", "fusion_lon": 0.0, "fusion_lat": 0.0, "is_disabled": 0, "name": "7ba7119812eae7f001043e1d1c8feb92", "type": "electric_scooter", "lon": -77.0572855}, {"is_reserved": 0, "lat": 38.909292, "rental_uris": {"android": "https://dc.lft.to/lastmile_qr_scan", "ios": "https://dc.lft.to/lastmile_qr_scan"}, "bike_id": "c3ca1bdb02e0d2b35252a59b0d7990df", "fusion_lon": 0.0, "fusion_lat": 0.0, "is_disabled": 0, "name": "c3ca1bdb02e0d2b35252a59b0d7990df", "type": "electric_bike", "lon": -76.99885016666667}, {"is_reserved": 0, "lat": 38.96223616666666, "rental_uris": {"android": "https://dc.lft.to/lastmile_qr_scan", "ios": "https://dc.lft.to/lastmile_qr_scan"}, "bike_id": "9dba09ec583ecd33cda5dd3c05782b13", "fusion_lon": 0.0, "fusion_lat": 0.0, "is_disabled": 0, "name": "9dba09ec583ecd33cda5dd3c05782b13", "type": "electric_bike", "lon": -77.02619983333334}, {"is_reserved": 0, "lat": 38.90023, "rental_uris": {"android": "https://dc.lft.to/lastmile_qr_scan", "ios": "https://dc.lft.to/lastmile_qr_scan"}, "bike_id": "603e586f68cf136997249e5ecf1a9465", "fusion_lon": 0.0, "fusion_lat": 0.0, "is_disabled": 0, "name": "603e586f68cf136997249e5ecf1a9465", "type": "electric_scooter", "lon": -77.02608083333334}, {"is_reserved": 0, "lat": 38.8939125, "rental_uris": {"android": "https://dc.lft.to/lastmile_qr_scan", "ios": "https://dc.lft.to/lastmile_qr_scan"}, "bike_id": "0aaf8f9c7891ec9223ba25d8f2cb115a", "fusion_lon": 0.0, "fusion_lat": 0.0, "is_disabled": 0, "name": "0aaf8f9c7891ec9223ba25d8f2cb115a", "type": "electric_scooter", "lon": -76.94995916666667}, {"is_reserved": 0, "lat": 38.917558, "rental_uris": {"android": "https://dc.lft.to/lastmile_qr_scan", "ios": "https://dc.lft.to/lastmile_qr_scan"}, "bike_id": "77b7bc3a9db1643437bdb5d7617d2b51", "fusion_lon": 0.0, "fusion_lat": 0.0, "is_disabled": 0, "name": "77b7bc3a9db1643437bdb5d7617d2b51", "type": "electric_scooter", "lon": -77.03199266666667}, {"is_reserved": 0, "lat": 38.918576333333334, "rental_uris": {"android": "https://dc.lft.to/lastmile_qr_scan", "ios": "https://dc.lft.to/lastmile_qr_scan"}, "bike_id": "08600b1aab57f85dd12578379f027072", "fusion_lon": 0.0, "fusion_lat": 0.0, "is_disabled": 0, "name": "08600b1aab57f85dd12578379f027072", "type": "electric_scooter", "lon": -77.0366545}, {"is_reserved": 0, "lat": 38.93943183333333, "rental_uris": {"android": "https://dc.lft.to/lastmile_qr_scan", "ios": "https://dc.lft.to/lastmile_qr_scan"}, "bike_id": "cda334c4a0d0eb0ef03ad8c53c9835df", "fusion_lon": 0.0, "fusion_lat": 0.0, "is_disabled": 0, "name": "cda334c4a0d0eb0ef03ad8c53c9835df", "type": "electric_bike", "lon": -77.36093033333333}, {"is_reserved": 0, "lat": 38.9180055, "rental_uris": {"android": "https://dc.lft.to/lastmile_qr_scan", "ios": "https://dc.lft.to/lastmile_qr_scan"}, "bike_id": "c5a3d3ac14fc0c593e1ce8001a4de6b9", "fusion_lon": 0.0, "fusion_lat": 0.0, "is_disabled": 0, "name": "c5a3d3ac14fc0c593e1ce8001a4de6b9", "type": "electric_scooter", "lon": -77.03185166666667}, {"is_reserved": 0, "lat": 38.89568366666666, "rental_uris": {"android": "https://dc.lft.to/lastmile_qr_scan", "ios": "https://dc.lft.to/lastmile_qr_scan"}, "bike_id": "35e1d290e2623df0b427182eaed36666", "fusion_lon": 0.0, "fusion_lat": 0.0, "is_disabled": 0, "name": "35e1d290e2623df0b427182eaed36666", "type": "electric_scooter", "lon": -76.93042233333334}, {"is_reserved": 0, "lat": 38.9062815, "rental_uris": {"android": "https://dc.lft.to/lastmile_qr_scan", "ios": "https://dc.lft.to/lastmile_qr_scan"}, "bike_id": "f7e6d76655ebdae4f21f2fd27c6fc60c", "fusion_lon": 0.0, "fusion_lat": 0.0, "is_disabled": 0, "name": "f7e6d76655ebdae4f21f2fd27c6fc60c", "type": "electric_scooter", "lon": -77.03145733333334}, {"is_reserved": 0, "lat": 38.952820833333334, "rental_uris": {"android": "https://dc.lft.to/lastmile_qr_scan", "ios": "https://dc.lft.to/lastmile_qr_scan"}, "bike_id": "e96894bcbafc936a5e4a976cdb26070d", "fusion_lon": 0.0, "fusion_lat": 0.0, "is_disabled": 0, "name": "e96894bcbafc936a5e4a976cdb26070d", "type": "electric_bike", "lon": -76.94601266666666}, {"is_reserved": 0, "lat": 38.89903833333334, "rental_uris": {"android": "https://dc.lft.to/lastmile_qr_scan", "ios": "https://dc.lft.to/lastmile_qr_scan"}, "bike_id": "63059f4eb3b3a925992f49bc6badf889", "fusion_lon": 0.0, "fusion_lat": 0.0, "is_disabled": 0, "name": "63059f4eb3b3a925992f49bc6badf889", "type": "electric_scooter", "lon": -76.9335215}, {"is_reserved": 0, "lat": 38.914152333333334, "rental_uris": {"android": "https://dc.lft.to/lastmile_qr_scan", "ios": "https://dc.lft.to/lastmile_qr_scan"}, "bike_id": "f16e0b83f6d6e82c200a8901644d54d6", "fusion_lon": 0.0, "fusion_lat": 0.0, "is_disabled": 0, "name": "f16e0b83f6d6e82c200a8901644d54d6", "type": "electric_scooter", "lon": -77.02951233333333}, {"is_reserved": 0, "lat": 38.9698505, "rental_uris": {"android": "https://dc.lft.to/lastmile_qr_scan", "ios": "https://dc.lft.to/lastmile_qr_scan"}, "bike_id": "e59b9d60760103bf919d4e62f229171f", "fusion_lon": 0.0, "fusion_lat": 0.0, "is_disabled": 0, "name": "e59b9d60760103bf919d4e62f229171f", "type": "electric_bike", "lon": -76.99966116666667}, {"is_reserved": 0, "lat": 38.89756, "rental_uris": {"android": "https://dc.lft.to/lastmile_qr_scan", "ios": "https://dc.lft.to/lastmile_qr_scan"}, "bike_id": "504ac350264ce9b129f4d8128c9164bb", "fusion_lon": 0.0, "fusion_lat": 0.0, "is_disabled": 0, "name": "504ac350264ce9b129f4d8128c9164bb", "type": "electric_bike", "lon": -76.9908945}, {"is_reserved": 0, "lat": 38.897323166666666, "rental_uris": {"android": "https://dc.lft.to/lastmile_qr_scan", "ios": "https://dc.lft.to/lastmile_qr_scan"}, "bike_id": "abbd3a6fcf95471361c6837c5f5d5c0f", "fusion_lon": 0.0, "fusion_lat": 0.0, "is_disabled": 0, "name": "abbd3a6fcf95471361c6837c5f5d5c0f", "type": "electric_scooter", "lon": -77.0239955}, {"is_reserved": 0, "lat": 38.89548666666666, "rental_uris": {"android": "https://dc.lft.to/lastmile_qr_scan", "ios": "https://dc.lft.to/lastmile_qr_scan"}, "bike_id": "6b4eb0e83302418cf87b6c9de68a055f", "fusion_lon": 0.0, "fusion_lat": 0.0, "is_disabled": 0, "name": "6b4eb0e83302418cf87b6c9de68a055f", "type": "electric_scooter", "lon": -77.0091575}, {"is_reserved": 0, "lat": 38.918412833333335, "rental_uris": {"android": "https://dc.lft.to/lastmile_qr_scan", "ios": "https://dc.lft.to/lastmile_qr_scan"}, "bike_id": "8e761d688faf9cf63240f6e39d32017d", "fusion_lon": 0.0, "fusion_lat": 0.0, "is_disabled": 0, "name": "8e761d688faf9cf63240f6e39d32017d", "type": "electric_scooter", "lon": -77.021913}, {"is_reserved": 0, "lat": 38.92417116666667, "rental_uris": {"android": "https://dc.lft.to/lastmile_qr_scan", "ios": "https://dc.lft.to/lastmile_qr_scan"}, "bike_id": "1537cc00ca064a6da63ee83f1b21955f", "fusion_lon": 0.0, "fusion_lat": 0.0, "is_disabled": 0, "name": "1537cc00ca064a6da63ee83f1b21955f", "type": "electric_scooter", "lon": -77.04450716666666}, {"is_reserved": 0, "lat": 38.935298333333336, "rental_uris": {"android": "https://dc.lft.to/lastmile_qr_scan", "ios": "https://dc.lft.to/lastmile_qr_scan"}, "bike_id": "ab9bbd81caecb90ed0ec9d3b8a2a4c22", "fusion_lon": 0.0, "fusion_lat": 0.0, "is_disabled": 0, "name": "ab9bbd81caecb90ed0ec9d3b8a2a4c22", "type": "electric_scooter", "lon": -77.0730215}, {"is_reserved": 0, "lat": 38.9036755, "rental_uris": {"android": "https://dc.lft.to/lastmile_qr_scan", "ios": "https://dc.lft.to/lastmile_qr_scan"}, "bike_id": "4454327c4d5abe2a9b761aadc338411f", "fusion_lon": 0.0, "fusion_lat": 0.0, "is_disabled": 0, "name": "4454327c4d5abe2a9b761aadc338411f", "type": "electric_scooter", "lon": -76.99228166666667}, {"is_reserved": 0, "lat": 38.8005345, "rental_uris": {"android": "https://dc.lft.to/lastmile_qr_scan", "ios": "https://dc.lft.to/lastmile_qr_scan"}, "bike_id": "fa659311e6d3c2d8076740b309c11ee7", "fusion_lon": 0.0, "fusion_lat": 0.0, "is_disabled": 0, "name": "fa659311e6d3c2d8076740b309c11ee7", "type": "electric_bike", "lon": -77.07120033333334}, {"is_reserved": 0, "lat": 38.9039575, "rental_uris": {"android": "https://dc.lft.to/lastmile_qr_scan", "ios": "https://dc.lft.to/lastmile_qr_scan"}, "bike_id": "e1e0731595d9c3331911aa581e3bb63c", "fusion_lon": 0.0, "fusion_lat": 0.0, "is_disabled": 0, "name": "e1e0731595d9c3331911aa581e3bb63c", "type": "electric_scooter", "lon": -76.98945483333333}, {"is_reserved": 0, "lat": 38.91843333333333, "rental_uris": {"android": "https://dc.lft.to/lastmile_qr_scan", "ios": "https://dc.lft.to/lastmile_qr_scan"}, "bike_id": "3feb0502f4bb339edc6d7b2e1b8c4731", "fusion_lon": 0.0, "fusion_lat": 0.0, "is_disabled": 0, "name": "3feb0502f4bb339edc6d7b2e1b8c4731", "type": "electric_scooter", "lon": -77.03205216666667}, {"is_reserved": 0, "lat": 38.901297166666666, "rental_uris": {"android": "https://dc.lft.to/lastmile_qr_scan", "ios": "https://dc.lft.to/lastmile_qr_scan"}, "bike_id": "120fbb776570b11ab1e83d0ff48e7e61", "fusion_lon": 0.0, "fusion_lat": 0.0, "is_disabled": 0, "name": "120fbb776570b11ab1e83d0ff48e7e61", "type": "electric_scooter", "lon": -77.0178335}, {"is_reserved": 0, "lat": 38.908476666666665, "rental_uris": {"android": "https://dc.lft.to/lastmile_qr_scan", "ios": "https://dc.lft.to/lastmile_qr_scan"}, "bike_id": "06d598d4b2b9b7f785abc9314973d7d8", "fusion_lon": 0.0, "fusion_lat": 0.0, "is_disabled": 0, "name": "06d598d4b2b9b7f785abc9314973d7d8", "type": "electric_scooter", "lon": -77.02058933333333}, {"is_reserved": 0, "lat": 38.86648683333333, "rental_uris": {"android": "https://dc.lft.to/lastmile_qr_scan", "ios": "https://dc.lft.to/lastmile_qr_scan"}, "bike_id": "6c24cf0757b341541e2412502f5c43f3", "fusion_lon": 0.0, "fusion_lat": 0.0, "is_disabled": 0, "name": "6c24cf0757b341541e2412502f5c43f3", "type": "electric_scooter", "lon": -76.98882333333333}, {"is_reserved": 0, "lat": 38.921064, "rental_uris": {"android": "https://dc.lft.to/lastmile_qr_scan", "ios": "https://dc.lft.to/lastmile_qr_scan"}, "bike_id": "39e634f9dee59028580537c26d623388", "fusion_lon": 0.0, "fusion_lat": 0.0, "is_disabled": 0, "name": "39e634f9dee59028580537c26d623388", "type": "electric_bike", "lon": -77.06328583333334}, {"is_reserved": 0, "lat": 38.95295683333333, "rental_uris": {"android": "https://dc.lft.to/lastmile_qr_scan", "ios": "https://dc.lft.to/lastmile_qr_scan"}, "bike_id": "abb9e4a10a4c2f0c9dcbfe3b659ac640", "fusion_lon": 0.0, "fusion_lat": 0.0, "is_disabled": 0, "name": "abb9e4a10a4c2f0c9dcbfe3b659ac640", "type": "electric_bike", "lon": -77.02471166666666}, {"is_reserved": 0, "lat": 38.884988666666665, "rental_uris": {"android": "https://dc.lft.to/lastmile_qr_scan", "ios": "https://dc.lft.to/lastmile_qr_scan"}, "bike_id": "62f0d0901903bacd766583b6ee171d9c", "fusion_lon": 0.0, "fusion_lat": 0.0, "is_disabled": 0, "name": "62f0d0901903bacd766583b6ee171d9c", "type": "electric_scooter", "lon": -77.007063}, {"is_reserved": 0, "lat": 38.9195045, "rental_uris": {"android": "https://dc.lft.to/lastmile_qr_scan", "ios": "https://dc.lft.to/lastmile_qr_scan"}, "bike_id": "886b7a2d466f091ae3507c6576b35c73", "fusion_lon": 0.0, "fusion_lat": 0.0, "is_disabled": 0, "name": "886b7a2d466f091ae3507c6576b35c73", "type": "electric_scooter", "lon": -77.025111}, {"is_reserved": 0, "lat": 38.93118333333334, "rental_uris": {"android": "https://dc.lft.to/lastmile_qr_scan", "ios": "https://dc.lft.to/lastmile_qr_scan"}, "bike_id": "9141b144a0aaa821624c9b39d8a44222", "fusion_lon": 0.0, "fusion_lat": 0.0, "is_disabled": 0, "name": "9141b144a0aaa821624c9b39d8a44222", "type": "electric_scooter", "lon": -77.03401666666667}, {"is_reserved": 0, "lat": 38.89910866666666, "rental_uris": {"android": "https://dc.lft.to/lastmile_qr_scan", "ios": "https://dc.lft.to/lastmile_qr_scan"}, "bike_id": "6a3760304bb33b6004471943a6df415a", "fusion_lon": 0.0, "fusion_lat": 0.0, "is_disabled": 0, "name": "6a3760304bb33b6004471943a6df415a", "type": "electric_scooter", "lon": -76.93344966666666}, {"is_reserved": 0, "lat": 38.9229025, "rental_uris": {"android": "https://dc.lft.to/lastmile_qr_scan", "ios": "https://dc.lft.to/lastmile_qr_scan"}, "bike_id": "e275a6eab8161ec35fe66baf667b3c9f", "fusion_lon": 0.0, "fusion_lat": 0.0, "is_disabled": 0, "name": "e275a6eab8161ec35fe66baf667b3c9f", "type": "electric_scooter", "lon": -77.03659566666667}, {"is_reserved": 0, "lat": 38.907202833333336, "rental_uris": {"android": "https://dc.lft.to/lastmile_qr_scan", "ios": "https://dc.lft.to/lastmile_qr_scan"}, "bike_id": "43ac09a24fe6fce986a6cec0be427a75", "fusion_lon": 0.0, "fusion_lat": 0.0, "is_disabled": 0, "name": "43ac09a24fe6fce986a6cec0be427a75", "type": "electric_scooter", "lon": -77.024142}, {"is_reserved": 0, "lat": 38.91805383333333, "rental_uris": {"android": "https://dc.lft.to/lastmile_qr_scan", "ios": "https://dc.lft.to/lastmile_qr_scan"}, "bike_id": "e4dc181eafa8a0af0f4a0e5e7fe5ec19", "fusion_lon": 0.0, "fusion_lat": 0.0, "is_disabled": 0, "name": "e4dc181eafa8a0af0f4a0e5e7fe5ec19", "type": "electric_scooter", "lon": -77.02496233333333}, {"is_reserved": 0, "lat": 38.92482866666667, "rental_uris": {"android": "https://dc.lft.to/lastmile_qr_scan", "ios": "https://dc.lft.to/lastmile_qr_scan"}, "bike_id": "b2591d2af89513f5e9b87708f7525ca7", "fusion_lon": 0.0, "fusion_lat": 0.0, "is_disabled": 0, "name": "b2591d2af89513f5e9b87708f7525ca7", "type": "electric_scooter", "lon": -77.05212666666667}, {"is_reserved": 0, "lat": 38.91918016666666, "rental_uris": {"android": "https://dc.lft.to/lastmile_qr_scan", "ios": "https://dc.lft.to/lastmile_qr_scan"}, "bike_id": "60b3bd03a65ed70a29e14813213b5b65", "fusion_lon": 0.0, "fusion_lat": 0.0, "is_disabled": 0, "name": "60b3bd03a65ed70a29e14813213b5b65", "type": "electric_scooter", "lon": -77.03417866666666}, {"is_reserved": 0, "lat": 38.90792783333333, "rental_uris": {"android": "https://dc.lft.to/lastmile_qr_scan", "ios": "https://dc.lft.to/lastmile_qr_scan"}, "bike_id": "7d5360d2277e0af7f4f33f3f4627714f", "fusion_lon": 0.0, "fusion_lat": 0.0, "is_disabled": 0, "name": "7d5360d2277e0af7f4f33f3f4627714f", "type": "electric_scooter", "lon": -77.043391}, {"is_reserved": 0, "lat": 38.958816666666664, "rental_uris": {"android": "https://dc.lft.to/lastmile_qr_scan", "ios": "https://dc.lft.to/lastmile_qr_scan"}, "bike_id": "4e02036e10b67ad7c4c7aebb6f84001f", "fusion_lon": 0.0, "fusion_lat": 0.0, "is_disabled": 0, "name": "4e02036e10b67ad7c4c7aebb6f84001f", "type": "electric_bike", "lon": -76.9249005}, {"is_reserved": 0, "lat": 38.85299883333333, "rental_uris": {"android": "https://dc.lft.to/lastmile_qr_scan", "ios": "https://dc.lft.to/lastmile_qr_scan"}, "bike_id": "46127bc288c01f1ff6d689b9b67e6113", "fusion_lon": 0.0, "fusion_lat": 0.0, "is_disabled": 0, "name": "46127bc288c01f1ff6d689b9b67e6113", "type": "electric_bike", "lon": -77.13117516666667}, {"is_reserved": 0, "lat": 38.900349, "rental_uris": {"android": "https://dc.lft.to/lastmile_qr_scan", "ios": "https://dc.lft.to/lastmile_qr_scan"}, "bike_id": "7940abc6e56dd9f7008c77ea973a5ba8", "fusion_lon": 0.0, "fusion_lat": 0.0, "is_disabled": 0, "name": "7940abc6e56dd9f7008c77ea973a5ba8", "type": "electric_scooter", "lon": -77.01635833333333}, {"is_reserved": 0, "lat": 38.9105205, "rental_uris": {"android": "https://dc.lft.to/lastmile_qr_scan", "ios": "https://dc.lft.to/lastmile_qr_scan"}, "bike_id": "cf22fce8379416119a9557ebc4217cdb", "fusion_lon": 0.0, "fusion_lat": 0.0, "is_disabled": 0, "name": "cf22fce8379416119a9557ebc4217cdb", "type": "electric_scooter", "lon": -77.01650066666667}, {"is_reserved": 0, "lat": 38.91646983333333, "rental_uris": {"android": "https://dc.lft.to/lastmile_qr_scan", "ios": "https://dc.lft.to/lastmile_qr_scan"}, "bike_id": "f57a79aea2058484431b11136101a920", "fusion_lon": 0.0, "fusion_lat": 0.0, "is_disabled": 0, "name": "f57a79aea2058484431b11136101a920", "type": "electric_scooter", "lon": -77.02277233333334}, {"is_reserved": 0, "lat": 38.885725, "rental_uris": {"android": "https://dc.lft.to/lastmile_qr_scan", "ios": "https://dc.lft.to/lastmile_qr_scan"}, "bike_id": "bb318835b0387ec1382b6042743566f0", "fusion_lon": 0.0, "fusion_lat": 0.0, "is_disabled": 0, "name": "bb318835b0387ec1382b6042743566f0", "type": "electric_bike", "lon": -77.08520833333333}, {"is_reserved": 0, "lat": 38.89837266666667, "rental_uris": {"android": "https://dc.lft.to/lastmile_qr_scan", "ios": "https://dc.lft.to/lastmile_qr_scan"}, "bike_id": "6d049160318dc5f78438c8dbab5d5883", "fusion_lon": 0.0, "fusion_lat": 0.0, "is_disabled": 0, "name": "6d049160318dc5f78438c8dbab5d5883", "type": "electric_scooter", "lon": -77.0200405}, {"is_reserved": 0, "lat": 38.92896566666667, "rental_uris": {"android": "https://dc.lft.to/lastmile_qr_scan", "ios": "https://dc.lft.to/lastmile_qr_scan"}, "bike_id": "c90854ef5b700f8e2c2de8c845cc8e4f", "fusion_lon": 0.0, "fusion_lat": 0.0, "is_disabled": 0, "name": "c90854ef5b700f8e2c2de8c845cc8e4f", "type": "electric_scooter", "lon": -77.01644416666667}, {"is_reserved": 0, "lat": 38.91003416666667, "rental_uris": {"android": "https://dc.lft.to/lastmile_qr_scan", "ios": "https://dc.lft.to/lastmile_qr_scan"}, "bike_id": "735fae05eaf072b044eca463a52256ea", "fusion_lon": 0.0, "fusion_lat": 0.0, "is_disabled": 0, "name": "735fae05eaf072b044eca463a52256ea", "type": "electric_scooter", "lon": -77.04008}, {"is_reserved": 0, "lat": 38.907854666666665, "rental_uris": {"android": "https://dc.lft.to/lastmile_qr_scan", "ios": "https://dc.lft.to/lastmile_qr_scan"}, "bike_id": "1f2ab2c3e7abf92fe71ec27f03dd105e", "fusion_lon": 0.0, "fusion_lat": 0.0, "is_disabled": 0, "name": "1f2ab2c3e7abf92fe71ec27f03dd105e", "type": "electric_scooter", "lon": -77.040007}, {"is_reserved": 0, "lat": 38.90112233333333, "rental_uris": {"android": "https://dc.lft.to/lastmile_qr_scan", "ios": "https://dc.lft.to/lastmile_qr_scan"}, "bike_id": "3a5a533b276d41524bbd3ed4f01f533f", "fusion_lon": 0.0, "fusion_lat": 0.0, "is_disabled": 0, "name": "3a5a533b276d41524bbd3ed4f01f533f", "type": "electric_scooter", "lon": -77.049858}, {"is_reserved": 0, "lat": 38.9236435, "rental_uris": {"android": "https://dc.lft.to/lastmile_qr_scan", "ios": "https://dc.lft.to/lastmile_qr_scan"}, "bike_id": "d98bfce492ad6dcea8fe9062404e1a44", "fusion_lon": 0.0, "fusion_lat": 0.0, "is_disabled": 0, "name": "d98bfce492ad6dcea8fe9062404e1a44", "type": "electric_scooter", "lon": -77.05054733333333}, {"is_reserved": 0, "lat": 38.857989, "rental_uris": {"android": "https://dc.lft.to/lastmile_qr_scan", "ios": "https://dc.lft.to/lastmile_qr_scan"}, "bike_id": "ef16fa814bf6922b0fb02bc1568cccc1", "fusion_lon": 0.0, "fusion_lat": 0.0, "is_disabled": 0, "name": "ef16fa814bf6922b0fb02bc1568cccc1", "type": "electric_scooter", "lon": -76.98722783333334}, {"is_reserved": 0, "lat": 38.92677966666667, "rental_uris": {"android": "https://dc.lft.to/lastmile_qr_scan", "ios": "https://dc.lft.to/lastmile_qr_scan"}, "bike_id": "f4b3a94cc0248dbacb351568981f0d06", "fusion_lon": 0.0, "fusion_lat": 0.0, "is_disabled": 0, "name": "f4b3a94cc0248dbacb351568981f0d06", "type": "electric_scooter", "lon": -77.03034966666667}, {"is_reserved": 0, "lat": 38.9012035, "rental_uris": {"android": "https://dc.lft.to/lastmile_qr_scan", "ios": "https://dc.lft.to/lastmile_qr_scan"}, "bike_id": "776061e7d0b4152c20e429454b9df7bb", "fusion_lon": 0.0, "fusion_lat": 0.0, "is_disabled": 0, "name": "776061e7d0b4152c20e429454b9df7bb", "type": "electric_scooter", "lon": -77.03091983333333}, {"is_reserved": 0, "lat": 38.902591, "rental_uris": {"android": "https://dc.lft.to/lastmile_qr_scan", "ios": "https://dc.lft.to/lastmile_qr_scan"}, "bike_id": "52a774f13c85dba05b51b85c389ad300", "fusion_lon": 0.0, "fusion_lat": 0.0, "is_disabled": 0, "name": "52a774f13c85dba05b51b85c389ad300", "type": "electric_scooter", "lon": -77.05149816666666}, {"is_reserved": 0, "lat": 38.92387516666667, "rental_uris": {"android": "https://dc.lft.to/lastmile_qr_scan", "ios": "https://dc.lft.to/lastmile_qr_scan"}, "bike_id": "141320e2659495d6bcb700808988cd49", "fusion_lon": 0.0, "fusion_lat": 0.0, "is_disabled": 0, "name": "141320e2659495d6bcb700808988cd49", "type": "electric_scooter", "lon": -77.03541933333334}, {"is_reserved": 0, "lat": 38.92656566666667, "rental_uris": {"android": "https://dc.lft.to/lastmile_qr_scan", "ios": "https://dc.lft.to/lastmile_qr_scan"}, "bike_id": "dc0d33b112a58b2d9cc81bdae3c70c04", "fusion_lon": 0.0, "fusion_lat": 0.0, "is_disabled": 0, "name": "dc0d33b112a58b2d9cc81bdae3c70c04", "type": "electric_scooter", "lon": -77.02425116666667}, {"is_reserved": 0, "lat": 38.90672416666666, "rental_uris": {"android": "https://dc.lft.to/lastmile_qr_scan", "ios": "https://dc.lft.to/lastmile_qr_scan"}, "bike_id": "b10bba60b6955e5f1d9fce132f61e410", "fusion_lon": 0.0, "fusion_lat": 0.0, "is_disabled": 0, "name": "b10bba60b6955e5f1d9fce132f61e410", "type": "electric_scooter", "lon": -77.074303}, {"is_reserved": 0, "lat": 38.9170875, "rental_uris": {"android": "https://dc.lft.to/lastmile_qr_scan", "ios": "https://dc.lft.to/lastmile_qr_scan"}, "bike_id": "29c8e6d242353d541333ba28fb90f29f", "fusion_lon": 0.0, "fusion_lat": 0.0, "is_disabled": 0, "name": "29c8e6d242353d541333ba28fb90f29f", "type": "electric_scooter", "lon": -77.029779}, {"is_reserved": 0, "lat": 38.90989233333333, "rental_uris": {"android": "https://dc.lft.to/lastmile_qr_scan", "ios": "https://dc.lft.to/lastmile_qr_scan"}, "bike_id": "61ec9f79d781851a7c5aa805aea718c7", "fusion_lon": 0.0, "fusion_lat": 0.0, "is_disabled": 0, "name": "61ec9f79d781851a7c5aa805aea718c7", "type": "electric_scooter", "lon": -77.0344585}, {"is_reserved": 0, "lat": 38.91840833333333, "rental_uris": {"android": "https://dc.lft.to/lastmile_qr_scan", "ios": "https://dc.lft.to/lastmile_qr_scan"}, "bike_id": "d6ec09fcb010eab034d12c3c262725f8", "fusion_lon": 0.0, "fusion_lat": 0.0, "is_disabled": 0, "name": "d6ec09fcb010eab034d12c3c262725f8", "type": "electric_scooter", "lon": -77.0409445}, {"is_reserved": 0, "lat": 38.9029735, "rental_uris": {"android": "https://dc.lft.to/lastmile_qr_scan", "ios": "https://dc.lft.to/lastmile_qr_scan"}, "bike_id": "985642a2634cb12e17cab4eb45e6bce1", "fusion_lon": 0.0, "fusion_lat": 0.0, "is_disabled": 0, "name": "985642a2634cb12e17cab4eb45e6bce1", "type": "electric_scooter", "lon": -77.041648}, {"is_reserved": 0, "lat": 38.92253183333333, "rental_uris": {"android": "https://dc.lft.to/lastmile_qr_scan", "ios": "https://dc.lft.to/lastmile_qr_scan"}, "bike_id": "fc2d75d24999462cb13c3ddc244cda58", "fusion_lon": 0.0, "fusion_lat": 0.0, "is_disabled": 0, "name": "fc2d75d24999462cb13c3ddc244cda58", "type": "electric_scooter", "lon": -77.03466333333333}, {"is_reserved": 0, "lat": 38.919196666666664, "rental_uris": {"android": "https://dc.lft.to/lastmile_qr_scan", "ios": "https://dc.lft.to/lastmile_qr_scan"}, "bike_id": "007afcc40330eb01dd671a199a439ac5", "fusion_lon": 0.0, "fusion_lat": 0.0, "is_disabled": 0, "name": "007afcc40330eb01dd671a199a439ac5", "type": "electric_scooter", "lon": -77.0705465}, {"is_reserved": 0, "lat": 38.95649216666666, "rental_uris": {"android": "https://dc.lft.to/lastmile_qr_scan", "ios": "https://dc.lft.to/lastmile_qr_scan"}, "bike_id": "6204b141deb5b4a0b623217fac0053b0", "fusion_lon": 0.0, "fusion_lat": 0.0, "is_disabled": 0, "name": "6204b141deb5b4a0b623217fac0053b0", "type": "electric_scooter", "lon": -77.03282216666666}, {"is_reserved": 0, "lat": 38.9277115, "rental_uris": {"android": "https://dc.lft.to/lastmile_qr_scan", "ios": "https://dc.lft.to/lastmile_qr_scan"}, "bike_id": "55faac5792cc30c4308dee475c208a62", "fusion_lon": 0.0, "fusion_lat": 0.0, "is_disabled": 0, "name": "55faac5792cc30c4308dee475c208a62", "type": "electric_scooter", "lon": -77.02625216666667}, {"is_reserved": 0, "lat": 38.8316135, "rental_uris": {"android": "https://dc.lft.to/lastmile_qr_scan", "ios": "https://dc.lft.to/lastmile_qr_scan"}, "bike_id": "93791831d0439dc24d64c59e9ac951aa", "fusion_lon": 0.0, "fusion_lat": 0.0, "is_disabled": 0, "name": "93791831d0439dc24d64c59e9ac951aa", "type": "electric_bike", "lon": -77.11306416666666}, {"is_reserved": 0, "lat": 38.8425645, "rental_uris": {"android": "https://dc.lft.to/lastmile_qr_scan", "ios": "https://dc.lft.to/lastmile_qr_scan"}, "bike_id": "3524636a9f602d1d151ce8b7bdf25772", "fusion_lon": 0.0, "fusion_lat": 0.0, "is_disabled": 0, "name": "3524636a9f602d1d151ce8b7bdf25772", "type": "electric_bike", "lon": -77.05833466666667}, {"is_reserved": 0, "lat": 38.9171295, "rental_uris": {"android": "https://dc.lft.to/lastmile_qr_scan", "ios": "https://dc.lft.to/lastmile_qr_scan"}, "bike_id": "d4e7fc0b2b5e39f044efb28ceb431376", "fusion_lon": 0.0, "fusion_lat": 0.0, "is_disabled": 0, "name": "d4e7fc0b2b5e39f044efb28ceb431376", "type": "electric_scooter", "lon": -77.032471}, {"is_reserved": 0, "lat": 38.91085066666667, "rental_uris": {"android": "https://dc.lft.to/lastmile_qr_scan", "ios": "https://dc.lft.to/lastmile_qr_scan"}, "bike_id": "08817d3b051bf11bc7bcd2fc45a42c5e", "fusion_lon": 0.0, "fusion_lat": 0.0, "is_disabled": 0, "name": "08817d3b051bf11bc7bcd2fc45a42c5e", "type": "electric_scooter", "lon": -77.02219466666666}, {"is_reserved": 0, "lat": 38.90827933333333, "rental_uris": {"android": "https://dc.lft.to/lastmile_qr_scan", "ios": "https://dc.lft.to/lastmile_qr_scan"}, "bike_id": "6f131257578a4687dcaf4b57fee449a1", "fusion_lon": 0.0, "fusion_lat": 0.0, "is_disabled": 0, "name": "6f131257578a4687dcaf4b57fee449a1", "type": "electric_scooter", "lon": -76.9969945}, {"is_reserved": 0, "lat": 38.92171033333333, "rental_uris": {"android": "https://dc.lft.to/lastmile_qr_scan", "ios": "https://dc.lft.to/lastmile_qr_scan"}, "bike_id": "61d15ad4ffd122a6ce73dd1daebb7cac", "fusion_lon": 0.0, "fusion_lat": 0.0, "is_disabled": 0, "name": "61d15ad4ffd122a6ce73dd1daebb7cac", "type": "electric_scooter", "lon": -77.03228683333333}, {"is_reserved": 0, "lat": 38.9058065, "rental_uris": {"android": "https://dc.lft.to/lastmile_qr_scan", "ios": "https://dc.lft.to/lastmile_qr_scan"}, "bike_id": "89143d9345a7392285c214557440c49b", "fusion_lon": 0.0, "fusion_lat": 0.0, "is_disabled": 0, "name": "89143d9345a7392285c214557440c49b", "type": "electric_scooter", "lon": -77.04449333333334}, {"is_reserved": 0, "lat": 38.9127705, "rental_uris": {"android": "https://dc.lft.to/lastmile_qr_scan", "ios": "https://dc.lft.to/lastmile_qr_scan"}, "bike_id": "0313c1c2db3491d47800d483dd17a2ec", "fusion_lon": 0.0, "fusion_lat": 0.0, "is_disabled": 0, "name": "0313c1c2db3491d47800d483dd17a2ec", "type": "electric_scooter", "lon": -77.0089035}, {"is_reserved": 0, "lat": 38.917085, "rental_uris": {"android": "https://dc.lft.to/lastmile_qr_scan", "ios": "https://dc.lft.to/lastmile_qr_scan"}, "bike_id": "046e65e2c210df315f0e2bd3851855ec", "fusion_lon": 0.0, "fusion_lat": 0.0, "is_disabled": 0, "name": "046e65e2c210df315f0e2bd3851855ec", "type": "electric_scooter", "lon": -77.03902283333333}, {"is_reserved": 0, "lat": 38.909970333333334, "rental_uris": {"android": "https://dc.lft.to/lastmile_qr_scan", "ios": "https://dc.lft.to/lastmile_qr_scan"}, "bike_id": "6f72fd5396ce6d0772312d0d51d168a6", "fusion_lon": 0.0, "fusion_lat": 0.0, "is_disabled": 0, "name": "6f72fd5396ce6d0772312d0d51d168a6", "type": "electric_scooter", "lon": -77.03444016666667}, {"is_reserved": 0, "lat": 38.9246425, "rental_uris": {"android": "https://dc.lft.to/lastmile_qr_scan", "ios": "https://dc.lft.to/lastmile_qr_scan"}, "bike_id": "664cb2d9682b7675f61cfb637380dde1", "fusion_lon": 0.0, "fusion_lat": 0.0, "is_disabled": 0, "name": "664cb2d9682b7675f61cfb637380dde1", "type": "electric_bike", "lon": -77.20839083333334}, {"is_reserved": 0, "lat": 38.89220433333333, "rental_uris": {"android": "https://dc.lft.to/lastmile_qr_scan", "ios": "https://dc.lft.to/lastmile_qr_scan"}, "bike_id": "6e776fa00540b1234151ca12c258c65c", "fusion_lon": 0.0, "fusion_lat": 0.0, "is_disabled": 0, "name": "6e776fa00540b1234151ca12c258c65c", "type": "electric_scooter", "lon": -77.02318766666667}, {"is_reserved": 0, "lat": 38.905565, "rental_uris": {"android": "https://dc.lft.to/lastmile_qr_scan", "ios": "https://dc.lft.to/lastmile_qr_scan"}, "bike_id": "e081f0fa9a6a6927aa95f89db8e936de", "fusion_lon": 0.0, "fusion_lat": 0.0, "is_disabled": 0, "name": "e081f0fa9a6a6927aa95f89db8e936de", "type": "electric_scooter", "lon": -77.00581933333333}, {"is_reserved": 0, "lat": 38.9147935, "rental_uris": {"android": "https://dc.lft.to/lastmile_qr_scan", "ios": "https://dc.lft.to/lastmile_qr_scan"}, "bike_id": "d60facd1622ee2330bcb3f379749c3cf", "fusion_lon": 0.0, "fusion_lat": 0.0, "is_disabled": 0, "name": "d60facd1622ee2330bcb3f379749c3cf", "type": "electric_scooter", "lon": -77.03834666666667}, {"is_reserved": 0, "lat": 38.91735516666667, "rental_uris": {"android": "https://dc.lft.to/lastmile_qr_scan", "ios": "https://dc.lft.to/lastmile_qr_scan"}, "bike_id": "8eb8e0f7510a705c47592557a1de56ed", "fusion_lon": 0.0, "fusion_lat": 0.0, "is_disabled": 0, "name": "8eb8e0f7510a705c47592557a1de56ed", "type": "electric_scooter", "lon": -77.03191683333333}, {"is_reserved": 0, "lat": 38.867173333333334, "rental_uris": {"android": "https://dc.lft.to/lastmile_qr_scan", "ios": "https://dc.lft.to/lastmile_qr_scan"}, "bike_id": "90003fb720568fe1411fde3ff23e2062", "fusion_lon": 0.0, "fusion_lat": 0.0, "is_disabled": 0, "name": "90003fb720568fe1411fde3ff23e2062", "type": "electric_scooter", "lon": -76.9872425}, {"is_reserved": 0, "lat": 38.917062666666666, "rental_uris": {"android": "https://dc.lft.to/lastmile_qr_scan", "ios": "https://dc.lft.to/lastmile_qr_scan"}, "bike_id": "31f28ebeddb499a33726e4df9602be74", "fusion_lon": 0.0, "fusion_lat": 0.0, "is_disabled": 0, "name": "31f28ebeddb499a33726e4df9602be74", "type": "electric_scooter", "lon": -77.0266455}, {"is_reserved": 0, "lat": 38.90004833333333, "rental_uris": {"android": "https://dc.lft.to/lastmile_qr_scan", "ios": "https://dc.lft.to/lastmile_qr_scan"}, "bike_id": "58367e8ab3e5523ca39c15d085fb46e3", "fusion_lon": 0.0, "fusion_lat": 0.0, "is_disabled": 0, "name": "58367e8ab3e5523ca39c15d085fb46e3", "type": "electric_scooter", "lon": -77.00952566666666}, {"is_reserved": 0, "lat": 38.91120216666667, "rental_uris": {"android": "https://dc.lft.to/lastmile_qr_scan", "ios": "https://dc.lft.to/lastmile_qr_scan"}, "bike_id": "5769a7fb312f961b59e63e408e4608fd", "fusion_lon": 0.0, "fusion_lat": 0.0, "is_disabled": 0, "name": "5769a7fb312f961b59e63e408e4608fd", "type": "electric_scooter", "lon": -77.0269035}, {"is_reserved": 0, "lat": 38.87285116666666, "rental_uris": {"android": "https://dc.lft.to/lastmile_qr_scan", "ios": "https://dc.lft.to/lastmile_qr_scan"}, "bike_id": "30bbf7c90f19ca215370f6ee5aedac9a", "fusion_lon": 0.0, "fusion_lat": 0.0, "is_disabled": 0, "name": "30bbf7c90f19ca215370f6ee5aedac9a", "type": "electric_scooter", "lon": -77.00982733333333}, {"is_reserved": 0, "lat": 38.900803, "rental_uris": {"android": "https://dc.lft.to/lastmile_qr_scan", "ios": "https://dc.lft.to/lastmile_qr_scan"}, "bike_id": "8522dc5f245b615b93a35a9be38c763d", "fusion_lon": 0.0, "fusion_lat": 0.0, "is_disabled": 0, "name": "8522dc5f245b615b93a35a9be38c763d", "type": "electric_scooter", "lon": -77.02561816666666}, {"is_reserved": 0, "lat": 38.91099466666667, "rental_uris": {"android": "https://dc.lft.to/lastmile_qr_scan", "ios": "https://dc.lft.to/lastmile_qr_scan"}, "bike_id": "913de6f78085093cb1bdb6de637226e6", "fusion_lon": 0.0, "fusion_lat": 0.0, "is_disabled": 0, "name": "913de6f78085093cb1bdb6de637226e6", "type": "electric_scooter", "lon": -77.0280305}, {"is_reserved": 0, "lat": 38.895681333333336, "rental_uris": {"android": "https://dc.lft.to/lastmile_qr_scan", "ios": "https://dc.lft.to/lastmile_qr_scan"}, "bike_id": "53d39af175dc45a43cfb976029ac5b1d", "fusion_lon": 0.0, "fusion_lat": 0.0, "is_disabled": 0, "name": "53d39af175dc45a43cfb976029ac5b1d", "type": "electric_scooter", "lon": -77.026977}, {"is_reserved": 0, "lat": 38.92221383333333, "rental_uris": {"android": "https://dc.lft.to/lastmile_qr_scan", "ios": "https://dc.lft.to/lastmile_qr_scan"}, "bike_id": "08794142fa6e3ad722f398e78e7bf576", "fusion_lon": 0.0, "fusion_lat": 0.0, "is_disabled": 0, "name": "08794142fa6e3ad722f398e78e7bf576", "type": "electric_scooter", "lon": -77.04247816666667}, {"is_reserved": 0, "lat": 38.8651095, "rental_uris": {"android": "https://dc.lft.to/lastmile_qr_scan", "ios": "https://dc.lft.to/lastmile_qr_scan"}, "bike_id": "f52250241c46e0aba40e2b63fb982163", "fusion_lon": 0.0, "fusion_lat": 0.0, "is_disabled": 0, "name": "f52250241c46e0aba40e2b63fb982163", "type": "electric_scooter", "lon": -76.99008316666666}, {"is_reserved": 0, "lat": 38.9481475, "rental_uris": {"android": "https://dc.lft.to/lastmile_qr_scan", "ios": "https://dc.lft.to/lastmile_qr_scan"}, "bike_id": "9fda5ec8e29b270330d19074877f8ef7", "fusion_lon": 0.0, "fusion_lat": 0.0, "is_disabled": 0, "name": "9fda5ec8e29b270330d19074877f8ef7", "type": "electric_scooter", "lon": -76.99914383333333}, {"is_reserved": 0, "lat": 38.91215433333333, "rental_uris": {"android": "https://dc.lft.to/lastmile_qr_scan", "ios": "https://dc.lft.to/lastmile_qr_scan"}, "bike_id": "6806f28cd964ecc28c94bb239cf5a91a", "fusion_lon": 0.0, "fusion_lat": 0.0, "is_disabled": 0, "name": "6806f28cd964ecc28c94bb239cf5a91a", "type": "electric_scooter", "lon": -77.0319745}, {"is_reserved": 0, "lat": 38.92447933333333, "rental_uris": {"android": "https://dc.lft.to/lastmile_qr_scan", "ios": "https://dc.lft.to/lastmile_qr_scan"}, "bike_id": "d09a36c775733fc45bc902f2c17c7efe", "fusion_lon": 0.0, "fusion_lat": 0.0, "is_disabled": 0, "name": "d09a36c775733fc45bc902f2c17c7efe", "type": "electric_scooter", "lon": -77.0420865}, {"is_reserved": 0, "lat": 38.91983466666667, "rental_uris": {"android": "https://dc.lft.to/lastmile_qr_scan", "ios": "https://dc.lft.to/lastmile_qr_scan"}, "bike_id": "44fe2dafe501479f51a84a03672ad7f1", "fusion_lon": 0.0, "fusion_lat": 0.0, "is_disabled": 0, "name": "44fe2dafe501479f51a84a03672ad7f1", "type": "electric_scooter", "lon": -77.032694}, {"is_reserved": 0, "lat": 38.892256833333334, "rental_uris": {"android": "https://dc.lft.to/lastmile_qr_scan", "ios": "https://dc.lft.to/lastmile_qr_scan"}, "bike_id": "a175b0f93248be5f0cd31ce4e0e92d9b", "fusion_lon": 0.0, "fusion_lat": 0.0, "is_disabled": 0, "name": "a175b0f93248be5f0cd31ce4e0e92d9b", "type": "electric_scooter", "lon": -77.04327366666666}, {"is_reserved": 0, "lat": 38.92622766666667, "rental_uris": {"android": "https://dc.lft.to/lastmile_qr_scan", "ios": "https://dc.lft.to/lastmile_qr_scan"}, "bike_id": "e44c27d3ed25a1fc74225c004ebfdd74", "fusion_lon": 0.0, "fusion_lat": 0.0, "is_disabled": 0, "name": "e44c27d3ed25a1fc74225c004ebfdd74", "type": "electric_scooter", "lon": -77.037805}, {"is_reserved": 0, "lat": 38.90265016666667, "rental_uris": {"android": "https://dc.lft.to/lastmile_qr_scan", "ios": "https://dc.lft.to/lastmile_qr_scan"}, "bike_id": "438f7d2aa8610716b1423a77a2390f99", "fusion_lon": 0.0, "fusion_lat": 0.0, "is_disabled": 0, "name": "438f7d2aa8610716b1423a77a2390f99", "type": "electric_scooter", "lon": -77.039425}, {"is_reserved": 0, "lat": 38.918261333333334, "rental_uris": {"android": "https://dc.lft.to/lastmile_qr_scan", "ios": "https://dc.lft.to/lastmile_qr_scan"}, "bike_id": "bf4dd502a10c5b8ee9481362e696bcc0", "fusion_lon": 0.0, "fusion_lat": 0.0, "is_disabled": 0, "name": "bf4dd502a10c5b8ee9481362e696bcc0", "type": "electric_scooter", "lon": -77.03454533333333}, {"is_reserved": 0, "lat": 38.87655083333333, "rental_uris": {"android": "https://dc.lft.to/lastmile_qr_scan", "ios": "https://dc.lft.to/lastmile_qr_scan"}, "bike_id": "bcb8b9f79664e51e9d638f87eff4cb2d", "fusion_lon": 0.0, "fusion_lat": 0.0, "is_disabled": 0, "name": "bcb8b9f79664e51e9d638f87eff4cb2d", "type": "electric_scooter", "lon": -77.00436916666666}, {"is_reserved": 0, "lat": 38.914071666666665, "rental_uris": {"android": "https://dc.lft.to/lastmile_qr_scan", "ios": "https://dc.lft.to/lastmile_qr_scan"}, "bike_id": "bc8656ecc633865a33f2a46f5320751a", "fusion_lon": 0.0, "fusion_lat": 0.0, "is_disabled": 0, "name": "bc8656ecc633865a33f2a46f5320751a", "type": "electric_bike", "lon": -77.03813016666666}, {"is_reserved": 0, "lat": 38.90958, "rental_uris": {"android": "https://dc.lft.to/lastmile_qr_scan", "ios": "https://dc.lft.to/lastmile_qr_scan"}, "bike_id": "131797ce15033274009705e4381ab430", "fusion_lon": 0.0, "fusion_lat": 0.0, "is_disabled": 0, "name": "131797ce15033274009705e4381ab430", "type": "electric_scooter", "lon": -77.03289366666667}, {"is_reserved": 0, "lat": 38.90097733333333, "rental_uris": {"android": "https://dc.lft.to/lastmile_qr_scan", "ios": "https://dc.lft.to/lastmile_qr_scan"}, "bike_id": "fadb0d29c4ab1f8cebd3d3fac0843177", "fusion_lon": 0.0, "fusion_lat": 0.0, "is_disabled": 0, "name": "fadb0d29c4ab1f8cebd3d3fac0843177", "type": "electric_scooter", "lon": -77.01841866666666}, {"is_reserved": 0, "lat": 38.918035, "rental_uris": {"android": "https://dc.lft.to/lastmile_qr_scan", "ios": "https://dc.lft.to/lastmile_qr_scan"}, "bike_id": "e0e0cdbf99ab755c2f149f3d5f66f694", "fusion_lon": 0.0, "fusion_lat": 0.0, "is_disabled": 0, "name": "e0e0cdbf99ab755c2f149f3d5f66f694", "type": "electric_scooter", "lon": -77.0417585}, {"is_reserved": 0, "lat": 38.904409666666666, "rental_uris": {"android": "https://dc.lft.to/lastmile_qr_scan", "ios": "https://dc.lft.to/lastmile_qr_scan"}, "bike_id": "7c305abeff1e09233fd56846eb753381", "fusion_lon": 0.0, "fusion_lat": 0.0, "is_disabled": 0, "name": "7c305abeff1e09233fd56846eb753381", "type": "electric_scooter", "lon": -77.02703216666667}, {"is_reserved": 0, "lat": 38.917685666666664, "rental_uris": {"android": "https://dc.lft.to/lastmile_qr_scan", "ios": "https://dc.lft.to/lastmile_qr_scan"}, "bike_id": "30d7b3d5554c2dfa3b821e62fc0241d8", "fusion_lon": 0.0, "fusion_lat": 0.0, "is_disabled": 0, "name": "30d7b3d5554c2dfa3b821e62fc0241d8", "type": "electric_bike", "lon": -76.9719915}, {"is_reserved": 0, "lat": 38.934036166666665, "rental_uris": {"android": "https://dc.lft.to/lastmile_qr_scan", "ios": "https://dc.lft.to/lastmile_qr_scan"}, "bike_id": "bf949562572ac5db353e83aa0c6e1144", "fusion_lon": 0.0, "fusion_lat": 0.0, "is_disabled": 0, "name": "bf949562572ac5db353e83aa0c6e1144", "type": "electric_scooter", "lon": -77.04125533333334}, {"is_reserved": 0, "lat": 38.934863666666665, "rental_uris": {"android": "https://dc.lft.to/lastmile_qr_scan", "ios": "https://dc.lft.to/lastmile_qr_scan"}, "bike_id": "99f7fd299b378860d8dd42bb313aa493", "fusion_lon": 0.0, "fusion_lat": 0.0, "is_disabled": 0, "name": "99f7fd299b378860d8dd42bb313aa493", "type": "electric_scooter", "lon": -77.07271283333333}, {"is_reserved": 0, "lat": 38.922617833333334, "rental_uris": {"android": "https://dc.lft.to/lastmile_qr_scan", "ios": "https://dc.lft.to/lastmile_qr_scan"}, "bike_id": "c3fbf3a51b9d73304e975fdba912201f", "fusion_lon": 0.0, "fusion_lat": 0.0, "is_disabled": 0, "name": "c3fbf3a51b9d73304e975fdba912201f", "type": "electric_scooter", "lon": -77.04295116666667}, {"is_reserved": 0, "lat": 38.8427995, "rental_uris": {"android": "https://dc.lft.to/lastmile_qr_scan", "ios": "https://dc.lft.to/lastmile_qr_scan"}, "bike_id": "cdcc7303e98f69835904eae56e7e9d2f", "fusion_lon": 0.0, "fusion_lat": 0.0, "is_disabled": 0, "name": "cdcc7303e98f69835904eae56e7e9d2f", "type": "electric_bike", "lon": -77.0451135}, {"is_reserved": 0, "lat": 38.909623333333336, "rental_uris": {"android": "https://dc.lft.to/lastmile_qr_scan", "ios": "https://dc.lft.to/lastmile_qr_scan"}, "bike_id": "9bff922e702f179dd9928e954dd883d2", "fusion_lon": 0.0, "fusion_lat": 0.0, "is_disabled": 0, "name": "9bff922e702f179dd9928e954dd883d2", "type": "electric_scooter", "lon": -77.03822766666667}, {"is_reserved": 0, "lat": 38.8987305, "rental_uris": {"android": "https://dc.lft.to/lastmile_qr_scan", "ios": "https://dc.lft.to/lastmile_qr_scan"}, "bike_id": "f8ec1fa93fdfe4981786b0de5fd46164", "fusion_lon": 0.0, "fusion_lat": 0.0, "is_disabled": 0, "name": "f8ec1fa93fdfe4981786b0de5fd46164", "type": "electric_scooter", "lon": -77.03959516666667}, {"is_reserved": 0, "lat": 38.879395833333334, "rental_uris": {"android": "https://dc.lft.to/lastmile_qr_scan", "ios": "https://dc.lft.to/lastmile_qr_scan"}, "bike_id": "08f9351c7b74671a059223385319cd54", "fusion_lon": 0.0, "fusion_lat": 0.0, "is_disabled": 0, "name": "08f9351c7b74671a059223385319cd54", "type": "electric_bike", "lon": -77.02365833333333}, {"is_reserved": 0, "lat": 38.9609565, "rental_uris": {"android": "https://dc.lft.to/lastmile_qr_scan", "ios": "https://dc.lft.to/lastmile_qr_scan"}, "bike_id": "88a60a1e2a430531c2c069c2ec8caddd", "fusion_lon": 0.0, "fusion_lat": 0.0, "is_disabled": 0, "name": "88a60a1e2a430531c2c069c2ec8caddd", "type": "electric_scooter", "lon": -77.08284483333334}, {"is_reserved": 0, "lat": 38.89995316666667, "rental_uris": {"android": "https://dc.lft.to/lastmile_qr_scan", "ios": "https://dc.lft.to/lastmile_qr_scan"}, "bike_id": "3da744205ea67f27894aad1275d834c0", "fusion_lon": 0.0, "fusion_lat": 0.0, "is_disabled": 0, "name": "3da744205ea67f27894aad1275d834c0", "type": "electric_scooter", "lon": -76.99859133333334}, {"is_reserved": 0, "lat": 38.9033475, "rental_uris": {"android": "https://dc.lft.to/lastmile_qr_scan", "ios": "https://dc.lft.to/lastmile_qr_scan"}, "bike_id": "ef3b8fbb9ceaaeac4ac8bc601afb3943", "fusion_lon": 0.0, "fusion_lat": 0.0, "is_disabled": 0, "name": "ef3b8fbb9ceaaeac4ac8bc601afb3943", "type": "electric_scooter", "lon": -77.033144}, {"is_reserved": 0, "lat": 38.9021705, "rental_uris": {"android": "https://dc.lft.to/lastmile_qr_scan", "ios": "https://dc.lft.to/lastmile_qr_scan"}, "bike_id": "ed7b809cb0d8edb3a25dc3002baac376", "fusion_lon": 0.0, "fusion_lat": 0.0, "is_disabled": 0, "name": "ed7b809cb0d8edb3a25dc3002baac376", "type": "electric_scooter", "lon": -77.0487255}, {"is_reserved": 0, "lat": 38.92590783333333, "rental_uris": {"android": "https://dc.lft.to/lastmile_qr_scan", "ios": "https://dc.lft.to/lastmile_qr_scan"}, "bike_id": "f1e4c72599890efd768109d415dc91fd", "fusion_lon": 0.0, "fusion_lat": 0.0, "is_disabled": 0, "name": "f1e4c72599890efd768109d415dc91fd", "type": "electric_scooter", "lon": -77.02139883333334}, {"is_reserved": 0, "lat": 38.8801695, "rental_uris": {"android": "https://dc.lft.to/lastmile_qr_scan", "ios": "https://dc.lft.to/lastmile_qr_scan"}, "bike_id": "02145c53f826e172d8a5f34cf0e32675", "fusion_lon": 0.0, "fusion_lat": 0.0, "is_disabled": 0, "name": "02145c53f826e172d8a5f34cf0e32675", "type": "electric_scooter", "lon": -76.960134}, {"is_reserved": 0, "lat": 38.92363, "rental_uris": {"android": "https://dc.lft.to/lastmile_qr_scan", "ios": "https://dc.lft.to/lastmile_qr_scan"}, "bike_id": "afe30b0a70349a2b702256bde417f28f", "fusion_lon": 0.0, "fusion_lat": 0.0, "is_disabled": 0, "name": "afe30b0a70349a2b702256bde417f28f", "type": "electric_scooter", "lon": -77.051318}, {"is_reserved": 0, "lat": 38.93861916666667, "rental_uris": {"android": "https://dc.lft.to/lastmile_qr_scan", "ios": "https://dc.lft.to/lastmile_qr_scan"}, "bike_id": "3fa15dc7b66c7a2b1bb022541ac682e9", "fusion_lon": 0.0, "fusion_lat": 0.0, "is_disabled": 0, "name": "3fa15dc7b66c7a2b1bb022541ac682e9", "type": "electric_scooter", "lon": -77.03082533333334}, {"is_reserved": 0, "lat": 38.866517, "rental_uris": {"android": "https://dc.lft.to/lastmile_qr_scan", "ios": "https://dc.lft.to/lastmile_qr_scan"}, "bike_id": "532a801070718efb041bc3c468861816", "fusion_lon": 0.0, "fusion_lat": 0.0, "is_disabled": 0, "name": "532a801070718efb041bc3c468861816", "type": "electric_scooter", "lon": -76.98885633333333}, {"is_reserved": 0, "lat": 38.9112015, "rental_uris": {"android": "https://dc.lft.to/lastmile_qr_scan", "ios": "https://dc.lft.to/lastmile_qr_scan"}, "bike_id": "0a976f8c329d15feb9ffe5c100ee54eb", "fusion_lon": 0.0, "fusion_lat": 0.0, "is_disabled": 0, "name": "0a976f8c329d15feb9ffe5c100ee54eb", "type": "electric_scooter", "lon": -77.02691483333334}, {"is_reserved": 0, "lat": 38.89573383333333, "rental_uris": {"android": "https://dc.lft.to/lastmile_qr_scan", "ios": "https://dc.lft.to/lastmile_qr_scan"}, "bike_id": "521dc89c23f4c7c9f0fc7a1d7c2b7534", "fusion_lon": 0.0, "fusion_lat": 0.0, "is_disabled": 0, "name": "521dc89c23f4c7c9f0fc7a1d7c2b7534", "type": "electric_scooter", "lon": -77.02824433333333}, {"is_reserved": 0, "lat": 38.92198783333333, "rental_uris": {"android": "https://dc.lft.to/lastmile_qr_scan", "ios": "https://dc.lft.to/lastmile_qr_scan"}, "bike_id": "b6a789c3182f11dd4d21b73075392d7f", "fusion_lon": 0.0, "fusion_lat": 0.0, "is_disabled": 0, "name": "b6a789c3182f11dd4d21b73075392d7f", "type": "electric_scooter", "lon": -77.04236483333334}, {"is_reserved": 0, "lat": 38.92543966666667, "rental_uris": {"android": "https://dc.lft.to/lastmile_qr_scan", "ios": "https://dc.lft.to/lastmile_qr_scan"}, "bike_id": "bb38ba37baafd65e972853e6219a1ea7", "fusion_lon": 0.0, "fusion_lat": 0.0, "is_disabled": 0, "name": "bb38ba37baafd65e972853e6219a1ea7", "type": "electric_scooter", "lon": -77.052686}, {"is_reserved": 0, "lat": 38.90240283333333, "rental_uris": {"android": "https://dc.lft.to/lastmile_qr_scan", "ios": "https://dc.lft.to/lastmile_qr_scan"}, "bike_id": "5049a5a1b15163f7056be6181c6ea445", "fusion_lon": 0.0, "fusion_lat": 0.0, "is_disabled": 0, "name": "5049a5a1b15163f7056be6181c6ea445", "type": "electric_scooter", "lon": -77.06030383333334}, {"is_reserved": 0, "lat": 38.876467833333336, "rental_uris": {"android": "https://dc.lft.to/lastmile_qr_scan", "ios": "https://dc.lft.to/lastmile_qr_scan"}, "bike_id": "9d91eb8f845f60c5478e0975dfa91850", "fusion_lon": 0.0, "fusion_lat": 0.0, "is_disabled": 0, "name": "9d91eb8f845f60c5478e0975dfa91850", "type": "electric_scooter", "lon": -77.0042835}, {"is_reserved": 0, "lat": 38.918021, "rental_uris": {"android": "https://dc.lft.to/lastmile_qr_scan", "ios": "https://dc.lft.to/lastmile_qr_scan"}, "bike_id": "ce87f103cd7d0ec2006991e20e793f35", "fusion_lon": 0.0, "fusion_lat": 0.0, "is_disabled": 0, "name": "ce87f103cd7d0ec2006991e20e793f35", "type": "electric_scooter", "lon": -77.03171666666667}, {"is_reserved": 0, "lat": 38.9204405, "rental_uris": {"android": "https://dc.lft.to/lastmile_qr_scan", "ios": "https://dc.lft.to/lastmile_qr_scan"}, "bike_id": "013cc278db85c38b95aa3848ddcb26cf", "fusion_lon": 0.0, "fusion_lat": 0.0, "is_disabled": 0, "name": "013cc278db85c38b95aa3848ddcb26cf", "type": "electric_scooter", "lon": -77.03394766666666}, {"is_reserved": 0, "lat": 38.91396683333333, "rental_uris": {"android": "https://dc.lft.to/lastmile_qr_scan", "ios": "https://dc.lft.to/lastmile_qr_scan"}, "bike_id": "51848ab3a94dcb1eb760213405336764", "fusion_lon": 0.0, "fusion_lat": 0.0, "is_disabled": 0, "name": "51848ab3a94dcb1eb760213405336764", "type": "electric_scooter", "lon": -77.014081}, {"is_reserved": 0, "lat": 38.92315333333333, "rental_uris": {"android": "https://dc.lft.to/lastmile_qr_scan", "ios": "https://dc.lft.to/lastmile_qr_scan"}, "bike_id": "e2d33fb2fe10010e84f600541b4d74e0", "fusion_lon": 0.0, "fusion_lat": 0.0, "is_disabled": 0, "name": "e2d33fb2fe10010e84f600541b4d74e0", "type": "electric_scooter", "lon": -77.03655383333333}, {"is_reserved": 0, "lat": 38.931815666666665, "rental_uris": {"android": "https://dc.lft.to/lastmile_qr_scan", "ios": "https://dc.lft.to/lastmile_qr_scan"}, "bike_id": "4127033812a70ddf8ed1d3af6eca39fc", "fusion_lon": 0.0, "fusion_lat": 0.0, "is_disabled": 0, "name": "4127033812a70ddf8ed1d3af6eca39fc", "type": "electric_scooter", "lon": -77.02829466666667}, {"is_reserved": 0, "lat": 38.922840666666666, "rental_uris": {"android": "https://dc.lft.to/lastmile_qr_scan", "ios": "https://dc.lft.to/lastmile_qr_scan"}, "bike_id": "e42725bccddfd21656eb45b32bedf058", "fusion_lon": 0.0, "fusion_lat": 0.0, "is_disabled": 0, "name": "e42725bccddfd21656eb45b32bedf058", "type": "electric_scooter", "lon": -77.03666433333333}, {"is_reserved": 0, "lat": 38.91815283333333, "rental_uris": {"android": "https://dc.lft.to/lastmile_qr_scan", "ios": "https://dc.lft.to/lastmile_qr_scan"}, "bike_id": "a5447e474e1e29d1f21de3dd79aa45f3", "fusion_lon": 0.0, "fusion_lat": 0.0, "is_disabled": 0, "name": "a5447e474e1e29d1f21de3dd79aa45f3", "type": "electric_scooter", "lon": -77.041747}, {"is_reserved": 0, "lat": 38.91928266666667, "rental_uris": {"android": "https://dc.lft.to/lastmile_qr_scan", "ios": "https://dc.lft.to/lastmile_qr_scan"}, "bike_id": "0448f2d836af881aff70a6c5983b5588", "fusion_lon": 0.0, "fusion_lat": 0.0, "is_disabled": 0, "name": "0448f2d836af881aff70a6c5983b5588", "type": "electric_scooter", "lon": -77.03135366666666}, {"is_reserved": 0, "lat": 38.892195, "rental_uris": {"android": "https://dc.lft.to/lastmile_qr_scan", "ios": "https://dc.lft.to/lastmile_qr_scan"}, "bike_id": "b25b5453bed36c6d2164875db35b0baa", "fusion_lon": 0.0, "fusion_lat": 0.0, "is_disabled": 0, "name": "b25b5453bed36c6d2164875db35b0baa", "type": "electric_scooter", "lon": -77.0432475}, {"is_reserved": 0, "lat": 38.920245, "rental_uris": {"android": "https://dc.lft.to/lastmile_qr_scan", "ios": "https://dc.lft.to/lastmile_qr_scan"}, "bike_id": "8484cbd35ba1b4656fea0d193fcf6133", "fusion_lon": 0.0, "fusion_lat": 0.0, "is_disabled": 0, "name": "8484cbd35ba1b4656fea0d193fcf6133", "type": "electric_scooter", "lon": -77.01117316666667}, {"is_reserved": 0, "lat": 38.9179735, "rental_uris": {"android": "https://dc.lft.to/lastmile_qr_scan", "ios": "https://dc.lft.to/lastmile_qr_scan"}, "bike_id": "fbf7ca85494ecbc478434928e3b16396", "fusion_lon": 0.0, "fusion_lat": 0.0, "is_disabled": 0, "name": "fbf7ca85494ecbc478434928e3b16396", "type": "electric_bike", "lon": -77.22333433333333}, {"is_reserved": 0, "lat": 38.88420966666666, "rental_uris": {"android": "https://dc.lft.to/lastmile_qr_scan", "ios": "https://dc.lft.to/lastmile_qr_scan"}, "bike_id": "ae6db556446ca1415fa3139e00caf6b2", "fusion_lon": 0.0, "fusion_lat": 0.0, "is_disabled": 0, "name": "ae6db556446ca1415fa3139e00caf6b2", "type": "electric_scooter", "lon": -76.942043}, {"is_reserved": 0, "lat": 38.90200983333333, "rental_uris": {"android": "https://dc.lft.to/lastmile_qr_scan", "ios": "https://dc.lft.to/lastmile_qr_scan"}, "bike_id": "725c43f6719050aaa822d0d7ab096f6a", "fusion_lon": 0.0, "fusion_lat": 0.0, "is_disabled": 0, "name": "725c43f6719050aaa822d0d7ab096f6a", "type": "electric_scooter", "lon": -77.00573983333334}, {"is_reserved": 0, "lat": 38.91119116666667, "rental_uris": {"android": "https://dc.lft.to/lastmile_qr_scan", "ios": "https://dc.lft.to/lastmile_qr_scan"}, "bike_id": "67ad6a6d90348af39d01884e3ff178c5", "fusion_lon": 0.0, "fusion_lat": 0.0, "is_disabled": 0, "name": "67ad6a6d90348af39d01884e3ff178c5", "type": "electric_scooter", "lon": -77.02691633333333}, {"is_reserved": 0, "lat": 38.907314, "rental_uris": {"android": "https://dc.lft.to/lastmile_qr_scan", "ios": "https://dc.lft.to/lastmile_qr_scan"}, "bike_id": "9835dfc069b1242299376b8e94c8c89c", "fusion_lon": 0.0, "fusion_lat": 0.0, "is_disabled": 0, "name": "9835dfc069b1242299376b8e94c8c89c", "type": "electric_scooter", "lon": -77.02807033333333}, {"is_reserved": 0, "lat": 38.917095833333335, "rental_uris": {"android": "https://dc.lft.to/lastmile_qr_scan", "ios": "https://dc.lft.to/lastmile_qr_scan"}, "bike_id": "77baef68331a4e55885512e2d73945af", "fusion_lon": 0.0, "fusion_lat": 0.0, "is_disabled": 0, "name": "77baef68331a4e55885512e2d73945af", "type": "electric_scooter", "lon": -77.0412465}, {"is_reserved": 0, "lat": 38.8625575, "rental_uris": {"android": "https://dc.lft.to/lastmile_qr_scan", "ios": "https://dc.lft.to/lastmile_qr_scan"}, "bike_id": "d2e6b07ce274e05deee4af4336bbce6f", "fusion_lon": 0.0, "fusion_lat": 0.0, "is_disabled": 0, "name": "d2e6b07ce274e05deee4af4336bbce6f", "type": "electric_scooter", "lon": -76.99515333333333}, {"is_reserved": 0, "lat": 38.9235975, "rental_uris": {"android": "https://dc.lft.to/lastmile_qr_scan", "ios": "https://dc.lft.to/lastmile_qr_scan"}, "bike_id": "a19b41c0cca55a75909f0009f2f6b3c0", "fusion_lon": 0.0, "fusion_lat": 0.0, "is_disabled": 0, "name": "a19b41c0cca55a75909f0009f2f6b3c0", "type": "electric_scooter", "lon": -77.0513345}, {"is_reserved": 0, "lat": 38.900061, "rental_uris": {"android": "https://dc.lft.to/lastmile_qr_scan", "ios": "https://dc.lft.to/lastmile_qr_scan"}, "bike_id": "437410e6f5b741a2c170411e1eb38bdc", "fusion_lon": 0.0, "fusion_lat": 0.0, "is_disabled": 0, "name": "437410e6f5b741a2c170411e1eb38bdc", "type": "electric_scooter", "lon": -76.92234616666667}, {"is_reserved": 0, "lat": 38.8935075, "rental_uris": {"android": "https://dc.lft.to/lastmile_qr_scan", "ios": "https://dc.lft.to/lastmile_qr_scan"}, "bike_id": "b465fe259c07147812e5557bbcbef965", "fusion_lon": 0.0, "fusion_lat": 0.0, "is_disabled": 0, "name": "b465fe259c07147812e5557bbcbef965", "type": "electric_bike", "lon": -77.18740083333333}, {"is_reserved": 0, "lat": 38.89226033333333, "rental_uris": {"android": "https://dc.lft.to/lastmile_qr_scan", "ios": "https://dc.lft.to/lastmile_qr_scan"}, "bike_id": "3ffc9c89dc0f6a663820e7bd8720482e", "fusion_lon": 0.0, "fusion_lat": 0.0, "is_disabled": 0, "name": "3ffc9c89dc0f6a663820e7bd8720482e", "type": "electric_scooter", "lon": -77.0283385}, {"is_reserved": 0, "lat": 38.909767333333335, "rental_uris": {"android": "https://dc.lft.to/lastmile_qr_scan", "ios": "https://dc.lft.to/lastmile_qr_scan"}, "bike_id": "1549ac6d8cfbb2b942cf4e82af662fe8", "fusion_lon": 0.0, "fusion_lat": 0.0, "is_disabled": 0, "name": "1549ac6d8cfbb2b942cf4e82af662fe8", "type": "electric_scooter", "lon": -77.02175483333333}, {"is_reserved": 0, "lat": 38.90018883333333, "rental_uris": {"android": "https://dc.lft.to/lastmile_qr_scan", "ios": "https://dc.lft.to/lastmile_qr_scan"}, "bike_id": "33436d64bdc93018f32f04bfeca47d25", "fusion_lon": 0.0, "fusion_lat": 0.0, "is_disabled": 0, "name": "33436d64bdc93018f32f04bfeca47d25", "type": "electric_scooter", "lon": -77.01190516666666}, {"is_reserved": 0, "lat": 38.91689433333333, "rental_uris": {"android": "https://dc.lft.to/lastmile_qr_scan", "ios": "https://dc.lft.to/lastmile_qr_scan"}, "bike_id": "157c2b236b4ec1a7f6579f92acfbd93d", "fusion_lon": 0.0, "fusion_lat": 0.0, "is_disabled": 0, "name": "157c2b236b4ec1a7f6579f92acfbd93d", "type": "electric_scooter", "lon": -77.0377}, {"is_reserved": 0, "lat": 38.90511766666667, "rental_uris": {"android": "https://dc.lft.to/lastmile_qr_scan", "ios": "https://dc.lft.to/lastmile_qr_scan"}, "bike_id": "c871b11a6f93b84113870fee5b2e069f", "fusion_lon": 0.0, "fusion_lat": 0.0, "is_disabled": 0, "name": "c871b11a6f93b84113870fee5b2e069f", "type": "electric_scooter", "lon": -77.0419125}, {"is_reserved": 0, "lat": 38.91698366666667, "rental_uris": {"android": "https://dc.lft.to/lastmile_qr_scan", "ios": "https://dc.lft.to/lastmile_qr_scan"}, "bike_id": "f9fb6f121c141f810982629356517b44", "fusion_lon": 0.0, "fusion_lat": 0.0, "is_disabled": 0, "name": "f9fb6f121c141f810982629356517b44", "type": "electric_scooter", "lon": -77.02301066666666}, {"is_reserved": 0, "lat": 38.89827366666667, "rental_uris": {"android": "https://dc.lft.to/lastmile_qr_scan", "ios": "https://dc.lft.to/lastmile_qr_scan"}, "bike_id": "fed41c78549355459d832ed5bf07b65e", "fusion_lon": 0.0, "fusion_lat": 0.0, "is_disabled": 0, "name": "fed41c78549355459d832ed5bf07b65e", "type": "electric_scooter", "lon": -76.98775533333334}, {"is_reserved": 0, "lat": 38.931889, "rental_uris": {"android": "https://dc.lft.to/lastmile_qr_scan", "ios": "https://dc.lft.to/lastmile_qr_scan"}, "bike_id": "5fb7dc081de9411fab97bbd7ad067c3e", "fusion_lon": 0.0, "fusion_lat": 0.0, "is_disabled": 0, "name": "5fb7dc081de9411fab97bbd7ad067c3e", "type": "electric_scooter", "lon": -77.02830066666667}, {"is_reserved": 0, "lat": 38.90350433333333, "rental_uris": {"android": "https://dc.lft.to/lastmile_qr_scan", "ios": "https://dc.lft.to/lastmile_qr_scan"}, "bike_id": "8fb8857a440bc9c7b13ca26bfd32ad1c", "fusion_lon": 0.0, "fusion_lat": 0.0, "is_disabled": 0, "name": "8fb8857a440bc9c7b13ca26bfd32ad1c", "type": "electric_scooter", "lon": -77.04516}, {"is_reserved": 0, "lat": 38.91749466666667, "rental_uris": {"android": "https://dc.lft.to/lastmile_qr_scan", "ios": "https://dc.lft.to/lastmile_qr_scan"}, "bike_id": "3328c6485ae1303845bc35accfff150d", "fusion_lon": 0.0, "fusion_lat": 0.0, "is_disabled": 0, "name": "3328c6485ae1303845bc35accfff150d", "type": "electric_scooter", "lon": -77.02392683333333}, {"is_reserved": 0, "lat": 38.90729816666666, "rental_uris": {"android": "https://dc.lft.to/lastmile_qr_scan", "ios": "https://dc.lft.to/lastmile_qr_scan"}, "bike_id": "ea0c813a3183f763808c4aadbb09cddd", "fusion_lon": 0.0, "fusion_lat": 0.0, "is_disabled": 0, "name": "ea0c813a3183f763808c4aadbb09cddd", "type": "electric_scooter", "lon": -77.03467033333334}, {"is_reserved": 0, "lat": 38.903645, "rental_uris": {"android": "https://dc.lft.to/lastmile_qr_scan", "ios": "https://dc.lft.to/lastmile_qr_scan"}, "bike_id": "f4ef4eaa70ad2974ad9c91b2d0306ba2", "fusion_lon": 0.0, "fusion_lat": 0.0, "is_disabled": 0, "name": "f4ef4eaa70ad2974ad9c91b2d0306ba2", "type": "electric_scooter", "lon": -77.04300383333333}, {"is_reserved": 0, "lat": 38.893291833333336, "rental_uris": {"android": "https://dc.lft.to/lastmile_qr_scan", "ios": "https://dc.lft.to/lastmile_qr_scan"}, "bike_id": "70568b66a7f14f22496200d7ccb6ea8b", "fusion_lon": 0.0, "fusion_lat": 0.0, "is_disabled": 0, "name": "70568b66a7f14f22496200d7ccb6ea8b", "type": "electric_scooter", "lon": -77.0120995}, {"is_reserved": 0, "lat": 38.923192, "rental_uris": {"android": "https://dc.lft.to/lastmile_qr_scan", "ios": "https://dc.lft.to/lastmile_qr_scan"}, "bike_id": "e2e2e70c4d66cfdd85c75a69c0e760b7", "fusion_lon": 0.0, "fusion_lat": 0.0, "is_disabled": 0, "name": "e2e2e70c4d66cfdd85c75a69c0e760b7", "type": "electric_scooter", "lon": -77.03843666666667}, {"is_reserved": 0, "lat": 38.903471833333334, "rental_uris": {"android": "https://dc.lft.to/lastmile_qr_scan", "ios": "https://dc.lft.to/lastmile_qr_scan"}, "bike_id": "3bb02432c067855a7c6242bc766830c7", "fusion_lon": 0.0, "fusion_lat": 0.0, "is_disabled": 0, "name": "3bb02432c067855a7c6242bc766830c7", "type": "electric_scooter", "lon": -77.044774}, {"is_reserved": 0, "lat": 38.933524, "rental_uris": {"android": "https://dc.lft.to/lastmile_qr_scan", "ios": "https://dc.lft.to/lastmile_qr_scan"}, "bike_id": "155660c3690697178efb7bd72e49eedb", "fusion_lon": 0.0, "fusion_lat": 0.0, "is_disabled": 0, "name": "155660c3690697178efb7bd72e49eedb", "type": "electric_bike", "lon": -77.09959116666667}, {"is_reserved": 0, "lat": 38.926478333333336, "rental_uris": {"android": "https://dc.lft.to/lastmile_qr_scan", "ios": "https://dc.lft.to/lastmile_qr_scan"}, "bike_id": "7d729eef7098437be2f1dc75e3b2c02c", "fusion_lon": 0.0, "fusion_lat": 0.0, "is_disabled": 0, "name": "7d729eef7098437be2f1dc75e3b2c02c", "type": "electric_scooter", "lon": -77.0414305}, {"is_reserved": 0, "lat": 38.922014833333336, "rental_uris": {"android": "https://dc.lft.to/lastmile_qr_scan", "ios": "https://dc.lft.to/lastmile_qr_scan"}, "bike_id": "534618689f946f02882fbfc0b56690ee", "fusion_lon": 0.0, "fusion_lat": 0.0, "is_disabled": 0, "name": "534618689f946f02882fbfc0b56690ee", "type": "electric_scooter", "lon": -77.04254716666667}, {"is_reserved": 0, "lat": 38.92360766666667, "rental_uris": {"android": "https://dc.lft.to/lastmile_qr_scan", "ios": "https://dc.lft.to/lastmile_qr_scan"}, "bike_id": "8dd332202ddec2ee22ba509f9a044b18", "fusion_lon": 0.0, "fusion_lat": 0.0, "is_disabled": 0, "name": "8dd332202ddec2ee22ba509f9a044b18", "type": "electric_scooter", "lon": -77.05135316666667}, {"is_reserved": 0, "lat": 38.919262333333336, "rental_uris": {"android": "https://dc.lft.to/lastmile_qr_scan", "ios": "https://dc.lft.to/lastmile_qr_scan"}, "bike_id": "8f5d7fcc421a4851dbf66239cd5da026", "fusion_lon": 0.0, "fusion_lat": 0.0, "is_disabled": 0, "name": "8f5d7fcc421a4851dbf66239cd5da026", "type": "electric_scooter", "lon": -77.0319305}, {"is_reserved": 0, "lat": 38.87106416666666, "rental_uris": {"android": "https://dc.lft.to/lastmile_qr_scan", "ios": "https://dc.lft.to/lastmile_qr_scan"}, "bike_id": "965245d9d9967543d13576ccf9ee46b4", "fusion_lon": 0.0, "fusion_lat": 0.0, "is_disabled": 0, "name": "965245d9d9967543d13576ccf9ee46b4", "type": "electric_bike", "lon": -76.923293}, {"is_reserved": 0, "lat": 38.91842416666667, "rental_uris": {"android": "https://dc.lft.to/lastmile_qr_scan", "ios": "https://dc.lft.to/lastmile_qr_scan"}, "bike_id": "332b4f02f27e3057a0a389a3d02b7139", "fusion_lon": 0.0, "fusion_lat": 0.0, "is_disabled": 0, "name": "332b4f02f27e3057a0a389a3d02b7139", "type": "electric_scooter", "lon": -77.034403}, {"is_reserved": 0, "lat": 38.936096166666665, "rental_uris": {"android": "https://dc.lft.to/lastmile_qr_scan", "ios": "https://dc.lft.to/lastmile_qr_scan"}, "bike_id": "559c35d46ef10c514546b432aab88022", "fusion_lon": 0.0, "fusion_lat": 0.0, "is_disabled": 0, "name": "559c35d46ef10c514546b432aab88022", "type": "electric_scooter", "lon": -77.058562}, {"is_reserved": 0, "lat": 38.9589765, "rental_uris": {"android": "https://dc.lft.to/lastmile_qr_scan", "ios": "https://dc.lft.to/lastmile_qr_scan"}, "bike_id": "ab99bffc54997cbb5956f69bc998999d", "fusion_lon": 0.0, "fusion_lat": 0.0, "is_disabled": 0, "name": "ab99bffc54997cbb5956f69bc998999d", "type": "electric_bike", "lon": -76.92488883333333}, {"is_reserved": 0, "lat": 38.925306666666664, "rental_uris": {"android": "https://dc.lft.to/lastmile_qr_scan", "ios": "https://dc.lft.to/lastmile_qr_scan"}, "bike_id": "7130e38bb5bfd49d76d36680c1634b8b", "fusion_lon": 0.0, "fusion_lat": 0.0, "is_disabled": 0, "name": "7130e38bb5bfd49d76d36680c1634b8b", "type": "electric_scooter", "lon": -77.0263575}, {"is_reserved": 0, "lat": 38.876285833333334, "rental_uris": {"android": "https://dc.lft.to/lastmile_qr_scan", "ios": "https://dc.lft.to/lastmile_qr_scan"}, "bike_id": "cdca1673552b02f9711a0fdc7d73c9b1", "fusion_lon": 0.0, "fusion_lat": 0.0, "is_disabled": 0, "name": "cdca1673552b02f9711a0fdc7d73c9b1", "type": "electric_scooter", "lon": -76.965289}, {"is_reserved": 0, "lat": 38.88365783333333, "rental_uris": {"android": "https://dc.lft.to/lastmile_qr_scan", "ios": "https://dc.lft.to/lastmile_qr_scan"}, "bike_id": "bb4538bc1e4aee6dac0c570a273f49ec", "fusion_lon": 0.0, "fusion_lat": 0.0, "is_disabled": 0, "name": "bb4538bc1e4aee6dac0c570a273f49ec", "type": "electric_scooter", "lon": -76.995049}, {"is_reserved": 0, "lat": 38.934101, "rental_uris": {"android": "https://dc.lft.to/lastmile_qr_scan", "ios": "https://dc.lft.to/lastmile_qr_scan"}, "bike_id": "6185de0a3156b4a3cf4bd5144b670f80", "fusion_lon": 0.0, "fusion_lat": 0.0, "is_disabled": 0, "name": "6185de0a3156b4a3cf4bd5144b670f80", "type": "electric_scooter", "lon": -77.032908}, {"is_reserved": 0, "lat": 38.883612166666666, "rental_uris": {"android": "https://dc.lft.to/lastmile_qr_scan", "ios": "https://dc.lft.to/lastmile_qr_scan"}, "bike_id": "6c86ef86d358e8aaf828e5f322cdd644", "fusion_lon": 0.0, "fusion_lat": 0.0, "is_disabled": 0, "name": "6c86ef86d358e8aaf828e5f322cdd644", "type": "electric_scooter", "lon": -76.94154366666666}, {"is_reserved": 0, "lat": 38.920651166666666, "rental_uris": {"android": "https://dc.lft.to/lastmile_qr_scan", "ios": "https://dc.lft.to/lastmile_qr_scan"}, "bike_id": "070b9c3bbf9b74766f7a2b85088b56e0", "fusion_lon": 0.0, "fusion_lat": 0.0, "is_disabled": 0, "name": "070b9c3bbf9b74766f7a2b85088b56e0", "type": "electric_scooter", "lon": -77.07886183333333}, {"is_reserved": 0, "lat": 38.91051, "rental_uris": {"android": "https://dc.lft.to/lastmile_qr_scan", "ios": "https://dc.lft.to/lastmile_qr_scan"}, "bike_id": "a58e9100e20433ef49df7599d586a210", "fusion_lon": 0.0, "fusion_lat": 0.0, "is_disabled": 0, "name": "a58e9100e20433ef49df7599d586a210", "type": "electric_scooter", "lon": -77.00390633333333}, {"is_reserved": 0, "lat": 38.92879166666667, "rental_uris": {"android": "https://dc.lft.to/lastmile_qr_scan", "ios": "https://dc.lft.to/lastmile_qr_scan"}, "bike_id": "af2d1646ae62e580c642e1078be32dcf", "fusion_lon": 0.0, "fusion_lat": 0.0, "is_disabled": 0, "name": "af2d1646ae62e580c642e1078be32dcf", "type": "electric_scooter", "lon": -77.027064}, {"is_reserved": 0, "lat": 38.922184333333334, "rental_uris": {"android": "https://dc.lft.to/lastmile_qr_scan", "ios": "https://dc.lft.to/lastmile_qr_scan"}, "bike_id": "788e1514030ea7bd034fc9ac700a1c6e", "fusion_lon": 0.0, "fusion_lat": 0.0, "is_disabled": 0, "name": "788e1514030ea7bd034fc9ac700a1c6e", "type": "electric_scooter", "lon": -77.04244983333334}, {"is_reserved": 0, "lat": 38.91266916666667, "rental_uris": {"android": "https://dc.lft.to/lastmile_qr_scan", "ios": "https://dc.lft.to/lastmile_qr_scan"}, "bike_id": "275b7c6f99ef45e572b3d5c6d5583387", "fusion_lon": 0.0, "fusion_lat": 0.0, "is_disabled": 0, "name": "275b7c6f99ef45e572b3d5c6d5583387", "type": "electric_scooter", "lon": -77.02230183333333}, {"is_reserved": 0, "lat": 38.907356, "rental_uris": {"android": "https://dc.lft.to/lastmile_qr_scan", "ios": "https://dc.lft.to/lastmile_qr_scan"}, "bike_id": "ffab82d5eb8e1994e66faa963bbe797f", "fusion_lon": 0.0, "fusion_lat": 0.0, "is_disabled": 0, "name": "ffab82d5eb8e1994e66faa963bbe797f", "type": "electric_scooter", "lon": -77.02715083333334}, {"is_reserved": 0, "lat": 38.907795, "rental_uris": {"android": "https://dc.lft.to/lastmile_qr_scan", "ios": "https://dc.lft.to/lastmile_qr_scan"}, "bike_id": "1d46ea011d4133f92503304dc23b3a2c", "fusion_lon": 0.0, "fusion_lat": 0.0, "is_disabled": 0, "name": "1d46ea011d4133f92503304dc23b3a2c", "type": "electric_scooter", "lon": -77.07247816666667}, {"is_reserved": 0, "lat": 38.917062666666666, "rental_uris": {"android": "https://dc.lft.to/lastmile_qr_scan", "ios": "https://dc.lft.to/lastmile_qr_scan"}, "bike_id": "29597751a22b39e230acbfaa2cc4ba56", "fusion_lon": 0.0, "fusion_lat": 0.0, "is_disabled": 0, "name": "29597751a22b39e230acbfaa2cc4ba56", "type": "electric_scooter", "lon": -77.03728916666667}, {"is_reserved": 0, "lat": 38.84076016666667, "rental_uris": {"android": "https://dc.lft.to/lastmile_qr_scan", "ios": "https://dc.lft.to/lastmile_qr_scan"}, "bike_id": "b10daf51277a1361bfde1d6b5e5dd193", "fusion_lon": 0.0, "fusion_lat": 0.0, "is_disabled": 0, "name": "b10daf51277a1361bfde1d6b5e5dd193", "type": "electric_scooter", "lon": -76.98923783333333}, {"is_reserved": 0, "lat": 38.897385166666666, "rental_uris": {"android": "https://dc.lft.to/lastmile_qr_scan", "ios": "https://dc.lft.to/lastmile_qr_scan"}, "bike_id": "a33a33f7deb2e32b2eb4f48b67ffc477", "fusion_lon": 0.0, "fusion_lat": 0.0, "is_disabled": 0, "name": "a33a33f7deb2e32b2eb4f48b67ffc477", "type": "electric_scooter", "lon": -77.02780166666666}, {"is_reserved": 0, "lat": 38.9220665, "rental_uris": {"android": "https://dc.lft.to/lastmile_qr_scan", "ios": "https://dc.lft.to/lastmile_qr_scan"}, "bike_id": "e677d110437c8c1cc2b9197ecac80811", "fusion_lon": 0.0, "fusion_lat": 0.0, "is_disabled": 0, "name": "e677d110437c8c1cc2b9197ecac80811", "type": "electric_scooter", "lon": -77.04017616666667}, {"is_reserved": 0, "lat": 38.912763166666664, "rental_uris": {"android": "https://dc.lft.to/lastmile_qr_scan", "ios": "https://dc.lft.to/lastmile_qr_scan"}, "bike_id": "5b77064044d3059b201a3c0817b892bf", "fusion_lon": 0.0, "fusion_lat": 0.0, "is_disabled": 0, "name": "5b77064044d3059b201a3c0817b892bf", "type": "electric_bike", "lon": -77.031918}, {"is_reserved": 0, "lat": 38.933145833333334, "rental_uris": {"android": "https://dc.lft.to/lastmile_qr_scan", "ios": "https://dc.lft.to/lastmile_qr_scan"}, "bike_id": "faad3f8abe346922a0c2ba236fb7156f", "fusion_lon": 0.0, "fusion_lat": 0.0, "is_disabled": 0, "name": "faad3f8abe346922a0c2ba236fb7156f", "type": "electric_scooter", "lon": -77.0452305}, {"is_reserved": 0, "lat": 38.90587983333333, "rental_uris": {"android": "https://dc.lft.to/lastmile_qr_scan", "ios": "https://dc.lft.to/lastmile_qr_scan"}, "bike_id": "2009a62f1efe4b766a82cef2b0d27b9e", "fusion_lon": 0.0, "fusion_lat": 0.0, "is_disabled": 0, "name": "2009a62f1efe4b766a82cef2b0d27b9e", "type": "electric_scooter", "lon": -77.00595883333334}, {"is_reserved": 0, "lat": 38.87726716666667, "rental_uris": {"android": "https://dc.lft.to/lastmile_qr_scan", "ios": "https://dc.lft.to/lastmile_qr_scan"}, "bike_id": "e62ba6548f8e1e6154a8f5bf512adcea", "fusion_lon": 0.0, "fusion_lat": 0.0, "is_disabled": 0, "name": "e62ba6548f8e1e6154a8f5bf512adcea", "type": "electric_bike", "lon": -76.981069}, {"is_reserved": 0, "lat": 38.8986415, "rental_uris": {"android": "https://dc.lft.to/lastmile_qr_scan", "ios": "https://dc.lft.to/lastmile_qr_scan"}, "bike_id": "2014b80103778f5c95343096cca420b5", "fusion_lon": 0.0, "fusion_lat": 0.0, "is_disabled": 0, "name": "2014b80103778f5c95343096cca420b5", "type": "electric_scooter", "lon": -77.0204065}, {"is_reserved": 0, "lat": 38.897432, "rental_uris": {"android": "https://dc.lft.to/lastmile_qr_scan", "ios": "https://dc.lft.to/lastmile_qr_scan"}, "bike_id": "54ee1e827137f1efff21437e1576703c", "fusion_lon": 0.0, "fusion_lat": 0.0, "is_disabled": 0, "name": "54ee1e827137f1efff21437e1576703c", "type": "electric_scooter", "lon": -77.000777}, {"is_reserved": 0, "lat": 38.89828383333333, "rental_uris": {"android": "https://dc.lft.to/lastmile_qr_scan", "ios": "https://dc.lft.to/lastmile_qr_scan"}, "bike_id": "5f319257f7d3b65b848c67ba5e01df88", "fusion_lon": 0.0, "fusion_lat": 0.0, "is_disabled": 0, "name": "5f319257f7d3b65b848c67ba5e01df88", "type": "electric_scooter", "lon": -77.016144}, {"is_reserved": 0, "lat": 38.86677983333333, "rental_uris": {"android": "https://dc.lft.to/lastmile_qr_scan", "ios": "https://dc.lft.to/lastmile_qr_scan"}, "bike_id": "dded9fcf2ca832f46f8cdbe8e7be9e8b", "fusion_lon": 0.0, "fusion_lat": 0.0, "is_disabled": 0, "name": "dded9fcf2ca832f46f8cdbe8e7be9e8b", "type": "electric_scooter", "lon": -76.98536616666667}, {"is_reserved": 0, "lat": 38.9161015, "rental_uris": {"android": "https://dc.lft.to/lastmile_qr_scan", "ios": "https://dc.lft.to/lastmile_qr_scan"}, "bike_id": "697c49270bc3ec50915505020323b8d9", "fusion_lon": 0.0, "fusion_lat": 0.0, "is_disabled": 0, "name": "697c49270bc3ec50915505020323b8d9", "type": "electric_scooter", "lon": -77.023089}, {"is_reserved": 0, "lat": 38.909749833333336, "rental_uris": {"android": "https://dc.lft.to/lastmile_qr_scan", "ios": "https://dc.lft.to/lastmile_qr_scan"}, "bike_id": "295e79d7d3003899adb83574f3a0e9b1", "fusion_lon": 0.0, "fusion_lat": 0.0, "is_disabled": 0, "name": "295e79d7d3003899adb83574f3a0e9b1", "type": "electric_scooter", "lon": -77.04874483333333}, {"is_reserved": 0, "lat": 38.89214783333333, "rental_uris": {"android": "https://dc.lft.to/lastmile_qr_scan", "ios": "https://dc.lft.to/lastmile_qr_scan"}, "bike_id": "573074e6eefc9b71f05cb3d6c0498f84", "fusion_lon": 0.0, "fusion_lat": 0.0, "is_disabled": 0, "name": "573074e6eefc9b71f05cb3d6c0498f84", "type": "electric_scooter", "lon": -77.031756}, {"is_reserved": 0, "lat": 38.8974145, "rental_uris": {"android": "https://dc.lft.to/lastmile_qr_scan", "ios": "https://dc.lft.to/lastmile_qr_scan"}, "bike_id": "1616e33b74a0d922bca73ecf95ede9b8", "fusion_lon": 0.0, "fusion_lat": 0.0, "is_disabled": 0, "name": "1616e33b74a0d922bca73ecf95ede9b8", "type": "electric_scooter", "lon": -77.02692766666667}, {"is_reserved": 0, "lat": 38.91676666666667, "rental_uris": {"android": "https://dc.lft.to/lastmile_qr_scan", "ios": "https://dc.lft.to/lastmile_qr_scan"}, "bike_id": "73f3bb7f5b562721ffb3f3d72fce90d0", "fusion_lon": 0.0, "fusion_lat": 0.0, "is_disabled": 0, "name": "73f3bb7f5b562721ffb3f3d72fce90d0", "type": "electric_scooter", "lon": -77.02286116666667}, {"is_reserved": 0, "lat": 38.905839666666665, "rental_uris": {"android": "https://dc.lft.to/lastmile_qr_scan", "ios": "https://dc.lft.to/lastmile_qr_scan"}, "bike_id": "3d3f5d52c6c5ab94633343ecf6697bcf", "fusion_lon": 0.0, "fusion_lat": 0.0, "is_disabled": 0, "name": "3d3f5d52c6c5ab94633343ecf6697bcf", "type": "electric_scooter", "lon": -76.98623866666667}, {"is_reserved": 0, "lat": 38.935440166666666, "rental_uris": {"android": "https://dc.lft.to/lastmile_qr_scan", "ios": "https://dc.lft.to/lastmile_qr_scan"}, "bike_id": "db011653f95911c5e3fdc6658414d478", "fusion_lon": 0.0, "fusion_lat": 0.0, "is_disabled": 0, "name": "db011653f95911c5e3fdc6658414d478", "type": "electric_bike", "lon": -77.0335945}, {"is_reserved": 0, "lat": 38.916851333333334, "rental_uris": {"android": "https://dc.lft.to/lastmile_qr_scan", "ios": "https://dc.lft.to/lastmile_qr_scan"}, "bike_id": "13ec9aa1e580bcf757885893fdbb26ee", "fusion_lon": 0.0, "fusion_lat": 0.0, "is_disabled": 0, "name": "13ec9aa1e580bcf757885893fdbb26ee", "type": "electric_scooter", "lon": -77.02969616666667}, {"is_reserved": 0, "lat": 38.90147566666667, "rental_uris": {"android": "https://dc.lft.to/lastmile_qr_scan", "ios": "https://dc.lft.to/lastmile_qr_scan"}, "bike_id": "b2d2dea68509568acd6816bb1047513e", "fusion_lon": 0.0, "fusion_lat": 0.0, "is_disabled": 0, "name": "b2d2dea68509568acd6816bb1047513e", "type": "electric_scooter", "lon": -77.04195083333333}, {"is_reserved": 0, "lat": 38.90672033333333, "rental_uris": {"android": "https://dc.lft.to/lastmile_qr_scan", "ios": "https://dc.lft.to/lastmile_qr_scan"},