{"data": {"bikes": [{"fusion_lat": 0.0, "name": "c44d1d6db6bcbea7c8d6c047de653519", "is_disabled": 0, "rental_uris": {"android": "https://dc.lft.to/lastmile_qr_scan", "ios": "https://dc.lft.to/lastmile_qr_scan"}, "fusion_lon": 0.0, "lat": 38.882644, "bike_id": "c44d1d6db6bcbea7c8d6c047de653519", "type": "electric_scooter", "is_reserved": 0, "lon": -76.999434}, {"fusion_lat": 0.0, "name": "bfaea35fbe5a5b13d5682009c2fc8731", "is_disabled": 0, "rental_uris": {"android": "https://dc.lft.to/lastmile_qr_scan", "ios": "https://dc.lft.to/lastmile_qr_scan"}, "fusion_lon": 0.0, "lat": 38.92877133333333, "bike_id": "bfaea35fbe5a5b13d5682009c2fc8731", "type": "electric_scooter", "is_reserved": 0, "lon": -76.99554983333333}, {"fusion_lat": 0.0, "name": "d009f83a3ea7d46b06d08f528533a815", "is_disabled": 0, "rental_uris": {"android": "https://dc.lft.to/lastmile_qr_scan", "ios": "https://dc.lft.to/lastmile_qr_scan"}, "fusion_lon": 0.0, "lat": 38.92572883333333, "bike_id": "d009f83a3ea7d46b06d08f528533a815", "type": "electric_scooter", "is_reserved": 0, "lon": -77.02689266666667}, {"fusion_lat": 0.0, "name": "3591465166107b40b51e35001afdc11a", "is_disabled": 0, "rental_uris": {"android": "https://dc.lft.to/lastmile_qr_scan", "ios": "https://dc.lft.to/lastmile_qr_scan"}, "fusion_lon": 0.0, "lat": 38.92574616666667, "bike_id": "3591465166107b40b51e35001afdc11a", "type": "electric_scooter", "is_reserved": 0, "lon": -76.99498883333334}, {"fusion_lat": 0.0, "name": "3ac79388635db2171d6ef7b68144b618", "is_disabled": 0, "rental_uris": {"android": "https://dc.lft.to/lastmile_qr_scan", "ios": "https://dc.lft.to/lastmile_qr_scan"}, "fusion_lon": 0.0, "lat": 38.88400733333334, "bike_id": "3ac79388635db2171d6ef7b68144b618", "type": "electric_scooter", "is_reserved": 0, "lon": -77.0198315}, {"fusion_lat": 0.0, "name": "aecb71116cf74d645d67f5f08d2ceb9a", "is_disabled": 0, "rental_uris": {"android": "https://dc.lft.to/lastmile_qr_scan", "ios": "https://dc.lft.to/lastmile_qr_scan"}, "fusion_lon": 0.0, "lat": 38.906651833333335, "bike_id": "aecb71116cf74d645d67f5f08d2ceb9a", "type": "electric_scooter", "is_reserved": 0, "lon": -77.02241666666667}, {"fusion_lat": 0.0, "name": "687ad04d83c39acfdbad36405004b2bc", "is_disabled": 0, "rental_uris": {"android": "https://dc.lft.to/lastmile_qr_scan", "ios": "https://dc.lft.to/lastmile_qr_scan"}, "fusion_lon": 0.0, "lat": 38.906275, "bike_id": "687ad04d83c39acfdbad36405004b2bc", "type": "electric_scooter", "is_reserved": 0, "lon": -77.02604483333333}, {"fusion_lat": 0.0, "name": "6161159b88fcfffe269ddf2af0222a15", "is_disabled": 0, "rental_uris": {"android": "https://dc.lft.to/lastmile_qr_scan", "ios": "https://dc.lft.to/lastmile_qr_scan"}, "fusion_lon": 0.0, "lat": 38.87514766666666, "bike_id": "6161159b88fcfffe269ddf2af0222a15", "type": "electric_bike", "is_reserved": 0, "lon": -77.0073815}, {"fusion_lat": 0.0, "name": "74cc43e6b5aa977402a626c3ec00fea1", "is_disabled": 0, "rental_uris": {"android": "https://dc.lft.to/lastmile_qr_scan", "ios": "https://dc.lft.to/lastmile_qr_scan"}, "fusion_lon": 0.0, "lat": 38.85801166666667, "bike_id": "74cc43e6b5aa977402a626c3ec00fea1", "type": "electric_bike", "is_reserved": 0, "lon": -76.98727016666666}, {"fusion_lat": 0.0, "name": "d674d158dd894a35a0c6ace18d148c83", "is_disabled": 0, "rental_uris": {"android": "https://dc.lft.to/lastmile_qr_scan", "ios": "https://dc.lft.to/lastmile_qr_scan"}, "fusion_lon": 0.0, "lat": 38.92503033333333, "bike_id": "d674d158dd894a35a0c6ace18d148c83", "type": "electric_scooter", "is_reserved": 0, "lon": -77.01957033333333}, {"fusion_lat": 0.0, "name": "1927e17eb8177866be567eda9cf550b9", "is_disabled": 0, "rental_uris": {"android": "https://dc.lft.to/lastmile_qr_scan", "ios": "https://dc.lft.to/lastmile_qr_scan"}, "fusion_lon": 0.0, "lat": 38.900973666666665, "bike_id": "1927e17eb8177866be567eda9cf550b9", "type": "electric_scooter", "is_reserved": 0, "lon": -77.0197075}, {"fusion_lat": 0.0, "name": "e77bf49fb423a8006be6316568af0b04", "is_disabled": 0, "rental_uris": {"android": "https://dc.lft.to/lastmile_qr_scan", "ios": "https://dc.lft.to/lastmile_qr_scan"}, "fusion_lon": 0.0, "lat": 38.88875, "bike_id": "e77bf49fb423a8006be6316568af0b04", "type": "electric_scooter", "is_reserved": 0, "lon": -77.0285125}, {"fusion_lat": 0.0, "name": "712e19d048f66613538cfd5aabeb0b91", "is_disabled": 0, "rental_uris": {"android": "https://dc.lft.to/lastmile_qr_scan", "ios": "https://dc.lft.to/lastmile_qr_scan"}, "fusion_lon": 0.0, "lat": 38.91985483333333, "bike_id": "712e19d048f66613538cfd5aabeb0b91", "type": "electric_scooter", "is_reserved": 0, "lon": -77.04086366666667}, {"fusion_lat": 0.0, "name": "299dd1a203de6d69be5c6976fb70d272", "is_disabled": 0, "rental_uris": {"android": "https://dc.lft.to/lastmile_qr_scan", "ios": "https://dc.lft.to/lastmile_qr_scan"}, "fusion_lon": 0.0, "lat": 38.923324666666666, "bike_id": "299dd1a203de6d69be5c6976fb70d272", "type": "electric_scooter", "is_reserved": 0, "lon": -77.035599}, {"fusion_lat": 0.0, "name": "3032f6a8209b302cd723df65ef06cd21", "is_disabled": 0, "rental_uris": {"android": "https://dc.lft.to/lastmile_qr_scan", "ios": "https://dc.lft.to/lastmile_qr_scan"}, "fusion_lon": 0.0, "lat": 38.92460583333333, "bike_id": "3032f6a8209b302cd723df65ef06cd21", "type": "electric_scooter", "is_reserved": 0, "lon": -76.993321}, {"fusion_lat": 0.0, "name": "d9743a20cbff497dd5bebd39aad780fa", "is_disabled": 0, "rental_uris": {"android": "https://dc.lft.to/lastmile_qr_scan", "ios": "https://dc.lft.to/lastmile_qr_scan"}, "fusion_lon": 0.0, "lat": 38.86254066666667, "bike_id": "d9743a20cbff497dd5bebd39aad780fa", "type": "electric_bike", "is_reserved": 0, "lon": -76.98331783333333}, {"fusion_lat": 0.0, "name": "df18e23f2e0be5e69267319fdd30b9a5", "is_disabled": 0, "rental_uris": {"android": "https://dc.lft.to/lastmile_qr_scan", "ios": "https://dc.lft.to/lastmile_qr_scan"}, "fusion_lon": 0.0, "lat": 38.905711833333335, "bike_id": "df18e23f2e0be5e69267319fdd30b9a5", "type": "electric_scooter", "is_reserved": 0, "lon": -77.03110183333334}, {"fusion_lat": 0.0, "name": "94c7c01e16a091e6bb89e18b54bc6c89", "is_disabled": 0, "rental_uris": {"android": "https://dc.lft.to/lastmile_qr_scan", "ios": "https://dc.lft.to/lastmile_qr_scan"}, "fusion_lon": 0.0, "lat": 38.920680833333336, "bike_id": "94c7c01e16a091e6bb89e18b54bc6c89", "type": "electric_scooter", "is_reserved": 0, "lon": -76.99860733333334}, {"fusion_lat": 0.0, "name": "ffdded632c42ddf66f711b244687ac21", "is_disabled": 0, "rental_uris": {"android": "https://dc.lft.to/lastmile_qr_scan", "ios": "https://dc.lft.to/lastmile_qr_scan"}, "fusion_lon": 0.0, "lat": 38.928416666666664, "bike_id": "ffdded632c42ddf66f711b244687ac21", "type": "electric_scooter", "is_reserved": 0, "lon": -76.98031066666667}, {"fusion_lat": 0.0, "name": "84da4ea86d4a33e26efa11755397d7e0", "is_disabled": 0, "rental_uris": {"android": "https://dc.lft.to/lastmile_qr_scan", "ios": "https://dc.lft.to/lastmile_qr_scan"}, "fusion_lon": 0.0, "lat": 38.91278033333333, "bike_id": "84da4ea86d4a33e26efa11755397d7e0", "type": "electric_scooter", "is_reserved": 0, "lon": -77.02240516666667}, {"fusion_lat": 0.0, "name": "0fa1601abf9dabba2dc73c02f2809bc7", "is_disabled": 0, "rental_uris": {"android": "https://dc.lft.to/lastmile_qr_scan", "ios": "https://dc.lft.to/lastmile_qr_scan"}, "fusion_lon": 0.0, "lat": 38.9028735, "bike_id": "0fa1601abf9dabba2dc73c02f2809bc7", "type": "electric_scooter", "is_reserved": 0, "lon": -77.04264216666667}, {"fusion_lat": 0.0, "name": "65c684f64fbd8e04c7982995c7e751e1", "is_disabled": 0, "rental_uris": {"android": "https://dc.lft.to/lastmile_qr_scan", "ios": "https://dc.lft.to/lastmile_qr_scan"}, "fusion_lon": 0.0, "lat": 38.91728166666667, "bike_id": "65c684f64fbd8e04c7982995c7e751e1", "type": "electric_scooter", "is_reserved": 0, "lon": -77.00810816666667}, {"fusion_lat": 0.0, "name": "06dc8f340968f008ad1ff66aff0cb4a9", "is_disabled": 0, "rental_uris": {"android": "https://dc.lft.to/lastmile_qr_scan", "ios": "https://dc.lft.to/lastmile_qr_scan"}, "fusion_lon": 0.0, "lat": 38.89220366666667, "bike_id": "06dc8f340968f008ad1ff66aff0cb4a9", "type": "electric_scooter", "is_reserved": 0, "lon": -76.95741916666667}, {"fusion_lat": 0.0, "name": "d3b03465fd05614300462255f6b79b98", "is_disabled": 0, "rental_uris": {"android": "https://dc.lft.to/lastmile_qr_scan", "ios": "https://dc.lft.to/lastmile_qr_scan"}, "fusion_lon": 0.0, "lat": 38.895784666666664, "bike_id": "d3b03465fd05614300462255f6b79b98", "type": "electric_scooter", "is_reserved": 0, "lon": -76.9488255}, {"fusion_lat": 0.0, "name": "4d6a9ef23b53a07c4f241d0f4d8a5922", "is_disabled": 0, "rental_uris": {"android": "https://dc.lft.to/lastmile_qr_scan", "ios": "https://dc.lft.to/lastmile_qr_scan"}, "fusion_lon": 0.0, "lat": 38.89543666666667, "bike_id": "4d6a9ef23b53a07c4f241d0f4d8a5922", "type": "electric_scooter", "is_reserved": 0, "lon": -76.98331416666667}, {"fusion_lat": 0.0, "name": "a50199c6f3b99da509aa0b67130fbe86", "is_disabled": 0, "rental_uris": {"android": "https://dc.lft.to/lastmile_qr_scan", "ios": "https://dc.lft.to/lastmile_qr_scan"}, "fusion_lon": 0.0, "lat": 38.91923833333333, "bike_id": "a50199c6f3b99da509aa0b67130fbe86", "type": "electric_scooter", "is_reserved": 0, "lon": -77.04159716666666}, {"fusion_lat": 0.0, "name": "d384cf4e61de7c78a5ca9bf559a1078f", "is_disabled": 0, "rental_uris": {"android": "https://dc.lft.to/lastmile_qr_scan", "ios": "https://dc.lft.to/lastmile_qr_scan"}, "fusion_lon": 0.0, "lat": 38.918353, "bike_id": "d384cf4e61de7c78a5ca9bf559a1078f", "type": "electric_scooter", "is_reserved": 0, "lon": -77.0402705}, {"fusion_lat": 0.0, "name": "d185968bf380b76fa3f0535a5a144992", "is_disabled": 0, "rental_uris": {"android": "https://dc.lft.to/lastmile_qr_scan", "ios": "https://dc.lft.to/lastmile_qr_scan"}, "fusion_lon": 0.0, "lat": 38.9452415, "bike_id": "d185968bf380b76fa3f0535a5a144992", "type": "electric_scooter", "is_reserved": 0, "lon": -77.0226715}, {"fusion_lat": 0.0, "name": "032f663452bddaad2f02c8e1c2831065", "is_disabled": 0, "rental_uris": {"android": "https://dc.lft.to/lastmile_qr_scan", "ios": "https://dc.lft.to/lastmile_qr_scan"}, "fusion_lon": 0.0, "lat": 38.917734333333335, "bike_id": "032f663452bddaad2f02c8e1c2831065", "type": "electric_scooter", "is_reserved": 0, "lon": -77.0409685}, {"fusion_lat": 0.0, "name": "4c1907272381c53bb641d874f1182f5c", "is_disabled": 0, "rental_uris": {"android": "https://dc.lft.to/lastmile_qr_scan", "ios": "https://dc.lft.to/lastmile_qr_scan"}, "fusion_lon": 0.0, "lat": 38.93359916666667, "bike_id": "4c1907272381c53bb641d874f1182f5c", "type": "electric_scooter", "is_reserved": 0, "lon": -77.07313783333333}, {"fusion_lat": 0.0, "name": "0c9b24cdece1134cb4925600e1de1fe9", "is_disabled": 0, "rental_uris": {"android": "https://dc.lft.to/lastmile_qr_scan", "ios": "https://dc.lft.to/lastmile_qr_scan"}, "fusion_lon": 0.0, "lat": 38.950874166666665, "bike_id": "0c9b24cdece1134cb4925600e1de1fe9", "type": "electric_bike", "is_reserved": 0, "lon": -76.99793683333333}, {"fusion_lat": 0.0, "name": "5165389b644d395646532adeb4922540", "is_disabled": 0, "rental_uris": {"android": "https://dc.lft.to/lastmile_qr_scan", "ios": "https://dc.lft.to/lastmile_qr_scan"}, "fusion_lon": 0.0, "lat": 38.9105375, "bike_id": "5165389b644d395646532adeb4922540", "type": "electric_scooter", "is_reserved": 0, "lon": -77.03209616666666}, {"fusion_lat": 0.0, "name": "cc09a5385bfc685ce39628580385d70e", "is_disabled": 0, "rental_uris": {"android": "https://dc.lft.to/lastmile_qr_scan", "ios": "https://dc.lft.to/lastmile_qr_scan"}, "fusion_lon": 0.0, "lat": 38.919653833333335, "bike_id": "cc09a5385bfc685ce39628580385d70e", "type": "electric_scooter", "is_reserved": 0, "lon": -77.0413135}, {"fusion_lat": 0.0, "name": "c0abfdef9a1a83bd2dec70fa2fb2bea8", "is_disabled": 0, "rental_uris": {"android": "https://dc.lft.to/lastmile_qr_scan", "ios": "https://dc.lft.to/lastmile_qr_scan"}, "fusion_lon": 0.0, "lat": 38.87547416666666, "bike_id": "c0abfdef9a1a83bd2dec70fa2fb2bea8", "type": "electric_scooter", "is_reserved": 0, "lon": -77.00536183333334}, {"fusion_lat": 0.0, "name": "cd9f80a9b4f9dc73f8a54552c0f99fb7", "is_disabled": 0, "rental_uris": {"android": "https://dc.lft.to/lastmile_qr_scan", "ios": "https://dc.lft.to/lastmile_qr_scan"}, "fusion_lon": 0.0, "lat": 38.91703716666667, "bike_id": "cd9f80a9b4f9dc73f8a54552c0f99fb7", "type": "electric_scooter", "is_reserved": 0, "lon": -77.02437516666667}, {"fusion_lat": 0.0, "name": "6cd9566e41ca07a75b5e5fe2a1f34da9", "is_disabled": 0, "rental_uris": {"android": "https://dc.lft.to/lastmile_qr_scan", "ios": "https://dc.lft.to/lastmile_qr_scan"}, "fusion_lon": 0.0, "lat": 38.923151833333336, "bike_id": "6cd9566e41ca07a75b5e5fe2a1f34da9", "type": "electric_scooter", "is_reserved": 0, "lon": -77.0462155}, {"fusion_lat": 0.0, "name": "0749a46518463feeee557d07c1478ca1", "is_disabled": 0, "rental_uris": {"android": "https://dc.lft.to/lastmile_qr_scan", "ios": "https://dc.lft.to/lastmile_qr_scan"}, "fusion_lon": 0.0, "lat": 38.92532283333333, "bike_id": "0749a46518463feeee557d07c1478ca1", "type": "electric_scooter", "is_reserved": 0, "lon": -76.99490033333333}, {"fusion_lat": 0.0, "name": "8ac19c31ab415b647d1ece32bb626896", "is_disabled": 0, "rental_uris": {"android": "https://dc.lft.to/lastmile_qr_scan", "ios": "https://dc.lft.to/lastmile_qr_scan"}, "fusion_lon": 0.0, "lat": 38.897407, "bike_id": "8ac19c31ab415b647d1ece32bb626896", "type": "electric_scooter", "is_reserved": 0, "lon": -76.9471815}, {"fusion_lat": 0.0, "name": "f4af7883eb549ca887bac9b7dcdd06a1", "is_disabled": 0, "rental_uris": {"android": "https://dc.lft.to/lastmile_qr_scan", "ios": "https://dc.lft.to/lastmile_qr_scan"}, "fusion_lon": 0.0, "lat": 38.907183333333336, "bike_id": "f4af7883eb549ca887bac9b7dcdd06a1", "type": "electric_scooter", "is_reserved": 0, "lon": -77.025045}, {"fusion_lat": 0.0, "name": "d37a239705c7f5924fcfc064b727a343", "is_disabled": 0, "rental_uris": {"android": "https://dc.lft.to/lastmile_qr_scan", "ios": "https://dc.lft.to/lastmile_qr_scan"}, "fusion_lon": 0.0, "lat": 38.936728333333335, "bike_id": "d37a239705c7f5924fcfc064b727a343", "type": "electric_scooter", "is_reserved": 0, "lon": -77.0363465}, {"fusion_lat": 0.0, "name": "984abf6a4a860d23735d484ed1ae1acf", "is_disabled": 0, "rental_uris": {"android": "https://dc.lft.to/lastmile_qr_scan", "ios": "https://dc.lft.to/lastmile_qr_scan"}, "fusion_lon": 0.0, "lat": 38.916418166666666, "bike_id": "984abf6a4a860d23735d484ed1ae1acf", "type": "electric_scooter", "is_reserved": 0, "lon": -77.0457485}, {"fusion_lat": 0.0, "name": "aa0bf3073cd18e68d1e2672a55592202", "is_disabled": 0, "rental_uris": {"android": "https://dc.lft.to/lastmile_qr_scan", "ios": "https://dc.lft.to/lastmile_qr_scan"}, "fusion_lon": 0.0, "lat": 38.90035683333333, "bike_id": "aa0bf3073cd18e68d1e2672a55592202", "type": "electric_scooter", "is_reserved": 0, "lon": -77.02167733333333}, {"fusion_lat": 0.0, "name": "27096430ea65686bc8cb11fe0230cbfa", "is_disabled": 0, "rental_uris": {"android": "https://dc.lft.to/lastmile_qr_scan", "ios": "https://dc.lft.to/lastmile_qr_scan"}, "fusion_lon": 0.0, "lat": 38.874740333333335, "bike_id": "27096430ea65686bc8cb11fe0230cbfa", "type": "electric_scooter", "is_reserved": 0, "lon": -77.0186105}, {"fusion_lat": 0.0, "name": "e8eb354e1171833fb63bd874d602ca27", "is_disabled": 0, "rental_uris": {"android": "https://dc.lft.to/lastmile_qr_scan", "ios": "https://dc.lft.to/lastmile_qr_scan"}, "fusion_lon": 0.0, "lat": 38.910849166666665, "bike_id": "e8eb354e1171833fb63bd874d602ca27", "type": "electric_scooter", "is_reserved": 0, "lon": -77.06544166666667}, {"fusion_lat": 0.0, "name": "6b2fd316cc45433cbffcb9b9c87151c0", "is_disabled": 0, "rental_uris": {"android": "https://dc.lft.to/lastmile_qr_scan", "ios": "https://dc.lft.to/lastmile_qr_scan"}, "fusion_lon": 0.0, "lat": 38.9026235, "bike_id": "6b2fd316cc45433cbffcb9b9c87151c0", "type": "electric_scooter", "is_reserved": 0, "lon": -76.9960675}, {"fusion_lat": 0.0, "name": "467b42c6c71bd73096fc9a1e45ba11ec", "is_disabled": 0, "rental_uris": {"android": "https://dc.lft.to/lastmile_qr_scan", "ios": "https://dc.lft.to/lastmile_qr_scan"}, "fusion_lon": 0.0, "lat": 38.88882316666667, "bike_id": "467b42c6c71bd73096fc9a1e45ba11ec", "type": "electric_scooter", "is_reserved": 0, "lon": -77.02838516666667}, {"fusion_lat": 0.0, "name": "86a0299bc8ff8f52104c29b91fbecc3f", "is_disabled": 0, "rental_uris": {"android": "https://dc.lft.to/lastmile_qr_scan", "ios": "https://dc.lft.to/lastmile_qr_scan"}, "fusion_lon": 0.0, "lat": 38.927260833333335, "bike_id": "86a0299bc8ff8f52104c29b91fbecc3f", "type": "electric_scooter", "is_reserved": 0, "lon": -77.03163133333334}, {"fusion_lat": 0.0, "name": "6bb693d56744974d5c78f3a00ae84fd6", "is_disabled": 0, "rental_uris": {"android": "https://dc.lft.to/lastmile_qr_scan", "ios": "https://dc.lft.to/lastmile_qr_scan"}, "fusion_lon": 0.0, "lat": 38.93047583333333, "bike_id": "6bb693d56744974d5c78f3a00ae84fd6", "type": "electric_scooter", "is_reserved": 0, "lon": -77.03299216666667}, {"fusion_lat": 0.0, "name": "15c00a0f3d1d615decec2a093541fe8d", "is_disabled": 0, "rental_uris": {"android": "https://dc.lft.to/lastmile_qr_scan", "ios": "https://dc.lft.to/lastmile_qr_scan"}, "fusion_lon": 0.0, "lat": 38.895253333333336, "bike_id": "15c00a0f3d1d615decec2a093541fe8d", "type": "electric_scooter", "is_reserved": 0, "lon": -77.0305665}, {"fusion_lat": 0.0, "name": "3cab262ba258a06af79dd21c19447a2b", "is_disabled": 0, "rental_uris": {"android": "https://dc.lft.to/lastmile_qr_scan", "ios": "https://dc.lft.to/lastmile_qr_scan"}, "fusion_lon": 0.0, "lat": 38.9230615, "bike_id": "3cab262ba258a06af79dd21c19447a2b", "type": "electric_scooter", "is_reserved": 0, "lon": -77.041376}, {"fusion_lat": 0.0, "name": "558ecbca917eba9c5b0367e7bc072afa", "is_disabled": 0, "rental_uris": {"android": "https://dc.lft.to/lastmile_qr_scan", "ios": "https://dc.lft.to/lastmile_qr_scan"}, "fusion_lon": 0.0, "lat": 38.9341695, "bike_id": "558ecbca917eba9c5b0367e7bc072afa", "type": "electric_scooter", "is_reserved": 0, "lon": -76.97961033333333}, {"fusion_lat": 0.0, "name": "ba50211c2c0b6c2326de0e212163b82f", "is_disabled": 0, "rental_uris": {"android": "https://dc.lft.to/lastmile_qr_scan", "ios": "https://dc.lft.to/lastmile_qr_scan"}, "fusion_lon": 0.0, "lat": 38.908523, "bike_id": "ba50211c2c0b6c2326de0e212163b82f", "type": "electric_scooter", "is_reserved": 0, "lon": -77.019677}, {"fusion_lat": 0.0, "name": "8d647895a807ea8e70bc469024b0cdf8", "is_disabled": 0, "rental_uris": {"android": "https://dc.lft.to/lastmile_qr_scan", "ios": "https://dc.lft.to/lastmile_qr_scan"}, "fusion_lon": 0.0, "lat": 38.88889966666667, "bike_id": "8d647895a807ea8e70bc469024b0cdf8", "type": "electric_bike", "is_reserved": 0, "lon": -77.11526116666667}, {"fusion_lat": 0.0, "name": "7882aeaa8d4428cd5f19dbbb9c457ce4", "is_disabled": 0, "rental_uris": {"android": "https://dc.lft.to/lastmile_qr_scan", "ios": "https://dc.lft.to/lastmile_qr_scan"}, "fusion_lon": 0.0, "lat": 38.9178215, "bike_id": "7882aeaa8d4428cd5f19dbbb9c457ce4", "type": "electric_scooter", "is_reserved": 0, "lon": -77.03850233333333}, {"fusion_lat": 0.0, "name": "0c441b9ca570649dcd65179f8e5fe807", "is_disabled": 0, "rental_uris": {"android": "https://dc.lft.to/lastmile_qr_scan", "ios": "https://dc.lft.to/lastmile_qr_scan"}, "fusion_lon": 0.0, "lat": 38.920316, "bike_id": "0c441b9ca570649dcd65179f8e5fe807", "type": "electric_scooter", "is_reserved": 0, "lon": -77.03166583333334}, {"fusion_lat": 0.0, "name": "ce5a394590ccfeb05e592498f7dbe7f6", "is_disabled": 0, "rental_uris": {"android": "https://dc.lft.to/lastmile_qr_scan", "ios": "https://dc.lft.to/lastmile_qr_scan"}, "fusion_lon": 0.0, "lat": 38.93597616666667, "bike_id": "ce5a394590ccfeb05e592498f7dbe7f6", "type": "electric_bike", "is_reserved": 0, "lon": -77.02119566666667}, {"fusion_lat": 0.0, "name": "687c96afbb23f81652b290e805fe7204", "is_disabled": 0, "rental_uris": {"android": "https://dc.lft.to/lastmile_qr_scan", "ios": "https://dc.lft.to/lastmile_qr_scan"}, "fusion_lon": 0.0, "lat": 38.9260615, "bike_id": "687c96afbb23f81652b290e805fe7204", "type": "electric_scooter", "is_reserved": 0, "lon": -77.03944516666667}, {"fusion_lat": 0.0, "name": "22f19c8714268a0fcaccfc048b128f50", "is_disabled": 0, "rental_uris": {"android": "https://dc.lft.to/lastmile_qr_scan", "ios": "https://dc.lft.to/lastmile_qr_scan"}, "fusion_lon": 0.0, "lat": 38.923249166666665, "bike_id": "22f19c8714268a0fcaccfc048b128f50", "type": "electric_scooter", "is_reserved": 0, "lon": -77.04021}, {"fusion_lat": 0.0, "name": "860f59ac79c2d1948428d74c44880baf", "is_disabled": 0, "rental_uris": {"android": "https://dc.lft.to/lastmile_qr_scan", "ios": "https://dc.lft.to/lastmile_qr_scan"}, "fusion_lon": 0.0, "lat": 38.844257166666665, "bike_id": "860f59ac79c2d1948428d74c44880baf", "type": "electric_scooter", "is_reserved": 0, "lon": -76.99776766666666}, {"fusion_lat": 0.0, "name": "55c8c6685f6e9908acb47a171926863b", "is_disabled": 0, "rental_uris": {"android": "https://dc.lft.to/lastmile_qr_scan", "ios": "https://dc.lft.to/lastmile_qr_scan"}, "fusion_lon": 0.0, "lat": 38.928395333333334, "bike_id": "55c8c6685f6e9908acb47a171926863b", "type": "electric_scooter", "is_reserved": 0, "lon": -77.0272475}, {"fusion_lat": 0.0, "name": "e61ec01f590eaa0c269c6954305dd6ba", "is_disabled": 0, "rental_uris": {"android": "https://dc.lft.to/lastmile_qr_scan", "ios": "https://dc.lft.to/lastmile_qr_scan"}, "fusion_lon": 0.0, "lat": 38.877161, "bike_id": "e61ec01f590eaa0c269c6954305dd6ba", "type": "electric_scooter", "is_reserved": 0, "lon": -77.01752583333334}, {"fusion_lat": 0.0, "name": "cd2ce4778107e65cd57a0109fcf391e7", "is_disabled": 0, "rental_uris": {"android": "https://dc.lft.to/lastmile_qr_scan", "ios": "https://dc.lft.to/lastmile_qr_scan"}, "fusion_lon": 0.0, "lat": 38.90447733333333, "bike_id": "cd2ce4778107e65cd57a0109fcf391e7", "type": "electric_scooter", "is_reserved": 0, "lon": -77.04857883333334}, {"fusion_lat": 0.0, "name": "83040e72f44bb5691efc8ebeccc63dc4", "is_disabled": 0, "rental_uris": {"android": "https://dc.lft.to/lastmile_qr_scan", "ios": "https://dc.lft.to/lastmile_qr_scan"}, "fusion_lon": 0.0, "lat": 38.93243183333333, "bike_id": "83040e72f44bb5691efc8ebeccc63dc4", "type": "electric_scooter", "is_reserved": 0, "lon": -77.034132}, {"fusion_lat": 0.0, "name": "1e507427f98eb844abdc7a246c73185a", "is_disabled": 0, "rental_uris": {"android": "https://dc.lft.to/lastmile_qr_scan", "ios": "https://dc.lft.to/lastmile_qr_scan"}, "fusion_lon": 0.0, "lat": 38.884868, "bike_id": "1e507427f98eb844abdc7a246c73185a", "type": "electric_scooter", "is_reserved": 0, "lon": -77.023759}, {"fusion_lat": 0.0, "name": "ec3111144d5d39988e0acb524341334e", "is_disabled": 0, "rental_uris": {"android": "https://dc.lft.to/lastmile_qr_scan", "ios": "https://dc.lft.to/lastmile_qr_scan"}, "fusion_lon": 0.0, "lat": 38.897311, "bike_id": "ec3111144d5d39988e0acb524341334e", "type": "electric_scooter", "is_reserved": 0, "lon": -76.9470195}, {"fusion_lat": 0.0, "name": "b94c5ebb9a26c364b008e36e295c169d", "is_disabled": 0, "rental_uris": {"android": "https://dc.lft.to/lastmile_qr_scan", "ios": "https://dc.lft.to/lastmile_qr_scan"}, "fusion_lon": 0.0, "lat": 38.894534, "bike_id": "b94c5ebb9a26c364b008e36e295c169d", "type": "electric_scooter", "is_reserved": 0, "lon": -77.04543066666666}, {"fusion_lat": 0.0, "name": "dfd085cbdc4b823b1d7f8e5cf53b0184", "is_disabled": 0, "rental_uris": {"android": "https://dc.lft.to/lastmile_qr_scan", "ios": "https://dc.lft.to/lastmile_qr_scan"}, "fusion_lon": 0.0, "lat": 38.960689333333335, "bike_id": "dfd085cbdc4b823b1d7f8e5cf53b0184", "type": "electric_scooter", "is_reserved": 0, "lon": -77.0009875}, {"fusion_lat": 0.0, "name": "09cf6845c8f7ba2b788bf440d321366e", "is_disabled": 0, "rental_uris": {"android": "https://dc.lft.to/lastmile_qr_scan", "ios": "https://dc.lft.to/lastmile_qr_scan"}, "fusion_lon": 0.0, "lat": 38.91402316666667, "bike_id": "09cf6845c8f7ba2b788bf440d321366e", "type": "electric_scooter", "is_reserved": 0, "lon": -77.01680783333333}, {"fusion_lat": 0.0, "name": "fd3fb3552b19fb2b49fb40a5e49a6cba", "is_disabled": 0, "rental_uris": {"android": "https://dc.lft.to/lastmile_qr_scan", "ios": "https://dc.lft.to/lastmile_qr_scan"}, "fusion_lon": 0.0, "lat": 38.863018, "bike_id": "fd3fb3552b19fb2b49fb40a5e49a6cba", "type": "electric_bike", "is_reserved": 0, "lon": -77.063858}, {"fusion_lat": 0.0, "name": "16329f0dc0d9e82eda4eecb2ea41c151", "is_disabled": 0, "rental_uris": {"android": "https://dc.lft.to/lastmile_qr_scan", "ios": "https://dc.lft.to/lastmile_qr_scan"}, "fusion_lon": 0.0, "lat": 38.85770933333333, "bike_id": "16329f0dc0d9e82eda4eecb2ea41c151", "type": "electric_bike", "is_reserved": 0, "lon": -76.987648}, {"fusion_lat": 0.0, "name": "0310ca08533b3fe1a71078150bc496a7", "is_disabled": 0, "rental_uris": {"android": "https://dc.lft.to/lastmile_qr_scan", "ios": "https://dc.lft.to/lastmile_qr_scan"}, "fusion_lon": 0.0, "lat": 38.90547816666667, "bike_id": "0310ca08533b3fe1a71078150bc496a7", "type": "electric_scooter", "is_reserved": 0, "lon": -76.98332283333333}, {"fusion_lat": 0.0, "name": "2193a396363bf21819ce63e2f726162c", "is_disabled": 0, "rental_uris": {"android": "https://dc.lft.to/lastmile_qr_scan", "ios": "https://dc.lft.to/lastmile_qr_scan"}, "fusion_lon": 0.0, "lat": 38.88397033333333, "bike_id": "2193a396363bf21819ce63e2f726162c", "type": "electric_scooter", "is_reserved": 0, "lon": -76.93040533333334}, {"fusion_lat": 0.0, "name": "9eb0dec571fb74214a9e864388688228", "is_disabled": 0, "rental_uris": {"android": "https://dc.lft.to/lastmile_qr_scan", "ios": "https://dc.lft.to/lastmile_qr_scan"}, "fusion_lon": 0.0, "lat": 38.933780166666665, "bike_id": "9eb0dec571fb74214a9e864388688228", "type": "electric_scooter", "is_reserved": 0, "lon": -77.038962}, {"fusion_lat": 0.0, "name": "e42ca6dfc8650900737a48533cf90fff", "is_disabled": 0, "rental_uris": {"android": "https://dc.lft.to/lastmile_qr_scan", "ios": "https://dc.lft.to/lastmile_qr_scan"}, "fusion_lon": 0.0, "lat": 38.898060666666666, "bike_id": "e42ca6dfc8650900737a48533cf90fff", "type": "electric_scooter", "is_reserved": 0, "lon": -77.02200366666666}, {"fusion_lat": 0.0, "name": "0f6288a4f09e8e7ac0ff969ff818218a", "is_disabled": 0, "rental_uris": {"android": "https://dc.lft.to/lastmile_qr_scan", "ios": "https://dc.lft.to/lastmile_qr_scan"}, "fusion_lon": 0.0, "lat": 38.909675, "bike_id": "0f6288a4f09e8e7ac0ff969ff818218a", "type": "electric_scooter", "is_reserved": 0, "lon": -77.02081516666667}, {"fusion_lat": 0.0, "name": "843d939495e9c685577163d4c248f92e", "is_disabled": 0, "rental_uris": {"android": "https://dc.lft.to/lastmile_qr_scan", "ios": "https://dc.lft.to/lastmile_qr_scan"}, "fusion_lon": 0.0, "lat": 38.89840016666667, "bike_id": "843d939495e9c685577163d4c248f92e", "type": "electric_scooter", "is_reserved": 0, "lon": -77.02638983333334}, {"fusion_lat": 0.0, "name": "b71ab8c5a223d91e9947ae85e651f403", "is_disabled": 0, "rental_uris": {"android": "https://dc.lft.to/lastmile_qr_scan", "ios": "https://dc.lft.to/lastmile_qr_scan"}, "fusion_lon": 0.0, "lat": 38.94088416666666, "bike_id": "b71ab8c5a223d91e9947ae85e651f403", "type": "electric_scooter", "is_reserved": 0, "lon": -77.06182866666667}, {"fusion_lat": 0.0, "name": "d3680d7709035c15321100ba99cdbb24", "is_disabled": 0, "rental_uris": {"android": "https://dc.lft.to/lastmile_qr_scan", "ios": "https://dc.lft.to/lastmile_qr_scan"}, "fusion_lon": 0.0, "lat": 38.897277, "bike_id": "d3680d7709035c15321100ba99cdbb24", "type": "electric_scooter", "is_reserved": 0, "lon": -77.05523283333333}, {"fusion_lat": 0.0, "name": "cc12b773c556f7fea8863d99b171c377", "is_disabled": 0, "rental_uris": {"android": "https://dc.lft.to/lastmile_qr_scan", "ios": "https://dc.lft.to/lastmile_qr_scan"}, "fusion_lon": 0.0, "lat": 38.93221583333333, "bike_id": "cc12b773c556f7fea8863d99b171c377", "type": "electric_scooter", "is_reserved": 0, "lon": -77.04409883333334}, {"fusion_lat": 0.0, "name": "9e9ce381713da29d7caa3b68ae635b68", "is_disabled": 0, "rental_uris": {"android": "https://dc.lft.to/lastmile_qr_scan", "ios": "https://dc.lft.to/lastmile_qr_scan"}, "fusion_lon": 0.0, "lat": 38.900343166666666, "bike_id": "9e9ce381713da29d7caa3b68ae635b68", "type": "electric_scooter", "is_reserved": 0, "lon": -77.0117415}, {"fusion_lat": 0.0, "name": "107b6c58bddb436676ee6bd227e86460", "is_disabled": 0, "rental_uris": {"android": "https://dc.lft.to/lastmile_qr_scan", "ios": "https://dc.lft.to/lastmile_qr_scan"}, "fusion_lon": 0.0, "lat": 38.923380333333334, "bike_id": "107b6c58bddb436676ee6bd227e86460", "type": "electric_scooter", "is_reserved": 0, "lon": -77.03561866666666}, {"fusion_lat": 0.0, "name": "3a105a846b02f350040b8e86a882eb03", "is_disabled": 0, "rental_uris": {"android": "https://dc.lft.to/lastmile_qr_scan", "ios": "https://dc.lft.to/lastmile_qr_scan"}, "fusion_lon": 0.0, "lat": 38.898400333333335, "bike_id": "3a105a846b02f350040b8e86a882eb03", "type": "electric_scooter", "is_reserved": 0, "lon": -76.98167916666667}, {"fusion_lat": 0.0, "name": "5f828c2a0edecfd9ae51dace7d3f5a49", "is_disabled": 0, "rental_uris": {"android": "https://dc.lft.to/lastmile_qr_scan", "ios": "https://dc.lft.to/lastmile_qr_scan"}, "fusion_lon": 0.0, "lat": 38.938723833333334, "bike_id": "5f828c2a0edecfd9ae51dace7d3f5a49", "type": "electric_scooter", "is_reserved": 0, "lon": -77.03226283333333}, {"fusion_lat": 0.0, "name": "3e17270f4e85224e1219e82de6a1a2e3", "is_disabled": 0, "rental_uris": {"android": "https://dc.lft.to/lastmile_qr_scan", "ios": "https://dc.lft.to/lastmile_qr_scan"}, "fusion_lon": 0.0, "lat": 38.835846, "bike_id": "3e17270f4e85224e1219e82de6a1a2e3", "type": "electric_bike", "is_reserved": 0, "lon": -76.99011166666666}, {"fusion_lat": 0.0, "name": "2fb3081917d1a63702f7b7284ff0dad8", "is_disabled": 0, "rental_uris": {"android": "https://dc.lft.to/lastmile_qr_scan", "ios": "https://dc.lft.to/lastmile_qr_scan"}, "fusion_lon": 0.0, "lat": 38.9227255, "bike_id": "2fb3081917d1a63702f7b7284ff0dad8", "type": "electric_scooter", "is_reserved": 0, "lon": -77.04279316666667}, {"fusion_lat": 0.0, "name": "a66b202260ad66c878b60e8ae3a179b0", "is_disabled": 0, "rental_uris": {"android": "https://dc.lft.to/lastmile_qr_scan", "ios": "https://dc.lft.to/lastmile_qr_scan"}, "fusion_lon": 0.0, "lat": 38.85365266666667, "bike_id": "a66b202260ad66c878b60e8ae3a179b0", "type": "electric_bike", "is_reserved": 0, "lon": -77.115013}, {"fusion_lat": 0.0, "name": "c6f1b4f87b7a24e46da549880af5bd59", "is_disabled": 0, "rental_uris": {"android": "https://dc.lft.to/lastmile_qr_scan", "ios": "https://dc.lft.to/lastmile_qr_scan"}, "fusion_lon": 0.0, "lat": 38.8973945, "bike_id": "c6f1b4f87b7a24e46da549880af5bd59", "type": "electric_scooter", "is_reserved": 0, "lon": -77.02694566666666}, {"fusion_lat": 0.0, "name": "9637a6d0a3ca291beca5128fcbe04ba7", "is_disabled": 0, "rental_uris": {"android": "https://dc.lft.to/lastmile_qr_scan", "ios": "https://dc.lft.to/lastmile_qr_scan"}, "fusion_lon": 0.0, "lat": 38.87744683333333, "bike_id": "9637a6d0a3ca291beca5128fcbe04ba7", "type": "electric_scooter", "is_reserved": 0, "lon": -76.99661116666667}, {"fusion_lat": 0.0, "name": "361e1679ff292fab46f04b3417f7911e", "is_disabled": 0, "rental_uris": {"android": "https://dc.lft.to/lastmile_qr_scan", "ios": "https://dc.lft.to/lastmile_qr_scan"}, "fusion_lon": 0.0, "lat": 38.89902333333333, "bike_id": "361e1679ff292fab46f04b3417f7911e", "type": "electric_scooter", "is_reserved": 0, "lon": -77.03964866666666}, {"fusion_lat": 0.0, "name": "92f556965559003cc2a3fb462f44f697", "is_disabled": 0, "rental_uris": {"android": "https://dc.lft.to/lastmile_qr_scan", "ios": "https://dc.lft.to/lastmile_qr_scan"}, "fusion_lon": 0.0, "lat": 38.93386516666666, "bike_id": "92f556965559003cc2a3fb462f44f697", "type": "electric_scooter", "is_reserved": 0, "lon": -77.03247616666667}, {"fusion_lat": 0.0, "name": "163f7b3fc022db7639957648d8303091", "is_disabled": 0, "rental_uris": {"android": "https://dc.lft.to/lastmile_qr_scan", "ios": "https://dc.lft.to/lastmile_qr_scan"}, "fusion_lon": 0.0, "lat": 39.034295, "bike_id": "163f7b3fc022db7639957648d8303091", "type": "electric_bike", "is_reserved": 0, "lon": -77.04305566666666}, {"fusion_lat": 0.0, "name": "1513a09335b0a6bf9bda9dfc16f407ca", "is_disabled": 0, "rental_uris": {"android": "https://dc.lft.to/lastmile_qr_scan", "ios": "https://dc.lft.to/lastmile_qr_scan"}, "fusion_lon": 0.0, "lat": 38.92991883333333, "bike_id": "1513a09335b0a6bf9bda9dfc16f407ca", "type": "electric_scooter", "is_reserved": 0, "lon": -77.0325745}, {"fusion_lat": 0.0, "name": "504f566f2b8769bd6fd810b4a0348d53", "is_disabled": 0, "rental_uris": {"android": "https://dc.lft.to/lastmile_qr_scan", "ios": "https://dc.lft.to/lastmile_qr_scan"}, "fusion_lon": 0.0, "lat": 38.8829345, "bike_id": "504f566f2b8769bd6fd810b4a0348d53", "type": "electric_scooter", "is_reserved": 0, "lon": -77.01746983333334}, {"fusion_lat": 0.0, "name": "62712805fb01b06bee0a640439aa86bf", "is_disabled": 0, "rental_uris": {"android": "https://dc.lft.to/lastmile_qr_scan", "ios": "https://dc.lft.to/lastmile_qr_scan"}, "fusion_lon": 0.0, "lat": 38.938674, "bike_id": "62712805fb01b06bee0a640439aa86bf", "type": "electric_scooter", "is_reserved": 0, "lon": -77.03198116666667}, {"fusion_lat": 0.0, "name": "19b1c031668138d4358c16bfd6590037", "is_disabled": 0, "rental_uris": {"android": "https://dc.lft.to/lastmile_qr_scan", "ios": "https://dc.lft.to/lastmile_qr_scan"}, "fusion_lon": 0.0, "lat": 38.920475, "bike_id": "19b1c031668138d4358c16bfd6590037", "type": "electric_scooter", "is_reserved": 0, "lon": -77.02576016666667}, {"fusion_lat": 0.0, "name": "604e9a4ee3c16a4e1b4d2ca555895d73", "is_disabled": 0, "rental_uris": {"android": "https://dc.lft.to/lastmile_qr_scan", "ios": "https://dc.lft.to/lastmile_qr_scan"}, "fusion_lon": 0.0, "lat": 38.873805833333336, "bike_id": "604e9a4ee3c16a4e1b4d2ca555895d73", "type": "electric_scooter", "is_reserved": 0, "lon": -77.00042783333333}, {"fusion_lat": 0.0, "name": "240ae7515b7ba301e859f8c176bfa9e7", "is_disabled": 0, "rental_uris": {"android": "https://dc.lft.to/lastmile_qr_scan", "ios": "https://dc.lft.to/lastmile_qr_scan"}, "fusion_lon": 0.0, "lat": 38.9267335, "bike_id": "240ae7515b7ba301e859f8c176bfa9e7", "type": "electric_scooter", "is_reserved": 0, "lon": -77.02966133333334}, {"fusion_lat": 0.0, "name": "2c05ab4e88ccbcc639f88b7950589ce4", "is_disabled": 0, "rental_uris": {"android": "https://dc.lft.to/lastmile_qr_scan", "ios": "https://dc.lft.to/lastmile_qr_scan"}, "fusion_lon": 0.0, "lat": 38.87831516666667, "bike_id": "2c05ab4e88ccbcc639f88b7950589ce4", "type": "electric_scooter", "is_reserved": 0, "lon": -76.99035833333333}, {"fusion_lat": 0.0, "name": "5a51819a888b412d10c6918d0b911bf4", "is_disabled": 0, "rental_uris": {"android": "https://dc.lft.to/lastmile_qr_scan", "ios": "https://dc.lft.to/lastmile_qr_scan"}, "fusion_lon": 0.0, "lat": 38.91428766666667, "bike_id": "5a51819a888b412d10c6918d0b911bf4", "type": "electric_scooter", "is_reserved": 0, "lon": -76.984355}, {"fusion_lat": 0.0, "name": "cbfe118374a099a3dee02d5a5fcac762", "is_disabled": 0, "rental_uris": {"android": "https://dc.lft.to/lastmile_qr_scan", "ios": "https://dc.lft.to/lastmile_qr_scan"}, "fusion_lon": 0.0, "lat": 38.900478, "bike_id": "cbfe118374a099a3dee02d5a5fcac762", "type": "electric_scooter", "is_reserved": 0, "lon": -77.04484233333334}, {"fusion_lat": 0.0, "name": "a0c91c662ba9720f3e0c725fba38fd2c", "is_disabled": 0, "rental_uris": {"android": "https://dc.lft.to/lastmile_qr_scan", "ios": "https://dc.lft.to/lastmile_qr_scan"}, "fusion_lon": 0.0, "lat": 38.92037066666666, "bike_id": "a0c91c662ba9720f3e0c725fba38fd2c", "type": "electric_scooter", "is_reserved": 0, "lon": -77.01217666666666}, {"fusion_lat": 0.0, "name": "48a6dc7bf57d05fb18fe903bf4b26747", "is_disabled": 0, "rental_uris": {"android": "https://dc.lft.to/lastmile_qr_scan", "ios": "https://dc.lft.to/lastmile_qr_scan"}, "fusion_lon": 0.0, "lat": 38.91990583333333, "bike_id": "48a6dc7bf57d05fb18fe903bf4b26747", "type": "electric_scooter", "is_reserved": 0, "lon": -77.02193066666666}, {"fusion_lat": 0.0, "name": "8cc531a91500387a95ffdca75be1584f", "is_disabled": 0, "rental_uris": {"android": "https://dc.lft.to/lastmile_qr_scan", "ios": "https://dc.lft.to/lastmile_qr_scan"}, "fusion_lon": 0.0, "lat": 38.901714, "bike_id": "8cc531a91500387a95ffdca75be1584f", "type": "electric_scooter", "is_reserved": 0, "lon": -76.9925685}, {"fusion_lat": 0.0, "name": "deb242387c8a86df81d9606e50c97509", "is_disabled": 0, "rental_uris": {"android": "https://dc.lft.to/lastmile_qr_scan", "ios": "https://dc.lft.to/lastmile_qr_scan"}, "fusion_lon": 0.0, "lat": 38.92239566666667, "bike_id": "deb242387c8a86df81d9606e50c97509", "type": "electric_scooter", "is_reserved": 0, "lon": -77.02910383333334}, {"fusion_lat": 0.0, "name": "077bad001f0694c902dd9bdfc4d5233f", "is_disabled": 0, "rental_uris": {"android": "https://dc.lft.to/lastmile_qr_scan", "ios": "https://dc.lft.to/lastmile_qr_scan"}, "fusion_lon": 0.0, "lat": 38.921215833333335, "bike_id": "077bad001f0694c902dd9bdfc4d5233f", "type": "electric_bike", "is_reserved": 0, "lon": -77.01207416666666}, {"fusion_lat": 0.0, "name": "e0623f4df5b2288889974ec7127a4c47", "is_disabled": 0, "rental_uris": {"android": "https://dc.lft.to/lastmile_qr_scan", "ios": "https://dc.lft.to/lastmile_qr_scan"}, "fusion_lon": 0.0, "lat": 38.896170833333336, "bike_id": "e0623f4df5b2288889974ec7127a4c47", "type": "electric_scooter", "is_reserved": 0, "lon": -77.04504116666666}, {"fusion_lat": 0.0, "name": "6d891528d835373e11cc1db5b3f241f8", "is_disabled": 0, "rental_uris": {"android": "https://dc.lft.to/lastmile_qr_scan", "ios": "https://dc.lft.to/lastmile_qr_scan"}, "fusion_lon": 0.0, "lat": 38.892312833333335, "bike_id": "6d891528d835373e11cc1db5b3f241f8", "type": "electric_scooter", "is_reserved": 0, "lon": -76.9882045}, {"fusion_lat": 0.0, "name": "eef35da2424056ace274b43f3117ae5a", "is_disabled": 0, "rental_uris": {"android": "https://dc.lft.to/lastmile_qr_scan", "ios": "https://dc.lft.to/lastmile_qr_scan"}, "fusion_lon": 0.0, "lat": 38.80669366666667, "bike_id": "eef35da2424056ace274b43f3117ae5a", "type": "electric_bike", "is_reserved": 0, "lon": -77.06919566666667}, {"fusion_lat": 0.0, "name": "e3afc7a08b117f03811b59df902141f0", "is_disabled": 0, "rental_uris": {"android": "https://dc.lft.to/lastmile_qr_scan", "ios": "https://dc.lft.to/lastmile_qr_scan"}, "fusion_lon": 0.0, "lat": 38.92179383333333, "bike_id": "e3afc7a08b117f03811b59df902141f0", "type": "electric_scooter", "is_reserved": 0, "lon": -77.04017666666667}, {"fusion_lat": 0.0, "name": "0020ffa835ff16fd45b0d830521dffe6", "is_disabled": 0, "rental_uris": {"android": "https://dc.lft.to/lastmile_qr_scan", "ios": "https://dc.lft.to/lastmile_qr_scan"}, "fusion_lon": 0.0, "lat": 38.8711335, "bike_id": "0020ffa835ff16fd45b0d830521dffe6", "type": "electric_scooter", "is_reserved": 0, "lon": -77.005647}, {"fusion_lat": 0.0, "name": "4576314f7be9e52d45c79c00ad84903e", "is_disabled": 0, "rental_uris": {"android": "https://dc.lft.to/lastmile_qr_scan", "ios": "https://dc.lft.to/lastmile_qr_scan"}, "fusion_lon": 0.0, "lat": 38.90496566666667, "bike_id": "4576314f7be9e52d45c79c00ad84903e", "type": "electric_scooter", "is_reserved": 0, "lon": -77.00923583333334}, {"fusion_lat": 0.0, "name": "2572ce1638fb80cf8b9d4c16edd3bf60", "is_disabled": 0, "rental_uris": {"android": "https://dc.lft.to/lastmile_qr_scan", "ios": "https://dc.lft.to/lastmile_qr_scan"}, "fusion_lon": 0.0, "lat": 38.88449516666667, "bike_id": "2572ce1638fb80cf8b9d4c16edd3bf60", "type": "electric_scooter", "is_reserved": 0, "lon": -76.993912}, {"fusion_lat": 0.0, "name": "326b3d63a352612819847365ef5076e0", "is_disabled": 0, "rental_uris": {"android": "https://dc.lft.to/lastmile_qr_scan", "ios": "https://dc.lft.to/lastmile_qr_scan"}, "fusion_lon": 0.0, "lat": 38.93744233333334, "bike_id": "326b3d63a352612819847365ef5076e0", "type": "electric_scooter", "is_reserved": 0, "lon": -77.03590283333334}, {"fusion_lat": 0.0, "name": "b917765f9a4c5e389bcd39616ba3cd16", "is_disabled": 0, "rental_uris": {"android": "https://dc.lft.to/lastmile_qr_scan", "ios": "https://dc.lft.to/lastmile_qr_scan"}, "fusion_lon": 0.0, "lat": 38.9133535, "bike_id": "b917765f9a4c5e389bcd39616ba3cd16", "type": "electric_scooter", "is_reserved": 0, "lon": -77.01027966666666}, {"fusion_lat": 0.0, "name": "2e2f694366e6ddfa3467f39cb8f81f8d", "is_disabled": 0, "rental_uris": {"android": "https://dc.lft.to/lastmile_qr_scan", "ios": "https://dc.lft.to/lastmile_qr_scan"}, "fusion_lon": 0.0, "lat": 38.90712933333333, "bike_id": "2e2f694366e6ddfa3467f39cb8f81f8d", "type": "electric_scooter", "is_reserved": 0, "lon": -77.05058116666666}, {"fusion_lat": 0.0, "name": "71c130d217bfe02c73b3190a8fded34d", "is_disabled": 0, "rental_uris": {"android": "https://dc.lft.to/lastmile_qr_scan", "ios": "https://dc.lft.to/lastmile_qr_scan"}, "fusion_lon": 0.0, "lat": 38.92081366666667, "bike_id": "71c130d217bfe02c73b3190a8fded34d", "type": "electric_scooter", "is_reserved": 0, "lon": -77.02307216666667}, {"fusion_lat": 0.0, "name": "9834f13382e021d8ce1f4ccadaba3d26", "is_disabled": 0, "rental_uris": {"android": "https://dc.lft.to/lastmile_qr_scan", "ios": "https://dc.lft.to/lastmile_qr_scan"}, "fusion_lon": 0.0, "lat": 38.921162833333334, "bike_id": "9834f13382e021d8ce1f4ccadaba3d26", "type": "electric_scooter", "is_reserved": 0, "lon": -77.072162}, {"fusion_lat": 0.0, "name": "80937c2f6219bc47e357188d25cde49f", "is_disabled": 0, "rental_uris": {"android": "https://dc.lft.to/lastmile_qr_scan", "ios": "https://dc.lft.to/lastmile_qr_scan"}, "fusion_lon": 0.0, "lat": 38.87649433333333, "bike_id": "80937c2f6219bc47e357188d25cde49f", "type": "electric_scooter", "is_reserved": 0, "lon": -77.00817766666667}, {"fusion_lat": 0.0, "name": "2649fe9c8850ca264b702dff851bef42", "is_disabled": 0, "rental_uris": {"android": "https://dc.lft.to/lastmile_qr_scan", "ios": "https://dc.lft.to/lastmile_qr_scan"}, "fusion_lon": 0.0, "lat": 38.889909, "bike_id": "2649fe9c8850ca264b702dff851bef42", "type": "electric_scooter", "is_reserved": 0, "lon": -77.00335666666666}, {"fusion_lat": 0.0, "name": "0a8dab38868667c5ed72392e4b1ea313", "is_disabled": 0, "rental_uris": {"android": "https://dc.lft.to/lastmile_qr_scan", "ios": "https://dc.lft.to/lastmile_qr_scan"}, "fusion_lon": 0.0, "lat": 38.883933999999996, "bike_id": "0a8dab38868667c5ed72392e4b1ea313", "type": "electric_scooter", "is_reserved": 0, "lon": -77.02588316666667}, {"fusion_lat": 0.0, "name": "b26d6561fba3f2b7e7574ab7aecd45e6", "is_disabled": 0, "rental_uris": {"android": "https://dc.lft.to/lastmile_qr_scan", "ios": "https://dc.lft.to/lastmile_qr_scan"}, "fusion_lon": 0.0, "lat": 38.896679666666664, "bike_id": "b26d6561fba3f2b7e7574ab7aecd45e6", "type": "electric_scooter", "is_reserved": 0, "lon": -77.02465733333334}, {"fusion_lat": 0.0, "name": "cc6c79ad75fc97692d9e2fddf62ff706", "is_disabled": 0, "rental_uris": {"android": "https://dc.lft.to/lastmile_qr_scan", "ios": "https://dc.lft.to/lastmile_qr_scan"}, "fusion_lon": 0.0, "lat": 38.899517, "bike_id": "cc6c79ad75fc97692d9e2fddf62ff706", "type": "electric_scooter", "is_reserved": 0, "lon": -77.05712416666667}, {"fusion_lat": 0.0, "name": "742baaca680512635845f12cf14dd56a", "is_disabled": 0, "rental_uris": {"android": "https://dc.lft.to/lastmile_qr_scan", "ios": "https://dc.lft.to/lastmile_qr_scan"}, "fusion_lon": 0.0, "lat": 38.9109985, "bike_id": "742baaca680512635845f12cf14dd56a", "type": "electric_scooter", "is_reserved": 0, "lon": -77.0734995}, {"fusion_lat": 0.0, "name": "4f27424c4d665a4257168048d21f6779", "is_disabled": 0, "rental_uris": {"android": "https://dc.lft.to/lastmile_qr_scan", "ios": "https://dc.lft.to/lastmile_qr_scan"}, "fusion_lon": 0.0, "lat": 38.9084865, "bike_id": "4f27424c4d665a4257168048d21f6779", "type": "electric_scooter", "is_reserved": 0, "lon": -77.03660783333333}, {"fusion_lat": 0.0, "name": "73345b338ed43204be2814f33e0e3444", "is_disabled": 0, "rental_uris": {"android": "https://dc.lft.to/lastmile_qr_scan", "ios": "https://dc.lft.to/lastmile_qr_scan"}, "fusion_lon": 0.0, "lat": 38.92383366666667, "bike_id": "73345b338ed43204be2814f33e0e3444", "type": "electric_scooter", "is_reserved": 0, "lon": -77.03183816666666}, {"fusion_lat": 0.0, "name": "6899d835dc1279c484388991691bd62f", "is_disabled": 0, "rental_uris": {"android": "https://dc.lft.to/lastmile_qr_scan", "ios": "https://dc.lft.to/lastmile_qr_scan"}, "fusion_lon": 0.0, "lat": 38.957593333333335, "bike_id": "6899d835dc1279c484388991691bd62f", "type": "electric_bike", "is_reserved": 0, "lon": -77.02055216666666}, {"fusion_lat": 0.0, "name": "e92b81e6ebd6c41f8011131fd902ec3a", "is_disabled": 0, "rental_uris": {"android": "https://dc.lft.to/lastmile_qr_scan", "ios": "https://dc.lft.to/lastmile_qr_scan"}, "fusion_lon": 0.0, "lat": 38.874518, "bike_id": "e92b81e6ebd6c41f8011131fd902ec3a", "type": "electric_scooter", "is_reserved": 0, "lon": -77.002924}, {"fusion_lat": 0.0, "name": "1b5315c0eba1798aa1e53ddf6f43e155", "is_disabled": 0, "rental_uris": {"android": "https://dc.lft.to/lastmile_qr_scan", "ios": "https://dc.lft.to/lastmile_qr_scan"}, "fusion_lon": 0.0, "lat": 38.90256933333333, "bike_id": "1b5315c0eba1798aa1e53ddf6f43e155", "type": "electric_scooter", "is_reserved": 0, "lon": -76.97450416666666}, {"fusion_lat": 0.0, "name": "60437bb880da1a28434c94dcec79eb23", "is_disabled": 0, "rental_uris": {"android": "https://dc.lft.to/lastmile_qr_scan", "ios": "https://dc.lft.to/lastmile_qr_scan"}, "fusion_lon": 0.0, "lat": 38.90134783333333, "bike_id": "60437bb880da1a28434c94dcec79eb23", "type": "electric_scooter", "is_reserved": 0, "lon": -77.02269066666666}, {"fusion_lat": 0.0, "name": "2a1aada60314b5b314bc868ccabfd161", "is_disabled": 0, "rental_uris": {"android": "https://dc.lft.to/lastmile_qr_scan", "ios": "https://dc.lft.to/lastmile_qr_scan"}, "fusion_lon": 0.0, "lat": 38.91841383333333, "bike_id": "2a1aada60314b5b314bc868ccabfd161", "type": "electric_scooter", "is_reserved": 0, "lon": -77.0228025}, {"fusion_lat": 0.0, "name": "85ba00128fa58d0b0928c43583eb98da", "is_disabled": 0, "rental_uris": {"android": "https://dc.lft.to/lastmile_qr_scan", "ios": "https://dc.lft.to/lastmile_qr_scan"}, "fusion_lon": 0.0, "lat": 38.860204333333336, "bike_id": "85ba00128fa58d0b0928c43583eb98da", "type": "electric_bike", "is_reserved": 0, "lon": -77.128014}, {"fusion_lat": 0.0, "name": "0ab4ace2ad85fbf31f55915ded3de35d", "is_disabled": 0, "rental_uris": {"android": "https://dc.lft.to/lastmile_qr_scan", "ios": "https://dc.lft.to/lastmile_qr_scan"}, "fusion_lon": 0.0, "lat": 38.923186333333334, "bike_id": "0ab4ace2ad85fbf31f55915ded3de35d", "type": "electric_scooter", "is_reserved": 0, "lon": -77.02042216666666}, {"fusion_lat": 0.0, "name": "1cfb25919965db1ff468bea5179e2df1", "is_disabled": 0, "rental_uris": {"android": "https://dc.lft.to/lastmile_qr_scan", "ios": "https://dc.lft.to/lastmile_qr_scan"}, "fusion_lon": 0.0, "lat": 38.907780833333334, "bike_id": "1cfb25919965db1ff468bea5179e2df1", "type": "electric_scooter", "is_reserved": 0, "lon": -77.0421825}, {"fusion_lat": 0.0, "name": "573eff3474c5e980ae574ed80827203c", "is_disabled": 0, "rental_uris": {"android": "https://dc.lft.to/lastmile_qr_scan", "ios": "https://dc.lft.to/lastmile_qr_scan"}, "fusion_lon": 0.0, "lat": 38.930749666666664, "bike_id": "573eff3474c5e980ae574ed80827203c", "type": "electric_scooter", "is_reserved": 0, "lon": -77.0775555}, {"fusion_lat": 0.0, "name": "4d5d7f46902c63636101d8188bff02f2", "is_disabled": 0, "rental_uris": {"android": "https://dc.lft.to/lastmile_qr_scan", "ios": "https://dc.lft.to/lastmile_qr_scan"}, "fusion_lon": 0.0, "lat": 38.904760833333334, "bike_id": "4d5d7f46902c63636101d8188bff02f2", "type": "electric_scooter", "is_reserved": 0, "lon": -77.03217733333334}, {"fusion_lat": 0.0, "name": "f2e71aed36f461d7e97bbb316bb980f2", "is_disabled": 0, "rental_uris": {"android": "https://dc.lft.to/lastmile_qr_scan", "ios": "https://dc.lft.to/lastmile_qr_scan"}, "fusion_lon": 0.0, "lat": 38.91339333333333, "bike_id": "f2e71aed36f461d7e97bbb316bb980f2", "type": "electric_scooter", "is_reserved": 0, "lon": -77.03176983333333}, {"fusion_lat": 0.0, "name": "ec37faf4867762b9a7a823ed62bb748e", "is_disabled": 0, "rental_uris": {"android": "https://dc.lft.to/lastmile_qr_scan", "ios": "https://dc.lft.to/lastmile_qr_scan"}, "fusion_lon": 0.0, "lat": 38.94099333333333, "bike_id": "ec37faf4867762b9a7a823ed62bb748e", "type": "electric_scooter", "is_reserved": 0, "lon": -77.03280183333334}, {"fusion_lat": 0.0, "name": "deb15a4aa86cd6a52c2793395748c2fa", "is_disabled": 0, "rental_uris": {"android": "https://dc.lft.to/lastmile_qr_scan", "ios": "https://dc.lft.to/lastmile_qr_scan"}, "fusion_lon": 0.0, "lat": 38.918453, "bike_id": "deb15a4aa86cd6a52c2793395748c2fa", "type": "electric_scooter", "is_reserved": 0, "lon": -77.03506133333333}, {"fusion_lat": 0.0, "name": "dd2135f82d60758808aa4c092d0dde6d", "is_disabled": 0, "rental_uris": {"android": "https://dc.lft.to/lastmile_qr_scan", "ios": "https://dc.lft.to/lastmile_qr_scan"}, "fusion_lon": 0.0, "lat": 38.921148333333335, "bike_id": "dd2135f82d60758808aa4c092d0dde6d", "type": "electric_scooter", "is_reserved": 0, "lon": -77.04207216666667}, {"fusion_lat": 0.0, "name": "7b14d0f614e9e558b82f71b9aa962878", "is_disabled": 0, "rental_uris": {"android": "https://dc.lft.to/lastmile_qr_scan", "ios": "https://dc.lft.to/lastmile_qr_scan"}, "fusion_lon": 0.0, "lat": 38.9063325, "bike_id": "7b14d0f614e9e558b82f71b9aa962878", "type": "electric_scooter", "is_reserved": 0, "lon": -77.0486225}, {"fusion_lat": 0.0, "name": "820bf340d49ffd4acee717951439bf04", "is_disabled": 0, "rental_uris": {"android": "https://dc.lft.to/lastmile_qr_scan", "ios": "https://dc.lft.to/lastmile_qr_scan"}, "fusion_lon": 0.0, "lat": 38.931009, "bike_id": "820bf340d49ffd4acee717951439bf04", "type": "electric_scooter", "is_reserved": 0, "lon": -77.024788}, {"fusion_lat": 0.0, "name": "f88cdb9db3c3bee4772f46aca27e3ce1", "is_disabled": 0, "rental_uris": {"android": "https://dc.lft.to/lastmile_qr_scan", "ios": "https://dc.lft.to/lastmile_qr_scan"}, "fusion_lon": 0.0, "lat": 38.91342983333333, "bike_id": "f88cdb9db3c3bee4772f46aca27e3ce1", "type": "electric_scooter", "is_reserved": 0, "lon": -77.042718}, {"fusion_lat": 0.0, "name": "c1bc515d14796b4f80b25801139bf2de", "is_disabled": 0, "rental_uris": {"android": "https://dc.lft.to/lastmile_qr_scan", "ios": "https://dc.lft.to/lastmile_qr_scan"}, "fusion_lon": 0.0, "lat": 38.901767666666665, "bike_id": "c1bc515d14796b4f80b25801139bf2de", "type": "electric_scooter", "is_reserved": 0, "lon": -76.992524}, {"fusion_lat": 0.0, "name": "bb35893f24d949e63fc5d3e768d96c9e", "is_disabled": 0, "rental_uris": {"android": "https://dc.lft.to/lastmile_qr_scan", "ios": "https://dc.lft.to/lastmile_qr_scan"}, "fusion_lon": 0.0, "lat": 38.847555166666666, "bike_id": "bb35893f24d949e63fc5d3e768d96c9e", "type": "electric_scooter", "is_reserved": 0, "lon": -76.99500883333333}, {"fusion_lat": 0.0, "name": "01cdc0d92e6d6cc904afbd9dc4728199", "is_disabled": 0, "rental_uris": {"android": "https://dc.lft.to/lastmile_qr_scan", "ios": "https://dc.lft.to/lastmile_qr_scan"}, "fusion_lon": 0.0, "lat": 38.9160975, "bike_id": "01cdc0d92e6d6cc904afbd9dc4728199", "type": "electric_scooter", "is_reserved": 0, "lon": -77.022978}, {"fusion_lat": 0.0, "name": "838a84f5ae3ddbe44d3d1992a3c38ccd", "is_disabled": 0, "rental_uris": {"android": "https://dc.lft.to/lastmile_qr_scan", "ios": "https://dc.lft.to/lastmile_qr_scan"}, "fusion_lon": 0.0, "lat": 38.936286833333334, "bike_id": "838a84f5ae3ddbe44d3d1992a3c38ccd", "type": "electric_scooter", "is_reserved": 0, "lon": -77.07314650000001}, {"fusion_lat": 0.0, "name": "5f8e2230aaf52d33ebf6756c8ecc6908", "is_disabled": 0, "rental_uris": {"android": "https://dc.lft.to/lastmile_qr_scan", "ios": "https://dc.lft.to/lastmile_qr_scan"}, "fusion_lon": 0.0, "lat": 38.88755583333333, "bike_id": "5f8e2230aaf52d33ebf6756c8ecc6908", "type": "electric_scooter", "is_reserved": 0, "lon": -76.997866}, {"fusion_lat": 0.0, "name": "d98b4bd89daf0a2d9dc4c36c31644f16", "is_disabled": 0, "rental_uris": {"android": "https://dc.lft.to/lastmile_qr_scan", "ios": "https://dc.lft.to/lastmile_qr_scan"}, "fusion_lon": 0.0, "lat": 38.90055683333333, "bike_id": "d98b4bd89daf0a2d9dc4c36c31644f16", "type": "electric_scooter", "is_reserved": 0, "lon": -77.04482366666667}, {"fusion_lat": 0.0, "name": "8db55fcaf5fcd91b098c851d9463069c", "is_disabled": 0, "rental_uris": {"android": "https://dc.lft.to/lastmile_qr_scan", "ios": "https://dc.lft.to/lastmile_qr_scan"}, "fusion_lon": 0.0, "lat": 38.92347, "bike_id": "8db55fcaf5fcd91b098c851d9463069c", "type": "electric_scooter", "is_reserved": 0, "lon": -76.9924015}, {"fusion_lat": 0.0, "name": "ede49024f63c7c91f74095cdb26dedb1", "is_disabled": 0, "rental_uris": {"android": "https://dc.lft.to/lastmile_qr_scan", "ios": "https://dc.lft.to/lastmile_qr_scan"}, "fusion_lon": 0.0, "lat": 38.91677516666667, "bike_id": "ede49024f63c7c91f74095cdb26dedb1", "type": "electric_scooter", "is_reserved": 0, "lon": -77.02399033333333}, {"fusion_lat": 0.0, "name": "cfc051bf83e4b1275bf0146e15b04212", "is_disabled": 0, "rental_uris": {"android": "https://dc.lft.to/lastmile_qr_scan", "ios": "https://dc.lft.to/lastmile_qr_scan"}, "fusion_lon": 0.0, "lat": 38.94515766666667, "bike_id": "cfc051bf83e4b1275bf0146e15b04212", "type": "electric_scooter", "is_reserved": 0, "lon": -77.03885366666667}, {"fusion_lat": 0.0, "name": "4d54003072a15ce19f11b5bad46a16fd", "is_disabled": 0, "rental_uris": {"android": "https://dc.lft.to/lastmile_qr_scan", "ios": "https://dc.lft.to/lastmile_qr_scan"}, "fusion_lon": 0.0, "lat": 38.91914516666667, "bike_id": "4d54003072a15ce19f11b5bad46a16fd", "type": "electric_scooter", "is_reserved": 0, "lon": -77.02504183333333}, {"fusion_lat": 0.0, "name": "43749d78312e1dc9aaa8dfb16c7ca897", "is_disabled": 0, "rental_uris": {"android": "https://dc.lft.to/lastmile_qr_scan", "ios": "https://dc.lft.to/lastmile_qr_scan"}, "fusion_lon": 0.0, "lat": 38.9360475, "bike_id": "43749d78312e1dc9aaa8dfb16c7ca897", "type": "electric_scooter", "is_reserved": 0, "lon": -77.02306116666666}, {"fusion_lat": 0.0, "name": "c74ae8047084d09fe8328757462ca20f", "is_disabled": 0, "rental_uris": {"android": "https://dc.lft.to/lastmile_qr_scan", "ios": "https://dc.lft.to/lastmile_qr_scan"}, "fusion_lon": 0.0, "lat": 38.8923, "bike_id": "c74ae8047084d09fe8328757462ca20f", "type": "electric_scooter", "is_reserved": 0, "lon": -77.02782883333333}, {"fusion_lat": 0.0, "name": "d5235866b0c749f27d3309c69c896b00", "is_disabled": 0, "rental_uris": {"android": "https://dc.lft.to/lastmile_qr_scan", "ios": "https://dc.lft.to/lastmile_qr_scan"}, "fusion_lon": 0.0, "lat": 38.92275516666667, "bike_id": "d5235866b0c749f27d3309c69c896b00", "type": "electric_scooter", "is_reserved": 0, "lon": -77.04230733333333}, {"fusion_lat": 0.0, "name": "8c92b9a0bb552b2efaf0981a7de03516", "is_disabled": 0, "rental_uris": {"android": "https://dc.lft.to/lastmile_qr_scan", "ios": "https://dc.lft.to/lastmile_qr_scan"}, "fusion_lon": 0.0, "lat": 38.926706333333335, "bike_id": "8c92b9a0bb552b2efaf0981a7de03516", "type": "electric_scooter", "is_reserved": 0, "lon": -77.030495}, {"fusion_lat": 0.0, "name": "4b83a5312e4e4eda6d3f5eda97afc8b0", "is_disabled": 0, "rental_uris": {"android": "https://dc.lft.to/lastmile_qr_scan", "ios": "https://dc.lft.to/lastmile_qr_scan"}, "fusion_lon": 0.0, "lat": 38.920731833333335, "bike_id": "4b83a5312e4e4eda6d3f5eda97afc8b0", "type": "electric_scooter", "is_reserved": 0, "lon": -76.99172283333333}, {"fusion_lat": 0.0, "name": "4623b9fe5ca9bbbf78a2ce419e0d0de9", "is_disabled": 0, "rental_uris": {"android": "https://dc.lft.to/lastmile_qr_scan", "ios": "https://dc.lft.to/lastmile_qr_scan"}, "fusion_lon": 0.0, "lat": 38.944336, "bike_id": "4623b9fe5ca9bbbf78a2ce419e0d0de9", "type": "electric_bike", "is_reserved": 0, "lon": -77.02604316666667}, {"fusion_lat": 0.0, "name": "7bc59b0662c6ce2049a2a60ff2d2a6f3", "is_disabled": 0, "rental_uris": {"android": "https://dc.lft.to/lastmile_qr_scan", "ios": "https://dc.lft.to/lastmile_qr_scan"}, "fusion_lon": 0.0, "lat": 38.926858833333334, "bike_id": "7bc59b0662c6ce2049a2a60ff2d2a6f3", "type": "electric_scooter", "is_reserved": 0, "lon": -77.03224666666667}, {"fusion_lat": 0.0, "name": "43c5ad53afc34f14ebe45400cf72e850", "is_disabled": 0, "rental_uris": {"android": "https://dc.lft.to/lastmile_qr_scan", "ios": "https://dc.lft.to/lastmile_qr_scan"}, "fusion_lon": 0.0, "lat": 38.954633666666666, "bike_id": "43c5ad53afc34f14ebe45400cf72e850", "type": "electric_scooter", "is_reserved": 0, "lon": -77.00790583333334}, {"fusion_lat": 0.0, "name": "c7044949e88ce5ba40efe4fa49e838f4", "is_disabled": 0, "rental_uris": {"android": "https://dc.lft.to/lastmile_qr_scan", "ios": "https://dc.lft.to/lastmile_qr_scan"}, "fusion_lon": 0.0, "lat": 38.8909105, "bike_id": "c7044949e88ce5ba40efe4fa49e838f4", "type": "electric_scooter", "is_reserved": 0, "lon": -76.91916733333333}, {"fusion_lat": 0.0, "name": "58a37ad0f113cfedd65fd21692316894", "is_disabled": 0, "rental_uris": {"android": "https://dc.lft.to/lastmile_qr_scan", "ios": "https://dc.lft.to/lastmile_qr_scan"}, "fusion_lon": 0.0, "lat": 38.905062666666666, "bike_id": "58a37ad0f113cfedd65fd21692316894", "type": "electric_scooter", "is_reserved": 0, "lon": -76.98479416666666}, {"fusion_lat": 0.0, "name": "c1fbc64277b9ce11f410cc4da4b3060a", "is_disabled": 0, "rental_uris": {"android": "https://dc.lft.to/lastmile_qr_scan", "ios": "https://dc.lft.to/lastmile_qr_scan"}, "fusion_lon": 0.0, "lat": 38.88008283333333, "bike_id": "c1fbc64277b9ce11f410cc4da4b3060a", "type": "electric_scooter", "is_reserved": 0, "lon": -76.98464433333334}, {"fusion_lat": 0.0, "name": "6b6e1aeb0a93d3535891d1fb12c68079", "is_disabled": 0, "rental_uris": {"android": "https://dc.lft.to/lastmile_qr_scan", "ios": "https://dc.lft.to/lastmile_qr_scan"}, "fusion_lon": 0.0, "lat": 38.92081616666667, "bike_id": "6b6e1aeb0a93d3535891d1fb12c68079", "type": "electric_scooter", "is_reserved": 0, "lon": -77.0139275}, {"fusion_lat": 0.0, "name": "d1b609ceecfba6abf4b99d55e17a6ff0", "is_disabled": 0, "rental_uris": {"android": "https://dc.lft.to/lastmile_qr_scan", "ios": "https://dc.lft.to/lastmile_qr_scan"}, "fusion_lon": 0.0, "lat": 38.90946816666667, "bike_id": "d1b609ceecfba6abf4b99d55e17a6ff0", "type": "electric_scooter", "is_reserved": 0, "lon": -77.01884383333334}, {"fusion_lat": 0.0, "name": "31c4dd458d03a0921bf5bee484f999f8", "is_disabled": 0, "rental_uris": {"android": "https://dc.lft.to/lastmile_qr_scan", "ios": "https://dc.lft.to/lastmile_qr_scan"}, "fusion_lon": 0.0, "lat": 38.853219, "bike_id": "31c4dd458d03a0921bf5bee484f999f8", "type": "electric_scooter", "is_reserved": 0, "lon": -76.980036}, {"fusion_lat": 0.0, "name": "d2e647d06d00fe05fa3db815c5ede173", "is_disabled": 0, "rental_uris": {"android": "https://dc.lft.to/lastmile_qr_scan", "ios": "https://dc.lft.to/lastmile_qr_scan"}, "fusion_lon": 0.0, "lat": 38.910427166666665, "bike_id": "d2e647d06d00fe05fa3db815c5ede173", "type": "electric_scooter", "is_reserved": 0, "lon": -77.0082715}, {"fusion_lat": 0.0, "name": "ccddbda94377da5f7e5fd6387cac132d", "is_disabled": 0, "rental_uris": {"android": "https://dc.lft.to/lastmile_qr_scan", "ios": "https://dc.lft.to/lastmile_qr_scan"}, "fusion_lon": 0.0, "lat": 38.900916333333335, "bike_id": "ccddbda94377da5f7e5fd6387cac132d", "type": "electric_scooter", "is_reserved": 0, "lon": -76.98333583333333}, {"fusion_lat": 0.0, "name": "9b0d07987a0db6f0f86c926c65198329", "is_disabled": 0, "rental_uris": {"android": "https://dc.lft.to/lastmile_qr_scan", "ios": "https://dc.lft.to/lastmile_qr_scan"}, "fusion_lon": 0.0, "lat": 38.892254333333334, "bike_id": "9b0d07987a0db6f0f86c926c65198329", "type": "electric_scooter", "is_reserved": 0, "lon": -77.02510133333334}, {"fusion_lat": 0.0, "name": "dce64a5f22d150175ee6222c0f715404", "is_disabled": 0, "rental_uris": {"android": "https://dc.lft.to/lastmile_qr_scan", "ios": "https://dc.lft.to/lastmile_qr_scan"}, "fusion_lon": 0.0, "lat": 38.9347175, "bike_id": "dce64a5f22d150175ee6222c0f715404", "type": "electric_scooter", "is_reserved": 0, "lon": -77.07213683333333}, {"fusion_lat": 0.0, "name": "2a07e784f03a92b832082c8cb1f8d44c", "is_disabled": 0, "rental_uris": {"android": "https://dc.lft.to/lastmile_qr_scan", "ios": "https://dc.lft.to/lastmile_qr_scan"}, "fusion_lon": 0.0, "lat": 38.93879066666667, "bike_id": "2a07e784f03a92b832082c8cb1f8d44c", "type": "electric_scooter", "is_reserved": 0, "lon": -77.0246235}, {"fusion_lat": 0.0, "name": "6a294528032239d888a1f8d87d2e49cf", "is_disabled": 0, "rental_uris": {"android": "https://dc.lft.to/lastmile_qr_scan", "ios": "https://dc.lft.to/lastmile_qr_scan"}, "fusion_lon": 0.0, "lat": 38.901373666666665, "bike_id": "6a294528032239d888a1f8d87d2e49cf", "type": "electric_scooter", "is_reserved": 0, "lon": -77.041827}, {"fusion_lat": 0.0, "name": "5eeb59115956ad82cecb9f8c6fbfef38", "is_disabled": 0, "rental_uris": {"android": "https://dc.lft.to/lastmile_qr_scan", "ios": "https://dc.lft.to/lastmile_qr_scan"}, "fusion_lon": 0.0, "lat": 38.8814275, "bike_id": "5eeb59115956ad82cecb9f8c6fbfef38", "type": "electric_scooter", "is_reserved": 0, "lon": -76.9949525}, {"fusion_lat": 0.0, "name": "3f9aa55acaa81aab1197b5213825358b", "is_disabled": 0, "rental_uris": {"android": "https://dc.lft.to/lastmile_qr_scan", "ios": "https://dc.lft.to/lastmile_qr_scan"}, "fusion_lon": 0.0, "lat": 38.92077183333333, "bike_id": "3f9aa55acaa81aab1197b5213825358b", "type": "electric_scooter", "is_reserved": 0, "lon": -77.02520233333334}, {"fusion_lat": 0.0, "name": "dc5ee9b2aa2b2a19b7be0776e0be1fb7", "is_disabled": 0, "rental_uris": {"android": "https://dc.lft.to/lastmile_qr_scan", "ios": "https://dc.lft.to/lastmile_qr_scan"}, "fusion_lon": 0.0, "lat": 38.966689833333334, "bike_id": "dc5ee9b2aa2b2a19b7be0776e0be1fb7", "type": "electric_scooter", "is_reserved": 0, "lon": -77.02544866666666}, {"fusion_lat": 0.0, "name": "ee82c04d845427e985cfb9f75faef60c", "is_disabled": 0, "rental_uris": {"android": "https://dc.lft.to/lastmile_qr_scan", "ios": "https://dc.lft.to/lastmile_qr_scan"}, "fusion_lon": 0.0, "lat": 38.91408216666667, "bike_id": "ee82c04d845427e985cfb9f75faef60c", "type": "electric_scooter", "is_reserved": 0, "lon": -77.04090816666667}, {"fusion_lat": 0.0, "name": "ba570729a9eb77c2c9373ec05f207939", "is_disabled": 0, "rental_uris": {"android": "https://dc.lft.to/lastmile_qr_scan", "ios": "https://dc.lft.to/lastmile_qr_scan"}, "fusion_lon": 0.0, "lat": 38.889953166666665, "bike_id": "ba570729a9eb77c2c9373ec05f207939", "type": "electric_scooter", "is_reserved": 0, "lon": -76.99244333333333}, {"fusion_lat": 0.0, "name": "b0c6a93b81c26f74b25b8c56805ed4a7", "is_disabled": 0, "rental_uris": {"android": "https://dc.lft.to/lastmile_qr_scan", "ios": "https://dc.lft.to/lastmile_qr_scan"}, "fusion_lon": 0.0, "lat": 38.91112533333333, "bike_id": "b0c6a93b81c26f74b25b8c56805ed4a7", "type": "electric_scooter", "is_reserved": 0, "lon": -77.00995783333333}, {"fusion_lat": 0.0, "name": "6dd9ea28050fcd8b7e4ac0c8b2683767", "is_disabled": 0, "rental_uris": {"android": "https://dc.lft.to/lastmile_qr_scan", "ios": "https://dc.lft.to/lastmile_qr_scan"}, "fusion_lon": 0.0, "lat": 38.899735666666665, "bike_id": "6dd9ea28050fcd8b7e4ac0c8b2683767", "type": "electric_scooter", "is_reserved": 0, "lon": -77.052666}, {"fusion_lat": 0.0, "name": "15338db2aa5a3c33c1cc95b7e69c8913", "is_disabled": 0, "rental_uris": {"android": "https://dc.lft.to/lastmile_qr_scan", "ios": "https://dc.lft.to/lastmile_qr_scan"}, "fusion_lon": 0.0, "lat": 38.908426, "bike_id": "15338db2aa5a3c33c1cc95b7e69c8913", "type": "electric_scooter", "is_reserved": 0, "lon": -77.00091983333333}, {"fusion_lat": 0.0, "name": "6df8d8ec7c84a307b5bd7f29b4bc2f6f", "is_disabled": 0, "rental_uris": {"android": "https://dc.lft.to/lastmile_qr_scan", "ios": "https://dc.lft.to/lastmile_qr_scan"}, "fusion_lon": 0.0, "lat": 38.943309166666666, "bike_id": "6df8d8ec7c84a307b5bd7f29b4bc2f6f", "type": "electric_scooter", "is_reserved": 0, "lon": -77.015509}, {"fusion_lat": 0.0, "name": "42dee1fbda45857cfe8c47d97575e67a", "is_disabled": 0, "rental_uris": {"android": "https://dc.lft.to/lastmile_qr_scan", "ios": "https://dc.lft.to/lastmile_qr_scan"}, "fusion_lon": 0.0, "lat": 38.924782666666665, "bike_id": "42dee1fbda45857cfe8c47d97575e67a", "type": "electric_scooter", "is_reserved": 0, "lon": -77.02669483333334}, {"fusion_lat": 0.0, "name": "c71bebbe79a25e9a9c755005fd0f3afa", "is_disabled": 0, "rental_uris": {"android": "https://dc.lft.to/lastmile_qr_scan", "ios": "https://dc.lft.to/lastmile_qr_scan"}, "fusion_lon": 0.0, "lat": 38.896068, "bike_id": "c71bebbe79a25e9a9c755005fd0f3afa", "type": "electric_scooter", "is_reserved": 0, "lon": -76.98108733333333}, {"fusion_lat": 0.0, "name": "1fb281f0dc366f94f52721b18e2cab5f", "is_disabled": 0, "rental_uris": {"android": "https://dc.lft.to/lastmile_qr_scan", "ios": "https://dc.lft.to/lastmile_qr_scan"}, "fusion_lon": 0.0, "lat": 38.8901485, "bike_id": "1fb281f0dc366f94f52721b18e2cab5f", "type": "electric_scooter", "is_reserved": 0, "lon": -76.9373385}, {"fusion_lat": 0.0, "name": "d43ce64f74c65b207a8089c52a144f4d", "is_disabled": 0, "rental_uris": {"android": "https://dc.lft.to/lastmile_qr_scan", "ios": "https://dc.lft.to/lastmile_qr_scan"}, "fusion_lon": 0.0, "lat": 38.920154, "bike_id": "d43ce64f74c65b207a8089c52a144f4d", "type": "electric_bike", "is_reserved": 0, "lon": -76.9906745}, {"fusion_lat": 0.0, "name": "5a6b84c1715016ea68f7fee85746c4db", "is_disabled": 0, "rental_uris": {"android": "https://dc.lft.to/lastmile_qr_scan", "ios": "https://dc.lft.to/lastmile_qr_scan"}, "fusion_lon": 0.0, "lat": 38.901581, "bike_id": "5a6b84c1715016ea68f7fee85746c4db", "type": "electric_scooter", "is_reserved": 0, "lon": -77.0317185}, {"fusion_lat": 0.0, "name": "1ec6edced181e492e9278afef4dfcde9", "is_disabled": 0, "rental_uris": {"android": "https://dc.lft.to/lastmile_qr_scan", "ios": "https://dc.lft.to/lastmile_qr_scan"}, "fusion_lon": 0.0, "lat": 38.91956833333333, "bike_id": "1ec6edced181e492e9278afef4dfcde9", "type": "electric_scooter", "is_reserved": 0, "lon": -77.0414745}, {"fusion_lat": 0.0, "name": "5e6a60880eb691d4bfd0d69d2de6c9a3", "is_disabled": 0, "rental_uris": {"android": "https://dc.lft.to/lastmile_qr_scan", "ios": "https://dc.lft.to/lastmile_qr_scan"}, "fusion_lon": 0.0, "lat": 38.8788525, "bike_id": "5e6a60880eb691d4bfd0d69d2de6c9a3", "type": "electric_scooter", "is_reserved": 0, "lon": -76.965437}, {"fusion_lat": 0.0, "name": "5e66145cb62b55dc74262bf358c39084", "is_disabled": 0, "rental_uris": {"android": "https://dc.lft.to/lastmile_qr_scan", "ios": "https://dc.lft.to/lastmile_qr_scan"}, "fusion_lon": 0.0, "lat": 38.906355833333336, "bike_id": "5e66145cb62b55dc74262bf358c39084", "type": "electric_scooter", "is_reserved": 0, "lon": -77.04864866666667}, {"fusion_lat": 0.0, "name": "26b72c8f84bd707f9254cb39fd47a794", "is_disabled": 0, "rental_uris": {"android": "https://dc.lft.to/lastmile_qr_scan", "ios": "https://dc.lft.to/lastmile_qr_scan"}, "fusion_lon": 0.0, "lat": 38.920358666666665, "bike_id": "26b72c8f84bd707f9254cb39fd47a794", "type": "electric_scooter", "is_reserved": 0, "lon": -77.03158683333334}, {"fusion_lat": 0.0, "name": "51ffa9bc35b6613da2a3081cbb0fd3d7", "is_disabled": 0, "rental_uris": {"android": "https://dc.lft.to/lastmile_qr_scan", "ios": "https://dc.lft.to/lastmile_qr_scan"}, "fusion_lon": 0.0, "lat": 38.911566, "bike_id": "51ffa9bc35b6613da2a3081cbb0fd3d7", "type": "electric_scooter", "is_reserved": 0, "lon": -76.98721683333333}, {"fusion_lat": 0.0, "name": "770f716768250767b521d8905507bf8c", "is_disabled": 0, "rental_uris": {"android": "https://dc.lft.to/lastmile_qr_scan", "ios": "https://dc.lft.to/lastmile_qr_scan"}, "fusion_lon": 0.0, "lat": 38.89844016666667, "bike_id": "770f716768250767b521d8905507bf8c", "type": "electric_scooter", "is_reserved": 0, "lon": -77.0221425}, {"fusion_lat": 0.0, "name": "a964e214f53e2ae88d7271419bbcd761", "is_disabled": 0, "rental_uris": {"android": "https://dc.lft.to/lastmile_qr_scan", "ios": "https://dc.lft.to/lastmile_qr_scan"}, "fusion_lon": 0.0, "lat": 38.903982, "bike_id": "a964e214f53e2ae88d7271419bbcd761", "type": "electric_scooter", "is_reserved": 0, "lon": -77.03635583333333}, {"fusion_lat": 0.0, "name": "70a45d655a093b3001df7d11fa4521e9", "is_disabled": 0, "rental_uris": {"android": "https://dc.lft.to/lastmile_qr_scan", "ios": "https://dc.lft.to/lastmile_qr_scan"}, "fusion_lon": 0.0, "lat": 38.89520433333333, "bike_id": "70a45d655a093b3001df7d11fa4521e9", "type": "electric_scooter", "is_reserved": 0, "lon": -77.00916816666667}, {"fusion_lat": 0.0, "name": "c1671b8790b22e9de178dc87af72f1a5", "is_disabled": 0, "rental_uris": {"android": "https://dc.lft.to/lastmile_qr_scan", "ios": "https://dc.lft.to/lastmile_qr_scan"}, "fusion_lon": 0.0, "lat": 38.87381883333333, "bike_id": "c1671b8790b22e9de178dc87af72f1a5", "type": "electric_scooter", "is_reserved": 0, "lon": -77.0006695}, {"fusion_lat": 0.0, "name": "2054aeb854b3839534184eba91beb14f", "is_disabled": 0, "rental_uris": {"android": "https://dc.lft.to/lastmile_qr_scan", "ios": "https://dc.lft.to/lastmile_qr_scan"}, "fusion_lon": 0.0, "lat": 38.903009833333336, "bike_id": "2054aeb854b3839534184eba91beb14f", "type": "electric_scooter", "is_reserved": 0, "lon": -76.99253383333334}, {"fusion_lat": 0.0, "name": "73bea8f797543c936051ee4103ecb34c", "is_disabled": 0, "rental_uris": {"android": "https://dc.lft.to/lastmile_qr_scan", "ios": "https://dc.lft.to/lastmile_qr_scan"}, "fusion_lon": 0.0, "lat": 38.88392483333333, "bike_id": "73bea8f797543c936051ee4103ecb34c", "type": "electric_scooter", "is_reserved": 0, "lon": -76.9854885}, {"fusion_lat": 0.0, "name": "3390371a14ef0d1ab780dc1d872ca036", "is_disabled": 0, "rental_uris": {"android": "https://dc.lft.to/lastmile_qr_scan", "ios": "https://dc.lft.to/lastmile_qr_scan"}, "fusion_lon": 0.0, "lat": 38.913472166666665, "bike_id": "3390371a14ef0d1ab780dc1d872ca036", "type": "electric_bike", "is_reserved": 0, "lon": -76.98889616666666}, {"fusion_lat": 0.0, "name": "ad52ab7ef17b1c3293e556d8c8f25b1c", "is_disabled": 0, "rental_uris": {"android": "https://dc.lft.to/lastmile_qr_scan", "ios": "https://dc.lft.to/lastmile_qr_scan"}, "fusion_lon": 0.0, "lat": 38.92682333333333, "bike_id": "ad52ab7ef17b1c3293e556d8c8f25b1c", "type": "electric_scooter", "is_reserved": 0, "lon": -77.03142483333333}, {"fusion_lat": 0.0, "name": "0be1e54b165ec5f5b5eb4b6dcc4343b1", "is_disabled": 0, "rental_uris": {"android": "https://dc.lft.to/lastmile_qr_scan", "ios": "https://dc.lft.to/lastmile_qr_scan"}, "fusion_lon": 0.0, "lat": 38.899521, "bike_id": "0be1e54b165ec5f5b5eb4b6dcc4343b1", "type": "electric_scooter", "is_reserved": 0, "lon": -77.05471283333334}, {"fusion_lat": 0.0, "name": "59933357af5c0245c5afd2b7023bf178", "is_disabled": 0, "rental_uris": {"android": "https://dc.lft.to/lastmile_qr_scan", "ios": "https://dc.lft.to/lastmile_qr_scan"}, "fusion_lon": 0.0, "lat": 38.90139966666667, "bike_id": "59933357af5c0245c5afd2b7023bf178", "type": "electric_scooter", "is_reserved": 0, "lon": -76.9912005}, {"fusion_lat": 0.0, "name": "eaa08b44ba3b1aa36726fec8f67645d9", "is_disabled": 0, "rental_uris": {"android": "https://dc.lft.to/lastmile_qr_scan", "ios": "https://dc.lft.to/lastmile_qr_scan"}, "fusion_lon": 0.0, "lat": 38.909591666666664, "bike_id": "eaa08b44ba3b1aa36726fec8f67645d9", "type": "electric_scooter", "is_reserved": 0, "lon": -77.02281716666667}, {"fusion_lat": 0.0, "name": "8f35078862c2d9bd5e9dfdbcbb400fad", "is_disabled": 0, "rental_uris": {"android": "https://dc.lft.to/lastmile_qr_scan", "ios": "https://dc.lft.to/lastmile_qr_scan"}, "fusion_lon": 0.0, "lat": 38.919822333333336, "bike_id": "8f35078862c2d9bd5e9dfdbcbb400fad", "type": "electric_scooter", "is_reserved": 0, "lon": -77.040881}, {"fusion_lat": 0.0, "name": "f54e5ff1d972876da703813655c5cb1f", "is_disabled": 0, "rental_uris": {"android": "https://dc.lft.to/lastmile_qr_scan", "ios": "https://dc.lft.to/lastmile_qr_scan"}, "fusion_lon": 0.0, "lat": 38.877167666666665, "bike_id": "f54e5ff1d972876da703813655c5cb1f", "type": "electric_scooter", "is_reserved": 0, "lon": -77.01752233333333}, {"fusion_lat": 0.0, "name": "b4a5ff577bbee8630ddbbc47bb6d8cef", "is_disabled": 0, "rental_uris": {"android": "https://dc.lft.to/lastmile_qr_scan", "ios": "https://dc.lft.to/lastmile_qr_scan"}, "fusion_lon": 0.0, "lat": 38.8922515, "bike_id": "b4a5ff577bbee8630ddbbc47bb6d8cef", "type": "electric_scooter", "is_reserved": 0, "lon": -77.02404916666667}, {"fusion_lat": 0.0, "name": "e13715b8bc3bd33f62bab328defe0d40", "is_disabled": 0, "rental_uris": {"android": "https://dc.lft.to/lastmile_qr_scan", "ios": "https://dc.lft.to/lastmile_qr_scan"}, "fusion_lon": 0.0, "lat": 38.904558333333334, "bike_id": "e13715b8bc3bd33f62bab328defe0d40", "type": "electric_scooter", "is_reserved": 0, "lon": -77.00696033333334}, {"fusion_lat": 0.0, "name": "e2d76ba51f1fc31b6176b699778e5a5d", "is_disabled": 0, "rental_uris": {"android": "https://dc.lft.to/lastmile_qr_scan", "ios": "https://dc.lft.to/lastmile_qr_scan"}, "fusion_lon": 0.0, "lat": 38.90949166666667, "bike_id": "e2d76ba51f1fc31b6176b699778e5a5d", "type": "electric_scooter", "is_reserved": 0, "lon": -77.04865366666667}, {"fusion_lat": 0.0, "name": "3e200320662d717ee258e6aa99117bd4", "is_disabled": 0, "rental_uris": {"android": "https://dc.lft.to/lastmile_qr_scan", "ios": "https://dc.lft.to/lastmile_qr_scan"}, "fusion_lon": 0.0, "lat": 38.91647116666667, "bike_id": "3e200320662d717ee258e6aa99117bd4", "type": "electric_bike", "is_reserved": 0, "lon": -77.021325}, {"fusion_lat": 0.0, "name": "019dcbaafec0e8191530871e8f451e4f", "is_disabled": 0, "rental_uris": {"android": "https://dc.lft.to/lastmile_qr_scan", "ios": "https://dc.lft.to/lastmile_qr_scan"}, "fusion_lon": 0.0, "lat": 38.925528166666666, "bike_id": "019dcbaafec0e8191530871e8f451e4f", "type": "electric_scooter", "is_reserved": 0, "lon": -77.03337033333334}, {"fusion_lat": 0.0, "name": "24f39d860f3cc2ede287ddb3e74b07cc", "is_disabled": 0, "rental_uris": {"android": "https://dc.lft.to/lastmile_qr_scan", "ios": "https://dc.lft.to/lastmile_qr_scan"}, "fusion_lon": 0.0, "lat": 38.89542633333333, "bike_id": "24f39d860f3cc2ede287ddb3e74b07cc", "type": "electric_scooter", "is_reserved": 0, "lon": -77.03983133333334}, {"fusion_lat": 0.0, "name": "e29fbc3bdbe9b783a166afdf08e01e3f", "is_disabled": 0, "rental_uris": {"android": "https://dc.lft.to/lastmile_qr_scan", "ios": "https://dc.lft.to/lastmile_qr_scan"}, "fusion_lon": 0.0, "lat": 38.90715633333333, "bike_id": "e29fbc3bdbe9b783a166afdf08e01e3f", "type": "electric_scooter", "is_reserved": 0, "lon": -77.04658633333334}, {"fusion_lat": 0.0, "name": "f460997bcaf840b419239067f0bd8d23", "is_disabled": 0, "rental_uris": {"android": "https://dc.lft.to/lastmile_qr_scan", "ios": "https://dc.lft.to/lastmile_qr_scan"}, "fusion_lon": 0.0, "lat": 38.82461716666667, "bike_id": "f460997bcaf840b419239067f0bd8d23", "type": "electric_bike", "is_reserved": 0, "lon": -77.0079275}, {"fusion_lat": 0.0, "name": "fe683f7c2d0d0961b7ab58d42735d344", "is_disabled": 0, "rental_uris": {"android": "https://dc.lft.to/lastmile_qr_scan", "ios": "https://dc.lft.to/lastmile_qr_scan"}, "fusion_lon": 0.0, "lat": 38.8801975, "bike_id": "fe683f7c2d0d0961b7ab58d42735d344", "type": "electric_scooter", "is_reserved": 0, "lon": -76.9311255}, {"fusion_lat": 0.0, "name": "8e9d65d875b8372efd1171cb0298f70f", "is_disabled": 0, "rental_uris": {"android": "https://dc.lft.to/lastmile_qr_scan", "ios": "https://dc.lft.to/lastmile_qr_scan"}, "fusion_lon": 0.0, "lat": 38.899082, "bike_id": "8e9d65d875b8372efd1171cb0298f70f", "type": "electric_scooter", "is_reserved": 0, "lon": -76.94549316666667}, {"fusion_lat": 0.0, "name": "72aff26853e5dec1bdc803804545afb3", "is_disabled": 0, "rental_uris": {"android": "https://dc.lft.to/lastmile_qr_scan", "ios": "https://dc.lft.to/lastmile_qr_scan"}, "fusion_lon": 0.0, "lat": 38.8429965, "bike_id": "72aff26853e5dec1bdc803804545afb3", "type": "electric_bike", "is_reserved": 0, "lon": -77.10868266666667}, {"fusion_lat": 0.0, "name": "14ec6cb787c8388a24effee1fa24e346", "is_disabled": 0, "rental_uris": {"android": "https://dc.lft.to/lastmile_qr_scan", "ios": "https://dc.lft.to/lastmile_qr_scan"}, "fusion_lon": 0.0, "lat": 38.892261, "bike_id": "14ec6cb787c8388a24effee1fa24e346", "type": "electric_scooter", "is_reserved": 0, "lon": -77.0321975}, {"fusion_lat": 0.0, "name": "6353c981355549a2cf6dff7f74831f58", "is_disabled": 0, "rental_uris": {"android": "https://dc.lft.to/lastmile_qr_scan", "ios": "https://dc.lft.to/lastmile_qr_scan"}, "fusion_lon": 0.0, "lat": 38.90574766666667, "bike_id": "6353c981355549a2cf6dff7f74831f58", "type": "electric_scooter", "is_reserved": 0, "lon": -77.04144183333334}, {"fusion_lat": 0.0, "name": "99349d50bf950bb7eaafd402ff85d3c7", "is_disabled": 0, "rental_uris": {"android": "https://dc.lft.to/lastmile_qr_scan", "ios": "https://dc.lft.to/lastmile_qr_scan"}, "fusion_lon": 0.0, "lat": 38.944038166666665, "bike_id": "99349d50bf950bb7eaafd402ff85d3c7", "type": "electric_scooter", "is_reserved": 0, "lon": -77.038616}, {"fusion_lat": 0.0, "name": "20c21bf744e062909f8b4eb3ed85fe95", "is_disabled": 0, "rental_uris": {"android": "https://dc.lft.to/lastmile_qr_scan", "ios": "https://dc.lft.to/lastmile_qr_scan"}, "fusion_lon": 0.0, "lat": 38.91084216666667, "bike_id": "20c21bf744e062909f8b4eb3ed85fe95", "type": "electric_scooter", "is_reserved": 0, "lon": -77.06503066666667}, {"fusion_lat": 0.0, "name": "29cd48e24c9a76380f7f2a9d58592aa9", "is_disabled": 0, "rental_uris": {"android": "https://dc.lft.to/lastmile_qr_scan", "ios": "https://dc.lft.to/lastmile_qr_scan"}, "fusion_lon": 0.0, "lat": 38.88771366666667, "bike_id": "29cd48e24c9a76380f7f2a9d58592aa9", "type": "electric_scooter", "is_reserved": 0, "lon": -76.977545}, {"fusion_lat": 0.0, "name": "4d3db119ed0f02dc7ff839abce32d198", "is_disabled": 0, "rental_uris": {"android": "https://dc.lft.to/lastmile_qr_scan", "ios": "https://dc.lft.to/lastmile_qr_scan"}, "fusion_lon": 0.0, "lat": 38.91403716666667, "bike_id": "4d3db119ed0f02dc7ff839abce32d198", "type": "electric_scooter", "is_reserved": 0, "lon": -77.008356}, {"fusion_lat": 0.0, "name": "cbd1f1d6d0a95ca65a396188d6b6d91b", "is_disabled": 0, "rental_uris": {"android": "https://dc.lft.to/lastmile_qr_scan", "ios": "https://dc.lft.to/lastmile_qr_scan"}, "fusion_lon": 0.0, "lat": 38.807599833333335, "bike_id": "cbd1f1d6d0a95ca65a396188d6b6d91b", "type": "electric_bike", "is_reserved": 0, "lon": -77.094525}, {"fusion_lat": 0.0, "name": "6926a89f03f18d5bc46971a535add06d", "is_disabled": 0, "rental_uris": {"android": "https://dc.lft.to/lastmile_qr_scan", "ios": "https://dc.lft.to/lastmile_qr_scan"}, "fusion_lon": 0.0, "lat": 38.93149183333333, "bike_id": "6926a89f03f18d5bc46971a535add06d", "type": "electric_scooter", "is_reserved": 0, "lon": -77.03955866666666}, {"fusion_lat": 0.0, "name": "d60ebdc3f02bc3401ae925fa52b0ba53", "is_disabled": 0, "rental_uris": {"android": "https://dc.lft.to/lastmile_qr_scan", "ios": "https://dc.lft.to/lastmile_qr_scan"}, "fusion_lon": 0.0, "lat": 38.88224916666667, "bike_id": "d60ebdc3f02bc3401ae925fa52b0ba53", "type": "electric_scooter", "is_reserved": 0, "lon": -77.0293975}, {"fusion_lat": 0.0, "name": "4b9143c3251d9b779208c723b0bde3b6", "is_disabled": 0, "rental_uris": {"android": "https://dc.lft.to/lastmile_qr_scan", "ios": "https://dc.lft.to/lastmile_qr_scan"}, "fusion_lon": 0.0, "lat": 38.90344433333333, "bike_id": "4b9143c3251d9b779208c723b0bde3b6", "type": "electric_scooter", "is_reserved": 0, "lon": -77.0347565}, {"fusion_lat": 0.0, "name": "54ada6f0ee2ade334e67e50311c4aeed", "is_disabled": 0, "rental_uris": {"android": "https://dc.lft.to/lastmile_qr_scan", "ios": "https://dc.lft.to/lastmile_qr_scan"}, "fusion_lon": 0.0, "lat": 38.85418283333333, "bike_id": "54ada6f0ee2ade334e67e50311c4aeed", "type": "electric_bike", "is_reserved": 0, "lon": -77.120726}, {"fusion_lat": 0.0, "name": "a4ea6afdf77c091c9284ba0c9cbb9fe6", "is_disabled": 0, "rental_uris": {"android": "https://dc.lft.to/lastmile_qr_scan", "ios": "https://dc.lft.to/lastmile_qr_scan"}, "fusion_lon": 0.0, "lat": 38.883007, "bike_id": "a4ea6afdf77c091c9284ba0c9cbb9fe6", "type": "electric_scooter", "is_reserved": 0, "lon": -76.94851466666667}, {"fusion_lat": 0.0, "name": "19c812624d1ed11b64e191c79bf9288b", "is_disabled": 0, "rental_uris": {"android": "https://dc.lft.to/lastmile_qr_scan", "ios": "https://dc.lft.to/lastmile_qr_scan"}, "fusion_lon": 0.0, "lat": 38.940799, "bike_id": "19c812624d1ed11b64e191c79bf9288b", "type": "electric_scooter", "is_reserved": 0, "lon": -77.05214666666667}, {"fusion_lat": 0.0, "name": "4731b2bf45b5b84717f48577a9c4714e", "is_disabled": 0, "rental_uris": {"android": "https://dc.lft.to/lastmile_qr_scan", "ios": "https://dc.lft.to/lastmile_qr_scan"}, "fusion_lon": 0.0, "lat": 38.91998266666667, "bike_id": "4731b2bf45b5b84717f48577a9c4714e", "type": "electric_scooter", "is_reserved": 0, "lon": -77.07187883333333}, {"fusion_lat": 0.0, "name": "4639b6320a7f7aca9e18944ea71d2f8a", "is_disabled": 0, "rental_uris": {"android": "https://dc.lft.to/lastmile_qr_scan", "ios": "https://dc.lft.to/lastmile_qr_scan"}, "fusion_lon": 0.0, "lat": 38.88655083333333, "bike_id": "4639b6320a7f7aca9e18944ea71d2f8a", "type": "electric_scooter", "is_reserved": 0, "lon": -77.01986316666667}, {"fusion_lat": 0.0, "name": "c6d00a14d45be67cec9b935b907f1525", "is_disabled": 0, "rental_uris": {"android": "https://dc.lft.to/lastmile_qr_scan", "ios": "https://dc.lft.to/lastmile_qr_scan"}, "fusion_lon": 0.0, "lat": 38.952214833333336, "bike_id": "c6d00a14d45be67cec9b935b907f1525", "type": "electric_scooter", "is_reserved": 0, "lon": -77.0821275}, {"fusion_lat": 0.0, "name": "aed9d46ef5f97448e9c4db31cc6bdac2", "is_disabled": 0, "rental_uris": {"android": "https://dc.lft.to/lastmile_qr_scan", "ios": "https://dc.lft.to/lastmile_qr_scan"}, "fusion_lon": 0.0, "lat": 38.916773666666664, "bike_id": "aed9d46ef5f97448e9c4db31cc6bdac2", "type": "electric_scooter", "is_reserved": 0, "lon": -77.02410883333333}, {"fusion_lat": 0.0, "name": "851eecafc6e28eb2d7299edbbb8a891c", "is_disabled": 0, "rental_uris": {"android": "https://dc.lft.to/lastmile_qr_scan", "ios": "https://dc.lft.to/lastmile_qr_scan"}, "fusion_lon": 0.0, "lat": 38.9229045, "bike_id": "851eecafc6e28eb2d7299edbbb8a891c", "type": "electric_scooter", "is_reserved": 0, "lon": -77.0365795}, {"fusion_lat": 0.0, "name": "3d501f6ccbcb86c97e76985ac76870f2", "is_disabled": 0, "rental_uris": {"android": "https://dc.lft.to/lastmile_qr_scan", "ios": "https://dc.lft.to/lastmile_qr_scan"}, "fusion_lon": 0.0, "lat": 38.8765315, "bike_id": "3d501f6ccbcb86c97e76985ac76870f2", "type": "electric_scooter", "is_reserved": 0, "lon": -77.00832833333334}, {"fusion_lat": 0.0, "name": "34d3a8b397f61250ffe4382541340a6b", "is_disabled": 0, "rental_uris": {"android": "https://dc.lft.to/lastmile_qr_scan", "ios": "https://dc.lft.to/lastmile_qr_scan"}, "fusion_lon": 0.0, "lat": 38.8614225, "bike_id": "34d3a8b397f61250ffe4382541340a6b", "type": "electric_bike", "is_reserved": 0, "lon": -76.97164766666667}, {"fusion_lat": 0.0, "name": "c556da6e421a71815f6619366156c1a2", "is_disabled": 0, "rental_uris": {"android": "https://dc.lft.to/lastmile_qr_scan", "ios": "https://dc.lft.to/lastmile_qr_scan"}, "fusion_lon": 0.0, "lat": 38.893114833333335, "bike_id": "c556da6e421a71815f6619366156c1a2", "type": "electric_scooter", "is_reserved": 0, "lon": -77.05587483333333}, {"fusion_lat": 0.0, "name": "5112a4f95e4fd34503831e053bcff78b", "is_disabled": 0, "rental_uris": {"android": "https://dc.lft.to/lastmile_qr_scan", "ios": "https://dc.lft.to/lastmile_qr_scan"}, "fusion_lon": 0.0, "lat": 38.93633116666667, "bike_id": "5112a4f95e4fd34503831e053bcff78b", "type": "electric_scooter", "is_reserved": 0, "lon": -77.03659283333333}, {"fusion_lat": 0.0, "name": "7caa4819aa5b4f45e322b5b510d7f123", "is_disabled": 0, "rental_uris": {"android": "https://dc.lft.to/lastmile_qr_scan", "ios": "https://dc.lft.to/lastmile_qr_scan"}, "fusion_lon": 0.0, "lat": 38.9151045, "bike_id": "7caa4819aa5b4f45e322b5b510d7f123", "type": "electric_scooter", "is_reserved": 0, "lon": -77.02182216666667}, {"fusion_lat": 0.0, "name": "665eceeae26f2eba1037f1f233c73056", "is_disabled": 0, "rental_uris": {"android": "https://dc.lft.to/lastmile_qr_scan", "ios": "https://dc.lft.to/lastmile_qr_scan"}, "fusion_lon": 0.0, "lat": 38.949804666666665, "bike_id": "665eceeae26f2eba1037f1f233c73056", "type": "electric_scooter", "is_reserved": 0, "lon": -77.026964}, {"fusion_lat": 0.0, "name": "61b5edbefec0754235d6e6e11725d7cd", "is_disabled": 0, "rental_uris": {"android": "https://dc.lft.to/lastmile_qr_scan", "ios": "https://dc.lft.to/lastmile_qr_scan"}, "fusion_lon": 0.0, "lat": 38.9247415, "bike_id": "61b5edbefec0754235d6e6e11725d7cd", "type": "electric_scooter", "is_reserved": 0, "lon": -77.0353065}, {"fusion_lat": 0.0, "name": "275dda41b4cbb9a8f84bda5d7e4d8824", "is_disabled": 0, "rental_uris": {"android": "https://dc.lft.to/lastmile_qr_scan", "ios": "https://dc.lft.to/lastmile_qr_scan"}, "fusion_lon": 0.0, "lat": 38.918624333333334, "bike_id": "275dda41b4cbb9a8f84bda5d7e4d8824", "type": "electric_scooter", "is_reserved": 0, "lon": -77.0458695}, {"fusion_lat": 0.0, "name": "8799d4e57c7356e44e1865877ebc32c8", "is_disabled": 0, "rental_uris": {"android": "https://dc.lft.to/lastmile_qr_scan", "ios": "https://dc.lft.to/lastmile_qr_scan"}, "fusion_lon": 0.0, "lat": 38.90176233333333, "bike_id": "8799d4e57c7356e44e1865877ebc32c8", "type": "electric_scooter", "is_reserved": 0, "lon": -77.03617683333333}, {"fusion_lat": 0.0, "name": "8a687144723e41cc934888bc3e9e2efa", "is_disabled": 0, "rental_uris": {"android": "https://dc.lft.to/lastmile_qr_scan", "ios": "https://dc.lft.to/lastmile_qr_scan"}, "fusion_lon": 0.0, "lat": 38.9132025, "bike_id": "8a687144723e41cc934888bc3e9e2efa", "type": "electric_scooter", "is_reserved": 0, "lon": -77.04704766666667}, {"fusion_lat": 0.0, "name": "c8425f38f898657b1ce6c695e3607c6c", "is_disabled": 0, "rental_uris": {"android": "https://dc.lft.to/lastmile_qr_scan", "ios": "https://dc.lft.to/lastmile_qr_scan"}, "fusion_lon": 0.0, "lat": 38.918450166666666, "bike_id": "c8425f38f898657b1ce6c695e3607c6c", "type": "electric_scooter", "is_reserved": 0, "lon": -77.02297233333333}, {"fusion_lat": 0.0, "name": "78a9a74fb59822f99a9cdb2bc56170d4", "is_disabled": 0, "rental_uris": {"android": "https://dc.lft.to/lastmile_qr_scan", "ios": "https://dc.lft.to/lastmile_qr_scan"}, "fusion_lon": 0.0, "lat": 38.917185833333335, "bike_id": "78a9a74fb59822f99a9cdb2bc56170d4", "type": "electric_scooter", "is_reserved": 0, "lon": -76.96866466666667}, {"fusion_lat": 0.0, "name": "770aeeb6193202b5bdc4f485f1e041c9", "is_disabled": 0, "rental_uris": {"android": "https://dc.lft.to/lastmile_qr_scan", "ios": "https://dc.lft.to/lastmile_qr_scan"}, "fusion_lon": 0.0, "lat": 38.905053833333334, "bike_id": "770aeeb6193202b5bdc4f485f1e041c9", "type": "electric_scooter", "is_reserved": 0, "lon": -77.02947683333333}, {"fusion_lat": 0.0, "name": "63be9c399de743c12bd8dad74e17a48f", "is_disabled": 0, "rental_uris": {"android": "https://dc.lft.to/lastmile_qr_scan", "ios": "https://dc.lft.to/lastmile_qr_scan"}, "fusion_lon": 0.0, "lat": 38.90660283333333, "bike_id": "63be9c399de743c12bd8dad74e17a48f", "type": "electric_scooter", "is_reserved": 0, "lon": -77.07125333333333}, {"fusion_lat": 0.0, "name": "01510f83148b7cbd02c0fcb53416fb1a", "is_disabled": 0, "rental_uris": {"android": "https://dc.lft.to/lastmile_qr_scan", "ios": "https://dc.lft.to/lastmile_qr_scan"}, "fusion_lon": 0.0, "lat": 38.908503, "bike_id": "01510f83148b7cbd02c0fcb53416fb1a", "type": "electric_scooter", "is_reserved": 0, "lon": -77.04666516666667}, {"fusion_lat": 0.0, "name": "f3523cf3afaa6c36c5888db5fe4a5eaf", "is_disabled": 0, "rental_uris": {"android": "https://dc.lft.to/lastmile_qr_scan", "ios": "https://dc.lft.to/lastmile_qr_scan"}, "fusion_lon": 0.0, "lat": 38.95081116666667, "bike_id": "f3523cf3afaa6c36c5888db5fe4a5eaf", "type": "electric_bike", "is_reserved": 0, "lon": -77.01194783333334}, {"fusion_lat": 0.0, "name": "c63e19df8740d86c10ee69ff3ca8fcb1", "is_disabled": 0, "rental_uris": {"android": "https://dc.lft.to/lastmile_qr_scan", "ios": "https://dc.lft.to/lastmile_qr_scan"}, "fusion_lon": 0.0, "lat": 38.8838865, "bike_id": "c63e19df8740d86c10ee69ff3ca8fcb1", "type": "electric_bike", "is_reserved": 0, "lon": -77.0174945}, {"fusion_lat": 0.0, "name": "208de912d31d0c3a2a1ea1ec5459dbee", "is_disabled": 0, "rental_uris": {"android": "https://dc.lft.to/lastmile_qr_scan", "ios": "https://dc.lft.to/lastmile_qr_scan"}, "fusion_lon": 0.0, "lat": 38.958004833333334, "bike_id": "208de912d31d0c3a2a1ea1ec5459dbee", "type": "electric_bike", "is_reserved": 0, "lon": -76.96039216666667}, {"fusion_lat": 0.0, "name": "249c79f2fd345367f1524fec6bb6b3e7", "is_disabled": 0, "rental_uris": {"android": "https://dc.lft.to/lastmile_qr_scan", "ios": "https://dc.lft.to/lastmile_qr_scan"}, "fusion_lon": 0.0, "lat": 38.90943633333333, "bike_id": "249c79f2fd345367f1524fec6bb6b3e7", "type": "electric_scooter", "is_reserved": 0, "lon": -77.0320865}, {"fusion_lat": 0.0, "name": "13911f7b227b30180a929dcb55bd2975", "is_disabled": 0, "rental_uris": {"android": "https://dc.lft.to/lastmile_qr_scan", "ios": "https://dc.lft.to/lastmile_qr_scan"}, "fusion_lon": 0.0, "lat": 38.921976, "bike_id": "13911f7b227b30180a929dcb55bd2975", "type": "electric_scooter", "is_reserved": 0, "lon": -77.08064683333333}, {"fusion_lat": 0.0, "name": "3553fddc31bc1420f0ac7ca2b24752ca", "is_disabled": 0, "rental_uris": {"android": "https://dc.lft.to/lastmile_qr_scan", "ios": "https://dc.lft.to/lastmile_qr_scan"}, "fusion_lon": 0.0, "lat": 38.90486, "bike_id": "3553fddc31bc1420f0ac7ca2b24752ca", "type": "electric_scooter", "is_reserved": 0, "lon": -77.04641733333334}, {"fusion_lat": 0.0, "name": "1dc55da6d6d6d6e4a9e99068847fae16", "is_disabled": 0, "rental_uris": {"android": "https://dc.lft.to/lastmile_qr_scan", "ios": "https://dc.lft.to/lastmile_qr_scan"}, "fusion_lon": 0.0, "lat": 38.91449466666667, "bike_id": "1dc55da6d6d6d6e4a9e99068847fae16", "type": "electric_scooter", "is_reserved": 0, "lon": -77.04486066666666}, {"fusion_lat": 0.0, "name": "a1c8aaafbfda7a55a4a931b18fcd8eef", "is_disabled": 0, "rental_uris": {"android": "https://dc.lft.to/lastmile_qr_scan", "ios": "https://dc.lft.to/lastmile_qr_scan"}, "fusion_lon": 0.0, "lat": 38.92543933333333, "bike_id": "a1c8aaafbfda7a55a4a931b18fcd8eef", "type": "electric_scooter", "is_reserved": 0, "lon": -77.04047616666666}, {"fusion_lat": 0.0, "name": "6e50d7247184cdf6a2f1e5e6e1078f27", "is_disabled": 0, "rental_uris": {"android": "https://dc.lft.to/lastmile_qr_scan", "ios": "https://dc.lft.to/lastmile_qr_scan"}, "fusion_lon": 0.0, "lat": 38.8899025, "bike_id": "6e50d7247184cdf6a2f1e5e6e1078f27", "type": "electric_scooter", "is_reserved": 0, "lon": -76.91414883333333}, {"fusion_lat": 0.0, "name": "d8732d46d017911539eb5fa3a6e201e9", "is_disabled": 0, "rental_uris": {"android": "https://dc.lft.to/lastmile_qr_scan", "ios": "https://dc.lft.to/lastmile_qr_scan"}, "fusion_lon": 0.0, "lat": 38.8929535, "bike_id": "d8732d46d017911539eb5fa3a6e201e9", "type": "electric_scooter", "is_reserved": 0, "lon": -77.048741}, {"fusion_lat": 0.0, "name": "0c9e0463a648f14aa8e3929154c791c9", "is_disabled": 0, "rental_uris": {"android": "https://dc.lft.to/lastmile_qr_scan", "ios": "https://dc.lft.to/lastmile_qr_scan"}, "fusion_lon": 0.0, "lat": 38.90010783333334, "bike_id": "0c9e0463a648f14aa8e3929154c791c9", "type": "electric_scooter", "is_reserved": 0, "lon": -77.024088}, {"fusion_lat": 0.0, "name": "e740dc0e36a2cc2f150576b63d2db84a", "is_disabled": 0, "rental_uris": {"android": "https://dc.lft.to/lastmile_qr_scan", "ios": "https://dc.lft.to/lastmile_qr_scan"}, "fusion_lon": 0.0, "lat": 38.909726666666664, "bike_id": "e740dc0e36a2cc2f150576b63d2db84a", "type": "electric_scooter", "is_reserved": 0, "lon": -77.0215825}, {"fusion_lat": 0.0, "name": "0693454b61a6570554ea848e8618892d", "is_disabled": 0, "rental_uris": {"android": "https://dc.lft.to/lastmile_qr_scan", "ios": "https://dc.lft.to/lastmile_qr_scan"}, "fusion_lon": 0.0, "lat": 38.8995905, "bike_id": "0693454b61a6570554ea848e8618892d", "type": "electric_scooter", "is_reserved": 0, "lon": -76.98562883333334}, {"fusion_lat": 0.0, "name": "9063b571486faf6e4f97e0e901946482", "is_disabled": 0, "rental_uris": {"android": "https://dc.lft.to/lastmile_qr_scan", "ios": "https://dc.lft.to/lastmile_qr_scan"}, "fusion_lon": 0.0, "lat": 38.90796666666667, "bike_id": "9063b571486faf6e4f97e0e901946482", "type": "electric_scooter", "is_reserved": 0, "lon": -77.04336666666667}, {"fusion_lat": 0.0, "name": "21bee0467cc60d3a201b5216c6d1e99a", "is_disabled": 0, "rental_uris": {"android": "https://dc.lft.to/lastmile_qr_scan", "ios": "https://dc.lft.to/lastmile_qr_scan"}, "fusion_lon": 0.0, "lat": 38.85701566666667, "bike_id": "21bee0467cc60d3a201b5216c6d1e99a", "type": "electric_scooter", "is_reserved": 0, "lon": -76.9958795}, {"fusion_lat": 0.0, "name": "ff8053363e637a320bd87039f647e6ee", "is_disabled": 0, "rental_uris": {"android": "https://dc.lft.to/lastmile_qr_scan", "ios": "https://dc.lft.to/lastmile_qr_scan"}, "fusion_lon": 0.0, "lat": 38.8957955, "bike_id": "ff8053363e637a320bd87039f647e6ee", "type": "electric_scooter", "is_reserved": 0, "lon": -77.0317135}, {"fusion_lat": 0.0, "name": "6876a1bc04543b6dfb14688c4d8a583f", "is_disabled": 0, "rental_uris": {"android": "https://dc.lft.to/lastmile_qr_scan", "ios": "https://dc.lft.to/lastmile_qr_scan"}, "fusion_lon": 0.0, "lat": 38.93208716666667, "bike_id": "6876a1bc04543b6dfb14688c4d8a583f", "type": "electric_scooter", "is_reserved": 0, "lon": -77.03667616666667}, {"fusion_lat": 0.0, "name": "3399a95e9e9e247dfe709f7f200d8468", "is_disabled": 0, "rental_uris": {"android": "https://dc.lft.to/lastmile_qr_scan", "ios": "https://dc.lft.to/lastmile_qr_scan"}, "fusion_lon": 0.0, "lat": 38.92991633333333, "bike_id": "3399a95e9e9e247dfe709f7f200d8468", "type": "electric_scooter", "is_reserved": 0, "lon": -77.03472883333333}, {"fusion_lat": 0.0, "name": "3cee27b8964b55c0c2eb5da261ad6a3d", "is_disabled": 0, "rental_uris": {"android": "https://dc.lft.to/lastmile_qr_scan", "ios": "https://dc.lft.to/lastmile_qr_scan"}, "fusion_lon": 0.0, "lat": 38.92123933333333, "bike_id": "3cee27b8964b55c0c2eb5da261ad6a3d", "type": "electric_scooter", "is_reserved": 0, "lon": -77.044303}, {"fusion_lat": 0.0, "name": "e007cccf8016914b29263ed39cd21d99", "is_disabled": 0, "rental_uris": {"android": "https://dc.lft.to/lastmile_qr_scan", "ios": "https://dc.lft.to/lastmile_qr_scan"}, "fusion_lon": 0.0, "lat": 38.887973833333334, "bike_id": "e007cccf8016914b29263ed39cd21d99", "type": "electric_bike", "is_reserved": 0, "lon": -76.92996}, {"fusion_lat": 0.0, "name": "61c346238ff4f29a6db5c50e540dbaf0", "is_disabled": 0, "rental_uris": {"android": "https://dc.lft.to/lastmile_qr_scan", "ios": "https://dc.lft.to/lastmile_qr_scan"}, "fusion_lon": 0.0, "lat": 38.92179183333333, "bike_id": "61c346238ff4f29a6db5c50e540dbaf0", "type": "electric_scooter", "is_reserved": 0, "lon": -77.026603}, {"fusion_lat": 0.0, "name": "99e5301af73b42760f13654d90482f4d", "is_disabled": 0, "rental_uris": {"android": "https://dc.lft.to/lastmile_qr_scan", "ios": "https://dc.lft.to/lastmile_qr_scan"}, "fusion_lon": 0.0, "lat": 38.907578666666666, "bike_id": "99e5301af73b42760f13654d90482f4d", "type": "electric_bike", "is_reserved": 0, "lon": -77.02800083333334}, {"fusion_lat": 0.0, "name": "10da9dae643a6ee8dc4ed6bdba4c3c15", "is_disabled": 0, "rental_uris": {"android": "https://dc.lft.to/lastmile_qr_scan", "ios": "https://dc.lft.to/lastmile_qr_scan"}, "fusion_lon": 0.0, "lat": 38.865173, "bike_id": "10da9dae643a6ee8dc4ed6bdba4c3c15", "type": "electric_bike", "is_reserved": 0, "lon": -77.12935266666666}, {"fusion_lat": 0.0, "name": "57a68480ac1a38a8ab9b8432548a4571", "is_disabled": 0, "rental_uris": {"android": "https://dc.lft.to/lastmile_qr_scan", "ios": "https://dc.lft.to/lastmile_qr_scan"}, "fusion_lon": 0.0, "lat": 38.929727166666666, "bike_id": "57a68480ac1a38a8ab9b8432548a4571", "type": "electric_scooter", "is_reserved": 0, "lon": -77.02331616666666}, {"fusion_lat": 0.0, "name": "6937b173d51c0155c7d66a7f8babf8e0", "is_disabled": 0, "rental_uris": {"android": "https://dc.lft.to/lastmile_qr_scan", "ios": "https://dc.lft.to/lastmile_qr_scan"}, "fusion_lon": 0.0, "lat": 38.916524333333335, "bike_id": "6937b173d51c0155c7d66a7f8babf8e0", "type": "electric_scooter", "is_reserved": 0, "lon": -77.00955166666667}, {"fusion_lat": 0.0, "name": "271cbdb2bfccdfab7261fcc3e2e62acb", "is_disabled": 0, "rental_uris": {"android": "https://dc.lft.to/lastmile_qr_scan", "ios": "https://dc.lft.to/lastmile_qr_scan"}, "fusion_lon": 0.0, "lat": 38.87807866666667, "bike_id": "271cbdb2bfccdfab7261fcc3e2e62acb", "type": "electric_scooter", "is_reserved": 0, "lon": -77.01771883333333}, {"fusion_lat": 0.0, "name": "57c932d109c33055ec75e49bed48b42f", "is_disabled": 0, "rental_uris": {"android": "https://dc.lft.to/lastmile_qr_scan", "ios": "https://dc.lft.to/lastmile_qr_scan"}, "fusion_lon": 0.0, "lat": 38.90967416666667, "bike_id": "57c932d109c33055ec75e49bed48b42f", "type": "electric_scooter", "is_reserved": 0, "lon": -77.0314825}, {"fusion_lat": 0.0, "name": "452ad53d94563b175aaf9d455bead658", "is_disabled": 0, "rental_uris": {"android": "https://dc.lft.to/lastmile_qr_scan", "ios": "https://dc.lft.to/lastmile_qr_scan"}, "fusion_lon": 0.0, "lat": 38.90390266666667, "bike_id": "452ad53d94563b175aaf9d455bead658", "type": "electric_scooter", "is_reserved": 0, "lon": -77.0177525}, {"fusion_lat": 0.0, "name": "2fc3b2158fa5e9b49ff70c1aa088f587", "is_disabled": 0, "rental_uris": {"android": "https://dc.lft.to/lastmile_qr_scan", "ios": "https://dc.lft.to/lastmile_qr_scan"}, "fusion_lon": 0.0, "lat": 38.90540466666667, "bike_id": "2fc3b2158fa5e9b49ff70c1aa088f587", "type": "electric_scooter", "is_reserved": 0, "lon": -76.9819695}, {"fusion_lat": 0.0, "name": "eac54b55c543b024c39ef7fd67725105", "is_disabled": 0, "rental_uris": {"android": "https://dc.lft.to/lastmile_qr_scan", "ios": "https://dc.lft.to/lastmile_qr_scan"}, "fusion_lon": 0.0, "lat": 38.9055315, "bike_id": "eac54b55c543b024c39ef7fd67725105", "type": "electric_scooter", "is_reserved": 0, "lon": -77.03454533333333}, {"fusion_lat": 0.0, "name": "6a05a9ad79f39aff06da43f16cfd03c3", "is_disabled": 0, "rental_uris": {"android": "https://dc.lft.to/lastmile_qr_scan", "ios": "https://dc.lft.to/lastmile_qr_scan"}, "fusion_lon": 0.0, "lat": 38.916982833333336, "bike_id": "6a05a9ad79f39aff06da43f16cfd03c3", "type": "electric_scooter", "is_reserved": 0, "lon": -77.03072583333334}, {"fusion_lat": 0.0, "name": "2e1b7b3cddcfd1d03a91282c858e1cbd", "is_disabled": 0, "rental_uris": {"android": "https://dc.lft.to/lastmile_qr_scan", "ios": "https://dc.lft.to/lastmile_qr_scan"}, "fusion_lon": 0.0, "lat": 38.886323166666664, "bike_id": "2e1b7b3cddcfd1d03a91282c858e1cbd", "type": "electric_scooter", "is_reserved": 0, "lon": -77.01814}, {"fusion_lat": 0.0, "name": "72ebd8ab02906e9d5efa9366d088e3a7", "is_disabled": 0, "rental_uris": {"android": "https://dc.lft.to/lastmile_qr_scan", "ios": "https://dc.lft.to/lastmile_qr_scan"}, "fusion_lon": 0.0, "lat": 38.92970866666667, "bike_id": "72ebd8ab02906e9d5efa9366d088e3a7", "type": "electric_scooter", "is_reserved": 0, "lon": -77.0279815}, {"fusion_lat": 0.0, "name": "2d697deea00dc973d8daa68fbbb2d469", "is_disabled": 0, "rental_uris": {"android": "https://dc.lft.to/lastmile_qr_scan", "ios": "https://dc.lft.to/lastmile_qr_scan"}, "fusion_lon": 0.0, "lat": 38.92078516666667, "bike_id": "2d697deea00dc973d8daa68fbbb2d469", "type": "electric_scooter", "is_reserved": 0, "lon": -77.0241805},