{"data": {"bikes": [{"is_disabled": 0, "is_reserved": 0, "fusion_lat": 0.0, "lat": 38.84632833333333, "fusion_lon": 0.0, "rental_uris": {"ios": "https://dc.lft.to/lastmile_qr_scan", "android": "https://dc.lft.to/lastmile_qr_scan"}, "lon": -76.96906283333334, "bike_id": "4626140601d12a068ed8eb9914dcbac6", "type": "electric_bike", "name": "4626140601d12a068ed8eb9914dcbac6"}, {"is_disabled": 0, "is_reserved": 0, "fusion_lat": 0.0, "lat": 38.83491183333334, "fusion_lon": 0.0, "rental_uris": {"ios": "https://dc.lft.to/lastmile_qr_scan", "android": "https://dc.lft.to/lastmile_qr_scan"}, "lon": -77.0043325, "bike_id": "92ba81603c8eac0365079b0d98b9e505", "type": "electric_bike", "name": "92ba81603c8eac0365079b0d98b9e505"}, {"is_disabled": 0, "is_reserved": 0, "fusion_lat": 0.0, "lat": 38.974763833333334, "fusion_lon": 0.0, "rental_uris": {"ios": "https://dc.lft.to/lastmile_qr_scan", "android": "https://dc.lft.to/lastmile_qr_scan"}, "lon": -76.98667833333333, "bike_id": "ee331e1acac3f503455a340809ab52d2", "type": "electric_bike", "name": "ee331e1acac3f503455a340809ab52d2"}, {"is_disabled": 0, "is_reserved": 0, "fusion_lat": 0.0, "lat": 38.9103975, "fusion_lon": 0.0, "rental_uris": {"ios": "https://dc.lft.to/lastmile_qr_scan", "android": "https://dc.lft.to/lastmile_qr_scan"}, "lon": -77.00961133333334, "bike_id": "ebccb4042e89357e49b4a311ac5a6154", "type": "electric_scooter", "name": "ebccb4042e89357e49b4a311ac5a6154"}, {"is_disabled": 0, "is_reserved": 0, "fusion_lat": 0.0, "lat": 39.022987, "fusion_lon": 0.0, "rental_uris": {"ios": "https://dc.lft.to/lastmile_qr_scan", "android": "https://dc.lft.to/lastmile_qr_scan"}, "lon": -77.02100733333333, "bike_id": "021f0f14bf8c8718e577c7d85b136a15", "type": "electric_bike", "name": "021f0f14bf8c8718e577c7d85b136a15"}, {"is_disabled": 0, "is_reserved": 0, "fusion_lat": 0.0, "lat": 38.90488083333334, "fusion_lon": 0.0, "rental_uris": {"ios": "https://dc.lft.to/lastmile_qr_scan", "android": "https://dc.lft.to/lastmile_qr_scan"}, "lon": -77.0258615, "bike_id": "5484f4e00a35155ec27f5e80537c4870", "type": "electric_scooter", "name": "5484f4e00a35155ec27f5e80537c4870"}, {"is_disabled": 0, "is_reserved": 0, "fusion_lat": 0.0, "lat": 38.927771666666665, "fusion_lon": 0.0, "rental_uris": {"ios": "https://dc.lft.to/lastmile_qr_scan", "android": "https://dc.lft.to/lastmile_qr_scan"}, "lon": -77.02964966666667, "bike_id": "d001bd3b17b3c62f8f46e9538d72ae06", "type": "electric_bike", "name": "d001bd3b17b3c62f8f46e9538d72ae06"}, {"is_disabled": 0, "is_reserved": 0, "fusion_lat": 0.0, "lat": 38.898489166666664, "fusion_lon": 0.0, "rental_uris": {"ios": "https://dc.lft.to/lastmile_qr_scan", "android": "https://dc.lft.to/lastmile_qr_scan"}, "lon": -77.00200016666666, "bike_id": "acde1ca8cccf1dc425ea0825c3d741f4", "type": "electric_scooter", "name": "acde1ca8cccf1dc425ea0825c3d741f4"}, {"is_disabled": 0, "is_reserved": 0, "fusion_lat": 0.0, "lat": 38.9058055, "fusion_lon": 0.0, "rental_uris": {"ios": "https://dc.lft.to/lastmile_qr_scan", "android": "https://dc.lft.to/lastmile_qr_scan"}, "lon": -76.981699, "bike_id": "6737c8b079046b28eec07d8566ecf48e", "type": "electric_bike", "name": "6737c8b079046b28eec07d8566ecf48e"}, {"is_disabled": 0, "is_reserved": 0, "fusion_lat": 0.0, "lat": 38.91769, "fusion_lon": 0.0, "rental_uris": {"ios": "https://dc.lft.to/lastmile_qr_scan", "android": "https://dc.lft.to/lastmile_qr_scan"}, "lon": -77.04059066666667, "bike_id": "c3ba31779a3dc95e62eff0f18456e911", "type": "electric_scooter", "name": "c3ba31779a3dc95e62eff0f18456e911"}, {"is_disabled": 0, "is_reserved": 0, "fusion_lat": 0.0, "lat": 38.92059883333334, "fusion_lon": 0.0, "rental_uris": {"ios": "https://dc.lft.to/lastmile_qr_scan", "android": "https://dc.lft.to/lastmile_qr_scan"}, "lon": -77.0454005, "bike_id": "c9567bae00c01b602768e49e5dc89221", "type": "electric_scooter", "name": "c9567bae00c01b602768e49e5dc89221"}, {"is_disabled": 0, "is_reserved": 0, "fusion_lat": 0.0, "lat": 38.911242, "fusion_lon": 0.0, "rental_uris": {"ios": "https://dc.lft.to/lastmile_qr_scan", "android": "https://dc.lft.to/lastmile_qr_scan"}, "lon": -76.99743066666667, "bike_id": "28de7e3c7680046f48eb72a1a5c69667", "type": "electric_scooter", "name": "28de7e3c7680046f48eb72a1a5c69667"}, {"is_disabled": 0, "is_reserved": 0, "fusion_lat": 0.0, "lat": 38.967788166666665, "fusion_lon": 0.0, "rental_uris": {"ios": "https://dc.lft.to/lastmile_qr_scan", "android": "https://dc.lft.to/lastmile_qr_scan"}, "lon": -76.99650916666667, "bike_id": "d13c6eddea0bbbb4536b637054696988", "type": "electric_bike", "name": "d13c6eddea0bbbb4536b637054696988"}, {"is_disabled": 0, "is_reserved": 0, "fusion_lat": 0.0, "lat": 38.905061333333336, "fusion_lon": 0.0, "rental_uris": {"ios": "https://dc.lft.to/lastmile_qr_scan", "android": "https://dc.lft.to/lastmile_qr_scan"}, "lon": -77.06118266666667, "bike_id": "63505aefdede6f265995d0c01cf03544", "type": "electric_scooter", "name": "63505aefdede6f265995d0c01cf03544"}, {"is_disabled": 0, "is_reserved": 0, "fusion_lat": 0.0, "lat": 38.920986666666664, "fusion_lon": 0.0, "rental_uris": {"ios": "https://dc.lft.to/lastmile_qr_scan", "android": "https://dc.lft.to/lastmile_qr_scan"}, "lon": -77.01763666666666, "bike_id": "fa3a7e5533d9cbacfe2c2deb69890087", "type": "electric_scooter", "name": "fa3a7e5533d9cbacfe2c2deb69890087"}, {"is_disabled": 0, "is_reserved": 0, "fusion_lat": 0.0, "lat": 38.87100866666667, "fusion_lon": 0.0, "rental_uris": {"ios": "https://dc.lft.to/lastmile_qr_scan", "android": "https://dc.lft.to/lastmile_qr_scan"}, "lon": -77.01207083333334, "bike_id": "7c562435937214534111f8d207f97e1c", "type": "electric_scooter", "name": "7c562435937214534111f8d207f97e1c"}, {"is_disabled": 0, "is_reserved": 0, "fusion_lat": 0.0, "lat": 38.8847855, "fusion_lon": 0.0, "rental_uris": {"ios": "https://dc.lft.to/lastmile_qr_scan", "android": "https://dc.lft.to/lastmile_qr_scan"}, "lon": -77.02365316666666, "bike_id": "404be1042310380f99a62274ff276d89", "type": "electric_scooter", "name": "404be1042310380f99a62274ff276d89"}, {"is_disabled": 0, "is_reserved": 0, "fusion_lat": 0.0, "lat": 38.94847866666667, "fusion_lon": 0.0, "rental_uris": {"ios": "https://dc.lft.to/lastmile_qr_scan", "android": "https://dc.lft.to/lastmile_qr_scan"}, "lon": -77.02111983333333, "bike_id": "9269314dabc9119ccee679180d3d8503", "type": "electric_scooter", "name": "9269314dabc9119ccee679180d3d8503"}, {"is_disabled": 0, "is_reserved": 0, "fusion_lat": 0.0, "lat": 38.923544166666666, "fusion_lon": 0.0, "rental_uris": {"ios": "https://dc.lft.to/lastmile_qr_scan", "android": "https://dc.lft.to/lastmile_qr_scan"}, "lon": -77.03318783333333, "bike_id": "b5b06360d47f70e58bc0011730907e93", "type": "electric_scooter", "name": "b5b06360d47f70e58bc0011730907e93"}, {"is_disabled": 0, "is_reserved": 0, "fusion_lat": 0.0, "lat": 38.91060916666667, "fusion_lon": 0.0, "rental_uris": {"ios": "https://dc.lft.to/lastmile_qr_scan", "android": "https://dc.lft.to/lastmile_qr_scan"}, "lon": -77.02184566666666, "bike_id": "1a2183aaf47244f849eb6eb21cbfc8a8", "type": "electric_scooter", "name": "1a2183aaf47244f849eb6eb21cbfc8a8"}, {"is_disabled": 0, "is_reserved": 0, "fusion_lat": 0.0, "lat": 38.906534666666666, "fusion_lon": 0.0, "rental_uris": {"ios": "https://dc.lft.to/lastmile_qr_scan", "android": "https://dc.lft.to/lastmile_qr_scan"}, "lon": -77.048681, "bike_id": "09388a8153bde3a66c6d22f6961874a3", "type": "electric_scooter", "name": "09388a8153bde3a66c6d22f6961874a3"}, {"is_disabled": 0, "is_reserved": 0, "fusion_lat": 0.0, "lat": 38.900060833333335, "fusion_lon": 0.0, "rental_uris": {"ios": "https://dc.lft.to/lastmile_qr_scan", "android": "https://dc.lft.to/lastmile_qr_scan"}, "lon": -76.9799155, "bike_id": "14ea2b806d89a95a33ae85892397eb0b", "type": "electric_scooter", "name": "14ea2b806d89a95a33ae85892397eb0b"}, {"is_disabled": 0, "is_reserved": 0, "fusion_lat": 0.0, "lat": 38.91261316666667, "fusion_lon": 0.0, "rental_uris": {"ios": "https://dc.lft.to/lastmile_qr_scan", "android": "https://dc.lft.to/lastmile_qr_scan"}, "lon": -77.03039866666667, "bike_id": "89170df5fa58ba274be9039ec521406f", "type": "electric_scooter", "name": "89170df5fa58ba274be9039ec521406f"}, {"is_disabled": 0, "is_reserved": 0, "fusion_lat": 0.0, "lat": 38.87922366666667, "fusion_lon": 0.0, "rental_uris": {"ios": "https://dc.lft.to/lastmile_qr_scan", "android": "https://dc.lft.to/lastmile_qr_scan"}, "lon": -77.01375533333334, "bike_id": "739255dd44808fdcf41232984f264bf6", "type": "electric_scooter", "name": "739255dd44808fdcf41232984f264bf6"}, {"is_disabled": 0, "is_reserved": 0, "fusion_lat": 0.0, "lat": 38.92233983333333, "fusion_lon": 0.0, "rental_uris": {"ios": "https://dc.lft.to/lastmile_qr_scan", "android": "https://dc.lft.to/lastmile_qr_scan"}, "lon": -77.04010233333334, "bike_id": "afe90fe1dba25151fbb7a6616d252df9", "type": "electric_scooter", "name": "afe90fe1dba25151fbb7a6616d252df9"}, {"is_disabled": 0, "is_reserved": 0, "fusion_lat": 0.0, "lat": 38.920546333333334, "fusion_lon": 0.0, "rental_uris": {"ios": "https://dc.lft.to/lastmile_qr_scan", "android": "https://dc.lft.to/lastmile_qr_scan"}, "lon": -77.0234655, "bike_id": "adad2c200a83781c8a69d6f1e4f7d9e1", "type": "electric_scooter", "name": "adad2c200a83781c8a69d6f1e4f7d9e1"}, {"is_disabled": 0, "is_reserved": 0, "fusion_lat": 0.0, "lat": 38.90061466666667, "fusion_lon": 0.0, "rental_uris": {"ios": "https://dc.lft.to/lastmile_qr_scan", "android": "https://dc.lft.to/lastmile_qr_scan"}, "lon": -77.00660683333334, "bike_id": "2958fda8c11e6a354f93fda25bf624f2", "type": "electric_scooter", "name": "2958fda8c11e6a354f93fda25bf624f2"}, {"is_disabled": 0, "is_reserved": 0, "fusion_lat": 0.0, "lat": 38.894277, "fusion_lon": 0.0, "rental_uris": {"ios": "https://dc.lft.to/lastmile_qr_scan", "android": "https://dc.lft.to/lastmile_qr_scan"}, "lon": -77.01081733333334, "bike_id": "0b4ce711e5d3a16be508af88fe5fe6b6", "type": "electric_scooter", "name": "0b4ce711e5d3a16be508af88fe5fe6b6"}, {"is_disabled": 0, "is_reserved": 0, "fusion_lat": 0.0, "lat": 38.9563625, "fusion_lon": 0.0, "rental_uris": {"ios": "https://dc.lft.to/lastmile_qr_scan", "android": "https://dc.lft.to/lastmile_qr_scan"}, "lon": -77.03628933333333, "bike_id": "da9f8f5598e80161c755444a905e6ae9", "type": "electric_scooter", "name": "da9f8f5598e80161c755444a905e6ae9"}, {"is_disabled": 0, "is_reserved": 0, "fusion_lat": 0.0, "lat": 38.893342, "fusion_lon": 0.0, "rental_uris": {"ios": "https://dc.lft.to/lastmile_qr_scan", "android": "https://dc.lft.to/lastmile_qr_scan"}, "lon": -76.9288595, "bike_id": "9df9c8a117b43cbe1eb2d1b4d8290560", "type": "electric_scooter", "name": "9df9c8a117b43cbe1eb2d1b4d8290560"}, {"is_disabled": 0, "is_reserved": 0, "fusion_lat": 0.0, "lat": 38.933619, "fusion_lon": 0.0, "rental_uris": {"ios": "https://dc.lft.to/lastmile_qr_scan", "android": "https://dc.lft.to/lastmile_qr_scan"}, "lon": -77.03885816666667, "bike_id": "1325dda05e9a7c4022369e29b525238a", "type": "electric_scooter", "name": "1325dda05e9a7c4022369e29b525238a"}, {"is_disabled": 0, "is_reserved": 0, "fusion_lat": 0.0, "lat": 38.92993033333333, "fusion_lon": 0.0, "rental_uris": {"ios": "https://dc.lft.to/lastmile_qr_scan", "android": "https://dc.lft.to/lastmile_qr_scan"}, "lon": -77.03791633333333, "bike_id": "bd3c1bab11c4fb240d290134d33b6b47", "type": "electric_scooter", "name": "bd3c1bab11c4fb240d290134d33b6b47"}, {"is_disabled": 0, "is_reserved": 0, "fusion_lat": 0.0, "lat": 38.91412716666667, "fusion_lon": 0.0, "rental_uris": {"ios": "https://dc.lft.to/lastmile_qr_scan", "android": "https://dc.lft.to/lastmile_qr_scan"}, "lon": -77.03298433333333, "bike_id": "821321aa56e1a4e28c4d07e227e7818f", "type": "electric_scooter", "name": "821321aa56e1a4e28c4d07e227e7818f"}, {"is_disabled": 0, "is_reserved": 0, "fusion_lat": 0.0, "lat": 38.83606366666667, "fusion_lon": 0.0, "rental_uris": {"ios": "https://dc.lft.to/lastmile_qr_scan", "android": "https://dc.lft.to/lastmile_qr_scan"}, "lon": -77.003768, "bike_id": "d92df635d9e904c10fb45d0e8e6aece9", "type": "electric_bike", "name": "d92df635d9e904c10fb45d0e8e6aece9"}, {"is_disabled": 0, "is_reserved": 0, "fusion_lat": 0.0, "lat": 38.904235666666665, "fusion_lon": 0.0, "rental_uris": {"ios": "https://dc.lft.to/lastmile_qr_scan", "android": "https://dc.lft.to/lastmile_qr_scan"}, "lon": -77.051315, "bike_id": "eb36fdd5f14397ba221832f40d37f464", "type": "electric_scooter", "name": "eb36fdd5f14397ba221832f40d37f464"}, {"is_disabled": 0, "is_reserved": 0, "fusion_lat": 0.0, "lat": 38.92320433333333, "fusion_lon": 0.0, "rental_uris": {"ios": "https://dc.lft.to/lastmile_qr_scan", "android": "https://dc.lft.to/lastmile_qr_scan"}, "lon": -77.02810566666666, "bike_id": "ea0470f7aae9abf8a16c4d150b4dc15f", "type": "electric_scooter", "name": "ea0470f7aae9abf8a16c4d150b4dc15f"}, {"is_disabled": 0, "is_reserved": 0, "fusion_lat": 0.0, "lat": 38.858410166666665, "fusion_lon": 0.0, "rental_uris": {"ios": "https://dc.lft.to/lastmile_qr_scan", "android": "https://dc.lft.to/lastmile_qr_scan"}, "lon": -76.98822533333333, "bike_id": "8558d862002ba24bb27a7770ce5451f2", "type": "electric_scooter", "name": "8558d862002ba24bb27a7770ce5451f2"}, {"is_disabled": 0, "is_reserved": 0, "fusion_lat": 0.0, "lat": 38.918360166666666, "fusion_lon": 0.0, "rental_uris": {"ios": "https://dc.lft.to/lastmile_qr_scan", "android": "https://dc.lft.to/lastmile_qr_scan"}, "lon": -77.04035983333333, "bike_id": "0b78ccb9fd56e653ffd195df243f6a33", "type": "electric_scooter", "name": "0b78ccb9fd56e653ffd195df243f6a33"}, {"is_disabled": 0, "is_reserved": 0, "fusion_lat": 0.0, "lat": 38.8578835, "fusion_lon": 0.0, "rental_uris": {"ios": "https://dc.lft.to/lastmile_qr_scan", "android": "https://dc.lft.to/lastmile_qr_scan"}, "lon": -76.98763183333334, "bike_id": "4d69a8cda8c1d397cb449e95b31b69fc", "type": "electric_bike", "name": "4d69a8cda8c1d397cb449e95b31b69fc"}, {"is_disabled": 0, "is_reserved": 0, "fusion_lat": 0.0, "lat": 38.924174, "fusion_lon": 0.0, "rental_uris": {"ios": "https://dc.lft.to/lastmile_qr_scan", "android": "https://dc.lft.to/lastmile_qr_scan"}, "lon": -77.02010783333333, "bike_id": "201ba46327f195218d50da70565341f9", "type": "electric_scooter", "name": "201ba46327f195218d50da70565341f9"}, {"is_disabled": 0, "is_reserved": 0, "fusion_lat": 0.0, "lat": 38.9240115, "fusion_lon": 0.0, "rental_uris": {"ios": "https://dc.lft.to/lastmile_qr_scan", "android": "https://dc.lft.to/lastmile_qr_scan"}, "lon": -77.03640833333333, "bike_id": "a158e7cef4effcca653abaf727ec74d5", "type": "electric_scooter", "name": "a158e7cef4effcca653abaf727ec74d5"}, {"is_disabled": 0, "is_reserved": 0, "fusion_lat": 0.0, "lat": 38.80410416666667, "fusion_lon": 0.0, "rental_uris": {"ios": "https://dc.lft.to/lastmile_qr_scan", "android": "https://dc.lft.to/lastmile_qr_scan"}, "lon": -77.11331733333333, "bike_id": "b5e166a3f4cbcede739af84881b6e79b", "type": "electric_bike", "name": "b5e166a3f4cbcede739af84881b6e79b"}, {"is_disabled": 0, "is_reserved": 0, "fusion_lat": 0.0, "lat": 38.94140733333333, "fusion_lon": 0.0, "rental_uris": {"ios": "https://dc.lft.to/lastmile_qr_scan", "android": "https://dc.lft.to/lastmile_qr_scan"}, "lon": -77.0232955, "bike_id": "1f3f313d8001dd17e91d0b23bbf3e09e", "type": "electric_scooter", "name": "1f3f313d8001dd17e91d0b23bbf3e09e"}, {"is_disabled": 0, "is_reserved": 0, "fusion_lat": 0.0, "lat": 38.932649166666664, "fusion_lon": 0.0, "rental_uris": {"ios": "https://dc.lft.to/lastmile_qr_scan", "android": "https://dc.lft.to/lastmile_qr_scan"}, "lon": -77.021006, "bike_id": "443ade0f7196951d4b7c9db9f42c1cb9", "type": "electric_scooter", "name": "443ade0f7196951d4b7c9db9f42c1cb9"}, {"is_disabled": 0, "is_reserved": 0, "fusion_lat": 0.0, "lat": 38.90799066666666, "fusion_lon": 0.0, "rental_uris": {"ios": "https://dc.lft.to/lastmile_qr_scan", "android": "https://dc.lft.to/lastmile_qr_scan"}, "lon": -77.03833183333333, "bike_id": "0022d5cb177b66e88caebce532f4ccff", "type": "electric_scooter", "name": "0022d5cb177b66e88caebce532f4ccff"}, {"is_disabled": 0, "is_reserved": 0, "fusion_lat": 0.0, "lat": 38.918204, "fusion_lon": 0.0, "rental_uris": {"ios": "https://dc.lft.to/lastmile_qr_scan", "android": "https://dc.lft.to/lastmile_qr_scan"}, "lon": -77.02527633333334, "bike_id": "ad7bbb3158d95662e886fdd723ac3de8", "type": "electric_scooter", "name": "ad7bbb3158d95662e886fdd723ac3de8"}, {"is_disabled": 0, "is_reserved": 0, "fusion_lat": 0.0, "lat": 38.930611166666665, "fusion_lon": 0.0, "rental_uris": {"ios": "https://dc.lft.to/lastmile_qr_scan", "android": "https://dc.lft.to/lastmile_qr_scan"}, "lon": -77.02665233333333, "bike_id": "20d2e4a6c6b0608c3b8168577d42bff4", "type": "electric_scooter", "name": "20d2e4a6c6b0608c3b8168577d42bff4"}, {"is_disabled": 0, "is_reserved": 0, "fusion_lat": 0.0, "lat": 38.85590883333333, "fusion_lon": 0.0, "rental_uris": {"ios": "https://dc.lft.to/lastmile_qr_scan", "android": "https://dc.lft.to/lastmile_qr_scan"}, "lon": -76.97275433333333, "bike_id": "253e8e9f5c0d3bd83a40d09b1cc2d238", "type": "electric_bike", "name": "253e8e9f5c0d3bd83a40d09b1cc2d238"}, {"is_disabled": 0, "is_reserved": 0, "fusion_lat": 0.0, "lat": 38.906555166666664, "fusion_lon": 0.0, "rental_uris": {"ios": "https://dc.lft.to/lastmile_qr_scan", "android": "https://dc.lft.to/lastmile_qr_scan"}, "lon": -77.011762, "bike_id": "bb7e3ac598e3d53d4df7bf008062feb4", "type": "electric_scooter", "name": "bb7e3ac598e3d53d4df7bf008062feb4"}, {"is_disabled": 0, "is_reserved": 0, "fusion_lat": 0.0, "lat": 38.918083, "fusion_lon": 0.0, "rental_uris": {"ios": "https://dc.lft.to/lastmile_qr_scan", "android": "https://dc.lft.to/lastmile_qr_scan"}, "lon": -77.034456, "bike_id": "aa4b062285325bb206284a3499f045ac", "type": "electric_scooter", "name": "aa4b062285325bb206284a3499f045ac"}, {"is_disabled": 0, "is_reserved": 0, "fusion_lat": 0.0, "lat": 39.07443516666667, "fusion_lon": 0.0, "rental_uris": {"ios": "https://dc.lft.to/lastmile_qr_scan", "android": "https://dc.lft.to/lastmile_qr_scan"}, "lon": -77.115199, "bike_id": "28ca0cfd3188f02592481284035e0ed3", "type": "electric_bike", "name": "28ca0cfd3188f02592481284035e0ed3"}, {"is_disabled": 0, "is_reserved": 0, "fusion_lat": 0.0, "lat": 38.9202905, "fusion_lon": 0.0, "rental_uris": {"ios": "https://dc.lft.to/lastmile_qr_scan", "android": "https://dc.lft.to/lastmile_qr_scan"}, "lon": -77.01116516666667, "bike_id": "9a41720ac402337f64e27781693bf78b", "type": "electric_scooter", "name": "9a41720ac402337f64e27781693bf78b"}, {"is_disabled": 0, "is_reserved": 0, "fusion_lat": 0.0, "lat": 38.96165533333333, "fusion_lon": 0.0, "rental_uris": {"ios": "https://dc.lft.to/lastmile_qr_scan", "android": "https://dc.lft.to/lastmile_qr_scan"}, "lon": -77.0278965, "bike_id": "c84240d69851f8856d15a52b26c44cd6", "type": "electric_scooter", "name": "c84240d69851f8856d15a52b26c44cd6"}, {"is_disabled": 0, "is_reserved": 0, "fusion_lat": 0.0, "lat": 38.902655333333335, "fusion_lon": 0.0, "rental_uris": {"ios": "https://dc.lft.to/lastmile_qr_scan", "android": "https://dc.lft.to/lastmile_qr_scan"}, "lon": -77.002147, "bike_id": "85429d7eaabb94e66aefcf6d91ecaa24", "type": "electric_scooter", "name": "85429d7eaabb94e66aefcf6d91ecaa24"}, {"is_disabled": 0, "is_reserved": 0, "fusion_lat": 0.0, "lat": 38.87657266666667, "fusion_lon": 0.0, "rental_uris": {"ios": "https://dc.lft.to/lastmile_qr_scan", "android": "https://dc.lft.to/lastmile_qr_scan"}, "lon": -77.00803833333333, "bike_id": "556c99ad62b4d15159e0b79670785f22", "type": "electric_scooter", "name": "556c99ad62b4d15159e0b79670785f22"}, {"is_disabled": 0, "is_reserved": 0, "fusion_lat": 0.0, "lat": 38.91880733333333, "fusion_lon": 0.0, "rental_uris": {"ios": "https://dc.lft.to/lastmile_qr_scan", "android": "https://dc.lft.to/lastmile_qr_scan"}, "lon": -77.0353995, "bike_id": "4eb59822302cf339e57642cbdc8feddc", "type": "electric_scooter", "name": "4eb59822302cf339e57642cbdc8feddc"}, {"is_disabled": 0, "is_reserved": 0, "fusion_lat": 0.0, "lat": 38.92969133333333, "fusion_lon": 0.0, "rental_uris": {"ios": "https://dc.lft.to/lastmile_qr_scan", "android": "https://dc.lft.to/lastmile_qr_scan"}, "lon": -77.0308145, "bike_id": "e7b7c0611c37baf63039ec0e89b490ca", "type": "electric_scooter", "name": "e7b7c0611c37baf63039ec0e89b490ca"}, {"is_disabled": 0, "is_reserved": 0, "fusion_lat": 0.0, "lat": 38.927631833333336, "fusion_lon": 0.0, "rental_uris": {"ios": "https://dc.lft.to/lastmile_qr_scan", "android": "https://dc.lft.to/lastmile_qr_scan"}, "lon": -77.02803983333334, "bike_id": "3e6be8b1e2496c7632ee2655f9d7f5c9", "type": "electric_scooter", "name": "3e6be8b1e2496c7632ee2655f9d7f5c9"}, {"is_disabled": 0, "is_reserved": 0, "fusion_lat": 0.0, "lat": 38.89979366666667, "fusion_lon": 0.0, "rental_uris": {"ios": "https://dc.lft.to/lastmile_qr_scan", "android": "https://dc.lft.to/lastmile_qr_scan"}, "lon": -77.05058216666667, "bike_id": "7a17a05efb70051f0d9ff48ddbeffc42", "type": "electric_scooter", "name": "7a17a05efb70051f0d9ff48ddbeffc42"}, {"is_disabled": 0, "is_reserved": 0, "fusion_lat": 0.0, "lat": 38.911073, "fusion_lon": 0.0, "rental_uris": {"ios": "https://dc.lft.to/lastmile_qr_scan", "android": "https://dc.lft.to/lastmile_qr_scan"}, "lon": -77.02171416666667, "bike_id": "ce3b254e82a7973ae90ac90d903815f0", "type": "electric_scooter", "name": "ce3b254e82a7973ae90ac90d903815f0"}, {"is_disabled": 0, "is_reserved": 0, "fusion_lat": 0.0, "lat": 38.885447666666664, "fusion_lon": 0.0, "rental_uris": {"ios": "https://dc.lft.to/lastmile_qr_scan", "android": "https://dc.lft.to/lastmile_qr_scan"}, "lon": -76.92370149999999, "bike_id": "bbf3c5e19d62ae4646235557249adbe2", "type": "electric_scooter", "name": "bbf3c5e19d62ae4646235557249adbe2"}, {"is_disabled": 0, "is_reserved": 0, "fusion_lat": 0.0, "lat": 38.922134166666666, "fusion_lon": 0.0, "rental_uris": {"ios": "https://dc.lft.to/lastmile_qr_scan", "android": "https://dc.lft.to/lastmile_qr_scan"}, "lon": -77.08192566666666, "bike_id": "c11392aadf2647736b07dbf8b1132945", "type": "electric_bike", "name": "c11392aadf2647736b07dbf8b1132945"}, {"is_disabled": 0, "is_reserved": 0, "fusion_lat": 0.0, "lat": 38.913346833333335, "fusion_lon": 0.0, "rental_uris": {"ios": "https://dc.lft.to/lastmile_qr_scan", "android": "https://dc.lft.to/lastmile_qr_scan"}, "lon": -77.01623683333334, "bike_id": "a420be4b2fb587c0635272bf74515887", "type": "electric_scooter", "name": "a420be4b2fb587c0635272bf74515887"}, {"is_disabled": 0, "is_reserved": 0, "fusion_lat": 0.0, "lat": 38.89426233333333, "fusion_lon": 0.0, "rental_uris": {"ios": "https://dc.lft.to/lastmile_qr_scan", "android": "https://dc.lft.to/lastmile_qr_scan"}, "lon": -77.01072933333333, "bike_id": "d6a6d15815f7f2060b772d11e8db30b9", "type": "electric_scooter", "name": "d6a6d15815f7f2060b772d11e8db30b9"}, {"is_disabled": 0, "is_reserved": 0, "fusion_lat": 0.0, "lat": 38.885318, "fusion_lon": 0.0, "rental_uris": {"ios": "https://dc.lft.to/lastmile_qr_scan", "android": "https://dc.lft.to/lastmile_qr_scan"}, "lon": -76.98054283333333, "bike_id": "1af98ead6da356cc48cf0bfd119228e4", "type": "electric_scooter", "name": "1af98ead6da356cc48cf0bfd119228e4"}, {"is_disabled": 0, "is_reserved": 0, "fusion_lat": 0.0, "lat": 38.9568685, "fusion_lon": 0.0, "rental_uris": {"ios": "https://dc.lft.to/lastmile_qr_scan", "android": "https://dc.lft.to/lastmile_qr_scan"}, "lon": -77.02226983333334, "bike_id": "e531b73bcfc7311f1fbf88b7537af1ac", "type": "electric_scooter", "name": "e531b73bcfc7311f1fbf88b7537af1ac"}, {"is_disabled": 0, "is_reserved": 0, "fusion_lat": 0.0, "lat": 38.9575395, "fusion_lon": 0.0, "rental_uris": {"ios": "https://dc.lft.to/lastmile_qr_scan", "android": "https://dc.lft.to/lastmile_qr_scan"}, "lon": -77.02210733333334, "bike_id": "9d65aa02da31c5631cad1866db25be77", "type": "electric_scooter", "name": "9d65aa02da31c5631cad1866db25be77"}, {"is_disabled": 0, "is_reserved": 0, "fusion_lat": 0.0, "lat": 38.89629716666666, "fusion_lon": 0.0, "rental_uris": {"ios": "https://dc.lft.to/lastmile_qr_scan", "android": "https://dc.lft.to/lastmile_qr_scan"}, "lon": -76.90756883333333, "bike_id": "5e80452e17e0b7096967328db73403bd", "type": "electric_bike", "name": "5e80452e17e0b7096967328db73403bd"}, {"is_disabled": 0, "is_reserved": 0, "fusion_lat": 0.0, "lat": 38.874971333333335, "fusion_lon": 0.0, "rental_uris": {"ios": "https://dc.lft.to/lastmile_qr_scan", "android": "https://dc.lft.to/lastmile_qr_scan"}, "lon": -77.00083483333333, "bike_id": "1b364c3302e21b93773308da5b62e4f2", "type": "electric_scooter", "name": "1b364c3302e21b93773308da5b62e4f2"}, {"is_disabled": 0, "is_reserved": 0, "fusion_lat": 0.0, "lat": 38.922966333333335, "fusion_lon": 0.0, "rental_uris": {"ios": "https://dc.lft.to/lastmile_qr_scan", "android": "https://dc.lft.to/lastmile_qr_scan"}, "lon": -77.02964833333333, "bike_id": "a1eb32bfb7dfc2f085676f1f4a430e7d", "type": "electric_scooter", "name": "a1eb32bfb7dfc2f085676f1f4a430e7d"}, {"is_disabled": 0, "is_reserved": 0, "fusion_lat": 0.0, "lat": 38.89737016666667, "fusion_lon": 0.0, "rental_uris": {"ios": "https://dc.lft.to/lastmile_qr_scan", "android": "https://dc.lft.to/lastmile_qr_scan"}, "lon": -77.01762233333334, "bike_id": "2e05774b4099f639c1eb6315abbad434", "type": "electric_scooter", "name": "2e05774b4099f639c1eb6315abbad434"}, {"is_disabled": 0, "is_reserved": 0, "fusion_lat": 0.0, "lat": 38.93330983333333, "fusion_lon": 0.0, "rental_uris": {"ios": "https://dc.lft.to/lastmile_qr_scan", "android": "https://dc.lft.to/lastmile_qr_scan"}, "lon": -77.03985083333333, "bike_id": "83d5c32f604e98f75fe64d925ad658bf", "type": "electric_bike", "name": "83d5c32f604e98f75fe64d925ad658bf"}, {"is_disabled": 0, "is_reserved": 0, "fusion_lat": 0.0, "lat": 38.914713, "fusion_lon": 0.0, "rental_uris": {"ios": "https://dc.lft.to/lastmile_qr_scan", "android": "https://dc.lft.to/lastmile_qr_scan"}, "lon": -77.031923, "bike_id": "ff8219c0293094b150f26a6709a8defe", "type": "electric_scooter", "name": "ff8219c0293094b150f26a6709a8defe"}, {"is_disabled": 0, "is_reserved": 0, "fusion_lat": 0.0, "lat": 38.929015166666666, "fusion_lon": 0.0, "rental_uris": {"ios": "https://dc.lft.to/lastmile_qr_scan", "android": "https://dc.lft.to/lastmile_qr_scan"}, "lon": -77.054572, "bike_id": "5ca03669bba8c99953a925357b430424", "type": "electric_scooter", "name": "5ca03669bba8c99953a925357b430424"}, {"is_disabled": 0, "is_reserved": 0, "fusion_lat": 0.0, "lat": 38.87893483333333, "fusion_lon": 0.0, "rental_uris": {"ios": "https://dc.lft.to/lastmile_qr_scan", "android": "https://dc.lft.to/lastmile_qr_scan"}, "lon": -76.93528433333333, "bike_id": "14ea69a600a6a983dfb9ac140a442f78", "type": "electric_scooter", "name": "14ea69a600a6a983dfb9ac140a442f78"}, {"is_disabled": 0, "is_reserved": 0, "fusion_lat": 0.0, "lat": 38.864960833333335, "fusion_lon": 0.0, "rental_uris": {"ios": "https://dc.lft.to/lastmile_qr_scan", "android": "https://dc.lft.to/lastmile_qr_scan"}, "lon": -76.96981633333333, "bike_id": "622c28b5be6642f493d68236630fb439", "type": "electric_bike", "name": "622c28b5be6642f493d68236630fb439"}, {"is_disabled": 0, "is_reserved": 0, "fusion_lat": 0.0, "lat": 38.92978866666667, "fusion_lon": 0.0, "rental_uris": {"ios": "https://dc.lft.to/lastmile_qr_scan", "android": "https://dc.lft.to/lastmile_qr_scan"}, "lon": -77.0393745, "bike_id": "47b1c2d699936b077679a018e3697afc", "type": "electric_scooter", "name": "47b1c2d699936b077679a018e3697afc"}, {"is_disabled": 0, "is_reserved": 0, "fusion_lat": 0.0, "lat": 38.93675, "fusion_lon": 0.0, "rental_uris": {"ios": "https://dc.lft.to/lastmile_qr_scan", "android": "https://dc.lft.to/lastmile_qr_scan"}, "lon": -77.03590533333333, "bike_id": "b6e27ed20a4b4546a6162a506fbbee63", "type": "electric_scooter", "name": "b6e27ed20a4b4546a6162a506fbbee63"}, {"is_disabled": 0, "is_reserved": 0, "fusion_lat": 0.0, "lat": 38.89518666666667, "fusion_lon": 0.0, "rental_uris": {"ios": "https://dc.lft.to/lastmile_qr_scan", "android": "https://dc.lft.to/lastmile_qr_scan"}, "lon": -77.02279133333333, "bike_id": "6294cc3813ab89f0d4dba93061ee6906", "type": "electric_scooter", "name": "6294cc3813ab89f0d4dba93061ee6906"}, {"is_disabled": 0, "is_reserved": 0, "fusion_lat": 0.0, "lat": 38.9072005, "fusion_lon": 0.0, "rental_uris": {"ios": "https://dc.lft.to/lastmile_qr_scan", "android": "https://dc.lft.to/lastmile_qr_scan"}, "lon": -76.9981895, "bike_id": "fdabe8ed327f05ab8857cb6ae9c13ac1", "type": "electric_scooter", "name": "fdabe8ed327f05ab8857cb6ae9c13ac1"}, {"is_disabled": 0, "is_reserved": 0, "fusion_lat": 0.0, "lat": 38.9221935, "fusion_lon": 0.0, "rental_uris": {"ios": "https://dc.lft.to/lastmile_qr_scan", "android": "https://dc.lft.to/lastmile_qr_scan"}, "lon": -77.0389695, "bike_id": "a75a18b1d7a36fc9005632c832078f41", "type": "electric_scooter", "name": "a75a18b1d7a36fc9005632c832078f41"}, {"is_disabled": 0, "is_reserved": 0, "fusion_lat": 0.0, "lat": 38.80522366666667, "fusion_lon": 0.0, "rental_uris": {"ios": "https://dc.lft.to/lastmile_qr_scan", "android": "https://dc.lft.to/lastmile_qr_scan"}, "lon": -77.043422, "bike_id": "894e82d4b3163a33011e1e969152bd70", "type": "electric_bike", "name": "894e82d4b3163a33011e1e969152bd70"}, {"is_disabled": 0, "is_reserved": 0, "fusion_lat": 0.0, "lat": 39.042330666666665, "fusion_lon": 0.0, "rental_uris": {"ios": "https://dc.lft.to/lastmile_qr_scan", "android": "https://dc.lft.to/lastmile_qr_scan"}, "lon": -76.99740033333333, "bike_id": "72499af19be5ddc427e762b9f81ca777", "type": "electric_bike", "name": "72499af19be5ddc427e762b9f81ca777"}, {"is_disabled": 0, "is_reserved": 0, "fusion_lat": 0.0, "lat": 38.912758, "fusion_lon": 0.0, "rental_uris": {"ios": "https://dc.lft.to/lastmile_qr_scan", "android": "https://dc.lft.to/lastmile_qr_scan"}, "lon": -77.04648083333333, "bike_id": "2467ba891113ed917af61583061d7e43", "type": "electric_scooter", "name": "2467ba891113ed917af61583061d7e43"}, {"is_disabled": 0, "is_reserved": 0, "fusion_lat": 0.0, "lat": 38.99850283333333, "fusion_lon": 0.0, "rental_uris": {"ios": "https://dc.lft.to/lastmile_qr_scan", "android": "https://dc.lft.to/lastmile_qr_scan"}, "lon": -77.00250383333334, "bike_id": "f7d3c4958cc60b2917363ffa952a5a2a", "type": "electric_bike", "name": "f7d3c4958cc60b2917363ffa952a5a2a"}, {"is_disabled": 0, "is_reserved": 0, "fusion_lat": 0.0, "lat": 38.8947105, "fusion_lon": 0.0, "rental_uris": {"ios": "https://dc.lft.to/lastmile_qr_scan", "android": "https://dc.lft.to/lastmile_qr_scan"}, "lon": -77.002648, "bike_id": "c5f05dcb18a7b60762d949e616082889", "type": "electric_scooter", "name": "c5f05dcb18a7b60762d949e616082889"}, {"is_disabled": 0, "is_reserved": 0, "fusion_lat": 0.0, "lat": 38.87563866666667, "fusion_lon": 0.0, "rental_uris": {"ios": "https://dc.lft.to/lastmile_qr_scan", "android": "https://dc.lft.to/lastmile_qr_scan"}, "lon": -77.04708816666667, "bike_id": "5739cc70d115fdd29e68bf1e469db07f", "type": "electric_bike", "name": "5739cc70d115fdd29e68bf1e469db07f"}, {"is_disabled": 0, "is_reserved": 0, "fusion_lat": 0.0, "lat": 38.90892983333333, "fusion_lon": 0.0, "rental_uris": {"ios": "https://dc.lft.to/lastmile_qr_scan", "android": "https://dc.lft.to/lastmile_qr_scan"}, "lon": -77.04664166666667, "bike_id": "87b73079e9cbc29ed75c22f8a6fdf310", "type": "electric_scooter", "name": "87b73079e9cbc29ed75c22f8a6fdf310"}, {"is_disabled": 0, "is_reserved": 0, "fusion_lat": 0.0, "lat": 38.907672166666664, "fusion_lon": 0.0, "rental_uris": {"ios": "https://dc.lft.to/lastmile_qr_scan", "android": "https://dc.lft.to/lastmile_qr_scan"}, "lon": -76.99990783333334, "bike_id": "484072d2bf721082b0a4f01a6424a9ea", "type": "electric_scooter", "name": "484072d2bf721082b0a4f01a6424a9ea"}, {"is_disabled": 0, "is_reserved": 0, "fusion_lat": 0.0, "lat": 38.91739616666667, "fusion_lon": 0.0, "rental_uris": {"ios": "https://dc.lft.to/lastmile_qr_scan", "android": "https://dc.lft.to/lastmile_qr_scan"}, "lon": -77.023048, "bike_id": "ab12614f068048841febd3da6e09ac07", "type": "electric_scooter", "name": "ab12614f068048841febd3da6e09ac07"}, {"is_disabled": 0, "is_reserved": 0, "fusion_lat": 0.0, "lat": 38.92986066666667, "fusion_lon": 0.0, "rental_uris": {"ios": "https://dc.lft.to/lastmile_qr_scan", "android": "https://dc.lft.to/lastmile_qr_scan"}, "lon": -77.0347525, "bike_id": "08ff9817cf6597bd26310e213f0fea7e", "type": "electric_scooter", "name": "08ff9817cf6597bd26310e213f0fea7e"}, {"is_disabled": 0, "is_reserved": 0, "fusion_lat": 0.0, "lat": 38.895391833333335, "fusion_lon": 0.0, "rental_uris": {"ios": "https://dc.lft.to/lastmile_qr_scan", "android": "https://dc.lft.to/lastmile_qr_scan"}, "lon": -77.026503, "bike_id": "0211dfc6908245f920bf4dc5e12c84b3", "type": "electric_scooter", "name": "0211dfc6908245f920bf4dc5e12c84b3"}, {"is_disabled": 0, "is_reserved": 0, "fusion_lat": 0.0, "lat": 38.90242466666667, "fusion_lon": 0.0, "rental_uris": {"ios": "https://dc.lft.to/lastmile_qr_scan", "android": "https://dc.lft.to/lastmile_qr_scan"}, "lon": -77.05318966666667, "bike_id": "7f22137e7ff80d5ef44a4559b72d3f29", "type": "electric_scooter", "name": "7f22137e7ff80d5ef44a4559b72d3f29"}, {"is_disabled": 0, "is_reserved": 0, "fusion_lat": 0.0, "lat": 38.936038, "fusion_lon": 0.0, "rental_uris": {"ios": "https://dc.lft.to/lastmile_qr_scan", "android": "https://dc.lft.to/lastmile_qr_scan"}, "lon": -77.0387805, "bike_id": "d4b34a7385b304d4ec1e9e76bda3c8c3", "type": "electric_scooter", "name": "d4b34a7385b304d4ec1e9e76bda3c8c3"}, {"is_disabled": 0, "is_reserved": 0, "fusion_lat": 0.0, "lat": 38.922419, "fusion_lon": 0.0, "rental_uris": {"ios": "https://dc.lft.to/lastmile_qr_scan", "android": "https://dc.lft.to/lastmile_qr_scan"}, "lon": -77.02269816666667, "bike_id": "144dd4fc6cbd3aef126e799018f6f63b", "type": "electric_scooter", "name": "144dd4fc6cbd3aef126e799018f6f63b"}, {"is_disabled": 0, "is_reserved": 0, "fusion_lat": 0.0, "lat": 38.91784916666667, "fusion_lon": 0.0, "rental_uris": {"ios": "https://dc.lft.to/lastmile_qr_scan", "android": "https://dc.lft.to/lastmile_qr_scan"}, "lon": -77.02300983333333, "bike_id": "982f87c71dcfe6e7a8501c8fce2ecef7", "type": "electric_scooter", "name": "982f87c71dcfe6e7a8501c8fce2ecef7"}, {"is_disabled": 0, "is_reserved": 0, "fusion_lat": 0.0, "lat": 38.934127833333335, "fusion_lon": 0.0, "rental_uris": {"ios": "https://dc.lft.to/lastmile_qr_scan", "android": "https://dc.lft.to/lastmile_qr_scan"}, "lon": -77.04282883333333, "bike_id": "5725d68710d62bf6d8cf5b81b255510d", "type": "electric_scooter", "name": "5725d68710d62bf6d8cf5b81b255510d"}, {"is_disabled": 0, "is_reserved": 0, "fusion_lat": 0.0, "lat": 38.9286205, "fusion_lon": 0.0, "rental_uris": {"ios": "https://dc.lft.to/lastmile_qr_scan", "android": "https://dc.lft.to/lastmile_qr_scan"}, "lon": -77.0288385, "bike_id": "dedd4280683629a896426871da4689b2", "type": "electric_scooter", "name": "dedd4280683629a896426871da4689b2"}, {"is_disabled": 0, "is_reserved": 0, "fusion_lat": 0.0, "lat": 38.84285, "fusion_lon": 0.0, "rental_uris": {"ios": "https://dc.lft.to/lastmile_qr_scan", "android": "https://dc.lft.to/lastmile_qr_scan"}, "lon": -76.98842333333333, "bike_id": "05aceab68f9e18407af8dba37eb5f248", "type": "electric_bike", "name": "05aceab68f9e18407af8dba37eb5f248"}, {"is_disabled": 0, "is_reserved": 0, "fusion_lat": 0.0, "lat": 38.88762416666667, "fusion_lon": 0.0, "rental_uris": {"ios": "https://dc.lft.to/lastmile_qr_scan", "android": "https://dc.lft.to/lastmile_qr_scan"}, "lon": -77.15657183333333, "bike_id": "d88a18de84bbf2ecbe6df96364e60f94", "type": "electric_bike", "name": "d88a18de84bbf2ecbe6df96364e60f94"}, {"is_disabled": 0, "is_reserved": 0, "fusion_lat": 0.0, "lat": 38.90912483333334, "fusion_lon": 0.0, "rental_uris": {"ios": "https://dc.lft.to/lastmile_qr_scan", "android": "https://dc.lft.to/lastmile_qr_scan"}, "lon": -76.9977535, "bike_id": "08f3e2a78503ae85dd9b71c9981d3559", "type": "electric_scooter", "name": "08f3e2a78503ae85dd9b71c9981d3559"}, {"is_disabled": 0, "is_reserved": 0, "fusion_lat": 0.0, "lat": 38.89898566666667, "fusion_lon": 0.0, "rental_uris": {"ios": "https://dc.lft.to/lastmile_qr_scan", "android": "https://dc.lft.to/lastmile_qr_scan"}, "lon": -77.01959966666666, "bike_id": "998168dae49b660b77dbc137c4b493d9", "type": "electric_scooter", "name": "998168dae49b660b77dbc137c4b493d9"}, {"is_disabled": 0, "is_reserved": 0, "fusion_lat": 0.0, "lat": 38.8951685, "fusion_lon": 0.0, "rental_uris": {"ios": "https://dc.lft.to/lastmile_qr_scan", "android": "https://dc.lft.to/lastmile_qr_scan"}, "lon": -77.02564166666667, "bike_id": "c6a29cad3fbea11204d2a009488c13b0", "type": "electric_scooter", "name": "c6a29cad3fbea11204d2a009488c13b0"}, {"is_disabled": 0, "is_reserved": 0, "fusion_lat": 0.0, "lat": 38.917826166666664, "fusion_lon": 0.0, "rental_uris": {"ios": "https://dc.lft.to/lastmile_qr_scan", "android": "https://dc.lft.to/lastmile_qr_scan"}, "lon": -77.0230475, "bike_id": "b33cbca51823fed06dc52f2cecf8222e", "type": "electric_scooter", "name": "b33cbca51823fed06dc52f2cecf8222e"}, {"is_disabled": 0, "is_reserved": 0, "fusion_lat": 0.0, "lat": 38.921452, "fusion_lon": 0.0, "rental_uris": {"ios": "https://dc.lft.to/lastmile_qr_scan", "android": "https://dc.lft.to/lastmile_qr_scan"}, "lon": -77.033842, "bike_id": "23ca2db67c3be4d110a9d77c252f187a", "type": "electric_scooter", "name": "23ca2db67c3be4d110a9d77c252f187a"}, {"is_disabled": 0, "is_reserved": 0, "fusion_lat": 0.0, "lat": 38.92940516666667, "fusion_lon": 0.0, "rental_uris": {"ios": "https://dc.lft.to/lastmile_qr_scan", "android": "https://dc.lft.to/lastmile_qr_scan"}, "lon": -77.0327935, "bike_id": "a57f1c80e3ed5fab96bc95c62acf2be6", "type": "electric_scooter", "name": "a57f1c80e3ed5fab96bc95c62acf2be6"}, {"is_disabled": 0, "is_reserved": 0, "fusion_lat": 0.0, "lat": 38.89253866666667, "fusion_lon": 0.0, "rental_uris": {"ios": "https://dc.lft.to/lastmile_qr_scan", "android": "https://dc.lft.to/lastmile_qr_scan"}, "lon": -77.046583, "bike_id": "6ac989b3027a9fab07c133b716d6f9a9", "type": "electric_scooter", "name": "6ac989b3027a9fab07c133b716d6f9a9"}, {"is_disabled": 0, "is_reserved": 0, "fusion_lat": 0.0, "lat": 38.8951645, "fusion_lon": 0.0, "rental_uris": {"ios": "https://dc.lft.to/lastmile_qr_scan", "android": "https://dc.lft.to/lastmile_qr_scan"}, "lon": -77.022681, "bike_id": "b1180790497df2048e00edf2976b75e2", "type": "electric_scooter", "name": "b1180790497df2048e00edf2976b75e2"}, {"is_disabled": 0, "is_reserved": 0, "fusion_lat": 0.0, "lat": 38.89750633333333, "fusion_lon": 0.0, "rental_uris": {"ios": "https://dc.lft.to/lastmile_qr_scan", "android": "https://dc.lft.to/lastmile_qr_scan"}, "lon": -77.0034325, "bike_id": "acab699b57c439501ba6c8a2a674ec3f", "type": "electric_scooter", "name": "acab699b57c439501ba6c8a2a674ec3f"}, {"is_disabled": 0, "is_reserved": 0, "fusion_lat": 0.0, "lat": 38.84600016666667, "fusion_lon": 0.0, "rental_uris": {"ios": "https://dc.lft.to/lastmile_qr_scan", "android": "https://dc.lft.to/lastmile_qr_scan"}, "lon": -76.9741225, "bike_id": "1ebedd8dad82a7763de55c0f7cee12d7", "type": "electric_scooter", "name": "1ebedd8dad82a7763de55c0f7cee12d7"}, {"is_disabled": 0, "is_reserved": 0, "fusion_lat": 0.0, "lat": 38.93790333333333, "fusion_lon": 0.0, "rental_uris": {"ios": "https://dc.lft.to/lastmile_qr_scan", "android": "https://dc.lft.to/lastmile_qr_scan"}, "lon": -77.0232125, "bike_id": "49bac7cad4d37db2140a7de107220fa7", "type": "electric_scooter", "name": "49bac7cad4d37db2140a7de107220fa7"}, {"is_disabled": 0, "is_reserved": 0, "fusion_lat": 0.0, "lat": 38.87839316666667, "fusion_lon": 0.0, "rental_uris": {"ios": "https://dc.lft.to/lastmile_qr_scan", "android": "https://dc.lft.to/lastmile_qr_scan"}, "lon": -76.9860085, "bike_id": "bdd3b5f5c7bf309dd5f10858605bab6a", "type": "electric_scooter", "name": "bdd3b5f5c7bf309dd5f10858605bab6a"}, {"is_disabled": 0, "is_reserved": 0, "fusion_lat": 0.0, "lat": 38.92985783333334, "fusion_lon": 0.0, "rental_uris": {"ios": "https://dc.lft.to/lastmile_qr_scan", "android": "https://dc.lft.to/lastmile_qr_scan"}, "lon": -77.03472066666667, "bike_id": "0d51a54f9bb8f5b8ac26669efaccf73f", "type": "electric_scooter", "name": "0d51a54f9bb8f5b8ac26669efaccf73f"}, {"is_disabled": 0, "is_reserved": 0, "fusion_lat": 0.0, "lat": 38.92472566666667, "fusion_lon": 0.0, "rental_uris": {"ios": "https://dc.lft.to/lastmile_qr_scan", "android": "https://dc.lft.to/lastmile_qr_scan"}, "lon": -77.0523755, "bike_id": "bec10f3859e9e09e36409f6796e71f54", "type": "electric_scooter", "name": "bec10f3859e9e09e36409f6796e71f54"}, {"is_disabled": 0, "is_reserved": 0, "fusion_lat": 0.0, "lat": 38.90648083333333, "fusion_lon": 0.0, "rental_uris": {"ios": "https://dc.lft.to/lastmile_qr_scan", "android": "https://dc.lft.to/lastmile_qr_scan"}, "lon": -76.97944583333333, "bike_id": "f309ecd19968976253c3fdfc59a89d42", "type": "electric_scooter", "name": "f309ecd19968976253c3fdfc59a89d42"}, {"is_disabled": 0, "is_reserved": 0, "fusion_lat": 0.0, "lat": 38.941732, "fusion_lon": 0.0, "rental_uris": {"ios": "https://dc.lft.to/lastmile_qr_scan", "android": "https://dc.lft.to/lastmile_qr_scan"}, "lon": -77.02535983333334, "bike_id": "4fffb7055e222730f5d135853c10ab73", "type": "electric_scooter", "name": "4fffb7055e222730f5d135853c10ab73"}, {"is_disabled": 0, "is_reserved": 0, "fusion_lat": 0.0, "lat": 38.91416233333333, "fusion_lon": 0.0, "rental_uris": {"ios": "https://dc.lft.to/lastmile_qr_scan", "android": "https://dc.lft.to/lastmile_qr_scan"}, "lon": -77.0212295, "bike_id": "0d2fa1a7dede1aad48dfd47378439ac8", "type": "electric_scooter", "name": "0d2fa1a7dede1aad48dfd47378439ac8"}, {"is_disabled": 0, "is_reserved": 0, "fusion_lat": 0.0, "lat": 38.912308833333334, "fusion_lon": 0.0, "rental_uris": {"ios": "https://dc.lft.to/lastmile_qr_scan", "android": "https://dc.lft.to/lastmile_qr_scan"}, "lon": -77.06398566666667, "bike_id": "401e748fe0eb08088c2f38fca2f2505d", "type": "electric_scooter", "name": "401e748fe0eb08088c2f38fca2f2505d"}, {"is_disabled": 0, "is_reserved": 0, "fusion_lat": 0.0, "lat": 38.908794, "fusion_lon": 0.0, "rental_uris": {"ios": "https://dc.lft.to/lastmile_qr_scan", "android": "https://dc.lft.to/lastmile_qr_scan"}, "lon": -77.07439066666667, "bike_id": "acd5e14f130bd72565619acffde22db2", "type": "electric_scooter", "name": "acd5e14f130bd72565619acffde22db2"}, {"is_disabled": 0, "is_reserved": 0, "fusion_lat": 0.0, "lat": 38.89822233333334, "fusion_lon": 0.0, "rental_uris": {"ios": "https://dc.lft.to/lastmile_qr_scan", "android": "https://dc.lft.to/lastmile_qr_scan"}, "lon": -77.002137, "bike_id": "05e975e5394255950fc11536a58d54e9", "type": "electric_scooter", "name": "05e975e5394255950fc11536a58d54e9"}, {"is_disabled": 0, "is_reserved": 0, "fusion_lat": 0.0, "lat": 38.892505, "fusion_lon": 0.0, "rental_uris": {"ios": "https://dc.lft.to/lastmile_qr_scan", "android": "https://dc.lft.to/lastmile_qr_scan"}, "lon": -77.039583, "bike_id": "422813bf9cc2a4c9f0c3118751c88505", "type": "electric_scooter", "name": "422813bf9cc2a4c9f0c3118751c88505"}, {"is_disabled": 0, "is_reserved": 0, "fusion_lat": 0.0, "lat": 38.9243455, "fusion_lon": 0.0, "rental_uris": {"ios": "https://dc.lft.to/lastmile_qr_scan", "android": "https://dc.lft.to/lastmile_qr_scan"}, "lon": -77.034009, "bike_id": "0677450dd3835be54070de9081f19d6c", "type": "electric_scooter", "name": "0677450dd3835be54070de9081f19d6c"}, {"is_disabled": 0, "is_reserved": 0, "fusion_lat": 0.0, "lat": 38.920731333333336, "fusion_lon": 0.0, "rental_uris": {"ios": "https://dc.lft.to/lastmile_qr_scan", "android": "https://dc.lft.to/lastmile_qr_scan"}, "lon": -77.02563916666666, "bike_id": "972dc8bce892acb5033efd67f6ce3e06", "type": "electric_scooter", "name": "972dc8bce892acb5033efd67f6ce3e06"}, {"is_disabled": 0, "is_reserved": 0, "fusion_lat": 0.0, "lat": 38.9420125, "fusion_lon": 0.0, "rental_uris": {"ios": "https://dc.lft.to/lastmile_qr_scan", "android": "https://dc.lft.to/lastmile_qr_scan"}, "lon": -77.0256805, "bike_id": "e63768614c04f9b391196345591d99a3", "type": "electric_scooter", "name": "e63768614c04f9b391196345591d99a3"}, {"is_disabled": 0, "is_reserved": 0, "fusion_lat": 0.0, "lat": 38.917772, "fusion_lon": 0.0, "rental_uris": {"ios": "https://dc.lft.to/lastmile_qr_scan", "android": "https://dc.lft.to/lastmile_qr_scan"}, "lon": -77.0235605, "bike_id": "33e5fe34fd35259e2a5b7e1221685e87", "type": "electric_scooter", "name": "33e5fe34fd35259e2a5b7e1221685e87"}, {"is_disabled": 0, "is_reserved": 0, "fusion_lat": 0.0, "lat": 38.9182, "fusion_lon": 0.0, "rental_uris": {"ios": "https://dc.lft.to/lastmile_qr_scan", "android": "https://dc.lft.to/lastmile_qr_scan"}, "lon": -77.02717533333333, "bike_id": "6beb124f30c77119b3ce9c800b382a43", "type": "electric_scooter", "name": "6beb124f30c77119b3ce9c800b382a43"}, {"is_disabled": 0, "is_reserved": 0, "fusion_lat": 0.0, "lat": 38.87655633333333, "fusion_lon": 0.0, "rental_uris": {"ios": "https://dc.lft.to/lastmile_qr_scan", "android": "https://dc.lft.to/lastmile_qr_scan"}, "lon": -77.0089325, "bike_id": "90c6d81ab2169876ff91c4753be043cb", "type": "electric_scooter", "name": "90c6d81ab2169876ff91c4753be043cb"}, {"is_disabled": 0, "is_reserved": 0, "fusion_lat": 0.0, "lat": 38.97444866666667, "fusion_lon": 0.0, "rental_uris": {"ios": "https://dc.lft.to/lastmile_qr_scan", "android": "https://dc.lft.to/lastmile_qr_scan"}, "lon": -77.096158, "bike_id": "0030f4720443f09096f90fde96319996", "type": "electric_bike", "name": "0030f4720443f09096f90fde96319996"}, {"is_disabled": 0, "is_reserved": 0, "fusion_lat": 0.0, "lat": 38.9230495, "fusion_lon": 0.0, "rental_uris": {"ios": "https://dc.lft.to/lastmile_qr_scan", "android": "https://dc.lft.to/lastmile_qr_scan"}, "lon": -77.03402283333334, "bike_id": "eef775898af9fd82c46f980f3b7eff9a", "type": "electric_scooter", "name": "eef775898af9fd82c46f980f3b7eff9a"}, {"is_disabled": 0, "is_reserved": 0, "fusion_lat": 0.0, "lat": 38.8984805, "fusion_lon": 0.0, "rental_uris": {"ios": "https://dc.lft.to/lastmile_qr_scan", "android": "https://dc.lft.to/lastmile_qr_scan"}, "lon": -77.00210683333333, "bike_id": "c0c6ed5b59c40295aadc0115366cc02e", "type": "electric_scooter", "name": "c0c6ed5b59c40295aadc0115366cc02e"}, {"is_disabled": 0, "is_reserved": 0, "fusion_lat": 0.0, "lat": 38.894576, "fusion_lon": 0.0, "rental_uris": {"ios": "https://dc.lft.to/lastmile_qr_scan", "android": "https://dc.lft.to/lastmile_qr_scan"}, "lon": -76.93680183333333, "bike_id": "cbec32a973d09cec5ecbd932b3fe2fda", "type": "electric_bike", "name": "cbec32a973d09cec5ecbd932b3fe2fda"}, {"is_disabled": 0, "is_reserved": 0, "fusion_lat": 0.0, "lat": 38.90650083333333, "fusion_lon": 0.0, "rental_uris": {"ios": "https://dc.lft.to/lastmile_qr_scan", "android": "https://dc.lft.to/lastmile_qr_scan"}, "lon": -77.048874, "bike_id": "9070d537646229c38786b59afe846bb6", "type": "electric_scooter", "name": "9070d537646229c38786b59afe846bb6"}, {"is_disabled": 0, "is_reserved": 0, "fusion_lat": 0.0, "lat": 38.89542433333333, "fusion_lon": 0.0, "rental_uris": {"ios": "https://dc.lft.to/lastmile_qr_scan", "android": "https://dc.lft.to/lastmile_qr_scan"}, "lon": -77.021627, "bike_id": "ac4add252a951d1ffb1e3946b9e41b93", "type": "electric_scooter", "name": "ac4add252a951d1ffb1e3946b9e41b93"}, {"is_disabled": 0, "is_reserved": 0, "fusion_lat": 0.0, "lat": 38.8790845, "fusion_lon": 0.0, "rental_uris": {"ios": "https://dc.lft.to/lastmile_qr_scan", "android": "https://dc.lft.to/lastmile_qr_scan"}, "lon": -77.00763183333333, "bike_id": "83d0b64ac52208edf4afd1e32d84d39a", "type": "electric_scooter", "name": "83d0b64ac52208edf4afd1e32d84d39a"}, {"is_disabled": 0, "is_reserved": 0, "fusion_lat": 0.0, "lat": 38.92427416666666, "fusion_lon": 0.0, "rental_uris": {"ios": "https://dc.lft.to/lastmile_qr_scan", "android": "https://dc.lft.to/lastmile_qr_scan"}, "lon": -77.04244633333333, "bike_id": "abaf7b60e89d0f982a2b7ac01035af30", "type": "electric_scooter", "name": "abaf7b60e89d0f982a2b7ac01035af30"}, {"is_disabled": 0, "is_reserved": 0, "fusion_lat": 0.0, "lat": 38.91658616666667, "fusion_lon": 0.0, "rental_uris": {"ios": "https://dc.lft.to/lastmile_qr_scan", "android": "https://dc.lft.to/lastmile_qr_scan"}, "lon": -77.00954016666667, "bike_id": "d77f20967b377692354c4cc6aa5b5de6", "type": "electric_scooter", "name": "d77f20967b377692354c4cc6aa5b5de6"}, {"is_disabled": 0, "is_reserved": 0, "fusion_lat": 0.0, "lat": 38.9155205, "fusion_lon": 0.0, "rental_uris": {"ios": "https://dc.lft.to/lastmile_qr_scan", "android": "https://dc.lft.to/lastmile_qr_scan"}, "lon": -77.03180183333333, "bike_id": "766320ff2089f88a442d915975edc91b", "type": "electric_scooter", "name": "766320ff2089f88a442d915975edc91b"}, {"is_disabled": 0, "is_reserved": 0, "fusion_lat": 0.0, "lat": 38.87863483333334, "fusion_lon": 0.0, "rental_uris": {"ios": "https://dc.lft.to/lastmile_qr_scan", "android": "https://dc.lft.to/lastmile_qr_scan"}, "lon": -77.0074815, "bike_id": "9635d74f65ca4b0c9fb24dabff712009", "type": "electric_scooter", "name": "9635d74f65ca4b0c9fb24dabff712009"}, {"is_disabled": 0, "is_reserved": 0, "fusion_lat": 0.0, "lat": 38.866314333333335, "fusion_lon": 0.0, "rental_uris": {"ios": "https://dc.lft.to/lastmile_qr_scan", "android": "https://dc.lft.to/lastmile_qr_scan"}, "lon": -76.990065, "bike_id": "0de9e9c9916e70e724cd2a19d51b34a2", "type": "electric_bike", "name": "0de9e9c9916e70e724cd2a19d51b34a2"}, {"is_disabled": 0, "is_reserved": 0, "fusion_lat": 0.0, "lat": 38.8974025, "fusion_lon": 0.0, "rental_uris": {"ios": "https://dc.lft.to/lastmile_qr_scan", "android": "https://dc.lft.to/lastmile_qr_scan"}, "lon": -77.04639916666666, "bike_id": "ebfd396814ed5ef04ed0d0f81b2abce0", "type": "electric_scooter", "name": "ebfd396814ed5ef04ed0d0f81b2abce0"}, {"is_disabled": 0, "is_reserved": 0, "fusion_lat": 0.0, "lat": 38.87880066666666, "fusion_lon": 0.0, "rental_uris": {"ios": "https://dc.lft.to/lastmile_qr_scan", "android": "https://dc.lft.to/lastmile_qr_scan"}, "lon": -77.02319833333334, "bike_id": "618965bebc941c6e20878e1cecda1573", "type": "electric_scooter", "name": "618965bebc941c6e20878e1cecda1573"}, {"is_disabled": 0, "is_reserved": 0, "fusion_lat": 0.0, "lat": 38.9909335, "fusion_lon": 0.0, "rental_uris": {"ios": "https://dc.lft.to/lastmile_qr_scan", "android": "https://dc.lft.to/lastmile_qr_scan"}, "lon": -76.99369316666667, "bike_id": "e5353f2243ae46de5f152e6c376cf5b2", "type": "electric_bike", "name": "e5353f2243ae46de5f152e6c376cf5b2"}, {"is_disabled": 0, "is_reserved": 0, "fusion_lat": 0.0, "lat": 38.91953433333333, "fusion_lon": 0.0, "rental_uris": {"ios": "https://dc.lft.to/lastmile_qr_scan", "android": "https://dc.lft.to/lastmile_qr_scan"}, "lon": -77.07874216666667, "bike_id": "18ace8dc8a190ec8dd683c913275e4f9", "type": "electric_scooter", "name": "18ace8dc8a190ec8dd683c913275e4f9"}, {"is_disabled": 0, "is_reserved": 0, "fusion_lat": 0.0, "lat": 38.90843433333333, "fusion_lon": 0.0, "rental_uris": {"ios": "https://dc.lft.to/lastmile_qr_scan", "android": "https://dc.lft.to/lastmile_qr_scan"}, "lon": -77.05809466666666, "bike_id": "af6704d4943472c61864551493f8a039", "type": "electric_scooter", "name": "af6704d4943472c61864551493f8a039"}, {"is_disabled": 0, "is_reserved": 0, "fusion_lat": 0.0, "lat": 38.84856816666667, "fusion_lon": 0.0, "rental_uris": {"ios": "https://dc.lft.to/lastmile_qr_scan", "android": "https://dc.lft.to/lastmile_qr_scan"}, "lon": -77.068244, "bike_id": "df53a49dc933b581901809539eb48278", "type": "electric_bike", "name": "df53a49dc933b581901809539eb48278"}, {"is_disabled": 0, "is_reserved": 0, "fusion_lat": 0.0, "lat": 38.91681333333333, "fusion_lon": 0.0, "rental_uris": {"ios": "https://dc.lft.to/lastmile_qr_scan", "android": "https://dc.lft.to/lastmile_qr_scan"}, "lon": -77.023433, "bike_id": "88f00313219e540c5737ed6fe754b4a7", "type": "electric_scooter", "name": "88f00313219e540c5737ed6fe754b4a7"}, {"is_disabled": 0, "is_reserved": 0, "fusion_lat": 0.0, "lat": 38.93862883333333, "fusion_lon": 0.0, "rental_uris": {"ios": "https://dc.lft.to/lastmile_qr_scan", "android": "https://dc.lft.to/lastmile_qr_scan"}, "lon": -76.99435033333333, "bike_id": "7e70bf32fe846ca65f7d80eb9c34aac9", "type": "electric_scooter", "name": "7e70bf32fe846ca65f7d80eb9c34aac9"}, {"is_disabled": 0, "is_reserved": 0, "fusion_lat": 0.0, "lat": 38.90251166666667, "fusion_lon": 0.0, "rental_uris": {"ios": "https://dc.lft.to/lastmile_qr_scan", "android": "https://dc.lft.to/lastmile_qr_scan"}, "lon": -77.01438716666667, "bike_id": "15b44c1f85ad4c51aa1d97bc4e1a83fa", "type": "electric_scooter", "name": "15b44c1f85ad4c51aa1d97bc4e1a83fa"}, {"is_disabled": 0, "is_reserved": 0, "fusion_lat": 0.0, "lat": 38.87666866666667, "fusion_lon": 0.0, "rental_uris": {"ios": "https://dc.lft.to/lastmile_qr_scan", "android": "https://dc.lft.to/lastmile_qr_scan"}, "lon": -77.0019065, "bike_id": "d64345b51fafbf7cc2cdce1a7c02123a", "type": "electric_scooter", "name": "d64345b51fafbf7cc2cdce1a7c02123a"}, {"is_disabled": 0, "is_reserved": 0, "fusion_lat": 0.0, "lat": 38.93555883333333, "fusion_lon": 0.0, "rental_uris": {"ios": "https://dc.lft.to/lastmile_qr_scan", "android": "https://dc.lft.to/lastmile_qr_scan"}, "lon": -77.07713233333334, "bike_id": "2e763898392e877c20fcc76c7be5f1dc", "type": "electric_scooter", "name": "2e763898392e877c20fcc76c7be5f1dc"}, {"is_disabled": 0, "is_reserved": 0, "fusion_lat": 0.0, "lat": 38.923827833333334, "fusion_lon": 0.0, "rental_uris": {"ios": "https://dc.lft.to/lastmile_qr_scan", "android": "https://dc.lft.to/lastmile_qr_scan"}, "lon": -77.04018116666667, "bike_id": "641a49e59d6679415cbf62eb917d7394", "type": "electric_scooter", "name": "641a49e59d6679415cbf62eb917d7394"}, {"is_disabled": 0, "is_reserved": 0, "fusion_lat": 0.0, "lat": 38.922420333333335, "fusion_lon": 0.0, "rental_uris": {"ios": "https://dc.lft.to/lastmile_qr_scan", "android": "https://dc.lft.to/lastmile_qr_scan"}, "lon": -77.036602, "bike_id": "8d1705e8177275a9fb72b0d7cd8ca0cc", "type": "electric_scooter", "name": "8d1705e8177275a9fb72b0d7cd8ca0cc"}, {"is_disabled": 0, "is_reserved": 0, "fusion_lat": 0.0, "lat": 38.8862045, "fusion_lon": 0.0, "rental_uris": {"ios": "https://dc.lft.to/lastmile_qr_scan", "android": "https://dc.lft.to/lastmile_qr_scan"}, "lon": -76.926328, "bike_id": "309d288fc6d89c6edb2930507e7a3002", "type": "electric_scooter", "name": "309d288fc6d89c6edb2930507e7a3002"}, {"is_disabled": 0, "is_reserved": 0, "fusion_lat": 0.0, "lat": 38.94329916666667, "fusion_lon": 0.0, "rental_uris": {"ios": "https://dc.lft.to/lastmile_qr_scan", "android": "https://dc.lft.to/lastmile_qr_scan"}, "lon": -77.02693266666667, "bike_id": "7e5d48e62f68c8da1ed46354cec2b30c", "type": "electric_scooter", "name": "7e5d48e62f68c8da1ed46354cec2b30c"}, {"is_disabled": 0, "is_reserved": 0, "fusion_lat": 0.0, "lat": 38.905631666666665, "fusion_lon": 0.0, "rental_uris": {"ios": "https://dc.lft.to/lastmile_qr_scan", "android": "https://dc.lft.to/lastmile_qr_scan"}, "lon": -77.0049545, "bike_id": "f000ae687d9d1aee579308f8c6b5cd30", "type": "electric_scooter", "name": "f000ae687d9d1aee579308f8c6b5cd30"}, {"is_disabled": 0, "is_reserved": 0, "fusion_lat": 0.0, "lat": 38.91414666666667, "fusion_lon": 0.0, "rental_uris": {"ios": "https://dc.lft.to/lastmile_qr_scan", "android": "https://dc.lft.to/lastmile_qr_scan"}, "lon": -77.05212666666667, "bike_id": "b1cef4787d7c08f95803209f3c37b2d8", "type": "electric_scooter", "name": "b1cef4787d7c08f95803209f3c37b2d8"}, {"is_disabled": 0, "is_reserved": 0, "fusion_lat": 0.0, "lat": 38.927615, "fusion_lon": 0.0, "rental_uris": {"ios": "https://dc.lft.to/lastmile_qr_scan", "android": "https://dc.lft.to/lastmile_qr_scan"}, "lon": -77.05266933333333, "bike_id": "08f37233a02284339036b6096c8ded06", "type": "electric_scooter", "name": "08f37233a02284339036b6096c8ded06"}, {"is_disabled": 0, "is_reserved": 0, "fusion_lat": 0.0, "lat": 38.90517066666666, "fusion_lon": 0.0, "rental_uris": {"ios": "https://dc.lft.to/lastmile_qr_scan", "android": "https://dc.lft.to/lastmile_qr_scan"}, "lon": -76.9520125, "bike_id": "d89ca09b1203f0ca313fdf8135efeb16", "type": "electric_scooter", "name": "d89ca09b1203f0ca313fdf8135efeb16"}, {"is_disabled": 0, "is_reserved": 0, "fusion_lat": 0.0, "lat": 38.91648883333333, "fusion_lon": 0.0, "rental_uris": {"ios": "https://dc.lft.to/lastmile_qr_scan", "android": "https://dc.lft.to/lastmile_qr_scan"}, "lon": -77.02290016666667, "bike_id": "35b0e0621471b858d352fe1fa955487c", "type": "electric_scooter", "name": "35b0e0621471b858d352fe1fa955487c"}, {"is_disabled": 0, "is_reserved": 0, "fusion_lat": 0.0, "lat": 38.955874666666666, "fusion_lon": 0.0, "rental_uris": {"ios": "https://dc.lft.to/lastmile_qr_scan", "android": "https://dc.lft.to/lastmile_qr_scan"}, "lon": -77.01788483333333, "bike_id": "fde0eb5e43bca1c0d283294c35499299", "type": "electric_scooter", "name": "fde0eb5e43bca1c0d283294c35499299"}, {"is_disabled": 0, "is_reserved": 0, "fusion_lat": 0.0, "lat": 39.0264745, "fusion_lon": 0.0, "rental_uris": {"ios": "https://dc.lft.to/lastmile_qr_scan", "android": "https://dc.lft.to/lastmile_qr_scan"}, "lon": -77.03683016666666, "bike_id": "2460344f94e58dd115c5b5b0404b906e", "type": "electric_bike", "name": "2460344f94e58dd115c5b5b0404b906e"}, {"is_disabled": 0, "is_reserved": 0, "fusion_lat": 0.0, "lat": 38.92667983333333, "fusion_lon": 0.0, "rental_uris": {"ios": "https://dc.lft.to/lastmile_qr_scan", "android": "https://dc.lft.to/lastmile_qr_scan"}, "lon": -77.0302345, "bike_id": "2cd4305f8687a058b313d7a8ef781d07", "type": "electric_scooter", "name": "2cd4305f8687a058b313d7a8ef781d07"}, {"is_disabled": 0, "is_reserved": 0, "fusion_lat": 0.0, "lat": 38.921982666666665, "fusion_lon": 0.0, "rental_uris": {"ios": "https://dc.lft.to/lastmile_qr_scan", "android": "https://dc.lft.to/lastmile_qr_scan"}, "lon": -77.02043616666667, "bike_id": "8ebe15bf436f628f6e1addc8f28dfa4f", "type": "electric_scooter", "name": "8ebe15bf436f628f6e1addc8f28dfa4f"}, {"is_disabled": 0, "is_reserved": 0, "fusion_lat": 0.0, "lat": 38.920489833333335, "fusion_lon": 0.0, "rental_uris": {"ios": "https://dc.lft.to/lastmile_qr_scan", "android": "https://dc.lft.to/lastmile_qr_scan"}, "lon": -77.03127883333333, "bike_id": "e4644c0c10ba978620133a992f3caa78", "type": "electric_scooter", "name": "e4644c0c10ba978620133a992f3caa78"}, {"is_disabled": 0, "is_reserved": 0, "fusion_lat": 0.0, "lat": 38.90117933333333, "fusion_lon": 0.0, "rental_uris": {"ios": "https://dc.lft.to/lastmile_qr_scan", "android": "https://dc.lft.to/lastmile_qr_scan"}, "lon": -76.981161, "bike_id": "9a45862fc91987806face4831e805506", "type": "electric_scooter", "name": "9a45862fc91987806face4831e805506"}, {"is_disabled": 0, "is_reserved": 0, "fusion_lat": 0.0, "lat": 38.89684283333333, "fusion_lon": 0.0, "rental_uris": {"ios": "https://dc.lft.to/lastmile_qr_scan", "android": "https://dc.lft.to/lastmile_qr_scan"}, "lon": -77.02392766666667, "bike_id": "721acdf1c83a4c4cf3d9b1572a0eec26", "type": "electric_bike", "name": "721acdf1c83a4c4cf3d9b1572a0eec26"}, {"is_disabled": 0, "is_reserved": 0, "fusion_lat": 0.0, "lat": 38.90142483333333, "fusion_lon": 0.0, "rental_uris": {"ios": "https://dc.lft.to/lastmile_qr_scan", "android": "https://dc.lft.to/lastmile_qr_scan"}, "lon": -76.97401166666667, "bike_id": "8eb938a51b75ed28487c556514db4869", "type": "electric_scooter", "name": "8eb938a51b75ed28487c556514db4869"}, {"is_disabled": 0, "is_reserved": 0, "fusion_lat": 0.0, "lat": 38.8688535, "fusion_lon": 0.0, "rental_uris": {"ios": "https://dc.lft.to/lastmile_qr_scan", "android": "https://dc.lft.to/lastmile_qr_scan"}, "lon": -76.9900045, "bike_id": "94a89931eacfbe709d4f9a94822fb82f", "type": "electric_scooter", "name": "94a89931eacfbe709d4f9a94822fb82f"}, {"is_disabled": 0, "is_reserved": 0, "fusion_lat": 0.0, "lat": 38.89607766666666, "fusion_lon": 0.0, "rental_uris": {"ios": "https://dc.lft.to/lastmile_qr_scan", "android": "https://dc.lft.to/lastmile_qr_scan"}, "lon": -76.98311783333334, "bike_id": "0946739342c0c04b8b92cede14445e93", "type": "electric_scooter", "name": "0946739342c0c04b8b92cede14445e93"}, {"is_disabled": 0, "is_reserved": 0, "fusion_lat": 0.0, "lat": 38.91731883333333, "fusion_lon": 0.0, "rental_uris": {"ios": "https://dc.lft.to/lastmile_qr_scan", "android": "https://dc.lft.to/lastmile_qr_scan"}, "lon": -77.02606466666667, "bike_id": "83f6035b2754280537d2fb9822dedac4", "type": "electric_scooter", "name": "83f6035b2754280537d2fb9822dedac4"}, {"is_disabled": 0, "is_reserved": 0, "fusion_lat": 0.0, "lat": 38.90041316666667, "fusion_lon": 0.0, "rental_uris": {"ios": "https://dc.lft.to/lastmile_qr_scan", "android": "https://dc.lft.to/lastmile_qr_scan"}, "lon": -77.05084966666666, "bike_id": "878ae960ef97d4145ffd4ba2433b6c5b", "type": "electric_scooter", "name": "878ae960ef97d4145ffd4ba2433b6c5b"}, {"is_disabled": 0, "is_reserved": 0, "fusion_lat": 0.0, "lat": 38.923196, "fusion_lon": 0.0, "rental_uris": {"ios": "https://dc.lft.to/lastmile_qr_scan", "android": "https://dc.lft.to/lastmile_qr_scan"}, "lon": -77.03811116666667, "bike_id": "9cc59b007d7a57122904858568e8101c", "type": "electric_scooter", "name": "9cc59b007d7a57122904858568e8101c"}, {"is_disabled": 0, "is_reserved": 0, "fusion_lat": 0.0, "lat": 38.8763695, "fusion_lon": 0.0, "rental_uris": {"ios": "https://dc.lft.to/lastmile_qr_scan", "android": "https://dc.lft.to/lastmile_qr_scan"}, "lon": -77.015869, "bike_id": "d1a4acfda9f6203163cbeb43e20065e1", "type": "electric_scooter", "name": "d1a4acfda9f6203163cbeb43e20065e1"}, {"is_disabled": 0, "is_reserved": 0, "fusion_lat": 0.0, "lat": 38.91263333333333, "fusion_lon": 0.0, "rental_uris": {"ios": "https://dc.lft.to/lastmile_qr_scan", "android": "https://dc.lft.to/lastmile_qr_scan"}, "lon": -77.04711666666667, "bike_id": "3613bebf18547f051c744910e4c761fd", "type": "electric_scooter", "name": "3613bebf18547f051c744910e4c761fd"}, {"is_disabled": 0, "is_reserved": 0, "fusion_lat": 0.0, "lat": 38.926141333333334, "fusion_lon": 0.0, "rental_uris": {"ios": "https://dc.lft.to/lastmile_qr_scan", "android": "https://dc.lft.to/lastmile_qr_scan"}, "lon": -77.0065585, "bike_id": "10c35667388995d72f3a692690b8f3ac", "type": "electric_scooter", "name": "10c35667388995d72f3a692690b8f3ac"}, {"is_disabled": 0, "is_reserved": 0, "fusion_lat": 0.0, "lat": 38.9416555, "fusion_lon": 0.0, "rental_uris": {"ios": "https://dc.lft.to/lastmile_qr_scan", "android": "https://dc.lft.to/lastmile_qr_scan"}, "lon": -76.9940645, "bike_id": "9048c11e804c7a6322b46ae810a10de0", "type": "electric_bike", "name": "9048c11e804c7a6322b46ae810a10de0"}, {"is_disabled": 0, "is_reserved": 0, "fusion_lat": 0.0, "lat": 38.93980833333333, "fusion_lon": 0.0, "rental_uris": {"ios": "https://dc.lft.to/lastmile_qr_scan", "android": "https://dc.lft.to/lastmile_qr_scan"}, "lon": -77.01914383333333, "bike_id": "3bf99dd6afbb148b8ff380c44ff03cfd", "type": "electric_scooter", "name": "3bf99dd6afbb148b8ff380c44ff03cfd"}, {"is_disabled": 0, "is_reserved": 0, "fusion_lat": 0.0, "lat": 38.951100333333336, "fusion_lon": 0.0, "rental_uris": {"ios": "https://dc.lft.to/lastmile_qr_scan", "android": "https://dc.lft.to/lastmile_qr_scan"}, "lon": -77.01891883333333, "bike_id": "47475f1dd0149f92b78f000bdf050ff0", "type": "electric_scooter", "name": "47475f1dd0149f92b78f000bdf050ff0"}, {"is_disabled": 0, "is_reserved": 0, "fusion_lat": 0.0, "lat": 38.92145033333333, "fusion_lon": 0.0, "rental_uris": {"ios": "https://dc.lft.to/lastmile_qr_scan", "android": "https://dc.lft.to/lastmile_qr_scan"}, "lon": -77.03638483333333, "bike_id": "54d50f22c154ec6e6f2289465ea043bf", "type": "electric_scooter", "name": "54d50f22c154ec6e6f2289465ea043bf"}, {"is_disabled": 0, "is_reserved": 0, "fusion_lat": 0.0, "lat": 38.982124666666664, "fusion_lon": 0.0, "rental_uris": {"ios": "https://dc.lft.to/lastmile_qr_scan", "android": "https://dc.lft.to/lastmile_qr_scan"}, "lon": -76.97819116666666, "bike_id": "a2b6f5df4f4586cc2e3a1fc1d28c3b13", "type": "electric_bike", "name": "a2b6f5df4f4586cc2e3a1fc1d28c3b13"}, {"is_disabled": 0, "is_reserved": 0, "fusion_lat": 0.0, "lat": 38.89362933333334, "fusion_lon": 0.0, "rental_uris": {"ios": "https://dc.lft.to/lastmile_qr_scan", "android": "https://dc.lft.to/lastmile_qr_scan"}, "lon": -77.044769, "bike_id": "95898cb6921cbb143548da651c0b911b", "type": "electric_scooter", "name": "95898cb6921cbb143548da651c0b911b"}, {"is_disabled": 0, "is_reserved": 0, "fusion_lat": 0.0, "lat": 38.936057, "fusion_lon": 0.0, "rental_uris": {"ios": "https://dc.lft.to/lastmile_qr_scan", "android": "https://dc.lft.to/lastmile_qr_scan"}, "lon": -77.05593433333334, "bike_id": "1985dd794666b883b4f402090c3194c5", "type": "electric_scooter", "name": "1985dd794666b883b4f402090c3194c5"}, {"is_disabled": 0, "is_reserved": 0, "fusion_lat": 0.0, "lat": 38.9277285, "fusion_lon": 0.0, "rental_uris": {"ios": "https://dc.lft.to/lastmile_qr_scan", "android": "https://dc.lft.to/lastmile_qr_scan"}, "lon": -77.05257916666666, "bike_id": "7a90684c0eb87be44ed0df7d7caf63ce", "type": "electric_scooter", "name": "7a90684c0eb87be44ed0df7d7caf63ce"}, {"is_disabled": 0, "is_reserved": 0, "fusion_lat": 0.0, "lat": 38.878400666666664, "fusion_lon": 0.0, "rental_uris": {"ios": "https://dc.lft.to/lastmile_qr_scan", "android": "https://dc.lft.to/lastmile_qr_scan"}, "lon": -76.98603616666666, "bike_id": "67b88681f13b93be78edf4566a4af180", "type": "electric_scooter", "name": "67b88681f13b93be78edf4566a4af180"}, {"is_disabled": 0, "is_reserved": 0, "fusion_lat": 0.0, "lat": 38.934698833333336, "fusion_lon": 0.0, "rental_uris": {"ios": "https://dc.lft.to/lastmile_qr_scan", "android": "https://dc.lft.to/lastmile_qr_scan"}, "lon": -77.02399716666666, "bike_id": "6b7667d76ed3b35cd09a3d2a9108f196", "type": "electric_scooter", "name": "6b7667d76ed3b35cd09a3d2a9108f196"}, {"is_disabled": 0, "is_reserved": 0, "fusion_lat": 0.0, "lat": 38.8871405, "fusion_lon": 0.0, "rental_uris": {"ios": "https://dc.lft.to/lastmile_qr_scan", "android": "https://dc.lft.to/lastmile_qr_scan"}, "lon": -76.98342683333334, "bike_id": "6694046ff1853b7d615c0aea8003aca6", "type": "electric_scooter", "name": "6694046ff1853b7d615c0aea8003aca6"}, {"is_disabled": 0, "is_reserved": 0, "fusion_lat": 0.0, "lat": 38.9184045, "fusion_lon": 0.0, "rental_uris": {"ios": "https://dc.lft.to/lastmile_qr_scan", "android": "https://dc.lft.to/lastmile_qr_scan"}, "lon": -77.02265183333333, "bike_id": "1ea5ec8f61bbd59fa59a79adfca9c203", "type": "electric_scooter", "name": "1ea5ec8f61bbd59fa59a79adfca9c203"}, {"is_disabled": 0, "is_reserved": 0, "fusion_lat": 0.0, "lat": 38.89895116666667, "fusion_lon": 0.0, "rental_uris": {"ios": "https://dc.lft.to/lastmile_qr_scan", "android": "https://dc.lft.to/lastmile_qr_scan"}, "lon": -77.019617, "bike_id": "9a93588c5a6259a5a780a249c9fead68", "type": "electric_scooter", "name": "9a93588c5a6259a5a780a249c9fead68"}, {"is_disabled": 0, "is_reserved": 0, "fusion_lat": 0.0, "lat": 38.909565, "fusion_lon": 0.0, "rental_uris": {"ios": "https://dc.lft.to/lastmile_qr_scan", "android": "https://dc.lft.to/lastmile_qr_scan"}, "lon": -77.02572916666666, "bike_id": "ba7e1e6193f83835a1bf5ec44d22fbf5", "type": "electric_scooter", "name": "ba7e1e6193f83835a1bf5ec44d22fbf5"}, {"is_disabled": 0, "is_reserved": 0, "fusion_lat": 0.0, "lat": 38.8802525, "fusion_lon": 0.0, "rental_uris": {"ios": "https://dc.lft.to/lastmile_qr_scan", "android": "https://dc.lft.to/lastmile_qr_scan"}, "lon": -76.94324466666667, "bike_id": "af725a1f72e0294279c409d08fdcf60a", "type": "electric_scooter", "name": "af725a1f72e0294279c409d08fdcf60a"}, {"is_disabled": 0, "is_reserved": 0, "fusion_lat": 0.0, "lat": 38.846205, "fusion_lon": 0.0, "rental_uris": {"ios": "https://dc.lft.to/lastmile_qr_scan", "android": "https://dc.lft.to/lastmile_qr_scan"}, "lon": -76.97839433333333, "bike_id": "5e5f57ce61ed093a0ec6cd82a62cca3d", "type": "electric_bike", "name": "5e5f57ce61ed093a0ec6cd82a62cca3d"}, {"is_disabled": 0, "is_reserved": 0, "fusion_lat": 0.0, "lat": 38.906402, "fusion_lon": 0.0, "rental_uris": {"ios": "https://dc.lft.to/lastmile_qr_scan", "android": "https://dc.lft.to/lastmile_qr_scan"}, "lon": -77.07022366666666, "bike_id": "2f91bfdd47ecee65954c9c7843e7adcd", "type": "electric_scooter", "name": "2f91bfdd47ecee65954c9c7843e7adcd"}, {"is_disabled": 0, "is_reserved": 0, "fusion_lat": 0.0, "lat": 38.84647733333333, "fusion_lon": 0.0, "rental_uris": {"ios": "https://dc.lft.to/lastmile_qr_scan", "android": "https://dc.lft.to/lastmile_qr_scan"}, "lon": -77.00368483333334, "bike_id": "5dc072a70ab5473c0ab8724eb8960019", "type": "electric_scooter", "name": "5dc072a70ab5473c0ab8724eb8960019"}, {"is_disabled": 0, "is_reserved": 0, "fusion_lat": 0.0, "lat": 38.900388666666665, "fusion_lon": 0.0, "rental_uris": {"ios": "https://dc.lft.to/lastmile_qr_scan", "android": "https://dc.lft.to/lastmile_qr_scan"}, "lon": -77.0177195, "bike_id": "a67792221507bc7f8b3cdf29b1f62d20", "type": "electric_scooter", "name": "a67792221507bc7f8b3cdf29b1f62d20"}, {"is_disabled": 0, "is_reserved": 0, "fusion_lat": 0.0, "lat": 38.90494966666667, "fusion_lon": 0.0, "rental_uris": {"ios": "https://dc.lft.to/lastmile_qr_scan", "android": "https://dc.lft.to/lastmile_qr_scan"}, "lon": -77.02957616666667, "bike_id": "17262f5ceb13932f14e25b53f3d51a3d", "type": "electric_scooter", "name": "17262f5ceb13932f14e25b53f3d51a3d"}, {"is_disabled": 0, "is_reserved": 0, "fusion_lat": 0.0, "lat": 38.915532166666665, "fusion_lon": 0.0, "rental_uris": {"ios": "https://dc.lft.to/lastmile_qr_scan", "android": "https://dc.lft.to/lastmile_qr_scan"}, "lon": -77.05407433333333, "bike_id": "97a6f598318a0bb4e472aac06cda909b", "type": "electric_scooter", "name": "97a6f598318a0bb4e472aac06cda909b"}, {"is_disabled": 0, "is_reserved": 0, "fusion_lat": 0.0, "lat": 38.91203733333333, "fusion_lon": 0.0, "rental_uris": {"ios": "https://dc.lft.to/lastmile_qr_scan", "android": "https://dc.lft.to/lastmile_qr_scan"}, "lon": -77.02095416666667, "bike_id": "0d5d999921694ad0501f82acf2a8769d", "type": "electric_scooter", "name": "0d5d999921694ad0501f82acf2a8769d"}, {"is_disabled": 0, "is_reserved": 0, "fusion_lat": 0.0, "lat": 38.918187, "fusion_lon": 0.0, "rental_uris": {"ios": "https://dc.lft.to/lastmile_qr_scan", "android": "https://dc.lft.to/lastmile_qr_scan"}, "lon": -77.02527133333334, "bike_id": "13e7f79e063b1663f453ba9101e928d0", "type": "electric_scooter", "name": "13e7f79e063b1663f453ba9101e928d0"}, {"is_disabled": 0, "is_reserved": 0, "fusion_lat": 0.0, "lat": 38.93076966666667, "fusion_lon": 0.0, "rental_uris": {"ios": "https://dc.lft.to/lastmile_qr_scan", "android": "https://dc.lft.to/lastmile_qr_scan"}, "lon": -77.03181983333333, "bike_id": "b499ca5934f491a67f3057b64e9c4074", "type": "electric_scooter", "name": "b499ca5934f491a67f3057b64e9c4074"}, {"is_disabled": 0, "is_reserved": 0, "fusion_lat": 0.0, "lat": 38.91205766666667, "fusion_lon": 0.0, "rental_uris": {"ios": "https://dc.lft.to/lastmile_qr_scan", "android": "https://dc.lft.to/lastmile_qr_scan"}, "lon": -77.02693533333333, "bike_id": "5666f5b83d8e39b2a5c0c62d30290807", "type": "electric_scooter", "name": "5666f5b83d8e39b2a5c0c62d30290807"}, {"is_disabled": 0, "is_reserved": 0, "fusion_lat": 0.0, "lat": 38.9216335, "fusion_lon": 0.0, "rental_uris": {"ios": "https://dc.lft.to/lastmile_qr_scan", "android": "https://dc.lft.to/lastmile_qr_scan"}, "lon": -77.03648666666666, "bike_id": "912d52808824c4f1da054415f392f406", "type": "electric_scooter", "name": "912d52808824c4f1da054415f392f406"}, {"is_disabled": 0, "is_reserved": 0, "fusion_lat": 0.0, "lat": 38.917875333333335, "fusion_lon": 0.0, "rental_uris": {"ios": "https://dc.lft.to/lastmile_qr_scan", "android": "https://dc.lft.to/lastmile_qr_scan"}, "lon": -77.02304566666666, "bike_id": "ef7948abe7e60edd43e4a8847a756c57", "type": "electric_scooter", "name": "ef7948abe7e60edd43e4a8847a756c57"}, {"is_disabled": 0, "is_reserved": 0, "fusion_lat": 0.0, "lat": 38.896142833333336, "fusion_lon": 0.0, "rental_uris": {"ios": "https://dc.lft.to/lastmile_qr_scan", "android": "https://dc.lft.to/lastmile_qr_scan"}, "lon": -77.02150983333334, "bike_id": "8b30ddc87a0f3283081bee068d4771c1", "type": "electric_scooter", "name": "8b30ddc87a0f3283081bee068d4771c1"}, {"is_disabled": 0, "is_reserved": 0, "fusion_lat": 0.0, "lat": 38.93694966666666, "fusion_lon": 0.0, "rental_uris": {"ios": "https://dc.lft.to/lastmile_qr_scan", "android": "https://dc.lft.to/lastmile_qr_scan"}, "lon": -77.05598866666666, "bike_id": "1b2e21cb7c02e4fde6a48c958e8da867", "type": "electric_scooter", "name": "1b2e21cb7c02e4fde6a48c958e8da867"}, {"is_disabled": 0, "is_reserved": 0, "fusion_lat": 0.0, "lat": 38.928877666666665, "fusion_lon": 0.0, "rental_uris": {"ios": "https://dc.lft.to/lastmile_qr_scan", "android": "https://dc.lft.to/lastmile_qr_scan"}, "lon": -77.0336045, "bike_id": "5913eb133046466a3066b2df3baa24cf", "type": "electric_scooter", "name": "5913eb133046466a3066b2df3baa24cf"}, {"is_disabled": 0, "is_reserved": 0, "fusion_lat": 0.0, "lat": 38.9530705, "fusion_lon": 0.0, "rental_uris": {"ios": "https://dc.lft.to/lastmile_qr_scan", "android": "https://dc.lft.to/lastmile_qr_scan"}, "lon": -77.02019633333333, "bike_id": "2d77b05c96fa707b13c23a76e185966d", "type": "electric_scooter", "name": "2d77b05c96fa707b13c23a76e185966d"}, {"is_disabled": 0, "is_reserved": 0, "fusion_lat": 0.0, "lat": 38.903931166666666, "fusion_lon": 0.0, "rental_uris": {"ios": "https://dc.lft.to/lastmile_qr_scan", "android": "https://dc.lft.to/lastmile_qr_scan"}, "lon": -77.01861916666667, "bike_id": "95a7d4ae192250cc09c2de62a8e51b72", "type": "electric_scooter", "name": "95a7d4ae192250cc09c2de62a8e51b72"}, {"is_disabled": 0, "is_reserved": 0, "fusion_lat": 0.0, "lat": 38.95363016666667, "fusion_lon": 0.0, "rental_uris": {"ios": "https://dc.lft.to/lastmile_qr_scan", "android": "https://dc.lft.to/lastmile_qr_scan"}, "lon": -76.99857666666666, "bike_id": "6fc1d51a8a4f4092c91da538aea9a116", "type": "electric_scooter", "name": "6fc1d51a8a4f4092c91da538aea9a116"}, {"is_disabled": 0, "is_reserved": 0, "fusion_lat": 0.0, "lat": 38.9346515, "fusion_lon": 0.0, "rental_uris": {"ios": "https://dc.lft.to/lastmile_qr_scan", "android": "https://dc.lft.to/lastmile_qr_scan"}, "lon": -77.0239375, "bike_id": "d0158ea016d56e92f2185c1a1664c6f5", "type": "electric_scooter", "name": "d0158ea016d56e92f2185c1a1664c6f5"}, {"is_disabled": 0, "is_reserved": 0, "fusion_lat": 0.0, "lat": 38.885834333333335, "fusion_lon": 0.0, "rental_uris": {"ios": "https://dc.lft.to/lastmile_qr_scan", "android": "https://dc.lft.to/lastmile_qr_scan"}, "lon": -77.01227966666667, "bike_id": "c0bb8ee2ef457b83fb9d7afa7c2278a6", "type": "electric_scooter", "name": "c0bb8ee2ef457b83fb9d7afa7c2278a6"}, {"is_disabled": 0, "is_reserved": 0, "fusion_lat": 0.0, "lat": 38.93195133333333, "fusion_lon": 0.0, "rental_uris": {"ios": "https://dc.lft.to/lastmile_qr_scan", "android": "https://dc.lft.to/lastmile_qr_scan"}, "lon": -77.02451983333333, "bike_id": "f991b259dce6bcc3a24231b32a380f63", "type": "electric_scooter", "name": "f991b259dce6bcc3a24231b32a380f63"}, {"is_disabled": 0, "is_reserved": 0, "fusion_lat": 0.0, "lat": 38.920783666666665, "fusion_lon": 0.0, "rental_uris": {"ios": "https://dc.lft.to/lastmile_qr_scan", "android": "https://dc.lft.to/lastmile_qr_scan"}, "lon": -77.00453666666667, "bike_id": "84b2c7a0056482de2cb3b08a53d0828c", "type": "electric_scooter", "name": "84b2c7a0056482de2cb3b08a53d0828c"}, {"is_disabled": 0, "is_reserved": 0, "fusion_lat": 0.0, "lat": 38.908475333333335, "fusion_lon": 0.0, "rental_uris": {"ios": "https://dc.lft.to/lastmile_qr_scan", "android": "https://dc.lft.to/lastmile_qr_scan"}, "lon": -77.02053066666667, "bike_id": "27d826ee9094238c8f58b1a3f0fe1bf6", "type": "electric_scooter", "name": "27d826ee9094238c8f58b1a3f0fe1bf6"}, {"is_disabled": 0, "is_reserved": 0, "fusion_lat": 0.0, "lat": 38.946053166666665, "fusion_lon": 0.0, "rental_uris": {"ios": "https://dc.lft.to/lastmile_qr_scan", "android": "https://dc.lft.to/lastmile_qr_scan"}, "lon": -77.01737866666667, "bike_id": "7d0c771ac5c83730c071fa33af92cec6", "type": "electric_bike", "name": "7d0c771ac5c83730c071fa33af92cec6"}, {"is_disabled": 0, "is_reserved": 0, "fusion_lat": 0.0, "lat": 38.911117833333336, "fusion_lon": 0.0, "rental_uris": {"ios": "https://dc.lft.to/lastmile_qr_scan", "android": "https://dc.lft.to/lastmile_qr_scan"}, "lon": -77.04836283333333, "bike_id": "2fb4b73bbe6c629e0352be44e51b9069", "type": "electric_scooter", "name": "2fb4b73bbe6c629e0352be44e51b9069"}, {"is_disabled": 0, "is_reserved": 0, "fusion_lat": 0.0, "lat": 38.90182516666667, "fusion_lon": 0.0, "rental_uris": {"ios": "https://dc.lft.to/lastmile_qr_scan", "android": "https://dc.lft.to/lastmile_qr_scan"}, "lon": -76.97670366666667, "bike_id": "8c5cbef350172e5a83659380f410ce66", "type": "electric_scooter", "name": "8c5cbef350172e5a83659380f410ce66"}, {"is_disabled": 0, "is_reserved": 0, "fusion_lat": 0.0, "lat": 38.8871255, "fusion_lon": 0.0, "rental_uris": {"ios": "https://dc.lft.to/lastmile_qr_scan", "android": "https://dc.lft.to/lastmile_qr_scan"}, "lon": -76.98384683333333, "bike_id": "0dce8986204d72f9d0843c153aced3e2", "type": "electric_scooter", "name": "0dce8986204d72f9d0843c153aced3e2"}, {"is_disabled": 0, "is_reserved": 0, "fusion_lat": 0.0, "lat": 38.93376516666667, "fusion_lon": 0.0, "rental_uris": {"ios": "https://dc.lft.to/lastmile_qr_scan", "android": "https://dc.lft.to/lastmile_qr_scan"}, "lon": -77.02728883333333, "bike_id": "73c09acad6901a943a2575464218b6c8", "type": "electric_scooter", "name": "73c09acad6901a943a2575464218b6c8"}, {"is_disabled": 0, "is_reserved": 0, "fusion_lat": 0.0, "lat": 38.906061333333334, "fusion_lon": 0.0, "rental_uris": {"ios": "https://dc.lft.to/lastmile_qr_scan", "android": "https://dc.lft.to/lastmile_qr_scan"}, "lon": -77.0565415, "bike_id": "5406629b0c00a3c2a0d797d671726ff8", "type": "electric_scooter", "name": "5406629b0c00a3c2a0d797d671726ff8"}, {"is_disabled": 0, "is_reserved": 0, "fusion_lat": 0.0, "lat": 38.934468333333335, "fusion_lon": 0.0, "rental_uris": {"ios": "https://dc.lft.to/lastmile_qr_scan", "android": "https://dc.lft.to/lastmile_qr_scan"}, "lon": -77.02983883333333, "bike_id": "e88a2bd93071259260830b2b3ac09343", "type": "electric_scooter", "name": "e88a2bd93071259260830b2b3ac09343"}, {"is_disabled": 0, "is_reserved": 0, "fusion_lat": 0.0, "lat": 38.90035133333333, "fusion_lon": 0.0, "rental_uris": {"ios": "https://dc.lft.to/lastmile_qr_scan", "android": "https://dc.lft.to/lastmile_qr_scan"}, "lon": -77.00380783333334, "bike_id": "eb17112e2ab3f83592a0cc48679770f3", "type": "electric_scooter", "name": "eb17112e2ab3f83592a0cc48679770f3"}, {"is_disabled": 0, "is_reserved": 0, "fusion_lat": 0.0, "lat": 38.94084183333333, "fusion_lon": 0.0, "rental_uris": {"ios": "https://dc.lft.to/lastmile_qr_scan", "android": "https://dc.lft.to/lastmile_qr_scan"}, "lon": -77.001555, "bike_id": "199729ed55fe1df5d48b1adb4aabf7d7", "type": "electric_bike", "name": "199729ed55fe1df5d48b1adb4aabf7d7"}, {"is_disabled": 0, "is_reserved": 0, "fusion_lat": 0.0, "lat": 38.902417666666665, "fusion_lon": 0.0, "rental_uris": {"ios": "https://dc.lft.to/lastmile_qr_scan", "android": "https://dc.lft.to/lastmile_qr_scan"}, "lon": -77.01157983333333, "bike_id": "9ecdbf212444b6903b733ea42d20f531", "type": "electric_scooter", "name": "9ecdbf212444b6903b733ea42d20f531"}, {"is_disabled": 0, "is_reserved": 0, "fusion_lat": 0.0, "lat": 38.90606316666667, "fusion_lon": 0.0, "rental_uris": {"ios": "https://dc.lft.to/lastmile_qr_scan", "android": "https://dc.lft.to/lastmile_qr_scan"}, "lon": -77.1288535, "bike_id": "22196d6c0417bc728becd0ff3704c587", "type": "electric_bike", "name": "22196d6c0417bc728becd0ff3704c587"}, {"is_disabled": 0, "is_reserved": 0, "fusion_lat": 0.0, "lat": 38.93366266666666, "fusion_lon": 0.0, "rental_uris": {"ios": "https://dc.lft.to/lastmile_qr_scan", "android": "https://dc.lft.to/lastmile_qr_scan"}, "lon": -77.02648083333334, "bike_id": "7c404bf03ed01ee0c4fc735ba04f9b2b", "type": "electric_scooter", "name": "7c404bf03ed01ee0c4fc735ba04f9b2b"}, {"is_disabled": 0, "is_reserved": 0, "fusion_lat": 0.0, "lat": 38.91971433333333, "fusion_lon": 0.0, "rental_uris": {"ios": "https://dc.lft.to/lastmile_qr_scan", "android": "https://dc.lft.to/lastmile_qr_scan"}, "lon": -77.0021005, "bike_id": "8adea05304bce47dd460b2e691ab0f61", "type": "electric_scooter", "name": "8adea05304bce47dd460b2e691ab0f61"}, {"is_disabled": 0, "is_reserved": 0, "fusion_lat": 0.0, "lat": 38.9210485, "fusion_lon": 0.0, "rental_uris": {"ios": "https://dc.lft.to/lastmile_qr_scan", "android": "https://dc.lft.to/lastmile_qr_scan"}, "lon": -77.04696983333334, "bike_id": "31bf3d465d2f0cda1072b7ec2e2cb354", "type": "electric_scooter", "name": "31bf3d465d2f0cda1072b7ec2e2cb354"}, {"is_disabled": 0, "is_reserved": 0, "fusion_lat": 0.0, "lat": 38.9117605, "fusion_lon": 0.0, "rental_uris": {"ios": "https://dc.lft.to/lastmile_qr_scan", "android": "https://dc.lft.to/lastmile_qr_scan"}, "lon": -77.02831283333333, "bike_id": "1c9f778d8a9f308255b7e59e9def4b79", "type": "electric_scooter", "name": "1c9f778d8a9f308255b7e59e9def4b79"}, {"is_disabled": 0, "is_reserved": 0, "fusion_lat": 0.0, "lat": 38.894729166666664, "fusion_lon": 0.0, "rental_uris": {"ios": "https://dc.lft.to/lastmile_qr_scan", "android": "https://dc.lft.to/lastmile_qr_scan"}, "lon": -77.01113166666667, "bike_id": "f429c2cb010ff356cdcf47bad8531eda", "type": "electric_scooter", "name": "f429c2cb010ff356cdcf47bad8531eda"}, {"is_disabled": 0, "is_reserved": 0, "fusion_lat": 0.0, "lat": 38.91361416666667, "fusion_lon": 0.0, "rental_uris": {"ios": "https://dc.lft.to/lastmile_qr_scan", "android": "https://dc.lft.to/lastmile_qr_scan"}, "lon": -77.04659533333333, "bike_id": "1f0902a484592b3e2eb52500f1a9169e", "type": "electric_scooter", "name": "1f0902a484592b3e2eb52500f1a9169e"}, {"is_disabled": 0, "is_reserved": 0, "fusion_lat": 0.0, "lat": 38.90259483333333, "fusion_lon": 0.0, "rental_uris": {"ios": "https://dc.lft.to/lastmile_qr_scan", "android": "https://dc.lft.to/lastmile_qr_scan"}, "lon": -77.0386345, "bike_id": "8c7af1dcefe7f40cd6b623037e09bdb7", "type": "electric_scooter", "name": "8c7af1dcefe7f40cd6b623037e09bdb7"}, {"is_disabled": 0, "is_reserved": 0, "fusion_lat": 0.0, "lat": 38.90644866666667, "fusion_lon": 0.0, "rental_uris": {"ios": "https://dc.lft.to/lastmile_qr_scan", "android": "https://dc.lft.to/lastmile_qr_scan"}, "lon": -77.00594933333333, "bike_id": "ffc3d0733eb9b47b4a42da5a9454b581", "type": "electric_scooter", "name": "ffc3d0733eb9b47b4a42da5a9454b581"}, {"is_disabled": 0, "is_reserved": 0, "fusion_lat": 0.0, "lat": 38.935284, "fusion_lon": 0.0, "rental_uris": {"ios": "https://dc.lft.to/lastmile_qr_scan", "android": "https://dc.lft.to/lastmile_qr_scan"}, "lon": -77.05451466666666, "bike_id": "ad42bfa4f89bf6a4252faeebec402bf6", "type": "electric_scooter", "name": "ad42bfa4f89bf6a4252faeebec402bf6"}, {"is_disabled": 0, "is_reserved": 0, "fusion_lat": 0.0, "lat": 38.859474666666664, "fusion_lon": 0.0, "rental_uris": {"ios": "https://dc.lft.to/lastmile_qr_scan", "android": "https://dc.lft.to/lastmile_qr_scan"}, "lon": -77.09428266666667, "bike_id": "5d934004ff266d43bebe0fa371043716", "type": "electric_bike", "name": "5d934004ff266d43bebe0fa371043716"}, {"is_disabled": 0, "is_reserved": 0, "fusion_lat": 0.0, "lat": 38.90557783333333, "fusion_lon": 0.0, "rental_uris": {"ios": "https://dc.lft.to/lastmile_qr_scan", "android": "https://dc.lft.to/lastmile_qr_scan"}, "lon": -77.02017116666667, "bike_id": "3b54d27b869a91d259aa89abebba6f93", "type": "electric_scooter", "name": "3b54d27b869a91d259aa89abebba6f93"}, {"is_disabled": 0, "is_reserved": 0, "fusion_lat": 0.0, "lat": 38.9497645, "fusion_lon": 0.0, "rental_uris": {"ios": "https://dc.lft.to/lastmile_qr_scan", "android": "https://dc.lft.to/lastmile_qr_scan"}, "lon": -77.02446983333333, "bike_id": "6f294964292f1aee230567d5eae58cb3", "type": "electric_scooter", "name": "6f294964292f1aee230567d5eae58cb3"}, {"is_disabled": 0, "is_reserved": 0, "fusion_lat": 0.0, "lat": 38.92902083333333, "fusion_lon": 0.0, "rental_uris": {"ios": "https://dc.lft.to/lastmile_qr_scan", "android": "https://dc.lft.to/lastmile_qr_scan"}, "lon": -77.03745766666667, "bike_id": "63de3cc2aff50ea76043ff2d17824802", "type": "electric_scooter", "name": "63de3cc2aff50ea76043ff2d17824802"}, {"is_disabled": 0, "is_reserved": 0, "fusion_lat": 0.0, "lat": 38.91196166666667, "fusion_lon": 0.0, "rental_uris": {"ios": "https://dc.lft.to/lastmile_qr_scan", "android": "https://dc.lft.to/lastmile_qr_scan"}, "lon": -77.00185883333333, "bike_id": "2fc5132abc7c9886d22ee088b12e66ee", "type": "electric_scooter", "name": "2fc5132abc7c9886d22ee088b12e66ee"}, {"is_disabled": 0, "is_reserved": 0, "fusion_lat": 0.0, "lat": 38.88142933333334, "fusion_lon": 0.0, "rental_uris": {"ios": "https://dc.lft.to/lastmile_qr_scan", "android": "https://dc.lft.to/lastmile_qr_scan"}, "lon": -77.02273866666667, "bike_id": "b9d15b328c54160bc4c1c4dc881887f5", "type": "electric_scooter", "name": "b9d15b328c54160bc4c1c4dc881887f5"}, {"is_disabled": 0, "is_reserved": 0, "fusion_lat": 0.0, "lat": 38.8845085, "fusion_lon": 0.0, "rental_uris": {"ios": "https://dc.lft.to/lastmile_qr_scan", "android": "https://dc.lft.to/lastmile_qr_scan"}, "lon": -76.950974, "bike_id": "0573d48f7e1f540f429b1ce7c975668f", "type": "electric_scooter", "name": "0573d48f7e1f540f429b1ce7c975668f"}, {"is_disabled": 0, "is_reserved": 0, "fusion_lat": 0.0, "lat": 38.898435166666665, "fusion_lon": 0.0, "rental_uris": {"ios": "https://dc.lft.to/lastmile_qr_scan", "android": "https://dc.lft.to/lastmile_qr_scan"}, "lon": -77.02869316666667, "bike_id": "f8af79be62543245b6aa84422cf37ff5", "type": "electric_scooter", "name": "f8af79be62543245b6aa84422cf37ff5"}, {"is_disabled": 0, "is_reserved": 0, "fusion_lat": 0.0, "lat": 38.813324333333334, "fusion_lon": 0.0, "rental_uris": {"ios": "https://dc.lft.to/lastmile_qr_scan", "android": "https://dc.lft.to/lastmile_qr_scan"}, "lon": -77.05084216666667, "bike_id": "c8659a9cf3b0e472e8afd1c0c2ffab7a", "type": "electric_bike", "name": "c8659a9cf3b0e472e8afd1c0c2ffab7a"}, {"is_disabled": 0, "is_reserved": 0, "fusion_lat": 0.0, "lat": 38.949143, "fusion_lon": 0.0, "rental_uris": {"ios": "https://dc.lft.to/lastmile_qr_scan", "android": "https://dc.lft.to/lastmile_qr_scan"}, "lon": -77.0079925, "bike_id": "13e20a3072037c82824e25ef815749ea", "type": "electric_bike", "name": "13e20a3072037c82824e25ef815749ea"}, {"is_disabled": 0, "is_reserved": 0, "fusion_lat": 0.0, "lat": 38.90448283333333, "fusion_lon": 0.0, "rental_uris": {"ios": "https://dc.lft.to/lastmile_qr_scan", "android": "https://dc.lft.to/lastmile_qr_scan"}, "lon": -77.04814133333333, "bike_id": "a80eecce37fb7390f15c01bffbb62530", "type": "electric_scooter", "name": "a80eecce37fb7390f15c01bffbb62530"}, {"is_disabled": 0, "is_reserved": 0, "fusion_lat": 0.0, "lat": 38.92869233333333, "fusion_lon": 0.0, "rental_uris": {"ios": "https://dc.lft.to/lastmile_qr_scan", "android": "https://dc.lft.to/lastmile_qr_scan"}, "lon": -77.03407666666666, "bike_id": "5485ab775a072d43d69afbc856289873", "type": "electric_scooter", "name": "5485ab775a072d43d69afbc856289873"}, {"is_disabled": 0, "is_reserved": 0, "fusion_lat": 0.0, "lat": 38.8973765, "fusion_lon": 0.0, "rental_uris": {"ios": "https://dc.lft.to/lastmile_qr_scan", "android": "https://dc.lft.to/lastmile_qr_scan"}, "lon": -77.0336095, "bike_id": "aa40ba2f34a00f0b2778e3720a9cb293", "type": "electric_scooter", "name": "aa40ba2f34a00f0b2778e3720a9cb293"}, {"is_disabled": 0, "is_reserved": 0, "fusion_lat": 0.0, "lat": 38.96478183333333, "fusion_lon": 0.0, "rental_uris": {"ios": "https://dc.lft.to/lastmile_qr_scan", "android": "https://dc.lft.to/lastmile_qr_scan"}, "lon": -77.03169016666666, "bike_id": "2b2242f7fb5a32b98de0c0f6f28bc2d9", "type": "electric_bike", "name": "2b2242f7fb5a32b98de0c0f6f28bc2d9"}, {"is_disabled": 0, "is_reserved": 0, "fusion_lat": 0.0, "lat": 38.955929, "fusion_lon": 0.0, "rental_uris": {"ios": "https://dc.lft.to/lastmile_qr_scan", "android": "https://dc.lft.to/lastmile_qr_scan"}, "lon": -77.02806083333333, "bike_id": "78cff51f730a1ed9ec67073dd5dfc673", "type": "electric_scooter", "name": "78cff51f730a1ed9ec67073dd5dfc673"}, {"is_disabled": 0, "is_reserved": 0, "fusion_lat": 0.0, "lat": 38.889511, "fusion_lon": 0.0, "rental_uris": {"ios": "https://dc.lft.to/lastmile_qr_scan", "android": "https://dc.lft.to/lastmile_qr_scan"}, "lon": -77.07598333333334, "bike_id": "27e877bcaa25378a1e84d864cdc45d37", "type": "electric_bike", "name": "27e877bcaa25378a1e84d864cdc45d37"}, {"is_disabled": 0, "is_reserved": 0, "fusion_lat": 0.0, "lat": 38.90908916666667, "fusion_lon": 0.0, "rental_uris": {"ios": "https://dc.lft.to/lastmile_qr_scan", "android": "https://dc.lft.to/lastmile_qr_scan"}, "lon": -77.0340085, "bike_id": "439ca81d3d3c41a30e761d6f91869373", "type": "electric_scooter", "name": "439ca81d3d3c41a30e761d6f91869373"}, {"is_disabled": 0, "is_reserved": 0, "fusion_lat": 0.0, "lat": 38.907914, "fusion_lon": 0.0, "rental_uris": {"ios": "https://dc.lft.to/lastmile_qr_scan", "android": "https://dc.lft.to/lastmile_qr_scan"}, "lon": -77.0448505, "bike_id": "6c016a968ce8bc363b35b4b6ddd95f97", "type": "electric_scooter", "name": "6c016a968ce8bc363b35b4b6ddd95f97"}, {"is_disabled": 0, "is_reserved": 0, "fusion_lat": 0.0, "lat": 38.9035665, "fusion_lon": 0.0, "rental_uris": {"ios": "https://dc.lft.to/lastmile_qr_scan", "android": "https://dc.lft.to/lastmile_qr_scan"}, "lon": -76.9829075, "bike_id": "fac3e4ff70f59f346ddebabde9decf78", "type": "electric_scooter", "name": "fac3e4ff70f59f346ddebabde9decf78"}, {"is_disabled": 0, "is_reserved": 0, "fusion_lat": 0.0, "lat": 38.884379, "fusion_lon": 0.0, "rental_uris": {"ios": "https://dc.lft.to/lastmile_qr_scan", "android": "https://dc.lft.to/lastmile_qr_scan"}, "lon": -76.9355485, "bike_id": "dca7e5dbcea83800ef93c64040c86b68", "type": "electric_scooter", "name": "dca7e5dbcea83800ef93c64040c86b68"}, {"is_disabled": 0, "is_reserved": 0, "fusion_lat": 0.0, "lat": 38.9237805, "fusion_lon": 0.0, "rental_uris": {"ios": "https://dc.lft.to/lastmile_qr_scan", "android": "https://dc.lft.to/lastmile_qr_scan"}, "lon": -77.03120633333333, "bike_id": "6cf07cadf85873a8a3379a958e85faf8", "type": "electric_scooter", "name": "6cf07cadf85873a8a3379a958e85faf8"}, {"is_disabled": 0, "is_reserved": 0, "fusion_lat": 0.0, "lat": 38.8829095, "fusion_lon": 0.0, "rental_uris": {"ios": "https://dc.lft.to/lastmile_qr_scan", "android": "https://dc.lft.to/lastmile_qr_scan"}, "lon": -76.93195183333333, "bike_id": "7e787f104a9446beb6e4b60f7c08d881", "type": "electric_scooter", "name": "7e787f104a9446beb6e4b60f7c08d881"}, {"is_disabled": 0, "is_reserved": 0, "fusion_lat": 0.0, "lat": 38.900160666666665, "fusion_lon": 0.0, "rental_uris": {"ios": "https://dc.lft.to/lastmile_qr_scan", "android": "https://dc.lft.to/lastmile_qr_scan"}, "lon": -77.001051, "bike_id": "62910959f6d6d7161e09a56160383653", "type": "electric_scooter", "name": "62910959f6d6d7161e09a56160383653"}, {"is_disabled": 0, "is_reserved": 0, "fusion_lat": 0.0, "lat": 38.87681833333333, "fusion_lon": 0.0, "rental_uris": {"ios": "https://dc.lft.to/lastmile_qr_scan", "android": "https://dc.lft.to/lastmile_qr_scan"}, "lon": -77.00061883333333, "bike_id": "ca8fd2cff4623108c2f48be54d75779e", "type": "electric_scooter", "name": "ca8fd2cff4623108c2f48be54d75779e"}, {"is_disabled": 0, "is_reserved": 0, "fusion_lat": 0.0, "lat": 38.830229833333334, "fusion_lon": 0.0, "rental_uris": {"ios": "https://dc.lft.to/lastmile_qr_scan", "android": "https://dc.lft.to/lastmile_qr_scan"}, "lon": -77.0083385, "bike_id": "b386baf652b85b33f1e320d6fafc9c57", "type": "electric_bike", "name": "b386baf652b85b33f1e320d6fafc9c57"}, {"is_disabled": 0, "is_reserved": 0, "fusion_lat": 0.0, "lat": 38.90483116666667, "fusion_lon": 0.0, "rental_uris": {"ios": "https://dc.lft.to/lastmile_qr_scan", "android": "https://dc.lft.to/lastmile_qr_scan"}, "lon": -77.00860883333333, "bike_id": "4c8e7f51e4e279d3829012f855b8be22", "type": "electric_scooter", "name": "4c8e7f51e4e279d3829012f855b8be22"}, {"is_disabled": 0, "is_reserved": 0, "fusion_lat": 0.0, "lat": 38.845769, "fusion_lon": 0.0, "rental_uris": {"ios": "https://dc.lft.to/lastmile_qr_scan", "android": "https://dc.lft.to/lastmile_qr_scan"}, "lon": -77.07453733333334, "bike_id": "8750bba3e5e09871063556429accfa17", "type": "electric_bike", "name": "8750bba3e5e09871063556429accfa17"}, {"is_disabled": 0, "is_reserved": 0, "fusion_lat": 0.0, "lat": 38.923553, "fusion_lon": 0.0, "rental_uris": {"ios": "https://dc.lft.to/lastmile_qr_scan", "android": "https://dc.lft.to/lastmile_qr_scan"}, "lon": -77.033824, "bike_id": "b4747f17717b43c567cf62a2e72ace2a", "type": "electric_scooter", "name": "b4747f17717b43c567cf62a2e72ace2a"}, {"is_disabled": 0, "is_reserved": 0, "fusion_lat": 0.0, "lat": 38.89961533333334, "fusion_lon": 0.0, "rental_uris": {"ios": "https://dc.lft.to/lastmile_qr_scan", "android": "https://dc.lft.to/lastmile_qr_scan"}, "lon": -76.937657, "bike_id": "b1f5ba206338946864f6c324914a6230", "type": "electric_scooter", "name": "b1f5ba206338946864f6c324914a6230"}, {"is_disabled": 0, "is_reserved": 0, "fusion_lat": 0.0, "lat": 38.92368066666667, "fusion_lon": 0.0, "rental_uris": {"ios": "https://dc.lft.to/lastmile_qr_scan", "android": "https://dc.lft.to/lastmile_qr_scan"}, "lon": -77.01921616666667, "bike_id": "fb7a8d0b26c2599f0aa417dc83de2cf2", "type": "electric_scooter", "name": "fb7a8d0b26c2599f0aa417dc83de2cf2"}, {"is_disabled": 0, "is_reserved": 0, "fusion_lat": 0.0, "lat": 38.822094666666665, "fusion_lon": 0.0, "rental_uris": {"ios": "https://dc.lft.to/lastmile_qr_scan", "android": "https://dc.lft.to/lastmile_qr_scan"}, "lon": -76.97704083333333, "bike_id": "25218c8f2d191f307d72a272a85c0426", "type": "electric_bike", "name": "25218c8f2d191f307d72a272a85c0426"}, {"is_disabled": 0, "is_reserved": 0, "fusion_lat": 0.0, "lat": 38.90717333333333, "fusion_lon": 0.0, "rental_uris": {"ios": "https://dc.lft.to/lastmile_qr_scan", "android": "https://dc.lft.to/lastmile_qr_scan"}, "lon": -77.034989, "bike_id": "3470374cc7e8c7de5613fb8cd2c57367", "type": "electric_scooter", "name": "3470374cc7e8c7de5613fb8cd2c57367"}, {"is_disabled": 0, "is_reserved": 0, "fusion_lat": 0.0, "lat": 38.914751333333335, "fusion_lon": 0.0, "rental_uris": {"ios": "https://dc.lft.to/lastmile_qr_scan", "android": "https://dc.lft.to/lastmile_qr_scan"}, "lon": -77.002007, "bike_id": "d29e92919aae8e0f35f7b21888ab6a95", "type": "electric_scooter", "name": "d29e92919aae8e0f35f7b21888ab6a95"}, {"is_disabled": 0, "is_reserved": 0, "fusion_lat": 0.0, "lat": 38.928140166666665, "fusion_lon": 0.0, "rental_uris": {"ios": "https://dc.lft.to/lastmile_qr_scan", "android": "https://dc.lft.to/lastmile_qr_scan"}, "lon": -76.976191, "bike_id": "d56728ff094df680a31578c1673f9c9b", "type": "electric_scooter", "name": "d56728ff094df680a31578c1673f9c9b"}, {"is_disabled": 0, "is_reserved": 0, "fusion_lat": 0.0, "lat": 38.8926335, "fusion_lon": 0.0, "rental_uris": {"ios": "https://dc.lft.to/lastmile_qr_scan", "android": "https://dc.lft.to/lastmile_qr_scan"}, "lon": -77.04669683333333, "bike_id": "a0e27f453f09405e0f4b31bd7f6b4927", "type": "electric_scooter", "name": "a0e27f453f09405e0f4b31bd7f6b4927"}, {"is_disabled": 0, "is_reserved": 0, "fusion_lat": 0.0, "lat": 38.905188, "fusion_lon": 0.0, "rental_uris": {"ios": "https://dc.lft.to/lastmile_qr_scan", "android": "https://dc.lft.to/lastmile_qr_scan"}, "lon": -77.04845833333333, "bike_id": "a16f09c00d4fc1e0406de5436f06b591", "type": "electric_scooter", "name": "a16f09c00d4fc1e0406de5436f06b591"}, {"is_disabled": 0, "is_reserved": 0, "fusion_lat": 0.0, "lat": 38.903825499999996, "fusion_lon": 0.0, "rental_uris": {"ios": "https://dc.lft.to/lastmile_qr_scan", "android": "https://dc.lft.to/lastmile_qr_scan"}, "lon": -77.016416, "bike_id": "d7608b85c74277d08f4ad5c13708fe22", "type": "electric_scooter", "name": "d7608b85c74277d08f4ad5c13708fe22"}, {"is_disabled": 0, "is_reserved": 0, "fusion_lat": 0.0, "lat": 38.914077, "fusion_lon": 0.0, "rental_uris": {"ios": "https://dc.lft.to/lastmile_qr_scan", "android": "https://dc.lft.to/lastmile_qr_scan"}, "lon": -77.01064516666666, "bike_id": "d544cbe05bea0a735c4c919455b33d05", "type": "electric_scooter", "name": "d544cbe05bea0a735c4c919455b33d05"}, {"is_disabled": 0, "is_reserved": 0, "fusion_lat": 0.0, "lat": 38.920883, "fusion_lon": 0.0, "rental_uris": {"ios": "https://dc.lft.to/lastmile_qr_scan", "android": "https://dc.lft.to/lastmile_qr_scan"}, "lon": -77.02363133333333, "bike_id": "68b6af7edc67071ac5d2f120730b9c2a", "type": "electric_scooter", "name": "68b6af7edc67071ac5d2f120730b9c2a"}, {"is_disabled": 0, "is_reserved": 0, "fusion_lat": 0.0, "lat": 38.939674, "fusion_lon": 0.0, "rental_uris": {"ios": "https://dc.lft.to/lastmile_qr_scan", "android": "https://dc.lft.to/lastmile_qr_scan"}, "lon": -77.03431783333333, "bike_id": "e04ce74ed40a20a88d178da6e7748304", "type": "electric_scooter", "name": "e04ce74ed40a20a88d178da6e7748304"}, {"is_disabled": 0, "is_reserved": 0, "fusion_lat": 0.0, "lat": 38.9203795, "fusion_lon": 0.0, "rental_uris": {"ios": "https://dc.lft.to/lastmile_qr_scan", "android": "https://dc.lft.to/lastmile_qr_scan"}, "lon": -76.9795345, "bike_id": "930fd3072bcefd0f015ab2b3dbd01bad", "type": "electric_bike", "name": "930fd3072bcefd0f015ab2b3dbd01bad"}, {"is_disabled": 0, "is_reserved": 0, "fusion_lat": 0.0, "lat": 38.913259, "fusion_lon": 0.0, "rental_uris": {"ios": "https://dc.lft.to/lastmile_qr_scan", "android": "https://dc.lft.to/lastmile_qr_scan"}, "lon": -77.04328583333333, "bike_id": "63ab19571699734327f624c38ba4004d", "type": "electric_scooter", "name": "63ab19571699734327f624c38ba4004d"}, {"is_disabled": 0, "is_reserved": 0, "fusion_lat": 0.0, "lat": 38.89230583333333, "fusion_lon": 0.0, "rental_uris": {"ios": "https://dc.lft.to/lastmile_qr_scan", "android": "https://dc.lft.to/lastmile_qr_scan"}, "lon": -77.05006233333333, "bike_id": "97259dff81094882a6a7be6c573e8704", "type": "electric_scooter", "name": "97259dff81094882a6a7be6c573e8704"}, {"is_disabled": 0, "is_reserved": 0, "fusion_lat": 0.0, "lat": 39.003786, "fusion_lon": 0.0, "rental_uris": {"ios": "https://dc.lft.to/lastmile_qr_scan", "android": "https://dc.lft.to/lastmile_qr_scan"}, "lon": -77.01283866666667, "bike_id": "91945d06df1ce1816c25db399ee5f78c", "type": "electric_bike", "name": "91945d06df1ce1816c25db399ee5f78c"}, {"is_disabled": 0, "is_reserved": 0, "fusion_lat": 0.0, "lat": 38.930772833333336, "fusion_lon": 0.0, "rental_uris": {"ios": "https://dc.lft.to/lastmile_qr_scan", "android": "https://dc.lft.to/lastmile_qr_scan"}, "lon": -77.0775965, "bike_id": "9a621059608beaee3b3a21460945fb4b", "type": "electric_scooter", "name": "9a621059608beaee3b3a21460945fb4b"}, {"is_disabled": 0, "is_reserved": 0, "fusion_lat": 0.0, "lat": 38.9257735, "fusion_lon": 0.0, "rental_uris": {"ios": "https://dc.lft.to/lastmile_qr_scan", "android": "https://dc.lft.to/lastmile_qr_scan"}, "lon": -76.99497533333333, "bike_id": "73e6ac0f300bd7c961f08132f877dc79", "type": "electric_scooter", "name": "73e6ac0f300bd7c961f08132f877dc79"}, {"is_disabled": 0, "is_reserved": 0, "fusion_lat": 0.0, "lat": 38.931141333333336, "fusion_lon": 0.0, "rental_uris": {"ios": "https://dc.lft.to/lastmile_qr_scan", "android": "https://dc.lft.to/lastmile_qr_scan"}, "lon": -77.03036733333333, "bike_id": "339cc9088643929a9453c1d5d3fbeb7d", "type": "electric_scooter", "name": "339cc9088643929a9453c1d5d3fbeb7d"}, {"is_disabled": 0, "is_reserved": 0, "fusion_lat": 0.0, "lat": 38.9168245, "fusion_lon": 0.0, "rental_uris": {"ios": "https://dc.lft.to/lastmile_qr_scan", "android": "https://dc.lft.to/lastmile_qr_scan"}, "lon": -77.09577433333334, "bike_id": "6405d808cf77082c18afe990b8810817", "type": "electric_scooter", "name": "6405d808cf77082c18afe990b8810817"}, {"is_disabled": 0, "is_reserved": 0, "fusion_lat": 0.0, "lat": 38.9181355, "fusion_lon": 0.0, "rental_uris": {"ios": "https://dc.lft.to/lastmile_qr_scan", "android": "https://dc.lft.to/lastmile_qr_scan"}, "lon": -77.00005583333333, "bike_id": "1aafeed086688f4adf3a55823277a7be", "type": "electric_scooter", "name": "1aafeed086688f4adf3a55823277a7be"}, {"is_disabled": 0, "is_reserved": 0, "fusion_lat": 0.0, "lat": 38.889727666666666, "fusion_lon": 0.0, "rental_uris": {"ios": "https://dc.lft.to/lastmile_qr_scan", "android": "https://dc.lft.to/lastmile_qr_scan"},