{"data": {"bikes": [{"fusion_lon": 0.0, "fusion_lat": 0.0, "rental_uris": {"ios": "https://dc.lft.to/lastmile_qr_scan", "android": "https://dc.lft.to/lastmile_qr_scan"}, "is_disabled": 0, "bike_id": "c66639a733262e2444b2fa69e00b4915", "lat": 38.911105, "is_reserved": 0, "lon": -77.04229916666667, "name": "c66639a733262e2444b2fa69e00b4915", "type": "electric_scooter"}, {"fusion_lon": 0.0, "fusion_lat": 0.0, "rental_uris": {"ios": "https://dc.lft.to/lastmile_qr_scan", "android": "https://dc.lft.to/lastmile_qr_scan"}, "is_disabled": 0, "bike_id": "aef05f30010b3cd10e2d8fea9d0b0af4", "lat": 38.92033466666667, "is_reserved": 0, "lon": -77.03734216666666, "name": "aef05f30010b3cd10e2d8fea9d0b0af4", "type": "electric_scooter"}, {"fusion_lon": 0.0, "fusion_lat": 0.0, "rental_uris": {"ios": "https://dc.lft.to/lastmile_qr_scan", "android": "https://dc.lft.to/lastmile_qr_scan"}, "is_disabled": 0, "bike_id": "27143da4c629ae114fbb0b7be0be4a6e", "lat": 38.921596666666666, "is_reserved": 0, "lon": -77.03467483333333, "name": "27143da4c629ae114fbb0b7be0be4a6e", "type": "electric_scooter"}, {"fusion_lon": 0.0, "fusion_lat": 0.0, "rental_uris": {"ios": "https://dc.lft.to/lastmile_qr_scan", "android": "https://dc.lft.to/lastmile_qr_scan"}, "is_disabled": 0, "bike_id": "627cc97acab6655377f3140279043cfb", "lat": 38.9001775, "is_reserved": 0, "lon": -76.987008, "name": "627cc97acab6655377f3140279043cfb", "type": "electric_scooter"}, {"fusion_lon": 0.0, "fusion_lat": 0.0, "rental_uris": {"ios": "https://dc.lft.to/lastmile_qr_scan", "android": "https://dc.lft.to/lastmile_qr_scan"}, "is_disabled": 0, "bike_id": "c09b2d539fdfe23549740949c2096a99", "lat": 38.836096833333336, "is_reserved": 0, "lon": -77.00379266666667, "name": "c09b2d539fdfe23549740949c2096a99", "type": "electric_bike"}, {"fusion_lon": 0.0, "fusion_lat": 0.0, "rental_uris": {"ios": "https://dc.lft.to/lastmile_qr_scan", "android": "https://dc.lft.to/lastmile_qr_scan"}, "is_disabled": 0, "bike_id": "f13fac88959f88aa1f767f3e87ad88a6", "lat": 38.899521666666665, "is_reserved": 0, "lon": -77.02797166666667, "name": "f13fac88959f88aa1f767f3e87ad88a6", "type": "electric_scooter"}, {"fusion_lon": 0.0, "fusion_lat": 0.0, "rental_uris": {"ios": "https://dc.lft.to/lastmile_qr_scan", "android": "https://dc.lft.to/lastmile_qr_scan"}, "is_disabled": 0, "bike_id": "c37a311515e183579dcf73dc550a11b9", "lat": 38.86964783333333, "is_reserved": 0, "lon": -77.07878766666667, "name": "c37a311515e183579dcf73dc550a11b9", "type": "electric_scooter"}, {"fusion_lon": 0.0, "fusion_lat": 0.0, "rental_uris": {"ios": "https://dc.lft.to/lastmile_qr_scan", "android": "https://dc.lft.to/lastmile_qr_scan"}, "is_disabled": 0, "bike_id": "f20f25889d1403dd34c7fcdece928c7e", "lat": 38.90133616666667, "is_reserved": 0, "lon": -77.04965266666666, "name": "f20f25889d1403dd34c7fcdece928c7e", "type": "electric_scooter"}, {"fusion_lon": 0.0, "fusion_lat": 0.0, "rental_uris": {"ios": "https://dc.lft.to/lastmile_qr_scan", "android": "https://dc.lft.to/lastmile_qr_scan"}, "is_disabled": 0, "bike_id": "b4e8ce82e82fb01ebcce0f355581801f", "lat": 38.938873, "is_reserved": 0, "lon": -76.963233, "name": "b4e8ce82e82fb01ebcce0f355581801f", "type": "electric_bike"}, {"fusion_lon": 0.0, "fusion_lat": 0.0, "rental_uris": {"ios": "https://dc.lft.to/lastmile_qr_scan", "android": "https://dc.lft.to/lastmile_qr_scan"}, "is_disabled": 0, "bike_id": "45777b5da6d7eb4a2974f796765829e1", "lat": 38.949192, "is_reserved": 0, "lon": -77.01858483333334, "name": "45777b5da6d7eb4a2974f796765829e1", "type": "electric_scooter"}, {"fusion_lon": 0.0, "fusion_lat": 0.0, "rental_uris": {"ios": "https://dc.lft.to/lastmile_qr_scan", "android": "https://dc.lft.to/lastmile_qr_scan"}, "is_disabled": 0, "bike_id": "1376971e015a04233177077ccb67a20b", "lat": 38.930266333333336, "is_reserved": 0, "lon": -77.020728, "name": "1376971e015a04233177077ccb67a20b", "type": "electric_scooter"}, {"fusion_lon": 0.0, "fusion_lat": 0.0, "rental_uris": {"ios": "https://dc.lft.to/lastmile_qr_scan", "android": "https://dc.lft.to/lastmile_qr_scan"}, "is_disabled": 0, "bike_id": "99d22557abf46cb528fa76ddcf0ea0e2", "lat": 38.876138166666664, "is_reserved": 0, "lon": -77.01367766666667, "name": "99d22557abf46cb528fa76ddcf0ea0e2", "type": "electric_scooter"}, {"fusion_lon": 0.0, "fusion_lat": 0.0, "rental_uris": {"ios": "https://dc.lft.to/lastmile_qr_scan", "android": "https://dc.lft.to/lastmile_qr_scan"}, "is_disabled": 0, "bike_id": "6522cd073a2332ee3458f557a6ac1e86", "lat": 38.921482, "is_reserved": 0, "lon": -77.02082116666666, "name": "6522cd073a2332ee3458f557a6ac1e86", "type": "electric_scooter"}, {"fusion_lon": 0.0, "fusion_lat": 0.0, "rental_uris": {"ios": "https://dc.lft.to/lastmile_qr_scan", "android": "https://dc.lft.to/lastmile_qr_scan"}, "is_disabled": 0, "bike_id": "a43d231b30e0592ffd4904c3c6a14755", "lat": 38.88117233333333, "is_reserved": 0, "lon": -76.98705533333333, "name": "a43d231b30e0592ffd4904c3c6a14755", "type": "electric_scooter"}, {"fusion_lon": 0.0, "fusion_lat": 0.0, "rental_uris": {"ios": "https://dc.lft.to/lastmile_qr_scan", "android": "https://dc.lft.to/lastmile_qr_scan"}, "is_disabled": 0, "bike_id": "6e38dd2819c7bff9fa00987107f9c352", "lat": 38.902331, "is_reserved": 0, "lon": -77.04411133333333, "name": "6e38dd2819c7bff9fa00987107f9c352", "type": "electric_scooter"}, {"fusion_lon": 0.0, "fusion_lat": 0.0, "rental_uris": {"ios": "https://dc.lft.to/lastmile_qr_scan", "android": "https://dc.lft.to/lastmile_qr_scan"}, "is_disabled": 0, "bike_id": "30a9bd033fa0aa459b4e91356c8e8451", "lat": 38.901772666666666, "is_reserved": 0, "lon": -77.05090883333334, "name": "30a9bd033fa0aa459b4e91356c8e8451", "type": "electric_bike"}, {"fusion_lon": 0.0, "fusion_lat": 0.0, "rental_uris": {"ios": "https://dc.lft.to/lastmile_qr_scan", "android": "https://dc.lft.to/lastmile_qr_scan"}, "is_disabled": 0, "bike_id": "61d8d9dfc3179e77e928eaa509d57e9b", "lat": 38.905551333333335, "is_reserved": 0, "lon": -77.04310266666667, "name": "61d8d9dfc3179e77e928eaa509d57e9b", "type": "electric_scooter"}, {"fusion_lon": 0.0, "fusion_lat": 0.0, "rental_uris": {"ios": "https://dc.lft.to/lastmile_qr_scan", "android": "https://dc.lft.to/lastmile_qr_scan"}, "is_disabled": 0, "bike_id": "4ec693dd94a2eb193bfdcd6efe9b2f5b", "lat": 38.921128333333336, "is_reserved": 0, "lon": -77.01798033333333, "name": "4ec693dd94a2eb193bfdcd6efe9b2f5b", "type": "electric_scooter"}, {"fusion_lon": 0.0, "fusion_lat": 0.0, "rental_uris": {"ios": "https://dc.lft.to/lastmile_qr_scan", "android": "https://dc.lft.to/lastmile_qr_scan"}, "is_disabled": 0, "bike_id": "82dad16ea352e44aa1870ff838dcf6ab", "lat": 38.9332325, "is_reserved": 0, "lon": -77.03792416666667, "name": "82dad16ea352e44aa1870ff838dcf6ab", "type": "electric_scooter"}, {"fusion_lon": 0.0, "fusion_lat": 0.0, "rental_uris": {"ios": "https://dc.lft.to/lastmile_qr_scan", "android": "https://dc.lft.to/lastmile_qr_scan"}, "is_disabled": 0, "bike_id": "f4e595f0af12b2b7134128644276f0c7", "lat": 38.89745516666667, "is_reserved": 0, "lon": -77.03277966666667, "name": "f4e595f0af12b2b7134128644276f0c7", "type": "electric_scooter"}, {"fusion_lon": 0.0, "fusion_lat": 0.0, "rental_uris": {"ios": "https://dc.lft.to/lastmile_qr_scan", "android": "https://dc.lft.to/lastmile_qr_scan"}, "is_disabled": 0, "bike_id": "84db833e3eaf7ed077ba9b1e54ed91f2", "lat": 38.911379, "is_reserved": 0, "lon": -77.01031533333334, "name": "84db833e3eaf7ed077ba9b1e54ed91f2", "type": "electric_scooter"}, {"fusion_lon": 0.0, "fusion_lat": 0.0, "rental_uris": {"ios": "https://dc.lft.to/lastmile_qr_scan", "android": "https://dc.lft.to/lastmile_qr_scan"}, "is_disabled": 0, "bike_id": "0684fb9ae29c6beaf37c8c6b647b5361", "lat": 38.8812975, "is_reserved": 0, "lon": -77.013365, "name": "0684fb9ae29c6beaf37c8c6b647b5361", "type": "electric_scooter"}, {"fusion_lon": 0.0, "fusion_lat": 0.0, "rental_uris": {"ios": "https://dc.lft.to/lastmile_qr_scan", "android": "https://dc.lft.to/lastmile_qr_scan"}, "is_disabled": 0, "bike_id": "7241a8ff8ea343209bfc1a05da0a308b", "lat": 38.923437166666666, "is_reserved": 0, "lon": -77.05337483333334, "name": "7241a8ff8ea343209bfc1a05da0a308b", "type": "electric_scooter"}, {"fusion_lon": 0.0, "fusion_lat": 0.0, "rental_uris": {"ios": "https://dc.lft.to/lastmile_qr_scan", "android": "https://dc.lft.to/lastmile_qr_scan"}, "is_disabled": 0, "bike_id": "024dd81d5ed372520cb7337412afbbd7", "lat": 38.92699833333333, "is_reserved": 0, "lon": -76.97898483333333, "name": "024dd81d5ed372520cb7337412afbbd7", "type": "electric_bike"}, {"fusion_lon": 0.0, "fusion_lat": 0.0, "rental_uris": {"ios": "https://dc.lft.to/lastmile_qr_scan", "android": "https://dc.lft.to/lastmile_qr_scan"}, "is_disabled": 0, "bike_id": "ae9d4de9b0c3ce8fcfed941873cbbbe4", "lat": 38.90733433333333, "is_reserved": 0, "lon": -77.02091583333333, "name": "ae9d4de9b0c3ce8fcfed941873cbbbe4", "type": "electric_scooter"}, {"fusion_lon": 0.0, "fusion_lat": 0.0, "rental_uris": {"ios": "https://dc.lft.to/lastmile_qr_scan", "android": "https://dc.lft.to/lastmile_qr_scan"}, "is_disabled": 0, "bike_id": "64da00c72329931fcdb2aabec8ab2a91", "lat": 38.90312433333333, "is_reserved": 0, "lon": -77.03424983333333, "name": "64da00c72329931fcdb2aabec8ab2a91", "type": "electric_scooter"}, {"fusion_lon": 0.0, "fusion_lat": 0.0, "rental_uris": {"ios": "https://dc.lft.to/lastmile_qr_scan", "android": "https://dc.lft.to/lastmile_qr_scan"}, "is_disabled": 0, "bike_id": "0c602abecd16b265272dc17abd0a0924", "lat": 38.902401166666664, "is_reserved": 0, "lon": -77.04535916666667, "name": "0c602abecd16b265272dc17abd0a0924", "type": "electric_scooter"}, {"fusion_lon": 0.0, "fusion_lat": 0.0, "rental_uris": {"ios": "https://dc.lft.to/lastmile_qr_scan", "android": "https://dc.lft.to/lastmile_qr_scan"}, "is_disabled": 0, "bike_id": "0f9150593dcd4b458e6a94824b4741a5", "lat": 38.904103666666664, "is_reserved": 0, "lon": -77.02416783333334, "name": "0f9150593dcd4b458e6a94824b4741a5", "type": "electric_scooter"}, {"fusion_lon": 0.0, "fusion_lat": 0.0, "rental_uris": {"ios": "https://dc.lft.to/lastmile_qr_scan", "android": "https://dc.lft.to/lastmile_qr_scan"}, "is_disabled": 0, "bike_id": "771c2033e92ed132a6216704d0795fc5", "lat": 38.917882, "is_reserved": 0, "lon": -77.022811, "name": "771c2033e92ed132a6216704d0795fc5", "type": "electric_scooter"}, {"fusion_lon": 0.0, "fusion_lat": 0.0, "rental_uris": {"ios": "https://dc.lft.to/lastmile_qr_scan", "android": "https://dc.lft.to/lastmile_qr_scan"}, "is_disabled": 0, "bike_id": "acccc71171f5e2257141f782c7b40b95", "lat": 38.924582, "is_reserved": 0, "lon": -77.0215625, "name": "acccc71171f5e2257141f782c7b40b95", "type": "electric_scooter"}, {"fusion_lon": 0.0, "fusion_lat": 0.0, "rental_uris": {"ios": "https://dc.lft.to/lastmile_qr_scan", "android": "https://dc.lft.to/lastmile_qr_scan"}, "is_disabled": 0, "bike_id": "2b78374c12bd4ca69b7119927e67f658", "lat": 38.87846233333333, "is_reserved": 0, "lon": -77.03017816666667, "name": "2b78374c12bd4ca69b7119927e67f658", "type": "electric_scooter"}, {"fusion_lon": 0.0, "fusion_lat": 0.0, "rental_uris": {"ios": "https://dc.lft.to/lastmile_qr_scan", "android": "https://dc.lft.to/lastmile_qr_scan"}, "is_disabled": 0, "bike_id": "ed24d4a83e719c0fe28cf27a3c577797", "lat": 38.91677383333333, "is_reserved": 0, "lon": -77.029526, "name": "ed24d4a83e719c0fe28cf27a3c577797", "type": "electric_scooter"}, {"fusion_lon": 0.0, "fusion_lat": 0.0, "rental_uris": {"ios": "https://dc.lft.to/lastmile_qr_scan", "android": "https://dc.lft.to/lastmile_qr_scan"}, "is_disabled": 0, "bike_id": "0f018c421da97dce35a4302358b6394e", "lat": 38.9028605, "is_reserved": 0, "lon": -77.02776666666666, "name": "0f018c421da97dce35a4302358b6394e", "type": "electric_scooter"}, {"fusion_lon": 0.0, "fusion_lat": 0.0, "rental_uris": {"ios": "https://dc.lft.to/lastmile_qr_scan", "android": "https://dc.lft.to/lastmile_qr_scan"}, "is_disabled": 0, "bike_id": "b7a62a70141e3862a7a07544aa71e437", "lat": 38.90567883333333, "is_reserved": 0, "lon": -77.0058535, "name": "b7a62a70141e3862a7a07544aa71e437", "type": "electric_scooter"}, {"fusion_lon": 0.0, "fusion_lat": 0.0, "rental_uris": {"ios": "https://dc.lft.to/lastmile_qr_scan", "android": "https://dc.lft.to/lastmile_qr_scan"}, "is_disabled": 0, "bike_id": "97694115a1a6552f230a9b58d9b1017e", "lat": 38.89654383333333, "is_reserved": 0, "lon": -77.02314, "name": "97694115a1a6552f230a9b58d9b1017e", "type": "electric_scooter"}, {"fusion_lon": 0.0, "fusion_lat": 0.0, "rental_uris": {"ios": "https://dc.lft.to/lastmile_qr_scan", "android": "https://dc.lft.to/lastmile_qr_scan"}, "is_disabled": 0, "bike_id": "f3c3669c17ccff6fe2cb331e64630424", "lat": 38.89621483333333, "is_reserved": 0, "lon": -76.907493, "name": "f3c3669c17ccff6fe2cb331e64630424", "type": "electric_bike"}, {"fusion_lon": 0.0, "fusion_lat": 0.0, "rental_uris": {"ios": "https://dc.lft.to/lastmile_qr_scan", "android": "https://dc.lft.to/lastmile_qr_scan"}, "is_disabled": 0, "bike_id": "0053564a5320f83901841feb38e83c97", "lat": 38.91116316666667, "is_reserved": 0, "lon": -77.01744683333334, "name": "0053564a5320f83901841feb38e83c97", "type": "electric_scooter"}, {"fusion_lon": 0.0, "fusion_lat": 0.0, "rental_uris": {"ios": "https://dc.lft.to/lastmile_qr_scan", "android": "https://dc.lft.to/lastmile_qr_scan"}, "is_disabled": 0, "bike_id": "e1895af31157c812ce04892895ef32ab", "lat": 38.92217183333333, "is_reserved": 0, "lon": -77.02659533333333, "name": "e1895af31157c812ce04892895ef32ab", "type": "electric_scooter"}, {"fusion_lon": 0.0, "fusion_lat": 0.0, "rental_uris": {"ios": "https://dc.lft.to/lastmile_qr_scan", "android": "https://dc.lft.to/lastmile_qr_scan"}, "is_disabled": 0, "bike_id": "da69c6dc525f198a2856fb0c1494f228", "lat": 38.85567483333333, "is_reserved": 0, "lon": -76.99081116666666, "name": "da69c6dc525f198a2856fb0c1494f228", "type": "electric_scooter"}, {"fusion_lon": 0.0, "fusion_lat": 0.0, "rental_uris": {"ios": "https://dc.lft.to/lastmile_qr_scan", "android": "https://dc.lft.to/lastmile_qr_scan"}, "is_disabled": 0, "bike_id": "3052b705e61d2aea8985244e01ce20d7", "lat": 38.88538466666667, "is_reserved": 0, "lon": -76.97888516666667, "name": "3052b705e61d2aea8985244e01ce20d7", "type": "electric_scooter"}, {"fusion_lon": 0.0, "fusion_lat": 0.0, "rental_uris": {"ios": "https://dc.lft.to/lastmile_qr_scan", "android": "https://dc.lft.to/lastmile_qr_scan"}, "is_disabled": 0, "bike_id": "c1b8912daa1b61b4a5c978351cd3c2cf", "lat": 38.892270333333336, "is_reserved": 0, "lon": -77.021771, "name": "c1b8912daa1b61b4a5c978351cd3c2cf", "type": "electric_scooter"}, {"fusion_lon": 0.0, "fusion_lat": 0.0, "rental_uris": {"ios": "https://dc.lft.to/lastmile_qr_scan", "android": "https://dc.lft.to/lastmile_qr_scan"}, "is_disabled": 0, "bike_id": "b91cc39d2a71ee79e36a26f3ccd889de", "lat": 38.8765315, "is_reserved": 0, "lon": -77.01585033333333, "name": "b91cc39d2a71ee79e36a26f3ccd889de", "type": "electric_scooter"}, {"fusion_lon": 0.0, "fusion_lat": 0.0, "rental_uris": {"ios": "https://dc.lft.to/lastmile_qr_scan", "android": "https://dc.lft.to/lastmile_qr_scan"}, "is_disabled": 0, "bike_id": "2a325d629b3ce1130fc344fcadb8ff43", "lat": 38.905888833333336, "is_reserved": 0, "lon": -77.04017833333333, "name": "2a325d629b3ce1130fc344fcadb8ff43", "type": "electric_scooter"}, {"fusion_lon": 0.0, "fusion_lat": 0.0, "rental_uris": {"ios": "https://dc.lft.to/lastmile_qr_scan", "android": "https://dc.lft.to/lastmile_qr_scan"}, "is_disabled": 0, "bike_id": "6592cbcf92a249966ff82aea1c24b876", "lat": 38.886584166666665, "is_reserved": 0, "lon": -77.16234266666666, "name": "6592cbcf92a249966ff82aea1c24b876", "type": "electric_bike"}, {"fusion_lon": 0.0, "fusion_lat": 0.0, "rental_uris": {"ios": "https://dc.lft.to/lastmile_qr_scan", "android": "https://dc.lft.to/lastmile_qr_scan"}, "is_disabled": 0, "bike_id": "cf1aecd405e5e0ad781a17dbe10562cd", "lat": 38.9169815, "is_reserved": 0, "lon": -77.02299083333334, "name": "cf1aecd405e5e0ad781a17dbe10562cd", "type": "electric_scooter"}, {"fusion_lon": 0.0, "fusion_lat": 0.0, "rental_uris": {"ios": "https://dc.lft.to/lastmile_qr_scan", "android": "https://dc.lft.to/lastmile_qr_scan"}, "is_disabled": 0, "bike_id": "2b01d2188193f40d593a6472cc3920ac", "lat": 38.9264445, "is_reserved": 0, "lon": -77.09006866666667, "name": "2b01d2188193f40d593a6472cc3920ac", "type": "electric_bike"}, {"fusion_lon": 0.0, "fusion_lat": 0.0, "rental_uris": {"ios": "https://dc.lft.to/lastmile_qr_scan", "android": "https://dc.lft.to/lastmile_qr_scan"}, "is_disabled": 0, "bike_id": "71687e9779015b3f2c677e24c022cec7", "lat": 38.9172335, "is_reserved": 0, "lon": -77.04178766666666, "name": "71687e9779015b3f2c677e24c022cec7", "type": "electric_scooter"}, {"fusion_lon": 0.0, "fusion_lat": 0.0, "rental_uris": {"ios": "https://dc.lft.to/lastmile_qr_scan", "android": "https://dc.lft.to/lastmile_qr_scan"}, "is_disabled": 0, "bike_id": "38b10335c4146d7c901509fc71dde707", "lat": 38.92012583333333, "is_reserved": 0, "lon": -76.99565, "name": "38b10335c4146d7c901509fc71dde707", "type": "electric_scooter"}, {"fusion_lon": 0.0, "fusion_lat": 0.0, "rental_uris": {"ios": "https://dc.lft.to/lastmile_qr_scan", "android": "https://dc.lft.to/lastmile_qr_scan"}, "is_disabled": 0, "bike_id": "c494d05c045c20390a23f9ffa2b5e4dd", "lat": 38.8959835, "is_reserved": 0, "lon": -77.0257065, "name": "c494d05c045c20390a23f9ffa2b5e4dd", "type": "electric_scooter"}, {"fusion_lon": 0.0, "fusion_lat": 0.0, "rental_uris": {"ios": "https://dc.lft.to/lastmile_qr_scan", "android": "https://dc.lft.to/lastmile_qr_scan"}, "is_disabled": 0, "bike_id": "0e2fdda18c6fd7d8d26469f10b8812f5", "lat": 38.850924666666664, "is_reserved": 0, "lon": -76.9570075, "name": "0e2fdda18c6fd7d8d26469f10b8812f5", "type": "electric_bike"}, {"fusion_lon": 0.0, "fusion_lat": 0.0, "rental_uris": {"ios": "https://dc.lft.to/lastmile_qr_scan", "android": "https://dc.lft.to/lastmile_qr_scan"}, "is_disabled": 0, "bike_id": "396539a13b25c43ff37c690d084bb567", "lat": 38.883922166666665, "is_reserved": 0, "lon": -76.9574005, "name": "396539a13b25c43ff37c690d084bb567", "type": "electric_scooter"}, {"fusion_lon": 0.0, "fusion_lat": 0.0, "rental_uris": {"ios": "https://dc.lft.to/lastmile_qr_scan", "android": "https://dc.lft.to/lastmile_qr_scan"}, "is_disabled": 0, "bike_id": "b5f1a1fa6909f6cc59231eba26e4fe21", "lat": 38.93194233333333, "is_reserved": 0, "lon": -77.02795666666667, "name": "b5f1a1fa6909f6cc59231eba26e4fe21", "type": "electric_scooter"}, {"fusion_lon": 0.0, "fusion_lat": 0.0, "rental_uris": {"ios": "https://dc.lft.to/lastmile_qr_scan", "android": "https://dc.lft.to/lastmile_qr_scan"}, "is_disabled": 0, "bike_id": "6009aecd357da6bc71bba73ae14a31bb", "lat": 38.91047183333333, "is_reserved": 0, "lon": -77.021865, "name": "6009aecd357da6bc71bba73ae14a31bb", "type": "electric_scooter"}, {"fusion_lon": 0.0, "fusion_lat": 0.0, "rental_uris": {"ios": "https://dc.lft.to/lastmile_qr_scan", "android": "https://dc.lft.to/lastmile_qr_scan"}, "is_disabled": 0, "bike_id": "baac1e29e2de850e127c122579d8db6e", "lat": 38.90312766666667, "is_reserved": 0, "lon": -77.04464166666666, "name": "baac1e29e2de850e127c122579d8db6e", "type": "electric_scooter"}, {"fusion_lon": 0.0, "fusion_lat": 0.0, "rental_uris": {"ios": "https://dc.lft.to/lastmile_qr_scan", "android": "https://dc.lft.to/lastmile_qr_scan"}, "is_disabled": 0, "bike_id": "4188ba5d964b2003d3e0564af9eedd2b", "lat": 38.916787166666666, "is_reserved": 0, "lon": -77.02948983333333, "name": "4188ba5d964b2003d3e0564af9eedd2b", "type": "electric_scooter"}, {"fusion_lon": 0.0, "fusion_lat": 0.0, "rental_uris": {"ios": "https://dc.lft.to/lastmile_qr_scan", "android": "https://dc.lft.to/lastmile_qr_scan"}, "is_disabled": 0, "bike_id": "9a19edcd6933b5cff5daed9b5e53b20d", "lat": 38.9047735, "is_reserved": 0, "lon": -77.00215266666666, "name": "9a19edcd6933b5cff5daed9b5e53b20d", "type": "electric_scooter"}, {"fusion_lon": 0.0, "fusion_lat": 0.0, "rental_uris": {"ios": "https://dc.lft.to/lastmile_qr_scan", "android": "https://dc.lft.to/lastmile_qr_scan"}, "is_disabled": 0, "bike_id": "bf12e6ae2ea7ba406fd43e90f0600fb0", "lat": 38.919423333333334, "is_reserved": 0, "lon": -77.01801283333333, "name": "bf12e6ae2ea7ba406fd43e90f0600fb0", "type": "electric_scooter"}, {"fusion_lon": 0.0, "fusion_lat": 0.0, "rental_uris": {"ios": "https://dc.lft.to/lastmile_qr_scan", "android": "https://dc.lft.to/lastmile_qr_scan"}, "is_disabled": 0, "bike_id": "f4c540a7a0e9deef96c2921aebe33828", "lat": 38.901736, "is_reserved": 0, "lon": -77.02591966666667, "name": "f4c540a7a0e9deef96c2921aebe33828", "type": "electric_scooter"}, {"fusion_lon": 0.0, "fusion_lat": 0.0, "rental_uris": {"ios": "https://dc.lft.to/lastmile_qr_scan", "android": "https://dc.lft.to/lastmile_qr_scan"}, "is_disabled": 0, "bike_id": "8b7dda2a2dcd14d338dfc4967130c243", "lat": 38.90788966666667, "is_reserved": 0, "lon": -76.9803565, "name": "8b7dda2a2dcd14d338dfc4967130c243", "type": "electric_scooter"}, {"fusion_lon": 0.0, "fusion_lat": 0.0, "rental_uris": {"ios": "https://dc.lft.to/lastmile_qr_scan", "android": "https://dc.lft.to/lastmile_qr_scan"}, "is_disabled": 0, "bike_id": "671f95c46735833c2d140d1ffb610ede", "lat": 38.94198983333333, "is_reserved": 0, "lon": -77.02568933333333, "name": "671f95c46735833c2d140d1ffb610ede", "type": "electric_scooter"}, {"fusion_lon": 0.0, "fusion_lat": 0.0, "rental_uris": {"ios": "https://dc.lft.to/lastmile_qr_scan", "android": "https://dc.lft.to/lastmile_qr_scan"}, "is_disabled": 0, "bike_id": "9b2107063e17886eef43566099a9f356", "lat": 38.90572066666667, "is_reserved": 0, "lon": -77.02554016666667, "name": "9b2107063e17886eef43566099a9f356", "type": "electric_scooter"}, {"fusion_lon": 0.0, "fusion_lat": 0.0, "rental_uris": {"ios": "https://dc.lft.to/lastmile_qr_scan", "android": "https://dc.lft.to/lastmile_qr_scan"}, "is_disabled": 0, "bike_id": "64be656f19b02948259a0972782095f4", "lat": 38.915497, "is_reserved": 0, "lon": -77.03194633333334, "name": "64be656f19b02948259a0972782095f4", "type": "electric_scooter"}, {"fusion_lon": 0.0, "fusion_lat": 0.0, "rental_uris": {"ios": "https://dc.lft.to/lastmile_qr_scan", "android": "https://dc.lft.to/lastmile_qr_scan"}, "is_disabled": 0, "bike_id": "233fe1aaa9a604a4e0ea54978bc39512", "lat": 38.91926183333333, "is_reserved": 0, "lon": -77.032048, "name": "233fe1aaa9a604a4e0ea54978bc39512", "type": "electric_scooter"}, {"fusion_lon": 0.0, "fusion_lat": 0.0, "rental_uris": {"ios": "https://dc.lft.to/lastmile_qr_scan", "android": "https://dc.lft.to/lastmile_qr_scan"}, "is_disabled": 0, "bike_id": "2b614de53f22c589f44223a484c3365d", "lat": 38.93306233333333, "is_reserved": 0, "lon": -77.03268816666667, "name": "2b614de53f22c589f44223a484c3365d", "type": "electric_scooter"}, {"fusion_lon": 0.0, "fusion_lat": 0.0, "rental_uris": {"ios": "https://dc.lft.to/lastmile_qr_scan", "android": "https://dc.lft.to/lastmile_qr_scan"}, "is_disabled": 0, "bike_id": "f2753f61a27a1c168302bf6479553950", "lat": 38.92702583333333, "is_reserved": 0, "lon": -77.03632283333333, "name": "f2753f61a27a1c168302bf6479553950", "type": "electric_scooter"}, {"fusion_lon": 0.0, "fusion_lat": 0.0, "rental_uris": {"ios": "https://dc.lft.to/lastmile_qr_scan", "android": "https://dc.lft.to/lastmile_qr_scan"}, "is_disabled": 0, "bike_id": "1dc31232dd7a3bd1ebd8d290044cd2a3", "lat": 38.898929333333335, "is_reserved": 0, "lon": -77.0397635, "name": "1dc31232dd7a3bd1ebd8d290044cd2a3", "type": "electric_scooter"}, {"fusion_lon": 0.0, "fusion_lat": 0.0, "rental_uris": {"ios": "https://dc.lft.to/lastmile_qr_scan", "android": "https://dc.lft.to/lastmile_qr_scan"}, "is_disabled": 0, "bike_id": "cb33b09678fded1260917118a5eb8126", "lat": 38.92007383333333, "is_reserved": 0, "lon": -77.02174616666667, "name": "cb33b09678fded1260917118a5eb8126", "type": "electric_scooter"}, {"fusion_lon": 0.0, "fusion_lat": 0.0, "rental_uris": {"ios": "https://dc.lft.to/lastmile_qr_scan", "android": "https://dc.lft.to/lastmile_qr_scan"}, "is_disabled": 0, "bike_id": "96133d9b45b7c9b4037d797e3f98c6ac", "lat": 38.926831, "is_reserved": 0, "lon": -77.02283316666667, "name": "96133d9b45b7c9b4037d797e3f98c6ac", "type": "electric_scooter"}, {"fusion_lon": 0.0, "fusion_lat": 0.0, "rental_uris": {"ios": "https://dc.lft.to/lastmile_qr_scan", "android": "https://dc.lft.to/lastmile_qr_scan"}, "is_disabled": 0, "bike_id": "44980c0fd6ed7d4db004ba422b0e488a", "lat": 38.8587805, "is_reserved": 0, "lon": -77.09557383333333, "name": "44980c0fd6ed7d4db004ba422b0e488a", "type": "electric_bike"}, {"fusion_lon": 0.0, "fusion_lat": 0.0, "rental_uris": {"ios": "https://dc.lft.to/lastmile_qr_scan", "android": "https://dc.lft.to/lastmile_qr_scan"}, "is_disabled": 0, "bike_id": "bfedc9d12223f310915a2fdc98d341c3", "lat": 38.88128566666666, "is_reserved": 0, "lon": -77.01335666666667, "name": "bfedc9d12223f310915a2fdc98d341c3", "type": "electric_scooter"}, {"fusion_lon": 0.0, "fusion_lat": 0.0, "rental_uris": {"ios": "https://dc.lft.to/lastmile_qr_scan", "android": "https://dc.lft.to/lastmile_qr_scan"}, "is_disabled": 0, "bike_id": "7450b48b2ca10d8e4aee937bcb75eaba", "lat": 38.920464333333335, "is_reserved": 0, "lon": -77.04188733333334, "name": "7450b48b2ca10d8e4aee937bcb75eaba", "type": "electric_scooter"}, {"fusion_lon": 0.0, "fusion_lat": 0.0, "rental_uris": {"ios": "https://dc.lft.to/lastmile_qr_scan", "android": "https://dc.lft.to/lastmile_qr_scan"}, "is_disabled": 0, "bike_id": "681563024036b78710230cd4a8c5454d", "lat": 38.9024845, "is_reserved": 0, "lon": -77.03442766666667, "name": "681563024036b78710230cd4a8c5454d", "type": "electric_scooter"}, {"fusion_lon": 0.0, "fusion_lat": 0.0, "rental_uris": {"ios": "https://dc.lft.to/lastmile_qr_scan", "android": "https://dc.lft.to/lastmile_qr_scan"}, "is_disabled": 0, "bike_id": "b11b681393882a157974aa96f68541d8", "lat": 38.9047195, "is_reserved": 0, "lon": -77.01723216666667, "name": "b11b681393882a157974aa96f68541d8", "type": "electric_scooter"}, {"fusion_lon": 0.0, "fusion_lat": 0.0, "rental_uris": {"ios": "https://dc.lft.to/lastmile_qr_scan", "android": "https://dc.lft.to/lastmile_qr_scan"}, "is_disabled": 0, "bike_id": "cee8963b7f1c59a3de40f7c397e150a4", "lat": 38.91758633333333, "is_reserved": 0, "lon": -76.97312883333333, "name": "cee8963b7f1c59a3de40f7c397e150a4", "type": "electric_bike"}, {"fusion_lon": 0.0, "fusion_lat": 0.0, "rental_uris": {"ios": "https://dc.lft.to/lastmile_qr_scan", "android": "https://dc.lft.to/lastmile_qr_scan"}, "is_disabled": 0, "bike_id": "249e61871fb573e764cb5ed49e6ada19", "lat": 38.95394666666667, "is_reserved": 0, "lon": -77.025565, "name": "249e61871fb573e764cb5ed49e6ada19", "type": "electric_scooter"}, {"fusion_lon": 0.0, "fusion_lat": 0.0, "rental_uris": {"ios": "https://dc.lft.to/lastmile_qr_scan", "android": "https://dc.lft.to/lastmile_qr_scan"}, "is_disabled": 0, "bike_id": "047f46340d991aa71cde31679ad4e656", "lat": 38.90350516666667, "is_reserved": 0, "lon": -76.92944583333333, "name": "047f46340d991aa71cde31679ad4e656", "type": "electric_scooter"}, {"fusion_lon": 0.0, "fusion_lat": 0.0, "rental_uris": {"ios": "https://dc.lft.to/lastmile_qr_scan", "android": "https://dc.lft.to/lastmile_qr_scan"}, "is_disabled": 0, "bike_id": "bbfaa5abeb77d73b7a2fbc50c3836495", "lat": 38.921122833333335, "is_reserved": 0, "lon": -77.01762183333334, "name": "bbfaa5abeb77d73b7a2fbc50c3836495", "type": "electric_scooter"}, {"fusion_lon": 0.0, "fusion_lat": 0.0, "rental_uris": {"ios": "https://dc.lft.to/lastmile_qr_scan", "android": "https://dc.lft.to/lastmile_qr_scan"}, "is_disabled": 0, "bike_id": "8da933239e680a3f334bfd9e4beb6540", "lat": 38.919127833333334, "is_reserved": 0, "lon": -77.03313966666667, "name": "8da933239e680a3f334bfd9e4beb6540", "type": "electric_scooter"}, {"fusion_lon": 0.0, "fusion_lat": 0.0, "rental_uris": {"ios": "https://dc.lft.to/lastmile_qr_scan", "android": "https://dc.lft.to/lastmile_qr_scan"}, "is_disabled": 0, "bike_id": "f494bc868b96a1359da9076800a6b82d", "lat": 38.876306166666666, "is_reserved": 0, "lon": -76.965237, "name": "f494bc868b96a1359da9076800a6b82d", "type": "electric_scooter"}, {"fusion_lon": 0.0, "fusion_lat": 0.0, "rental_uris": {"ios": "https://dc.lft.to/lastmile_qr_scan", "android": "https://dc.lft.to/lastmile_qr_scan"}, "is_disabled": 0, "bike_id": "93c6b87ad3159667371c7e08833211cc", "lat": 38.919566, "is_reserved": 0, "lon": -77.01802233333333, "name": "93c6b87ad3159667371c7e08833211cc", "type": "electric_scooter"}, {"fusion_lon": 0.0, "fusion_lat": 0.0, "rental_uris": {"ios": "https://dc.lft.to/lastmile_qr_scan", "android": "https://dc.lft.to/lastmile_qr_scan"}, "is_disabled": 0, "bike_id": "a8f513169daea276d5837358e70c2df5", "lat": 38.918570333333335, "is_reserved": 0, "lon": -76.96091833333334, "name": "a8f513169daea276d5837358e70c2df5", "type": "electric_bike"}, {"fusion_lon": 0.0, "fusion_lat": 0.0, "rental_uris": {"ios": "https://dc.lft.to/lastmile_qr_scan", "android": "https://dc.lft.to/lastmile_qr_scan"}, "is_disabled": 0, "bike_id": "5336d5299879d134cf95fdd2e733dc21", "lat": 38.84192783333334, "is_reserved": 0, "lon": -77.07751583333334, "name": "5336d5299879d134cf95fdd2e733dc21", "type": "electric_bike"}, {"fusion_lon": 0.0, "fusion_lat": 0.0, "rental_uris": {"ios": "https://dc.lft.to/lastmile_qr_scan", "android": "https://dc.lft.to/lastmile_qr_scan"}, "is_disabled": 0, "bike_id": "731f4b711f454125dacd1af3394ebc5e", "lat": 38.90405533333333, "is_reserved": 0, "lon": -77.04661733333333, "name": "731f4b711f454125dacd1af3394ebc5e", "type": "electric_scooter"}, {"fusion_lon": 0.0, "fusion_lat": 0.0, "rental_uris": {"ios": "https://dc.lft.to/lastmile_qr_scan", "android": "https://dc.lft.to/lastmile_qr_scan"}, "is_disabled": 0, "bike_id": "333bcc329b4c7cb88ca6698ded69aa1a", "lat": 38.94198883333333, "is_reserved": 0, "lon": -77.02348233333333, "name": "333bcc329b4c7cb88ca6698ded69aa1a", "type": "electric_scooter"}, {"fusion_lon": 0.0, "fusion_lat": 0.0, "rental_uris": {"ios": "https://dc.lft.to/lastmile_qr_scan", "android": "https://dc.lft.to/lastmile_qr_scan"}, "is_disabled": 0, "bike_id": "ecc885edda6b51a1230282a33482052e", "lat": 38.909266333333335, "is_reserved": 0, "lon": -77.04208733333333, "name": "ecc885edda6b51a1230282a33482052e", "type": "electric_scooter"}, {"fusion_lon": 0.0, "fusion_lat": 0.0, "rental_uris": {"ios": "https://dc.lft.to/lastmile_qr_scan", "android": "https://dc.lft.to/lastmile_qr_scan"}, "is_disabled": 0, "bike_id": "f1fc8169b90fe4a7a0d7577b35c9d9f1", "lat": 38.89674333333333, "is_reserved": 0, "lon": -77.00515333333334, "name": "f1fc8169b90fe4a7a0d7577b35c9d9f1", "type": "electric_scooter"}, {"fusion_lon": 0.0, "fusion_lat": 0.0, "rental_uris": {"ios": "https://dc.lft.to/lastmile_qr_scan", "android": "https://dc.lft.to/lastmile_qr_scan"}, "is_disabled": 0, "bike_id": "9ea0d155f0a204913c529a8ce6957e22", "lat": 38.90017316666667, "is_reserved": 0, "lon": -77.00042933333333, "name": "9ea0d155f0a204913c529a8ce6957e22", "type": "electric_scooter"}, {"fusion_lon": 0.0, "fusion_lat": 0.0, "rental_uris": {"ios": "https://dc.lft.to/lastmile_qr_scan", "android": "https://dc.lft.to/lastmile_qr_scan"}, "is_disabled": 0, "bike_id": "7c52421e4abae8955d6965e18d7632a6", "lat": 38.9137145, "is_reserved": 0, "lon": -77.06618983333334, "name": "7c52421e4abae8955d6965e18d7632a6", "type": "electric_scooter"}, {"fusion_lon": 0.0, "fusion_lat": 0.0, "rental_uris": {"ios": "https://dc.lft.to/lastmile_qr_scan", "android": "https://dc.lft.to/lastmile_qr_scan"}, "is_disabled": 0, "bike_id": "4225a60cc0679d0c1477a362589cca14", "lat": 38.87941716666667, "is_reserved": 0, "lon": -76.928953, "name": "4225a60cc0679d0c1477a362589cca14", "type": "electric_scooter"}, {"fusion_lon": 0.0, "fusion_lat": 0.0, "rental_uris": {"ios": "https://dc.lft.to/lastmile_qr_scan", "android": "https://dc.lft.to/lastmile_qr_scan"}, "is_disabled": 0, "bike_id": "fc5d55779cf444c28e8b8351a80c898b", "lat": 38.92021416666667, "is_reserved": 0, "lon": -77.0636185, "name": "fc5d55779cf444c28e8b8351a80c898b", "type": "electric_scooter"}, {"fusion_lon": 0.0, "fusion_lat": 0.0, "rental_uris": {"ios": "https://dc.lft.to/lastmile_qr_scan", "android": "https://dc.lft.to/lastmile_qr_scan"}, "is_disabled": 0, "bike_id": "58d66ac7d7f6a137dc408dbd6f2bb543", "lat": 38.899702166666664, "is_reserved": 0, "lon": -77.0454045, "name": "58d66ac7d7f6a137dc408dbd6f2bb543", "type": "electric_scooter"}, {"fusion_lon": 0.0, "fusion_lat": 0.0, "rental_uris": {"ios": "https://dc.lft.to/lastmile_qr_scan", "android": "https://dc.lft.to/lastmile_qr_scan"}, "is_disabled": 0, "bike_id": "02cbdfcb687664c0821dcfb5b3ea2293", "lat": 38.89264883333333, "is_reserved": 0, "lon": -76.9837175, "name": "02cbdfcb687664c0821dcfb5b3ea2293", "type": "electric_scooter"}, {"fusion_lon": 0.0, "fusion_lat": 0.0, "rental_uris": {"ios": "https://dc.lft.to/lastmile_qr_scan", "android": "https://dc.lft.to/lastmile_qr_scan"}, "is_disabled": 0, "bike_id": "494c922e786a415ff77ae2534b8083bc", "lat": 38.89853033333333, "is_reserved": 0, "lon": -77.03948433333333, "name": "494c922e786a415ff77ae2534b8083bc", "type": "electric_scooter"}, {"fusion_lon": 0.0, "fusion_lat": 0.0, "rental_uris": {"ios": "https://dc.lft.to/lastmile_qr_scan", "android": "https://dc.lft.to/lastmile_qr_scan"}, "is_disabled": 0, "bike_id": "54db3f84f852fb96fa46d6551014344c", "lat": 38.900615, "is_reserved": 0, "lon": -76.9984245, "name": "54db3f84f852fb96fa46d6551014344c", "type": "electric_scooter"}, {"fusion_lon": 0.0, "fusion_lat": 0.0, "rental_uris": {"ios": "https://dc.lft.to/lastmile_qr_scan", "android": "https://dc.lft.to/lastmile_qr_scan"}, "is_disabled": 0, "bike_id": "89f024e3c8d1ae41594f429daeab2ab3", "lat": 38.873549, "is_reserved": 0, "lon": -77.000663, "name": "89f024e3c8d1ae41594f429daeab2ab3", "type": "electric_scooter"}, {"fusion_lon": 0.0, "fusion_lat": 0.0, "rental_uris": {"ios": "https://dc.lft.to/lastmile_qr_scan", "android": "https://dc.lft.to/lastmile_qr_scan"}, "is_disabled": 0, "bike_id": "b802569dd6fc6a81312062cc88ab7a89", "lat": 38.883961166666666, "is_reserved": 0, "lon": -76.960604, "name": "b802569dd6fc6a81312062cc88ab7a89", "type": "electric_bike"}, {"fusion_lon": 0.0, "fusion_lat": 0.0, "rental_uris": {"ios": "https://dc.lft.to/lastmile_qr_scan", "android": "https://dc.lft.to/lastmile_qr_scan"}, "is_disabled": 0, "bike_id": "ec8738c660b11dfc65d1ee116348c5a0", "lat": 38.90074516666667, "is_reserved": 0, "lon": -77.04559033333334, "name": "ec8738c660b11dfc65d1ee116348c5a0", "type": "electric_scooter"}, {"fusion_lon": 0.0, "fusion_lat": 0.0, "rental_uris": {"ios": "https://dc.lft.to/lastmile_qr_scan", "android": "https://dc.lft.to/lastmile_qr_scan"}, "is_disabled": 0, "bike_id": "8e873cb436812bf1460a023b744eb068", "lat": 38.90725716666667, "is_reserved": 0, "lon": -77.04510616666667, "name": "8e873cb436812bf1460a023b744eb068", "type": "electric_scooter"}, {"fusion_lon": 0.0, "fusion_lat": 0.0, "rental_uris": {"ios": "https://dc.lft.to/lastmile_qr_scan", "android": "https://dc.lft.to/lastmile_qr_scan"}, "is_disabled": 0, "bike_id": "c31fe5ec00344ab93e88457a29547787", "lat": 38.9227395, "is_reserved": 0, "lon": -77.0366835, "name": "c31fe5ec00344ab93e88457a29547787", "type": "electric_scooter"}, {"fusion_lon": 0.0, "fusion_lat": 0.0, "rental_uris": {"ios": "https://dc.lft.to/lastmile_qr_scan", "android": "https://dc.lft.to/lastmile_qr_scan"}, "is_disabled": 0, "bike_id": "c7ea5598ca5c587335f59a32f8367513", "lat": 38.892308666666665, "is_reserved": 0, "lon": -77.0220545, "name": "c7ea5598ca5c587335f59a32f8367513", "type": "electric_scooter"}, {"fusion_lon": 0.0, "fusion_lat": 0.0, "rental_uris": {"ios": "https://dc.lft.to/lastmile_qr_scan", "android": "https://dc.lft.to/lastmile_qr_scan"}, "is_disabled": 0, "bike_id": "20382c26e33c92155220d59e2ba76780", "lat": 38.900931166666666, "is_reserved": 0, "lon": -77.04869566666666, "name": "20382c26e33c92155220d59e2ba76780", "type": "electric_scooter"}, {"fusion_lon": 0.0, "fusion_lat": 0.0, "rental_uris": {"ios": "https://dc.lft.to/lastmile_qr_scan", "android": "https://dc.lft.to/lastmile_qr_scan"}, "is_disabled": 0, "bike_id": "2d402654b51814024e5e164cec27c2ed", "lat": 38.906812333333335, "is_reserved": 0, "lon": -77.03767533333334, "name": "2d402654b51814024e5e164cec27c2ed", "type": "electric_scooter"}, {"fusion_lon": 0.0, "fusion_lat": 0.0, "rental_uris": {"ios": "https://dc.lft.to/lastmile_qr_scan", "android": "https://dc.lft.to/lastmile_qr_scan"}, "is_disabled": 0, "bike_id": "6a823b663a3e5c3b9c3f59248de86604", "lat": 38.895494666666664, "is_reserved": 0, "lon": -76.98338483333333, "name": "6a823b663a3e5c3b9c3f59248de86604", "type": "electric_scooter"}, {"fusion_lon": 0.0, "fusion_lat": 0.0, "rental_uris": {"ios": "https://dc.lft.to/lastmile_qr_scan", "android": "https://dc.lft.to/lastmile_qr_scan"}, "is_disabled": 0, "bike_id": "d0c4f9e0d620e2941f1abe4cd01110f2", "lat": 38.871417666666666, "is_reserved": 0, "lon": -77.007615, "name": "d0c4f9e0d620e2941f1abe4cd01110f2", "type": "electric_scooter"}, {"fusion_lon": 0.0, "fusion_lat": 0.0, "rental_uris": {"ios": "https://dc.lft.to/lastmile_qr_scan", "android": "https://dc.lft.to/lastmile_qr_scan"}, "is_disabled": 0, "bike_id": "c60ee51241acdb4dfc6eddeb4b586a67", "lat": 38.902797666666665, "is_reserved": 0, "lon": -77.03672, "name": "c60ee51241acdb4dfc6eddeb4b586a67", "type": "electric_scooter"}, {"fusion_lon": 0.0, "fusion_lat": 0.0, "rental_uris": {"ios": "https://dc.lft.to/lastmile_qr_scan", "android": "https://dc.lft.to/lastmile_qr_scan"}, "is_disabled": 0, "bike_id": "8fb78824780ad31ee06a2f3f5ed6273e", "lat": 38.9062865, "is_reserved": 0, "lon": -77.05003133333334, "name": "8fb78824780ad31ee06a2f3f5ed6273e", "type": "electric_scooter"}, {"fusion_lon": 0.0, "fusion_lat": 0.0, "rental_uris": {"ios": "https://dc.lft.to/lastmile_qr_scan", "android": "https://dc.lft.to/lastmile_qr_scan"}, "is_disabled": 0, "bike_id": "9eaf11187f7e3aa2b6f63b73a00b9057", "lat": 38.91530766666666, "is_reserved": 0, "lon": -77.01856183333334, "name": "9eaf11187f7e3aa2b6f63b73a00b9057", "type": "electric_scooter"}, {"fusion_lon": 0.0, "fusion_lat": 0.0, "rental_uris": {"ios": "https://dc.lft.to/lastmile_qr_scan", "android": "https://dc.lft.to/lastmile_qr_scan"}, "is_disabled": 0, "bike_id": "583a3808da53e92810c4665a0b8e2ff8", "lat": 38.891356, "is_reserved": 0, "lon": -76.9836565, "name": "583a3808da53e92810c4665a0b8e2ff8", "type": "electric_scooter"}, {"fusion_lon": 0.0, "fusion_lat": 0.0, "rental_uris": {"ios": "https://dc.lft.to/lastmile_qr_scan", "android": "https://dc.lft.to/lastmile_qr_scan"}, "is_disabled": 0, "bike_id": "ed97be687cdfd936b21bbdbfb68fe90d", "lat": 38.91942616666667, "is_reserved": 0, "lon": -77.0179485, "name": "ed97be687cdfd936b21bbdbfb68fe90d", "type": "electric_scooter"}, {"fusion_lon": 0.0, "fusion_lat": 0.0, "rental_uris": {"ios": "https://dc.lft.to/lastmile_qr_scan", "android": "https://dc.lft.to/lastmile_qr_scan"}, "is_disabled": 0, "bike_id": "3c4a174470754a2e9678ab3c87193070", "lat": 38.9341705, "is_reserved": 0, "lon": -77.04328383333333, "name": "3c4a174470754a2e9678ab3c87193070", "type": "electric_scooter"}, {"fusion_lon": 0.0, "fusion_lat": 0.0, "rental_uris": {"ios": "https://dc.lft.to/lastmile_qr_scan", "android": "https://dc.lft.to/lastmile_qr_scan"}, "is_disabled": 0, "bike_id": "677f84b9213c5e605ef3134d26e7c505", "lat": 38.921363666666664, "is_reserved": 0, "lon": -77.01759366666667, "name": "677f84b9213c5e605ef3134d26e7c505", "type": "electric_scooter"}, {"fusion_lon": 0.0, "fusion_lat": 0.0, "rental_uris": {"ios": "https://dc.lft.to/lastmile_qr_scan", "android": "https://dc.lft.to/lastmile_qr_scan"}, "is_disabled": 0, "bike_id": "96ae47254fe7c0cf8fb848b82dab9924", "lat": 38.9501125, "is_reserved": 0, "lon": -77.06699133333333, "name": "96ae47254fe7c0cf8fb848b82dab9924", "type": "electric_scooter"}, {"fusion_lon": 0.0, "fusion_lat": 0.0, "rental_uris": {"ios": "https://dc.lft.to/lastmile_qr_scan", "android": "https://dc.lft.to/lastmile_qr_scan"}, "is_disabled": 0, "bike_id": "6c4a1d3a6e5d15e67d4af4e0731993f8", "lat": 38.90976083333334, "is_reserved": 0, "lon": -77.04873866666667, "name": "6c4a1d3a6e5d15e67d4af4e0731993f8", "type": "electric_scooter"}, {"fusion_lon": 0.0, "fusion_lat": 0.0, "rental_uris": {"ios": "https://dc.lft.to/lastmile_qr_scan", "android": "https://dc.lft.to/lastmile_qr_scan"}, "is_disabled": 0, "bike_id": "df195c3e6a67fc7dd6cb28ad6dba18c1", "lat": 38.9126745, "is_reserved": 0, "lon": -77.048714, "name": "df195c3e6a67fc7dd6cb28ad6dba18c1", "type": "electric_scooter"}, {"fusion_lon": 0.0, "fusion_lat": 0.0, "rental_uris": {"ios": "https://dc.lft.to/lastmile_qr_scan", "android": "https://dc.lft.to/lastmile_qr_scan"}, "is_disabled": 0, "bike_id": "09971edf6627682693128f33c0ee2174", "lat": 38.9235145, "is_reserved": 0, "lon": -77.03355716666667, "name": "09971edf6627682693128f33c0ee2174", "type": "electric_scooter"}, {"fusion_lon": 0.0, "fusion_lat": 0.0, "rental_uris": {"ios": "https://dc.lft.to/lastmile_qr_scan", "android": "https://dc.lft.to/lastmile_qr_scan"}, "is_disabled": 0, "bike_id": "9458733b398e4e78a8cfa7b022c536b5", "lat": 38.855191833333336, "is_reserved": 0, "lon": -76.98428966666667, "name": "9458733b398e4e78a8cfa7b022c536b5", "type": "electric_bike"}, {"fusion_lon": 0.0, "fusion_lat": 0.0, "rental_uris": {"ios": "https://dc.lft.to/lastmile_qr_scan", "android": "https://dc.lft.to/lastmile_qr_scan"}, "is_disabled": 0, "bike_id": "76180dfe90d5006ec10ff84ecd59f6f7", "lat": 38.92328166666667, "is_reserved": 0, "lon": -77.019596, "name": "76180dfe90d5006ec10ff84ecd59f6f7", "type": "electric_scooter"}, {"fusion_lon": 0.0, "fusion_lat": 0.0, "rental_uris": {"ios": "https://dc.lft.to/lastmile_qr_scan", "android": "https://dc.lft.to/lastmile_qr_scan"}, "is_disabled": 0, "bike_id": "37c25b5c95fea0306124de46ad4771e8", "lat": 38.91624133333333, "is_reserved": 0, "lon": -77.00348616666666, "name": "37c25b5c95fea0306124de46ad4771e8", "type": "electric_scooter"}, {"fusion_lon": 0.0, "fusion_lat": 0.0, "rental_uris": {"ios": "https://dc.lft.to/lastmile_qr_scan", "android": "https://dc.lft.to/lastmile_qr_scan"}, "is_disabled": 0, "bike_id": "35ca24979f5db47fd3b9469cf5f8895d", "lat": 38.8732405, "is_reserved": 0, "lon": -77.1140995, "name": "35ca24979f5db47fd3b9469cf5f8895d", "type": "electric_bike"}, {"fusion_lon": 0.0, "fusion_lat": 0.0, "rental_uris": {"ios": "https://dc.lft.to/lastmile_qr_scan", "android": "https://dc.lft.to/lastmile_qr_scan"}, "is_disabled": 0, "bike_id": "2340990650dfcd001de81854a5ab3ee1", "lat": 38.905432, "is_reserved": 0, "lon": -77.02191583333334, "name": "2340990650dfcd001de81854a5ab3ee1", "type": "electric_scooter"}, {"fusion_lon": 0.0, "fusion_lat": 0.0, "rental_uris": {"ios": "https://dc.lft.to/lastmile_qr_scan", "android": "https://dc.lft.to/lastmile_qr_scan"}, "is_disabled": 0, "bike_id": "d849277eceeef50e02a49be41c895294", "lat": 38.900309166666666, "is_reserved": 0, "lon": -77.011718, "name": "d849277eceeef50e02a49be41c895294", "type": "electric_scooter"}, {"fusion_lon": 0.0, "fusion_lat": 0.0, "rental_uris": {"ios": "https://dc.lft.to/lastmile_qr_scan", "android": "https://dc.lft.to/lastmile_qr_scan"}, "is_disabled": 0, "bike_id": "1359c6df3266e2491995ef99dd6775ea", "lat": 38.92038483333333, "is_reserved": 0, "lon": -76.99716616666667, "name": "1359c6df3266e2491995ef99dd6775ea", "type": "electric_scooter"}, {"fusion_lon": 0.0, "fusion_lat": 0.0, "rental_uris": {"ios": "https://dc.lft.to/lastmile_qr_scan", "android": "https://dc.lft.to/lastmile_qr_scan"}, "is_disabled": 0, "bike_id": "88cc326e204d868c9d4b0026e25855ad", "lat": 38.87895983333333, "is_reserved": 0, "lon": -76.935219, "name": "88cc326e204d868c9d4b0026e25855ad", "type": "electric_scooter"}, {"fusion_lon": 0.0, "fusion_lat": 0.0, "rental_uris": {"ios": "https://dc.lft.to/lastmile_qr_scan", "android": "https://dc.lft.to/lastmile_qr_scan"}, "is_disabled": 0, "bike_id": "a153d4fbf3ebd6b900afdc9d3a13dffa", "lat": 38.93067383333333, "is_reserved": 0, "lon": -77.02847983333334, "name": "a153d4fbf3ebd6b900afdc9d3a13dffa", "type": "electric_scooter"}, {"fusion_lon": 0.0, "fusion_lat": 0.0, "rental_uris": {"ios": "https://dc.lft.to/lastmile_qr_scan", "android": "https://dc.lft.to/lastmile_qr_scan"}, "is_disabled": 0, "bike_id": "ff1a8bd0fbb9c432d5e2e7370a914831", "lat": 38.82206083333333, "is_reserved": 0, "lon": -76.97698083333333, "name": "ff1a8bd0fbb9c432d5e2e7370a914831", "type": "electric_bike"}, {"fusion_lon": 0.0, "fusion_lat": 0.0, "rental_uris": {"ios": "https://dc.lft.to/lastmile_qr_scan", "android": "https://dc.lft.to/lastmile_qr_scan"}, "is_disabled": 0, "bike_id": "00336376649adaaa78e5e600d45a4a07", "lat": 38.907727666666666, "is_reserved": 0, "lon": -77.03532883333334, "name": "00336376649adaaa78e5e600d45a4a07", "type": "electric_scooter"}, {"fusion_lon": 0.0, "fusion_lat": 0.0, "rental_uris": {"ios": "https://dc.lft.to/lastmile_qr_scan", "android": "https://dc.lft.to/lastmile_qr_scan"}, "is_disabled": 0, "bike_id": "78b00b388b404c3366ddda8e4d22eafd", "lat": 38.907267, "is_reserved": 0, "lon": -77.04024283333334, "name": "78b00b388b404c3366ddda8e4d22eafd", "type": "electric_scooter"}, {"fusion_lon": 0.0, "fusion_lat": 0.0, "rental_uris": {"ios": "https://dc.lft.to/lastmile_qr_scan", "android": "https://dc.lft.to/lastmile_qr_scan"}, "is_disabled": 0, "bike_id": "7712c62c1b5bdc5e6dec8221775b045a", "lat": 38.908112, "is_reserved": 0, "lon": -77.03542416666667, "name": "7712c62c1b5bdc5e6dec8221775b045a", "type": "electric_scooter"}, {"fusion_lon": 0.0, "fusion_lat": 0.0, "rental_uris": {"ios": "https://dc.lft.to/lastmile_qr_scan", "android": "https://dc.lft.to/lastmile_qr_scan"}, "is_disabled": 0, "bike_id": "2169c0e0eaa8d1cf42daf59df51d97ab", "lat": 38.90023766666667, "is_reserved": 0, "lon": -77.01186583333333, "name": "2169c0e0eaa8d1cf42daf59df51d97ab", "type": "electric_scooter"}, {"fusion_lon": 0.0, "fusion_lat": 0.0, "rental_uris": {"ios": "https://dc.lft.to/lastmile_qr_scan", "android": "https://dc.lft.to/lastmile_qr_scan"}, "is_disabled": 0, "bike_id": "9eac1f368615c054bd6ae1586f7f03e8", "lat": 38.92247533333333, "is_reserved": 0, "lon": -77.0414635, "name": "9eac1f368615c054bd6ae1586f7f03e8", "type": "electric_scooter"}, {"fusion_lon": 0.0, "fusion_lat": 0.0, "rental_uris": {"ios": "https://dc.lft.to/lastmile_qr_scan", "android": "https://dc.lft.to/lastmile_qr_scan"}, "is_disabled": 0, "bike_id": "a3fd7e54ef15a24c2a259a69d8681090", "lat": 38.85445, "is_reserved": 0, "lon": -77.08322433333333, "name": "a3fd7e54ef15a24c2a259a69d8681090", "type": "electric_bike"}, {"fusion_lon": 0.0, "fusion_lat": 0.0, "rental_uris": {"ios": "https://dc.lft.to/lastmile_qr_scan", "android": "https://dc.lft.to/lastmile_qr_scan"}, "is_disabled": 0, "bike_id": "9d7fe81f24dfca8016b31a9d91bee085", "lat": 38.9155835, "is_reserved": 0, "lon": -77.01207266666667, "name": "9d7fe81f24dfca8016b31a9d91bee085", "type": "electric_scooter"}, {"fusion_lon": 0.0, "fusion_lat": 0.0, "rental_uris": {"ios": "https://dc.lft.to/lastmile_qr_scan", "android": "https://dc.lft.to/lastmile_qr_scan"}, "is_disabled": 0, "bike_id": "4e8f40e4a888f9466d6a3f1ab50322e6", "lat": 38.9052155, "is_reserved": 0, "lon": -77.05010933333334, "name": "4e8f40e4a888f9466d6a3f1ab50322e6", "type": "electric_scooter"}, {"fusion_lon": 0.0, "fusion_lat": 0.0, "rental_uris": {"ios": "https://dc.lft.to/lastmile_qr_scan", "android": "https://dc.lft.to/lastmile_qr_scan"}, "is_disabled": 0, "bike_id": "6744c5299cea68e98d3900f5260e2129", "lat": 38.90870683333333, "is_reserved": 0, "lon": -77.02690983333333, "name": "6744c5299cea68e98d3900f5260e2129", "type": "electric_scooter"}, {"fusion_lon": 0.0, "fusion_lat": 0.0, "rental_uris": {"ios": "https://dc.lft.to/lastmile_qr_scan", "android": "https://dc.lft.to/lastmile_qr_scan"}, "is_disabled": 0, "bike_id": "9aa1e278336bf26ec44107a3628d2145", "lat": 38.8979075, "is_reserved": 0, "lon": -77.01201716666667, "name": "9aa1e278336bf26ec44107a3628d2145", "type": "electric_scooter"}, {"fusion_lon": 0.0, "fusion_lat": 0.0, "rental_uris": {"ios": "https://dc.lft.to/lastmile_qr_scan", "android": "https://dc.lft.to/lastmile_qr_scan"}, "is_disabled": 0, "bike_id": "ee78e9ff53c8a3bb3ea30d8cfd5ae647", "lat": 38.930946666666664, "is_reserved": 0, "lon": -77.0264265, "name": "ee78e9ff53c8a3bb3ea30d8cfd5ae647", "type": "electric_scooter"}, {"fusion_lon": 0.0, "fusion_lat": 0.0, "rental_uris": {"ios": "https://dc.lft.to/lastmile_qr_scan", "android": "https://dc.lft.to/lastmile_qr_scan"}, "is_disabled": 0, "bike_id": "a4ac39c1d671cdaaf30427ac1a34f9c4", "lat": 38.925277666666666, "is_reserved": 0, "lon": -77.02578366666667, "name": "a4ac39c1d671cdaaf30427ac1a34f9c4", "type": "electric_scooter"}, {"fusion_lon": 0.0, "fusion_lat": 0.0, "rental_uris": {"ios": "https://dc.lft.to/lastmile_qr_scan", "android": "https://dc.lft.to/lastmile_qr_scan"}, "is_disabled": 0, "bike_id": "11a785af08737d1694ba7203b2ec3840", "lat": 38.95153216666667, "is_reserved": 0, "lon": -77.01865283333333, "name": "11a785af08737d1694ba7203b2ec3840", "type": "electric_scooter"}, {"fusion_lon": 0.0, "fusion_lat": 0.0, "rental_uris": {"ios": "https://dc.lft.to/lastmile_qr_scan", "android": "https://dc.lft.to/lastmile_qr_scan"}, "is_disabled": 0, "bike_id": "2d6920b05374104a2146c589a8a55466", "lat": 38.90144133333333, "is_reserved": 0, "lon": -77.03869683333333, "name": "2d6920b05374104a2146c589a8a55466", "type": "electric_scooter"}, {"fusion_lon": 0.0, "fusion_lat": 0.0, "rental_uris": {"ios": "https://dc.lft.to/lastmile_qr_scan", "android": "https://dc.lft.to/lastmile_qr_scan"}, "is_disabled": 0, "bike_id": "e426347e62b3305c082890c5f48d9939", "lat": 38.90019433333333, "is_reserved": 0, "lon": -77.00066283333334, "name": "e426347e62b3305c082890c5f48d9939", "type": "electric_scooter"}, {"fusion_lon": 0.0, "fusion_lat": 0.0, "rental_uris": {"ios": "https://dc.lft.to/lastmile_qr_scan", "android": "https://dc.lft.to/lastmile_qr_scan"}, "is_disabled": 0, "bike_id": "5a3f9b79fbbef0fbd31809c8b34126aa", "lat": 38.91772433333333, "is_reserved": 0, "lon": -77.032095, "name": "5a3f9b79fbbef0fbd31809c8b34126aa", "type": "electric_scooter"}, {"fusion_lon": 0.0, "fusion_lat": 0.0, "rental_uris": {"ios": "https://dc.lft.to/lastmile_qr_scan", "android": "https://dc.lft.to/lastmile_qr_scan"}, "is_disabled": 0, "bike_id": "17f701bfd86cbb02fa934d50681580af", "lat": 38.91624733333333, "is_reserved": 0, "lon": -77.02303483333333, "name": "17f701bfd86cbb02fa934d50681580af", "type": "electric_scooter"}, {"fusion_lon": 0.0, "fusion_lat": 0.0, "rental_uris": {"ios": "https://dc.lft.to/lastmile_qr_scan", "android": "https://dc.lft.to/lastmile_qr_scan"}, "is_disabled": 0, "bike_id": "3d7c800217ee1f772770e2444326609d", "lat": 38.87764116666666, "is_reserved": 0, "lon": -77.14855966666667, "name": "3d7c800217ee1f772770e2444326609d", "type": "electric_bike"}, {"fusion_lon": 0.0, "fusion_lat": 0.0, "rental_uris": {"ios": "https://dc.lft.to/lastmile_qr_scan", "android": "https://dc.lft.to/lastmile_qr_scan"}, "is_disabled": 0, "bike_id": "df6a7d9f059d0553c6d03e1795445733", "lat": 38.87753333333333, "is_reserved": 0, "lon": -77.00406116666667, "name": "df6a7d9f059d0553c6d03e1795445733", "type": "electric_scooter"}, {"fusion_lon": 0.0, "fusion_lat": 0.0, "rental_uris": {"ios": "https://dc.lft.to/lastmile_qr_scan", "android": "https://dc.lft.to/lastmile_qr_scan"}, "is_disabled": 0, "bike_id": "c18ffeb16849a421a4f0de86764cd17e", "lat": 38.88236783333333, "is_reserved": 0, "lon": -76.99489616666666, "name": "c18ffeb16849a421a4f0de86764cd17e", "type": "electric_scooter"}, {"fusion_lon": 0.0, "fusion_lat": 0.0, "rental_uris": {"ios": "https://dc.lft.to/lastmile_qr_scan", "android": "https://dc.lft.to/lastmile_qr_scan"}, "is_disabled": 0, "bike_id": "6077a10073fe7dd690661c39d86addc8", "lat": 38.9246135, "is_reserved": 0, "lon": -77.03635816666667, "name": "6077a10073fe7dd690661c39d86addc8", "type": "electric_scooter"}, {"fusion_lon": 0.0, "fusion_lat": 0.0, "rental_uris": {"ios": "https://dc.lft.to/lastmile_qr_scan", "android": "https://dc.lft.to/lastmile_qr_scan"}, "is_disabled": 0, "bike_id": "08962f32b815cc01ec9a2fc5b3f83599", "lat": 38.857394166666666, "is_reserved": 0, "lon": -77.10075966666666, "name": "08962f32b815cc01ec9a2fc5b3f83599", "type": "electric_bike"}, {"fusion_lon": 0.0, "fusion_lat": 0.0, "rental_uris": {"ios": "https://dc.lft.to/lastmile_qr_scan", "android": "https://dc.lft.to/lastmile_qr_scan"}, "is_disabled": 0, "bike_id": "5fc0a4236db2965f24b2c5eb62bcb594", "lat": 38.926312333333335, "is_reserved": 0, "lon": -77.0370215, "name": "5fc0a4236db2965f24b2c5eb62bcb594", "type": "electric_scooter"}, {"fusion_lon": 0.0, "fusion_lat": 0.0, "rental_uris": {"ios": "https://dc.lft.to/lastmile_qr_scan", "android": "https://dc.lft.to/lastmile_qr_scan"}, "is_disabled": 0, "bike_id": "127932a9d1eecf28da3d32a84f668519", "lat": 38.858475, "is_reserved": 0, "lon": -76.98532166666666, "name": "127932a9d1eecf28da3d32a84f668519", "type": "electric_scooter"}, {"fusion_lon": 0.0, "fusion_lat": 0.0, "rental_uris": {"ios": "https://dc.lft.to/lastmile_qr_scan", "android": "https://dc.lft.to/lastmile_qr_scan"}, "is_disabled": 0, "bike_id": "26784352716c8df1bfcffd1e4ab09e90", "lat": 38.902665166666665, "is_reserved": 0, "lon": -77.03833983333334, "name": "26784352716c8df1bfcffd1e4ab09e90", "type": "electric_scooter"}, {"fusion_lon": 0.0, "fusion_lat": 0.0, "rental_uris": {"ios": "https://dc.lft.to/lastmile_qr_scan", "android": "https://dc.lft.to/lastmile_qr_scan"}, "is_disabled": 0, "bike_id": "419cb3af2e80ae70af688576b385efef", "lat": 39.06472, "is_reserved": 0, "lon": -77.13763116666667, "name": "419cb3af2e80ae70af688576b385efef", "type": "electric_bike"}, {"fusion_lon": 0.0, "fusion_lat": 0.0, "rental_uris": {"ios": "https://dc.lft.to/lastmile_qr_scan", "android": "https://dc.lft.to/lastmile_qr_scan"}, "is_disabled": 0, "bike_id": "ffb42dd5a2bde42c55fd6c1ee07008f5", "lat": 38.91257383333333, "is_reserved": 0, "lon": -77.041638, "name": "ffb42dd5a2bde42c55fd6c1ee07008f5", "type": "electric_scooter"}, {"fusion_lon": 0.0, "fusion_lat": 0.0, "rental_uris": {"ios": "https://dc.lft.to/lastmile_qr_scan", "android": "https://dc.lft.to/lastmile_qr_scan"}, "is_disabled": 0, "bike_id": "6875603c591b2cd6801d816f740c5411", "lat": 38.92909133333333, "is_reserved": 0, "lon": -77.03179633333333, "name": "6875603c591b2cd6801d816f740c5411", "type": "electric_scooter"}, {"fusion_lon": 0.0, "fusion_lat": 0.0, "rental_uris": {"ios": "https://dc.lft.to/lastmile_qr_scan", "android": "https://dc.lft.to/lastmile_qr_scan"}, "is_disabled": 0, "bike_id": "f744b74d96dd19af53a5ea3ff18beedc", "lat": 38.9026135, "is_reserved": 0, "lon": -77.02656833333333, "name": "f744b74d96dd19af53a5ea3ff18beedc", "type": "electric_scooter"}, {"fusion_lon": 0.0, "fusion_lat": 0.0, "rental_uris": {"ios": "https://dc.lft.to/lastmile_qr_scan", "android": "https://dc.lft.to/lastmile_qr_scan"}, "is_disabled": 0, "bike_id": "3b12d2fe34fc5abf842dc07eda4a260d", "lat": 38.910494666666665, "is_reserved": 0, "lon": -77.0439085, "name": "3b12d2fe34fc5abf842dc07eda4a260d", "type": "electric_scooter"}, {"fusion_lon": 0.0, "fusion_lat": 0.0, "rental_uris": {"ios": "https://dc.lft.to/lastmile_qr_scan", "android": "https://dc.lft.to/lastmile_qr_scan"}, "is_disabled": 0, "bike_id": "a1a426755fbc6152d3988a08ee69f42d", "lat": 38.90012383333333, "is_reserved": 0, "lon": -77.04180066666666, "name": "a1a426755fbc6152d3988a08ee69f42d", "type": "electric_scooter"}, {"fusion_lon": 0.0, "fusion_lat": 0.0, "rental_uris": {"ios": "https://dc.lft.to/lastmile_qr_scan", "android": "https://dc.lft.to/lastmile_qr_scan"}, "is_disabled": 0, "bike_id": "26041321db7284ce523665e38aa42127", "lat": 38.91750066666667, "is_reserved": 0, "lon": -77.031949, "name": "26041321db7284ce523665e38aa42127", "type": "electric_scooter"}, {"fusion_lon": 0.0, "fusion_lat": 0.0, "rental_uris": {"ios": "https://dc.lft.to/lastmile_qr_scan", "android": "https://dc.lft.to/lastmile_qr_scan"}, "is_disabled": 0, "bike_id": "179338463a22fb4b7360a33f68775af2", "lat": 38.893661333333334, "is_reserved": 0, "lon": -77.022541, "name": "179338463a22fb4b7360a33f68775af2", "type": "electric_scooter"}, {"fusion_lon": 0.0, "fusion_lat": 0.0, "rental_uris": {"ios": "https://dc.lft.to/lastmile_qr_scan", "android": "https://dc.lft.to/lastmile_qr_scan"}, "is_disabled": 0, "bike_id": "bfebb1b43a0b0fed2ada59b7ad500bef", "lat": 38.933509666666666, "is_reserved": 0, "lon": -77.08320683333334, "name": "bfebb1b43a0b0fed2ada59b7ad500bef", "type": "electric_bike"}, {"fusion_lon": 0.0, "fusion_lat": 0.0, "rental_uris": {"ios": "https://dc.lft.to/lastmile_qr_scan", "android": "https://dc.lft.to/lastmile_qr_scan"}, "is_disabled": 0, "bike_id": "e2019a6df899d5de01a5bf05b5b6c137", "lat": 38.89424016666667, "is_reserved": 0, "lon": -77.0559765, "name": "e2019a6df899d5de01a5bf05b5b6c137", "type": "electric_scooter"}, {"fusion_lon": 0.0, "fusion_lat": 0.0, "rental_uris": {"ios": "https://dc.lft.to/lastmile_qr_scan", "android": "https://dc.lft.to/lastmile_qr_scan"}, "is_disabled": 0, "bike_id": "944fc402495716b05cc01768d5f1bdb1", "lat": 38.918153833333335, "is_reserved": 0, "lon": -77.02474966666666, "name": "944fc402495716b05cc01768d5f1bdb1", "type": "electric_scooter"}, {"fusion_lon": 0.0, "fusion_lat": 0.0, "rental_uris": {"ios": "https://dc.lft.to/lastmile_qr_scan", "android": "https://dc.lft.to/lastmile_qr_scan"}, "is_disabled": 0, "bike_id": "924bcdad46bbd5f116f03cbfea38d71f", "lat": 38.905604833333335, "is_reserved": 0, "lon": -77.02108733333333, "name": "924bcdad46bbd5f116f03cbfea38d71f", "type": "electric_scooter"}, {"fusion_lon": 0.0, "fusion_lat": 0.0, "rental_uris": {"ios": "https://dc.lft.to/lastmile_qr_scan", "android": "https://dc.lft.to/lastmile_qr_scan"}, "is_disabled": 0, "bike_id": "90e5f0be473cbda870a8a03eaebcd1f2", "lat": 38.90491633333333, "is_reserved": 0, "lon": -77.0237785, "name": "90e5f0be473cbda870a8a03eaebcd1f2", "type": "electric_scooter"}, {"fusion_lon": 0.0, "fusion_lat": 0.0, "rental_uris": {"ios": "https://dc.lft.to/lastmile_qr_scan", "android": "https://dc.lft.to/lastmile_qr_scan"}, "is_disabled": 0, "bike_id": "ee8bad1d8fe9e7e57c73b52a70888966", "lat": 38.928308666666666, "is_reserved": 0, "lon": -77.013856, "name": "ee8bad1d8fe9e7e57c73b52a70888966", "type": "electric_scooter"}, {"fusion_lon": 0.0, "fusion_lat": 0.0, "rental_uris": {"ios": "https://dc.lft.to/lastmile_qr_scan", "android": "https://dc.lft.to/lastmile_qr_scan"}, "is_disabled": 0, "bike_id": "d9e5208cc2ebff8023c960c062709f1e", "lat": 38.918094833333335, "is_reserved": 0, "lon": -77.02505516666666, "name": "d9e5208cc2ebff8023c960c062709f1e", "type": "electric_scooter"}, {"fusion_lon": 0.0, "fusion_lat": 0.0, "rental_uris": {"ios": "https://dc.lft.to/lastmile_qr_scan", "android": "https://dc.lft.to/lastmile_qr_scan"}, "is_disabled": 0, "bike_id": "49f93881513662d4267d156e31f066d8", "lat": 38.9119175, "is_reserved": 0, "lon": -77.03832983333334, "name": "49f93881513662d4267d156e31f066d8", "type": "electric_scooter"}, {"fusion_lon": 0.0, "fusion_lat": 0.0, "rental_uris": {"ios": "https://dc.lft.to/lastmile_qr_scan", "android": "https://dc.lft.to/lastmile_qr_scan"}, "is_disabled": 0, "bike_id": "338e2063b7618b3f4fb087f939c2f86d", "lat": 38.881275333333335, "is_reserved": 0, "lon": -77.01338283333334, "name": "338e2063b7618b3f4fb087f939c2f86d", "type": "electric_scooter"}, {"fusion_lon": 0.0, "fusion_lat": 0.0, "rental_uris": {"ios": "https://dc.lft.to/lastmile_qr_scan", "android": "https://dc.lft.to/lastmile_qr_scan"}, "is_disabled": 0, "bike_id": "41ec5af11a6149211a856ccb5f7463ce", "lat": 38.924610666666666, "is_reserved": 0, "lon": -77.0329895, "name": "41ec5af11a6149211a856ccb5f7463ce", "type": "electric_scooter"}, {"fusion_lon": 0.0, "fusion_lat": 0.0, "rental_uris": {"ios": "https://dc.lft.to/lastmile_qr_scan", "android": "https://dc.lft.to/lastmile_qr_scan"}, "is_disabled": 0, "bike_id": "d1797ba00d37a0fc5de7c3e0be398b0b", "lat": 38.90730766666667, "is_reserved": 0, "lon": -77.03781966666666, "name": "d1797ba00d37a0fc5de7c3e0be398b0b", "type": "electric_scooter"}, {"fusion_lon": 0.0, "fusion_lat": 0.0, "rental_uris": {"ios": "https://dc.lft.to/lastmile_qr_scan", "android": "https://dc.lft.to/lastmile_qr_scan"}, "is_disabled": 0, "bike_id": "4d2b885dbb009a65138653e913c47332", "lat": 38.909714, "is_reserved": 0, "lon": -77.03859966666667, "name": "4d2b885dbb009a65138653e913c47332", "type": "electric_scooter"}, {"fusion_lon": 0.0, "fusion_lat": 0.0, "rental_uris": {"ios": "https://dc.lft.to/lastmile_qr_scan", "android": "https://dc.lft.to/lastmile_qr_scan"}, "is_disabled": 0, "bike_id": "6d5d9dccdc0c5f0c2973e30ab85ffb6e", "lat": 38.9268575, "is_reserved": 0, "lon": -77.02277766666667, "name": "6d5d9dccdc0c5f0c2973e30ab85ffb6e", "type": "electric_scooter"}, {"fusion_lon": 0.0, "fusion_lat": 0.0, "rental_uris": {"ios": "https://dc.lft.to/lastmile_qr_scan", "android": "https://dc.lft.to/lastmile_qr_scan"}, "is_disabled": 0, "bike_id": "73e33bc9201da21eff57500fb0d7be7f", "lat": 38.91724216666667, "is_reserved": 0, "lon": -77.03862383333333, "name": "73e33bc9201da21eff57500fb0d7be7f", "type": "electric_scooter"}, {"fusion_lon": 0.0, "fusion_lat": 0.0, "rental_uris": {"ios": "https://dc.lft.to/lastmile_qr_scan", "android": "https://dc.lft.to/lastmile_qr_scan"}, "is_disabled": 0, "bike_id": "c7fe77ea8ffc821c8be411b2b2221e79", "lat": 38.916580833333335, "is_reserved": 0, "lon": -77.03852316666666, "name": "c7fe77ea8ffc821c8be411b2b2221e79", "type": "electric_scooter"}, {"fusion_lon": 0.0, "fusion_lat": 0.0, "rental_uris": {"ios": "https://dc.lft.to/lastmile_qr_scan", "android": "https://dc.lft.to/lastmile_qr_scan"}, "is_disabled": 0, "bike_id": "7701e8323b6007bdf8014a3766895e75", "lat": 38.90334683333333, "is_reserved": 0, "lon": -77.0237455, "name": "7701e8323b6007bdf8014a3766895e75", "type": "electric_scooter"}, {"fusion_lon": 0.0, "fusion_lat": 0.0, "rental_uris": {"ios": "https://dc.lft.to/lastmile_qr_scan", "android": "https://dc.lft.to/lastmile_qr_scan"}, "is_disabled": 0, "bike_id": "63e172c0398fca6bd7c0d35bfab725b3", "lat": 38.970031666666664, "is_reserved": 0, "lon": -77.02549516666667, "name": "63e172c0398fca6bd7c0d35bfab725b3", "type": "electric_scooter"}, {"fusion_lon": 0.0, "fusion_lat": 0.0, "rental_uris": {"ios": "https://dc.lft.to/lastmile_qr_scan", "android": "https://dc.lft.to/lastmile_qr_scan"}, "is_disabled": 0, "bike_id": "32aed6dd4591d8410ed81f2b28750537", "lat": 38.9039515, "is_reserved": 0, "lon": -77.04578133333334, "name": "32aed6dd4591d8410ed81f2b28750537", "type": "electric_scooter"}, {"fusion_lon": 0.0, "fusion_lat": 0.0, "rental_uris": {"ios": "https://dc.lft.to/lastmile_qr_scan", "android": "https://dc.lft.to/lastmile_qr_scan"}, "is_disabled": 0, "bike_id": "984f20b2dc925d64d2925370fadd9cbe", "lat": 38.895513, "is_reserved": 0, "lon": -77.03993783333334, "name": "984f20b2dc925d64d2925370fadd9cbe", "type": "electric_scooter"}, {"fusion_lon": 0.0, "fusion_lat": 0.0, "rental_uris": {"ios": "https://dc.lft.to/lastmile_qr_scan", "android": "https://dc.lft.to/lastmile_qr_scan"}, "is_disabled": 0, "bike_id": "39a1f977e4d11ac0f43b3d09d261db60", "lat": 38.856189, "is_reserved": 0, "lon": -76.961527, "name": "39a1f977e4d11ac0f43b3d09d261db60", "type": "electric_bike"}, {"fusion_lon": 0.0, "fusion_lat": 0.0, "rental_uris": {"ios": "https://dc.lft.to/lastmile_qr_scan", "android": "https://dc.lft.to/lastmile_qr_scan"}, "is_disabled": 0, "bike_id": "f37c83406a0cfeecfec6b5c4ed92993e", "lat": 38.89768083333333, "is_reserved": 0, "lon": -77.029258, "name": "f37c83406a0cfeecfec6b5c4ed92993e", "type": "electric_scooter"}, {"fusion_lon": 0.0, "fusion_lat": 0.0, "rental_uris": {"ios": "https://dc.lft.to/lastmile_qr_scan", "android": "https://dc.lft.to/lastmile_qr_scan"}, "is_disabled": 0, "bike_id": "91689ce9fee1cdc3e5d2077c586b610c", "lat": 38.916614833333334, "is_reserved": 0, "lon": -77.00933616666667, "name": "91689ce9fee1cdc3e5d2077c586b610c", "type": "electric_scooter"}, {"fusion_lon": 0.0, "fusion_lat": 0.0, "rental_uris": {"ios": "https://dc.lft.to/lastmile_qr_scan", "android": "https://dc.lft.to/lastmile_qr_scan"}, "is_disabled": 0, "bike_id": "768fa796516ce331e82b9d2bab2569ef", "lat": 38.874982833333334, "is_reserved": 0, "lon": -76.99793233333334, "name": "768fa796516ce331e82b9d2bab2569ef", "type": "electric_scooter"}, {"fusion_lon": 0.0, "fusion_lat": 0.0, "rental_uris": {"ios": "https://dc.lft.to/lastmile_qr_scan", "android": "https://dc.lft.to/lastmile_qr_scan"}, "is_disabled": 0, "bike_id": "aba1bdeada794832e58999acf3d10202", "lat": 38.885077, "is_reserved": 0, "lon": -76.99757583333333, "name": "aba1bdeada794832e58999acf3d10202", "type": "electric_scooter"}, {"fusion_lon": 0.0, "fusion_lat": 0.0, "rental_uris": {"ios": "https://dc.lft.to/lastmile_qr_scan", "android": "https://dc.lft.to/lastmile_qr_scan"}, "is_disabled": 0, "bike_id": "b4b0bd8c631bad1bc1f792a1ac991699", "lat": 38.8967125, "is_reserved": 0, "lon": -77.02730366666667, "name": "b4b0bd8c631bad1bc1f792a1ac991699", "type": "electric_scooter"}, {"fusion_lon": 0.0, "fusion_lat": 0.0, "rental_uris": {"ios": "https://dc.lft.to/lastmile_qr_scan", "android": "https://dc.lft.to/lastmile_qr_scan"}, "is_disabled": 0, "bike_id": "09b252984657b100db99e708292ab8e3", "lat": 38.90299733333333, "is_reserved": 0, "lon": -77.04450983333334, "name": "09b252984657b100db99e708292ab8e3", "type": "electric_scooter"}, {"fusion_lon": 0.0, "fusion_lat": 0.0, "rental_uris": {"ios": "https://dc.lft.to/lastmile_qr_scan", "android": "https://dc.lft.to/lastmile_qr_scan"}, "is_disabled": 0, "bike_id": "fc5a765ea715268d20bceff0e249887d", "lat": 38.982658666666666, "is_reserved": 0, "lon": -77.02613583333333, "name": "fc5a765ea715268d20bceff0e249887d", "type": "electric_scooter"}, {"fusion_lon": 0.0, "fusion_lat": 0.0, "rental_uris": {"ios": "https://dc.lft.to/lastmile_qr_scan", "android": "https://dc.lft.to/lastmile_qr_scan"}, "is_disabled": 0, "bike_id": "40ed01509b4fdda1949f2207c700a9d8", "lat": 38.90736033333334, "is_reserved": 0, "lon": -77.04250733333333, "name": "40ed01509b4fdda1949f2207c700a9d8", "type": "electric_scooter"}, {"fusion_lon": 0.0, "fusion_lat": 0.0, "rental_uris": {"ios": "https://dc.lft.to/lastmile_qr_scan", "android": "https://dc.lft.to/lastmile_qr_scan"}, "is_disabled": 0, "bike_id": "b4583abeb08d56830ec86fe92b7bedc1", "lat": 38.915632333333335, "is_reserved": 0, "lon": -77.03190666666667, "name": "b4583abeb08d56830ec86fe92b7bedc1", "type": "electric_scooter"}, {"fusion_lon": 0.0, "fusion_lat": 0.0, "rental_uris": {"ios": "https://dc.lft.to/lastmile_qr_scan", "android": "https://dc.lft.to/lastmile_qr_scan"}, "is_disabled": 0, "bike_id": "645165cdb0c261a866fa80549be49e3b", "lat": 38.90555366666667, "is_reserved": 0, "lon": -77.02204266666666, "name": "645165cdb0c261a866fa80549be49e3b", "type": "electric_scooter"}, {"fusion_lon": 0.0, "fusion_lat": 0.0, "rental_uris": {"ios": "https://dc.lft.to/lastmile_qr_scan", "android": "https://dc.lft.to/lastmile_qr_scan"}, "is_disabled": 0, "bike_id": "c5c45ec0bb7d6f49ac5257ee21c090d5", "lat": 38.917129, "is_reserved": 0, "lon": -77.009621, "name": "c5c45ec0bb7d6f49ac5257ee21c090d5", "type": "electric_scooter"}, {"fusion_lon": 0.0, "fusion_lat": 0.0, "rental_uris": {"ios": "https://dc.lft.to/lastmile_qr_scan", "android": "https://dc.lft.to/lastmile_qr_scan"}, "is_disabled": 0, "bike_id": "23e67606913ba49022149e3b6b061f75", "lat": 38.85964233333333, "is_reserved": 0, "lon": -76.98702983333334, "name": "23e67606913ba49022149e3b6b061f75", "type": "electric_scooter"}, {"fusion_lon": 0.0, "fusion_lat": 0.0, "rental_uris": {"ios": "https://dc.lft.to/lastmile_qr_scan", "android": "https://dc.lft.to/lastmile_qr_scan"}, "is_disabled": 0, "bike_id": "07b4c730e92cd194dc0732ff4ed38e19", "lat": 38.9049155, "is_reserved": 0, "lon": -77.05807966666667, "name": "07b4c730e92cd194dc0732ff4ed38e19", "type": "electric_scooter"}, {"fusion_lon": 0.0, "fusion_lat": 0.0, "rental_uris": {"ios": "https://dc.lft.to/lastmile_qr_scan", "android": "https://dc.lft.to/lastmile_qr_scan"}, "is_disabled": 0, "bike_id": "4d537c4bdc47bcc5ca77aaca0e071926", "lat": 38.8993755, "is_reserved": 0, "lon": -77.04008033333334, "name": "4d537c4bdc47bcc5ca77aaca0e071926", "type": "electric_scooter"}, {"fusion_lon": 0.0, "fusion_lat": 0.0, "rental_uris": {"ios": "https://dc.lft.to/lastmile_qr_scan", "android": "https://dc.lft.to/lastmile_qr_scan"}, "is_disabled": 0, "bike_id": "c7f3e7c2065790f985231b27a65b5b4b", "lat": 38.92695783333333, "is_reserved": 0, "lon": -76.99540666666667, "name": "c7f3e7c2065790f985231b27a65b5b4b", "type": "electric_scooter"}, {"fusion_lon": 0.0, "fusion_lat": 0.0, "rental_uris": {"ios": "https://dc.lft.to/lastmile_qr_scan", "android": "https://dc.lft.to/lastmile_qr_scan"}, "is_disabled": 0, "bike_id": "b18a9bc91a8a6f1c3724f82f6dbad3b8", "lat": 38.89643016666667, "is_reserved": 0, "lon": -77.0239875, "name": "b18a9bc91a8a6f1c3724f82f6dbad3b8", "type": "electric_scooter"}, {"fusion_lon": 0.0, "fusion_lat": 0.0, "rental_uris": {"ios": "https://dc.lft.to/lastmile_qr_scan", "android": "https://dc.lft.to/lastmile_qr_scan"}, "is_disabled": 0, "bike_id": "d196593fda6315958dc45cd874b7acff", "lat": 38.89510116666666, "is_reserved": 0, "lon": -77.02198683333333, "name": "d196593fda6315958dc45cd874b7acff", "type": "electric_scooter"}, {"fusion_lon": 0.0, "fusion_lat": 0.0, "rental_uris": {"ios": "https://dc.lft.to/lastmile_qr_scan", "android": "https://dc.lft.to/lastmile_qr_scan"}, "is_disabled": 0, "bike_id": "51797b7de37c2fb1647c1f95edd33971", "lat": 38.901379, "is_reserved": 0, "lon": -77.02987333333333, "name": "51797b7de37c2fb1647c1f95edd33971", "type": "electric_scooter"}, {"fusion_lon": 0.0, "fusion_lat": 0.0, "rental_uris": {"ios": "https://dc.lft.to/lastmile_qr_scan", "android": "https://dc.lft.to/lastmile_qr_scan"}, "is_disabled": 0, "bike_id": "4a7803283ca3f82065cf6d250f6aaf05", "lat": 38.910992666666665, "is_reserved": 0, "lon": -77.073527, "name": "4a7803283ca3f82065cf6d250f6aaf05", "type": "electric_bike"}, {"fusion_lon": 0.0, "fusion_lat": 0.0, "rental_uris": {"ios": "https://dc.lft.to/lastmile_qr_scan", "android": "https://dc.lft.to/lastmile_qr_scan"}, "is_disabled": 0, "bike_id": "a51b6330ff4b593e49bd452247c2d111", "lat": 38.88428233333333, "is_reserved": 0, "lon": -76.995969, "name": "a51b6330ff4b593e49bd452247c2d111", "type": "electric_scooter"}, {"fusion_lon": 0.0, "fusion_lat": 0.0, "rental_uris": {"ios": "https://dc.lft.to/lastmile_qr_scan", "android": "https://dc.lft.to/lastmile_qr_scan"}, "is_disabled": 0, "bike_id": "f58c572670d3802a8adad5de6ae1c22a", "lat": 38.91814683333333, "is_reserved": 0, "lon": -77.02476716666666, "name": "f58c572670d3802a8adad5de6ae1c22a", "type": "electric_scooter"}, {"fusion_lon": 0.0, "fusion_lat": 0.0, "rental_uris": {"ios": "https://dc.lft.to/lastmile_qr_scan", "android": "https://dc.lft.to/lastmile_qr_scan"}, "is_disabled": 0, "bike_id": "0ca0e2e3d9a67c092d19d61fc866d218", "lat": 38.90289583333333, "is_reserved": 0, "lon": -77.04607983333334, "name": "0ca0e2e3d9a67c092d19d61fc866d218", "type": "electric_scooter"}, {"fusion_lon": 0.0, "fusion_lat": 0.0, "rental_uris": {"ios": "https://dc.lft.to/lastmile_qr_scan", "android": "https://dc.lft.to/lastmile_qr_scan"}, "is_disabled": 0, "bike_id": "7a956c6c1990134051979c0b4c4d736b", "lat": 38.883912, "is_reserved": 0, "lon": -76.95451733333333, "name": "7a956c6c1990134051979c0b4c4d736b", "type": "electric_scooter"}, {"fusion_lon": 0.0, "fusion_lat": 0.0, "rental_uris": {"ios": "https://dc.lft.to/lastmile_qr_scan", "android": "https://dc.lft.to/lastmile_qr_scan"}, "is_disabled": 0, "bike_id": "e81cbb2e9d55f686a29e6df54a0feaa0", "lat": 38.8965265, "is_reserved": 0, "lon": -77.05020366666666, "name": "e81cbb2e9d55f686a29e6df54a0feaa0", "type": "electric_scooter"}, {"fusion_lon": 0.0, "fusion_lat": 0.0, "rental_uris": {"ios": "https://dc.lft.to/lastmile_qr_scan", "android": "https://dc.lft.to/lastmile_qr_scan"}, "is_disabled": 0, "bike_id": "e8966c91652aa922c878c4f5d8918584", "lat": 38.837287833333335, "is_reserved": 0, "lon": -77.106107, "name": "e8966c91652aa922c878c4f5d8918584", "type": "electric_bike"}, {"fusion_lon": 0.0, "fusion_lat": 0.0, "rental_uris": {"ios": "https://dc.lft.to/lastmile_qr_scan", "android": "https://dc.lft.to/lastmile_qr_scan"}, "is_disabled": 0, "bike_id": "cb560c4450867b13b4fcf5dfe705c1f4", "lat": 38.9374275, "is_reserved": 0, "lon": -77.03613833333333, "name": "cb560c4450867b13b4fcf5dfe705c1f4", "type": "electric_scooter"}, {"fusion_lon": 0.0, "fusion_lat": 0.0, "rental_uris": {"ios": "https://dc.lft.to/lastmile_qr_scan", "android": "https://dc.lft.to/lastmile_qr_scan"}, "is_disabled": 0, "bike_id": "a397e016719ddfe34a735d54bb62c6a6", "lat": 38.9012955, "is_reserved": 0, "lon": -77.04350866666667, "name": "a397e016719ddfe34a735d54bb62c6a6", "type": "electric_scooter"}, {"fusion_lon": 0.0, "fusion_lat": 0.0, "rental_uris": {"ios": "https://dc.lft.to/lastmile_qr_scan", "android": "https://dc.lft.to/lastmile_qr_scan"}, "is_disabled": 0, "bike_id": "22746232ac900ade9c35f43022dbdbac", "lat": 38.87293866666667, "is_reserved": 0, "lon": -77.009861, "name": "22746232ac900ade9c35f43022dbdbac", "type": "electric_scooter"}, {"fusion_lon": 0.0, "fusion_lat": 0.0, "rental_uris": {"ios": "https://dc.lft.to/lastmile_qr_scan", "android": "https://dc.lft.to/lastmile_qr_scan"}, "is_disabled": 0, "bike_id": "2c04a9f44a6752709b60c3bd88a968c7", "lat": 38.921338, "is_reserved": 0, "lon": -77.01870616666666, "name": "2c04a9f44a6752709b60c3bd88a968c7", "type": "electric_scooter"}, {"fusion_lon": 0.0, "fusion_lat": 0.0, "rental_uris": {"ios": "https://dc.lft.to/lastmile_qr_scan", "android": "https://dc.lft.to/lastmile_qr_scan"}, "is_disabled": 0, "bike_id": "1e81ccd4d663c293af3540fc2fc522a1", "lat": 38.923364166666666, "is_reserved": 0, "lon": -77.04156366666666, "name": "1e81ccd4d663c293af3540fc2fc522a1", "type": "electric_scooter"}, {"fusion_lon": 0.0, "fusion_lat": 0.0, "rental_uris": {"ios": "https://dc.lft.to/lastmile_qr_scan", "android": "https://dc.lft.to/lastmile_qr_scan"}, "is_disabled": 0, "bike_id": "452789741d7743b240130ff550f5ce1d", "lat": 38.907452666666664, "is_reserved": 0, "lon": -77.00135516666667, "name": "452789741d7743b240130ff550f5ce1d", "type": "electric_scooter"}, {"fusion_lon": 0.0, "fusion_lat": 0.0, "rental_uris": {"ios": "https://dc.lft.to/lastmile_qr_scan", "android": "https://dc.lft.to/lastmile_qr_scan"}, "is_disabled": 0, "bike_id": "32812d9cc40d06ed264eafaa392f7980", "lat": 38.922189333333336, "is_reserved": 0, "lon": -77.03444933333333, "name": "32812d9cc40d06ed264eafaa392f7980", "type": "electric_scooter"}, {"fusion_lon": 0.0, "fusion_lat": 0.0, "rental_uris": {"ios": "https://dc.lft.to/lastmile_qr_scan", "android": "https://dc.lft.to/lastmile_qr_scan"}, "is_disabled": 0, "bike_id": "be2e731ed3a7848f95fc3c033d0e4fa1", "lat": 38.90964066666667, "is_reserved": 0, "lon": -77.01840383333334, "name": "be2e731ed3a7848f95fc3c033d0e4fa1", "type": "electric_scooter"}, {"fusion_lon": 0.0, "fusion_lat": 0.0, "rental_uris": {"ios": "https://dc.lft.to/lastmile_qr_scan", "android": "https://dc.lft.to/lastmile_qr_scan"}, "is_disabled": 0, "bike_id": "d5f3f49ca89cbb598888adbd62f3b000", "lat": 38.9142955, "is_reserved": 0, "lon": -77.02819866666667, "name": "d5f3f49ca89cbb598888adbd62f3b000", "type": "electric_scooter"}, {"fusion_lon": 0.0, "fusion_lat": 0.0, "rental_uris": {"ios": "https://dc.lft.to/lastmile_qr_scan", "android": "https://dc.lft.to/lastmile_qr_scan"}, "is_disabled": 0, "bike_id": "d1da711ebbd587fc2b27dbb78677fcdd", "lat": 38.86553833333333, "is_reserved": 0, "lon": -76.94163866666666, "name": "d1da711ebbd587fc2b27dbb78677fcdd", "type": "electric_bike"}, {"fusion_lon": 0.0, "fusion_lat": 0.0, "rental_uris": {"ios": "https://dc.lft.to/lastmile_qr_scan", "android": "https://dc.lft.to/lastmile_qr_scan"}, "is_disabled": 0, "bike_id": "4e0ea58e3463654cd178247b9298af74", "lat": 38.923517833333335, "is_reserved": 0, "lon": -77.03548233333333, "name": "4e0ea58e3463654cd178247b9298af74", "type": "electric_scooter"}, {"fusion_lon": 0.0, "fusion_lat": 0.0, "rental_uris": {"ios": "https://dc.lft.to/lastmile_qr_scan", "android": "https://dc.lft.to/lastmile_qr_scan"}, "is_disabled": 0, "bike_id": "91fc5a99f88eba96bc16d83fe1918cf8", "lat": 38.92836583333333, "is_reserved": 0, "lon": -77.05503383333334, "name": "91fc5a99f88eba96bc16d83fe1918cf8", "type": "electric_scooter"}, {"fusion_lon": 0.0, "fusion_lat": 0.0, "rental_uris": {"ios": "https://dc.lft.to/lastmile_qr_scan", "android": "https://dc.lft.to/lastmile_qr_scan"}, "is_disabled": 0, "bike_id": "a1a2215a1e8232c2dcbfe3934f3bb28e", "lat": 38.94175466666667, "is_reserved": 0, "lon": -77.03145266666667, "name": "a1a2215a1e8232c2dcbfe3934f3bb28e", "type": "electric_scooter"}, {"fusion_lon": 0.0, "fusion_lat": 0.0, "rental_uris": {"ios": "https://dc.lft.to/lastmile_qr_scan", "android": "https://dc.lft.to/lastmile_qr_scan"}, "is_disabled": 0, "bike_id": "fb5fca946eeac24420eb06332792bdac", "lat": 38.93107216666667, "is_reserved": 0, "lon": -77.03807216666667, "name": "fb5fca946eeac24420eb06332792bdac", "type": "electric_scooter"}, {"fusion_lon": 0.0, "fusion_lat": 0.0, "rental_uris": {"ios": "https://dc.lft.to/lastmile_qr_scan", "android": "https://dc.lft.to/lastmile_qr_scan"}, "is_disabled": 0, "bike_id": "f2a71a8b59025a4d62b74d0d9346db31", "lat": 38.91256516666667, "is_reserved": 0, "lon": -77.02573266666667, "name": "f2a71a8b59025a4d62b74d0d9346db31", "type": "electric_scooter"}, {"fusion_lon": 0.0, "fusion_lat": 0.0, "rental_uris": {"ios": "https://dc.lft.to/lastmile_qr_scan", "android": "https://dc.lft.to/lastmile_qr_scan"}, "is_disabled": 0, "bike_id": "b268876111fd7fda22994a6ab59d44f3", "lat": 38.90262533333333, "is_reserved": 0, "lon": -77.030036, "name": "b268876111fd7fda22994a6ab59d44f3", "type": "electric_scooter"}, {"fusion_lon": 0.0, "fusion_lat": 0.0, "rental_uris": {"ios": "https://dc.lft.to/lastmile_qr_scan", "android": "https://dc.lft.to/lastmile_qr_scan"}, "is_disabled": 0, "bike_id": "815255ce77784de4adeaca4872343c71", "lat": 38.92952366666667, "is_reserved": 0, "lon": -77.0042455, "name": "815255ce77784de4adeaca4872343c71", "type": "electric_scooter"}, {"fusion_lon": 0.0, "fusion_lat": 0.0, "rental_uris": {"ios": "https://dc.lft.to/lastmile_qr_scan", "android": "https://dc.lft.to/lastmile_qr_scan"}, "is_disabled": 0, "bike_id": "e839d1f954576aac7bd1fc4957d6681d", "lat": 38.914113666666665, "is_reserved": 0, "lon": -77.03289433333333, "name": "e839d1f954576aac7bd1fc4957d6681d", "type": "electric_scooter"}, {"fusion_lon": 0.0, "fusion_lat": 0.0, "rental_uris": {"ios": "https://dc.lft.to/lastmile_qr_scan", "android": "https://dc.lft.to/lastmile_qr_scan"}, "is_disabled": 0, "bike_id": "b000318b05be47af8a42b01975989c75", "lat": 38.859708833333336, "is_reserved": 0, "lon": -76.96711283333333, "name": "b000318b05be47af8a42b01975989c75", "type": "electric_scooter"}, {"fusion_lon": 0.0, "fusion_lat": 0.0, "rental_uris": {"ios": "https://dc.lft.to/lastmile_qr_scan", "android": "https://dc.lft.to/lastmile_qr_scan"}, "is_disabled": 0, "bike_id": "5cd0d1a79bc57e6829135dab8bd0537f", "lat": 38.8699265, "is_reserved": 0, "lon": -77.07913583333334, "name": "5cd0d1a79bc57e6829135dab8bd0537f", "type": "electric_scooter"}, {"fusion_lon": 0.0, "fusion_lat": 0.0, "rental_uris": {"ios": "https://dc.lft.to/lastmile_qr_scan", "android": "https://dc.lft.to/lastmile_qr_scan"}, "is_disabled": 0, "bike_id": "efe79db63ee4a802a5879ebaa13898e3", "lat": 38.92085683333333, "is_reserved": 0, "lon": -77.0251245, "name": "efe79db63ee4a802a5879ebaa13898e3", "type": "electric_scooter"}, {"fusion_lon": 0.0, "fusion_lat": 0.0, "rental_uris": {"ios": "https://dc.lft.to/lastmile_qr_scan", "android": "https://dc.lft.to/lastmile_qr_scan"}, "is_disabled": 0, "bike_id": "0aeb1a028f37e6ef1678656a18205abf", "lat": 38.895415, "is_reserved": 0, "lon": -77.03092133333334, "name": "0aeb1a028f37e6ef1678656a18205abf", "type": "electric_scooter"}, {"fusion_lon": 0.0, "fusion_lat": 0.0, "rental_uris": {"ios": "https://dc.lft.to/lastmile_qr_scan", "android": "https://dc.lft.to/lastmile_qr_scan"}, "is_disabled": 0, "bike_id": "ea4582112b4dec9913680d2ac6263fea", "lat": 38.836278166666666, "is_reserved": 0, "lon": -77.069441, "name": "ea4582112b4dec9913680d2ac6263fea", "type": "electric_bike"}, {"fusion_lon": 0.0, "fusion_lat": 0.0, "rental_uris": {"ios": "https://dc.lft.to/lastmile_qr_scan", "android": "https://dc.lft.to/lastmile_qr_scan"}, "is_disabled": 0, "bike_id": "9e5ffa753564596d05f84b94cc6b157c", "lat": 38.91697583333333, "is_reserved": 0, "lon": -77.02993466666666, "name": "9e5ffa753564596d05f84b94cc6b157c", "type": "electric_scooter"}, {"fusion_lon": 0.0, "fusion_lat": 0.0, "rental_uris": {"ios": "https://dc.lft.to/lastmile_qr_scan", "android": "https://dc.lft.to/lastmile_qr_scan"}, "is_disabled": 0, "bike_id": "2cbfe945e0bb9922e3fa8df1a7b209b4", "lat": 38.90663716666667, "is_reserved": 0, "lon": -77.038217, "name": "2cbfe945e0bb9922e3fa8df1a7b209b4", "type": "electric_scooter"}, {"fusion_lon": 0.0, "fusion_lat": 0.0, "rental_uris": {"ios": "https://dc.lft.to/lastmile_qr_scan", "android": "https://dc.lft.to/lastmile_qr_scan"}, "is_disabled": 0, "bike_id": "3c3d31016592cf3b0cf8fde0fedfdc19", "lat": 38.93680233333333, "is_reserved": 0, "lon": -77.03625166666667, "name": "3c3d31016592cf3b0cf8fde0fedfdc19", "type": "electric_scooter"}, {"fusion_lon": 0.0, "fusion_lat": 0.0, "rental_uris": {"ios": "https://dc.lft.to/lastmile_qr_scan", "android": "https://dc.lft.to/lastmile_qr_scan"}, "is_disabled": 0, "bike_id": "4f531cf2132ed40f118546ac02cc9899", "lat": 38.910415, "is_reserved": 0, "lon": -77.06183033333333, "name": "4f531cf2132ed40f118546ac02cc9899", "type": "electric_scooter"}, {"fusion_lon": 0.0, "fusion_lat": 0.0, "rental_uris": {"ios": "https://dc.lft.to/lastmile_qr_scan", "android": "https://dc.lft.to/lastmile_qr_scan"}, "is_disabled": 0, "bike_id": "97b248ad1562d79c1fe3cabcc4ecf6ee", "lat": 38.90729366666667, "is_reserved": 0, "lon": -77.04153083333334, "name": "97b248ad1562d79c1fe3cabcc4ecf6ee", "type": "electric_scooter"}, {"fusion_lon": 0.0, "fusion_lat": 0.0, "rental_uris": {"ios": "https://dc.lft.to/lastmile_qr_scan", "android": "https://dc.lft.to/lastmile_qr_scan"}, "is_disabled": 0, "bike_id": "1c6bda564fb6a68d698a2230907e26dd", "lat": 38.904139666666666, "is_reserved": 0, "lon": -76.97327766666666, "name": "1c6bda564fb6a68d698a2230907e26dd", "type": "electric_scooter"}, {"fusion_lon": 0.0, "fusion_lat": 0.0, "rental_uris": {"ios": "https://dc.lft.to/lastmile_qr_scan", "android": "https://dc.lft.to/lastmile_qr_scan"}, "is_disabled": 0, "bike_id": "7bf8b078a95da35da8362b8c8128a50c", "lat": 38.90683716666667, "is_reserved": 0, "lon": -77.03809616666666, "name": "7bf8b078a95da35da8362b8c8128a50c", "type": "electric_scooter"}, {"fusion_lon": 0.0, "fusion_lat": 0.0, "rental_uris": {"ios": "https://dc.lft.to/lastmile_qr_scan", "android": "https://dc.lft.to/lastmile_qr_scan"}, "is_disabled": 0, "bike_id": "8edc630acba202b8d31de60b04abce28", "lat": 38.91416516666666, "is_reserved": 0, "lon": -77.04159866666667, "name": "8edc630acba202b8d31de60b04abce28", "type": "electric_scooter"}, {"fusion_lon": 0.0, "fusion_lat": 0.0, "rental_uris": {"ios": "https://dc.lft.to/lastmile_qr_scan", "android": "https://dc.lft.to/lastmile_qr_scan"}, "is_disabled": 0, "bike_id": "6ebca7f0b82bb57aebe9956d7e33d016", "lat": 38.9353655, "is_reserved": 0, "lon": -77.05831766666667, "name": "6ebca7f0b82bb57aebe9956d7e33d016", "type": "electric_scooter"}, {"fusion_lon": 0.0, "fusion_lat": 0.0, "rental_uris": {"ios": "https://dc.lft.to/lastmile_qr_scan", "android": "https://dc.lft.to/lastmile_qr_scan"}, "is_disabled": 0, "bike_id": "7be8eaa1e65bf2cc6c8868df6580560c", "lat": 38.8960845, "is_reserved": 0, "lon": -77.04429333333333, "name": "7be8eaa1e65bf2cc6c8868df6580560c", "type": "electric_scooter"}, {"fusion_lon": 0.0, "fusion_lat": 0.0, "rental_uris": {"ios": "https://dc.lft.to/lastmile_qr_scan", "android": "https://dc.lft.to/lastmile_qr_scan"}, "is_disabled": 0, "bike_id": "2040dbd805c51290da301cc1c096cb03", "lat": 38.89353883333333, "is_reserved": 0, "lon": -77.00335733333333, "name": "2040dbd805c51290da301cc1c096cb03", "type": "electric_scooter"}, {"fusion_lon": 0.0, "fusion_lat": 0.0, "rental_uris": {"ios": "https://dc.lft.to/lastmile_qr_scan", "android": "https://dc.lft.to/lastmile_qr_scan"}, "is_disabled": 0, "bike_id": "00287fc7020a1a6104dc48734b26d8fc", "lat": 38.89657483333333, "is_reserved": 0, "lon": -77.04351283333334, "name": "00287fc7020a1a6104dc48734b26d8fc", "type": "electric_scooter"}, {"fusion_lon": 0.0, "fusion_lat": 0.0, "rental_uris": {"ios": "https://dc.lft.to/lastmile_qr_scan", "android": "https://dc.lft.to/lastmile_qr_scan"}, "is_disabled": 0, "bike_id": "4f48f125c96cf280113ed78d3a1b669d", "lat": 38.900344833333335, "is_reserved": 0, "lon": -77.031709, "name": "4f48f125c96cf280113ed78d3a1b669d", "type": "electric_scooter"}, {"fusion_lon": 0.0, "fusion_lat": 0.0, "rental_uris": {"ios": "https://dc.lft.to/lastmile_qr_scan", "android": "https://dc.lft.to/lastmile_qr_scan"}, "is_disabled": 0, "bike_id": "1886d6ba05167882944735eba813e977", "lat": 38.92764416666667, "is_reserved": 0, "lon": -77.03371383333334, "name": "1886d6ba05167882944735eba813e977", "type": "electric_scooter"}, {"fusion_lon": 0.0, "fusion_lat": 0.0, "rental_uris": {"ios": "https://dc.lft.to/lastmile_qr_scan", "android": "https://dc.lft.to/lastmile_qr_scan"}, "is_disabled": 0, "bike_id": "dfde2973d0102718bbdd61d24956f6c1", "lat": 38.905341, "is_reserved": 0, "lon": -77.03771983333333, "name": "dfde2973d0102718bbdd61d24956f6c1", "type": "electric_scooter"}, {"fusion_lon": 0.0, "fusion_lat": 0.0, "rental_uris": {"ios": "https://dc.lft.to/lastmile_qr_scan", "android": "https://dc.lft.to/lastmile_qr_scan"}, "is_disabled": 0, "bike_id": "7548723a51d95b45222cce5d4bf06814", "lat": 38.907979166666664, "is_reserved": 0, "lon": -77.03829266666666, "name": "7548723a51d95b45222cce5d4bf06814", "type": "electric_scooter"}, {"fusion_lon": 0.0, "fusion_lat": 0.0, "rental_uris": {"ios": "https://dc.lft.to/lastmile_qr_scan", "android": "https://dc.lft.to/lastmile_qr_scan"}, "is_disabled": 0, "bike_id": "02a186367cb5052339110ba3738e82a3", "lat": 38.855133, "is_reserved": 0, "lon": -76.9863585, "name": "02a186367cb5052339110ba3738e82a3", "type": "electric_scooter"}, {"fusion_lon": 0.0, "fusion_lat": 0.0, "rental_uris": {"ios": "https://dc.lft.to/lastmile_qr_scan", "android": "https://dc.lft.to/lastmile_qr_scan"}, "is_disabled": 0, "bike_id": "2ca8af5b30fbb7df864f349da16fe0a5", "lat": 38.90589666666666, "is_reserved": 0, "lon": -77.04399416666666, "name": "2ca8af5b30fbb7df864f349da16fe0a5", "type": "electric_scooter"}, {"fusion_lon": 0.0, "fusion_lat": 0.0, "rental_uris": {"ios": "https://dc.lft.to/lastmile_qr_scan", "android": "https://dc.lft.to/lastmile_qr_scan"}, "is_disabled": 0, "bike_id": "69af8402aa1fe44c19e31f86dcc45210", "lat": 38.9002345, "is_reserved": 0, "lon": -76.98575083333333, "name": "69af8402aa1fe44c19e31f86dcc45210", "type": "electric_scooter"}, {"fusion_lon": 0.0, "fusion_lat": 0.0, "rental_uris": {"ios": "https://dc.lft.to/lastmile_qr_scan", "android": "https://dc.lft.to/lastmile_qr_scan"}, "is_disabled": 0, "bike_id": "015623caf7e6613d127e50538deba517", "lat": 38.9039675, "is_reserved": 0, "lon": -77.04515033333334, "name": "015623caf7e6613d127e50538deba517", "type": "electric_scooter"}, {"fusion_lon": 0.0, "fusion_lat": 0.0, "rental_uris": {"ios": "https://dc.lft.to/lastmile_qr_scan", "android": "https://dc.lft.to/lastmile_qr_scan"}, "is_disabled": 0, "bike_id": "c1ed9b95bca6226c805b91fc9e68ab6e", "lat": 38.90042533333333, "is_reserved": 0, "lon": -77.01989683333333, "name": "c1ed9b95bca6226c805b91fc9e68ab6e", "type": "electric_scooter"}, {"fusion_lon": 0.0, "fusion_lat": 0.0, "rental_uris": {"ios": "https://dc.lft.to/lastmile_qr_scan", "android": "https://dc.lft.to/lastmile_qr_scan"}, "is_disabled": 0, "bike_id": "6e44b64d00f27b049f04f0d409fd170c", "lat": 38.91834216666667, "is_reserved": 0, "lon": -77.0320595, "name": "6e44b64d00f27b049f04f0d409fd170c", "type": "electric_scooter"}, {"fusion_lon": 0.0, "fusion_lat": 0.0, "rental_uris": {"ios": "https://dc.lft.to/lastmile_qr_scan", "android": "https://dc.lft.to/lastmile_qr_scan"}, "is_disabled": 0, "bike_id": "59986c37e406e8b2070c07d252533990", "lat": 38.906388666666665, "is_reserved": 0, "lon": -77.00919316666666, "name": "59986c37e406e8b2070c07d252533990", "type": "electric_scooter"}, {"fusion_lon": 0.0, "fusion_lat": 0.0, "rental_uris": {"ios": "https://dc.lft.to/lastmile_qr_scan", "android": "https://dc.lft.to/lastmile_qr_scan"}, "is_disabled": 0, "bike_id": "55f5fff00c3c72e6f88f8558a6286b66", "lat": 38.913557833333336, "is_reserved": 0, "lon": -77.03189183333333, "name": "55f5fff00c3c72e6f88f8558a6286b66", "type": "electric_scooter"}, {"fusion_lon": 0.0, "fusion_lat": 0.0, "rental_uris": {"ios": "https://dc.lft.to/lastmile_qr_scan", "android": "https://dc.lft.to/lastmile_qr_scan"}, "is_disabled": 0, "bike_id": "c18de5804412d55d4949352e0aa67a5a", "lat": 38.89307216666667, "is_reserved": 0, "lon": -77.03150566666666, "name": "c18de5804412d55d4949352e0aa67a5a", "type": "electric_scooter"}, {"fusion_lon": 0.0, "fusion_lat": 0.0, "rental_uris": {"ios": "https://dc.lft.to/lastmile_qr_scan", "android": "https://dc.lft.to/lastmile_qr_scan"}, "is_disabled": 0, "bike_id": "ae92bd1b83c45ad951a42593ba9fd6d3", "lat": 38.89830166666667, "is_reserved": 0, "lon": -76.94653766666667, "name": "ae92bd1b83c45ad951a42593ba9fd6d3", "type": "electric_scooter"}, {"fusion_lon": 0.0, "fusion_lat": 0.0, "rental_uris": {"ios": "https://dc.lft.to/lastmile_qr_scan", "android": "https://dc.lft.to/lastmile_qr_scan"}, "is_disabled": 0, "bike_id": "44cab5929d3b1c701f48443c32355a98", "lat": 38.92275983333333, "is_reserved": 0, "lon": -77.03665633333334, "name": "44cab5929d3b1c701f48443c32355a98", "type": "electric_scooter"}, {"fusion_lon": 0.0, "fusion_lat": 0.0, "rental_uris": {"ios": "https://dc.lft.to/lastmile_qr_scan", "android": "https://dc.lft.to/lastmile_qr_scan"}, "is_disabled": 0, "bike_id": "5fb5b00192e6f2058971b3b37c6d84f7", "lat": 38.883426166666666, "is_reserved": 0, "lon": -77.0253925, "name": "5fb5b00192e6f2058971b3b37c6d84f7", "type": "electric_scooter"}, {"fusion_lon": 0.0, "fusion_lat": 0.0, "rental_uris": {"ios": "https://dc.lft.to/lastmile_qr_scan", "android": "https://dc.lft.to/lastmile_qr_scan"}, "is_disabled": 0, "bike_id": "8dd53b71bcf96e0505122600e8406922", "lat": 38.886034333333335, "is_reserved": 0, "lon": -76.92500733333333, "name": "8dd53b71bcf96e0505122600e8406922", "type": "electric_scooter"}, {"fusion_lon": 0.0, "fusion_lat": 0.0, "rental_uris": {"ios": "https://dc.lft.to/lastmile_qr_scan", "android": "https://dc.lft.to/lastmile_qr_scan"}, "is_disabled": 0, "bike_id": "6b2afd6a33135ceb9c92cadf87793ce8", "lat": 38.896306833333334, "is_reserved": 0, "lon": -77.02377933333334, "name": "6b2afd6a33135ceb9c92cadf87793ce8", "type": "electric_scooter"}, {"fusion_lon": 0.0, "fusion_lat": 0.0, "rental_uris": {"ios": "https://dc.lft.to/lastmile_qr_scan", "android": "https://dc.lft.to/lastmile_qr_scan"}, "is_disabled": 0, "bike_id": "d785fdf14412b8f68798536fd5d59e71", "lat": 38.909576333333334, "is_reserved": 0, "lon": -77.01831733333333, "name": "d785fdf14412b8f68798536fd5d59e71", "type": "electric_scooter"}, {"fusion_lon": 0.0, "fusion_lat": 0.0, "rental_uris": {"ios": "https://dc.lft.to/lastmile_qr_scan", "android": "https://dc.lft.to/lastmile_qr_scan"}, "is_disabled": 0, "bike_id": "af3096eea693c37c0f8d1a6641845260", "lat": 38.895062333333335, "is_reserved": 0, "lon": -77.0225765, "name": "af3096eea693c37c0f8d1a6641845260", "type": "electric_scooter"}, {"fusion_lon": 0.0, "fusion_lat": 0.0, "rental_uris": {"ios": "https://dc.lft.to/lastmile_qr_scan", "android": "https://dc.lft.to/lastmile_qr_scan"}, "is_disabled": 0, "bike_id": "f0138f606bf8cb6c166baf926768108e", "lat": 38.900335, "is_reserved": 0, "lon": -76.9915345, "name": "f0138f606bf8cb6c166baf926768108e", "type": "electric_scooter"}, {"fusion_lon": 0.0, "fusion_lat": 0.0, "rental_uris": {"ios": "https://dc.lft.to/lastmile_qr_scan", "android": "https://dc.lft.to/lastmile_qr_scan"}, "is_disabled": 0, "bike_id": "256b588508171a9cc4afaebe8a38598b", "lat": 38.948826833333335, "is_reserved": 0, "lon": -77.06451233333334, "name": "256b588508171a9cc4afaebe8a38598b", "type": "electric_scooter"}, {"fusion_lon": 0.0, "fusion_lat": 0.0, "rental_uris": {"ios": "https://dc.lft.to/lastmile_qr_scan", "android": "https://dc.lft.to/lastmile_qr_scan"}, "is_disabled": 0, "bike_id": "fa708ca5415cff9a966ded37c7858e0b", "lat": 38.87656366666667, "is_reserved": 0, "lon": -77.00314383333334, "name": "fa708ca5415cff9a966ded37c7858e0b", "type": "electric_scooter"}, {"fusion_lon": 0.0, "fusion_lat": 0.0, "rental_uris": {"ios": "https://dc.lft.to/lastmile_qr_scan", "android": "https://dc.lft.to/lastmile_qr_scan"}, "is_disabled": 0, "bike_id": "986361828df22dd992e37349a0f71280", "lat": 38.91461366666667, "is_reserved": 0, "lon": -77.06421516666667, "name": "986361828df22dd992e37349a0f71280", "type": "electric_scooter"}, {"fusion_lon": 0.0, "fusion_lat": 0.0, "rental_uris": {"ios": "https://dc.lft.to/lastmile_qr_scan", "android": "https://dc.lft.to/lastmile_qr_scan"}, "is_disabled": 0, "bike_id": "6acd08e3a0c830af446eeadada8525e4", "lat": 38.8803645, "is_reserved": 0, "lon": -77.00525133333333, "name": "6acd08e3a0c830af446eeadada8525e4", "type": "electric_scooter"}, {"fusion_lon": 0.0, "fusion_lat": 0.0, "rental_uris": {"ios": "https://dc.lft.to/lastmile_qr_scan", "android": "https://dc.lft.to/lastmile_qr_scan"}, "is_disabled": 0, "bike_id": "2fb5e25e4674e2e816a782eb8fd6b81b", "lat": 38.9342435, "is_reserved": 0, "lon": -77.03995983333333, "name": "2fb5e25e4674e2e816a782eb8fd6b81b", "type": "electric_scooter"}, {"fusion_lon": 0.0, "fusion_lat": 0.0, "rental_uris": {"ios": "https://dc.lft.to/lastmile_qr_scan", "android": "https://dc.lft.to/lastmile_qr_scan"}, "is_disabled": 0, "bike_id": "9b61b6b374e9d4736e51ab51979bd738", "lat": 38.88065133333333, "is_reserved": 0, "lon": -76.932151, "name": "9b61b6b374e9d4736e51ab51979bd738", "type": "electric_scooter"}, {"fusion_lon": 0.0, "fusion_lat": 0.0, "rental_uris": {"ios": "https://dc.lft.to/lastmile_qr_scan", "android": "https://dc.lft.to/lastmile_qr_scan"}, "is_disabled": 0, "bike_id": "c48d4707645ebf94fd58f384dbf7728a", "lat": 38.909723666666665, "is_reserved": 0, "lon": -77.04838666666667, "name": "c48d4707645ebf94fd58f384dbf7728a", "type": "electric_scooter"}, {"fusion_lon": 0.0, "fusion_lat": 0.0, "rental_uris": {"ios": "https://dc.lft.to/lastmile_qr_scan", "android": "https://dc.lft.to/lastmile_qr_scan"}, "is_disabled": 0, "bike_id": "97ec677c8fed6012ba4c4241cf45ac6e", "lat": 38.893511333333336, "is_reserved": 0, "lon": -77.04134166666667, "name": "97ec677c8fed6012ba4c4241cf45ac6e", "type": "electric_scooter"}, {"fusion_lon": 0.0, "fusion_lat": 0.0, "rental_uris": {"ios": "https://dc.lft.to/lastmile_qr_scan", "android": "https://dc.lft.to/lastmile_qr_scan"}, "is_disabled": 0, "bike_id": "8d471c5e8417b7b547185fd39161ab75", "lat": 38.90231083333333, "is_reserved": 0, "lon": -77.03463633333334, "name": "8d471c5e8417b7b547185fd39161ab75", "type": "electric_scooter"}, {"fusion_lon": 0.0, "fusion_lat": 0.0, "rental_uris": {"ios": "https://dc.lft.to/lastmile_qr_scan", "android": "https://dc.lft.to/lastmile_qr_scan"}, "is_disabled": 0, "bike_id": "2641d9c9532ae1241af93bc4c79e156b", "lat": 38.90740733333333, "is_reserved": 0, "lon": -77.034425, "name": "2641d9c9532ae1241af93bc4c79e156b", "type": "electric_scooter"}, {"fusion_lon": 0.0, "fusion_lat": 0.0, "rental_uris": {"ios": "https://dc.lft.to/lastmile_qr_scan", "android": "https://dc.lft.to/lastmile_qr_scan"}, "is_disabled": 0, "bike_id": "6408ee3b7d6363cfc6314c56dc00e5b0", "lat": 38.886427833333336, "is_reserved": 0, "lon": -76.982116, "name": "6408ee3b7d6363cfc6314c56dc00e5b0", "type": "electric_scooter"}, {"fusion_lon": 0.0, "fusion_lat": 0.0, "rental_uris": {"ios": "https://dc.lft.to/lastmile_qr_scan", "android": "https://dc.lft.to/lastmile_qr_scan"}, "is_disabled": 0, "bike_id": "8defa7619bf4d552306f67ff8c6ef221", "lat": 38.912628833333336, "is_reserved": 0, "lon": -77.014185, "name": "8defa7619bf4d552306f67ff8c6ef221", "type": "electric_scooter"}, {"fusion_lon": 0.0, "fusion_lat": 0.0, "rental_uris": {"ios": "https://dc.lft.to/lastmile_qr_scan", "android": "https://dc.lft.to/lastmile_qr_scan"}, "is_disabled": 0, "bike_id": "71c85425ef42baccdb4f15c31d42228b", "lat": 38.922099333333335, "is_reserved": 0, "lon": -77.04240666666666, "name": "71c85425ef42baccdb4f15c31d42228b", "type": "electric_scooter"}, {"fusion_lon": 0.0, "fusion_lat": 0.0, "rental_uris": {"ios": "https://dc.lft.to/lastmile_qr_scan", "android": "https://dc.lft.to/lastmile_qr_scan"}, "is_disabled": 0, "bike_id": "68badbead603e72583e0966c2f7c3df2", "lat": 38.863319833333335, "is_reserved": 0, "lon": -76.98717, "name": "68badbead603e72583e0966c2f7c3df2", "type": "electric_bike"}, {"fusion_lon": 0.0, "fusion_lat": 0.0, "rental_uris": {"ios": "https://dc.lft.to/lastmile_qr_scan", "android": "https://dc.lft.to/lastmile_qr_scan"}, "is_disabled": 0, "bike_id": "fd3c3c07e6f60905c4df2e5f6afbacfc", "lat": 38.895413166666664, "is_reserved": 0, "lon": -76.94955966666667, "name": "fd3c3c07e6f60905c4df2e5f6afbacfc", "type": "electric_scooter"}, {"fusion_lon": 0.0, "fusion_lat": 0.0, "rental_uris": {"ios": "https://dc.lft.to/lastmile_qr_scan", "android": "https://dc.lft.to/lastmile_qr_scan"}, "is_disabled": 0, "bike_id": "77bb7fa172c880058639e00f50f89af4", "lat": 38.878942333333335, "is_reserved": 0, "lon": -77.01390966666666, "name": "77bb7fa172c880058639e00f50f89af4", "type": "electric_scooter"}, {"fusion_lon": 0.0, "fusion_lat": 0.0, "rental_uris": {"ios": "https://dc.lft.to/lastmile_qr_scan", "android": "https://dc.lft.to/lastmile_qr_scan"}, "is_disabled": 0, "bike_id": "eb51353684d73e718e2161cbb124ae08", "lat": 38.93719733333333, "is_reserved": 0, "lon": -77.03277416666667, "name": "eb51353684d73e718e2161cbb124ae08", "type": "electric_scooter"}, {"fusion_lon": 0.0, "fusion_lat": 0.0, "rental_uris": {"ios": "https://dc.lft.to/lastmile_qr_scan", "android": "https://dc.lft.to/lastmile_qr_scan"}, "is_disabled": 0, "bike_id": "37665210d2a19dea322259fa613f10ee", "lat": 38.88340683333333, "is_reserved": 0, "lon": -76.99501083333334, "name": "37665210d2a19dea322259fa613f10ee", "type": "electric_scooter"}, {"fusion_lon": 0.0, "fusion_lat": 0.0, "rental_uris": {"ios": "https://dc.lft.to/lastmile_qr_scan", "android": "https://dc.lft.to/lastmile_qr_scan"}, "is_disabled": 0, "bike_id": "3905586a07797faba30fbe3638204dab", "lat": 38.91972033333333, "is_reserved": 0, "lon": -76.99251833333334, "name": "3905586a07797faba30fbe3638204dab", "type": "electric_scooter"}, {"fusion_lon": 0.0, "fusion_lat": 0.0, "rental_uris": {"ios": "https://dc.lft.to/lastmile_qr_scan", "android": "https://dc.lft.to/lastmile_qr_scan"}, "is_disabled": 0, "bike_id": "59378d12023653753f5b6b88833463e7", "lat": 38.89977183333333, "is_reserved": 0, "lon": -77.021522, "name": "59378d12023653753f5b6b88833463e7", "type": "electric_scooter"}, {"fusion_lon": 0.0, "fusion_lat": 0.0, "rental_uris": {"ios": "https://dc.lft.to/lastmile_qr_scan", "android": "https://dc.lft.to/lastmile_qr_scan"}, "is_disabled": 0, "bike_id": "9bd722b174505ebf2619a1c880445a9b", "lat": 38.87643, "is_reserved": 0, "lon": -77.00543333333333, "name": "9bd722b174505ebf2619a1c880445a9b", "type": "electric_scooter"}, {"fusion_lon": 0.0, "fusion_lat": 0.0, "rental_uris": {"ios": "https://dc.lft.to/lastmile_qr_scan", "android": "https://dc.lft.to/lastmile_qr_scan"}, "is_disabled": 0, "bike_id": "27f520abc9db480436a7f13069e61e30", "lat": 38.89504983333333, "is_reserved": 0, "lon": -77.00328866666666, "name": "27f520abc9db480436a7f13069e61e30", "type": "electric_scooter"}, {"fusion_lon": 0.0, "fusion_lat": 0.0, "rental_uris": {"ios": "https://dc.lft.to/lastmile_qr_scan", "android": "https://dc.lft.to/lastmile_qr_scan"},