{"data": {"bikes": [{"lon": -77.01792566666667, "bike_id": "e3dd18312b324e1e9059c2a81a60e53d", "lat": 38.9065215, "fusion_lon": 0.0, "fusion_lat": 0.0, "type": "electric_scooter", "name": "e3dd18312b324e1e9059c2a81a60e53d", "is_disabled": 0, "rental_uris": {"ios": "https://dc.lft.to/lastmile_qr_scan", "android": "https://dc.lft.to/lastmile_qr_scan"}, "is_reserved": 0}, {"lon": -77.04756, "bike_id": "0bc1e97187eafdb0bdfcf2b861b9ddc8", "lat": 38.917696166666666, "fusion_lon": 0.0, "fusion_lat": 0.0, "type": "electric_scooter", "name": "0bc1e97187eafdb0bdfcf2b861b9ddc8", "is_disabled": 0, "rental_uris": {"ios": "https://dc.lft.to/lastmile_qr_scan", "android": "https://dc.lft.to/lastmile_qr_scan"}, "is_reserved": 0}, {"lon": -77.03091033333334, "bike_id": "366732a3077fb67d692c43a4b601e769", "lat": 38.91696316666667, "fusion_lon": 0.0, "fusion_lat": 0.0, "type": "electric_scooter", "name": "366732a3077fb67d692c43a4b601e769", "is_disabled": 0, "rental_uris": {"ios": "https://dc.lft.to/lastmile_qr_scan", "android": "https://dc.lft.to/lastmile_qr_scan"}, "is_reserved": 0}, {"lon": -77.02961016666667, "bike_id": "5afca42bb82d4d723373d6d074e081cd", "lat": 38.9065215, "fusion_lon": 0.0, "fusion_lat": 0.0, "type": "electric_scooter", "name": "5afca42bb82d4d723373d6d074e081cd", "is_disabled": 0, "rental_uris": {"ios": "https://dc.lft.to/lastmile_qr_scan", "android": "https://dc.lft.to/lastmile_qr_scan"}, "is_reserved": 0}, {"lon": -77.022352, "bike_id": "d0db49e2af19ac90935379b40da185c0", "lat": 38.962035666666665, "fusion_lon": 0.0, "fusion_lat": 0.0, "type": "electric_scooter", "name": "d0db49e2af19ac90935379b40da185c0", "is_disabled": 0, "rental_uris": {"ios": "https://dc.lft.to/lastmile_qr_scan", "android": "https://dc.lft.to/lastmile_qr_scan"}, "is_reserved": 0}, {"lon": -76.99885366666666, "bike_id": "d07ade87e1806959c30fb4fae011b338", "lat": 38.9095375, "fusion_lon": 0.0, "fusion_lat": 0.0, "type": "electric_scooter", "name": "d07ade87e1806959c30fb4fae011b338", "is_disabled": 0, "rental_uris": {"ios": "https://dc.lft.to/lastmile_qr_scan", "android": "https://dc.lft.to/lastmile_qr_scan"}, "is_reserved": 0}, {"lon": -76.982347, "bike_id": "f570efbab1d4f05752313ff598a65785", "lat": 38.916646166666666, "fusion_lon": 0.0, "fusion_lat": 0.0, "type": "electric_scooter", "name": "f570efbab1d4f05752313ff598a65785", "is_disabled": 0, "rental_uris": {"ios": "https://dc.lft.to/lastmile_qr_scan", "android": "https://dc.lft.to/lastmile_qr_scan"}, "is_reserved": 0}, {"lon": -77.00204666666667, "bike_id": "ec24eb9337b1dc385453149f51ea739c", "lat": 38.9003605, "fusion_lon": 0.0, "fusion_lat": 0.0, "type": "electric_scooter", "name": "ec24eb9337b1dc385453149f51ea739c", "is_disabled": 0, "rental_uris": {"ios": "https://dc.lft.to/lastmile_qr_scan", "android": "https://dc.lft.to/lastmile_qr_scan"}, "is_reserved": 0}, {"lon": -77.02025716666667, "bike_id": "386f4560d93dd13fd1e59f2e3863ab1c", "lat": 38.9165415, "fusion_lon": 0.0, "fusion_lat": 0.0, "type": "electric_scooter", "name": "386f4560d93dd13fd1e59f2e3863ab1c", "is_disabled": 0, "rental_uris": {"ios": "https://dc.lft.to/lastmile_qr_scan", "android": "https://dc.lft.to/lastmile_qr_scan"}, "is_reserved": 0}, {"lon": -77.01047166666666, "bike_id": "53aa3d4f958a8c2e3d0c5ab1318a1e19", "lat": 38.96356266666667, "fusion_lon": 0.0, "fusion_lat": 0.0, "type": "electric_scooter", "name": "53aa3d4f958a8c2e3d0c5ab1318a1e19", "is_disabled": 0, "rental_uris": {"ios": "https://dc.lft.to/lastmile_qr_scan", "android": "https://dc.lft.to/lastmile_qr_scan"}, "is_reserved": 0}, {"lon": -77.02198033333333, "bike_id": "393b7e1ef446973b5623fac5069b4a8f", "lat": 38.91504033333333, "fusion_lon": 0.0, "fusion_lat": 0.0, "type": "electric_scooter", "name": "393b7e1ef446973b5623fac5069b4a8f", "is_disabled": 0, "rental_uris": {"ios": "https://dc.lft.to/lastmile_qr_scan", "android": "https://dc.lft.to/lastmile_qr_scan"}, "is_reserved": 0}, {"lon": -77.11914916666667, "bike_id": "64cc623d7b908db4ecfea6e88cfbaff5", "lat": 38.87637866666667, "fusion_lon": 0.0, "fusion_lat": 0.0, "type": "electric_bike", "name": "64cc623d7b908db4ecfea6e88cfbaff5", "is_disabled": 0, "rental_uris": {"ios": "https://dc.lft.to/lastmile_qr_scan", "android": "https://dc.lft.to/lastmile_qr_scan"}, "is_reserved": 0}, {"lon": -77.03265683333333, "bike_id": "99aee2cb39ac25a01373f3a9b4050d0c", "lat": 38.936698666666665, "fusion_lon": 0.0, "fusion_lat": 0.0, "type": "electric_scooter", "name": "99aee2cb39ac25a01373f3a9b4050d0c", "is_disabled": 0, "rental_uris": {"ios": "https://dc.lft.to/lastmile_qr_scan", "android": "https://dc.lft.to/lastmile_qr_scan"}, "is_reserved": 0}, {"lon": -77.02134283333334, "bike_id": "16fe408f5e599aec7e533a0ca420a797", "lat": 38.9159905, "fusion_lon": 0.0, "fusion_lat": 0.0, "type": "electric_scooter", "name": "16fe408f5e599aec7e533a0ca420a797", "is_disabled": 0, "rental_uris": {"ios": "https://dc.lft.to/lastmile_qr_scan", "android": "https://dc.lft.to/lastmile_qr_scan"}, "is_reserved": 0}, {"lon": -77.05935366666667, "bike_id": "eaba82277c5ce9ce0bdff27b935ca522", "lat": 38.862540333333335, "fusion_lon": 0.0, "fusion_lat": 0.0, "type": "electric_scooter", "name": "eaba82277c5ce9ce0bdff27b935ca522", "is_disabled": 0, "rental_uris": {"ios": "https://dc.lft.to/lastmile_qr_scan", "android": "https://dc.lft.to/lastmile_qr_scan"}, "is_reserved": 0}, {"lon": -77.01351516666666, "bike_id": "4e1b3c5932bbc60f46d8eea0141bce56", "lat": 38.91947183333333, "fusion_lon": 0.0, "fusion_lat": 0.0, "type": "electric_scooter", "name": "4e1b3c5932bbc60f46d8eea0141bce56", "is_disabled": 0, "rental_uris": {"ios": "https://dc.lft.to/lastmile_qr_scan", "android": "https://dc.lft.to/lastmile_qr_scan"}, "is_reserved": 0}, {"lon": -77.02933133333333, "bike_id": "0055520afde76a0cf689810200e91794", "lat": 38.92082716666667, "fusion_lon": 0.0, "fusion_lat": 0.0, "type": "electric_scooter", "name": "0055520afde76a0cf689810200e91794", "is_disabled": 0, "rental_uris": {"ios": "https://dc.lft.to/lastmile_qr_scan", "android": "https://dc.lft.to/lastmile_qr_scan"}, "is_reserved": 0}, {"lon": -77.04156583333334, "bike_id": "86aa2ae659ac65237f96f696a7928900", "lat": 38.904668666666666, "fusion_lon": 0.0, "fusion_lat": 0.0, "type": "electric_scooter", "name": "86aa2ae659ac65237f96f696a7928900", "is_disabled": 0, "rental_uris": {"ios": "https://dc.lft.to/lastmile_qr_scan", "android": "https://dc.lft.to/lastmile_qr_scan"}, "is_reserved": 0}, {"lon": -77.00840233333334, "bike_id": "9ffc03fea92fbc192dbcaa2f4cf83db8", "lat": 38.91624, "fusion_lon": 0.0, "fusion_lat": 0.0, "type": "electric_scooter", "name": "9ffc03fea92fbc192dbcaa2f4cf83db8", "is_disabled": 0, "rental_uris": {"ios": "https://dc.lft.to/lastmile_qr_scan", "android": "https://dc.lft.to/lastmile_qr_scan"}, "is_reserved": 0}, {"lon": -77.033408, "bike_id": "e12c487e612f5bacc91475aa045462d9", "lat": 38.9082745, "fusion_lon": 0.0, "fusion_lat": 0.0, "type": "electric_scooter", "name": "e12c487e612f5bacc91475aa045462d9", "is_disabled": 0, "rental_uris": {"ios": "https://dc.lft.to/lastmile_qr_scan", "android": "https://dc.lft.to/lastmile_qr_scan"}, "is_reserved": 0}, {"lon": -76.98907483333333, "bike_id": "71e3ea633e82458171a97d5608146e5e", "lat": 38.91348283333333, "fusion_lon": 0.0, "fusion_lat": 0.0, "type": "electric_scooter", "name": "71e3ea633e82458171a97d5608146e5e", "is_disabled": 0, "rental_uris": {"ios": "https://dc.lft.to/lastmile_qr_scan", "android": "https://dc.lft.to/lastmile_qr_scan"}, "is_reserved": 0}, {"lon": -77.0204625, "bike_id": "d7145628bc6c99ed10d52fc9ba772b4a", "lat": 38.915609, "fusion_lon": 0.0, "fusion_lat": 0.0, "type": "electric_scooter", "name": "d7145628bc6c99ed10d52fc9ba772b4a", "is_disabled": 0, "rental_uris": {"ios": "https://dc.lft.to/lastmile_qr_scan", "android": "https://dc.lft.to/lastmile_qr_scan"}, "is_reserved": 0}, {"lon": -77.00194783333333, "bike_id": "d2fd3afec6499a8420e80005a7c80949", "lat": 38.902399333333335, "fusion_lon": 0.0, "fusion_lat": 0.0, "type": "electric_scooter", "name": "d2fd3afec6499a8420e80005a7c80949", "is_disabled": 0, "rental_uris": {"ios": "https://dc.lft.to/lastmile_qr_scan", "android": "https://dc.lft.to/lastmile_qr_scan"}, "is_reserved": 0}, {"lon": -76.99405483333334, "bike_id": "57439c8694eeef1cd179a21db5986c1c", "lat": 38.831408333333336, "fusion_lon": 0.0, "fusion_lat": 0.0, "type": "electric_bike", "name": "57439c8694eeef1cd179a21db5986c1c", "is_disabled": 0, "rental_uris": {"ios": "https://dc.lft.to/lastmile_qr_scan", "android": "https://dc.lft.to/lastmile_qr_scan"}, "is_reserved": 0}, {"lon": -77.02613666666667, "bike_id": "0a50e4b27c5d1d5592658b06ce69ddca", "lat": 38.902434166666666, "fusion_lon": 0.0, "fusion_lat": 0.0, "type": "electric_scooter", "name": "0a50e4b27c5d1d5592658b06ce69ddca", "is_disabled": 0, "rental_uris": {"ios": "https://dc.lft.to/lastmile_qr_scan", "android": "https://dc.lft.to/lastmile_qr_scan"}, "is_reserved": 0}, {"lon": -76.9826295, "bike_id": "9d21da5b4e494d721213f27661a128b0", "lat": 38.908561166666665, "fusion_lon": 0.0, "fusion_lat": 0.0, "type": "electric_scooter", "name": "9d21da5b4e494d721213f27661a128b0", "is_disabled": 0, "rental_uris": {"ios": "https://dc.lft.to/lastmile_qr_scan", "android": "https://dc.lft.to/lastmile_qr_scan"}, "is_reserved": 0}, {"lon": -76.95482916666667, "bike_id": "fd79cc0d44728564f8eb0f858670435f", "lat": 38.88472183333333, "fusion_lon": 0.0, "fusion_lat": 0.0, "type": "electric_scooter", "name": "fd79cc0d44728564f8eb0f858670435f", "is_disabled": 0, "rental_uris": {"ios": "https://dc.lft.to/lastmile_qr_scan", "android": "https://dc.lft.to/lastmile_qr_scan"}, "is_reserved": 0}, {"lon": -76.98588716666667, "bike_id": "c2d4028c8c22f29c575a864a494da760", "lat": 38.90813516666667, "fusion_lon": 0.0, "fusion_lat": 0.0, "type": "electric_scooter", "name": "c2d4028c8c22f29c575a864a494da760", "is_disabled": 0, "rental_uris": {"ios": "https://dc.lft.to/lastmile_qr_scan", "android": "https://dc.lft.to/lastmile_qr_scan"}, "is_reserved": 0}, {"lon": -76.99484366666667, "bike_id": "3426ef48d3058a428c0aed761dd04fc5", "lat": 38.91571916666667, "fusion_lon": 0.0, "fusion_lat": 0.0, "type": "electric_scooter", "name": "3426ef48d3058a428c0aed761dd04fc5", "is_disabled": 0, "rental_uris": {"ios": "https://dc.lft.to/lastmile_qr_scan", "android": "https://dc.lft.to/lastmile_qr_scan"}, "is_reserved": 0}, {"lon": -77.04168283333334, "bike_id": "ff194d0e84cfdd12564e5285b9a5a907", "lat": 38.913554500000004, "fusion_lon": 0.0, "fusion_lat": 0.0, "type": "electric_scooter", "name": "ff194d0e84cfdd12564e5285b9a5a907", "is_disabled": 0, "rental_uris": {"ios": "https://dc.lft.to/lastmile_qr_scan", "android": "https://dc.lft.to/lastmile_qr_scan"}, "is_reserved": 0}, {"lon": -77.0262265, "bike_id": "2bcffab0a50447cb4726637af97b6a9c", "lat": 38.962251333333334, "fusion_lon": 0.0, "fusion_lat": 0.0, "type": "electric_bike", "name": "2bcffab0a50447cb4726637af97b6a9c", "is_disabled": 0, "rental_uris": {"ios": "https://dc.lft.to/lastmile_qr_scan", "android": "https://dc.lft.to/lastmile_qr_scan"}, "is_reserved": 0}, {"lon": -76.988812, "bike_id": "ee804754d07aa60478441aa5c829f070", "lat": 38.86654583333333, "fusion_lon": 0.0, "fusion_lat": 0.0, "type": "electric_scooter", "name": "ee804754d07aa60478441aa5c829f070", "is_disabled": 0, "rental_uris": {"ios": "https://dc.lft.to/lastmile_qr_scan", "android": "https://dc.lft.to/lastmile_qr_scan"}, "is_reserved": 0}, {"lon": -77.0410065, "bike_id": "3e6c669cb405a24d9aced597e6079f3d", "lat": 38.92030416666667, "fusion_lon": 0.0, "fusion_lat": 0.0, "type": "electric_scooter", "name": "3e6c669cb405a24d9aced597e6079f3d", "is_disabled": 0, "rental_uris": {"ios": "https://dc.lft.to/lastmile_qr_scan", "android": "https://dc.lft.to/lastmile_qr_scan"}, "is_reserved": 0}, {"lon": -76.93382583333333, "bike_id": "d752219b3297ddc3c5f5d7421877293e", "lat": 38.899059333333334, "fusion_lon": 0.0, "fusion_lat": 0.0, "type": "electric_scooter", "name": "d752219b3297ddc3c5f5d7421877293e", "is_disabled": 0, "rental_uris": {"ios": "https://dc.lft.to/lastmile_qr_scan", "android": "https://dc.lft.to/lastmile_qr_scan"}, "is_reserved": 0}, {"lon": -76.98897516666666, "bike_id": "d12c56faddb7dda776989b7260704574", "lat": 38.913472, "fusion_lon": 0.0, "fusion_lat": 0.0, "type": "electric_scooter", "name": "d12c56faddb7dda776989b7260704574", "is_disabled": 0, "rental_uris": {"ios": "https://dc.lft.to/lastmile_qr_scan", "android": "https://dc.lft.to/lastmile_qr_scan"}, "is_reserved": 0}, {"lon": -77.0319615, "bike_id": "08c280d4f4e5889127fdf41b3568972c", "lat": 38.92983, "fusion_lon": 0.0, "fusion_lat": 0.0, "type": "electric_scooter", "name": "08c280d4f4e5889127fdf41b3568972c", "is_disabled": 0, "rental_uris": {"ios": "https://dc.lft.to/lastmile_qr_scan", "android": "https://dc.lft.to/lastmile_qr_scan"}, "is_reserved": 0}, {"lon": -77.0071155, "bike_id": "44ca74ca269a4a5ff83c86f24c372bde", "lat": 38.87947283333333, "fusion_lon": 0.0, "fusion_lat": 0.0, "type": "electric_scooter", "name": "44ca74ca269a4a5ff83c86f24c372bde", "is_disabled": 0, "rental_uris": {"ios": "https://dc.lft.to/lastmile_qr_scan", "android": "https://dc.lft.to/lastmile_qr_scan"}, "is_reserved": 0}, {"lon": -76.98181783333334, "bike_id": "b432b9ef910841850d0d5f73094e1e3c", "lat": 38.926077166666666, "fusion_lon": 0.0, "fusion_lat": 0.0, "type": "electric_scooter", "name": "b432b9ef910841850d0d5f73094e1e3c", "is_disabled": 0, "rental_uris": {"ios": "https://dc.lft.to/lastmile_qr_scan", "android": "https://dc.lft.to/lastmile_qr_scan"}, "is_reserved": 0}, {"lon": -76.95667883333333, "bike_id": "2f310e631365f693817e821a029f6767", "lat": 38.946629, "fusion_lon": 0.0, "fusion_lat": 0.0, "type": "electric_bike", "name": "2f310e631365f693817e821a029f6767", "is_disabled": 0, "rental_uris": {"ios": "https://dc.lft.to/lastmile_qr_scan", "android": "https://dc.lft.to/lastmile_qr_scan"}, "is_reserved": 0}, {"lon": -77.03882066666667, "bike_id": "fa0c820c2fc8139b7c797601f9823afa", "lat": 38.922467833333336, "fusion_lon": 0.0, "fusion_lat": 0.0, "type": "electric_scooter", "name": "fa0c820c2fc8139b7c797601f9823afa", "is_disabled": 0, "rental_uris": {"ios": "https://dc.lft.to/lastmile_qr_scan", "android": "https://dc.lft.to/lastmile_qr_scan"}, "is_reserved": 0}, {"lon": -77.0387325, "bike_id": "23ca6a9bd837fd95682fc2eaa6c5ee0d", "lat": 38.9330765, "fusion_lon": 0.0, "fusion_lat": 0.0, "type": "electric_scooter", "name": "23ca6a9bd837fd95682fc2eaa6c5ee0d", "is_disabled": 0, "rental_uris": {"ios": "https://dc.lft.to/lastmile_qr_scan", "android": "https://dc.lft.to/lastmile_qr_scan"}, "is_reserved": 0}, {"lon": -77.10092283333333, "bike_id": "c54207329aca82e4d42ac58212882247", "lat": 38.9595855, "fusion_lon": 0.0, "fusion_lat": 0.0, "type": "electric_bike", "name": "c54207329aca82e4d42ac58212882247", "is_disabled": 0, "rental_uris": {"ios": "https://dc.lft.to/lastmile_qr_scan", "android": "https://dc.lft.to/lastmile_qr_scan"}, "is_reserved": 0}, {"lon": -77.01744233333334, "bike_id": "a420aafd27bbeb68802698243524b446", "lat": 38.9026485, "fusion_lon": 0.0, "fusion_lat": 0.0, "type": "electric_scooter", "name": "a420aafd27bbeb68802698243524b446", "is_disabled": 0, "rental_uris": {"ios": "https://dc.lft.to/lastmile_qr_scan", "android": "https://dc.lft.to/lastmile_qr_scan"}, "is_reserved": 0}, {"lon": -77.03201933333334, "bike_id": "bd1e2b4dedbd17f08dfd28bcb6be3628", "lat": 38.93970233333334, "fusion_lon": 0.0, "fusion_lat": 0.0, "type": "electric_scooter", "name": "bd1e2b4dedbd17f08dfd28bcb6be3628", "is_disabled": 0, "rental_uris": {"ios": "https://dc.lft.to/lastmile_qr_scan", "android": "https://dc.lft.to/lastmile_qr_scan"}, "is_reserved": 0}, {"lon": -77.05597866666666, "bike_id": "762a7c923f2cde319c61f95a56287762", "lat": 38.9231385, "fusion_lon": 0.0, "fusion_lat": 0.0, "type": "electric_scooter", "name": "762a7c923f2cde319c61f95a56287762", "is_disabled": 0, "rental_uris": {"ios": "https://dc.lft.to/lastmile_qr_scan", "android": "https://dc.lft.to/lastmile_qr_scan"}, "is_reserved": 0}, {"lon": -77.044243, "bike_id": "c0170989b72612e99670619af44c6f41", "lat": 38.92170183333333, "fusion_lon": 0.0, "fusion_lat": 0.0, "type": "electric_scooter", "name": "c0170989b72612e99670619af44c6f41", "is_disabled": 0, "rental_uris": {"ios": "https://dc.lft.to/lastmile_qr_scan", "android": "https://dc.lft.to/lastmile_qr_scan"}, "is_reserved": 0}, {"lon": -77.0140985, "bike_id": "296f5282efd62eab7246c81d4d9e0ae1", "lat": 38.92826483333333, "fusion_lon": 0.0, "fusion_lat": 0.0, "type": "electric_scooter", "name": "296f5282efd62eab7246c81d4d9e0ae1", "is_disabled": 0, "rental_uris": {"ios": "https://dc.lft.to/lastmile_qr_scan", "android": "https://dc.lft.to/lastmile_qr_scan"}, "is_reserved": 0}, {"lon": -77.03762283333333, "bike_id": "703c891252596b2ad4115540dfbb26fb", "lat": 38.924738, "fusion_lon": 0.0, "fusion_lat": 0.0, "type": "electric_scooter", "name": "703c891252596b2ad4115540dfbb26fb", "is_disabled": 0, "rental_uris": {"ios": "https://dc.lft.to/lastmile_qr_scan", "android": "https://dc.lft.to/lastmile_qr_scan"}, "is_reserved": 0}, {"lon": -77.04238466666666, "bike_id": "c36a9c8cad94c79f82154686eb75e2af", "lat": 38.92185533333333, "fusion_lon": 0.0, "fusion_lat": 0.0, "type": "electric_scooter", "name": "c36a9c8cad94c79f82154686eb75e2af", "is_disabled": 0, "rental_uris": {"ios": "https://dc.lft.to/lastmile_qr_scan", "android": "https://dc.lft.to/lastmile_qr_scan"}, "is_reserved": 0}, {"lon": -77.03942016666667, "bike_id": "ec131ac7a2740444d7a1a443120d658e", "lat": 38.930666, "fusion_lon": 0.0, "fusion_lat": 0.0, "type": "electric_scooter", "name": "ec131ac7a2740444d7a1a443120d658e", "is_disabled": 0, "rental_uris": {"ios": "https://dc.lft.to/lastmile_qr_scan", "android": "https://dc.lft.to/lastmile_qr_scan"}, "is_reserved": 0}, {"lon": -77.0297515, "bike_id": "370a6ad2f879196390aaa946af9efe40", "lat": 38.93284216666667, "fusion_lon": 0.0, "fusion_lat": 0.0, "type": "electric_scooter", "name": "370a6ad2f879196390aaa946af9efe40", "is_disabled": 0, "rental_uris": {"ios": "https://dc.lft.to/lastmile_qr_scan", "android": "https://dc.lft.to/lastmile_qr_scan"}, "is_reserved": 0}, {"lon": -76.98180433333333, "bike_id": "a203684f6871e691c31b57513a64d653", "lat": 38.89582083333333, "fusion_lon": 0.0, "fusion_lat": 0.0, "type": "electric_scooter", "name": "a203684f6871e691c31b57513a64d653", "is_disabled": 0, "rental_uris": {"ios": "https://dc.lft.to/lastmile_qr_scan", "android": "https://dc.lft.to/lastmile_qr_scan"}, "is_reserved": 0}, {"lon": -77.0434025, "bike_id": "abc91a77f25e9e2fd5c3cc9d936b75d4", "lat": 38.9296895, "fusion_lon": 0.0, "fusion_lat": 0.0, "type": "electric_scooter", "name": "abc91a77f25e9e2fd5c3cc9d936b75d4", "is_disabled": 0, "rental_uris": {"ios": "https://dc.lft.to/lastmile_qr_scan", "android": "https://dc.lft.to/lastmile_qr_scan"}, "is_reserved": 0}, {"lon": -76.98368883333333, "bike_id": "339b8680b5c132364f1137c1df27658d", "lat": 38.89981483333333, "fusion_lon": 0.0, "fusion_lat": 0.0, "type": "electric_scooter", "name": "339b8680b5c132364f1137c1df27658d", "is_disabled": 0, "rental_uris": {"ios": "https://dc.lft.to/lastmile_qr_scan", "android": "https://dc.lft.to/lastmile_qr_scan"}, "is_reserved": 0}, {"lon": -77.0281725, "bike_id": "b4c3d5982c8ce7fef165810f94516700", "lat": 38.90259183333333, "fusion_lon": 0.0, "fusion_lat": 0.0, "type": "electric_scooter", "name": "b4c3d5982c8ce7fef165810f94516700", "is_disabled": 0, "rental_uris": {"ios": "https://dc.lft.to/lastmile_qr_scan", "android": "https://dc.lft.to/lastmile_qr_scan"}, "is_reserved": 0}, {"lon": -77.02287633333333, "bike_id": "a815e25e6ffd74754d251bff9c0f139a", "lat": 38.9098315, "fusion_lon": 0.0, "fusion_lat": 0.0, "type": "electric_scooter", "name": "a815e25e6ffd74754d251bff9c0f139a", "is_disabled": 0, "rental_uris": {"ios": "https://dc.lft.to/lastmile_qr_scan", "android": "https://dc.lft.to/lastmile_qr_scan"}, "is_reserved": 0}, {"lon": -77.018179, "bike_id": "0f940498f40c6bdbdbac79e1542b06ba", "lat": 38.902430833333334, "fusion_lon": 0.0, "fusion_lat": 0.0, "type": "electric_scooter", "name": "0f940498f40c6bdbdbac79e1542b06ba", "is_disabled": 0, "rental_uris": {"ios": "https://dc.lft.to/lastmile_qr_scan", "android": "https://dc.lft.to/lastmile_qr_scan"}, "is_reserved": 0}, {"lon": -77.07331333333333, "bike_id": "98a4d50be3c4bfba39d85185351c36db", "lat": 38.92494666666666, "fusion_lon": 0.0, "fusion_lat": 0.0, "type": "electric_bike", "name": "98a4d50be3c4bfba39d85185351c36db", "is_disabled": 0, "rental_uris": {"ios": "https://dc.lft.to/lastmile_qr_scan", "android": "https://dc.lft.to/lastmile_qr_scan"}, "is_reserved": 0}, {"lon": -76.9336155, "bike_id": "24dc253a39049c558f14926ad2aae964", "lat": 38.899172666666665, "fusion_lon": 0.0, "fusion_lat": 0.0, "type": "electric_scooter", "name": "24dc253a39049c558f14926ad2aae964", "is_disabled": 0, "rental_uris": {"ios": "https://dc.lft.to/lastmile_qr_scan", "android": "https://dc.lft.to/lastmile_qr_scan"}, "is_reserved": 0}, {"lon": -77.00683066666667, "bike_id": "3144361d5370f7ec4ac2d4b402593ee3", "lat": 38.90018216666667, "fusion_lon": 0.0, "fusion_lat": 0.0, "type": "electric_scooter", "name": "3144361d5370f7ec4ac2d4b402593ee3", "is_disabled": 0, "rental_uris": {"ios": "https://dc.lft.to/lastmile_qr_scan", "android": "https://dc.lft.to/lastmile_qr_scan"}, "is_reserved": 0}, {"lon": -77.025313, "bike_id": "93416ceb950060442fdea782636ad1f6", "lat": 38.904148, "fusion_lon": 0.0, "fusion_lat": 0.0, "type": "electric_scooter", "name": "93416ceb950060442fdea782636ad1f6", "is_disabled": 0, "rental_uris": {"ios": "https://dc.lft.to/lastmile_qr_scan", "android": "https://dc.lft.to/lastmile_qr_scan"}, "is_reserved": 0}, {"lon": -77.08069166666667, "bike_id": "e7b2aeb2149c358fc3daeb85dd7c2f1a", "lat": 39.052837, "fusion_lon": 0.0, "fusion_lat": 0.0, "type": "electric_bike", "name": "e7b2aeb2149c358fc3daeb85dd7c2f1a", "is_disabled": 0, "rental_uris": {"ios": "https://dc.lft.to/lastmile_qr_scan", "android": "https://dc.lft.to/lastmile_qr_scan"}, "is_reserved": 0}, {"lon": -77.06509216666667, "bike_id": "84f51786bd9c40f983acc5a1e34ce3ac", "lat": 38.90401516666667, "fusion_lon": 0.0, "fusion_lat": 0.0, "type": "electric_scooter", "name": "84f51786bd9c40f983acc5a1e34ce3ac", "is_disabled": 0, "rental_uris": {"ios": "https://dc.lft.to/lastmile_qr_scan", "android": "https://dc.lft.to/lastmile_qr_scan"}, "is_reserved": 0}, {"lon": -76.97477283333333, "bike_id": "20352289f662ef43df63bb6406deb31c", "lat": 38.903519, "fusion_lon": 0.0, "fusion_lat": 0.0, "type": "electric_scooter", "name": "20352289f662ef43df63bb6406deb31c", "is_disabled": 0, "rental_uris": {"ios": "https://dc.lft.to/lastmile_qr_scan", "android": "https://dc.lft.to/lastmile_qr_scan"}, "is_reserved": 0}, {"lon": -77.0365065, "bike_id": "def7afc7cc6677cd64cac85e6649fead", "lat": 38.904366, "fusion_lon": 0.0, "fusion_lat": 0.0, "type": "electric_scooter", "name": "def7afc7cc6677cd64cac85e6649fead", "is_disabled": 0, "rental_uris": {"ios": "https://dc.lft.to/lastmile_qr_scan", "android": "https://dc.lft.to/lastmile_qr_scan"}, "is_reserved": 0}, {"lon": -76.99087366666667, "bike_id": "e92ba2d869aa67c9c0b83c8504643a81", "lat": 38.86239233333333, "fusion_lon": 0.0, "fusion_lat": 0.0, "type": "electric_bike", "name": "e92ba2d869aa67c9c0b83c8504643a81", "is_disabled": 0, "rental_uris": {"ios": "https://dc.lft.to/lastmile_qr_scan", "android": "https://dc.lft.to/lastmile_qr_scan"}, "is_reserved": 0}, {"lon": -76.99016683333333, "bike_id": "78ff88fdfe6658a41f6162683bf57018", "lat": 38.866444, "fusion_lon": 0.0, "fusion_lat": 0.0, "type": "electric_scooter", "name": "78ff88fdfe6658a41f6162683bf57018", "is_disabled": 0, "rental_uris": {"ios": "https://dc.lft.to/lastmile_qr_scan", "android": "https://dc.lft.to/lastmile_qr_scan"}, "is_reserved": 0}, {"lon": -77.02507433333334, "bike_id": "e738e3aa709620297b39fe2437e9b201", "lat": 38.93413616666667, "fusion_lon": 0.0, "fusion_lat": 0.0, "type": "electric_bike", "name": "e738e3aa709620297b39fe2437e9b201", "is_disabled": 0, "rental_uris": {"ios": "https://dc.lft.to/lastmile_qr_scan", "android": "https://dc.lft.to/lastmile_qr_scan"}, "is_reserved": 0}, {"lon": -76.99530316666667, "bike_id": "eb14bee8d8af2b6318afdcc8ba696daa", "lat": 38.88376133333333, "fusion_lon": 0.0, "fusion_lat": 0.0, "type": "electric_scooter", "name": "eb14bee8d8af2b6318afdcc8ba696daa", "is_disabled": 0, "rental_uris": {"ios": "https://dc.lft.to/lastmile_qr_scan", "android": "https://dc.lft.to/lastmile_qr_scan"}, "is_reserved": 0}, {"lon": -77.03212216666667, "bike_id": "49a34a1ab67f1af13c808ecba66f6e7c", "lat": 38.92999533333333, "fusion_lon": 0.0, "fusion_lat": 0.0, "type": "electric_scooter", "name": "49a34a1ab67f1af13c808ecba66f6e7c", "is_disabled": 0, "rental_uris": {"ios": "https://dc.lft.to/lastmile_qr_scan", "android": "https://dc.lft.to/lastmile_qr_scan"}, "is_reserved": 0}, {"lon": -77.04247233333334, "bike_id": "544800d9fb64519a92245b9198754dbf", "lat": 38.92226183333333, "fusion_lon": 0.0, "fusion_lat": 0.0, "type": "electric_scooter", "name": "544800d9fb64519a92245b9198754dbf", "is_disabled": 0, "rental_uris": {"ios": "https://dc.lft.to/lastmile_qr_scan", "android": "https://dc.lft.to/lastmile_qr_scan"}, "is_reserved": 0}, {"lon": -77.04633816666667, "bike_id": "9bbc9057c35a078fca25e0a2dfd8a17b", "lat": 38.921218833333334, "fusion_lon": 0.0, "fusion_lat": 0.0, "type": "electric_scooter", "name": "9bbc9057c35a078fca25e0a2dfd8a17b", "is_disabled": 0, "rental_uris": {"ios": "https://dc.lft.to/lastmile_qr_scan", "android": "https://dc.lft.to/lastmile_qr_scan"}, "is_reserved": 0}, {"lon": -77.02555333333333, "bike_id": "ddf6c73db1c522ed3789b0f57f0304e3", "lat": 38.924064, "fusion_lon": 0.0, "fusion_lat": 0.0, "type": "electric_scooter", "name": "ddf6c73db1c522ed3789b0f57f0304e3", "is_disabled": 0, "rental_uris": {"ios": "https://dc.lft.to/lastmile_qr_scan", "android": "https://dc.lft.to/lastmile_qr_scan"}, "is_reserved": 0}, {"lon": -76.98534433333333, "bike_id": "9d8305a2a4f9901b1d4d204241d2a5ab", "lat": 38.91026083333333, "fusion_lon": 0.0, "fusion_lat": 0.0, "type": "electric_scooter", "name": "9d8305a2a4f9901b1d4d204241d2a5ab", "is_disabled": 0, "rental_uris": {"ios": "https://dc.lft.to/lastmile_qr_scan", "android": "https://dc.lft.to/lastmile_qr_scan"}, "is_reserved": 0}, {"lon": -77.0424135, "bike_id": "8b71a3645afbc43ba513f28a081c3205", "lat": 38.922251, "fusion_lon": 0.0, "fusion_lat": 0.0, "type": "electric_scooter", "name": "8b71a3645afbc43ba513f28a081c3205", "is_disabled": 0, "rental_uris": {"ios": "https://dc.lft.to/lastmile_qr_scan", "android": "https://dc.lft.to/lastmile_qr_scan"}, "is_reserved": 0}, {"lon": -77.0236565, "bike_id": "5ef540c7fda4d8b746e31f878ab84763", "lat": 38.89224883333333, "fusion_lon": 0.0, "fusion_lat": 0.0, "type": "electric_scooter", "name": "5ef540c7fda4d8b746e31f878ab84763", "is_disabled": 0, "rental_uris": {"ios": "https://dc.lft.to/lastmile_qr_scan", "android": "https://dc.lft.to/lastmile_qr_scan"}, "is_reserved": 0}, {"lon": -76.98724333333334, "bike_id": "f5fbb969b4343dd7e74946ea5ac9675a", "lat": 38.86710816666667, "fusion_lon": 0.0, "fusion_lat": 0.0, "type": "electric_scooter", "name": "f5fbb969b4343dd7e74946ea5ac9675a", "is_disabled": 0, "rental_uris": {"ios": "https://dc.lft.to/lastmile_qr_scan", "android": "https://dc.lft.to/lastmile_qr_scan"}, "is_reserved": 0}, {"lon": -77.0385495, "bike_id": "14475aeb6c7687381d67fb1a0fc89365", "lat": 38.913564666666666, "fusion_lon": 0.0, "fusion_lat": 0.0, "type": "electric_scooter", "name": "14475aeb6c7687381d67fb1a0fc89365", "is_disabled": 0, "rental_uris": {"ios": "https://dc.lft.to/lastmile_qr_scan", "android": "https://dc.lft.to/lastmile_qr_scan"}, "is_reserved": 0}, {"lon": -77.00371466666667, "bike_id": "207a8b97c7e20f7b9155d7f32f21f3d1", "lat": 38.89734133333333, "fusion_lon": 0.0, "fusion_lat": 0.0, "type": "electric_scooter", "name": "207a8b97c7e20f7b9155d7f32f21f3d1", "is_disabled": 0, "rental_uris": {"ios": "https://dc.lft.to/lastmile_qr_scan", "android": "https://dc.lft.to/lastmile_qr_scan"}, "is_reserved": 0}, {"lon": -77.03489966666666, "bike_id": "5078afd4d0c25379ff18931e1fe31bb3", "lat": 38.91711333333333, "fusion_lon": 0.0, "fusion_lat": 0.0, "type": "electric_scooter", "name": "5078afd4d0c25379ff18931e1fe31bb3", "is_disabled": 0, "rental_uris": {"ios": "https://dc.lft.to/lastmile_qr_scan", "android": "https://dc.lft.to/lastmile_qr_scan"}, "is_reserved": 0}, {"lon": -77.02977816666667, "bike_id": "a7c496440c664e82cb1cc4a89f3628bf", "lat": 38.94743483333333, "fusion_lon": 0.0, "fusion_lat": 0.0, "type": "electric_scooter", "name": "a7c496440c664e82cb1cc4a89f3628bf", "is_disabled": 0, "rental_uris": {"ios": "https://dc.lft.to/lastmile_qr_scan", "android": "https://dc.lft.to/lastmile_qr_scan"}, "is_reserved": 0}, {"lon": -77.03402016666666, "bike_id": "7db7643dc5f792cac78ef7bf0c2d0f11", "lat": 38.934261166666666, "fusion_lon": 0.0, "fusion_lat": 0.0, "type": "electric_scooter", "name": "7db7643dc5f792cac78ef7bf0c2d0f11", "is_disabled": 0, "rental_uris": {"ios": "https://dc.lft.to/lastmile_qr_scan", "android": "https://dc.lft.to/lastmile_qr_scan"}, "is_reserved": 0}, {"lon": -77.040354, "bike_id": "0ae2a92e191fee2b08a51a647f228830", "lat": 38.904051, "fusion_lon": 0.0, "fusion_lat": 0.0, "type": "electric_scooter", "name": "0ae2a92e191fee2b08a51a647f228830", "is_disabled": 0, "rental_uris": {"ios": "https://dc.lft.to/lastmile_qr_scan", "android": "https://dc.lft.to/lastmile_qr_scan"}, "is_reserved": 0}, {"lon": -77.0558465, "bike_id": "ef3f2cf20bf3308483e6fc11ec76f090", "lat": 38.893122166666664, "fusion_lon": 0.0, "fusion_lat": 0.0, "type": "electric_scooter", "name": "ef3f2cf20bf3308483e6fc11ec76f090", "is_disabled": 0, "rental_uris": {"ios": "https://dc.lft.to/lastmile_qr_scan", "android": "https://dc.lft.to/lastmile_qr_scan"}, "is_reserved": 0}, {"lon": -77.03926933333334, "bike_id": "7f043c68dc74513a84c1bd8d484f9e52", "lat": 38.9211345, "fusion_lon": 0.0, "fusion_lat": 0.0, "type": "electric_scooter", "name": "7f043c68dc74513a84c1bd8d484f9e52", "is_disabled": 0, "rental_uris": {"ios": "https://dc.lft.to/lastmile_qr_scan", "android": "https://dc.lft.to/lastmile_qr_scan"}, "is_reserved": 0}, {"lon": -77.02992816666666, "bike_id": "654bcef8a56bd8b9c217a92bc9125f63", "lat": 38.91265633333333, "fusion_lon": 0.0, "fusion_lat": 0.0, "type": "electric_scooter", "name": "654bcef8a56bd8b9c217a92bc9125f63", "is_disabled": 0, "rental_uris": {"ios": "https://dc.lft.to/lastmile_qr_scan", "android": "https://dc.lft.to/lastmile_qr_scan"}, "is_reserved": 0}, {"lon": -76.984044, "bike_id": "5e7b79cdba33184dca38a02fdfa4e06c", "lat": 38.90630316666667, "fusion_lon": 0.0, "fusion_lat": 0.0, "type": "electric_scooter", "name": "5e7b79cdba33184dca38a02fdfa4e06c", "is_disabled": 0, "rental_uris": {"ios": "https://dc.lft.to/lastmile_qr_scan", "android": "https://dc.lft.to/lastmile_qr_scan"}, "is_reserved": 0}, {"lon": -76.9893765, "bike_id": "2e7b94f51ae7739dd0366d6d4da5982d", "lat": 38.9184105, "fusion_lon": 0.0, "fusion_lat": 0.0, "type": "electric_scooter", "name": "2e7b94f51ae7739dd0366d6d4da5982d", "is_disabled": 0, "rental_uris": {"ios": "https://dc.lft.to/lastmile_qr_scan", "android": "https://dc.lft.to/lastmile_qr_scan"}, "is_reserved": 0}, {"lon": -76.98763, "bike_id": "b51b581f8d0f604022d105939cb1aacb", "lat": 38.85769333333333, "fusion_lon": 0.0, "fusion_lat": 0.0, "type": "electric_bike", "name": "b51b581f8d0f604022d105939cb1aacb", "is_disabled": 0, "rental_uris": {"ios": "https://dc.lft.to/lastmile_qr_scan", "android": "https://dc.lft.to/lastmile_qr_scan"}, "is_reserved": 0}, {"lon": -77.03780266666666, "bike_id": "f3e741f382b6ce05f58a7e6a6b1c0712", "lat": 38.92970066666667, "fusion_lon": 0.0, "fusion_lat": 0.0, "type": "electric_scooter", "name": "f3e741f382b6ce05f58a7e6a6b1c0712", "is_disabled": 0, "rental_uris": {"ios": "https://dc.lft.to/lastmile_qr_scan", "android": "https://dc.lft.to/lastmile_qr_scan"}, "is_reserved": 0}, {"lon": -77.0257365, "bike_id": "29d8de7d65ba36ebb771ece5c8fdbd46", "lat": 38.9134005, "fusion_lon": 0.0, "fusion_lat": 0.0, "type": "electric_scooter", "name": "29d8de7d65ba36ebb771ece5c8fdbd46", "is_disabled": 0, "rental_uris": {"ios": "https://dc.lft.to/lastmile_qr_scan", "android": "https://dc.lft.to/lastmile_qr_scan"}, "is_reserved": 0}, {"lon": -77.03184666666667, "bike_id": "1680c8921b97ebdbe0dfbea45fd2620d", "lat": 38.915834333333336, "fusion_lon": 0.0, "fusion_lat": 0.0, "type": "electric_scooter", "name": "1680c8921b97ebdbe0dfbea45fd2620d", "is_disabled": 0, "rental_uris": {"ios": "https://dc.lft.to/lastmile_qr_scan", "android": "https://dc.lft.to/lastmile_qr_scan"}, "is_reserved": 0}, {"lon": -77.03697016666666, "bike_id": "bd366604036da33654eaf8d68b85089a", "lat": 38.93525783333333, "fusion_lon": 0.0, "fusion_lat": 0.0, "type": "electric_scooter", "name": "bd366604036da33654eaf8d68b85089a", "is_disabled": 0, "rental_uris": {"ios": "https://dc.lft.to/lastmile_qr_scan", "android": "https://dc.lft.to/lastmile_qr_scan"}, "is_reserved": 0}, {"lon": -77.03677366666666, "bike_id": "5dab0e2ff2cc0ed4bcc716e1472269fa", "lat": 38.932130666666666, "fusion_lon": 0.0, "fusion_lat": 0.0, "type": "electric_scooter", "name": "5dab0e2ff2cc0ed4bcc716e1472269fa", "is_disabled": 0, "rental_uris": {"ios": "https://dc.lft.to/lastmile_qr_scan", "android": "https://dc.lft.to/lastmile_qr_scan"}, "is_reserved": 0}, {"lon": -77.12736716666667, "bike_id": "1b6d737e453bb4c6d67896dff64605a1", "lat": 38.895692, "fusion_lon": 0.0, "fusion_lat": 0.0, "type": "electric_bike", "name": "1b6d737e453bb4c6d67896dff64605a1", "is_disabled": 0, "rental_uris": {"ios": "https://dc.lft.to/lastmile_qr_scan", "android": "https://dc.lft.to/lastmile_qr_scan"}, "is_reserved": 0}, {"lon": -77.01804, "bike_id": "d812e0750a580e9c7cdc6959383fa5bc", "lat": 38.9649065, "fusion_lon": 0.0, "fusion_lat": 0.0, "type": "electric_scooter", "name": "d812e0750a580e9c7cdc6959383fa5bc", "is_disabled": 0, "rental_uris": {"ios": "https://dc.lft.to/lastmile_qr_scan", "android": "https://dc.lft.to/lastmile_qr_scan"}, "is_reserved": 0}, {"lon": -76.883975, "bike_id": "907e0efa1c94d30c918e4368657cec46", "lat": 38.93170633333333, "fusion_lon": 0.0, "fusion_lat": 0.0, "type": "electric_bike", "name": "907e0efa1c94d30c918e4368657cec46", "is_disabled": 0, "rental_uris": {"ios": "https://dc.lft.to/lastmile_qr_scan", "android": "https://dc.lft.to/lastmile_qr_scan"}, "is_reserved": 0}, {"lon": -77.0465045, "bike_id": "eda92b0103226f859404e3adf04860f8", "lat": 39.05501616666667, "fusion_lon": 0.0, "fusion_lat": 0.0, "type": "electric_bike", "name": "eda92b0103226f859404e3adf04860f8", "is_disabled": 0, "rental_uris": {"ios": "https://dc.lft.to/lastmile_qr_scan", "android": "https://dc.lft.to/lastmile_qr_scan"}, "is_reserved": 0}, {"lon": -77.05587933333334, "bike_id": "11f2fff155d29bd72619ce750bc414f4", "lat": 38.93354816666667, "fusion_lon": 0.0, "fusion_lat": 0.0, "type": "electric_scooter", "name": "11f2fff155d29bd72619ce750bc414f4", "is_disabled": 0, "rental_uris": {"ios": "https://dc.lft.to/lastmile_qr_scan", "android": "https://dc.lft.to/lastmile_qr_scan"}, "is_reserved": 0}, {"lon": -77.0388015, "bike_id": "afc846aefcec2ff57010cee64b04882d", "lat": 38.948768333333334, "fusion_lon": 0.0, "fusion_lat": 0.0, "type": "electric_scooter", "name": "afc846aefcec2ff57010cee64b04882d", "is_disabled": 0, "rental_uris": {"ios": "https://dc.lft.to/lastmile_qr_scan", "android": "https://dc.lft.to/lastmile_qr_scan"}, "is_reserved": 0}, {"lon": -77.02750283333333, "bike_id": "6c5e1dc75a41b3b6ead1a1f93fd6ce7f", "lat": 38.9656785, "fusion_lon": 0.0, "fusion_lat": 0.0, "type": "electric_bike", "name": "6c5e1dc75a41b3b6ead1a1f93fd6ce7f", "is_disabled": 0, "rental_uris": {"ios": "https://dc.lft.to/lastmile_qr_scan", "android": "https://dc.lft.to/lastmile_qr_scan"}, "is_reserved": 0}, {"lon": -76.96126783333334, "bike_id": "de0dddba2aeef1e0f05b1e2c41d763db", "lat": 38.942168333333335, "fusion_lon": 0.0, "fusion_lat": 0.0, "type": "electric_bike", "name": "de0dddba2aeef1e0f05b1e2c41d763db", "is_disabled": 0, "rental_uris": {"ios": "https://dc.lft.to/lastmile_qr_scan", "android": "https://dc.lft.to/lastmile_qr_scan"}, "is_reserved": 0}, {"lon": -77.06030516666667, "bike_id": "344d4dc30f10c09e6fe7f96277004b89", "lat": 38.9336345, "fusion_lon": 0.0, "fusion_lat": 0.0, "type": "electric_scooter", "name": "344d4dc30f10c09e6fe7f96277004b89", "is_disabled": 0, "rental_uris": {"ios": "https://dc.lft.to/lastmile_qr_scan", "android": "https://dc.lft.to/lastmile_qr_scan"}, "is_reserved": 0}, {"lon": -76.95652, "bike_id": "995edd1478e6d17f07bb9ecb8669b103", "lat": 38.89623316666667, "fusion_lon": 0.0, "fusion_lat": 0.0, "type": "electric_scooter", "name": "995edd1478e6d17f07bb9ecb8669b103", "is_disabled": 0, "rental_uris": {"ios": "https://dc.lft.to/lastmile_qr_scan", "android": "https://dc.lft.to/lastmile_qr_scan"}, "is_reserved": 0}, {"lon": -77.03154933333333, "bike_id": "39114eaad6b000e04a3d7ddea5368ab9", "lat": 38.928580833333335, "fusion_lon": 0.0, "fusion_lat": 0.0, "type": "electric_scooter", "name": "39114eaad6b000e04a3d7ddea5368ab9", "is_disabled": 0, "rental_uris": {"ios": "https://dc.lft.to/lastmile_qr_scan", "android": "https://dc.lft.to/lastmile_qr_scan"}, "is_reserved": 0}, {"lon": -77.03261383333333, "bike_id": "f1aa0ba3fd4e918540bc65ddab6ff5b3", "lat": 38.937266, "fusion_lon": 0.0, "fusion_lat": 0.0, "type": "electric_scooter", "name": "f1aa0ba3fd4e918540bc65ddab6ff5b3", "is_disabled": 0, "rental_uris": {"ios": "https://dc.lft.to/lastmile_qr_scan", "android": "https://dc.lft.to/lastmile_qr_scan"}, "is_reserved": 0}, {"lon": -76.9808245, "bike_id": "19c08a581039e11209fed882780cc056", "lat": 38.907100166666666, "fusion_lon": 0.0, "fusion_lat": 0.0, "type": "electric_scooter", "name": "19c08a581039e11209fed882780cc056", "is_disabled": 0, "rental_uris": {"ios": "https://dc.lft.to/lastmile_qr_scan", "android": "https://dc.lft.to/lastmile_qr_scan"}, "is_reserved": 0}, {"lon": -77.0332645, "bike_id": "903503ffb2370f22cf581dfe855d23c5", "lat": 38.91568766666666, "fusion_lon": 0.0, "fusion_lat": 0.0, "type": "electric_scooter", "name": "903503ffb2370f22cf581dfe855d23c5", "is_disabled": 0, "rental_uris": {"ios": "https://dc.lft.to/lastmile_qr_scan", "android": "https://dc.lft.to/lastmile_qr_scan"}, "is_reserved": 0}, {"lon": -76.99000333333333, "bike_id": "5b593b1bb6a7398bf9d316a2c364b7bf", "lat": 38.865123833333335, "fusion_lon": 0.0, "fusion_lat": 0.0, "type": "electric_scooter", "name": "5b593b1bb6a7398bf9d316a2c364b7bf", "is_disabled": 0, "rental_uris": {"ios": "https://dc.lft.to/lastmile_qr_scan", "android": "https://dc.lft.to/lastmile_qr_scan"}, "is_reserved": 0}, {"lon": -77.00329283333333, "bike_id": "3baac8ed46295fb9a0991c3d4914a74c", "lat": 38.897318, "fusion_lon": 0.0, "fusion_lat": 0.0, "type": "electric_scooter", "name": "3baac8ed46295fb9a0991c3d4914a74c", "is_disabled": 0, "rental_uris": {"ios": "https://dc.lft.to/lastmile_qr_scan", "android": "https://dc.lft.to/lastmile_qr_scan"}, "is_reserved": 0}, {"lon": -77.02807333333334, "bike_id": "bfad1a9be35622e89d6ddfbb613d1c2d", "lat": 38.93085216666667, "fusion_lon": 0.0, "fusion_lat": 0.0, "type": "electric_scooter", "name": "bfad1a9be35622e89d6ddfbb613d1c2d", "is_disabled": 0, "rental_uris": {"ios": "https://dc.lft.to/lastmile_qr_scan", "android": "https://dc.lft.to/lastmile_qr_scan"}, "is_reserved": 0}, {"lon": -77.0052145, "bike_id": "4244a8c549f45332f776a5eecaadcc09", "lat": 38.875471166666664, "fusion_lon": 0.0, "fusion_lat": 0.0, "type": "electric_scooter", "name": "4244a8c549f45332f776a5eecaadcc09", "is_disabled": 0, "rental_uris": {"ios": "https://dc.lft.to/lastmile_qr_scan", "android": "https://dc.lft.to/lastmile_qr_scan"}, "is_reserved": 0}, {"lon": -77.0275275, "bike_id": "a44dfd0b602611738281ee8e01bf2691", "lat": 38.95434266666667, "fusion_lon": 0.0, "fusion_lat": 0.0, "type": "electric_scooter", "name": "a44dfd0b602611738281ee8e01bf2691", "is_disabled": 0, "rental_uris": {"ios": "https://dc.lft.to/lastmile_qr_scan", "android": "https://dc.lft.to/lastmile_qr_scan"}, "is_reserved": 0}, {"lon": -77.06830816666667, "bike_id": "2c6e8fa872efe8ef8c6efdc949ae84fb", "lat": 38.805676166666665, "fusion_lon": 0.0, "fusion_lat": 0.0, "type": "electric_bike", "name": "2c6e8fa872efe8ef8c6efdc949ae84fb", "is_disabled": 0, "rental_uris": {"ios": "https://dc.lft.to/lastmile_qr_scan", "android": "https://dc.lft.to/lastmile_qr_scan"}, "is_reserved": 0}, {"lon": -77.05234166666666, "bike_id": "8eacc647434faccf4d0d5a1bd3416914", "lat": 38.923450333333335, "fusion_lon": 0.0, "fusion_lat": 0.0, "type": "electric_scooter", "name": "8eacc647434faccf4d0d5a1bd3416914", "is_disabled": 0, "rental_uris": {"ios": "https://dc.lft.to/lastmile_qr_scan", "android": "https://dc.lft.to/lastmile_qr_scan"}, "is_reserved": 0}, {"lon": -76.98683583333333, "bike_id": "f6a6285be1e0307b4a2e0625e8bf7972", "lat": 38.9129045, "fusion_lon": 0.0, "fusion_lat": 0.0, "type": "electric_bike", "name": "f6a6285be1e0307b4a2e0625e8bf7972", "is_disabled": 0, "rental_uris": {"ios": "https://dc.lft.to/lastmile_qr_scan", "android": "https://dc.lft.to/lastmile_qr_scan"}, "is_reserved": 0}, {"lon": -76.96525733333333, "bike_id": "907df1daa8d6db0feae87a15cf032e6f", "lat": 38.87633266666667, "fusion_lon": 0.0, "fusion_lat": 0.0, "type": "electric_scooter", "name": "907df1daa8d6db0feae87a15cf032e6f", "is_disabled": 0, "rental_uris": {"ios": "https://dc.lft.to/lastmile_qr_scan", "android": "https://dc.lft.to/lastmile_qr_scan"}, "is_reserved": 0}, {"lon": -77.03518533333333, "bike_id": "c6bc7917286de72f650253159585827f", "lat": 38.927192, "fusion_lon": 0.0, "fusion_lat": 0.0, "type": "electric_scooter", "name": "c6bc7917286de72f650253159585827f", "is_disabled": 0, "rental_uris": {"ios": "https://dc.lft.to/lastmile_qr_scan", "android": "https://dc.lft.to/lastmile_qr_scan"}, "is_reserved": 0}, {"lon": -77.036299, "bike_id": "32e78875ed66add908bea274ac227f24", "lat": 38.944984166666664, "fusion_lon": 0.0, "fusion_lat": 0.0, "type": "electric_scooter", "name": "32e78875ed66add908bea274ac227f24", "is_disabled": 0, "rental_uris": {"ios": "https://dc.lft.to/lastmile_qr_scan", "android": "https://dc.lft.to/lastmile_qr_scan"}, "is_reserved": 0}, {"lon": -77.0395245, "bike_id": "29a8e8fe626224fe6ca269d9630b3b43", "lat": 38.91568083333333, "fusion_lon": 0.0, "fusion_lat": 0.0, "type": "electric_scooter", "name": "29a8e8fe626224fe6ca269d9630b3b43", "is_disabled": 0, "rental_uris": {"ios": "https://dc.lft.to/lastmile_qr_scan", "android": "https://dc.lft.to/lastmile_qr_scan"}, "is_reserved": 0}, {"lon": -76.97544816666667, "bike_id": "d61baacd8710080d39bf58bf06d083be", "lat": 38.90323883333333, "fusion_lon": 0.0, "fusion_lat": 0.0, "type": "electric_scooter", "name": "d61baacd8710080d39bf58bf06d083be", "is_disabled": 0, "rental_uris": {"ios": "https://dc.lft.to/lastmile_qr_scan", "android": "https://dc.lft.to/lastmile_qr_scan"}, "is_reserved": 0}, {"lon": -77.01994516666667, "bike_id": "57effc397ea80a1897e0c3aa2f9e4222", "lat": 38.901521333333335, "fusion_lon": 0.0, "fusion_lat": 0.0, "type": "electric_scooter", "name": "57effc397ea80a1897e0c3aa2f9e4222", "is_disabled": 0, "rental_uris": {"ios": "https://dc.lft.to/lastmile_qr_scan", "android": "https://dc.lft.to/lastmile_qr_scan"}, "is_reserved": 0}, {"lon": -77.02978533333334, "bike_id": "0e613cb7ff94a23c7094ee42fc73fcc6", "lat": 38.939387333333336, "fusion_lon": 0.0, "fusion_lat": 0.0, "type": "electric_scooter", "name": "0e613cb7ff94a23c7094ee42fc73fcc6", "is_disabled": 0, "rental_uris": {"ios": "https://dc.lft.to/lastmile_qr_scan", "android": "https://dc.lft.to/lastmile_qr_scan"}, "is_reserved": 0}, {"lon": -77.0337945, "bike_id": "b54c282db22fd6fb245fb37b308b3f5c", "lat": 38.9216395, "fusion_lon": 0.0, "fusion_lat": 0.0, "type": "electric_scooter", "name": "b54c282db22fd6fb245fb37b308b3f5c", "is_disabled": 0, "rental_uris": {"ios": "https://dc.lft.to/lastmile_qr_scan", "android": "https://dc.lft.to/lastmile_qr_scan"}, "is_reserved": 0}, {"lon": -77.03788266666666, "bike_id": "e8e146936c001f12e0679c7909e115ce", "lat": 38.92570666666667, "fusion_lon": 0.0, "fusion_lat": 0.0, "type": "electric_scooter", "name": "e8e146936c001f12e0679c7909e115ce", "is_disabled": 0, "rental_uris": {"ios": "https://dc.lft.to/lastmile_qr_scan", "android": "https://dc.lft.to/lastmile_qr_scan"}, "is_reserved": 0}, {"lon": -77.0296725, "bike_id": "92cb56e7d26d3d29ca00790645263d5f", "lat": 38.914586, "fusion_lon": 0.0, "fusion_lat": 0.0, "type": "electric_scooter", "name": "92cb56e7d26d3d29ca00790645263d5f", "is_disabled": 0, "rental_uris": {"ios": "https://dc.lft.to/lastmile_qr_scan", "android": "https://dc.lft.to/lastmile_qr_scan"}, "is_reserved": 0}, {"lon": -77.02179966666667, "bike_id": "1ebf2ccceb08b2cc1a5edd4b1c1b7195", "lat": 38.914847, "fusion_lon": 0.0, "fusion_lat": 0.0, "type": "electric_scooter", "name": "1ebf2ccceb08b2cc1a5edd4b1c1b7195", "is_disabled": 0, "rental_uris": {"ios": "https://dc.lft.to/lastmile_qr_scan", "android": "https://dc.lft.to/lastmile_qr_scan"}, "is_reserved": 0}, {"lon": -76.9873805, "bike_id": "252269b17012700877faf7ca4ab8479f", "lat": 38.86580716666667, "fusion_lon": 0.0, "fusion_lat": 0.0, "type": "electric_bike", "name": "252269b17012700877faf7ca4ab8479f", "is_disabled": 0, "rental_uris": {"ios": "https://dc.lft.to/lastmile_qr_scan", "android": "https://dc.lft.to/lastmile_qr_scan"}, "is_reserved": 0}, {"lon": -76.941572, "bike_id": "9375e86abb04c8f82c8e1eb2df4ca46f", "lat": 38.9083165, "fusion_lon": 0.0, "fusion_lat": 0.0, "type": "electric_bike", "name": "9375e86abb04c8f82c8e1eb2df4ca46f", "is_disabled": 0, "rental_uris": {"ios": "https://dc.lft.to/lastmile_qr_scan", "android": "https://dc.lft.to/lastmile_qr_scan"}, "is_reserved": 0}, {"lon": -77.06413116666667, "bike_id": "83d404892e5d33cde46dbc5634681db7", "lat": 38.993314833333336, "fusion_lon": 0.0, "fusion_lat": 0.0, "type": "electric_scooter", "name": "83d404892e5d33cde46dbc5634681db7", "is_disabled": 0, "rental_uris": {"ios": "https://dc.lft.to/lastmile_qr_scan", "android": "https://dc.lft.to/lastmile_qr_scan"}, "is_reserved": 0}, {"lon": -77.01788666666667, "bike_id": "88cb683e2e684d3cf09374f2695fdffe", "lat": 38.905196833333335, "fusion_lon": 0.0, "fusion_lat": 0.0, "type": "electric_scooter", "name": "88cb683e2e684d3cf09374f2695fdffe", "is_disabled": 0, "rental_uris": {"ios": "https://dc.lft.to/lastmile_qr_scan", "android": "https://dc.lft.to/lastmile_qr_scan"}, "is_reserved": 0}, {"lon": -76.98377916666666, "bike_id": "05afae1efa7d87ec09dfb542d8b1513a", "lat": 38.89606416666667, "fusion_lon": 0.0, "fusion_lat": 0.0, "type": "electric_scooter", "name": "05afae1efa7d87ec09dfb542d8b1513a", "is_disabled": 0, "rental_uris": {"ios": "https://dc.lft.to/lastmile_qr_scan", "android": "https://dc.lft.to/lastmile_qr_scan"}, "is_reserved": 0}, {"lon": -77.02165733333334, "bike_id": "1d75ecf3ab23db51401ca9610faca870", "lat": 38.92997116666667, "fusion_lon": 0.0, "fusion_lat": 0.0, "type": "electric_scooter", "name": "1d75ecf3ab23db51401ca9610faca870", "is_disabled": 0, "rental_uris": {"ios": "https://dc.lft.to/lastmile_qr_scan", "android": "https://dc.lft.to/lastmile_qr_scan"}, "is_reserved": 0}, {"lon": -77.0354855, "bike_id": "0af96eaddc63eeb4bb2221ba22b53052", "lat": 38.92579033333333, "fusion_lon": 0.0, "fusion_lat": 0.0, "type": "electric_scooter", "name": "0af96eaddc63eeb4bb2221ba22b53052", "is_disabled": 0, "rental_uris": {"ios": "https://dc.lft.to/lastmile_qr_scan", "android": "https://dc.lft.to/lastmile_qr_scan"}, "is_reserved": 0}, {"lon": -77.03263316666667, "bike_id": "78a9e94c87f04eaba682510201f15dde", "lat": 38.93775633333333, "fusion_lon": 0.0, "fusion_lat": 0.0, "type": "electric_scooter", "name": "78a9e94c87f04eaba682510201f15dde", "is_disabled": 0, "rental_uris": {"ios": "https://dc.lft.to/lastmile_qr_scan", "android": "https://dc.lft.to/lastmile_qr_scan"}, "is_reserved": 0}, {"lon": -77.04228266666667, "bike_id": "34af11c43fff90bd0f9e0f936b0555ad", "lat": 38.91354616666667, "fusion_lon": 0.0, "fusion_lat": 0.0, "type": "electric_scooter", "name": "34af11c43fff90bd0f9e0f936b0555ad", "is_disabled": 0, "rental_uris": {"ios": "https://dc.lft.to/lastmile_qr_scan", "android": "https://dc.lft.to/lastmile_qr_scan"}, "is_reserved": 0}, {"lon": -77.04173283333333, "bike_id": "8f9df75a4d4f76481b95f2b5692350e6", "lat": 38.90668433333333, "fusion_lon": 0.0, "fusion_lat": 0.0, "type": "electric_scooter", "name": "8f9df75a4d4f76481b95f2b5692350e6", "is_disabled": 0, "rental_uris": {"ios": "https://dc.lft.to/lastmile_qr_scan", "android": "https://dc.lft.to/lastmile_qr_scan"}, "is_reserved": 0}, {"lon": -77.035726, "bike_id": "a1ffb660123413bc3565d38d516cd749", "lat": 38.91052716666667, "fusion_lon": 0.0, "fusion_lat": 0.0, "type": "electric_scooter", "name": "a1ffb660123413bc3565d38d516cd749", "is_disabled": 0, "rental_uris": {"ios": "https://dc.lft.to/lastmile_qr_scan", "android": "https://dc.lft.to/lastmile_qr_scan"}, "is_reserved": 0}, {"lon": -77.03324483333333, "bike_id": "80f1d730c0090b2a8290f2d94121877b", "lat": 38.94718866666667, "fusion_lon": 0.0, "fusion_lat": 0.0, "type": "electric_scooter", "name": "80f1d730c0090b2a8290f2d94121877b", "is_disabled": 0, "rental_uris": {"ios": "https://dc.lft.to/lastmile_qr_scan", "android": "https://dc.lft.to/lastmile_qr_scan"}, "is_reserved": 0}, {"lon": -76.9928855, "bike_id": "c17bfd5f5f6abd98e5b0bca821eee7bf", "lat": 38.89889733333333, "fusion_lon": 0.0, "fusion_lat": 0.0, "type": "electric_scooter", "name": "c17bfd5f5f6abd98e5b0bca821eee7bf", "is_disabled": 0, "rental_uris": {"ios": "https://dc.lft.to/lastmile_qr_scan", "android": "https://dc.lft.to/lastmile_qr_scan"}, "is_reserved": 0}, {"lon": -77.02745283333333, "bike_id": "815d7fd8dba66f9ff5b839a120163d08", "lat": 38.93333666666667, "fusion_lon": 0.0, "fusion_lat": 0.0, "type": "electric_scooter", "name": "815d7fd8dba66f9ff5b839a120163d08", "is_disabled": 0, "rental_uris": {"ios": "https://dc.lft.to/lastmile_qr_scan", "android": "https://dc.lft.to/lastmile_qr_scan"}, "is_reserved": 0}, {"lon": -77.03758266666667, "bike_id": "ef91346196eeb78ab4cdb0e07bb3cef2", "lat": 38.92013766666667, "fusion_lon": 0.0, "fusion_lat": 0.0, "type": "electric_scooter", "name": "ef91346196eeb78ab4cdb0e07bb3cef2", "is_disabled": 0, "rental_uris": {"ios": "https://dc.lft.to/lastmile_qr_scan", "android": "https://dc.lft.to/lastmile_qr_scan"}, "is_reserved": 0}, {"lon": -77.03262566666666, "bike_id": "e3a185bec6d65ef1717b709f3b56c9b0", "lat": 38.93237, "fusion_lon": 0.0, "fusion_lat": 0.0, "type": "electric_scooter", "name": "e3a185bec6d65ef1717b709f3b56c9b0", "is_disabled": 0, "rental_uris": {"ios": "https://dc.lft.to/lastmile_qr_scan", "android": "https://dc.lft.to/lastmile_qr_scan"}, "is_reserved": 0}, {"lon": -77.00013683333333, "bike_id": "ee8dc3ab3fd75f4cae974a9bd2c6f12d", "lat": 38.9197875, "fusion_lon": 0.0, "fusion_lat": 0.0, "type": "electric_scooter", "name": "ee8dc3ab3fd75f4cae974a9bd2c6f12d", "is_disabled": 0, "rental_uris": {"ios": "https://dc.lft.to/lastmile_qr_scan", "android": "https://dc.lft.to/lastmile_qr_scan"}, "is_reserved": 0}, {"lon": -77.020293, "bike_id": "435b0e1d8eed9f2330dee6a40aeb3ba7", "lat": 38.92445933333333, "fusion_lon": 0.0, "fusion_lat": 0.0, "type": "electric_scooter", "name": "435b0e1d8eed9f2330dee6a40aeb3ba7", "is_disabled": 0, "rental_uris": {"ios": "https://dc.lft.to/lastmile_qr_scan", "android": "https://dc.lft.to/lastmile_qr_scan"}, "is_reserved": 0}, {"lon": -77.02188883333334, "bike_id": "94e6171a9d9894ae284c9285bc35ee55", "lat": 38.90038883333333, "fusion_lon": 0.0, "fusion_lat": 0.0, "type": "electric_scooter", "name": "94e6171a9d9894ae284c9285bc35ee55", "is_disabled": 0, "rental_uris": {"ios": "https://dc.lft.to/lastmile_qr_scan", "android": "https://dc.lft.to/lastmile_qr_scan"}, "is_reserved": 0}, {"lon": -77.07329416666667, "bike_id": "b98cd6db81c91aabbbe789605bebde80", "lat": 38.924049833333335, "fusion_lon": 0.0, "fusion_lat": 0.0, "type": "electric_scooter", "name": "b98cd6db81c91aabbbe789605bebde80", "is_disabled": 0, "rental_uris": {"ios": "https://dc.lft.to/lastmile_qr_scan", "android": "https://dc.lft.to/lastmile_qr_scan"}, "is_reserved": 0}, {"lon": -76.98712716666667, "bike_id": "98da4ec9669b7b91b17c4da3b4d8aec3", "lat": 38.866308833333335, "fusion_lon": 0.0, "fusion_lat": 0.0, "type": "electric_scooter", "name": "98da4ec9669b7b91b17c4da3b4d8aec3", "is_disabled": 0, "rental_uris": {"ios": "https://dc.lft.to/lastmile_qr_scan", "android": "https://dc.lft.to/lastmile_qr_scan"}, "is_reserved": 0}, {"lon": -77.01388033333333, "bike_id": "f829fffc9acf07cc20f682f6d0042442", "lat": 38.886793, "fusion_lon": 0.0, "fusion_lat": 0.0, "type": "electric_scooter", "name": "f829fffc9acf07cc20f682f6d0042442", "is_disabled": 0, "rental_uris": {"ios": "https://dc.lft.to/lastmile_qr_scan", "android": "https://dc.lft.to/lastmile_qr_scan"}, "is_reserved": 0}, {"lon": -77.07431083333333, "bike_id": "32654f6a2c293af37eb624fd4122e93a", "lat": 38.99949616666667, "fusion_lon": 0.0, "fusion_lat": 0.0, "type": "electric_bike", "name": "32654f6a2c293af37eb624fd4122e93a", "is_disabled": 0, "rental_uris": {"ios": "https://dc.lft.to/lastmile_qr_scan", "android": "https://dc.lft.to/lastmile_qr_scan"}, "is_reserved": 0}, {"lon": -77.00975866666667, "bike_id": "a0f5ffd808c6dc0349ca87c6462b2dd6", "lat": 38.89489966666667, "fusion_lon": 0.0, "fusion_lat": 0.0, "type": "electric_scooter", "name": "a0f5ffd808c6dc0349ca87c6462b2dd6", "is_disabled": 0, "rental_uris": {"ios": "https://dc.lft.to/lastmile_qr_scan", "android": "https://dc.lft.to/lastmile_qr_scan"}, "is_reserved": 0}, {"lon": -77.03325016666666, "bike_id": "47a388d28efcb41b213d019752fe4642", "lat": 38.919789333333334, "fusion_lon": 0.0, "fusion_lat": 0.0, "type": "electric_scooter", "name": "47a388d28efcb41b213d019752fe4642", "is_disabled": 0, "rental_uris": {"ios": "https://dc.lft.to/lastmile_qr_scan", "android": "https://dc.lft.to/lastmile_qr_scan"}, "is_reserved": 0}, {"lon": -77.02191816666667, "bike_id": "bd9662c6b6008ed411989ed7c27cf32b", "lat": 38.9070155, "fusion_lon": 0.0, "fusion_lat": 0.0, "type": "electric_bike", "name": "bd9662c6b6008ed411989ed7c27cf32b", "is_disabled": 0, "rental_uris": {"ios": "https://dc.lft.to/lastmile_qr_scan", "android": "https://dc.lft.to/lastmile_qr_scan"}, "is_reserved": 0}, {"lon": -76.98346683333334, "bike_id": "6a0185a2cfbc9ab58ca5e844bd2aa3f5", "lat": 38.90457083333333, "fusion_lon": 0.0, "fusion_lat": 0.0, "type": "electric_scooter", "name": "6a0185a2cfbc9ab58ca5e844bd2aa3f5", "is_disabled": 0, "rental_uris": {"ios": "https://dc.lft.to/lastmile_qr_scan", "android": "https://dc.lft.to/lastmile_qr_scan"}, "is_reserved": 0}, {"lon": -77.04017066666667, "bike_id": "fb9b38c834d5c3679136e802ed9e7604", "lat": 38.9239455, "fusion_lon": 0.0, "fusion_lat": 0.0, "type": "electric_scooter", "name": "fb9b38c834d5c3679136e802ed9e7604", "is_disabled": 0, "rental_uris": {"ios": "https://dc.lft.to/lastmile_qr_scan", "android": "https://dc.lft.to/lastmile_qr_scan"}, "is_reserved": 0}, {"lon": -77.0585765, "bike_id": "9363b81d083d3ce2831ab62330ab35cb", "lat": 38.936032166666664, "fusion_lon": 0.0, "fusion_lat": 0.0, "type": "electric_scooter", "name": "9363b81d083d3ce2831ab62330ab35cb", "is_disabled": 0, "rental_uris": {"ios": "https://dc.lft.to/lastmile_qr_scan", "android": "https://dc.lft.to/lastmile_qr_scan"}, "is_reserved": 0}, {"lon": -76.94921183333334, "bike_id": "732ede5fc3211785b3e495ca6d924730", "lat": 38.89359316666667, "fusion_lon": 0.0, "fusion_lat": 0.0, "type": "electric_scooter", "name": "732ede5fc3211785b3e495ca6d924730", "is_disabled": 0, "rental_uris": {"ios": "https://dc.lft.to/lastmile_qr_scan", "android": "https://dc.lft.to/lastmile_qr_scan"}, "is_reserved": 0}, {"lon": -77.00536, "bike_id": "a7fa02949ad82101a160b276fff5db9d", "lat": 38.87552, "fusion_lon": 0.0, "fusion_lat": 0.0, "type": "electric_scooter", "name": "a7fa02949ad82101a160b276fff5db9d", "is_disabled": 0, "rental_uris": {"ios": "https://dc.lft.to/lastmile_qr_scan", "android": "https://dc.lft.to/lastmile_qr_scan"}, "is_reserved": 0}, {"lon": -76.932784, "bike_id": "47180f26414761e84c66fd3e8727652c", "lat": 38.954258, "fusion_lon": 0.0, "fusion_lat": 0.0, "type": "electric_bike", "name": "47180f26414761e84c66fd3e8727652c", "is_disabled": 0, "rental_uris": {"ios": "https://dc.lft.to/lastmile_qr_scan", "android": "https://dc.lft.to/lastmile_qr_scan"}, "is_reserved": 0}, {"lon": -77.03140233333333, "bike_id": "3671fd9499e2fdcbb88f6c8aca1c8a04", "lat": 38.915638666666666, "fusion_lon": 0.0, "fusion_lat": 0.0, "type": "electric_scooter", "name": "3671fd9499e2fdcbb88f6c8aca1c8a04", "is_disabled": 0, "rental_uris": {"ios": "https://dc.lft.to/lastmile_qr_scan", "android": "https://dc.lft.to/lastmile_qr_scan"}, "is_reserved": 0}, {"lon": -77.0363735, "bike_id": "6a0a99df03791ea92ea2ff3e97ee5873", "lat": 38.9155675, "fusion_lon": 0.0, "fusion_lat": 0.0, "type": "electric_scooter", "name": "6a0a99df03791ea92ea2ff3e97ee5873", "is_disabled": 0, "rental_uris": {"ios": "https://dc.lft.to/lastmile_qr_scan", "android": "https://dc.lft.to/lastmile_qr_scan"}, "is_reserved": 0}, {"lon": -77.00563766666667, "bike_id": "39482264941e010a75ff950b57d4427f", "lat": 38.874412666666665, "fusion_lon": 0.0, "fusion_lat": 0.0, "type": "electric_scooter", "name": "39482264941e010a75ff950b57d4427f", "is_disabled": 0, "rental_uris": {"ios": "https://dc.lft.to/lastmile_qr_scan", "android": "https://dc.lft.to/lastmile_qr_scan"}, "is_reserved": 0}, {"lon": -77.02226366666666, "bike_id": "f08ff169efd4e67528f55437f4838f93", "lat": 38.95691633333333, "fusion_lon": 0.0, "fusion_lat": 0.0, "type": "electric_bike", "name": "f08ff169efd4e67528f55437f4838f93", "is_disabled": 0, "rental_uris": {"ios": "https://dc.lft.to/lastmile_qr_scan", "android": "https://dc.lft.to/lastmile_qr_scan"}, "is_reserved": 0}, {"lon": -77.07257966666667, "bike_id": "ce78800b7e7ebf1e2e4ceb6b5af06ba1", "lat": 38.934414333333336, "fusion_lon": 0.0, "fusion_lat": 0.0, "type": "electric_scooter", "name": "ce78800b7e7ebf1e2e4ceb6b5af06ba1", "is_disabled": 0, "rental_uris": {"ios": "https://dc.lft.to/lastmile_qr_scan", "android": "https://dc.lft.to/lastmile_qr_scan"}, "is_reserved": 0}, {"lon": -77.02383283333333, "bike_id": "eff66ad01b49af493cb8e9853394cec5", "lat": 38.906387, "fusion_lon": 0.0, "fusion_lat": 0.0, "type": "electric_scooter", "name": "eff66ad01b49af493cb8e9853394cec5", "is_disabled": 0, "rental_uris": {"ios": "https://dc.lft.to/lastmile_qr_scan", "android": "https://dc.lft.to/lastmile_qr_scan"}, "is_reserved": 0}, {"lon": -77.01756783333333, "bike_id": "b931f35ffc80fb7f6dd0892c7a3a5248", "lat": 38.903662, "fusion_lon": 0.0, "fusion_lat": 0.0, "type": "electric_scooter", "name": "b931f35ffc80fb7f6dd0892c7a3a5248", "is_disabled": 0, "rental_uris": {"ios": "https://dc.lft.to/lastmile_qr_scan", "android": "https://dc.lft.to/lastmile_qr_scan"}, "is_reserved": 0}, {"lon": -77.04326583333334, "bike_id": "657d536b8994cf9eaff0be9eaee7d418", "lat": 38.91875483333333, "fusion_lon": 0.0, "fusion_lat": 0.0, "type": "electric_scooter", "name": "657d536b8994cf9eaff0be9eaee7d418", "is_disabled": 0, "rental_uris": {"ios": "https://dc.lft.to/lastmile_qr_scan", "android": "https://dc.lft.to/lastmile_qr_scan"}, "is_reserved": 0}, {"lon": -76.99671383333333, "bike_id": "278d9c96ed6efb36d723dc5a5d8a53ba", "lat": 38.924874833333334, "fusion_lon": 0.0, "fusion_lat": 0.0, "type": "electric_bike", "name": "278d9c96ed6efb36d723dc5a5d8a53ba", "is_disabled": 0, "rental_uris": {"ios": "https://dc.lft.to/lastmile_qr_scan", "android": "https://dc.lft.to/lastmile_qr_scan"}, "is_reserved": 0}, {"lon": -77.01638733333333, "bike_id": "e9296ce554e870a18df950f386ee31ef", "lat": 38.899211, "fusion_lon": 0.0, "fusion_lat": 0.0, "type": "electric_scooter", "name": "e9296ce554e870a18df950f386ee31ef", "is_disabled": 0, "rental_uris": {"ios": "https://dc.lft.to/lastmile_qr_scan", "android": "https://dc.lft.to/lastmile_qr_scan"}, "is_reserved": 0}, {"lon": -77.03213033333333, "bike_id": "6b84b0258e481abf95e3f4268ed93647", "lat": 38.936197, "fusion_lon": 0.0, "fusion_lat": 0.0, "type": "electric_scooter", "name": "6b84b0258e481abf95e3f4268ed93647", "is_disabled": 0, "rental_uris": {"ios": "https://dc.lft.to/lastmile_qr_scan", "android": "https://dc.lft.to/lastmile_qr_scan"}, "is_reserved": 0}, {"lon": -77.02216016666667, "bike_id": "4612c96edee05568104b6e2d42d52282", "lat": 38.92090916666667, "fusion_lon": 0.0, "fusion_lat": 0.0, "type": "electric_scooter", "name": "4612c96edee05568104b6e2d42d52282", "is_disabled": 0, "rental_uris": {"ios": "https://dc.lft.to/lastmile_qr_scan", "android": "https://dc.lft.to/lastmile_qr_scan"}, "is_reserved": 0}, {"lon": -77.0241345, "bike_id": "80443fe87adf3f4b44168909ade911f9", "lat": 38.896987833333334, "fusion_lon": 0.0, "fusion_lat": 0.0, "type": "electric_bike", "name": "80443fe87adf3f4b44168909ade911f9", "is_disabled": 0, "rental_uris": {"ios": "https://dc.lft.to/lastmile_qr_scan", "android": "https://dc.lft.to/lastmile_qr_scan"}, "is_reserved": 0}, {"lon": -77.0172495, "bike_id": "3446ae8f02a5e9db19adbc8814693639", "lat": 38.87298233333333, "fusion_lon": 0.0, "fusion_lat": 0.0, "type": "electric_scooter", "name": "3446ae8f02a5e9db19adbc8814693639", "is_disabled": 0, "rental_uris": {"ios": "https://dc.lft.to/lastmile_qr_scan", "android": "https://dc.lft.to/lastmile_qr_scan"}, "is_reserved": 0}, {"lon": -76.983471, "bike_id": "8ba7dde5e936e16746289a4158b2486f", "lat": 38.9155855, "fusion_lon": 0.0, "fusion_lat": 0.0, "type": "electric_bike", "name": "8ba7dde5e936e16746289a4158b2486f", "is_disabled": 0, "rental_uris": {"ios": "https://dc.lft.to/lastmile_qr_scan", "android": "https://dc.lft.to/lastmile_qr_scan"}, "is_reserved": 0}, {"lon": -77.02838816666667, "bike_id": "390b687e98862508ed899c51ca7738cf", "lat": 38.92585283333333, "fusion_lon": 0.0, "fusion_lat": 0.0, "type": "electric_scooter", "name": "390b687e98862508ed899c51ca7738cf", "is_disabled": 0, "rental_uris": {"ios": "https://dc.lft.to/lastmile_qr_scan", "android": "https://dc.lft.to/lastmile_qr_scan"}, "is_reserved": 0}, {"lon": -77.0312005, "bike_id": "71f034c35f339518e8b9895ba93f986c", "lat": 38.91498766666667, "fusion_lon": 0.0, "fusion_lat": 0.0, "type": "electric_scooter", "name": "71f034c35f339518e8b9895ba93f986c", "is_disabled": 0, "rental_uris": {"ios": "https://dc.lft.to/lastmile_qr_scan", "android": "https://dc.lft.to/lastmile_qr_scan"}, "is_reserved": 0}, {"lon": -77.02799666666667, "bike_id": "99bcab4fd6584d4dc04dc04b1c672e89", "lat": 38.911019, "fusion_lon": 0.0, "fusion_lat": 0.0, "type": "electric_scooter", "name": "99bcab4fd6584d4dc04dc04b1c672e89", "is_disabled": 0, "rental_uris": {"ios": "https://dc.lft.to/lastmile_qr_scan", "android": "https://dc.lft.to/lastmile_qr_scan"}, "is_reserved": 0}, {"lon": -77.02828283333334, "bike_id": "cb8fabab88869a1c7714899211fc024d", "lat": 38.93468033333333, "fusion_lon": 0.0, "fusion_lat": 0.0, "type": "electric_scooter", "name": "cb8fabab88869a1c7714899211fc024d", "is_disabled": 0, "rental_uris": {"ios": "https://dc.lft.to/lastmile_qr_scan", "android": "https://dc.lft.to/lastmile_qr_scan"}, "is_reserved": 0}, {"lon": -76.94947, "bike_id": "d58794e1a16f1c81bc528a464e3ba4ad", "lat": 38.904986666666666, "fusion_lon": 0.0, "fusion_lat": 0.0, "type": "electric_scooter", "name": "d58794e1a16f1c81bc528a464e3ba4ad", "is_disabled": 0, "rental_uris": {"ios": "https://dc.lft.to/lastmile_qr_scan", "android": "https://dc.lft.to/lastmile_qr_scan"}, "is_reserved": 0}, {"lon": -77.00918666666666, "bike_id": "f60c2cd2fc5f54c5194c43714d57250b", "lat": 38.91103616666667, "fusion_lon": 0.0, "fusion_lat": 0.0, "type": "electric_scooter", "name": "f60c2cd2fc5f54c5194c43714d57250b", "is_disabled": 0, "rental_uris": {"ios": "https://dc.lft.to/lastmile_qr_scan", "android": "https://dc.lft.to/lastmile_qr_scan"}, "is_reserved": 0}, {"lon": -77.02920383333333, "bike_id": "6b39fa1eadfeeaa71edfda1fa40fda7a", "lat": 38.93461416666667, "fusion_lon": 0.0, "fusion_lat": 0.0, "type": "electric_scooter", "name": "6b39fa1eadfeeaa71edfda1fa40fda7a", "is_disabled": 0, "rental_uris": {"ios": "https://dc.lft.to/lastmile_qr_scan", "android": "https://dc.lft.to/lastmile_qr_scan"}, "is_reserved": 0}, {"lon": -76.95753366666666, "bike_id": "f1581812708d477bdf370b8569ec6289", "lat": 38.88432366666667, "fusion_lon": 0.0, "fusion_lat": 0.0, "type": "electric_scooter", "name": "f1581812708d477bdf370b8569ec6289", "is_disabled": 0, "rental_uris": {"ios": "https://dc.lft.to/lastmile_qr_scan", "android": "https://dc.lft.to/lastmile_qr_scan"}, "is_reserved": 0}, {"lon": -77.00557466666666, "bike_id": "f2a16204aa4fdb6071da6029203c06a1", "lat": 38.87479666666667, "fusion_lon": 0.0, "fusion_lat": 0.0, "type": "electric_scooter", "name": "f2a16204aa4fdb6071da6029203c06a1", "is_disabled": 0, "rental_uris": {"ios": "https://dc.lft.to/lastmile_qr_scan", "android": "https://dc.lft.to/lastmile_qr_scan"}, "is_reserved": 0}, {"lon": -76.98526733333334, "bike_id": "4795bd1b437436aca1f3cad7b25138fa", "lat": 38.8668465, "fusion_lon": 0.0, "fusion_lat": 0.0, "type": "electric_scooter", "name": "4795bd1b437436aca1f3cad7b25138fa", "is_disabled": 0, "rental_uris": {"ios": "https://dc.lft.to/lastmile_qr_scan", "android": "https://dc.lft.to/lastmile_qr_scan"}, "is_reserved": 0}, {"lon": -77.04471616666666, "bike_id": "997976ac99964a6fa993c53846ba58bd", "lat": 38.92388533333333, "fusion_lon": 0.0, "fusion_lat": 0.0, "type": "electric_scooter", "name": "997976ac99964a6fa993c53846ba58bd", "is_disabled": 0, "rental_uris": {"ios": "https://dc.lft.to/lastmile_qr_scan", "android": "https://dc.lft.to/lastmile_qr_scan"}, "is_reserved": 0}, {"lon": -77.02282416666667, "bike_id": "f32e47b419c494affb25c0d47ae87381", "lat": 38.9096505, "fusion_lon": 0.0, "fusion_lat": 0.0, "type": "electric_scooter", "name": "f32e47b419c494affb25c0d47ae87381", "is_disabled": 0, "rental_uris": {"ios": "https://dc.lft.to/lastmile_qr_scan", "android": "https://dc.lft.to/lastmile_qr_scan"}, "is_reserved": 0}, {"lon": -77.0513715, "bike_id": "e1887e6aae0122ec63eadfc50456f630", "lat": 38.8981315, "fusion_lon": 0.0, "fusion_lat": 0.0, "type": "electric_scooter", "name": "e1887e6aae0122ec63eadfc50456f630", "is_disabled": 0, "rental_uris": {"ios": "https://dc.lft.to/lastmile_qr_scan", "android": "https://dc.lft.to/lastmile_qr_scan"}, "is_reserved": 0}, {"lon": -77.05079983333333, "bike_id": "42008863eb56c7eaa0ea9e7c0b08f6b3", "lat": 38.813639, "fusion_lon": 0.0, "fusion_lat": 0.0, "type": "electric_bike", "name": "42008863eb56c7eaa0ea9e7c0b08f6b3", "is_disabled": 0, "rental_uris": {"ios": "https://dc.lft.to/lastmile_qr_scan", "android": "https://dc.lft.to/lastmile_qr_scan"}, "is_reserved": 0}, {"lon": -76.9073595, "bike_id": "5f7f70db2072c56c28b0c449a65aff78", "lat": 38.89617, "fusion_lon": 0.0, "fusion_lat": 0.0, "type": "electric_bike", "name": "5f7f70db2072c56c28b0c449a65aff78", "is_disabled": 0, "rental_uris": {"ios": "https://dc.lft.to/lastmile_qr_scan", "android": "https://dc.lft.to/lastmile_qr_scan"}, "is_reserved": 0}, {"lon": -77.0422935, "bike_id": "dd7d07bd4a10d0bff982068da42fb99d", "lat": 38.914097, "fusion_lon": 0.0, "fusion_lat": 0.0, "type": "electric_scooter", "name": "dd7d07bd4a10d0bff982068da42fb99d", "is_disabled": 0, "rental_uris": {"ios": "https://dc.lft.to/lastmile_qr_scan", "android": "https://dc.lft.to/lastmile_qr_scan"}, "is_reserved": 0}, {"lon": -77.038784, "bike_id": "24105fbb9a1a0914fdf098d289d884c7", "lat": 38.91474316666667, "fusion_lon": 0.0, "fusion_lat": 0.0, "type": "electric_scooter", "name": "24105fbb9a1a0914fdf098d289d884c7", "is_disabled": 0, "rental_uris": {"ios": "https://dc.lft.to/lastmile_qr_scan", "android": "https://dc.lft.to/lastmile_qr_scan"}, "is_reserved": 0}, {"lon": -76.97429016666666, "bike_id": "0fbff24400e0c935ec7d1537259d7752", "lat": 38.90398316666667, "fusion_lon": 0.0, "fusion_lat": 0.0, "type": "electric_scooter", "name": "0fbff24400e0c935ec7d1537259d7752", "is_disabled": 0, "rental_uris": {"ios": "https://dc.lft.to/lastmile_qr_scan", "android": "https://dc.lft.to/lastmile_qr_scan"}, "is_reserved": 0}, {"lon": -77.01904916666666, "bike_id": "03ca3e97104ce0084ff9453b98173e34", "lat": 38.899743, "fusion_lon": 0.0, "fusion_lat": 0.0, "type": "electric_scooter", "name": "03ca3e97104ce0084ff9453b98173e34", "is_disabled": 0, "rental_uris": {"ios": "https://dc.lft.to/lastmile_qr_scan", "android": "https://dc.lft.to/lastmile_qr_scan"}, "is_reserved": 0}, {"lon": -77.02290483333333, "bike_id": "34468401943ea6e83ae511a10fcae626", "lat": 38.922339666666666, "fusion_lon": 0.0, "fusion_lat": 0.0, "type": "electric_scooter", "name": "34468401943ea6e83ae511a10fcae626", "is_disabled": 0, "rental_uris": {"ios": "https://dc.lft.to/lastmile_qr_scan", "android": "https://dc.lft.to/lastmile_qr_scan"}, "is_reserved": 0}, {"lon": -77.038072, "bike_id": "f8056074ca2515965266cbca639388f7", "lat": 38.93117483333333, "fusion_lon": 0.0, "fusion_lat": 0.0, "type": "electric_scooter", "name": "f8056074ca2515965266cbca639388f7", "is_disabled": 0, "rental_uris": {"ios": "https://dc.lft.to/lastmile_qr_scan", "android": "https://dc.lft.to/lastmile_qr_scan"}, "is_reserved": 0}, {"lon": -77.02761616666666, "bike_id": "7af7722bb2c022c2eac7a6f08b5762e9", "lat": 38.954308833333336, "fusion_lon": 0.0, "fusion_lat": 0.0, "type": "electric_scooter", "name": "7af7722bb2c022c2eac7a6f08b5762e9", "is_disabled": 0, "rental_uris": {"ios": "https://dc.lft.to/lastmile_qr_scan", "android": "https://dc.lft.to/lastmile_qr_scan"}, "is_reserved": 0}, {"lon": -77.02025083333334, "bike_id": "67d7dcd9ffad56e6a62825f3d113294c", "lat": 38.905553166666664, "fusion_lon": 0.0, "fusion_lat": 0.0, "type": "electric_scooter", "name": "67d7dcd9ffad56e6a62825f3d113294c", "is_disabled": 0, "rental_uris": {"ios": "https://dc.lft.to/lastmile_qr_scan", "android": "https://dc.lft.to/lastmile_qr_scan"}, "is_reserved": 0}, {"lon": -76.9761545, "bike_id": "1994957e6dbf98b4f6eb933f7c89fd5d", "lat": 38.926601833333336, "fusion_lon": 0.0, "fusion_lat": 0.0, "type": "electric_scooter", "name": "1994957e6dbf98b4f6eb933f7c89fd5d", "is_disabled": 0, "rental_uris": {"ios": "https://dc.lft.to/lastmile_qr_scan", "android": "https://dc.lft.to/lastmile_qr_scan"}, "is_reserved": 0}, {"lon": -77.022217, "bike_id": "4cdc0d1eae8c959b240ebb66acbc913a", "lat": 38.91272266666667, "fusion_lon": 0.0, "fusion_lat": 0.0, "type": "electric_scooter", "name": "4cdc0d1eae8c959b240ebb66acbc913a", "is_disabled": 0, "rental_uris": {"ios": "https://dc.lft.to/lastmile_qr_scan", "android": "https://dc.lft.to/lastmile_qr_scan"}, "is_reserved": 0}, {"lon": -77.01866783333334, "bike_id": "c587fdbd439feb402cba59881e9135a6", "lat": 38.951576, "fusion_lon": 0.0, "fusion_lat": 0.0, "type": "electric_scooter", "name": "c587fdbd439feb402cba59881e9135a6", "is_disabled": 0, "rental_uris": {"ios": "https://dc.lft.to/lastmile_qr_scan", "android": "https://dc.lft.to/lastmile_qr_scan"}, "is_reserved": 0}, {"lon": -77.041881, "bike_id": "75796853a508222b59ba52da2b8cbcc6", "lat": 38.92623116666667, "fusion_lon": 0.0, "fusion_lat": 0.0, "type": "electric_scooter", "name": "75796853a508222b59ba52da2b8cbcc6", "is_disabled": 0, "rental_uris": {"ios": "https://dc.lft.to/lastmile_qr_scan", "android": "https://dc.lft.to/lastmile_qr_scan"}, "is_reserved": 0}, {"lon": -77.03923083333333, "bike_id": "e66f372427b7ab1d86e11ad1f51fd62a", "lat": 38.92800733333333, "fusion_lon": 0.0, "fusion_lat": 0.0, "type": "electric_scooter", "name": "e66f372427b7ab1d86e11ad1f51fd62a", "is_disabled": 0, "rental_uris": {"ios": "https://dc.lft.to/lastmile_qr_scan", "android": "https://dc.lft.to/lastmile_qr_scan"}, "is_reserved": 0}, {"lon": -77.00663283333333, "bike_id": "5b58d22e6b6ed4d9a43db51aa78ab9ed", "lat": 38.90005516666667, "fusion_lon": 0.0, "fusion_lat": 0.0, "type": "electric_scooter", "name": "5b58d22e6b6ed4d9a43db51aa78ab9ed", "is_disabled": 0, "rental_uris": {"ios": "https://dc.lft.to/lastmile_qr_scan", "android": "https://dc.lft.to/lastmile_qr_scan"}, "is_reserved": 0}, {"lon": -77.0363445, "bike_id": "6a0ac1d6d5a5460f622e60860ffeb95b", "lat": 38.924634166666664, "fusion_lon": 0.0, "fusion_lat": 0.0, "type": "electric_scooter", "name": "6a0ac1d6d5a5460f622e60860ffeb95b", "is_disabled": 0, "rental_uris": {"ios": "https://dc.lft.to/lastmile_qr_scan", "android": "https://dc.lft.to/lastmile_qr_scan"}, "is_reserved": 0}, {"lon": -77.05999983333334, "bike_id": "6b2005c62be124d0b5d234af6a9ff9eb", "lat": 38.80731383333333, "fusion_lon": 0.0, "fusion_lat": 0.0, "type": "electric_bike", "name": "6b2005c62be124d0b5d234af6a9ff9eb", "is_disabled": 0, "rental_uris": {"ios": "https://dc.lft.to/lastmile_qr_scan", "android": "https://dc.lft.to/lastmile_qr_scan"}, "is_reserved": 0}, {"lon": -77.03177666666667, "bike_id": "d3e19727570f4bc399e823cd032361ef", "lat": 38.90519833333333, "fusion_lon": 0.0, "fusion_lat": 0.0, "type": "electric_scooter", "name": "d3e19727570f4bc399e823cd032361ef", "is_disabled": 0, "rental_uris": {"ios": "https://dc.lft.to/lastmile_qr_scan", "android": "https://dc.lft.to/lastmile_qr_scan"}, "is_reserved": 0}, {"lon": -76.98743933333333, "bike_id": "2797a91f7fca4f024f754461c1f12d0c", "lat": 38.900319833333334, "fusion_lon": 0.0, "fusion_lat": 0.0, "type": "electric_scooter", "name": "2797a91f7fca4f024f754461c1f12d0c", "is_disabled": 0, "rental_uris": {"ios": "https://dc.lft.to/lastmile_qr_scan", "android": "https://dc.lft.to/lastmile_qr_scan"}, "is_reserved": 0}, {"lon": -77.03657783333334, "bike_id": "286945c64349d1ba9a2624b6ebf9d574", "lat": 38.9181635, "fusion_lon": 0.0, "fusion_lat": 0.0, "type": "electric_scooter", "name": "286945c64349d1ba9a2624b6ebf9d574", "is_disabled": 0, "rental_uris": {"ios": "https://dc.lft.to/lastmile_qr_scan", "android": "https://dc.lft.to/lastmile_qr_scan"}, "is_reserved": 0}, {"lon": -77.0525805, "bike_id": "d931b7ca110ca3b597c61732282530a7", "lat": 38.899776833333334, "fusion_lon": 0.0, "fusion_lat": 0.0, "type": "electric_scooter", "name": "d931b7ca110ca3b597c61732282530a7", "is_disabled": 0, "rental_uris": {"ios": "https://dc.lft.to/lastmile_qr_scan", "android": "https://dc.lft.to/lastmile_qr_scan"}, "is_reserved": 0}, {"lon": -77.05365833333333, "bike_id": "a605691575131f0fb1b83f969bdd3880", "lat": 38.9272705, "fusion_lon": 0.0, "fusion_lat": 0.0, "type": "electric_scooter", "name": "a605691575131f0fb1b83f969bdd3880", "is_disabled": 0, "rental_uris": {"ios": "https://dc.lft.to/lastmile_qr_scan", "android": "https://dc.lft.to/lastmile_qr_scan"}, "is_reserved": 0}, {"lon": -77.05438533333333, "bike_id": "9ffd00cee1f8412fab1ed9e1506eb0e4", "lat": 38.9436465, "fusion_lon": 0.0, "fusion_lat": 0.0, "type": "electric_bike", "name": "9ffd00cee1f8412fab1ed9e1506eb0e4", "is_disabled": 0, "rental_uris": {"ios": "https://dc.lft.to/lastmile_qr_scan", "android": "https://dc.lft.to/lastmile_qr_scan"}, "is_reserved": 0}, {"lon": -77.038511, "bike_id": "9a0080c3b2669d5e7eb1c851fece219a", "lat": 38.91786333333334, "fusion_lon": 0.0, "fusion_lat": 0.0, "type": "electric_scooter", "name": "9a0080c3b2669d5e7eb1c851fece219a", "is_disabled": 0, "rental_uris": {"ios": "https://dc.lft.to/lastmile_qr_scan", "android": "https://dc.lft.to/lastmile_qr_scan"}, "is_reserved": 0}, {"lon": -76.990154, "bike_id": "3ced7bf2d3546a697a9075949e043db8", "lat": 38.881626, "fusion_lon": 0.0, "fusion_lat": 0.0, "type": "electric_scooter", "name": "3ced7bf2d3546a697a9075949e043db8", "is_disabled": 0, "rental_uris": {"ios": "https://dc.lft.to/lastmile_qr_scan", "android": "https://dc.lft.to/lastmile_qr_scan"}, "is_reserved": 0}, {"lon": -77.01939766666666, "bike_id": "b6dc866d215eb521cd306835a039c694", "lat": 38.9368945, "fusion_lon": 0.0, "fusion_lat": 0.0, "type": "electric_scooter", "name": "b6dc866d215eb521cd306835a039c694", "is_disabled": 0, "rental_uris": {"ios": "https://dc.lft.to/lastmile_qr_scan", "android": "https://dc.lft.to/lastmile_qr_scan"}, "is_reserved": 0}, {"lon": -77.04698766666667, "bike_id": "ea7a4228e75fea43a0b29cd4097ac4bb", "lat": 38.920627, "fusion_lon": 0.0, "fusion_lat": 0.0, "type": "electric_scooter", "name": "ea7a4228e75fea43a0b29cd4097ac4bb", "is_disabled": 0, "rental_uris": {"ios": "https://dc.lft.to/lastmile_qr_scan", "android": "https://dc.lft.to/lastmile_qr_scan"}, "is_reserved": 0}, {"lon": -76.99531533333334, "bike_id": "39402f51b7fb07981e953f6ecbe47ecc", "lat": 38.883764666666664, "fusion_lon": 0.0, "fusion_lat": 0.0, "type": "electric_scooter", "name": "39402f51b7fb07981e953f6ecbe47ecc", "is_disabled": 0, "rental_uris": {"ios": "https://dc.lft.to/lastmile_qr_scan", "android": "https://dc.lft.to/lastmile_qr_scan"}, "is_reserved": 0}, {"lon": -76.931877, "bike_id": "39e1685caff608ec00577a15019ef485", "lat": 38.898786333333334, "fusion_lon": 0.0, "fusion_lat": 0.0, "type": "electric_scooter", "name": "39e1685caff608ec00577a15019ef485", "is_disabled": 0, "rental_uris": {"ios": "https://dc.lft.to/lastmile_qr_scan", "android": "https://dc.lft.to/lastmile_qr_scan"}, "is_reserved": 0}, {"lon": -76.98543066666667, "bike_id": "2582d86b3af4068531b054711a761424", "lat": 38.8966135, "fusion_lon": 0.0, "fusion_lat": 0.0, "type": "electric_scooter", "name": "2582d86b3af4068531b054711a761424", "is_disabled": 0, "rental_uris": {"ios": "https://dc.lft.to/lastmile_qr_scan", "android": "https://dc.lft.to/lastmile_qr_scan"}, "is_reserved": 0}, {"lon": -76.94891666666666, "bike_id": "662735d72c5d96f062568ea6432edd5b", "lat": 38.89529816666666, "fusion_lon": 0.0, "fusion_lat": 0.0, "type": "electric_scooter", "name": "662735d72c5d96f062568ea6432edd5b", "is_disabled": 0, "rental_uris": {"ios": "https://dc.lft.to/lastmile_qr_scan", "android": "https://dc.lft.to/lastmile_qr_scan"}, "is_reserved": 0}, {"lon": -77.03898066666666, "bike_id": "c372043ddceec4de14b582a3892a8f12", "lat": 38.9234195, "fusion_lon": 0.0, "fusion_lat": 0.0, "type": "electric_scooter", "name": "c372043ddceec4de14b582a3892a8f12", "is_disabled": 0, "rental_uris": {"ios": "https://dc.lft.to/lastmile_qr_scan", "android": "https://dc.lft.to/lastmile_qr_scan"}, "is_reserved": 0}, {"lon": -77.02439183333334, "bike_id": "a38a164aeaad41ca82f25766116e01d2", "lat": 38.93601816666666, "fusion_lon": 0.0, "fusion_lat": 0.0, "type": "electric_scooter", "name": "a38a164aeaad41ca82f25766116e01d2", "is_disabled": 0, "rental_uris": {"ios": "https://dc.lft.to/lastmile_qr_scan", "android": "https://dc.lft.to/lastmile_qr_scan"}, "is_reserved": 0}, {"lon": -77.02725883333333, "bike_id": "52c849b72096bd666b9a33794a44d797", "lat": 38.897299, "fusion_lon": 0.0, "fusion_lat": 0.0, "type": "electric_scooter", "name": "52c849b72096bd666b9a33794a44d797", "is_disabled": 0, "rental_uris": {"ios": "https://dc.lft.to/lastmile_qr_scan", "android": "https://dc.lft.to/lastmile_qr_scan"}, "is_reserved": 0}, {"lon": -76.97009983333334, "bike_id": "fafa8fe10d7e830141aecf24c7849859", "lat": 38.863755833333336, "fusion_lon": 0.0, "fusion_lat": 0.0, "type": "electric_bike", "name": "fafa8fe10d7e830141aecf24c7849859", "is_disabled": 0, "rental_uris": {"ios": "https://dc.lft.to/lastmile_qr_scan", "android": "https://dc.lft.to/lastmile_qr_scan"}, "is_reserved": 0}, {"lon": -77.0280555, "bike_id": "2bd2fcd5289ea812db96d6a2a67e74c9", "lat": 38.941953, "fusion_lon": 0.0, "fusion_lat": 0.0, "type": "electric_scooter", "name": "2bd2fcd5289ea812db96d6a2a67e74c9", "is_disabled": 0, "rental_uris": {"ios": "https://dc.lft.to/lastmile_qr_scan", "android": "https://dc.lft.to/lastmile_qr_scan"}, "is_reserved": 0}, {"lon": -77.01056666666666, "bike_id": "1474178f4e1f512882f82337bdc6bfb2", "lat": 38.9119305, "fusion_lon": 0.0, "fusion_lat": 0.0, "type": "electric_scooter", "name": "1474178f4e1f512882f82337bdc6bfb2", "is_disabled": 0, "rental_uris": {"ios": "https://dc.lft.to/lastmile_qr_scan", "android": "https://dc.lft.to/lastmile_qr_scan"}, "is_reserved": 0}, {"lon": -77.04359283333334, "bike_id": "dd6d09d390319572f7dbd14e65371249", "lat": 39.015407, "fusion_lon": 0.0, "fusion_lat": 0.0, "type": "electric_bike", "name": "dd6d09d390319572f7dbd14e65371249", "is_disabled": 0, "rental_uris": {"ios": "https://dc.lft.to/lastmile_qr_scan", "android": "https://dc.lft.to/lastmile_qr_scan"}, "is_reserved": 0}, {"lon": -77.038438, "bike_id": "98e061c3658f220c76cc987da8cf47ed", "lat": 38.90969283333333, "fusion_lon": 0.0, "fusion_lat": 0.0, "type": "electric_scooter", "name": "98e061c3658f220c76cc987da8cf47ed", "is_disabled": 0, "rental_uris": {"ios": "https://dc.lft.to/lastmile_qr_scan", "android": "https://dc.lft.to/lastmile_qr_scan"}, "is_reserved": 0}, {"lon": -76.97837716666666, "bike_id": "7fde4ce764bdb62289887f6bed3c3fc1", "lat": 38.8657215, "fusion_lon": 0.0, "fusion_lat": 0.0, "type": "electric_scooter", "name": "7fde4ce764bdb62289887f6bed3c3fc1", "is_disabled": 0, "rental_uris": {"ios": "https://dc.lft.to/lastmile_qr_scan", "android": "https://dc.lft.to/lastmile_qr_scan"}, "is_reserved": 0}, {"lon": -77.03195683333334, "bike_id": "ad1ccebf6cea1cc837c472ba1fb1fc39", "lat": 38.9171505, "fusion_lon": 0.0, "fusion_lat": 0.0, "type": "electric_scooter", "name": "ad1ccebf6cea1cc837c472ba1fb1fc39", "is_disabled": 0, "rental_uris": {"ios": "https://dc.lft.to/lastmile_qr_scan", "android": "https://dc.lft.to/lastmile_qr_scan"}, "is_reserved": 0}, {"lon": -77.02578416666667, "bike_id": "47bd63c59d546b0458f91dd9e05ce381", "lat": 38.93931216666667, "fusion_lon": 0.0, "fusion_lat": 0.0, "type": "electric_scooter", "name": "47bd63c59d546b0458f91dd9e05ce381", "is_disabled": 0, "rental_uris": {"ios": "https://dc.lft.to/lastmile_qr_scan", "android": "https://dc.lft.to/lastmile_qr_scan"}, "is_reserved": 0}, {"lon": -77.04234116666667, "bike_id": "f51d45dbd4cc3d3768c70fb8f613e2e8", "lat": 38.916448333333335, "fusion_lon": 0.0, "fusion_lat": 0.0, "type": "electric_scooter", "name": "f51d45dbd4cc3d3768c70fb8f613e2e8", "is_disabled": 0, "rental_uris": {"ios": "https://dc.lft.to/lastmile_qr_scan", "android": "https://dc.lft.to/lastmile_qr_scan"}, "is_reserved": 0}, {"lon": -77.03182766666667, "bike_id": "3eace1a1fb96b222d74df535f4b63218", "lat": 38.9361695, "fusion_lon": 0.0, "fusion_lat": 0.0, "type": "electric_scooter", "name": "3eace1a1fb96b222d74df535f4b63218", "is_disabled": 0, "rental_uris": {"ios": "https://dc.lft.to/lastmile_qr_scan", "android": "https://dc.lft.to/lastmile_qr_scan"}, "is_reserved": 0}, {"lon": -76.98372433333333, "bike_id": "a00d45ee1937a8ec8d0be0a81e1d5f2b", "lat": 38.89145883333333, "fusion_lon": 0.0, "fusion_lat": 0.0, "type": "electric_scooter", "name": "a00d45ee1937a8ec8d0be0a81e1d5f2b", "is_disabled": 0, "rental_uris": {"ios": "https://dc.lft.to/lastmile_qr_scan", "android": "https://dc.lft.to/lastmile_qr_scan"}, "is_reserved": 0}, {"lon": -77.00579133333333, "bike_id": "df23356a4073ee395e3c4b219fbd3286", "lat": 38.905608666666666, "fusion_lon": 0.0, "fusion_lat": 0.0, "type": "electric_scooter", "name": "df23356a4073ee395e3c4b219fbd3286", "is_disabled": 0, "rental_uris": {"ios": "https://dc.lft.to/lastmile_qr_scan", "android": "https://dc.lft.to/lastmile_qr_scan"}, "is_reserved": 0}, {"lon": -76.98833633333334, "bike_id": "82352ae10d075d2b3f1df6f845f1250e", "lat": 38.9007845, "fusion_lon": 0.0, "fusion_lat": 0.0, "type": "electric_scooter", "name": "82352ae10d075d2b3f1df6f845f1250e", "is_disabled": 0, "rental_uris": {"ios": "https://dc.lft.to/lastmile_qr_scan", "android": "https://dc.lft.to/lastmile_qr_scan"}, "is_reserved": 0}, {"lon": -77.00332033333333, "bike_id": "6f3cd1e3806358102c18fd56e5233ee2", "lat": 38.891902333333334, "fusion_lon": 0.0, "fusion_lat": 0.0, "type": "electric_scooter", "name": "6f3cd1e3806358102c18fd56e5233ee2", "is_disabled": 0, "rental_uris": {"ios": "https://dc.lft.to/lastmile_qr_scan", "android": "https://dc.lft.to/lastmile_qr_scan"}, "is_reserved": 0}, {"lon": -77.05606883333333, "bike_id": "15e2fc967dd19970ffad865024b5f3e5", "lat": 38.931653, "fusion_lon": 0.0, "fusion_lat": 0.0, "type": "electric_scooter", "name": "15e2fc967dd19970ffad865024b5f3e5", "is_disabled": 0, "rental_uris": {"ios": "https://dc.lft.to/lastmile_qr_scan", "android": "https://dc.lft.to/lastmile_qr_scan"}, "is_reserved": 0}, {"lon": -77.01812666666666, "bike_id": "4b14519f8c75c2e4fb0fabeb0eee9a0c", "lat": 38.903932, "fusion_lon": 0.0, "fusion_lat": 0.0, "type": "electric_scooter", "name": "4b14519f8c75c2e4fb0fabeb0eee9a0c", "is_disabled": 0, "rental_uris": {"ios": "https://dc.lft.to/lastmile_qr_scan", "android": "https://dc.lft.to/lastmile_qr_scan"}, "is_reserved": 0}, {"lon": -77.060958, "bike_id": "9c109f4ba1c13313f7d071164195eb0f", "lat": 38.943769, "fusion_lon": 0.0, "fusion_lat": 0.0, "type": "electric_scooter", "name": "9c109f4ba1c13313f7d071164195eb0f", "is_disabled": 0, "rental_uris": {"ios": "https://dc.lft.to/lastmile_qr_scan", "android": "https://dc.lft.to/lastmile_qr_scan"}, "is_reserved": 0}, {"lon": -76.99480483333333, "bike_id": "9ad2097777315eefbb93e1e9430957be", "lat": 38.86219966666667, "fusion_lon": 0.0, "fusion_lat": 0.0, "type": "electric_scooter", "name": "9ad2097777315eefbb93e1e9430957be", "is_disabled": 0, "rental_uris": {"ios": "https://dc.lft.to/lastmile_qr_scan", "android": "https://dc.lft.to/lastmile_qr_scan"}, "is_reserved": 0}, {"lon": -77.03759083333334, "bike_id": "77ac21ee34ae3422bbbc3c5fe4b63250", "lat": 38.9187925, "fusion_lon": 0.0, "fusion_lat": 0.0, "type": "electric_scooter", "name": "77ac21ee34ae3422bbbc3c5fe4b63250", "is_disabled": 0, "rental_uris": {"ios": "https://dc.lft.to/lastmile_qr_scan", "android": "https://dc.lft.to/lastmile_qr_scan"}, "is_reserved": 0}, {"lon": -77.02800316666666, "bike_id": "9181200c88f4715a02aca15dbb99a491", "lat": 38.956527333333334, "fusion_lon": 0.0, "fusion_lat": 0.0, "type": "electric_bike", "name": "9181200c88f4715a02aca15dbb99a491", "is_disabled": 0, "rental_uris": {"ios": "https://dc.lft.to/lastmile_qr_scan", "android": "https://dc.lft.to/lastmile_qr_scan"}, "is_reserved": 0}, {"lon": -77.00204766666667, "bike_id": "d83873aa04cae6b67a0113961d00a6a0", "lat": 38.9146825, "fusion_lon": 0.0, "fusion_lat": 0.0, "type": "electric_scooter", "name": "d83873aa04cae6b67a0113961d00a6a0", "is_disabled": 0, "rental_uris": {"ios": "https://dc.lft.to/lastmile_qr_scan", "android": "https://dc.lft.to/lastmile_qr_scan"}, "is_reserved": 0}, {"lon": -77.04489316666667, "bike_id": "85dbdddc364ca3cedd09ab57b51aba37", "lat": 38.91369066666667, "fusion_lon": 0.0, "fusion_lat": 0.0, "type": "electric_scooter", "name": "85dbdddc364ca3cedd09ab57b51aba37", "is_disabled": 0, "rental_uris": {"ios": "https://dc.lft.to/lastmile_qr_scan", "android": "https://dc.lft.to/lastmile_qr_scan"}, "is_reserved": 0}, {"lon": -76.942044, "bike_id": "ad42d51e5e4eb554daeebde3ece55869", "lat": 38.89317166666667, "fusion_lon": 0.0, "fusion_lat": 0.0, "type": "electric_bike", "name": "ad42d51e5e4eb554daeebde3ece55869", "is_disabled": 0, "rental_uris": {"ios": "https://dc.lft.to/lastmile_qr_scan", "android": "https://dc.lft.to/lastmile_qr_scan"}, "is_reserved": 0}, {"lon": -77.04120483333334, "bike_id": "b4ac4e6b2a2158c3e91866af45fea40e", "lat": 38.90599816666667, "fusion_lon": 0.0, "fusion_lat": 0.0, "type": "electric_scooter", "name": "b4ac4e6b2a2158c3e91866af45fea40e", "is_disabled": 0, "rental_uris": {"ios": "https://dc.lft.to/lastmile_qr_scan", "android": "https://dc.lft.to/lastmile_qr_scan"}, "is_reserved": 0}, {"lon": -77.02611783333333, "bike_id": "b7f6daf4ede7b22acab1b330c7099d40", "lat": 38.905641, "fusion_lon": 0.0, "fusion_lat": 0.0, "type": "electric_scooter", "name": "b7f6daf4ede7b22acab1b330c7099d40", "is_disabled": 0, "rental_uris": {"ios": "https://dc.lft.to/lastmile_qr_scan", "android": "https://dc.lft.to/lastmile_qr_scan"}, "is_reserved": 0}, {"lon": -77.03490666666667, "bike_id": "0b01b75f6deb4ca249415dc0a19db37a", "lat": 38.93276566666667, "fusion_lon": 0.0, "fusion_lat": 0.0, "type": "electric_scooter", "name": "0b01b75f6deb4ca249415dc0a19db37a", "is_disabled": 0, "rental_uris": {"ios": "https://dc.lft.to/lastmile_qr_scan", "android": "https://dc.lft.to/lastmile_qr_scan"}, "is_reserved": 0}, {"lon": -77.04191716666666, "bike_id": "6c27dab624461eb2f06c391a3e1ff587", "lat": 38.9071095, "fusion_lon": 0.0, "fusion_lat": 0.0, "type": "electric_scooter", "name": "6c27dab624461eb2f06c391a3e1ff587", "is_disabled": 0, "rental_uris": {"ios": "https://dc.lft.to/lastmile_qr_scan", "android": "https://dc.lft.to/lastmile_qr_scan"}, "is_reserved": 0}, {"lon": -76.998737, "bike_id": "b06d0006a69b73e85032ce928f04abdd", "lat": 38.900288, "fusion_lon": 0.0, "fusion_lat": 0.0, "type": "electric_scooter", "name": "b06d0006a69b73e85032ce928f04abdd", "is_disabled": 0, "rental_uris": {"ios": "https://dc.lft.to/lastmile_qr_scan", "android": "https://dc.lft.to/lastmile_qr_scan"}, "is_reserved": 0}, {"lon": -76.983707, "bike_id": "3fa51d570d993857feca5fa6142a04cf", "lat": 38.899845, "fusion_lon": 0.0, "fusion_lat": 0.0, "type": "electric_scooter", "name": "3fa51d570d993857feca5fa6142a04cf", "is_disabled": 0, "rental_uris": {"ios": "https://dc.lft.to/lastmile_qr_scan", "android": "https://dc.lft.to/lastmile_qr_scan"}, "is_reserved": 0}, {"lon": -77.08764783333334, "bike_id": "b2a41541a6f6758a9bccda7a3db9055b", "lat": 38.88946133333334, "fusion_lon": 0.0, "fusion_lat": 0.0, "type": "electric_bike", "name": "b2a41541a6f6758a9bccda7a3db9055b", "is_disabled": 0, "rental_uris": {"ios": "https://dc.lft.to/lastmile_qr_scan", "android": "https://dc.lft.to/lastmile_qr_scan"}, "is_reserved": 0}, {"lon": -77.079007, "bike_id": "c1edbb6a4dc4e682e0ae31707d1a861d", "lat": 38.839386833333336, "fusion_lon": 0.0, "fusion_lat": 0.0, "type": "electric_bike", "name": "c1edbb6a4dc4e682e0ae31707d1a861d", "is_disabled": 0, "rental_uris": {"ios": "https://dc.lft.to/lastmile_qr_scan", "android": "https://dc.lft.to/lastmile_qr_scan"}, "is_reserved": 0}, {"lon": -76.98712966666666, "bike_id": "0e15ff3d787bf686b8a399b1fd1fe78d", "lat": 38.86627433333334, "fusion_lon": 0.0, "fusion_lat": 0.0, "type": "electric_scooter", "name": "0e15ff3d787bf686b8a399b1fd1fe78d", "is_disabled": 0, "rental_uris": {"ios": "https://dc.lft.to/lastmile_qr_scan", "android": "https://dc.lft.to/lastmile_qr_scan"}, "is_reserved": 0}, {"lon": -77.035724, "bike_id": "90913c679c4b0e0c47e1e42935ac2fe6", "lat": 38.936854833333335, "fusion_lon": 0.0, "fusion_lat": 0.0, "type": "electric_scooter", "name": "90913c679c4b0e0c47e1e42935ac2fe6", "is_disabled": 0, "rental_uris": {"ios": "https://dc.lft.to/lastmile_qr_scan", "android": "https://dc.lft.to/lastmile_qr_scan"}, "is_reserved": 0}, {"lon": -77.017606, "bike_id": "e0fd6a7a5f0a9df3fdedd532899449f6", "lat": 38.87802766666667, "fusion_lon": 0.0, "fusion_lat": 0.0, "type": "electric_scooter", "name": "e0fd6a7a5f0a9df3fdedd532899449f6", "is_disabled": 0, "rental_uris": {"ios": "https://dc.lft.to/lastmile_qr_scan", "android": "https://dc.lft.to/lastmile_qr_scan"}, "is_reserved": 0}, {"lon": -76.9799635, "bike_id": "521d948bcb1fef418db4e83dd218143b", "lat": 38.90681033333333, "fusion_lon": 0.0, "fusion_lat": 0.0, "type": "electric_scooter", "name": "521d948bcb1fef418db4e83dd218143b", "is_disabled": 0, "rental_uris": {"ios": "https://dc.lft.to/lastmile_qr_scan", "android": "https://dc.lft.to/lastmile_qr_scan"}, "is_reserved": 0}, {"lon": -77.02354916666667, "bike_id": "9683645b6de3c20816aab0408af28129", "lat": 38.92095183333333, "fusion_lon": 0.0, "fusion_lat": 0.0, "type": "electric_scooter", "name": "9683645b6de3c20816aab0408af28129", "is_disabled": 0, "rental_uris": {"ios": "https://dc.lft.to/lastmile_qr_scan", "android": "https://dc.lft.to/lastmile_qr_scan"}, "is_reserved": 0}, {"lon": -77.03660133333334, "bike_id": "10aa5114286d0acd7695cc297ee8f90e", "lat": 38.939137, "fusion_lon": 0.0, "fusion_lat": 0.0, "type": "electric_bike", "name": "10aa5114286d0acd7695cc297ee8f90e", "is_disabled": 0, "rental_uris": {"ios": "https://dc.lft.to/lastmile_qr_scan", "android": "https://dc.lft.to/lastmile_qr_scan"}, "is_reserved": 0}, {"lon": -76.98192383333334, "bike_id": "4004ed88d0e3014608ef8e3fd1c3d1dd", "lat": 38.89947633333333, "fusion_lon": 0.0, "fusion_lat": 0.0, "type": "electric_scooter", "name": "4004ed88d0e3014608ef8e3fd1c3d1dd", "is_disabled": 0, "rental_uris": {"ios": "https://dc.lft.to/lastmile_qr_scan", "android": "https://dc.lft.to/lastmile_qr_scan"}, "is_reserved": 0}, {"lon": -76.95187566666667, "bike_id": "43a99d28c5628941824d5696ca09d11d", "lat": 38.90741216666667, "fusion_lon": 0.0, "fusion_lat": 0.0, "type": "electric_scooter", "name": "43a99d28c5628941824d5696ca09d11d", "is_disabled": 0, "rental_uris": {"ios": "https://dc.lft.to/lastmile_qr_scan", "android": "https://dc.lft.to/lastmile_qr_scan"}, "is_reserved": 0}, {"lon": -77.01958533333334, "bike_id": "2ac738a3e85ce192a3df5a55bf9d9748", "lat": 38.92272233333333, "fusion_lon": 0.0, "fusion_lat": 0.0, "type": "electric_scooter", "name": "2ac738a3e85ce192a3df5a55bf9d9748", "is_disabled": 0, "rental_uris": {"ios": "https://dc.lft.to/lastmile_qr_scan", "android": "https://dc.lft.to/lastmile_qr_scan"}, "is_reserved": 0}, {"lon": -76.98262283333334, "bike_id": "e8ecdd4658686813116d89abe1e97639", "lat": 38.908609166666665, "fusion_lon": 0.0, "fusion_lat": 0.0, "type": "electric_scooter", "name": "e8ecdd4658686813116d89abe1e97639", "is_disabled": 0, "rental_uris": {"ios": "https://dc.lft.to/lastmile_qr_scan", "android": "https://dc.lft.to/lastmile_qr_scan"}, "is_reserved": 0}, {"lon": -77.04018683333334, "bike_id": "8616ae66fc707be46d61d15e03b54faa", "lat": 38.92451666666667, "fusion_lon": 0.0, "fusion_lat": 0.0, "type": "electric_scooter", "name": "8616ae66fc707be46d61d15e03b54faa", "is_disabled": 0, "rental_uris": {"ios": "https://dc.lft.to/lastmile_qr_scan", "android": "https://dc.lft.to/lastmile_qr_scan"}, "is_reserved": 0}, {"lon": -77.02791683333334, "bike_id": "b100f41d573b2c6ca34a5c0a495b0309", "lat": 38.9296805, "fusion_lon": 0.0, "fusion_lat": 0.0, "type": "electric_scooter", "name": "b100f41d573b2c6ca34a5c0a495b0309", "is_disabled": 0, "rental_uris": {"ios": "https://dc.lft.to/lastmile_qr_scan", "android": "https://dc.lft.to/lastmile_qr_scan"}, "is_reserved": 0}, {"lon": -76.985586, "bike_id": "fc7b48a6caa5858d56eef47a432e84e6", "lat": 38.8962025, "fusion_lon": 0.0, "fusion_lat": 0.0, "type": "electric_scooter", "name": "fc7b48a6caa5858d56eef47a432e84e6", "is_disabled": 0, "rental_uris": {"ios": "https://dc.lft.to/lastmile_qr_scan", "android": "https://dc.lft.to/lastmile_qr_scan"}, "is_reserved": 0}, {"lon": -77.020056, "bike_id": "43ed6c4e03a0b957a048429eb4e88749", "lat": 38.92408833333333, "fusion_lon": 0.0, "fusion_lat": 0.0, "type": "electric_scooter", "name": "43ed6c4e03a0b957a048429eb4e88749", "is_disabled": 0, "rental_uris": {"ios": "https://dc.lft.to/lastmile_qr_scan", "android": "https://dc.lft.to/lastmile_qr_scan"}, "is_reserved": 0}, {"lon": -77.020718, "bike_id": "389a5c1556e058caefd3ad4ee2e4b77a", "lat": 38.92699833333333, "fusion_lon": 0.0, "fusion_lat": 0.0, "type": "electric_scooter", "name": "389a5c1556e058caefd3ad4ee2e4b77a", "is_disabled": 0, "rental_uris": {"ios": "https://dc.lft.to/lastmile_qr_scan", "android": "https://dc.lft.to/lastmile_qr_scan"}, "is_reserved": 0}, {"lon": -77.03036566666667, "bike_id": "1186ae4e94a75c401a2503c3043c09c1", "lat": 38.87841183333333, "fusion_lon": 0.0, "fusion_lat": 0.0, "type": "electric_scooter", "name": "1186ae4e94a75c401a2503c3043c09c1", "is_disabled": 0, "rental_uris": {"ios": "https://dc.lft.to/lastmile_qr_scan", "android": "https://dc.lft.to/lastmile_qr_scan"}, "is_reserved": 0}, {"lon": -76.98999683333334, "bike_id": "4ad951fbc963705aaf6c890ecae6f066", "lat": 38.865065, "fusion_lon": 0.0, "fusion_lat": 0.0, "type": "electric_scooter", "name": "4ad951fbc963705aaf6c890ecae6f066", "is_disabled": 0, "rental_uris": {"ios": "https://dc.lft.to/lastmile_qr_scan", "android": "https://dc.lft.to/lastmile_qr_scan"}, "is_reserved": 0}, {"lon": -76.98932133333334, "bike_id": "7a470ba73495e6a230e2b7514d623615", "lat": 38.90186166666667, "fusion_lon": 0.0, "fusion_lat": 0.0, "type": "electric_scooter", "name": "7a470ba73495e6a230e2b7514d623615", "is_disabled": 0, "rental_uris": {"ios": "https://dc.lft.to/lastmile_qr_scan", "android": "https://dc.lft.to/lastmile_qr_scan"}, "is_reserved": 0}, {"lon": -76.93733266666666, "bike_id": "4f1e6aa597a271280dad2a8a001d848a", "lat": 38.89018766666667, "fusion_lon": 0.0, "fusion_lat": 0.0, "type": "electric_scooter", "name": "4f1e6aa597a271280dad2a8a001d848a", "is_disabled": 0, "rental_uris": {"ios": "https://dc.lft.to/lastmile_qr_scan", "android": "https://dc.lft.to/lastmile_qr_scan"}, "is_reserved": 0}, {"lon": -77.024142, "bike_id": "821b25cd61e4c9fa246e8aea76040d02", "lat": 38.9348015, "fusion_lon": 0.0, "fusion_lat": 0.0, "type": "electric_bike", "name": "821b25cd61e4c9fa246e8aea76040d02", "is_disabled": 0, "rental_uris": {"ios": "https://dc.lft.to/lastmile_qr_scan", "android": "https://dc.lft.to/lastmile_qr_scan"}, "is_reserved": 0}, {"lon": -77.025821, "bike_id": "e330d2922d059cee5758f01f40d22621", "lat": 38.905755166666665, "fusion_lon": 0.0, "fusion_lat": 0.0, "type": "electric_scooter", "name": "e330d2922d059cee5758f01f40d22621", "is_disabled": 0, "rental_uris": {"ios": "https://dc.lft.to/lastmile_qr_scan", "android": "https://dc.lft.to/lastmile_qr_scan"}, "is_reserved": 0}, {"lon": -77.05014983333334, "bike_id": "264d917084458eedf8fb41c4e69edce7", "lat": 38.901571, "fusion_lon": 0.0, "fusion_lat": 0.0, "type": "electric_scooter", "name": "264d917084458eedf8fb41c4e69edce7", "is_disabled": 0, "rental_uris": {"ios": "https://dc.lft.to/lastmile_qr_scan", "android": "https://dc.lft.to/lastmile_qr_scan"}, "is_reserved": 0}, {"lon": -76.957466, "bike_id": "1106d880fec2ec8bce2eebb023ea7381", "lat": 38.88426033333333, "fusion_lon": 0.0, "fusion_lat": 0.0, "type": "electric_scooter", "name": "1106d880fec2ec8bce2eebb023ea7381", "is_disabled": 0, "rental_uris": {"ios": "https://dc.lft.to/lastmile_qr_scan", "android": "https://dc.lft.to/lastmile_qr_scan"}, "is_reserved": 0}, {"lon": -77.019631, "bike_id": "884cc431c56a6a5e2f66c147823618b3", "lat": 38.935908166666664, "fusion_lon": 0.0, "fusion_lat": 0.0, "type": "electric_scooter", "name": "884cc431c56a6a5e2f66c147823618b3", "is_disabled": 0, "rental_uris": {"ios": "https://dc.lft.to/lastmile_qr_scan", "android": "https://dc.lft.to/lastmile_qr_scan"}, "is_reserved": 0}, {"lon": -77.04280483333334, "bike_id": "1f3d72f4532709a90d76b429c9b96d82", "lat": 38.91572033333333, "fusion_lon": 0.0, "fusion_lat": 0.0, "type": "electric_scooter", "name": "1f3d72f4532709a90d76b429c9b96d82", "is_disabled": 0, "rental_uris": {"ios": "https://dc.lft.to/lastmile_qr_scan", "android": "https://dc.lft.to/lastmile_qr_scan"}, "is_reserved": 0}, {"lon": -77.02793983333333, "bike_id": "d7f34d4f236bb1d497f1b54d53bafc0a", "lat": 38.954164, "fusion_lon": 0.0, "fusion_lat": 0.0, "type": "electric_scooter", "name": "d7f34d4f236bb1d497f1b54d53bafc0a", "is_disabled": 0, "rental_uris": {"ios": "https://dc.lft.to/lastmile_qr_scan", "android": "https://dc.lft.to/lastmile_qr_scan"}, "is_reserved": 0}, {"lon": -76.99123683333333, "bike_id": "d84afe6d120030d2ad80d292432e73aa", "lat": 38.92271483333333, "fusion_lon": 0.0, "fusion_lat": 0.0, "type": "electric_scooter", "name": "d84afe6d120030d2ad80d292432e73aa", "is_disabled": 0, "rental_uris": {"ios": "https://dc.lft.to/lastmile_qr_scan", "android": "https://dc.lft.to/lastmile_qr_scan"}, "is_reserved": 0}, {"lon": -77.22799266666667, "bike_id": "067709ea411bc8893b716240eb603e84", "lat": 38.91019, "fusion_lon": 0.0, "fusion_lat": 0.0, "type": "electric_bike", "name": "067709ea411bc8893b716240eb603e84", "is_disabled": 0, "rental_uris": {"ios": "https://dc.lft.to/lastmile_qr_scan", "android": "https://dc.lft.to/lastmile_qr_scan"}, "is_reserved": 0}, {"lon": -77.04001116666667, "bike_id": "9bd97f4d217a30355554b0c11c2954e0", "lat": 38.914185833333335, "fusion_lon": 0.0, "fusion_lat": 0.0, "type": "electric_scooter", "name": "9bd97f4d217a30355554b0c11c2954e0", "is_disabled": 0, "rental_uris": {"ios": "https://dc.lft.to/lastmile_qr_scan", "android": "https://dc.lft.to/lastmile_qr_scan"}, "is_reserved": 0},