{"data": {"bikes": [{"bike_id": "2257f8569c23d32b97082a89ed68e240", "type": "electric_scooter", "is_disabled": 0, "lat": 38.9216785, "rental_uris": {"ios": "https://dc.lft.to/lastmile_qr_scan", "android": "https://dc.lft.to/lastmile_qr_scan"}, "is_reserved": 0, "fusion_lon": 0.0, "fusion_lat": 0.0, "lon": -77.03849516666666, "name": "2257f8569c23d32b97082a89ed68e240"}, {"bike_id": "c76858eb0f2846e6b4802127d3b7bffb", "type": "electric_scooter", "is_disabled": 0, "lat": 38.85837983333333, "rental_uris": {"ios": "https://dc.lft.to/lastmile_qr_scan", "android": "https://dc.lft.to/lastmile_qr_scan"}, "is_reserved": 0, "fusion_lon": 0.0, "fusion_lat": 0.0, "lon": -76.9872635, "name": "c76858eb0f2846e6b4802127d3b7bffb"}, {"bike_id": "a2fa34e43645316d9c30bbb2919201f5", "type": "electric_bike", "is_disabled": 0, "lat": 38.849343166666664, "rental_uris": {"ios": "https://dc.lft.to/lastmile_qr_scan", "android": "https://dc.lft.to/lastmile_qr_scan"}, "is_reserved": 0, "fusion_lon": 0.0, "fusion_lat": 0.0, "lon": -77.1001505, "name": "a2fa34e43645316d9c30bbb2919201f5"}, {"bike_id": "934a71bea26f9e4da6cec9cd11efd22b", "type": "electric_scooter", "is_disabled": 0, "lat": 38.94630316666667, "rental_uris": {"ios": "https://dc.lft.to/lastmile_qr_scan", "android": "https://dc.lft.to/lastmile_qr_scan"}, "is_reserved": 0, "fusion_lon": 0.0, "fusion_lat": 0.0, "lon": -77.01844216666667, "name": "934a71bea26f9e4da6cec9cd11efd22b"}, {"bike_id": "2e66cc7632b3f2098b6b92faf14b9d00", "type": "electric_bike", "is_disabled": 0, "lat": 38.94121833333333, "rental_uris": {"ios": "https://dc.lft.to/lastmile_qr_scan", "android": "https://dc.lft.to/lastmile_qr_scan"}, "is_reserved": 0, "fusion_lon": 0.0, "fusion_lat": 0.0, "lon": -77.00071816666667, "name": "2e66cc7632b3f2098b6b92faf14b9d00"}, {"bike_id": "ca70e1534897c258969a5ae9d0c910c8", "type": "electric_scooter", "is_disabled": 0, "lat": 38.93347266666667, "rental_uris": {"ios": "https://dc.lft.to/lastmile_qr_scan", "android": "https://dc.lft.to/lastmile_qr_scan"}, "is_reserved": 0, "fusion_lon": 0.0, "fusion_lat": 0.0, "lon": -77.0619855, "name": "ca70e1534897c258969a5ae9d0c910c8"}, {"bike_id": "b9e14d4ee6b55ffc3efc459072fdb7bd", "type": "electric_scooter", "is_disabled": 0, "lat": 38.917609, "rental_uris": {"ios": "https://dc.lft.to/lastmile_qr_scan", "android": "https://dc.lft.to/lastmile_qr_scan"}, "is_reserved": 0, "fusion_lon": 0.0, "fusion_lat": 0.0, "lon": -77.03861733333333, "name": "b9e14d4ee6b55ffc3efc459072fdb7bd"}, {"bike_id": "70a2ada4f12b90d4bc48adcd830a94a1", "type": "electric_scooter", "is_disabled": 0, "lat": 38.924019, "rental_uris": {"ios": "https://dc.lft.to/lastmile_qr_scan", "android": "https://dc.lft.to/lastmile_qr_scan"}, "is_reserved": 0, "fusion_lon": 0.0, "fusion_lat": 0.0, "lon": -77.02538466666667, "name": "70a2ada4f12b90d4bc48adcd830a94a1"}, {"bike_id": "a6c8aa80518d870ac168f6cb34693013", "type": "electric_scooter", "is_disabled": 0, "lat": 38.894827166666666, "rental_uris": {"ios": "https://dc.lft.to/lastmile_qr_scan", "android": "https://dc.lft.to/lastmile_qr_scan"}, "is_reserved": 0, "fusion_lon": 0.0, "fusion_lat": 0.0, "lon": -76.99521883333334, "name": "a6c8aa80518d870ac168f6cb34693013"}, {"bike_id": "906152c2334ca23b8eef968ec47cc087", "type": "electric_scooter", "is_disabled": 0, "lat": 38.91549, "rental_uris": {"ios": "https://dc.lft.to/lastmile_qr_scan", "android": "https://dc.lft.to/lastmile_qr_scan"}, "is_reserved": 0, "fusion_lon": 0.0, "fusion_lat": 0.0, "lon": -77.03851983333334, "name": "906152c2334ca23b8eef968ec47cc087"}, {"bike_id": "26091f96af1c6612c1e081ad27fc0c37", "type": "electric_scooter", "is_disabled": 0, "lat": 38.866979, "rental_uris": {"ios": "https://dc.lft.to/lastmile_qr_scan", "android": "https://dc.lft.to/lastmile_qr_scan"}, "is_reserved": 0, "fusion_lon": 0.0, "fusion_lat": 0.0, "lon": -76.987145, "name": "26091f96af1c6612c1e081ad27fc0c37"}, {"bike_id": "e1d1a30a45cb42f802bfc03c783e9a1e", "type": "electric_scooter", "is_disabled": 0, "lat": 38.85757016666667, "rental_uris": {"ios": "https://dc.lft.to/lastmile_qr_scan", "android": "https://dc.lft.to/lastmile_qr_scan"}, "is_reserved": 0, "fusion_lon": 0.0, "fusion_lat": 0.0, "lon": -76.99303166666667, "name": "e1d1a30a45cb42f802bfc03c783e9a1e"}, {"bike_id": "a3519ea3ba9e2809bca58aba83a76e2e", "type": "electric_scooter", "is_disabled": 0, "lat": 38.92399533333333, "rental_uris": {"ios": "https://dc.lft.to/lastmile_qr_scan", "android": "https://dc.lft.to/lastmile_qr_scan"}, "is_reserved": 0, "fusion_lon": 0.0, "fusion_lat": 0.0, "lon": -77.04063066666667, "name": "a3519ea3ba9e2809bca58aba83a76e2e"}, {"bike_id": "06046f2042c8afcf50b1d38eeb480763", "type": "electric_scooter", "is_disabled": 0, "lat": 38.931090833333336, "rental_uris": {"ios": "https://dc.lft.to/lastmile_qr_scan", "android": "https://dc.lft.to/lastmile_qr_scan"}, "is_reserved": 0, "fusion_lon": 0.0, "fusion_lat": 0.0, "lon": -77.03027, "name": "06046f2042c8afcf50b1d38eeb480763"}, {"bike_id": "90aa93dc6377b95221aff4b4f221bc3f", "type": "electric_scooter", "is_disabled": 0, "lat": 38.935111666666664, "rental_uris": {"ios": "https://dc.lft.to/lastmile_qr_scan", "android": "https://dc.lft.to/lastmile_qr_scan"}, "is_reserved": 0, "fusion_lon": 0.0, "fusion_lat": 0.0, "lon": -77.03288466666666, "name": "90aa93dc6377b95221aff4b4f221bc3f"}, {"bike_id": "ccef704d49eb894e11e217d2abe23583", "type": "electric_scooter", "is_disabled": 0, "lat": 38.9060545, "rental_uris": {"ios": "https://dc.lft.to/lastmile_qr_scan", "android": "https://dc.lft.to/lastmile_qr_scan"}, "is_reserved": 0, "fusion_lon": 0.0, "fusion_lat": 0.0, "lon": -77.04010483333333, "name": "ccef704d49eb894e11e217d2abe23583"}, {"bike_id": "1e5fb40c8998c72edfa5f80a864260e1", "type": "electric_bike", "is_disabled": 0, "lat": 38.959612166666666, "rental_uris": {"ios": "https://dc.lft.to/lastmile_qr_scan", "android": "https://dc.lft.to/lastmile_qr_scan"}, "is_reserved": 0, "fusion_lon": 0.0, "fusion_lat": 0.0, "lon": -77.03059433333334, "name": "1e5fb40c8998c72edfa5f80a864260e1"}, {"bike_id": "692458456c23dcb498e902dea78d89bc", "type": "electric_scooter", "is_disabled": 0, "lat": 38.90530316666667, "rental_uris": {"ios": "https://dc.lft.to/lastmile_qr_scan", "android": "https://dc.lft.to/lastmile_qr_scan"}, "is_reserved": 0, "fusion_lon": 0.0, "fusion_lat": 0.0, "lon": -76.98620616666666, "name": "692458456c23dcb498e902dea78d89bc"}, {"bike_id": "9df7fe0843be0da03c0f47e16bf13683", "type": "electric_scooter", "is_disabled": 0, "lat": 38.8972035, "rental_uris": {"ios": "https://dc.lft.to/lastmile_qr_scan", "android": "https://dc.lft.to/lastmile_qr_scan"}, "is_reserved": 0, "fusion_lon": 0.0, "fusion_lat": 0.0, "lon": -76.98835983333333, "name": "9df7fe0843be0da03c0f47e16bf13683"}, {"bike_id": "c48ace317cf5ae5043152422a8d2e962", "type": "electric_scooter", "is_disabled": 0, "lat": 38.8983925, "rental_uris": {"ios": "https://dc.lft.to/lastmile_qr_scan", "android": "https://dc.lft.to/lastmile_qr_scan"}, "is_reserved": 0, "fusion_lon": 0.0, "fusion_lat": 0.0, "lon": -77.03053916666667, "name": "c48ace317cf5ae5043152422a8d2e962"}, {"bike_id": "749e5b46c13e431fe7dcc4d60cc0ce17", "type": "electric_bike", "is_disabled": 0, "lat": 39.034239, "rental_uris": {"ios": "https://dc.lft.to/lastmile_qr_scan", "android": "https://dc.lft.to/lastmile_qr_scan"}, "is_reserved": 0, "fusion_lon": 0.0, "fusion_lat": 0.0, "lon": -77.0430565, "name": "749e5b46c13e431fe7dcc4d60cc0ce17"}, {"bike_id": "7707951127f75517d354f6bb334dd54a", "type": "electric_scooter", "is_disabled": 0, "lat": 38.9148095, "rental_uris": {"ios": "https://dc.lft.to/lastmile_qr_scan", "android": "https://dc.lft.to/lastmile_qr_scan"}, "is_reserved": 0, "fusion_lon": 0.0, "fusion_lat": 0.0, "lon": -77.021648, "name": "7707951127f75517d354f6bb334dd54a"}, {"bike_id": "aea4c39b3c674975a3ff690811f991e3", "type": "electric_scooter", "is_disabled": 0, "lat": 38.927154333333334, "rental_uris": {"ios": "https://dc.lft.to/lastmile_qr_scan", "android": "https://dc.lft.to/lastmile_qr_scan"}, "is_reserved": 0, "fusion_lon": 0.0, "fusion_lat": 0.0, "lon": -77.020846, "name": "aea4c39b3c674975a3ff690811f991e3"}, {"bike_id": "c3502c4531b0b8e31ce90071083b65fd", "type": "electric_scooter", "is_disabled": 0, "lat": 38.905634666666664, "rental_uris": {"ios": "https://dc.lft.to/lastmile_qr_scan", "android": "https://dc.lft.to/lastmile_qr_scan"}, "is_reserved": 0, "fusion_lon": 0.0, "fusion_lat": 0.0, "lon": -77.00596566666667, "name": "c3502c4531b0b8e31ce90071083b65fd"}, {"bike_id": "4edc4ab0accbffc7ed47112466a0e988", "type": "electric_scooter", "is_disabled": 0, "lat": 38.91548933333333, "rental_uris": {"ios": "https://dc.lft.to/lastmile_qr_scan", "android": "https://dc.lft.to/lastmile_qr_scan"}, "is_reserved": 0, "fusion_lon": 0.0, "fusion_lat": 0.0, "lon": -77.03849466666667, "name": "4edc4ab0accbffc7ed47112466a0e988"}, {"bike_id": "adf375b39b4a6bf71e9ab52b2ee20a22", "type": "electric_scooter", "is_disabled": 0, "lat": 38.920039833333334, "rental_uris": {"ios": "https://dc.lft.to/lastmile_qr_scan", "android": "https://dc.lft.to/lastmile_qr_scan"}, "is_reserved": 0, "fusion_lon": 0.0, "fusion_lat": 0.0, "lon": -77.0318785, "name": "adf375b39b4a6bf71e9ab52b2ee20a22"}, {"bike_id": "0b5cf241ad44e341850431b01c2acb1f", "type": "electric_scooter", "is_disabled": 0, "lat": 38.9057205, "rental_uris": {"ios": "https://dc.lft.to/lastmile_qr_scan", "android": "https://dc.lft.to/lastmile_qr_scan"}, "is_reserved": 0, "fusion_lon": 0.0, "fusion_lat": 0.0, "lon": -76.97783183333334, "name": "0b5cf241ad44e341850431b01c2acb1f"}, {"bike_id": "0772acc465ad516055f8917b108e11f3", "type": "electric_scooter", "is_disabled": 0, "lat": 38.93558733333333, "rental_uris": {"ios": "https://dc.lft.to/lastmile_qr_scan", "android": "https://dc.lft.to/lastmile_qr_scan"}, "is_reserved": 0, "fusion_lon": 0.0, "fusion_lat": 0.0, "lon": -77.03262983333333, "name": "0772acc465ad516055f8917b108e11f3"}, {"bike_id": "a2bc0c3c5cec18220694084d30674272", "type": "electric_scooter", "is_disabled": 0, "lat": 38.8776125, "rental_uris": {"ios": "https://dc.lft.to/lastmile_qr_scan", "android": "https://dc.lft.to/lastmile_qr_scan"}, "is_reserved": 0, "fusion_lon": 0.0, "fusion_lat": 0.0, "lon": -76.98685683333333, "name": "a2bc0c3c5cec18220694084d30674272"}, {"bike_id": "b39cd62271a520459958d48a6cbf9feb", "type": "electric_scooter", "is_disabled": 0, "lat": 38.9027715, "rental_uris": {"ios": "https://dc.lft.to/lastmile_qr_scan", "android": "https://dc.lft.to/lastmile_qr_scan"}, "is_reserved": 0, "fusion_lon": 0.0, "fusion_lat": 0.0, "lon": -76.97030783333334, "name": "b39cd62271a520459958d48a6cbf9feb"}, {"bike_id": "55585d29800507161f6ddcc655aa48c2", "type": "electric_scooter", "is_disabled": 0, "lat": 38.91102166666667, "rental_uris": {"ios": "https://dc.lft.to/lastmile_qr_scan", "android": "https://dc.lft.to/lastmile_qr_scan"}, "is_reserved": 0, "fusion_lon": 0.0, "fusion_lat": 0.0, "lon": -77.04203766666667, "name": "55585d29800507161f6ddcc655aa48c2"}, {"bike_id": "51fe2580ea66269d26caac8e51b05880", "type": "electric_scooter", "is_disabled": 0, "lat": 38.895686166666664, "rental_uris": {"ios": "https://dc.lft.to/lastmile_qr_scan", "android": "https://dc.lft.to/lastmile_qr_scan"}, "is_reserved": 0, "fusion_lon": 0.0, "fusion_lat": 0.0, "lon": -76.93025716666666, "name": "51fe2580ea66269d26caac8e51b05880"}, {"bike_id": "02775eb2a3390e795441a9a5aa91d2f4", "type": "electric_scooter", "is_disabled": 0, "lat": 38.900119333333336, "rental_uris": {"ios": "https://dc.lft.to/lastmile_qr_scan", "android": "https://dc.lft.to/lastmile_qr_scan"}, "is_reserved": 0, "fusion_lon": 0.0, "fusion_lat": 0.0, "lon": -77.03814833333334, "name": "02775eb2a3390e795441a9a5aa91d2f4"}, {"bike_id": "b3629bda6a3e5658017e5de7978f61db", "type": "electric_scooter", "is_disabled": 0, "lat": 38.914237, "rental_uris": {"ios": "https://dc.lft.to/lastmile_qr_scan", "android": "https://dc.lft.to/lastmile_qr_scan"}, "is_reserved": 0, "fusion_lon": 0.0, "fusion_lat": 0.0, "lon": -77.02407516666666, "name": "b3629bda6a3e5658017e5de7978f61db"}, {"bike_id": "cb7261b0964cabc5b08d17a1b54f65fd", "type": "electric_scooter", "is_disabled": 0, "lat": 38.92182316666667, "rental_uris": {"ios": "https://dc.lft.to/lastmile_qr_scan", "android": "https://dc.lft.to/lastmile_qr_scan"}, "is_reserved": 0, "fusion_lon": 0.0, "fusion_lat": 0.0, "lon": -77.02666166666667, "name": "cb7261b0964cabc5b08d17a1b54f65fd"}, {"bike_id": "7912abf81c7efe911213639242d7814a", "type": "electric_scooter", "is_disabled": 0, "lat": 38.9399235, "rental_uris": {"ios": "https://dc.lft.to/lastmile_qr_scan", "android": "https://dc.lft.to/lastmile_qr_scan"}, "is_reserved": 0, "fusion_lon": 0.0, "fusion_lat": 0.0, "lon": -77.0168995, "name": "7912abf81c7efe911213639242d7814a"}, {"bike_id": "c0b2c5075dfb13379682783106af2df1", "type": "electric_scooter", "is_disabled": 0, "lat": 38.920153166666665, "rental_uris": {"ios": "https://dc.lft.to/lastmile_qr_scan", "android": "https://dc.lft.to/lastmile_qr_scan"}, "is_reserved": 0, "fusion_lon": 0.0, "fusion_lat": 0.0, "lon": -77.031619, "name": "c0b2c5075dfb13379682783106af2df1"}, {"bike_id": "2108ef91b3a5cad6f53365a8b2323c53", "type": "electric_scooter", "is_disabled": 0, "lat": 38.91863266666667, "rental_uris": {"ios": "https://dc.lft.to/lastmile_qr_scan", "android": "https://dc.lft.to/lastmile_qr_scan"}, "is_reserved": 0, "fusion_lon": 0.0, "fusion_lat": 0.0, "lon": -77.0351155, "name": "2108ef91b3a5cad6f53365a8b2323c53"}, {"bike_id": "e529eadd8389d67f29483fcb4dbec697", "type": "electric_bike", "is_disabled": 0, "lat": 38.8324645, "rental_uris": {"ios": "https://dc.lft.to/lastmile_qr_scan", "android": "https://dc.lft.to/lastmile_qr_scan"}, "is_reserved": 0, "fusion_lon": 0.0, "fusion_lat": 0.0, "lon": -76.94626466666666, "name": "e529eadd8389d67f29483fcb4dbec697"}, {"bike_id": "5e07e6f1446d2e62ac52c6a9050bc14d", "type": "electric_bike", "is_disabled": 0, "lat": 38.84609966666667, "rental_uris": {"ios": "https://dc.lft.to/lastmile_qr_scan", "android": "https://dc.lft.to/lastmile_qr_scan"}, "is_reserved": 0, "fusion_lon": 0.0, "fusion_lat": 0.0, "lon": -76.9691265, "name": "5e07e6f1446d2e62ac52c6a9050bc14d"}, {"bike_id": "37c0397cf6e06e9ab73182f261f32bdf", "type": "electric_scooter", "is_disabled": 0, "lat": 38.897443833333334, "rental_uris": {"ios": "https://dc.lft.to/lastmile_qr_scan", "android": "https://dc.lft.to/lastmile_qr_scan"}, "is_reserved": 0, "fusion_lon": 0.0, "fusion_lat": 0.0, "lon": -77.04546866666666, "name": "37c0397cf6e06e9ab73182f261f32bdf"}, {"bike_id": "1fddbe367bc19b3453131a03c1e336c0", "type": "electric_scooter", "is_disabled": 0, "lat": 38.90732833333333, "rental_uris": {"ios": "https://dc.lft.to/lastmile_qr_scan", "android": "https://dc.lft.to/lastmile_qr_scan"}, "is_reserved": 0, "fusion_lon": 0.0, "fusion_lat": 0.0, "lon": -77.00067033333333, "name": "1fddbe367bc19b3453131a03c1e336c0"}, {"bike_id": "dc44fa33f25958738b17d24bd382aca3", "type": "electric_scooter", "is_disabled": 0, "lat": 38.866597666666664, "rental_uris": {"ios": "https://dc.lft.to/lastmile_qr_scan", "android": "https://dc.lft.to/lastmile_qr_scan"}, "is_reserved": 0, "fusion_lon": 0.0, "fusion_lat": 0.0, "lon": -76.98888383333333, "name": "dc44fa33f25958738b17d24bd382aca3"}, {"bike_id": "8d06defccb4037c7e837d001266d99e8", "type": "electric_scooter", "is_disabled": 0, "lat": 38.9257725, "rental_uris": {"ios": "https://dc.lft.to/lastmile_qr_scan", "android": "https://dc.lft.to/lastmile_qr_scan"}, "is_reserved": 0, "fusion_lon": 0.0, "fusion_lat": 0.0, "lon": -77.05420916666667, "name": "8d06defccb4037c7e837d001266d99e8"}, {"bike_id": "48e5b135dc3deccbdd2a5c56120dd4a6", "type": "electric_scooter", "is_disabled": 0, "lat": 38.904194333333336, "rental_uris": {"ios": "https://dc.lft.to/lastmile_qr_scan", "android": "https://dc.lft.to/lastmile_qr_scan"}, "is_reserved": 0, "fusion_lon": 0.0, "fusion_lat": 0.0, "lon": -76.97374883333333, "name": "48e5b135dc3deccbdd2a5c56120dd4a6"}, {"bike_id": "c08851e00e624f875fe1154f33fc65ad", "type": "electric_bike", "is_disabled": 0, "lat": 38.854261, "rental_uris": {"ios": "https://dc.lft.to/lastmile_qr_scan", "android": "https://dc.lft.to/lastmile_qr_scan"}, "is_reserved": 0, "fusion_lon": 0.0, "fusion_lat": 0.0, "lon": -77.120772, "name": "c08851e00e624f875fe1154f33fc65ad"}, {"bike_id": "14dd90e05b57f60bf1a51d3cefe118c2", "type": "electric_scooter", "is_disabled": 0, "lat": 38.91337133333333, "rental_uris": {"ios": "https://dc.lft.to/lastmile_qr_scan", "android": "https://dc.lft.to/lastmile_qr_scan"}, "is_reserved": 0, "fusion_lon": 0.0, "fusion_lat": 0.0, "lon": -77.0398815, "name": "14dd90e05b57f60bf1a51d3cefe118c2"}, {"bike_id": "51e95546cb0163f9a1c141d60f1d72ea", "type": "electric_scooter", "is_disabled": 0, "lat": 38.919487833333335, "rental_uris": {"ios": "https://dc.lft.to/lastmile_qr_scan", "android": "https://dc.lft.to/lastmile_qr_scan"}, "is_reserved": 0, "fusion_lon": 0.0, "fusion_lat": 0.0, "lon": -77.02494316666667, "name": "51e95546cb0163f9a1c141d60f1d72ea"}, {"bike_id": "6f8028f38f9de3587960da4ecd2654a0", "type": "electric_scooter", "is_disabled": 0, "lat": 38.92336133333333, "rental_uris": {"ios": "https://dc.lft.to/lastmile_qr_scan", "android": "https://dc.lft.to/lastmile_qr_scan"}, "is_reserved": 0, "fusion_lon": 0.0, "fusion_lat": 0.0, "lon": -77.03613316666667, "name": "6f8028f38f9de3587960da4ecd2654a0"}, {"bike_id": "9eb7c8e484d8fee67fee73c727b0ca7a", "type": "electric_scooter", "is_disabled": 0, "lat": 38.86570566666666, "rental_uris": {"ios": "https://dc.lft.to/lastmile_qr_scan", "android": "https://dc.lft.to/lastmile_qr_scan"}, "is_reserved": 0, "fusion_lon": 0.0, "fusion_lat": 0.0, "lon": -76.982173, "name": "9eb7c8e484d8fee67fee73c727b0ca7a"}, {"bike_id": "2578e1d76284584579b65cff99c2c224", "type": "electric_bike", "is_disabled": 0, "lat": 38.892049166666666, "rental_uris": {"ios": "https://dc.lft.to/lastmile_qr_scan", "android": "https://dc.lft.to/lastmile_qr_scan"}, "is_reserved": 0, "fusion_lon": 0.0, "fusion_lat": 0.0, "lon": -76.97643166666667, "name": "2578e1d76284584579b65cff99c2c224"}, {"bike_id": "f0b67426345c5082970d20bf17e21244", "type": "electric_scooter", "is_disabled": 0, "lat": 38.89220533333334, "rental_uris": {"ios": "https://dc.lft.to/lastmile_qr_scan", "android": "https://dc.lft.to/lastmile_qr_scan"}, "is_reserved": 0, "fusion_lon": 0.0, "fusion_lat": 0.0, "lon": -77.02447266666667, "name": "f0b67426345c5082970d20bf17e21244"}, {"bike_id": "62bf9063525544a526c41d76238c596c", "type": "electric_scooter", "is_disabled": 0, "lat": 38.917797, "rental_uris": {"ios": "https://dc.lft.to/lastmile_qr_scan", "android": "https://dc.lft.to/lastmile_qr_scan"}, "is_reserved": 0, "fusion_lon": 0.0, "fusion_lat": 0.0, "lon": -77.04255466666666, "name": "62bf9063525544a526c41d76238c596c"}, {"bike_id": "9de2017b335d0461aa653f8d5eb2b2de", "type": "electric_scooter", "is_disabled": 0, "lat": 38.8995635, "rental_uris": {"ios": "https://dc.lft.to/lastmile_qr_scan", "android": "https://dc.lft.to/lastmile_qr_scan"}, "is_reserved": 0, "fusion_lon": 0.0, "fusion_lat": 0.0, "lon": -76.97529383333334, "name": "9de2017b335d0461aa653f8d5eb2b2de"}, {"bike_id": "303a68c824070f3d2e24cd9e8365b480", "type": "electric_scooter", "is_disabled": 0, "lat": 38.90567933333333, "rental_uris": {"ios": "https://dc.lft.to/lastmile_qr_scan", "android": "https://dc.lft.to/lastmile_qr_scan"}, "is_reserved": 0, "fusion_lon": 0.0, "fusion_lat": 0.0, "lon": -77.04191766666666, "name": "303a68c824070f3d2e24cd9e8365b480"}, {"bike_id": "51dbb485349d535b002280793ed7e01c", "type": "electric_scooter", "is_disabled": 0, "lat": 38.924518166666665, "rental_uris": {"ios": "https://dc.lft.to/lastmile_qr_scan", "android": "https://dc.lft.to/lastmile_qr_scan"}, "is_reserved": 0, "fusion_lon": 0.0, "fusion_lat": 0.0, "lon": -77.0241035, "name": "51dbb485349d535b002280793ed7e01c"}, {"bike_id": "7fc40837141629df4281b49b43d4421f", "type": "electric_scooter", "is_disabled": 0, "lat": 38.9265175, "rental_uris": {"ios": "https://dc.lft.to/lastmile_qr_scan", "android": "https://dc.lft.to/lastmile_qr_scan"}, "is_reserved": 0, "fusion_lon": 0.0, "fusion_lat": 0.0, "lon": -77.02479116666666, "name": "7fc40837141629df4281b49b43d4421f"}, {"bike_id": "fd7cbc5f1b748febb36657f30236ce70", "type": "electric_scooter", "is_disabled": 0, "lat": 38.91567416666667, "rental_uris": {"ios": "https://dc.lft.to/lastmile_qr_scan", "android": "https://dc.lft.to/lastmile_qr_scan"}, "is_reserved": 0, "fusion_lon": 0.0, "fusion_lat": 0.0, "lon": -77.022893, "name": "fd7cbc5f1b748febb36657f30236ce70"}, {"bike_id": "0b897bd2330075457a6fb3dd1e5c195e", "type": "electric_scooter", "is_disabled": 0, "lat": 38.909664666666664, "rental_uris": {"ios": "https://dc.lft.to/lastmile_qr_scan", "android": "https://dc.lft.to/lastmile_qr_scan"}, "is_reserved": 0, "fusion_lon": 0.0, "fusion_lat": 0.0, "lon": -77.02381133333333, "name": "0b897bd2330075457a6fb3dd1e5c195e"}, {"bike_id": "fd5f41b3efd6c0a6bbbd112f9a3d56f4", "type": "electric_scooter", "is_disabled": 0, "lat": 38.901731166666664, "rental_uris": {"ios": "https://dc.lft.to/lastmile_qr_scan", "android": "https://dc.lft.to/lastmile_qr_scan"}, "is_reserved": 0, "fusion_lon": 0.0, "fusion_lat": 0.0, "lon": -76.98446116666666, "name": "fd5f41b3efd6c0a6bbbd112f9a3d56f4"}, {"bike_id": "54a464621113000ba36ae231956ef499", "type": "electric_scooter", "is_disabled": 0, "lat": 38.914207833333336, "rental_uris": {"ios": "https://dc.lft.to/lastmile_qr_scan", "android": "https://dc.lft.to/lastmile_qr_scan"}, "is_reserved": 0, "fusion_lon": 0.0, "fusion_lat": 0.0, "lon": -77.019869, "name": "54a464621113000ba36ae231956ef499"}, {"bike_id": "72c611461f39b12adfa5bb7975e1d2a2", "type": "electric_scooter", "is_disabled": 0, "lat": 38.92113233333333, "rental_uris": {"ios": "https://dc.lft.to/lastmile_qr_scan", "android": "https://dc.lft.to/lastmile_qr_scan"}, "is_reserved": 0, "fusion_lon": 0.0, "fusion_lat": 0.0, "lon": -77.04171416666667, "name": "72c611461f39b12adfa5bb7975e1d2a2"}, {"bike_id": "7c7482c7b44e188495c99da4ebef8fd0", "type": "electric_scooter", "is_disabled": 0, "lat": 38.887114833333335, "rental_uris": {"ios": "https://dc.lft.to/lastmile_qr_scan", "android": "https://dc.lft.to/lastmile_qr_scan"}, "is_reserved": 0, "fusion_lon": 0.0, "fusion_lat": 0.0, "lon": -77.01777666666666, "name": "7c7482c7b44e188495c99da4ebef8fd0"}, {"bike_id": "a4196641da8fa9b7579e8910006fe08b", "type": "electric_bike", "is_disabled": 0, "lat": 39.01372216666667, "rental_uris": {"ios": "https://dc.lft.to/lastmile_qr_scan", "android": "https://dc.lft.to/lastmile_qr_scan"}, "is_reserved": 0, "fusion_lon": 0.0, "fusion_lat": 0.0, "lon": -76.92134233333333, "name": "a4196641da8fa9b7579e8910006fe08b"}, {"bike_id": "67d523393a8ebb9ca556b0b8dd668d82", "type": "electric_scooter", "is_disabled": 0, "lat": 38.92232833333333, "rental_uris": {"ios": "https://dc.lft.to/lastmile_qr_scan", "android": "https://dc.lft.to/lastmile_qr_scan"}, "is_reserved": 0, "fusion_lon": 0.0, "fusion_lat": 0.0, "lon": -77.0424635, "name": "67d523393a8ebb9ca556b0b8dd668d82"}, {"bike_id": "4af471ff84cfb29611c9c7d55f11f0bc", "type": "electric_scooter", "is_disabled": 0, "lat": 38.917044, "rental_uris": {"ios": "https://dc.lft.to/lastmile_qr_scan", "android": "https://dc.lft.to/lastmile_qr_scan"}, "is_reserved": 0, "fusion_lon": 0.0, "fusion_lat": 0.0, "lon": -77.02413433333334, "name": "4af471ff84cfb29611c9c7d55f11f0bc"}, {"bike_id": "66074fb0bee0d9025132daf84907decd", "type": "electric_scooter", "is_disabled": 0, "lat": 38.920488, "rental_uris": {"ios": "https://dc.lft.to/lastmile_qr_scan", "android": "https://dc.lft.to/lastmile_qr_scan"}, "is_reserved": 0, "fusion_lon": 0.0, "fusion_lat": 0.0, "lon": -77.024297, "name": "66074fb0bee0d9025132daf84907decd"}, {"bike_id": "70424a00c378a126073945226710f81e", "type": "electric_scooter", "is_disabled": 0, "lat": 38.913804666666664, "rental_uris": {"ios": "https://dc.lft.to/lastmile_qr_scan", "android": "https://dc.lft.to/lastmile_qr_scan"}, "is_reserved": 0, "fusion_lon": 0.0, "fusion_lat": 0.0, "lon": -77.03206816666666, "name": "70424a00c378a126073945226710f81e"}, {"bike_id": "219f2ef893aa8b85d919dc3b91ada96a", "type": "electric_scooter", "is_disabled": 0, "lat": 38.908205, "rental_uris": {"ios": "https://dc.lft.to/lastmile_qr_scan", "android": "https://dc.lft.to/lastmile_qr_scan"}, "is_reserved": 0, "fusion_lon": 0.0, "fusion_lat": 0.0, "lon": -76.99708716666666, "name": "219f2ef893aa8b85d919dc3b91ada96a"}, {"bike_id": "576a3abc223d6fa3d7fa50565d37d5dc", "type": "electric_scooter", "is_disabled": 0, "lat": 38.89602883333333, "rental_uris": {"ios": "https://dc.lft.to/lastmile_qr_scan", "android": "https://dc.lft.to/lastmile_qr_scan"}, "is_reserved": 0, "fusion_lon": 0.0, "fusion_lat": 0.0, "lon": -77.00928266666666, "name": "576a3abc223d6fa3d7fa50565d37d5dc"}, {"bike_id": "b0c8842fff25ec940e9f3b34838ce46c", "type": "electric_bike", "is_disabled": 0, "lat": 38.921533, "rental_uris": {"ios": "https://dc.lft.to/lastmile_qr_scan", "android": "https://dc.lft.to/lastmile_qr_scan"}, "is_reserved": 0, "fusion_lon": 0.0, "fusion_lat": 0.0, "lon": -77.03650516666667, "name": "b0c8842fff25ec940e9f3b34838ce46c"}, {"bike_id": "476c20654fec3b37a8e875cd2d2ad3bd", "type": "electric_scooter", "is_disabled": 0, "lat": 38.917715666666666, "rental_uris": {"ios": "https://dc.lft.to/lastmile_qr_scan", "android": "https://dc.lft.to/lastmile_qr_scan"}, "is_reserved": 0, "fusion_lon": 0.0, "fusion_lat": 0.0, "lon": -77.02951366666667, "name": "476c20654fec3b37a8e875cd2d2ad3bd"}, {"bike_id": "d4a8a556d829d7c3a72b8d594f50088c", "type": "electric_scooter", "is_disabled": 0, "lat": 38.915616166666666, "rental_uris": {"ios": "https://dc.lft.to/lastmile_qr_scan", "android": "https://dc.lft.to/lastmile_qr_scan"}, "is_reserved": 0, "fusion_lon": 0.0, "fusion_lat": 0.0, "lon": -77.02021183333333, "name": "d4a8a556d829d7c3a72b8d594f50088c"}, {"bike_id": "ed396aa46cef053e38de6a47405de791", "type": "electric_scooter", "is_disabled": 0, "lat": 38.885408, "rental_uris": {"ios": "https://dc.lft.to/lastmile_qr_scan", "android": "https://dc.lft.to/lastmile_qr_scan"}, "is_reserved": 0, "fusion_lon": 0.0, "fusion_lat": 0.0, "lon": -77.005789, "name": "ed396aa46cef053e38de6a47405de791"}, {"bike_id": "a337fb3b3128456e976dcfc913458c57", "type": "electric_scooter", "is_disabled": 0, "lat": 38.923947166666665, "rental_uris": {"ios": "https://dc.lft.to/lastmile_qr_scan", "android": "https://dc.lft.to/lastmile_qr_scan"}, "is_reserved": 0, "fusion_lon": 0.0, "fusion_lat": 0.0, "lon": -76.993821, "name": "a337fb3b3128456e976dcfc913458c57"}, {"bike_id": "36a98b9bd1d6b9d39940db45bd1d872c", "type": "electric_scooter", "is_disabled": 0, "lat": 38.90042583333334, "rental_uris": {"ios": "https://dc.lft.to/lastmile_qr_scan", "android": "https://dc.lft.to/lastmile_qr_scan"}, "is_reserved": 0, "fusion_lon": 0.0, "fusion_lat": 0.0, "lon": -76.9915425, "name": "36a98b9bd1d6b9d39940db45bd1d872c"}, {"bike_id": "bc897e04542394ef0b6bf3ece0aa9870", "type": "electric_scooter", "is_disabled": 0, "lat": 38.8666715, "rental_uris": {"ios": "https://dc.lft.to/lastmile_qr_scan", "android": "https://dc.lft.to/lastmile_qr_scan"}, "is_reserved": 0, "fusion_lon": 0.0, "fusion_lat": 0.0, "lon": -77.01043483333333, "name": "bc897e04542394ef0b6bf3ece0aa9870"}, {"bike_id": "805c9db59ba88186c7746d466e3453c3", "type": "electric_scooter", "is_disabled": 0, "lat": 38.915496, "rental_uris": {"ios": "https://dc.lft.to/lastmile_qr_scan", "android": "https://dc.lft.to/lastmile_qr_scan"}, "is_reserved": 0, "fusion_lon": 0.0, "fusion_lat": 0.0, "lon": -77.02564716666667, "name": "805c9db59ba88186c7746d466e3453c3"}, {"bike_id": "7667633cffcd0873ceb349fdd8374042", "type": "electric_scooter", "is_disabled": 0, "lat": 38.916869166666665, "rental_uris": {"ios": "https://dc.lft.to/lastmile_qr_scan", "android": "https://dc.lft.to/lastmile_qr_scan"}, "is_reserved": 0, "fusion_lon": 0.0, "fusion_lat": 0.0, "lon": -77.03860716666667, "name": "7667633cffcd0873ceb349fdd8374042"}, {"bike_id": "3c03f2b181faa92710cc383ba6eac78b", "type": "electric_scooter", "is_disabled": 0, "lat": 38.892273833333334, "rental_uris": {"ios": "https://dc.lft.to/lastmile_qr_scan", "android": "https://dc.lft.to/lastmile_qr_scan"}, "is_reserved": 0, "fusion_lon": 0.0, "fusion_lat": 0.0, "lon": -77.01371233333333, "name": "3c03f2b181faa92710cc383ba6eac78b"}, {"bike_id": "aa36c7eff4c5fa27fc5a3036ce063f7b", "type": "electric_scooter", "is_disabled": 0, "lat": 38.92239166666667, "rental_uris": {"ios": "https://dc.lft.to/lastmile_qr_scan", "android": "https://dc.lft.to/lastmile_qr_scan"}, "is_reserved": 0, "fusion_lon": 0.0, "fusion_lat": 0.0, "lon": -77.0298375, "name": "aa36c7eff4c5fa27fc5a3036ce063f7b"}, {"bike_id": "bb6691921c6011a0b19379e7a62cadb9", "type": "electric_bike", "is_disabled": 0, "lat": 38.853553, "rental_uris": {"ios": "https://dc.lft.to/lastmile_qr_scan", "android": "https://dc.lft.to/lastmile_qr_scan"}, "is_reserved": 0, "fusion_lon": 0.0, "fusion_lat": 0.0, "lon": -77.086848, "name": "bb6691921c6011a0b19379e7a62cadb9"}, {"bike_id": "afcc69a03a286733d84cdb24c3a3f5c5", "type": "electric_scooter", "is_disabled": 0, "lat": 38.92330616666667, "rental_uris": {"ios": "https://dc.lft.to/lastmile_qr_scan", "android": "https://dc.lft.to/lastmile_qr_scan"}, "is_reserved": 0, "fusion_lon": 0.0, "fusion_lat": 0.0, "lon": -77.03679966666667, "name": "afcc69a03a286733d84cdb24c3a3f5c5"}, {"bike_id": "dfe7a24b84ea651d63242f7dc91fe0af", "type": "electric_scooter", "is_disabled": 0, "lat": 38.9232595, "rental_uris": {"ios": "https://dc.lft.to/lastmile_qr_scan", "android": "https://dc.lft.to/lastmile_qr_scan"}, "is_reserved": 0, "fusion_lon": 0.0, "fusion_lat": 0.0, "lon": -77.03680183333333, "name": "dfe7a24b84ea651d63242f7dc91fe0af"}, {"bike_id": "b78f35279321af99e6db466e8027ee84", "type": "electric_bike", "is_disabled": 0, "lat": 38.95756383333333, "rental_uris": {"ios": "https://dc.lft.to/lastmile_qr_scan", "android": "https://dc.lft.to/lastmile_qr_scan"}, "is_reserved": 0, "fusion_lon": 0.0, "fusion_lat": 0.0, "lon": -77.02052333333333, "name": "b78f35279321af99e6db466e8027ee84"}, {"bike_id": "cbaa65e6595834096d7b71a8566d7af7", "type": "electric_scooter", "is_disabled": 0, "lat": 38.8650555, "rental_uris": {"ios": "https://dc.lft.to/lastmile_qr_scan", "android": "https://dc.lft.to/lastmile_qr_scan"}, "is_reserved": 0, "fusion_lon": 0.0, "fusion_lat": 0.0, "lon": -76.99001783333334, "name": "cbaa65e6595834096d7b71a8566d7af7"}, {"bike_id": "430252f77bc829e3adee7c5a63ce9aa5", "type": "electric_scooter", "is_disabled": 0, "lat": 38.957339833333336, "rental_uris": {"ios": "https://dc.lft.to/lastmile_qr_scan", "android": "https://dc.lft.to/lastmile_qr_scan"}, "is_reserved": 0, "fusion_lon": 0.0, "fusion_lat": 0.0, "lon": -77.02795583333334, "name": "430252f77bc829e3adee7c5a63ce9aa5"}, {"bike_id": "4fc0a68ce371fb4a4208af7ef5149ad0", "type": "electric_scooter", "is_disabled": 0, "lat": 38.922834333333334, "rental_uris": {"ios": "https://dc.lft.to/lastmile_qr_scan", "android": "https://dc.lft.to/lastmile_qr_scan"}, "is_reserved": 0, "fusion_lon": 0.0, "fusion_lat": 0.0, "lon": -77.04238533333333, "name": "4fc0a68ce371fb4a4208af7ef5149ad0"}, {"bike_id": "93fc367f1598e830fcfefd75937bede7", "type": "electric_scooter", "is_disabled": 0, "lat": 38.91575233333333, "rental_uris": {"ios": "https://dc.lft.to/lastmile_qr_scan", "android": "https://dc.lft.to/lastmile_qr_scan"}, "is_reserved": 0, "fusion_lon": 0.0, "fusion_lat": 0.0, "lon": -77.0364185, "name": "93fc367f1598e830fcfefd75937bede7"}, {"bike_id": "8fbadc43a9fe6697a474ee278c6bbcb6", "type": "electric_scooter", "is_disabled": 0, "lat": 38.917044, "rental_uris": {"ios": "https://dc.lft.to/lastmile_qr_scan", "android": "https://dc.lft.to/lastmile_qr_scan"}, "is_reserved": 0, "fusion_lon": 0.0, "fusion_lat": 0.0, "lon": -77.02874416666667, "name": "8fbadc43a9fe6697a474ee278c6bbcb6"}, {"bike_id": "a494bcf5a151c082d5aa9853eb561ac8", "type": "electric_scooter", "is_disabled": 0, "lat": 38.912569833333336, "rental_uris": {"ios": "https://dc.lft.to/lastmile_qr_scan", "android": "https://dc.lft.to/lastmile_qr_scan"}, "is_reserved": 0, "fusion_lon": 0.0, "fusion_lat": 0.0, "lon": -77.0383055, "name": "a494bcf5a151c082d5aa9853eb561ac8"}, {"bike_id": "d438103c4706c69ff5693d5f77a7dc3e", "type": "electric_scooter", "is_disabled": 0, "lat": 38.902503833333334, "rental_uris": {"ios": "https://dc.lft.to/lastmile_qr_scan", "android": "https://dc.lft.to/lastmile_qr_scan"}, "is_reserved": 0, "fusion_lon": 0.0, "fusion_lat": 0.0, "lon": -77.01781566666666, "name": "d438103c4706c69ff5693d5f77a7dc3e"}, {"bike_id": "30e20a820c680c6bab34008441d9d8d2", "type": "electric_scooter", "is_disabled": 0, "lat": 38.931377499999996, "rental_uris": {"ios": "https://dc.lft.to/lastmile_qr_scan", "android": "https://dc.lft.to/lastmile_qr_scan"}, "is_reserved": 0, "fusion_lon": 0.0, "fusion_lat": 0.0, "lon": -77.0424105, "name": "30e20a820c680c6bab34008441d9d8d2"}, {"bike_id": "d41d5a0b0c014e7fc3132d6160f5ed42", "type": "electric_scooter", "is_disabled": 0, "lat": 38.94595416666667, "rental_uris": {"ios": "https://dc.lft.to/lastmile_qr_scan", "android": "https://dc.lft.to/lastmile_qr_scan"}, "is_reserved": 0, "fusion_lon": 0.0, "fusion_lat": 0.0, "lon": -77.02976116666666, "name": "d41d5a0b0c014e7fc3132d6160f5ed42"}, {"bike_id": "bef9b0bac7039e49c527ab2c1b1f9dd4", "type": "electric_scooter", "is_disabled": 0, "lat": 38.911885833333336, "rental_uris": {"ios": "https://dc.lft.to/lastmile_qr_scan", "android": "https://dc.lft.to/lastmile_qr_scan"}, "is_reserved": 0, "fusion_lon": 0.0, "fusion_lat": 0.0, "lon": -77.0321535, "name": "bef9b0bac7039e49c527ab2c1b1f9dd4"}, {"bike_id": "c3d631b6b5e2ecbe1c4ff01c06471e4c", "type": "electric_bike", "is_disabled": 0, "lat": 38.898478, "rental_uris": {"ios": "https://dc.lft.to/lastmile_qr_scan", "android": "https://dc.lft.to/lastmile_qr_scan"}, "is_reserved": 0, "fusion_lon": 0.0, "fusion_lat": 0.0, "lon": -77.05302716666667, "name": "c3d631b6b5e2ecbe1c4ff01c06471e4c"}, {"bike_id": "5e27bcd55ca6e13bada48f9676f1641f", "type": "electric_scooter", "is_disabled": 0, "lat": 38.93102116666667, "rental_uris": {"ios": "https://dc.lft.to/lastmile_qr_scan", "android": "https://dc.lft.to/lastmile_qr_scan"}, "is_reserved": 0, "fusion_lon": 0.0, "fusion_lat": 0.0, "lon": -77.03746266666667, "name": "5e27bcd55ca6e13bada48f9676f1641f"}, {"bike_id": "4dbfbe882fcbc07df0f65d00bf37935d", "type": "electric_scooter", "is_disabled": 0, "lat": 38.89962466666667, "rental_uris": {"ios": "https://dc.lft.to/lastmile_qr_scan", "android": "https://dc.lft.to/lastmile_qr_scan"}, "is_reserved": 0, "fusion_lon": 0.0, "fusion_lat": 0.0, "lon": -77.01606166666667, "name": "4dbfbe882fcbc07df0f65d00bf37935d"}, {"bike_id": "401c4e967d8baab4631b28df6e51d4cc", "type": "electric_scooter", "is_disabled": 0, "lat": 38.867059, "rental_uris": {"ios": "https://dc.lft.to/lastmile_qr_scan", "android": "https://dc.lft.to/lastmile_qr_scan"}, "is_reserved": 0, "fusion_lon": 0.0, "fusion_lat": 0.0, "lon": -76.98717566666667, "name": "401c4e967d8baab4631b28df6e51d4cc"}, {"bike_id": "de543596e0c198d08a92f9432afb08ed", "type": "electric_bike", "is_disabled": 0, "lat": 39.02436266666667, "rental_uris": {"ios": "https://dc.lft.to/lastmile_qr_scan", "android": "https://dc.lft.to/lastmile_qr_scan"}, "is_reserved": 0, "fusion_lon": 0.0, "fusion_lat": 0.0, "lon": -77.13101683333333, "name": "de543596e0c198d08a92f9432afb08ed"}, {"bike_id": "e5b47798fd4c379167adc8638b515ec7", "type": "electric_scooter", "is_disabled": 0, "lat": 38.90094466666667, "rental_uris": {"ios": "https://dc.lft.to/lastmile_qr_scan", "android": "https://dc.lft.to/lastmile_qr_scan"}, "is_reserved": 0, "fusion_lon": 0.0, "fusion_lat": 0.0, "lon": -77.0193155, "name": "e5b47798fd4c379167adc8638b515ec7"}, {"bike_id": "88a286257687d686504fac0054b0fb73", "type": "electric_scooter", "is_disabled": 0, "lat": 38.90863133333333, "rental_uris": {"ios": "https://dc.lft.to/lastmile_qr_scan", "android": "https://dc.lft.to/lastmile_qr_scan"}, "is_reserved": 0, "fusion_lon": 0.0, "fusion_lat": 0.0, "lon": -77.0235625, "name": "88a286257687d686504fac0054b0fb73"}, {"bike_id": "3ba93f3d440fe735b313d63d3cfc644f", "type": "electric_scooter", "is_disabled": 0, "lat": 38.934589, "rental_uris": {"ios": "https://dc.lft.to/lastmile_qr_scan", "android": "https://dc.lft.to/lastmile_qr_scan"}, "is_reserved": 0, "fusion_lon": 0.0, "fusion_lat": 0.0, "lon": -76.9644105, "name": "3ba93f3d440fe735b313d63d3cfc644f"}, {"bike_id": "a3a0dec21b922eb5b3fdde3bccb5b99f", "type": "electric_scooter", "is_disabled": 0, "lat": 38.92972133333333, "rental_uris": {"ios": "https://dc.lft.to/lastmile_qr_scan", "android": "https://dc.lft.to/lastmile_qr_scan"}, "is_reserved": 0, "fusion_lon": 0.0, "fusion_lat": 0.0, "lon": -77.0318935, "name": "a3a0dec21b922eb5b3fdde3bccb5b99f"}, {"bike_id": "83c37d3a19045e90af47da4d2ecd86b0", "type": "electric_bike", "is_disabled": 0, "lat": 39.03989333333333, "rental_uris": {"ios": "https://dc.lft.to/lastmile_qr_scan", "android": "https://dc.lft.to/lastmile_qr_scan"}, "is_reserved": 0, "fusion_lon": 0.0, "fusion_lat": 0.0, "lon": -76.99925683333333, "name": "83c37d3a19045e90af47da4d2ecd86b0"}, {"bike_id": "c129e32fc8ebef66b8b3dfc04b88e514", "type": "electric_scooter", "is_disabled": 0, "lat": 38.900569833333336, "rental_uris": {"ios": "https://dc.lft.to/lastmile_qr_scan", "android": "https://dc.lft.to/lastmile_qr_scan"}, "is_reserved": 0, "fusion_lon": 0.0, "fusion_lat": 0.0, "lon": -77.03631933333334, "name": "c129e32fc8ebef66b8b3dfc04b88e514"}, {"bike_id": "8c531cc5addb3a6f64ed959dd388fd3b", "type": "electric_scooter", "is_disabled": 0, "lat": 38.8929375, "rental_uris": {"ios": "https://dc.lft.to/lastmile_qr_scan", "android": "https://dc.lft.to/lastmile_qr_scan"}, "is_reserved": 0, "fusion_lon": 0.0, "fusion_lat": 0.0, "lon": -77.04871916666667, "name": "8c531cc5addb3a6f64ed959dd388fd3b"}, {"bike_id": "b6c83ec750eed4fe2d0fb68058cf6420", "type": "electric_scooter", "is_disabled": 0, "lat": 38.922396666666664, "rental_uris": {"ios": "https://dc.lft.to/lastmile_qr_scan", "android": "https://dc.lft.to/lastmile_qr_scan"}, "is_reserved": 0, "fusion_lon": 0.0, "fusion_lat": 0.0, "lon": -77.03661733333334, "name": "b6c83ec750eed4fe2d0fb68058cf6420"}, {"bike_id": "357a8c92c1a28b3748815dae316d7daf", "type": "electric_scooter", "is_disabled": 0, "lat": 38.916927333333334, "rental_uris": {"ios": "https://dc.lft.to/lastmile_qr_scan", "android": "https://dc.lft.to/lastmile_qr_scan"}, "is_reserved": 0, "fusion_lon": 0.0, "fusion_lat": 0.0, "lon": -77.032258, "name": "357a8c92c1a28b3748815dae316d7daf"}, {"bike_id": "15dcc0d4bbb7a4d6355ea92a1720c864", "type": "electric_scooter", "is_disabled": 0, "lat": 38.90933116666667, "rental_uris": {"ios": "https://dc.lft.to/lastmile_qr_scan", "android": "https://dc.lft.to/lastmile_qr_scan"}, "is_reserved": 0, "fusion_lon": 0.0, "fusion_lat": 0.0, "lon": -76.99968683333333, "name": "15dcc0d4bbb7a4d6355ea92a1720c864"}, {"bike_id": "c2846c2d2208f3913b3a2000ac0b32de", "type": "electric_scooter", "is_disabled": 0, "lat": 38.900291333333335, "rental_uris": {"ios": "https://dc.lft.to/lastmile_qr_scan", "android": "https://dc.lft.to/lastmile_qr_scan"}, "is_reserved": 0, "fusion_lon": 0.0, "fusion_lat": 0.0, "lon": -76.98854266666666, "name": "c2846c2d2208f3913b3a2000ac0b32de"}, {"bike_id": "9866a64bd20aa0428f7c2ba5004e33ff", "type": "electric_scooter", "is_disabled": 0, "lat": 38.90728383333333, "rental_uris": {"ios": "https://dc.lft.to/lastmile_qr_scan", "android": "https://dc.lft.to/lastmile_qr_scan"}, "is_reserved": 0, "fusion_lon": 0.0, "fusion_lat": 0.0, "lon": -77.02254516666666, "name": "9866a64bd20aa0428f7c2ba5004e33ff"}, {"bike_id": "277faf2783f13c76ca258b395a4b0f8d", "type": "electric_scooter", "is_disabled": 0, "lat": 38.8923065, "rental_uris": {"ios": "https://dc.lft.to/lastmile_qr_scan", "android": "https://dc.lft.to/lastmile_qr_scan"}, "is_reserved": 0, "fusion_lon": 0.0, "fusion_lat": 0.0, "lon": -77.03166766666666, "name": "277faf2783f13c76ca258b395a4b0f8d"}, {"bike_id": "0c32c11a89ef368695db6860f9a010aa", "type": "electric_scooter", "is_disabled": 0, "lat": 38.91701583333333, "rental_uris": {"ios": "https://dc.lft.to/lastmile_qr_scan", "android": "https://dc.lft.to/lastmile_qr_scan"}, "is_reserved": 0, "fusion_lon": 0.0, "fusion_lat": 0.0, "lon": -77.0460835, "name": "0c32c11a89ef368695db6860f9a010aa"}, {"bike_id": "a144877d79bda97c2be551771e4cb35d", "type": "electric_scooter", "is_disabled": 0, "lat": 38.93248416666667, "rental_uris": {"ios": "https://dc.lft.to/lastmile_qr_scan", "android": "https://dc.lft.to/lastmile_qr_scan"}, "is_reserved": 0, "fusion_lon": 0.0, "fusion_lat": 0.0, "lon": -76.9951745, "name": "a144877d79bda97c2be551771e4cb35d"}, {"bike_id": "e8f8c50ddfc99200d25ec87e935ddf8c", "type": "electric_scooter", "is_disabled": 0, "lat": 38.90744883333333, "rental_uris": {"ios": "https://dc.lft.to/lastmile_qr_scan", "android": "https://dc.lft.to/lastmile_qr_scan"}, "is_reserved": 0, "fusion_lon": 0.0, "fusion_lat": 0.0, "lon": -77.0419805, "name": "e8f8c50ddfc99200d25ec87e935ddf8c"}, {"bike_id": "083208071609d6d060d3b544114253b0", "type": "electric_scooter", "is_disabled": 0, "lat": 38.92217483333334, "rental_uris": {"ios": "https://dc.lft.to/lastmile_qr_scan", "android": "https://dc.lft.to/lastmile_qr_scan"}, "is_reserved": 0, "fusion_lon": 0.0, "fusion_lat": 0.0, "lon": -77.03456266666667, "name": "083208071609d6d060d3b544114253b0"}, {"bike_id": "02db091726da5d0ab2468f820d012b95", "type": "electric_scooter", "is_disabled": 0, "lat": 38.902921, "rental_uris": {"ios": "https://dc.lft.to/lastmile_qr_scan", "android": "https://dc.lft.to/lastmile_qr_scan"}, "is_reserved": 0, "fusion_lon": 0.0, "fusion_lat": 0.0, "lon": -76.97635416666667, "name": "02db091726da5d0ab2468f820d012b95"}, {"bike_id": "0044123aa538e8c2236acea2f39c3abe", "type": "electric_bike", "is_disabled": 0, "lat": 39.037043, "rental_uris": {"ios": "https://dc.lft.to/lastmile_qr_scan", "android": "https://dc.lft.to/lastmile_qr_scan"}, "is_reserved": 0, "fusion_lon": 0.0, "fusion_lat": 0.0, "lon": -77.02860783333334, "name": "0044123aa538e8c2236acea2f39c3abe"}, {"bike_id": "884ad8c7ee9b0eb399d3e5fc4ade762a", "type": "electric_scooter", "is_disabled": 0, "lat": 38.922459333333336, "rental_uris": {"ios": "https://dc.lft.to/lastmile_qr_scan", "android": "https://dc.lft.to/lastmile_qr_scan"}, "is_reserved": 0, "fusion_lon": 0.0, "fusion_lat": 0.0, "lon": -77.042704, "name": "884ad8c7ee9b0eb399d3e5fc4ade762a"}, {"bike_id": "d43d8d29759ddb63553512a677a72e35", "type": "electric_scooter", "is_disabled": 0, "lat": 38.902245666666666, "rental_uris": {"ios": "https://dc.lft.to/lastmile_qr_scan", "android": "https://dc.lft.to/lastmile_qr_scan"}, "is_reserved": 0, "fusion_lon": 0.0, "fusion_lat": 0.0, "lon": -77.0590025, "name": "d43d8d29759ddb63553512a677a72e35"}, {"bike_id": "fa4927f8b02459964dbbbf6447eae0d5", "type": "electric_scooter", "is_disabled": 0, "lat": 38.9325385, "rental_uris": {"ios": "https://dc.lft.to/lastmile_qr_scan", "android": "https://dc.lft.to/lastmile_qr_scan"}, "is_reserved": 0, "fusion_lon": 0.0, "fusion_lat": 0.0, "lon": -77.03285183333334, "name": "fa4927f8b02459964dbbbf6447eae0d5"}, {"bike_id": "4a2b9a8a99d928adcea941e66aa93e0d", "type": "electric_scooter", "is_disabled": 0, "lat": 38.89720766666667, "rental_uris": {"ios": "https://dc.lft.to/lastmile_qr_scan", "android": "https://dc.lft.to/lastmile_qr_scan"}, "is_reserved": 0, "fusion_lon": 0.0, "fusion_lat": 0.0, "lon": -76.98356333333334, "name": "4a2b9a8a99d928adcea941e66aa93e0d"}, {"bike_id": "f6002259c2b6598f66a4a05d2f048a56", "type": "electric_scooter", "is_disabled": 0, "lat": 38.915749, "rental_uris": {"ios": "https://dc.lft.to/lastmile_qr_scan", "android": "https://dc.lft.to/lastmile_qr_scan"}, "is_reserved": 0, "fusion_lon": 0.0, "fusion_lat": 0.0, "lon": -77.01953633333333, "name": "f6002259c2b6598f66a4a05d2f048a56"}, {"bike_id": "0d6af2600a6201a42583d66bd363165f", "type": "electric_scooter", "is_disabled": 0, "lat": 38.915297, "rental_uris": {"ios": "https://dc.lft.to/lastmile_qr_scan", "android": "https://dc.lft.to/lastmile_qr_scan"}, "is_reserved": 0, "fusion_lon": 0.0, "fusion_lat": 0.0, "lon": -77.0184135, "name": "0d6af2600a6201a42583d66bd363165f"}, {"bike_id": "39bc58d4b1cabf46ec193495b6dce534", "type": "electric_scooter", "is_disabled": 0, "lat": 38.914868, "rental_uris": {"ios": "https://dc.lft.to/lastmile_qr_scan", "android": "https://dc.lft.to/lastmile_qr_scan"}, "is_reserved": 0, "fusion_lon": 0.0, "fusion_lat": 0.0, "lon": -77.0258255, "name": "39bc58d4b1cabf46ec193495b6dce534"}, {"bike_id": "0d2ce2ffab57e35ed66840f804051149", "type": "electric_scooter", "is_disabled": 0, "lat": 38.89828266666667, "rental_uris": {"ios": "https://dc.lft.to/lastmile_qr_scan", "android": "https://dc.lft.to/lastmile_qr_scan"}, "is_reserved": 0, "fusion_lon": 0.0, "fusion_lat": 0.0, "lon": -77.017522, "name": "0d2ce2ffab57e35ed66840f804051149"}, {"bike_id": "ee24420691d9df6bb589b4fe347e6704", "type": "electric_bike", "is_disabled": 0, "lat": 38.950965, "rental_uris": {"ios": "https://dc.lft.to/lastmile_qr_scan", "android": "https://dc.lft.to/lastmile_qr_scan"}, "is_reserved": 0, "fusion_lon": 0.0, "fusion_lat": 0.0, "lon": -77.08089633333333, "name": "ee24420691d9df6bb589b4fe347e6704"}, {"bike_id": "3b04b7b8c78a248753c30c49130b4489", "type": "electric_scooter", "is_disabled": 0, "lat": 38.9288515, "rental_uris": {"ios": "https://dc.lft.to/lastmile_qr_scan", "android": "https://dc.lft.to/lastmile_qr_scan"}, "is_reserved": 0, "fusion_lon": 0.0, "fusion_lat": 0.0, "lon": -77.02659483333333, "name": "3b04b7b8c78a248753c30c49130b4489"}, {"bike_id": "310cb214aaf71bcb6b51d392ef391e6e", "type": "electric_scooter", "is_disabled": 0, "lat": 38.9152455, "rental_uris": {"ios": "https://dc.lft.to/lastmile_qr_scan", "android": "https://dc.lft.to/lastmile_qr_scan"}, "is_reserved": 0, "fusion_lon": 0.0, "fusion_lat": 0.0, "lon": -77.02303233333333, "name": "310cb214aaf71bcb6b51d392ef391e6e"}, {"bike_id": "84c047825b28a734c9e4bee8fe9f1cf7", "type": "electric_scooter", "is_disabled": 0, "lat": 38.93918633333333, "rental_uris": {"ios": "https://dc.lft.to/lastmile_qr_scan", "android": "https://dc.lft.to/lastmile_qr_scan"}, "is_reserved": 0, "fusion_lon": 0.0, "fusion_lat": 0.0, "lon": -77.06046666666667, "name": "84c047825b28a734c9e4bee8fe9f1cf7"}, {"bike_id": "f399ab4bd98e69aa4ef69ca3f01f783b", "type": "electric_scooter", "is_disabled": 0, "lat": 38.91271033333334, "rental_uris": {"ios": "https://dc.lft.to/lastmile_qr_scan", "android": "https://dc.lft.to/lastmile_qr_scan"}, "is_reserved": 0, "fusion_lon": 0.0, "fusion_lat": 0.0, "lon": -77.02950466666667, "name": "f399ab4bd98e69aa4ef69ca3f01f783b"}, {"bike_id": "f52e4dad7b897cb13b214c70e1205c91", "type": "electric_scooter", "is_disabled": 0, "lat": 38.8756345, "rental_uris": {"ios": "https://dc.lft.to/lastmile_qr_scan", "android": "https://dc.lft.to/lastmile_qr_scan"}, "is_reserved": 0, "fusion_lon": 0.0, "fusion_lat": 0.0, "lon": -76.958643, "name": "f52e4dad7b897cb13b214c70e1205c91"}, {"bike_id": "cee8c3791c90dc8dfead3ab875047bf8", "type": "electric_scooter", "is_disabled": 0, "lat": 38.92025616666667, "rental_uris": {"ios": "https://dc.lft.to/lastmile_qr_scan", "android": "https://dc.lft.to/lastmile_qr_scan"}, "is_reserved": 0, "fusion_lon": 0.0, "fusion_lat": 0.0, "lon": -77.042053, "name": "cee8c3791c90dc8dfead3ab875047bf8"}, {"bike_id": "b5f2a1665a286d710bf5414863e11d36", "type": "electric_scooter", "is_disabled": 0, "lat": 38.956577833333334, "rental_uris": {"ios": "https://dc.lft.to/lastmile_qr_scan", "android": "https://dc.lft.to/lastmile_qr_scan"}, "is_reserved": 0, "fusion_lon": 0.0, "fusion_lat": 0.0, "lon": -77.01966466666667, "name": "b5f2a1665a286d710bf5414863e11d36"}, {"bike_id": "223fe7e781131f7c4546ab74fa0db9f7", "type": "electric_scooter", "is_disabled": 0, "lat": 38.932755, "rental_uris": {"ios": "https://dc.lft.to/lastmile_qr_scan", "android": "https://dc.lft.to/lastmile_qr_scan"}, "is_reserved": 0, "fusion_lon": 0.0, "fusion_lat": 0.0, "lon": -77.03493533333334, "name": "223fe7e781131f7c4546ab74fa0db9f7"}, {"bike_id": "e6a796efee2e2706b871d52d76af57b3", "type": "electric_scooter", "is_disabled": 0, "lat": 38.9190425, "rental_uris": {"ios": "https://dc.lft.to/lastmile_qr_scan", "android": "https://dc.lft.to/lastmile_qr_scan"}, "is_reserved": 0, "fusion_lon": 0.0, "fusion_lat": 0.0, "lon": -77.01355333333333, "name": "e6a796efee2e2706b871d52d76af57b3"}, {"bike_id": "0bfbf24840cffd736dcbf0a9315751ec", "type": "electric_scooter", "is_disabled": 0, "lat": 38.903839833333336, "rental_uris": {"ios": "https://dc.lft.to/lastmile_qr_scan", "android": "https://dc.lft.to/lastmile_qr_scan"}, "is_reserved": 0, "fusion_lon": 0.0, "fusion_lat": 0.0, "lon": -77.02941283333334, "name": "0bfbf24840cffd736dcbf0a9315751ec"}, {"bike_id": "961ba72eb2230bdd6c6d83f8f06080c5", "type": "electric_scooter", "is_disabled": 0, "lat": 38.928822333333336, "rental_uris": {"ios": "https://dc.lft.to/lastmile_qr_scan", "android": "https://dc.lft.to/lastmile_qr_scan"}, "is_reserved": 0, "fusion_lon": 0.0, "fusion_lat": 0.0, "lon": -77.02693916666666, "name": "961ba72eb2230bdd6c6d83f8f06080c5"}, {"bike_id": "3f610e13f51889780ee71f7cbd74065e", "type": "electric_scooter", "is_disabled": 0, "lat": 38.892375, "rental_uris": {"ios": "https://dc.lft.to/lastmile_qr_scan", "android": "https://dc.lft.to/lastmile_qr_scan"}, "is_reserved": 0, "fusion_lon": 0.0, "fusion_lat": 0.0, "lon": -76.94096383333333, "name": "3f610e13f51889780ee71f7cbd74065e"}, {"bike_id": "7774027f3ab4c1e7b9c09c4cbb8244fd", "type": "electric_scooter", "is_disabled": 0, "lat": 38.93482183333333, "rental_uris": {"ios": "https://dc.lft.to/lastmile_qr_scan", "android": "https://dc.lft.to/lastmile_qr_scan"}, "is_reserved": 0, "fusion_lon": 0.0, "fusion_lat": 0.0, "lon": -77.08150516666667, "name": "7774027f3ab4c1e7b9c09c4cbb8244fd"}, {"bike_id": "d437c91c311701e90908af7184677573", "type": "electric_scooter", "is_disabled": 0, "lat": 38.882690833333335, "rental_uris": {"ios": "https://dc.lft.to/lastmile_qr_scan", "android": "https://dc.lft.to/lastmile_qr_scan"}, "is_reserved": 0, "fusion_lon": 0.0, "fusion_lat": 0.0, "lon": -76.99016316666666, "name": "d437c91c311701e90908af7184677573"}, {"bike_id": "67989e0e496f688388be863474509dd9", "type": "electric_scooter", "is_disabled": 0, "lat": 38.94713266666667, "rental_uris": {"ios": "https://dc.lft.to/lastmile_qr_scan", "android": "https://dc.lft.to/lastmile_qr_scan"}, "is_reserved": 0, "fusion_lon": 0.0, "fusion_lat": 0.0, "lon": -77.03324416666666, "name": "67989e0e496f688388be863474509dd9"}, {"bike_id": "119d8cd39171b36ee1b4a5a23dd87d53", "type": "electric_scooter", "is_disabled": 0, "lat": 38.916058666666665, "rental_uris": {"ios": "https://dc.lft.to/lastmile_qr_scan", "android": "https://dc.lft.to/lastmile_qr_scan"}, "is_reserved": 0, "fusion_lon": 0.0, "fusion_lat": 0.0, "lon": -77.02293866666666, "name": "119d8cd39171b36ee1b4a5a23dd87d53"}, {"bike_id": "7cb6af4000b93d5c99b6365c5bae82fa", "type": "electric_scooter", "is_disabled": 0, "lat": 38.91638666666667, "rental_uris": {"ios": "https://dc.lft.to/lastmile_qr_scan", "android": "https://dc.lft.to/lastmile_qr_scan"}, "is_reserved": 0, "fusion_lon": 0.0, "fusion_lat": 0.0, "lon": -77.00046183333333, "name": "7cb6af4000b93d5c99b6365c5bae82fa"}, {"bike_id": "e9050128e342881861e227e253da6492", "type": "electric_scooter", "is_disabled": 0, "lat": 38.915814166666664, "rental_uris": {"ios": "https://dc.lft.to/lastmile_qr_scan", "android": "https://dc.lft.to/lastmile_qr_scan"}, "is_reserved": 0, "fusion_lon": 0.0, "fusion_lat": 0.0, "lon": -77.01599133333333, "name": "e9050128e342881861e227e253da6492"}, {"bike_id": "e2f080600dc7fa9127abfc8b676cd35d", "type": "electric_scooter", "is_disabled": 0, "lat": 38.928513333333335, "rental_uris": {"ios": "https://dc.lft.to/lastmile_qr_scan", "android": "https://dc.lft.to/lastmile_qr_scan"}, "is_reserved": 0, "fusion_lon": 0.0, "fusion_lat": 0.0, "lon": -77.035902, "name": "e2f080600dc7fa9127abfc8b676cd35d"}, {"bike_id": "fd8cdf79936f156ddbb962b25d89946f", "type": "electric_scooter", "is_disabled": 0, "lat": 38.915365, "rental_uris": {"ios": "https://dc.lft.to/lastmile_qr_scan", "android": "https://dc.lft.to/lastmile_qr_scan"}, "is_reserved": 0, "fusion_lon": 0.0, "fusion_lat": 0.0, "lon": -77.01995233333334, "name": "fd8cdf79936f156ddbb962b25d89946f"}, {"bike_id": "aac1f10cf7579c1dcc44a4082a2fb838", "type": "electric_scooter", "is_disabled": 0, "lat": 38.88879566666667, "rental_uris": {"ios": "https://dc.lft.to/lastmile_qr_scan", "android": "https://dc.lft.to/lastmile_qr_scan"}, "is_reserved": 0, "fusion_lon": 0.0, "fusion_lat": 0.0, "lon": -76.9903125, "name": "aac1f10cf7579c1dcc44a4082a2fb838"}, {"bike_id": "c4f99eae0bee00f3d861dec3e19aa396", "type": "electric_scooter", "is_disabled": 0, "lat": 38.897861, "rental_uris": {"ios": "https://dc.lft.to/lastmile_qr_scan", "android": "https://dc.lft.to/lastmile_qr_scan"}, "is_reserved": 0, "fusion_lon": 0.0, "fusion_lat": 0.0, "lon": -77.02495483333334, "name": "c4f99eae0bee00f3d861dec3e19aa396"}, {"bike_id": "dd215d4240d18fb5c719d15d6fef1576", "type": "electric_scooter", "is_disabled": 0, "lat": 38.93510416666667, "rental_uris": {"ios": "https://dc.lft.to/lastmile_qr_scan", "android": "https://dc.lft.to/lastmile_qr_scan"}, "is_reserved": 0, "fusion_lon": 0.0, "fusion_lat": 0.0, "lon": -77.03285616666666, "name": "dd215d4240d18fb5c719d15d6fef1576"}, {"bike_id": "8bb233e944b4705352b7f9867334b27c", "type": "electric_scooter", "is_disabled": 0, "lat": 38.941885666666664, "rental_uris": {"ios": "https://dc.lft.to/lastmile_qr_scan", "android": "https://dc.lft.to/lastmile_qr_scan"}, "is_reserved": 0, "fusion_lon": 0.0, "fusion_lat": 0.0, "lon": -77.0249005, "name": "8bb233e944b4705352b7f9867334b27c"}, {"bike_id": "bd33a9f078f0b454a4e0ba441489bc31", "type": "electric_scooter", "is_disabled": 0, "lat": 38.859698333333334, "rental_uris": {"ios": "https://dc.lft.to/lastmile_qr_scan", "android": "https://dc.lft.to/lastmile_qr_scan"}, "is_reserved": 0, "fusion_lon": 0.0, "fusion_lat": 0.0, "lon": -76.99160166666667, "name": "bd33a9f078f0b454a4e0ba441489bc31"}, {"bike_id": "494e7cb13415dc48c100907ea6b69d35", "type": "electric_scooter", "is_disabled": 0, "lat": 38.914206, "rental_uris": {"ios": "https://dc.lft.to/lastmile_qr_scan", "android": "https://dc.lft.to/lastmile_qr_scan"}, "is_reserved": 0, "fusion_lon": 0.0, "fusion_lat": 0.0, "lon": -77.041598, "name": "494e7cb13415dc48c100907ea6b69d35"}, {"bike_id": "956256c19bd4e2e72955d1461ada93f3", "type": "electric_scooter", "is_disabled": 0, "lat": 38.912531333333334, "rental_uris": {"ios": "https://dc.lft.to/lastmile_qr_scan", "android": "https://dc.lft.to/lastmile_qr_scan"}, "is_reserved": 0, "fusion_lon": 0.0, "fusion_lat": 0.0, "lon": -77.02431, "name": "956256c19bd4e2e72955d1461ada93f3"}, {"bike_id": "c4f3059f9506380da20c21e81bd37fc2", "type": "electric_scooter", "is_disabled": 0, "lat": 38.918179, "rental_uris": {"ios": "https://dc.lft.to/lastmile_qr_scan", "android": "https://dc.lft.to/lastmile_qr_scan"}, "is_reserved": 0, "fusion_lon": 0.0, "fusion_lat": 0.0, "lon": -77.03249883333334, "name": "c4f3059f9506380da20c21e81bd37fc2"}, {"bike_id": "912b4c4ca181af763bcb2fa324bca169", "type": "electric_scooter", "is_disabled": 0, "lat": 38.875502, "rental_uris": {"ios": "https://dc.lft.to/lastmile_qr_scan", "android": "https://dc.lft.to/lastmile_qr_scan"}, "is_reserved": 0, "fusion_lon": 0.0, "fusion_lat": 0.0, "lon": -77.00627316666667, "name": "912b4c4ca181af763bcb2fa324bca169"}, {"bike_id": "d85b866426dc6204785da5cf20ab6476", "type": "electric_scooter", "is_disabled": 0, "lat": 38.92476083333333, "rental_uris": {"ios": "https://dc.lft.to/lastmile_qr_scan", "android": "https://dc.lft.to/lastmile_qr_scan"}, "is_reserved": 0, "fusion_lon": 0.0, "fusion_lat": 0.0, "lon": -77.03777966666667, "name": "d85b866426dc6204785da5cf20ab6476"}, {"bike_id": "99e6d4cd53eafc8525e4d15f080c2886", "type": "electric_scooter", "is_disabled": 0, "lat": 38.91921466666667, "rental_uris": {"ios": "https://dc.lft.to/lastmile_qr_scan", "android": "https://dc.lft.to/lastmile_qr_scan"}, "is_reserved": 0, "fusion_lon": 0.0, "fusion_lat": 0.0, "lon": -77.02431916666667, "name": "99e6d4cd53eafc8525e4d15f080c2886"}, {"bike_id": "39ac70d35cd95605321907c7c8d5b760", "type": "electric_scooter", "is_disabled": 0, "lat": 38.917609666666664, "rental_uris": {"ios": "https://dc.lft.to/lastmile_qr_scan", "android": "https://dc.lft.to/lastmile_qr_scan"}, "is_reserved": 0, "fusion_lon": 0.0, "fusion_lat": 0.0, "lon": -77.0045125, "name": "39ac70d35cd95605321907c7c8d5b760"}, {"bike_id": "353670ec70334f8874b7b50417bd0f2f", "type": "electric_scooter", "is_disabled": 0, "lat": 38.918062166666665, "rental_uris": {"ios": "https://dc.lft.to/lastmile_qr_scan", "android": "https://dc.lft.to/lastmile_qr_scan"}, "is_reserved": 0, "fusion_lon": 0.0, "fusion_lat": 0.0, "lon": -77.03437466666666, "name": "353670ec70334f8874b7b50417bd0f2f"}, {"bike_id": "7772cee45131fdd71358a03944658d99", "type": "electric_scooter", "is_disabled": 0, "lat": 38.906407, "rental_uris": {"ios": "https://dc.lft.to/lastmile_qr_scan", "android": "https://dc.lft.to/lastmile_qr_scan"}, "is_reserved": 0, "fusion_lon": 0.0, "fusion_lat": 0.0, "lon": -77.0178735, "name": "7772cee45131fdd71358a03944658d99"}, {"bike_id": "eca8bca96273ceccfd30cdea6cb2f782", "type": "electric_scooter", "is_disabled": 0, "lat": 38.9181805, "rental_uris": {"ios": "https://dc.lft.to/lastmile_qr_scan", "android": "https://dc.lft.to/lastmile_qr_scan"}, "is_reserved": 0, "fusion_lon": 0.0, "fusion_lat": 0.0, "lon": -77.002592, "name": "eca8bca96273ceccfd30cdea6cb2f782"}, {"bike_id": "26327a7907427c59d44e914ce2ff1356", "type": "electric_scooter", "is_disabled": 0, "lat": 38.90267333333333, "rental_uris": {"ios": "https://dc.lft.to/lastmile_qr_scan", "android": "https://dc.lft.to/lastmile_qr_scan"}, "is_reserved": 0, "fusion_lon": 0.0, "fusion_lat": 0.0, "lon": -77.0188175, "name": "26327a7907427c59d44e914ce2ff1356"}, {"bike_id": "a3a018eb6e00fd87b3124895df8e1a8e", "type": "electric_scooter", "is_disabled": 0, "lat": 38.93599866666667, "rental_uris": {"ios": "https://dc.lft.to/lastmile_qr_scan", "android": "https://dc.lft.to/lastmile_qr_scan"}, "is_reserved": 0, "fusion_lon": 0.0, "fusion_lat": 0.0, "lon": -77.03657366666667, "name": "a3a018eb6e00fd87b3124895df8e1a8e"}, {"bike_id": "595b23304fbbf0adb6d516cd099b3b70", "type": "electric_scooter", "is_disabled": 0, "lat": 38.9222055, "rental_uris": {"ios": "https://dc.lft.to/lastmile_qr_scan", "android": "https://dc.lft.to/lastmile_qr_scan"}, "is_reserved": 0, "fusion_lon": 0.0, "fusion_lat": 0.0, "lon": -77.0424315, "name": "595b23304fbbf0adb6d516cd099b3b70"}, {"bike_id": "22a72782a21cb201a1e7e72c51080761", "type": "electric_scooter", "is_disabled": 0, "lat": 38.92316483333333, "rental_uris": {"ios": "https://dc.lft.to/lastmile_qr_scan", "android": "https://dc.lft.to/lastmile_qr_scan"}, "is_reserved": 0, "fusion_lon": 0.0, "fusion_lat": 0.0, "lon": -77.029844, "name": "22a72782a21cb201a1e7e72c51080761"}, {"bike_id": "39669e6a80cc36d2dc54ac76256a04cb", "type": "electric_scooter", "is_disabled": 0, "lat": 38.89648183333333, "rental_uris": {"ios": "https://dc.lft.to/lastmile_qr_scan", "android": "https://dc.lft.to/lastmile_qr_scan"}, "is_reserved": 0, "fusion_lon": 0.0, "fusion_lat": 0.0, "lon": -77.0281655, "name": "39669e6a80cc36d2dc54ac76256a04cb"}, {"bike_id": "f138f78510b3a6762ab23dc6d72afaac", "type": "electric_bike", "is_disabled": 0, "lat": 38.884045, "rental_uris": {"ios": "https://dc.lft.to/lastmile_qr_scan", "android": "https://dc.lft.to/lastmile_qr_scan"}, "is_reserved": 0, "fusion_lon": 0.0, "fusion_lat": 0.0, "lon": -76.9605715, "name": "f138f78510b3a6762ab23dc6d72afaac"}, {"bike_id": "59bc7399783a1e26fb56fda4ac2d89f1", "type": "electric_scooter", "is_disabled": 0, "lat": 38.91767466666667, "rental_uris": {"ios": "https://dc.lft.to/lastmile_qr_scan", "android": "https://dc.lft.to/lastmile_qr_scan"}, "is_reserved": 0, "fusion_lon": 0.0, "fusion_lat": 0.0, "lon": -77.04764083333333, "name": "59bc7399783a1e26fb56fda4ac2d89f1"}, {"bike_id": "95b0ade08c9ccabea4e752c8a1599836", "type": "electric_scooter", "is_disabled": 0, "lat": 38.90082833333334, "rental_uris": {"ios": "https://dc.lft.to/lastmile_qr_scan", "android": "https://dc.lft.to/lastmile_qr_scan"}, "is_reserved": 0, "fusion_lon": 0.0, "fusion_lat": 0.0, "lon": -77.01209116666666, "name": "95b0ade08c9ccabea4e752c8a1599836"}, {"bike_id": "5401272a53b67b8358583f418793e8fa", "type": "electric_bike", "is_disabled": 0, "lat": 38.855620333333334, "rental_uris": {"ios": "https://dc.lft.to/lastmile_qr_scan", "android": "https://dc.lft.to/lastmile_qr_scan"}, "is_reserved": 0, "fusion_lon": 0.0, "fusion_lat": 0.0, "lon": -77.11313633333333, "name": "5401272a53b67b8358583f418793e8fa"}, {"bike_id": "7635a0de588c43e7021373ae335f91f9", "type": "electric_scooter", "is_disabled": 0, "lat": 38.927724, "rental_uris": {"ios": "https://dc.lft.to/lastmile_qr_scan", "android": "https://dc.lft.to/lastmile_qr_scan"}, "is_reserved": 0, "fusion_lon": 0.0, "fusion_lat": 0.0, "lon": -77.02736266666666, "name": "7635a0de588c43e7021373ae335f91f9"}, {"bike_id": "a1a635c2a07e0441129bdc7577db82ff", "type": "electric_scooter", "is_disabled": 0, "lat": 38.91969533333334, "rental_uris": {"ios": "https://dc.lft.to/lastmile_qr_scan", "android": "https://dc.lft.to/lastmile_qr_scan"}, "is_reserved": 0, "fusion_lon": 0.0, "fusion_lat": 0.0, "lon": -77.0407695, "name": "a1a635c2a07e0441129bdc7577db82ff"}, {"bike_id": "0f5752af069b958edc52f7f8f63f8d4c", "type": "electric_scooter", "is_disabled": 0, "lat": 38.91249766666667, "rental_uris": {"ios": "https://dc.lft.to/lastmile_qr_scan", "android": "https://dc.lft.to/lastmile_qr_scan"}, "is_reserved": 0, "fusion_lon": 0.0, "fusion_lat": 0.0, "lon": -77.0587905, "name": "0f5752af069b958edc52f7f8f63f8d4c"}, {"bike_id": "ceefe06560e9630ed9bba87b2e90523a", "type": "electric_scooter", "is_disabled": 0, "lat": 38.90551, "rental_uris": {"ios": "https://dc.lft.to/lastmile_qr_scan", "android": "https://dc.lft.to/lastmile_qr_scan"}, "is_reserved": 0, "fusion_lon": 0.0, "fusion_lat": 0.0, "lon": -77.00569766666666, "name": "ceefe06560e9630ed9bba87b2e90523a"}, {"bike_id": "d01658390743bf773b7046e2fb60e28b", "type": "electric_scooter", "is_disabled": 0, "lat": 38.9056575, "rental_uris": {"ios": "https://dc.lft.to/lastmile_qr_scan", "android": "https://dc.lft.to/lastmile_qr_scan"}, "is_reserved": 0, "fusion_lon": 0.0, "fusion_lat": 0.0, "lon": -77.01677133333334, "name": "d01658390743bf773b7046e2fb60e28b"}, {"bike_id": "72d056735f587346d1f8ae1fc993ff1f", "type": "electric_scooter", "is_disabled": 0, "lat": 38.91557983333333, "rental_uris": {"ios": "https://dc.lft.to/lastmile_qr_scan", "android": "https://dc.lft.to/lastmile_qr_scan"}, "is_reserved": 0, "fusion_lon": 0.0, "fusion_lat": 0.0, "lon": -77.03842366666667, "name": "72d056735f587346d1f8ae1fc993ff1f"}, {"bike_id": "dcb20abfd36720feb9426c7bb328aa0b", "type": "electric_bike", "is_disabled": 0, "lat": 38.855283666666665, "rental_uris": {"ios": "https://dc.lft.to/lastmile_qr_scan", "android": "https://dc.lft.to/lastmile_qr_scan"}, "is_reserved": 0, "fusion_lon": 0.0, "fusion_lat": 0.0, "lon": -77.12006133333334, "name": "dcb20abfd36720feb9426c7bb328aa0b"}, {"bike_id": "e139a9fc835bc075658d4b861741a8ce", "type": "electric_bike", "is_disabled": 0, "lat": 38.854864666666664, "rental_uris": {"ios": "https://dc.lft.to/lastmile_qr_scan", "android": "https://dc.lft.to/lastmile_qr_scan"}, "is_reserved": 0, "fusion_lon": 0.0, "fusion_lat": 0.0, "lon": -77.116097, "name": "e139a9fc835bc075658d4b861741a8ce"}, {"bike_id": "60d5388c1478b86edf00400bf223d4d1", "type": "electric_scooter", "is_disabled": 0, "lat": 38.91553866666667, "rental_uris": {"ios": "https://dc.lft.to/lastmile_qr_scan", "android": "https://dc.lft.to/lastmile_qr_scan"}, "is_reserved": 0, "fusion_lon": 0.0, "fusion_lat": 0.0, "lon": -77.00362833333334, "name": "60d5388c1478b86edf00400bf223d4d1"}, {"bike_id": "b48df4d5b2fb4d8b3f00b2927bb1d0a6", "type": "electric_scooter", "is_disabled": 0, "lat": 38.902392166666665, "rental_uris": {"ios": "https://dc.lft.to/lastmile_qr_scan", "android": "https://dc.lft.to/lastmile_qr_scan"}, "is_reserved": 0, "fusion_lon": 0.0, "fusion_lat": 0.0, "lon": -77.00207583333334, "name": "b48df4d5b2fb4d8b3f00b2927bb1d0a6"}, {"bike_id": "0c29caad73ee154d283faffe40a16ae8", "type": "electric_bike", "is_disabled": 0, "lat": 38.9922775, "rental_uris": {"ios": "https://dc.lft.to/lastmile_qr_scan", "android": "https://dc.lft.to/lastmile_qr_scan"}, "is_reserved": 0, "fusion_lon": 0.0, "fusion_lat": 0.0, "lon": -76.94410333333333, "name": "0c29caad73ee154d283faffe40a16ae8"}, {"bike_id": "e2347814726839ac0a3d82ec7f294395", "type": "electric_scooter", "is_disabled": 0, "lat": 38.947188, "rental_uris": {"ios": "https://dc.lft.to/lastmile_qr_scan", "android": "https://dc.lft.to/lastmile_qr_scan"}, "is_reserved": 0, "fusion_lon": 0.0, "fusion_lat": 0.0, "lon": -77.06541716666666, "name": "e2347814726839ac0a3d82ec7f294395"}, {"bike_id": "fe49cd037b685957ba20f28523a37fda", "type": "electric_scooter", "is_disabled": 0, "lat": 38.91770916666667, "rental_uris": {"ios": "https://dc.lft.to/lastmile_qr_scan", "android": "https://dc.lft.to/lastmile_qr_scan"}, "is_reserved": 0, "fusion_lon": 0.0, "fusion_lat": 0.0, "lon": -77.025067, "name": "fe49cd037b685957ba20f28523a37fda"}, {"bike_id": "4120f3f11bab5e8fc2b74e3eea017d35", "type": "electric_scooter", "is_disabled": 0, "lat": 38.90691533333333, "rental_uris": {"ios": "https://dc.lft.to/lastmile_qr_scan", "android": "https://dc.lft.to/lastmile_qr_scan"}, "is_reserved": 0, "fusion_lon": 0.0, "fusion_lat": 0.0, "lon": -77.025859, "name": "4120f3f11bab5e8fc2b74e3eea017d35"}, {"bike_id": "b0850da6e8c20de10bd8043c8205d7b6", "type": "electric_scooter", "is_disabled": 0, "lat": 38.9170515, "rental_uris": {"ios": "https://dc.lft.to/lastmile_qr_scan", "android": "https://dc.lft.to/lastmile_qr_scan"}, "is_reserved": 0, "fusion_lon": 0.0, "fusion_lat": 0.0, "lon": -77.01203866666667, "name": "b0850da6e8c20de10bd8043c8205d7b6"}, {"bike_id": "445a162e0260518555534a6a957f25c7", "type": "electric_scooter", "is_disabled": 0, "lat": 38.923483833333336, "rental_uris": {"ios": "https://dc.lft.to/lastmile_qr_scan", "android": "https://dc.lft.to/lastmile_qr_scan"}, "is_reserved": 0, "fusion_lon": 0.0, "fusion_lat": 0.0, "lon": -77.03486233333334, "name": "445a162e0260518555534a6a957f25c7"}, {"bike_id": "9269485f3857f00b5a8c9d3a74e037e7", "type": "electric_scooter", "is_disabled": 0, "lat": 38.91047483333333, "rental_uris": {"ios": "https://dc.lft.to/lastmile_qr_scan", "android": "https://dc.lft.to/lastmile_qr_scan"}, "is_reserved": 0, "fusion_lon": 0.0, "fusion_lat": 0.0, "lon": -77.0408135, "name": "9269485f3857f00b5a8c9d3a74e037e7"}, {"bike_id": "bbb6d95ca13ef3f9c4c555866b2bcdb8", "type": "electric_bike", "is_disabled": 0, "lat": 38.800313, "rental_uris": {"ios": "https://dc.lft.to/lastmile_qr_scan", "android": "https://dc.lft.to/lastmile_qr_scan"}, "is_reserved": 0, "fusion_lon": 0.0, "fusion_lat": 0.0, "lon": -77.06315466666666, "name": "bbb6d95ca13ef3f9c4c555866b2bcdb8"}, {"bike_id": "d50d951704243e727c86d9b3f19b12cc", "type": "electric_scooter", "is_disabled": 0, "lat": 38.915629, "rental_uris": {"ios": "https://dc.lft.to/lastmile_qr_scan", "android": "https://dc.lft.to/lastmile_qr_scan"}, "is_reserved": 0, "fusion_lon": 0.0, "fusion_lat": 0.0, "lon": -77.03320733333334, "name": "d50d951704243e727c86d9b3f19b12cc"}, {"bike_id": "1b6e54f0f73373c1a6fa47d6f0c0a2da", "type": "electric_bike", "is_disabled": 0, "lat": 38.948329666666666, "rental_uris": {"ios": "https://dc.lft.to/lastmile_qr_scan", "android": "https://dc.lft.to/lastmile_qr_scan"}, "is_reserved": 0, "fusion_lon": 0.0, "fusion_lat": 0.0, "lon": -77.0390145, "name": "1b6e54f0f73373c1a6fa47d6f0c0a2da"}, {"bike_id": "5e2c3575a9b87965240da41d25ef3b93", "type": "electric_scooter", "is_disabled": 0, "lat": 38.931858166666665, "rental_uris": {"ios": "https://dc.lft.to/lastmile_qr_scan", "android": "https://dc.lft.to/lastmile_qr_scan"}, "is_reserved": 0, "fusion_lon": 0.0, "fusion_lat": 0.0, "lon": -77.02680733333334, "name": "5e2c3575a9b87965240da41d25ef3b93"}, {"bike_id": "44c481909e52e4dc80e3f02576b219b3", "type": "electric_scooter", "is_disabled": 0, "lat": 38.92388733333333, "rental_uris": {"ios": "https://dc.lft.to/lastmile_qr_scan", "android": "https://dc.lft.to/lastmile_qr_scan"}, "is_reserved": 0, "fusion_lon": 0.0, "fusion_lat": 0.0, "lon": -77.04472083333333, "name": "44c481909e52e4dc80e3f02576b219b3"}, {"bike_id": "5615d13e8a27dc611aa0cd86bf4f12fd", "type": "electric_scooter", "is_disabled": 0, "lat": 38.866833166666666, "rental_uris": {"ios": "https://dc.lft.to/lastmile_qr_scan", "android": "https://dc.lft.to/lastmile_qr_scan"}, "is_reserved": 0, "fusion_lon": 0.0, "fusion_lat": 0.0, "lon": -76.98568766666666, "name": "5615d13e8a27dc611aa0cd86bf4f12fd"}, {"bike_id": "ba16a8633c1e82575e9f2d67f4643467", "type": "electric_scooter", "is_disabled": 0, "lat": 38.92025683333333, "rental_uris": {"ios": "https://dc.lft.to/lastmile_qr_scan", "android": "https://dc.lft.to/lastmile_qr_scan"}, "is_reserved": 0, "fusion_lon": 0.0, "fusion_lat": 0.0, "lon": -77.04197316666666, "name": "ba16a8633c1e82575e9f2d67f4643467"}, {"bike_id": "8f8b30b21a4c5ac6b381032d049a8b56", "type": "electric_scooter", "is_disabled": 0, "lat": 38.86506283333333, "rental_uris": {"ios": "https://dc.lft.to/lastmile_qr_scan", "android": "https://dc.lft.to/lastmile_qr_scan"}, "is_reserved": 0, "fusion_lon": 0.0, "fusion_lat": 0.0, "lon": -76.990015, "name": "8f8b30b21a4c5ac6b381032d049a8b56"}, {"bike_id": "4b3e3e82767a9f3193fb0c79e1908140", "type": "electric_scooter", "is_disabled": 0, "lat": 38.92364883333333, "rental_uris": {"ios": "https://dc.lft.to/lastmile_qr_scan", "android": "https://dc.lft.to/lastmile_qr_scan"}, "is_reserved": 0, "fusion_lon": 0.0, "fusion_lat": 0.0, "lon": -77.05126033333333, "name": "4b3e3e82767a9f3193fb0c79e1908140"}, {"bike_id": "82f26157869d72c5eac81266d56ad813", "type": "electric_scooter", "is_disabled": 0, "lat": 38.9233055, "rental_uris": {"ios": "https://dc.lft.to/lastmile_qr_scan", "android": "https://dc.lft.to/lastmile_qr_scan"}, "is_reserved": 0, "fusion_lon": 0.0, "fusion_lat": 0.0, "lon": -77.057434, "name": "82f26157869d72c5eac81266d56ad813"}, {"bike_id": "ff37438f410576c566d71e521ac43063", "type": "electric_scooter", "is_disabled": 0, "lat": 38.919272666666664, "rental_uris": {"ios": "https://dc.lft.to/lastmile_qr_scan", "android": "https://dc.lft.to/lastmile_qr_scan"}, "is_reserved": 0, "fusion_lon": 0.0, "fusion_lat": 0.0, "lon": -77.02422416666667, "name": "ff37438f410576c566d71e521ac43063"}, {"bike_id": "e9374ed64b4c63f98b00585e54564a63", "type": "electric_scooter", "is_disabled": 0, "lat": 38.92878366666667, "rental_uris": {"ios": "https://dc.lft.to/lastmile_qr_scan", "android": "https://dc.lft.to/lastmile_qr_scan"}, "is_reserved": 0, "fusion_lon": 0.0, "fusion_lat": 0.0, "lon": -77.01839416666667, "name": "e9374ed64b4c63f98b00585e54564a63"}, {"bike_id": "a6b06ce7fadbb2972654a685989f5e2c", "type": "electric_scooter", "is_disabled": 0, "lat": 38.93344483333333, "rental_uris": {"ios": "https://dc.lft.to/lastmile_qr_scan", "android": "https://dc.lft.to/lastmile_qr_scan"}, "is_reserved": 0, "fusion_lon": 0.0, "fusion_lat": 0.0, "lon": -77.04107216666667, "name": "a6b06ce7fadbb2972654a685989f5e2c"}, {"bike_id": "2e2fdc96446df1625528505c77ab661a", "type": "electric_scooter", "is_disabled": 0, "lat": 38.9071345, "rental_uris": {"ios": "https://dc.lft.to/lastmile_qr_scan", "android": "https://dc.lft.to/lastmile_qr_scan"}, "is_reserved": 0, "fusion_lon": 0.0, "fusion_lat": 0.0, "lon": -77.01921033333333, "name": "2e2fdc96446df1625528505c77ab661a"}, {"bike_id": "8cb76ee7feb480ee3d79de8efa081fbe", "type": "electric_scooter", "is_disabled": 0, "lat": 38.91612216666667, "rental_uris": {"ios": "https://dc.lft.to/lastmile_qr_scan", "android": "https://dc.lft.to/lastmile_qr_scan"}, "is_reserved": 0, "fusion_lon": 0.0, "fusion_lat": 0.0, "lon": -77.03373133333334, "name": "8cb76ee7feb480ee3d79de8efa081fbe"}, {"bike_id": "6735522066fc8439a75bca6b7baf80a7", "type": "electric_scooter", "is_disabled": 0, "lat": 38.93649083333333, "rental_uris": {"ios": "https://dc.lft.to/lastmile_qr_scan", "android": "https://dc.lft.to/lastmile_qr_scan"}, "is_reserved": 0, "fusion_lon": 0.0, "fusion_lat": 0.0, "lon": -77.033478, "name": "6735522066fc8439a75bca6b7baf80a7"}, {"bike_id": "7f19af2bea6f01a025808f3b3727f44b", "type": "electric_scooter", "is_disabled": 0, "lat": 38.915135166666666, "rental_uris": {"ios": "https://dc.lft.to/lastmile_qr_scan", "android": "https://dc.lft.to/lastmile_qr_scan"}, "is_reserved": 0, "fusion_lon": 0.0, "fusion_lat": 0.0, "lon": -77.04155383333334, "name": "7f19af2bea6f01a025808f3b3727f44b"}, {"bike_id": "4e10fa6a79eb2db438148240abb41436", "type": "electric_scooter", "is_disabled": 0, "lat": 38.92620683333333, "rental_uris": {"ios": "https://dc.lft.to/lastmile_qr_scan", "android": "https://dc.lft.to/lastmile_qr_scan"}, "is_reserved": 0, "fusion_lon": 0.0, "fusion_lat": 0.0, "lon": -77.04189116666667, "name": "4e10fa6a79eb2db438148240abb41436"}, {"bike_id": "341233090ad79123feeb71232e1318a7", "type": "electric_scooter", "is_disabled": 0, "lat": 38.90407366666667, "rental_uris": {"ios": "https://dc.lft.to/lastmile_qr_scan", "android": "https://dc.lft.to/lastmile_qr_scan"}, "is_reserved": 0, "fusion_lon": 0.0, "fusion_lat": 0.0, "lon": -76.9733225, "name": "341233090ad79123feeb71232e1318a7"}, {"bike_id": "cb0bc1216e7fe383ed41f32e48712849", "type": "electric_scooter", "is_disabled": 0, "lat": 38.91611533333333, "rental_uris": {"ios": "https://dc.lft.to/lastmile_qr_scan", "android": "https://dc.lft.to/lastmile_qr_scan"}, "is_reserved": 0, "fusion_lon": 0.0, "fusion_lat": 0.0, "lon": -77.04604166666667, "name": "cb0bc1216e7fe383ed41f32e48712849"}, {"bike_id": "185d1a679bbd339652b72c723fb0be13", "type": "electric_scooter", "is_disabled": 0, "lat": 38.9014495, "rental_uris": {"ios": "https://dc.lft.to/lastmile_qr_scan", "android": "https://dc.lft.to/lastmile_qr_scan"}, "is_reserved": 0, "fusion_lon": 0.0, "fusion_lat": 0.0, "lon": -76.930843, "name": "185d1a679bbd339652b72c723fb0be13"}, {"bike_id": "b25373a02f6bee9d4d7772d9d2d7e6b1", "type": "electric_scooter", "is_disabled": 0, "lat": 38.89914683333333, "rental_uris": {"ios": "https://dc.lft.to/lastmile_qr_scan", "android": "https://dc.lft.to/lastmile_qr_scan"}, "is_reserved": 0, "fusion_lon": 0.0, "fusion_lat": 0.0, "lon": -76.933629, "name": "b25373a02f6bee9d4d7772d9d2d7e6b1"}, {"bike_id": "896f5d6484e010a7024e5380d44ab812", "type": "electric_scooter", "is_disabled": 0, "lat": 38.909814, "rental_uris": {"ios": "https://dc.lft.to/lastmile_qr_scan", "android": "https://dc.lft.to/lastmile_qr_scan"}, "is_reserved": 0, "fusion_lon": 0.0, "fusion_lat": 0.0, "lon": -77.02193083333333, "name": "896f5d6484e010a7024e5380d44ab812"}, {"bike_id": "44155616083e1d908f36c6641e974580", "type": "electric_scooter", "is_disabled": 0, "lat": 38.90560816666667, "rental_uris": {"ios": "https://dc.lft.to/lastmile_qr_scan", "android": "https://dc.lft.to/lastmile_qr_scan"}, "is_reserved": 0, "fusion_lon": 0.0, "fusion_lat": 0.0, "lon": -77.02216466666667, "name": "44155616083e1d908f36c6641e974580"}, {"bike_id": "51776445b2c6629848f8c82eff527a98", "type": "electric_bike", "is_disabled": 0, "lat": 38.86336333333333, "rental_uris": {"ios": "https://dc.lft.to/lastmile_qr_scan", "android": "https://dc.lft.to/lastmile_qr_scan"}, "is_reserved": 0, "fusion_lon": 0.0, "fusion_lat": 0.0, "lon": -76.98726516666666, "name": "51776445b2c6629848f8c82eff527a98"}, {"bike_id": "81e3169ddc1b5fc77fa35ae43c0e9beb", "type": "electric_scooter", "is_disabled": 0, "lat": 38.91562183333333, "rental_uris": {"ios": "https://dc.lft.to/lastmile_qr_scan", "android": "https://dc.lft.to/lastmile_qr_scan"}, "is_reserved": 0, "fusion_lon": 0.0, "fusion_lat": 0.0, "lon": -77.0357935, "name": "81e3169ddc1b5fc77fa35ae43c0e9beb"}, {"bike_id": "6aabf2b10508f61e92f22deac0b77990", "type": "electric_scooter", "is_disabled": 0, "lat": 38.892274666666665, "rental_uris": {"ios": "https://dc.lft.to/lastmile_qr_scan", "android": "https://dc.lft.to/lastmile_qr_scan"}, "is_reserved": 0, "fusion_lon": 0.0, "fusion_lat": 0.0, "lon": -77.03168783333334, "name": "6aabf2b10508f61e92f22deac0b77990"}, {"bike_id": "28f9784793d98f96a9d7ab181fd04e6f", "type": "electric_scooter", "is_disabled": 0, "lat": 38.93534866666667, "rental_uris": {"ios": "https://dc.lft.to/lastmile_qr_scan", "android": "https://dc.lft.to/lastmile_qr_scan"}, "is_reserved": 0, "fusion_lon": 0.0, "fusion_lat": 0.0, "lon": -77.02344566666666, "name": "28f9784793d98f96a9d7ab181fd04e6f"}, {"bike_id": "4f60c06341843a4578fcbf938366fc5a", "type": "electric_scooter", "is_disabled": 0, "lat": 38.8974365, "rental_uris": {"ios": "https://dc.lft.to/lastmile_qr_scan", "android": "https://dc.lft.to/lastmile_qr_scan"}, "is_reserved": 0, "fusion_lon": 0.0, "fusion_lat": 0.0, "lon": -77.02759333333333, "name": "4f60c06341843a4578fcbf938366fc5a"}, {"bike_id": "d7d7762ab75954004ba0a3b47be75fdd", "type": "electric_scooter", "is_disabled": 0, "lat": 38.898919166666666, "rental_uris": {"ios": "https://dc.lft.to/lastmile_qr_scan", "android": "https://dc.lft.to/lastmile_qr_scan"}, "is_reserved": 0, "fusion_lon": 0.0, "fusion_lat": 0.0, "lon": -77.03947, "name": "d7d7762ab75954004ba0a3b47be75fdd"}, {"bike_id": "6d7d05fde8dc2871a9ea7b4e725c0419", "type": "electric_scooter", "is_disabled": 0, "lat": 38.91803066666667, "rental_uris": {"ios": "https://dc.lft.to/lastmile_qr_scan", "android": "https://dc.lft.to/lastmile_qr_scan"}, "is_reserved": 0, "fusion_lon": 0.0, "fusion_lat": 0.0, "lon": -77.04521216666667, "name": "6d7d05fde8dc2871a9ea7b4e725c0419"}, {"bike_id": "393505dec04b920fd397a712f695aae5", "type": "electric_scooter", "is_disabled": 0, "lat": 38.93250833333333, "rental_uris": {"ios": "https://dc.lft.to/lastmile_qr_scan", "android": "https://dc.lft.to/lastmile_qr_scan"}, "is_reserved": 0, "fusion_lon": 0.0, "fusion_lat": 0.0, "lon": -77.02001, "name": "393505dec04b920fd397a712f695aae5"}, {"bike_id": "d88a0f0d9757616b45b383796779d799", "type": "electric_scooter", "is_disabled": 0, "lat": 38.90279366666667, "rental_uris": {"ios": "https://dc.lft.to/lastmile_qr_scan", "android": "https://dc.lft.to/lastmile_qr_scan"}, "is_reserved": 0, "fusion_lon": 0.0, "fusion_lat": 0.0, "lon": -77.05796633333334, "name": "d88a0f0d9757616b45b383796779d799"}, {"bike_id": "368619d05acf6d85f897896c7d34420e", "type": "electric_scooter", "is_disabled": 0, "lat": 38.8984315, "rental_uris": {"ios": "https://dc.lft.to/lastmile_qr_scan", "android": "https://dc.lft.to/lastmile_qr_scan"}, "is_reserved": 0, "fusion_lon": 0.0, "fusion_lat": 0.0, "lon": -76.946293, "name": "368619d05acf6d85f897896c7d34420e"}, {"bike_id": "30b92e6319235a66369a38b0b1834976", "type": "electric_scooter", "is_disabled": 0, "lat": 38.8924075, "rental_uris": {"ios": "https://dc.lft.to/lastmile_qr_scan", "android": "https://dc.lft.to/lastmile_qr_scan"}, "is_reserved": 0, "fusion_lon": 0.0, "fusion_lat": 0.0, "lon": -77.03957316666667, "name": "30b92e6319235a66369a38b0b1834976"}, {"bike_id": "4e941e096f1e7a56672d45afbb102b2d", "type": "electric_scooter", "is_disabled": 0, "lat": 38.89331333333333, "rental_uris": {"ios": "https://dc.lft.to/lastmile_qr_scan", "android": "https://dc.lft.to/lastmile_qr_scan"}, "is_reserved": 0, "fusion_lon": 0.0, "fusion_lat": 0.0, "lon": -77.04679016666667, "name": "4e941e096f1e7a56672d45afbb102b2d"}, {"bike_id": "38c7f328195da75a98c1919fe7874895", "type": "electric_scooter", "is_disabled": 0, "lat": 38.890023166666666, "rental_uris": {"ios": "https://dc.lft.to/lastmile_qr_scan", "android": "https://dc.lft.to/lastmile_qr_scan"}, "is_reserved": 0, "fusion_lon": 0.0, "fusion_lat": 0.0, "lon": -77.00202183333333, "name": "38c7f328195da75a98c1919fe7874895"}, {"bike_id": "3f59b14340219e6a52012c97a4ca56e0", "type": "electric_bike", "is_disabled": 0, "lat": 38.93101933333333, "rental_uris": {"ios": "https://dc.lft.to/lastmile_qr_scan", "android": "https://dc.lft.to/lastmile_qr_scan"}, "is_reserved": 0, "fusion_lon": 0.0, "fusion_lat": 0.0, "lon": -77.02418433333334, "name": "3f59b14340219e6a52012c97a4ca56e0"}, {"bike_id": "83491d98fa2f4ec63f59a15fdf4cd209", "type": "electric_scooter", "is_disabled": 0, "lat": 38.936238333333336, "rental_uris": {"ios": "https://dc.lft.to/lastmile_qr_scan", "android": "https://dc.lft.to/lastmile_qr_scan"}, "is_reserved": 0, "fusion_lon": 0.0, "fusion_lat": 0.0, "lon": -77.02460183333334, "name": "83491d98fa2f4ec63f59a15fdf4cd209"}, {"bike_id": "302872207c43dc09afb03f3f37ed9157", "type": "electric_scooter", "is_disabled": 0, "lat": 38.89772516666667, "rental_uris": {"ios": "https://dc.lft.to/lastmile_qr_scan", "android": "https://dc.lft.to/lastmile_qr_scan"}, "is_reserved": 0, "fusion_lon": 0.0, "fusion_lat": 0.0, "lon": -77.04998783333333, "name": "302872207c43dc09afb03f3f37ed9157"}, {"bike_id": "ebf16ff17b9a93ca353429ee5067869a", "type": "electric_bike", "is_disabled": 0, "lat": 38.9296745, "rental_uris": {"ios": "https://dc.lft.to/lastmile_qr_scan", "android": "https://dc.lft.to/lastmile_qr_scan"}, "is_reserved": 0, "fusion_lon": 0.0, "fusion_lat": 0.0, "lon": -77.18560533333333, "name": "ebf16ff17b9a93ca353429ee5067869a"}, {"bike_id": "ceb02fda442fa5652bd6e37f1a967413", "type": "electric_bike", "is_disabled": 0, "lat": 38.86152933333334, "rental_uris": {"ios": "https://dc.lft.to/lastmile_qr_scan", "android": "https://dc.lft.to/lastmile_qr_scan"}, "is_reserved": 0, "fusion_lon": 0.0, "fusion_lat": 0.0, "lon": -77.09143083333333, "name": "ceb02fda442fa5652bd6e37f1a967413"}, {"bike_id": "122afe452b5a3fda51906e1227a212eb", "type": "electric_bike", "is_disabled": 0, "lat": 38.82171366666667, "rental_uris": {"ios": "https://dc.lft.to/lastmile_qr_scan", "android": "https://dc.lft.to/lastmile_qr_scan"}, "is_reserved": 0, "fusion_lon": 0.0, "fusion_lat": 0.0, "lon": -76.9950855, "name": "122afe452b5a3fda51906e1227a212eb"}, {"bike_id": "419d41b19f49ac045c22c258434d4c09", "type": "electric_scooter", "is_disabled": 0, "lat": 38.8745975, "rental_uris": {"ios": "https://dc.lft.to/lastmile_qr_scan", "android": "https://dc.lft.to/lastmile_qr_scan"}, "is_reserved": 0, "fusion_lon": 0.0, "fusion_lat": 0.0, "lon": -77.00944366666667, "name": "419d41b19f49ac045c22c258434d4c09"}, {"bike_id": "fead20fa6dca25f34dc949fdc1a9d16f", "type": "electric_bike", "is_disabled": 0, "lat": 39.0357215, "rental_uris": {"ios": "https://dc.lft.to/lastmile_qr_scan", "android": "https://dc.lft.to/lastmile_qr_scan"}, "is_reserved": 0, "fusion_lon": 0.0, "fusion_lat": 0.0, "lon": -77.03935183333333, "name": "fead20fa6dca25f34dc949fdc1a9d16f"}, {"bike_id": "dc7c5605e746df3d66bbe92ce0482668", "type": "electric_scooter", "is_disabled": 0, "lat": 38.893614666666664, "rental_uris": {"ios": "https://dc.lft.to/lastmile_qr_scan", "android": "https://dc.lft.to/lastmile_qr_scan"}, "is_reserved": 0, "fusion_lon": 0.0, "fusion_lat": 0.0, "lon": -76.94932633333333, "name": "dc7c5605e746df3d66bbe92ce0482668"}, {"bike_id": "e4263547b5abe1eb47186bec3323a579", "type": "electric_scooter", "is_disabled": 0, "lat": 38.91460433333334, "rental_uris": {"ios": "https://dc.lft.to/lastmile_qr_scan", "android": "https://dc.lft.to/lastmile_qr_scan"}, "is_reserved": 0, "fusion_lon": 0.0, "fusion_lat": 0.0, "lon": -77.0020555, "name": "e4263547b5abe1eb47186bec3323a579"}, {"bike_id": "0cfdb37f9677a8e03720850d78ebec41", "type": "electric_bike", "is_disabled": 0, "lat": 38.897256, "rental_uris": {"ios": "https://dc.lft.to/lastmile_qr_scan", "android": "https://dc.lft.to/lastmile_qr_scan"}, "is_reserved": 0, "fusion_lon": 0.0, "fusion_lat": 0.0, "lon": -76.97344066666666, "name": "0cfdb37f9677a8e03720850d78ebec41"}, {"bike_id": "8fd2f2e807b2a00a894a4dadd6bb0934", "type": "electric_scooter", "is_disabled": 0, "lat": 38.93597, "rental_uris": {"ios": "https://dc.lft.to/lastmile_qr_scan", "android": "https://dc.lft.to/lastmile_qr_scan"}, "is_reserved": 0, "fusion_lon": 0.0, "fusion_lat": 0.0, "lon": -77.03517516666666, "name": "8fd2f2e807b2a00a894a4dadd6bb0934"}, {"bike_id": "dc0921dce8d764f58cb82c92d79dca95", "type": "electric_scooter", "is_disabled": 0, "lat": 38.9112215, "rental_uris": {"ios": "https://dc.lft.to/lastmile_qr_scan", "android": "https://dc.lft.to/lastmile_qr_scan"}, "is_reserved": 0, "fusion_lon": 0.0, "fusion_lat": 0.0, "lon": -77.022075, "name": "dc0921dce8d764f58cb82c92d79dca95"}, {"bike_id": "90ddab8792707dd857027eeb76b14ca0", "type": "electric_scooter", "is_disabled": 0, "lat": 38.913493333333335, "rental_uris": {"ios": "https://dc.lft.to/lastmile_qr_scan", "android": "https://dc.lft.to/lastmile_qr_scan"}, "is_reserved": 0, "fusion_lon": 0.0, "fusion_lat": 0.0, "lon": -77.01223116666667, "name": "90ddab8792707dd857027eeb76b14ca0"}, {"bike_id": "c32d157969e3bd119d68b2167a9c7232", "type": "electric_scooter", "is_disabled": 0, "lat": 38.907230166666665, "rental_uris": {"ios": "https://dc.lft.to/lastmile_qr_scan", "android": "https://dc.lft.to/lastmile_qr_scan"}, "is_reserved": 0, "fusion_lon": 0.0, "fusion_lat": 0.0, "lon": -76.98350933333333, "name": "c32d157969e3bd119d68b2167a9c7232"}, {"bike_id": "2e96a51350452c7dfce2d89eb7643b9e", "type": "electric_scooter", "is_disabled": 0, "lat": 38.893322166666664, "rental_uris": {"ios": "https://dc.lft.to/lastmile_qr_scan", "android": "https://dc.lft.to/lastmile_qr_scan"}, "is_reserved": 0, "fusion_lon": 0.0, "fusion_lat": 0.0, "lon": -77.03176083333334, "name": "2e96a51350452c7dfce2d89eb7643b9e"}, {"bike_id": "132cd6d65c9b226ac02e6acb8b6e71a5", "type": "electric_scooter", "is_disabled": 0, "lat": 38.84638833333333, "rental_uris": {"ios": "https://dc.lft.to/lastmile_qr_scan", "android": "https://dc.lft.to/lastmile_qr_scan"}, "is_reserved": 0, "fusion_lon": 0.0, "fusion_lat": 0.0, "lon": -76.99132716666666, "name": "132cd6d65c9b226ac02e6acb8b6e71a5"}, {"bike_id": "873fbf74cd56ac19ff24c2e4c868b16f", "type": "electric_scooter", "is_disabled": 0, "lat": 38.918305333333336, "rental_uris": {"ios": "https://dc.lft.to/lastmile_qr_scan", "android": "https://dc.lft.to/lastmile_qr_scan"}, "is_reserved": 0, "fusion_lon": 0.0, "fusion_lat": 0.0, "lon": -77.0393765, "name": "873fbf74cd56ac19ff24c2e4c868b16f"}, {"bike_id": "2b1687b6737af588e249eba04d152a05", "type": "electric_scooter", "is_disabled": 0, "lat": 38.917665666666664, "rental_uris": {"ios": "https://dc.lft.to/lastmile_qr_scan", "android": "https://dc.lft.to/lastmile_qr_scan"}, "is_reserved": 0, "fusion_lon": 0.0, "fusion_lat": 0.0, "lon": -77.01753966666666, "name": "2b1687b6737af588e249eba04d152a05"}, {"bike_id": "2650f483d1f159774501e74bb8ef3227", "type": "electric_scooter", "is_disabled": 0, "lat": 38.90521533333333, "rental_uris": {"ios": "https://dc.lft.to/lastmile_qr_scan", "android": "https://dc.lft.to/lastmile_qr_scan"}, "is_reserved": 0, "fusion_lon": 0.0, "fusion_lat": 0.0, "lon": -77.041531, "name": "2650f483d1f159774501e74bb8ef3227"}, {"bike_id": "ce08659ab6d1dc1894b5d2237f59108c", "type": "electric_scooter", "is_disabled": 0, "lat": 38.905602333333334, "rental_uris": {"ios": "https://dc.lft.to/lastmile_qr_scan", "android": "https://dc.lft.to/lastmile_qr_scan"}, "is_reserved": 0, "fusion_lon": 0.0, "fusion_lat": 0.0, "lon": -77.0653135, "name": "ce08659ab6d1dc1894b5d2237f59108c"}, {"bike_id": "0de76ecb3bab408a6749aca35eafa205", "type": "electric_scooter", "is_disabled": 0, "lat": 38.905448666666665, "rental_uris": {"ios": "https://dc.lft.to/lastmile_qr_scan", "android": "https://dc.lft.to/lastmile_qr_scan"}, "is_reserved": 0, "fusion_lon": 0.0, "fusion_lat": 0.0, "lon": -77.02179033333333, "name": "0de76ecb3bab408a6749aca35eafa205"}, {"bike_id": "62848d2a0b78fc46f708e7432e2b0bb1", "type": "electric_scooter", "is_disabled": 0, "lat": 38.8715875, "rental_uris": {"ios": "https://dc.lft.to/lastmile_qr_scan", "android": "https://dc.lft.to/lastmile_qr_scan"}, "is_reserved": 0, "fusion_lon": 0.0, "fusion_lat": 0.0, "lon": -77.013523, "name": "62848d2a0b78fc46f708e7432e2b0bb1"}, {"bike_id": "e785c49943a9e31356cc98251db59f77", "type": "electric_scooter", "is_disabled": 0, "lat": 38.90561833333334, "rental_uris": {"ios": "https://dc.lft.to/lastmile_qr_scan", "android": "https://dc.lft.to/lastmile_qr_scan"}, "is_reserved": 0, "fusion_lon": 0.0, "fusion_lat": 0.0, "lon": -77.04189466666666, "name": "e785c49943a9e31356cc98251db59f77"}, {"bike_id": "180ad01b31a5f09c9358fd447b367bd7", "type": "electric_scooter", "is_disabled": 0, "lat": 38.93396966666667, "rental_uris": {"ios": "https://dc.lft.to/lastmile_qr_scan", "android": "https://dc.lft.to/lastmile_qr_scan"}, "is_reserved": 0, "fusion_lon": 0.0, "fusion_lat": 0.0, "lon": -77.05743733333334, "name": "180ad01b31a5f09c9358fd447b367bd7"}, {"bike_id": "f539dd47b798db524c40dfc6aa41a3ee", "type": "electric_scooter", "is_disabled": 0, "lat": 38.906243333333336, "rental_uris": {"ios": "https://dc.lft.to/lastmile_qr_scan", "android": "https://dc.lft.to/lastmile_qr_scan"}, "is_reserved": 0, "fusion_lon": 0.0, "fusion_lat": 0.0, "lon": -77.0281305, "name": "f539dd47b798db524c40dfc6aa41a3ee"}, {"bike_id": "cfbc8dcc2b391d1374c0d254f6cd06ee", "type": "electric_scooter", "is_disabled": 0, "lat": 38.92403866666667, "rental_uris": {"ios": "https://dc.lft.to/lastmile_qr_scan", "android": "https://dc.lft.to/lastmile_qr_scan"}, "is_reserved": 0, "fusion_lon": 0.0, "fusion_lat": 0.0, "lon": -77.029721, "name": "cfbc8dcc2b391d1374c0d254f6cd06ee"}, {"bike_id": "57d194decf1b1ca1e8c5dd71e18562d5", "type": "electric_bike", "is_disabled": 0, "lat": 38.906259, "rental_uris": {"ios": "https://dc.lft.to/lastmile_qr_scan", "android": "https://dc.lft.to/lastmile_qr_scan"}, "is_reserved": 0, "fusion_lon": 0.0, "fusion_lat": 0.0, "lon": -76.98602633333333, "name": "57d194decf1b1ca1e8c5dd71e18562d5"}, {"bike_id": "263a107719b1028248e71c7604907096", "type": "electric_scooter", "is_disabled": 0, "lat": 38.884105166666664, "rental_uris": {"ios": "https://dc.lft.to/lastmile_qr_scan", "android": "https://dc.lft.to/lastmile_qr_scan"}, "is_reserved": 0, "fusion_lon": 0.0, "fusion_lat": 0.0, "lon": -76.94821583333334, "name": "263a107719b1028248e71c7604907096"}, {"bike_id": "b32062d04578676df3e4e5eb152ef815", "type": "electric_scooter", "is_disabled": 0, "lat": 38.89636333333333, "rental_uris": {"ios": "https://dc.lft.to/lastmile_qr_scan", "android": "https://dc.lft.to/lastmile_qr_scan"}, "is_reserved": 0, "fusion_lon": 0.0, "fusion_lat": 0.0, "lon": -77.02618683333333, "name": "b32062d04578676df3e4e5eb152ef815"}, {"bike_id": "b30bc1f35384bca319ccd99555d0aef0", "type": "electric_scooter", "is_disabled": 0, "lat": 38.915509166666666, "rental_uris": {"ios": "https://dc.lft.to/lastmile_qr_scan", "android": "https://dc.lft.to/lastmile_qr_scan"}, "is_reserved": 0, "fusion_lon": 0.0, "fusion_lat": 0.0, "lon": -77.04447183333333, "name": "b30bc1f35384bca319ccd99555d0aef0"}, {"bike_id": "a43f844c7aa1b84fadb396f580170e2c", "type": "electric_scooter", "is_disabled": 0, "lat": 38.900657833333334, "rental_uris": {"ios": "https://dc.lft.to/lastmile_qr_scan", "android": "https://dc.lft.to/lastmile_qr_scan"}, "is_reserved": 0, "fusion_lon": 0.0, "fusion_lat": 0.0, "lon": -77.048437, "name": "a43f844c7aa1b84fadb396f580170e2c"}, {"bike_id": "17f33065faea93cfcfdc8e307ca63d7e", "type": "electric_scooter", "is_disabled": 0, "lat": 38.9113985, "rental_uris": {"ios": "https://dc.lft.to/lastmile_qr_scan", "android": "https://dc.lft.to/lastmile_qr_scan"}, "is_reserved": 0, "fusion_lon": 0.0, "fusion_lat": 0.0, "lon": -76.99011966666667, "name": "17f33065faea93cfcfdc8e307ca63d7e"}, {"bike_id": "7d0d6f0e79195610c242bbf1dc266b27", "type": "electric_scooter", "is_disabled": 0, "lat": 38.905119166666665, "rental_uris": {"ios": "https://dc.lft.to/lastmile_qr_scan", "android": "https://dc.lft.to/lastmile_qr_scan"}, "is_reserved": 0, "fusion_lon": 0.0, "fusion_lat": 0.0, "lon": -77.03024983333333, "name": "7d0d6f0e79195610c242bbf1dc266b27"}, {"bike_id": "c6f2760bb36dd66f5eea55610ad3a719", "type": "electric_scooter", "is_disabled": 0, "lat": 38.917024166666664, "rental_uris": {"ios": "https://dc.lft.to/lastmile_qr_scan", "android": "https://dc.lft.to/lastmile_qr_scan"}, "is_reserved": 0, "fusion_lon": 0.0, "fusion_lat": 0.0, "lon": -77.03175866666666, "name": "c6f2760bb36dd66f5eea55610ad3a719"}, {"bike_id": "ba71e3e4207010f5b3590fa979c09546", "type": "electric_scooter", "is_disabled": 0, "lat": 38.9276875, "rental_uris": {"ios": "https://dc.lft.to/lastmile_qr_scan", "android": "https://dc.lft.to/lastmile_qr_scan"}, "is_reserved": 0, "fusion_lon": 0.0, "fusion_lat": 0.0, "lon": -77.02745466666667, "name": "ba71e3e4207010f5b3590fa979c09546"}, {"bike_id": "389860da52b27d0a998d317dcd66e7cf", "type": "electric_scooter", "is_disabled": 0, "lat": 38.875470166666666, "rental_uris": {"ios": "https://dc.lft.to/lastmile_qr_scan", "android": "https://dc.lft.to/lastmile_qr_scan"}, "is_reserved": 0, "fusion_lon": 0.0, "fusion_lat": 0.0, "lon": -77.00616066666667, "name": "389860da52b27d0a998d317dcd66e7cf"}, {"bike_id": "ab96e09971b272aeabb295867fde1c25", "type": "electric_scooter", "is_disabled": 0, "lat": 38.896015, "rental_uris": {"ios": "https://dc.lft.to/lastmile_qr_scan", "android": "https://dc.lft.to/lastmile_qr_scan"}, "is_reserved": 0, "fusion_lon": 0.0, "fusion_lat": 0.0, "lon": -77.044804, "name": "ab96e09971b272aeabb295867fde1c25"}, {"bike_id": "bbe010853a3f429026cf88fad2181ba6", "type": "electric_bike", "is_disabled": 0, "lat": 38.872895166666666, "rental_uris": {"ios": "https://dc.lft.to/lastmile_qr_scan", "android": "https://dc.lft.to/lastmile_qr_scan"}, "is_reserved": 0, "fusion_lon": 0.0, "fusion_lat": 0.0, "lon": -77.13938133333333, "name": "bbe010853a3f429026cf88fad2181ba6"}, {"bike_id": "fe08f44ae358af8bd1fc67db2839f7ff", "type": "electric_scooter", "is_disabled": 0, "lat": 38.91785333333333, "rental_uris": {"ios": "https://dc.lft.to/lastmile_qr_scan", "android": "https://dc.lft.to/lastmile_qr_scan"}, "is_reserved": 0, "fusion_lon": 0.0, "fusion_lat": 0.0, "lon": -77.02308616666667, "name": "fe08f44ae358af8bd1fc67db2839f7ff"}, {"bike_id": "0daff988698c2133b3a2c05b16857c41", "type": "electric_scooter", "is_disabled": 0, "lat": 38.915667666666664, "rental_uris": {"ios": "https://dc.lft.to/lastmile_qr_scan", "android": "https://dc.lft.to/lastmile_qr_scan"}, "is_reserved": 0, "fusion_lon": 0.0, "fusion_lat": 0.0, "lon": -77.02710483333334, "name": "0daff988698c2133b3a2c05b16857c41"}, {"bike_id": "ff6b4079a2629d5e0082c9d9215e3d4e", "type": "electric_bike", "is_disabled": 0, "lat": 38.931443, "rental_uris": {"ios": "https://dc.lft.to/lastmile_qr_scan", "android": "https://dc.lft.to/lastmile_qr_scan"}, "is_reserved": 0, "fusion_lon": 0.0, "fusion_lat": 0.0, "lon": -77.00072733333333, "name": "ff6b4079a2629d5e0082c9d9215e3d4e"}, {"bike_id": "c026b4a8a9f20c97487ad560a03a5af3", "type": "electric_scooter", "is_disabled": 0, "lat": 38.900388, "rental_uris": {"ios": "https://dc.lft.to/lastmile_qr_scan", "android": "https://dc.lft.to/lastmile_qr_scan"}, "is_reserved": 0, "fusion_lon": 0.0, "fusion_lat": 0.0, "lon": -77.0019285, "name": "c026b4a8a9f20c97487ad560a03a5af3"}, {"bike_id": "bb5ada12d387dc06494db0acbcbbbe83", "type": "electric_scooter", "is_disabled": 0, "lat": 38.902675, "rental_uris": {"ios": "https://dc.lft.to/lastmile_qr_scan", "android": "https://dc.lft.to/lastmile_qr_scan"}, "is_reserved": 0, "fusion_lon": 0.0, "fusion_lat": 0.0, "lon": -77.01755083333333, "name": "bb5ada12d387dc06494db0acbcbbbe83"}, {"bike_id": "540f9d95029fe7bffd12f690e1cfb5a0", "type": "electric_scooter", "is_disabled": 0, "lat": 38.900480333333334, "rental_uris": {"ios": "https://dc.lft.to/lastmile_qr_scan", "android": "https://dc.lft.to/lastmile_qr_scan"}, "is_reserved": 0, "fusion_lon": 0.0, "fusion_lat": 0.0, "lon": -76.99152383333333, "name": "540f9d95029fe7bffd12f690e1cfb5a0"}, {"bike_id": "8c429da3b83480de9b1ad33e07b7cd76", "type": "electric_scooter", "is_disabled": 0, "lat": 38.90873233333333, "rental_uris": {"ios": "https://dc.lft.to/lastmile_qr_scan", "android": "https://dc.lft.to/lastmile_qr_scan"}, "is_reserved": 0, "fusion_lon": 0.0, "fusion_lat": 0.0, "lon": -76.99801283333333, "name": "8c429da3b83480de9b1ad33e07b7cd76"}, {"bike_id": "fcfa2f3f1c04fa3f78f6d5aac8d0f693", "type": "electric_scooter", "is_disabled": 0, "lat": 38.920703833333334, "rental_uris": {"ios": "https://dc.lft.to/lastmile_qr_scan", "android": "https://dc.lft.to/lastmile_qr_scan"}, "is_reserved": 0, "fusion_lon": 0.0, "fusion_lat": 0.0, "lon": -77.02385433333333, "name": "fcfa2f3f1c04fa3f78f6d5aac8d0f693"}, {"bike_id": "bbbc130779298128c7dfa133215aa4b3", "type": "electric_scooter", "is_disabled": 0, "lat": 38.89726133333333, "rental_uris": {"ios": "https://dc.lft.to/lastmile_qr_scan", "android": "https://dc.lft.to/lastmile_qr_scan"}, "is_reserved": 0, "fusion_lon": 0.0, "fusion_lat": 0.0, "lon": -77.02678483333334, "name": "bbbc130779298128c7dfa133215aa4b3"}, {"bike_id": "1426d432dd08bb658addfa9a19f7730b", "type": "electric_scooter", "is_disabled": 0, "lat": 38.838243, "rental_uris": {"ios": "https://dc.lft.to/lastmile_qr_scan", "android": "https://dc.lft.to/lastmile_qr_scan"}, "is_reserved": 0, "fusion_lon": 0.0, "fusion_lat": 0.0, "lon": -77.00271216666667, "name": "1426d432dd08bb658addfa9a19f7730b"}, {"bike_id": "5282484d6cd7aa2815f6e62b3b1aa07d", "type": "electric_scooter", "is_disabled": 0, "lat": 38.934568, "rental_uris": {"ios": "https://dc.lft.to/lastmile_qr_scan", "android": "https://dc.lft.to/lastmile_qr_scan"}, "is_reserved": 0, "fusion_lon": 0.0, "fusion_lat": 0.0, "lon": -77.030693, "name": "5282484d6cd7aa2815f6e62b3b1aa07d"}, {"bike_id": "33219114600a69fbdb6ee7d466862d58", "type": "electric_scooter", "is_disabled": 0, "lat": 38.9175975, "rental_uris": {"ios": "https://dc.lft.to/lastmile_qr_scan", "android": "https://dc.lft.to/lastmile_qr_scan"}, "is_reserved": 0, "fusion_lon": 0.0, "fusion_lat": 0.0, "lon": -77.024842, "name": "33219114600a69fbdb6ee7d466862d58"}, {"bike_id": "43b3af02b7e1da8b953143c6b4eda1b3", "type": "electric_scooter", "is_disabled": 0, "lat": 38.89664966666667, "rental_uris": {"ios": "https://dc.lft.to/lastmile_qr_scan", "android": "https://dc.lft.to/lastmile_qr_scan"}, "is_reserved": 0, "fusion_lon": 0.0, "fusion_lat": 0.0, "lon": -77.0237295, "name": "43b3af02b7e1da8b953143c6b4eda1b3"}, {"bike_id": "dbd05fe4ad6d52bd14389854510b84a2", "type": "electric_scooter", "is_disabled": 0, "lat": 38.909837333333336, "rental_uris": {"ios": "https://dc.lft.to/lastmile_qr_scan", "android": "https://dc.lft.to/lastmile_qr_scan"}, "is_reserved": 0, "fusion_lon": 0.0, "fusion_lat": 0.0, "lon": -77.03857633333334, "name": "dbd05fe4ad6d52bd14389854510b84a2"}, {"bike_id": "c2f02592f05fb9e74083bdc718eb2f75", "type": "electric_scooter", "is_disabled": 0, "lat": 38.91418133333333, "rental_uris": {"ios": "https://dc.lft.to/lastmile_qr_scan", "android": "https://dc.lft.to/lastmile_qr_scan"}, "is_reserved": 0, "fusion_lon": 0.0, "fusion_lat": 0.0, "lon": -77.01235933333334, "name": "c2f02592f05fb9e74083bdc718eb2f75"}, {"bike_id": "a31269850cc35a1818c170a304cc7527", "type": "electric_scooter", "is_disabled": 0, "lat": 38.9100315, "rental_uris": {"ios": "https://dc.lft.to/lastmile_qr_scan", "android": "https://dc.lft.to/lastmile_qr_scan"}, "is_reserved": 0, "fusion_lon": 0.0, "fusion_lat": 0.0, "lon": -77.03192116666666, "name": "a31269850cc35a1818c170a304cc7527"}, {"bike_id": "3b1e4a915055ad1cd5a3908a76086328", "type": "electric_scooter", "is_disabled": 0, "lat": 38.887348333333335, "rental_uris": {"ios": "https://dc.lft.to/lastmile_qr_scan", "android": "https://dc.lft.to/lastmile_qr_scan"}, "is_reserved": 0, "fusion_lon": 0.0, "fusion_lat": 0.0, "lon": -77.028344, "name": "3b1e4a915055ad1cd5a3908a76086328"},