{"data": {"bikes": [{"rental_uris": {"ios": "https://dc.lft.to/lastmile_qr_scan", "android": "https://dc.lft.to/lastmile_qr_scan"}, "lon": -77.01950566666666, "type": "electric_scooter", "fusion_lat": 0.0, "lat": 38.9036205, "name": "e8bd9328e30bc4a5a0a7a05ee04a9416", "fusion_lon": 0.0, "bike_id": "e8bd9328e30bc4a5a0a7a05ee04a9416", "is_disabled": 0, "is_reserved": 0}, {"rental_uris": {"ios": "https://dc.lft.to/lastmile_qr_scan", "android": "https://dc.lft.to/lastmile_qr_scan"}, "lon": -77.03352983333333, "type": "electric_scooter", "fusion_lat": 0.0, "lat": 38.911798833333336, "name": "e07107741eda083f7771d53b2373c242", "fusion_lon": 0.0, "bike_id": "e07107741eda083f7771d53b2373c242", "is_disabled": 0, "is_reserved": 0}, {"rental_uris": {"ios": "https://dc.lft.to/lastmile_qr_scan", "android": "https://dc.lft.to/lastmile_qr_scan"}, "lon": -76.97407266666667, "type": "electric_scooter", "fusion_lat": 0.0, "lat": 38.901604166666665, "name": "2cf3ad638171fb8fa932a7ffb77d3775", "fusion_lon": 0.0, "bike_id": "2cf3ad638171fb8fa932a7ffb77d3775", "is_disabled": 0, "is_reserved": 0}, {"rental_uris": {"ios": "https://dc.lft.to/lastmile_qr_scan", "android": "https://dc.lft.to/lastmile_qr_scan"}, "lon": -76.9793405, "type": "electric_scooter", "fusion_lat": 0.0, "lat": 38.906729166666665, "name": "71ee65cfe62eb90f85652840756e4d99", "fusion_lon": 0.0, "bike_id": "71ee65cfe62eb90f85652840756e4d99", "is_disabled": 0, "is_reserved": 0}, {"rental_uris": {"ios": "https://dc.lft.to/lastmile_qr_scan", "android": "https://dc.lft.to/lastmile_qr_scan"}, "lon": -76.99849983333333, "type": "electric_scooter", "fusion_lat": 0.0, "lat": 38.899971666666666, "name": "4d3f70be9827c2e7f621a8cb84f69336", "fusion_lon": 0.0, "bike_id": "4d3f70be9827c2e7f621a8cb84f69336", "is_disabled": 0, "is_reserved": 0}, {"rental_uris": {"ios": "https://dc.lft.to/lastmile_qr_scan", "android": "https://dc.lft.to/lastmile_qr_scan"}, "lon": -77.02965383333333, "type": "electric_scooter", "fusion_lat": 0.0, "lat": 38.907305666666666, "name": "3965236e10e93a4e405a538b52c4d95c", "fusion_lon": 0.0, "bike_id": "3965236e10e93a4e405a538b52c4d95c", "is_disabled": 0, "is_reserved": 0}, {"rental_uris": {"ios": "https://dc.lft.to/lastmile_qr_scan", "android": "https://dc.lft.to/lastmile_qr_scan"}, "lon": -77.03472816666667, "type": "electric_scooter", "fusion_lat": 0.0, "lat": 38.91263083333333, "name": "703376106dc3a836ba2695bd2e6031d5", "fusion_lon": 0.0, "bike_id": "703376106dc3a836ba2695bd2e6031d5", "is_disabled": 0, "is_reserved": 0}, {"rental_uris": {"ios": "https://dc.lft.to/lastmile_qr_scan", "android": "https://dc.lft.to/lastmile_qr_scan"}, "lon": -77.03359366666666, "type": "electric_scooter", "fusion_lat": 0.0, "lat": 38.91970933333333, "name": "2e2c666aab3c03770ff6752a1fab1f34", "fusion_lon": 0.0, "bike_id": "2e2c666aab3c03770ff6752a1fab1f34", "is_disabled": 0, "is_reserved": 0}, {"rental_uris": {"ios": "https://dc.lft.to/lastmile_qr_scan", "android": "https://dc.lft.to/lastmile_qr_scan"}, "lon": -76.97492283333334, "type": "electric_bike", "fusion_lat": 0.0, "lat": 38.92006333333333, "name": "c1198ad7f67b79055de8bf4578bc9a19", "fusion_lon": 0.0, "bike_id": "c1198ad7f67b79055de8bf4578bc9a19", "is_disabled": 0, "is_reserved": 0}, {"rental_uris": {"ios": "https://dc.lft.to/lastmile_qr_scan", "android": "https://dc.lft.to/lastmile_qr_scan"}, "lon": -77.0323645, "type": "electric_scooter", "fusion_lat": 0.0, "lat": 38.904463666666665, "name": "8bafc0170db2ac68cf43476e02e90a41", "fusion_lon": 0.0, "bike_id": "8bafc0170db2ac68cf43476e02e90a41", "is_disabled": 0, "is_reserved": 0}, {"rental_uris": {"ios": "https://dc.lft.to/lastmile_qr_scan", "android": "https://dc.lft.to/lastmile_qr_scan"}, "lon": -77.00247966666667, "type": "electric_scooter", "fusion_lat": 0.0, "lat": 38.9117175, "name": "0df2fc812518e20e7d6a2510e32d6c16", "fusion_lon": 0.0, "bike_id": "0df2fc812518e20e7d6a2510e32d6c16", "is_disabled": 0, "is_reserved": 0}, {"rental_uris": {"ios": "https://dc.lft.to/lastmile_qr_scan", "android": "https://dc.lft.to/lastmile_qr_scan"}, "lon": -77.017917, "type": "electric_scooter", "fusion_lat": 0.0, "lat": 38.892368166666664, "name": "1b4ee7a8585c912dd21110a7b61c034c", "fusion_lon": 0.0, "bike_id": "1b4ee7a8585c912dd21110a7b61c034c", "is_disabled": 0, "is_reserved": 0}, {"rental_uris": {"ios": "https://dc.lft.to/lastmile_qr_scan", "android": "https://dc.lft.to/lastmile_qr_scan"}, "lon": -77.0344345, "type": "electric_scooter", "fusion_lat": 0.0, "lat": 38.903427, "name": "017c3bcc9c895205d882fcd39aad8660", "fusion_lon": 0.0, "bike_id": "017c3bcc9c895205d882fcd39aad8660", "is_disabled": 0, "is_reserved": 0}, {"rental_uris": {"ios": "https://dc.lft.to/lastmile_qr_scan", "android": "https://dc.lft.to/lastmile_qr_scan"}, "lon": -76.93717616666666, "type": "electric_scooter", "fusion_lat": 0.0, "lat": 38.895916666666665, "name": "2cd83456395c7f47d09da6017092718a", "fusion_lon": 0.0, "bike_id": "2cd83456395c7f47d09da6017092718a", "is_disabled": 0, "is_reserved": 0}, {"rental_uris": {"ios": "https://dc.lft.to/lastmile_qr_scan", "android": "https://dc.lft.to/lastmile_qr_scan"}, "lon": -77.04180383333333, "type": "electric_scooter", "fusion_lat": 0.0, "lat": 38.9054725, "name": "e5801c5299ef4fe28e36b7a553dfd8ae", "fusion_lon": 0.0, "bike_id": "e5801c5299ef4fe28e36b7a553dfd8ae", "is_disabled": 0, "is_reserved": 0}, {"rental_uris": {"ios": "https://dc.lft.to/lastmile_qr_scan", "android": "https://dc.lft.to/lastmile_qr_scan"}, "lon": -77.03979866666667, "type": "electric_scooter", "fusion_lat": 0.0, "lat": 38.90349066666667, "name": "f53ca89ed110fc267b22576b46e9e269", "fusion_lon": 0.0, "bike_id": "f53ca89ed110fc267b22576b46e9e269", "is_disabled": 0, "is_reserved": 0}, {"rental_uris": {"ios": "https://dc.lft.to/lastmile_qr_scan", "android": "https://dc.lft.to/lastmile_qr_scan"}, "lon": -77.0411075, "type": "electric_scooter", "fusion_lat": 0.0, "lat": 38.924437166666664, "name": "fa8e1c812ede70368cc7fbed4028af54", "fusion_lon": 0.0, "bike_id": "fa8e1c812ede70368cc7fbed4028af54", "is_disabled": 0, "is_reserved": 0}, {"rental_uris": {"ios": "https://dc.lft.to/lastmile_qr_scan", "android": "https://dc.lft.to/lastmile_qr_scan"}, "lon": -77.00748183333333, "type": "electric_scooter", "fusion_lat": 0.0, "lat": 38.905849833333335, "name": "ecf254ec272fe351495086e0ebf770a7", "fusion_lon": 0.0, "bike_id": "ecf254ec272fe351495086e0ebf770a7", "is_disabled": 0, "is_reserved": 0}, {"rental_uris": {"ios": "https://dc.lft.to/lastmile_qr_scan", "android": "https://dc.lft.to/lastmile_qr_scan"}, "lon": -76.93878816666667, "type": "electric_scooter", "fusion_lat": 0.0, "lat": 38.90081633333333, "name": "76d6af2ecd9e77699a9cd7c0db856484", "fusion_lon": 0.0, "bike_id": "76d6af2ecd9e77699a9cd7c0db856484", "is_disabled": 0, "is_reserved": 0}, {"rental_uris": {"ios": "https://dc.lft.to/lastmile_qr_scan", "android": "https://dc.lft.to/lastmile_qr_scan"}, "lon": -77.0118895, "type": "electric_scooter", "fusion_lat": 0.0, "lat": 38.900286333333334, "name": "36ea3e0b4b33f55c76735894367358e3", "fusion_lon": 0.0, "bike_id": "36ea3e0b4b33f55c76735894367358e3", "is_disabled": 0, "is_reserved": 0}, {"rental_uris": {"ios": "https://dc.lft.to/lastmile_qr_scan", "android": "https://dc.lft.to/lastmile_qr_scan"}, "lon": -77.037245, "type": "electric_scooter", "fusion_lat": 0.0, "lat": 38.91114433333333, "name": "7b596a02bb6460411bb506d9920f0876", "fusion_lon": 0.0, "bike_id": "7b596a02bb6460411bb506d9920f0876", "is_disabled": 0, "is_reserved": 0}, {"rental_uris": {"ios": "https://dc.lft.to/lastmile_qr_scan", "android": "https://dc.lft.to/lastmile_qr_scan"}, "lon": -77.02687466666667, "type": "electric_scooter", "fusion_lat": 0.0, "lat": 38.892198666666665, "name": "accbe4c271d8f2789db1d4efdcbe53f7", "fusion_lon": 0.0, "bike_id": "accbe4c271d8f2789db1d4efdcbe53f7", "is_disabled": 0, "is_reserved": 0}, {"rental_uris": {"ios": "https://dc.lft.to/lastmile_qr_scan", "android": "https://dc.lft.to/lastmile_qr_scan"}, "lon": -77.0296115, "type": "electric_scooter", "fusion_lat": 0.0, "lat": 38.9049925, "name": "012fe5351ef85b9e35992b3d6848cf5e", "fusion_lon": 0.0, "bike_id": "012fe5351ef85b9e35992b3d6848cf5e", "is_disabled": 0, "is_reserved": 0}, {"rental_uris": {"ios": "https://dc.lft.to/lastmile_qr_scan", "android": "https://dc.lft.to/lastmile_qr_scan"}, "lon": -76.99676216666667, "type": "electric_scooter", "fusion_lat": 0.0, "lat": 38.91011533333333, "name": "432dad84407437c9636dc428f38cfc30", "fusion_lon": 0.0, "bike_id": "432dad84407437c9636dc428f38cfc30", "is_disabled": 0, "is_reserved": 0}, {"rental_uris": {"ios": "https://dc.lft.to/lastmile_qr_scan", "android": "https://dc.lft.to/lastmile_qr_scan"}, "lon": -77.02589933333333, "type": "electric_scooter", "fusion_lat": 0.0, "lat": 38.89245316666667, "name": "48522023ff70710ea87d6651139c8644", "fusion_lon": 0.0, "bike_id": "48522023ff70710ea87d6651139c8644", "is_disabled": 0, "is_reserved": 0}, {"rental_uris": {"ios": "https://dc.lft.to/lastmile_qr_scan", "android": "https://dc.lft.to/lastmile_qr_scan"}, "lon": -76.99564716666667, "type": "electric_scooter", "fusion_lat": 0.0, "lat": 38.928757166666664, "name": "a24d22d6b1167b0a7380e899b490f95f", "fusion_lon": 0.0, "bike_id": "a24d22d6b1167b0a7380e899b490f95f", "is_disabled": 0, "is_reserved": 0}, {"rental_uris": {"ios": "https://dc.lft.to/lastmile_qr_scan", "android": "https://dc.lft.to/lastmile_qr_scan"}, "lon": -77.0181625, "type": "electric_scooter", "fusion_lat": 0.0, "lat": 38.911945, "name": "3079c2080d9393befecc0bfbb8cc367a", "fusion_lon": 0.0, "bike_id": "3079c2080d9393befecc0bfbb8cc367a", "is_disabled": 0, "is_reserved": 0}, {"rental_uris": {"ios": "https://dc.lft.to/lastmile_qr_scan", "android": "https://dc.lft.to/lastmile_qr_scan"}, "lon": -77.03996666666667, "type": "electric_scooter", "fusion_lat": 0.0, "lat": 38.91417583333333, "name": "c02abb5bca3523fd36e08603184557f1", "fusion_lon": 0.0, "bike_id": "c02abb5bca3523fd36e08603184557f1", "is_disabled": 0, "is_reserved": 0}, {"rental_uris": {"ios": "https://dc.lft.to/lastmile_qr_scan", "android": "https://dc.lft.to/lastmile_qr_scan"}, "lon": -76.9465635, "type": "electric_scooter", "fusion_lat": 0.0, "lat": 38.89825366666667, "name": "ce8a5a66e8224dabd452d00ef1618baa", "fusion_lon": 0.0, "bike_id": "ce8a5a66e8224dabd452d00ef1618baa", "is_disabled": 0, "is_reserved": 0}, {"rental_uris": {"ios": "https://dc.lft.to/lastmile_qr_scan", "android": "https://dc.lft.to/lastmile_qr_scan"}, "lon": -77.016338, "type": "electric_scooter", "fusion_lat": 0.0, "lat": 38.87692966666667, "name": "879721f94f2ec40b411d8e797cb4b4c5", "fusion_lon": 0.0, "bike_id": "879721f94f2ec40b411d8e797cb4b4c5", "is_disabled": 0, "is_reserved": 0}, {"rental_uris": {"ios": "https://dc.lft.to/lastmile_qr_scan", "android": "https://dc.lft.to/lastmile_qr_scan"}, "lon": -77.046857, "type": "electric_scooter", "fusion_lat": 0.0, "lat": 38.892220333333334, "name": "5892e9bb95c9b97b23fdcf35dee5820a", "fusion_lon": 0.0, "bike_id": "5892e9bb95c9b97b23fdcf35dee5820a", "is_disabled": 0, "is_reserved": 0}, {"rental_uris": {"ios": "https://dc.lft.to/lastmile_qr_scan", "android": "https://dc.lft.to/lastmile_qr_scan"}, "lon": -76.98573066666667, "type": "electric_scooter", "fusion_lat": 0.0, "lat": 38.898878, "name": "f32affcaca7deb104aa261a1911bd329", "fusion_lon": 0.0, "bike_id": "f32affcaca7deb104aa261a1911bd329", "is_disabled": 0, "is_reserved": 0}, {"rental_uris": {"ios": "https://dc.lft.to/lastmile_qr_scan", "android": "https://dc.lft.to/lastmile_qr_scan"}, "lon": -77.0342825, "type": "electric_scooter", "fusion_lat": 0.0, "lat": 38.9397425, "name": "b47c718005fad0034a6352dc03121cfd", "fusion_lon": 0.0, "bike_id": "b47c718005fad0034a6352dc03121cfd", "is_disabled": 0, "is_reserved": 0}, {"rental_uris": {"ios": "https://dc.lft.to/lastmile_qr_scan", "android": "https://dc.lft.to/lastmile_qr_scan"}, "lon": -77.03980766666666, "type": "electric_scooter", "fusion_lat": 0.0, "lat": 38.90364433333333, "name": "8cabf5d672e6f7cc2dad7f7b10af85a7", "fusion_lon": 0.0, "bike_id": "8cabf5d672e6f7cc2dad7f7b10af85a7", "is_disabled": 0, "is_reserved": 0}, {"rental_uris": {"ios": "https://dc.lft.to/lastmile_qr_scan", "android": "https://dc.lft.to/lastmile_qr_scan"}, "lon": -77.03978, "type": "electric_scooter", "fusion_lat": 0.0, "lat": 38.924489, "name": "976b562536eaf0a5f2939a38b9320857", "fusion_lon": 0.0, "bike_id": "976b562536eaf0a5f2939a38b9320857", "is_disabled": 0, "is_reserved": 0}, {"rental_uris": {"ios": "https://dc.lft.to/lastmile_qr_scan", "android": "https://dc.lft.to/lastmile_qr_scan"}, "lon": -77.10030516666667, "type": "electric_bike", "fusion_lat": 0.0, "lat": 38.990629166666665, "name": "72dd363687fdc007db2eb1dfda79a751", "fusion_lon": 0.0, "bike_id": "72dd363687fdc007db2eb1dfda79a751", "is_disabled": 0, "is_reserved": 0}, {"rental_uris": {"ios": "https://dc.lft.to/lastmile_qr_scan", "android": "https://dc.lft.to/lastmile_qr_scan"}, "lon": -77.03208483333333, "type": "electric_scooter", "fusion_lat": 0.0, "lat": 38.907090833333335, "name": "7a1ffba4159429249add19bafddd72d2", "fusion_lon": 0.0, "bike_id": "7a1ffba4159429249add19bafddd72d2", "is_disabled": 0, "is_reserved": 0}, {"rental_uris": {"ios": "https://dc.lft.to/lastmile_qr_scan", "android": "https://dc.lft.to/lastmile_qr_scan"}, "lon": -77.04900816666667, "type": "electric_bike", "fusion_lat": 0.0, "lat": 38.87493283333333, "name": "d6e6a2ed6735652e39b400be7d97a9a3", "fusion_lon": 0.0, "bike_id": "d6e6a2ed6735652e39b400be7d97a9a3", "is_disabled": 0, "is_reserved": 0}, {"rental_uris": {"ios": "https://dc.lft.to/lastmile_qr_scan", "android": "https://dc.lft.to/lastmile_qr_scan"}, "lon": -76.99605966666667, "type": "electric_scooter", "fusion_lat": 0.0, "lat": 38.900293, "name": "6fcef66c76f1c126424d170a6e543ec9", "fusion_lon": 0.0, "bike_id": "6fcef66c76f1c126424d170a6e543ec9", "is_disabled": 0, "is_reserved": 0}, {"rental_uris": {"ios": "https://dc.lft.to/lastmile_qr_scan", "android": "https://dc.lft.to/lastmile_qr_scan"}, "lon": -77.062793, "type": "electric_scooter", "fusion_lat": 0.0, "lat": 38.9068235, "name": "4f4555fe8cd7980fcd2aa99366b0f95a", "fusion_lon": 0.0, "bike_id": "4f4555fe8cd7980fcd2aa99366b0f95a", "is_disabled": 0, "is_reserved": 0}, {"rental_uris": {"ios": "https://dc.lft.to/lastmile_qr_scan", "android": "https://dc.lft.to/lastmile_qr_scan"}, "lon": -77.032181, "type": "electric_scooter", "fusion_lat": 0.0, "lat": 38.96238016666667, "name": "c0dcc33cbfd93b62fa6609060335e1d2", "fusion_lon": 0.0, "bike_id": "c0dcc33cbfd93b62fa6609060335e1d2", "is_disabled": 0, "is_reserved": 0}, {"rental_uris": {"ios": "https://dc.lft.to/lastmile_qr_scan", "android": "https://dc.lft.to/lastmile_qr_scan"}, "lon": -77.00593133333334, "type": "electric_scooter", "fusion_lat": 0.0, "lat": 38.915606833333335, "name": "a565d00f5be5030b2f2a2029b2a4f807", "fusion_lon": 0.0, "bike_id": "a565d00f5be5030b2f2a2029b2a4f807", "is_disabled": 0, "is_reserved": 0}, {"rental_uris": {"ios": "https://dc.lft.to/lastmile_qr_scan", "android": "https://dc.lft.to/lastmile_qr_scan"}, "lon": -77.0498525, "type": "electric_scooter", "fusion_lat": 0.0, "lat": 38.90793433333333, "name": "bfc982dda26e57048f2fee8f012dc622", "fusion_lon": 0.0, "bike_id": "bfc982dda26e57048f2fee8f012dc622", "is_disabled": 0, "is_reserved": 0}, {"rental_uris": {"ios": "https://dc.lft.to/lastmile_qr_scan", "android": "https://dc.lft.to/lastmile_qr_scan"}, "lon": -77.12501516666667, "type": "electric_bike", "fusion_lat": 0.0, "lat": 39.024177, "name": "79ad96d03be2cfb9fb05ac947a5f7f4a", "fusion_lon": 0.0, "bike_id": "79ad96d03be2cfb9fb05ac947a5f7f4a", "is_disabled": 0, "is_reserved": 0}, {"rental_uris": {"ios": "https://dc.lft.to/lastmile_qr_scan", "android": "https://dc.lft.to/lastmile_qr_scan"}, "lon": -77.030075, "type": "electric_scooter", "fusion_lat": 0.0, "lat": 38.91925616666666, "name": "8835eaa67dd70120444b62e04365bb2d", "fusion_lon": 0.0, "bike_id": "8835eaa67dd70120444b62e04365bb2d", "is_disabled": 0, "is_reserved": 0}, {"rental_uris": {"ios": "https://dc.lft.to/lastmile_qr_scan", "android": "https://dc.lft.to/lastmile_qr_scan"}, "lon": -77.03263583333333, "type": "electric_scooter", "fusion_lat": 0.0, "lat": 38.9291805, "name": "d4bb48069dd94f43c7436db54ffd7e38", "fusion_lon": 0.0, "bike_id": "d4bb48069dd94f43c7436db54ffd7e38", "is_disabled": 0, "is_reserved": 0}, {"rental_uris": {"ios": "https://dc.lft.to/lastmile_qr_scan", "android": "https://dc.lft.to/lastmile_qr_scan"}, "lon": -77.03466066666667, "type": "electric_scooter", "fusion_lat": 0.0, "lat": 38.91698566666667, "name": "d1b63dc132e5b305245ceadb1a81ff4c", "fusion_lon": 0.0, "bike_id": "d1b63dc132e5b305245ceadb1a81ff4c", "is_disabled": 0, "is_reserved": 0}, {"rental_uris": {"ios": "https://dc.lft.to/lastmile_qr_scan", "android": "https://dc.lft.to/lastmile_qr_scan"}, "lon": -77.22213233333333, "type": "electric_bike", "fusion_lat": 0.0, "lat": 38.920729666666666, "name": "d21df29ff0123e0677befe39a6ecdc28", "fusion_lon": 0.0, "bike_id": "d21df29ff0123e0677befe39a6ecdc28", "is_disabled": 0, "is_reserved": 0}, {"rental_uris": {"ios": "https://dc.lft.to/lastmile_qr_scan", "android": "https://dc.lft.to/lastmile_qr_scan"}, "lon": -77.02348166666667, "type": "electric_scooter", "fusion_lat": 0.0, "lat": 38.962050833333336, "name": "6a313c6f8a7ba1c95f3f0ca31b389f2e", "fusion_lon": 0.0, "bike_id": "6a313c6f8a7ba1c95f3f0ca31b389f2e", "is_disabled": 0, "is_reserved": 0}, {"rental_uris": {"ios": "https://dc.lft.to/lastmile_qr_scan", "android": "https://dc.lft.to/lastmile_qr_scan"}, "lon": -77.0389385, "type": "electric_scooter", "fusion_lat": 0.0, "lat": 38.92330783333333, "name": "29274a8a36e40ee5c9fcd6057f03e76a", "fusion_lon": 0.0, "bike_id": "29274a8a36e40ee5c9fcd6057f03e76a", "is_disabled": 0, "is_reserved": 0}, {"rental_uris": {"ios": "https://dc.lft.to/lastmile_qr_scan", "android": "https://dc.lft.to/lastmile_qr_scan"}, "lon": -77.04198033333333, "type": "electric_scooter", "fusion_lat": 0.0, "lat": 38.907517, "name": "a04f44aeaf74e075a24ab4a5f6374649", "fusion_lon": 0.0, "bike_id": "a04f44aeaf74e075a24ab4a5f6374649", "is_disabled": 0, "is_reserved": 0}, {"rental_uris": {"ios": "https://dc.lft.to/lastmile_qr_scan", "android": "https://dc.lft.to/lastmile_qr_scan"}, "lon": -77.02850216666667, "type": "electric_scooter", "fusion_lat": 0.0, "lat": 38.930753, "name": "4269af8aa5cb83d561a985e2cb4a7fac", "fusion_lon": 0.0, "bike_id": "4269af8aa5cb83d561a985e2cb4a7fac", "is_disabled": 0, "is_reserved": 0}, {"rental_uris": {"ios": "https://dc.lft.to/lastmile_qr_scan", "android": "https://dc.lft.to/lastmile_qr_scan"}, "lon": -77.04396233333334, "type": "electric_scooter", "fusion_lat": 0.0, "lat": 38.929369333333334, "name": "2503a7d4f9ebb78f01e21dd4b1d9f1b9", "fusion_lon": 0.0, "bike_id": "2503a7d4f9ebb78f01e21dd4b1d9f1b9", "is_disabled": 0, "is_reserved": 0}, {"rental_uris": {"ios": "https://dc.lft.to/lastmile_qr_scan", "android": "https://dc.lft.to/lastmile_qr_scan"}, "lon": -77.01407216666666, "type": "electric_scooter", "fusion_lat": 0.0, "lat": 38.928571, "name": "92f58ba52da9701e2fab80b561806ce6", "fusion_lon": 0.0, "bike_id": "92f58ba52da9701e2fab80b561806ce6", "is_disabled": 0, "is_reserved": 0}, {"rental_uris": {"ios": "https://dc.lft.to/lastmile_qr_scan", "android": "https://dc.lft.to/lastmile_qr_scan"}, "lon": -77.0284445, "type": "electric_scooter", "fusion_lat": 0.0, "lat": 38.94261733333333, "name": "c083f241a1f9ab840cfbd2117db396b7", "fusion_lon": 0.0, "bike_id": "c083f241a1f9ab840cfbd2117db396b7", "is_disabled": 0, "is_reserved": 0}, {"rental_uris": {"ios": "https://dc.lft.to/lastmile_qr_scan", "android": "https://dc.lft.to/lastmile_qr_scan"}, "lon": -77.35313516666666, "type": "electric_bike", "fusion_lat": 0.0, "lat": 38.95000816666666, "name": "5139c5f9a76120533dc3227b6b84e428", "fusion_lon": 0.0, "bike_id": "5139c5f9a76120533dc3227b6b84e428", "is_disabled": 0, "is_reserved": 0}, {"rental_uris": {"ios": "https://dc.lft.to/lastmile_qr_scan", "android": "https://dc.lft.to/lastmile_qr_scan"}, "lon": -77.0072655, "type": "electric_scooter", "fusion_lat": 0.0, "lat": 38.884904666666664, "name": "ed1f6d27f7ba628a60679a6fec78626a", "fusion_lon": 0.0, "bike_id": "ed1f6d27f7ba628a60679a6fec78626a", "is_disabled": 0, "is_reserved": 0}, {"rental_uris": {"ios": "https://dc.lft.to/lastmile_qr_scan", "android": "https://dc.lft.to/lastmile_qr_scan"}, "lon": -77.03313633333333, "type": "electric_scooter", "fusion_lat": 0.0, "lat": 38.9014735, "name": "6e598c187e59c298a97f7a4f72ef3dff", "fusion_lon": 0.0, "bike_id": "6e598c187e59c298a97f7a4f72ef3dff", "is_disabled": 0, "is_reserved": 0}, {"rental_uris": {"ios": "https://dc.lft.to/lastmile_qr_scan", "android": "https://dc.lft.to/lastmile_qr_scan"}, "lon": -77.04738766666667, "type": "electric_scooter", "fusion_lat": 0.0, "lat": 38.917639666666666, "name": "e9b73d00a3b3a3c7e7c79f93d7ce039b", "fusion_lon": 0.0, "bike_id": "e9b73d00a3b3a3c7e7c79f93d7ce039b", "is_disabled": 0, "is_reserved": 0}, {"rental_uris": {"ios": "https://dc.lft.to/lastmile_qr_scan", "android": "https://dc.lft.to/lastmile_qr_scan"}, "lon": -77.03173833333334, "type": "electric_scooter", "fusion_lat": 0.0, "lat": 38.919244666666664, "name": "819ea17dac9149befc9a6f663721d5af", "fusion_lon": 0.0, "bike_id": "819ea17dac9149befc9a6f663721d5af", "is_disabled": 0, "is_reserved": 0}, {"rental_uris": {"ios": "https://dc.lft.to/lastmile_qr_scan", "android": "https://dc.lft.to/lastmile_qr_scan"}, "lon": -76.93177216666666, "type": "electric_scooter", "fusion_lat": 0.0, "lat": 38.898850833333334, "name": "5c00c7572b5d2bce542b52e7a1d7e05e", "fusion_lon": 0.0, "bike_id": "5c00c7572b5d2bce542b52e7a1d7e05e", "is_disabled": 0, "is_reserved": 0}, {"rental_uris": {"ios": "https://dc.lft.to/lastmile_qr_scan", "android": "https://dc.lft.to/lastmile_qr_scan"}, "lon": -76.99485266666667, "type": "electric_scooter", "fusion_lat": 0.0, "lat": 38.86235033333333, "name": "b4154e12998d9f6641e787dd7a2480e9", "fusion_lon": 0.0, "bike_id": "b4154e12998d9f6641e787dd7a2480e9", "is_disabled": 0, "is_reserved": 0}, {"rental_uris": {"ios": "https://dc.lft.to/lastmile_qr_scan", "android": "https://dc.lft.to/lastmile_qr_scan"}, "lon": -76.9980765, "type": "electric_scooter", "fusion_lat": 0.0, "lat": 38.90006283333334, "name": "e8bb533e4bc07092624ee503e28d5f53", "fusion_lon": 0.0, "bike_id": "e8bb533e4bc07092624ee503e28d5f53", "is_disabled": 0, "is_reserved": 0}, {"rental_uris": {"ios": "https://dc.lft.to/lastmile_qr_scan", "android": "https://dc.lft.to/lastmile_qr_scan"}, "lon": -77.003385, "type": "electric_scooter", "fusion_lat": 0.0, "lat": 38.89354983333333, "name": "a97efee25280c9973d571745a606dab6", "fusion_lon": 0.0, "bike_id": "a97efee25280c9973d571745a606dab6", "is_disabled": 0, "is_reserved": 0}, {"rental_uris": {"ios": "https://dc.lft.to/lastmile_qr_scan", "android": "https://dc.lft.to/lastmile_qr_scan"}, "lon": -77.0239925, "type": "electric_scooter", "fusion_lat": 0.0, "lat": 38.91597766666667, "name": "4824c68dc9a7790679e8160b299bd47e", "fusion_lon": 0.0, "bike_id": "4824c68dc9a7790679e8160b299bd47e", "is_disabled": 0, "is_reserved": 0}, {"rental_uris": {"ios": "https://dc.lft.to/lastmile_qr_scan", "android": "https://dc.lft.to/lastmile_qr_scan"}, "lon": -77.0021265, "type": "electric_bike", "fusion_lat": 0.0, "lat": 38.90877116666667, "name": "aa47158906580237dfb7885040c44025", "fusion_lon": 0.0, "bike_id": "aa47158906580237dfb7885040c44025", "is_disabled": 0, "is_reserved": 0}, {"rental_uris": {"ios": "https://dc.lft.to/lastmile_qr_scan", "android": "https://dc.lft.to/lastmile_qr_scan"}, "lon": -77.020913, "type": "electric_scooter", "fusion_lat": 0.0, "lat": 38.8850685, "name": "3b34b998cb5f058c93b9f1d45bdb117b", "fusion_lon": 0.0, "bike_id": "3b34b998cb5f058c93b9f1d45bdb117b", "is_disabled": 0, "is_reserved": 0}, {"rental_uris": {"ios": "https://dc.lft.to/lastmile_qr_scan", "android": "https://dc.lft.to/lastmile_qr_scan"}, "lon": -77.05125483333333, "type": "electric_scooter", "fusion_lat": 0.0, "lat": 38.899202333333335, "name": "c3798b3ac47a4b7d0a68fe5b56617579", "fusion_lon": 0.0, "bike_id": "c3798b3ac47a4b7d0a68fe5b56617579", "is_disabled": 0, "is_reserved": 0}, {"rental_uris": {"ios": "https://dc.lft.to/lastmile_qr_scan", "android": "https://dc.lft.to/lastmile_qr_scan"}, "lon": -77.04370083333333, "type": "electric_scooter", "fusion_lat": 0.0, "lat": 38.9333405, "name": "6bf1b2b44dfc6eeac5f4f53ffc396655", "fusion_lon": 0.0, "bike_id": "6bf1b2b44dfc6eeac5f4f53ffc396655", "is_disabled": 0, "is_reserved": 0}, {"rental_uris": {"ios": "https://dc.lft.to/lastmile_qr_scan", "android": "https://dc.lft.to/lastmile_qr_scan"}, "lon": -77.0415185, "type": "electric_scooter", "fusion_lat": 0.0, "lat": 38.902412, "name": "79c9df368bb37a4a044ba5fbd976b9eb", "fusion_lon": 0.0, "bike_id": "79c9df368bb37a4a044ba5fbd976b9eb", "is_disabled": 0, "is_reserved": 0}, {"rental_uris": {"ios": "https://dc.lft.to/lastmile_qr_scan", "android": "https://dc.lft.to/lastmile_qr_scan"}, "lon": -77.0418375, "type": "electric_scooter", "fusion_lat": 0.0, "lat": 38.911786666666664, "name": "a89831c166992197a1cc94ce8dc1e249", "fusion_lon": 0.0, "bike_id": "a89831c166992197a1cc94ce8dc1e249", "is_disabled": 0, "is_reserved": 0}, {"rental_uris": {"ios": "https://dc.lft.to/lastmile_qr_scan", "android": "https://dc.lft.to/lastmile_qr_scan"}, "lon": -76.97594533333333, "type": "electric_scooter", "fusion_lat": 0.0, "lat": 38.903309666666665, "name": "17eb467e872a9eb5b34ff9ff73c6a98e", "fusion_lon": 0.0, "bike_id": "17eb467e872a9eb5b34ff9ff73c6a98e", "is_disabled": 0, "is_reserved": 0}, {"rental_uris": {"ios": "https://dc.lft.to/lastmile_qr_scan", "android": "https://dc.lft.to/lastmile_qr_scan"}, "lon": -77.02600183333334, "type": "electric_scooter", "fusion_lat": 0.0, "lat": 38.88739233333333, "name": "9444d7da36a7c7ba7e414bac83ad18ab", "fusion_lon": 0.0, "bike_id": "9444d7da36a7c7ba7e414bac83ad18ab", "is_disabled": 0, "is_reserved": 0}, {"rental_uris": {"ios": "https://dc.lft.to/lastmile_qr_scan", "android": "https://dc.lft.to/lastmile_qr_scan"}, "lon": -76.94621566666666, "type": "electric_bike", "fusion_lat": 0.0, "lat": 38.83236133333333, "name": "e37f42d178f8502d7525bf7214ecc91e", "fusion_lon": 0.0, "bike_id": "e37f42d178f8502d7525bf7214ecc91e", "is_disabled": 0, "is_reserved": 0}, {"rental_uris": {"ios": "https://dc.lft.to/lastmile_qr_scan", "android": "https://dc.lft.to/lastmile_qr_scan"}, "lon": -77.051506, "type": "electric_scooter", "fusion_lat": 0.0, "lat": 38.9052815, "name": "ddccbd29e7d2374b560bb02ae5be5018", "fusion_lon": 0.0, "bike_id": "ddccbd29e7d2374b560bb02ae5be5018", "is_disabled": 0, "is_reserved": 0}, {"rental_uris": {"ios": "https://dc.lft.to/lastmile_qr_scan", "android": "https://dc.lft.to/lastmile_qr_scan"}, "lon": -76.998429, "type": "electric_bike", "fusion_lat": 0.0, "lat": 38.83917266666667, "name": "43e77cacd11fa07dd60ddf0c14f7ef5f", "fusion_lon": 0.0, "bike_id": "43e77cacd11fa07dd60ddf0c14f7ef5f", "is_disabled": 0, "is_reserved": 0}, {"rental_uris": {"ios": "https://dc.lft.to/lastmile_qr_scan", "android": "https://dc.lft.to/lastmile_qr_scan"}, "lon": -76.93573783333333, "type": "electric_bike", "fusion_lat": 0.0, "lat": 38.88527916666666, "name": "d24a6b20bcb3773353d9ae14ea4524c1", "fusion_lon": 0.0, "bike_id": "d24a6b20bcb3773353d9ae14ea4524c1", "is_disabled": 0, "is_reserved": 0}, {"rental_uris": {"ios": "https://dc.lft.to/lastmile_qr_scan", "android": "https://dc.lft.to/lastmile_qr_scan"}, "lon": -76.949848, "type": "electric_scooter", "fusion_lat": 0.0, "lat": 38.89370683333333, "name": "1635f1e088d75dfdfd63e2cf9eaee363", "fusion_lon": 0.0, "bike_id": "1635f1e088d75dfdfd63e2cf9eaee363", "is_disabled": 0, "is_reserved": 0}, {"rental_uris": {"ios": "https://dc.lft.to/lastmile_qr_scan", "android": "https://dc.lft.to/lastmile_qr_scan"}, "lon": -76.99530016666667, "type": "electric_bike", "fusion_lat": 0.0, "lat": 38.884499, "name": "5a55fe8c58c48a2e7acbe2c5c7c06ed6", "fusion_lon": 0.0, "bike_id": "5a55fe8c58c48a2e7acbe2c5c7c06ed6", "is_disabled": 0, "is_reserved": 0}, {"rental_uris": {"ios": "https://dc.lft.to/lastmile_qr_scan", "android": "https://dc.lft.to/lastmile_qr_scan"}, "lon": -77.04150966666667, "type": "electric_scooter", "fusion_lat": 0.0, "lat": 38.917859, "name": "0a8fd0463e48fb1d561b46ddc19da282", "fusion_lon": 0.0, "bike_id": "0a8fd0463e48fb1d561b46ddc19da282", "is_disabled": 0, "is_reserved": 0}, {"rental_uris": {"ios": "https://dc.lft.to/lastmile_qr_scan", "android": "https://dc.lft.to/lastmile_qr_scan"}, "lon": -76.98023566666667, "type": "electric_scooter", "fusion_lat": 0.0, "lat": 38.90378533333333, "name": "7e775e754f29e0791a9d77672993e337", "fusion_lon": 0.0, "bike_id": "7e775e754f29e0791a9d77672993e337", "is_disabled": 0, "is_reserved": 0}, {"rental_uris": {"ios": "https://dc.lft.to/lastmile_qr_scan", "android": "https://dc.lft.to/lastmile_qr_scan"}, "lon": -77.03210416666667, "type": "electric_scooter", "fusion_lat": 0.0, "lat": 38.92580616666667, "name": "65045eb3c51d9163da25ff5dfcc9e794", "fusion_lon": 0.0, "bike_id": "65045eb3c51d9163da25ff5dfcc9e794", "is_disabled": 0, "is_reserved": 0}, {"rental_uris": {"ios": "https://dc.lft.to/lastmile_qr_scan", "android": "https://dc.lft.to/lastmile_qr_scan"}, "lon": -77.01098183333333, "type": "electric_scooter", "fusion_lat": 0.0, "lat": 38.89476583333333, "name": "d81edb9f348e252221be4a9ff80476de", "fusion_lon": 0.0, "bike_id": "d81edb9f348e252221be4a9ff80476de", "is_disabled": 0, "is_reserved": 0}, {"rental_uris": {"ios": "https://dc.lft.to/lastmile_qr_scan", "android": "https://dc.lft.to/lastmile_qr_scan"}, "lon": -76.99973916666667, "type": "electric_scooter", "fusion_lat": 0.0, "lat": 38.908514833333335, "name": "594e19636b0aa68464086ae564c2816a", "fusion_lon": 0.0, "bike_id": "594e19636b0aa68464086ae564c2816a", "is_disabled": 0, "is_reserved": 0}, {"rental_uris": {"ios": "https://dc.lft.to/lastmile_qr_scan", "android": "https://dc.lft.to/lastmile_qr_scan"}, "lon": -77.075636, "type": "electric_scooter", "fusion_lat": 0.0, "lat": 38.920910166666665, "name": "84ae0a5fb4cde65e8c9789fca53f902c", "fusion_lon": 0.0, "bike_id": "84ae0a5fb4cde65e8c9789fca53f902c", "is_disabled": 0, "is_reserved": 0}, {"rental_uris": {"ios": "https://dc.lft.to/lastmile_qr_scan", "android": "https://dc.lft.to/lastmile_qr_scan"}, "lon": -77.01418966666667, "type": "electric_scooter", "fusion_lat": 0.0, "lat": 38.9169385, "name": "92353e87093639c5b506daad83fd9610", "fusion_lon": 0.0, "bike_id": "92353e87093639c5b506daad83fd9610", "is_disabled": 0, "is_reserved": 0}, {"rental_uris": {"ios": "https://dc.lft.to/lastmile_qr_scan", "android": "https://dc.lft.to/lastmile_qr_scan"}, "lon": -77.0180375, "type": "electric_scooter", "fusion_lat": 0.0, "lat": 38.941998, "name": "8b2600ec4cb8a16235a2b777c13f0244", "fusion_lon": 0.0, "bike_id": "8b2600ec4cb8a16235a2b777c13f0244", "is_disabled": 0, "is_reserved": 0}, {"rental_uris": {"ios": "https://dc.lft.to/lastmile_qr_scan", "android": "https://dc.lft.to/lastmile_qr_scan"}, "lon": -77.02999716666666, "type": "electric_scooter", "fusion_lat": 0.0, "lat": 38.93453366666667, "name": "e1f358f0cab922e0a3d56f2a68488eae", "fusion_lon": 0.0, "bike_id": "e1f358f0cab922e0a3d56f2a68488eae", "is_disabled": 0, "is_reserved": 0}, {"rental_uris": {"ios": "https://dc.lft.to/lastmile_qr_scan", "android": "https://dc.lft.to/lastmile_qr_scan"}, "lon": -77.00506216666666, "type": "electric_scooter", "fusion_lat": 0.0, "lat": 38.8789175, "name": "8e964bcae73d92e38f145650a22117fe", "fusion_lon": 0.0, "bike_id": "8e964bcae73d92e38f145650a22117fe", "is_disabled": 0, "is_reserved": 0}, {"rental_uris": {"ios": "https://dc.lft.to/lastmile_qr_scan", "android": "https://dc.lft.to/lastmile_qr_scan"}, "lon": -77.03661766666667, "type": "electric_scooter", "fusion_lat": 0.0, "lat": 38.91293066666667, "name": "65f4ca9909714f8adfcb188de0bebc99", "fusion_lon": 0.0, "bike_id": "65f4ca9909714f8adfcb188de0bebc99", "is_disabled": 0, "is_reserved": 0}, {"rental_uris": {"ios": "https://dc.lft.to/lastmile_qr_scan", "android": "https://dc.lft.to/lastmile_qr_scan"}, "lon": -77.02571083333333, "type": "electric_scooter", "fusion_lat": 0.0, "lat": 38.8874275, "name": "140751386d44fbb03ea97a00dfd1abcd", "fusion_lon": 0.0, "bike_id": "140751386d44fbb03ea97a00dfd1abcd", "is_disabled": 0, "is_reserved": 0}, {"rental_uris": {"ios": "https://dc.lft.to/lastmile_qr_scan", "android": "https://dc.lft.to/lastmile_qr_scan"}, "lon": -77.04108766666667, "type": "electric_scooter", "fusion_lat": 0.0, "lat": 38.923713166666666, "name": "e5bc7b4cbef3f576e28026793ef2683a", "fusion_lon": 0.0, "bike_id": "e5bc7b4cbef3f576e28026793ef2683a", "is_disabled": 0, "is_reserved": 0}, {"rental_uris": {"ios": "https://dc.lft.to/lastmile_qr_scan", "android": "https://dc.lft.to/lastmile_qr_scan"}, "lon": -77.0247755, "type": "electric_scooter", "fusion_lat": 0.0, "lat": 38.9181635, "name": "b8dc9812937e43371951565ce85e662d", "fusion_lon": 0.0, "bike_id": "b8dc9812937e43371951565ce85e662d", "is_disabled": 0, "is_reserved": 0}, {"rental_uris": {"ios": "https://dc.lft.to/lastmile_qr_scan", "android": "https://dc.lft.to/lastmile_qr_scan"}, "lon": -76.946368, "type": "electric_scooter", "fusion_lat": 0.0, "lat": 38.89832966666667, "name": "21e77628b9dc935efa41e07bb6585076", "fusion_lon": 0.0, "bike_id": "21e77628b9dc935efa41e07bb6585076", "is_disabled": 0, "is_reserved": 0}, {"rental_uris": {"ios": "https://dc.lft.to/lastmile_qr_scan", "android": "https://dc.lft.to/lastmile_qr_scan"}, "lon": -76.97616066666667, "type": "electric_scooter", "fusion_lat": 0.0, "lat": 38.903845833333335, "name": "51fc04f0512e25581074b11df6fd17b1", "fusion_lon": 0.0, "bike_id": "51fc04f0512e25581074b11df6fd17b1", "is_disabled": 0, "is_reserved": 0}, {"rental_uris": {"ios": "https://dc.lft.to/lastmile_qr_scan", "android": "https://dc.lft.to/lastmile_qr_scan"}, "lon": -76.95763, "type": "electric_bike", "fusion_lat": 0.0, "lat": 38.8841715, "name": "4490f15c2206154cb9d3bfb138f731b3", "fusion_lon": 0.0, "bike_id": "4490f15c2206154cb9d3bfb138f731b3", "is_disabled": 0, "is_reserved": 0}, {"rental_uris": {"ios": "https://dc.lft.to/lastmile_qr_scan", "android": "https://dc.lft.to/lastmile_qr_scan"}, "lon": -77.0382985, "type": "electric_scooter", "fusion_lat": 0.0, "lat": 38.92162666666667, "name": "1a92d80bdd12b734aed7d38e03fb9c63", "fusion_lon": 0.0, "bike_id": "1a92d80bdd12b734aed7d38e03fb9c63", "is_disabled": 0, "is_reserved": 0}, {"rental_uris": {"ios": "https://dc.lft.to/lastmile_qr_scan", "android": "https://dc.lft.to/lastmile_qr_scan"}, "lon": -76.8781645, "type": "electric_bike", "fusion_lat": 0.0, "lat": 38.9923725, "name": "21027aaa043f4e25c77d6dc76482b74c", "fusion_lon": 0.0, "bike_id": "21027aaa043f4e25c77d6dc76482b74c", "is_disabled": 0, "is_reserved": 0}, {"rental_uris": {"ios": "https://dc.lft.to/lastmile_qr_scan", "android": "https://dc.lft.to/lastmile_qr_scan"}, "lon": -76.977464, "type": "electric_scooter", "fusion_lat": 0.0, "lat": 38.90009333333333, "name": "a2d95133d04dab9801babdbaeb2c9b0a", "fusion_lon": 0.0, "bike_id": "a2d95133d04dab9801babdbaeb2c9b0a", "is_disabled": 0, "is_reserved": 0}, {"rental_uris": {"ios": "https://dc.lft.to/lastmile_qr_scan", "android": "https://dc.lft.to/lastmile_qr_scan"}, "lon": -77.10731066666666, "type": "electric_bike", "fusion_lat": 0.0, "lat": 38.85548883333333, "name": "8e2e7ebf2469ef754e7e18b7fc9d9f6f", "fusion_lon": 0.0, "bike_id": "8e2e7ebf2469ef754e7e18b7fc9d9f6f", "is_disabled": 0, "is_reserved": 0}, {"rental_uris": {"ios": "https://dc.lft.to/lastmile_qr_scan", "android": "https://dc.lft.to/lastmile_qr_scan"}, "lon": -77.03791416666667, "type": "electric_scooter", "fusion_lat": 0.0, "lat": 38.92631016666667, "name": "ccd439a541f3482fcf1320a88ea7f420", "fusion_lon": 0.0, "bike_id": "ccd439a541f3482fcf1320a88ea7f420", "is_disabled": 0, "is_reserved": 0}, {"rental_uris": {"ios": "https://dc.lft.to/lastmile_qr_scan", "android": "https://dc.lft.to/lastmile_qr_scan"}, "lon": -77.03187216666667, "type": "electric_scooter", "fusion_lat": 0.0, "lat": 38.913226, "name": "e2796c9ab1073a03936ec65f8cc9b015", "fusion_lon": 0.0, "bike_id": "e2796c9ab1073a03936ec65f8cc9b015", "is_disabled": 0, "is_reserved": 0}, {"rental_uris": {"ios": "https://dc.lft.to/lastmile_qr_scan", "android": "https://dc.lft.to/lastmile_qr_scan"}, "lon": -76.981804, "type": "electric_scooter", "fusion_lat": 0.0, "lat": 38.895749333333335, "name": "98fc71b29072edb7fe4766afe668202e", "fusion_lon": 0.0, "bike_id": "98fc71b29072edb7fe4766afe668202e", "is_disabled": 0, "is_reserved": 0}, {"rental_uris": {"ios": "https://dc.lft.to/lastmile_qr_scan", "android": "https://dc.lft.to/lastmile_qr_scan"}, "lon": -77.0295725, "type": "electric_scooter", "fusion_lat": 0.0, "lat": 38.915897333333334, "name": "befcd6338b3cd5714484d2a07776fee5", "fusion_lon": 0.0, "bike_id": "befcd6338b3cd5714484d2a07776fee5", "is_disabled": 0, "is_reserved": 0}, {"rental_uris": {"ios": "https://dc.lft.to/lastmile_qr_scan", "android": "https://dc.lft.to/lastmile_qr_scan"}, "lon": -76.9825445, "type": "electric_scooter", "fusion_lat": 0.0, "lat": 38.9086395, "name": "03142e666fe996ada86ebadba2de3f4c", "fusion_lon": 0.0, "bike_id": "03142e666fe996ada86ebadba2de3f4c", "is_disabled": 0, "is_reserved": 0}, {"rental_uris": {"ios": "https://dc.lft.to/lastmile_qr_scan", "android": "https://dc.lft.to/lastmile_qr_scan"}, "lon": -76.90973516666666, "type": "electric_bike", "fusion_lat": 0.0, "lat": 38.85432016666667, "name": "668761b614837cef610793d1db7b6893", "fusion_lon": 0.0, "bike_id": "668761b614837cef610793d1db7b6893", "is_disabled": 0, "is_reserved": 0}, {"rental_uris": {"ios": "https://dc.lft.to/lastmile_qr_scan", "android": "https://dc.lft.to/lastmile_qr_scan"}, "lon": -77.01875966666667, "type": "electric_scooter", "fusion_lat": 0.0, "lat": 38.88748283333334, "name": "d4698c7bf701723dee95d526bfdc46c5", "fusion_lon": 0.0, "bike_id": "d4698c7bf701723dee95d526bfdc46c5", "is_disabled": 0, "is_reserved": 0}, {"rental_uris": {"ios": "https://dc.lft.to/lastmile_qr_scan", "android": "https://dc.lft.to/lastmile_qr_scan"}, "lon": -77.0417915, "type": "electric_scooter", "fusion_lat": 0.0, "lat": 38.92009683333333, "name": "0bb39a819ef5401f8e3baee33df294e0", "fusion_lon": 0.0, "bike_id": "0bb39a819ef5401f8e3baee33df294e0", "is_disabled": 0, "is_reserved": 0}, {"rental_uris": {"ios": "https://dc.lft.to/lastmile_qr_scan", "android": "https://dc.lft.to/lastmile_qr_scan"}, "lon": -77.02189416666667, "type": "electric_scooter", "fusion_lat": 0.0, "lat": 38.93948266666666, "name": "3cbc34d1459637d2566d3d61baf8331b", "fusion_lon": 0.0, "bike_id": "3cbc34d1459637d2566d3d61baf8331b", "is_disabled": 0, "is_reserved": 0}, {"rental_uris": {"ios": "https://dc.lft.to/lastmile_qr_scan", "android": "https://dc.lft.to/lastmile_qr_scan"}, "lon": -77.0098475, "type": "electric_scooter", "fusion_lat": 0.0, "lat": 38.919217333333336, "name": "802747870c62897184ac420792b41282", "fusion_lon": 0.0, "bike_id": "802747870c62897184ac420792b41282", "is_disabled": 0, "is_reserved": 0}, {"rental_uris": {"ios": "https://dc.lft.to/lastmile_qr_scan", "android": "https://dc.lft.to/lastmile_qr_scan"}, "lon": -77.04549566666667, "type": "electric_scooter", "fusion_lat": 0.0, "lat": 38.933909166666666, "name": "316c6dd128d1813752454843f32a4c24", "fusion_lon": 0.0, "bike_id": "316c6dd128d1813752454843f32a4c24", "is_disabled": 0, "is_reserved": 0}, {"rental_uris": {"ios": "https://dc.lft.to/lastmile_qr_scan", "android": "https://dc.lft.to/lastmile_qr_scan"}, "lon": -77.03014816666666, "type": "electric_scooter", "fusion_lat": 0.0, "lat": 38.91008733333334, "name": "c6d040062fa2efd333e86ac269a7b6a6", "fusion_lon": 0.0, "bike_id": "c6d040062fa2efd333e86ac269a7b6a6", "is_disabled": 0, "is_reserved": 0}, {"rental_uris": {"ios": "https://dc.lft.to/lastmile_qr_scan", "android": "https://dc.lft.to/lastmile_qr_scan"}, "lon": -76.9489305, "type": "electric_scooter", "fusion_lat": 0.0, "lat": 38.89527266666666, "name": "93a26f057f62acce4a7770468739a41f", "fusion_lon": 0.0, "bike_id": "93a26f057f62acce4a7770468739a41f", "is_disabled": 0, "is_reserved": 0}, {"rental_uris": {"ios": "https://dc.lft.to/lastmile_qr_scan", "android": "https://dc.lft.to/lastmile_qr_scan"}, "lon": -77.05120466666666, "type": "electric_bike", "fusion_lat": 0.0, "lat": 38.999682, "name": "9c83f7ec5d90449e8579f39f99f279a2", "fusion_lon": 0.0, "bike_id": "9c83f7ec5d90449e8579f39f99f279a2", "is_disabled": 0, "is_reserved": 0}, {"rental_uris": {"ios": "https://dc.lft.to/lastmile_qr_scan", "android": "https://dc.lft.to/lastmile_qr_scan"}, "lon": -76.98611833333334, "type": "electric_bike", "fusion_lat": 0.0, "lat": 38.9062625, "name": "79756b54de3e5ce386173735971c77b7", "fusion_lon": 0.0, "bike_id": "79756b54de3e5ce386173735971c77b7", "is_disabled": 0, "is_reserved": 0}, {"rental_uris": {"ios": "https://dc.lft.to/lastmile_qr_scan", "android": "https://dc.lft.to/lastmile_qr_scan"}, "lon": -77.03289816666667, "type": "electric_scooter", "fusion_lat": 0.0, "lat": 38.9287545, "name": "cafc747f5a1e9887baf3425f16ec06b7", "fusion_lon": 0.0, "bike_id": "cafc747f5a1e9887baf3425f16ec06b7", "is_disabled": 0, "is_reserved": 0}, {"rental_uris": {"ios": "https://dc.lft.to/lastmile_qr_scan", "android": "https://dc.lft.to/lastmile_qr_scan"}, "lon": -77.01633283333334, "type": "electric_scooter", "fusion_lat": 0.0, "lat": 38.9033745, "name": "f622d31cfad1dc229b61c732918f82c6", "fusion_lon": 0.0, "bike_id": "f622d31cfad1dc229b61c732918f82c6", "is_disabled": 0, "is_reserved": 0}, {"rental_uris": {"ios": "https://dc.lft.to/lastmile_qr_scan", "android": "https://dc.lft.to/lastmile_qr_scan"}, "lon": -77.03302583333334, "type": "electric_scooter", "fusion_lat": 0.0, "lat": 38.90979433333333, "name": "6f9a5e2ce1e131553cdc4325cd531c63", "fusion_lon": 0.0, "bike_id": "6f9a5e2ce1e131553cdc4325cd531c63", "is_disabled": 0, "is_reserved": 0}, {"rental_uris": {"ios": "https://dc.lft.to/lastmile_qr_scan", "android": "https://dc.lft.to/lastmile_qr_scan"}, "lon": -76.988871, "type": "electric_scooter", "fusion_lat": 0.0, "lat": 38.86659916666667, "name": "04b8ee569a3316ae49b59a48efcd11ce", "fusion_lon": 0.0, "bike_id": "04b8ee569a3316ae49b59a48efcd11ce", "is_disabled": 0, "is_reserved": 0}, {"rental_uris": {"ios": "https://dc.lft.to/lastmile_qr_scan", "android": "https://dc.lft.to/lastmile_qr_scan"}, "lon": -77.008725, "type": "electric_scooter", "fusion_lat": 0.0, "lat": 38.91178583333333, "name": "d36a59a67d545fed759aa5acaa32daf9", "fusion_lon": 0.0, "bike_id": "d36a59a67d545fed759aa5acaa32daf9", "is_disabled": 0, "is_reserved": 0}, {"rental_uris": {"ios": "https://dc.lft.to/lastmile_qr_scan", "android": "https://dc.lft.to/lastmile_qr_scan"}, "lon": -76.95204816666667, "type": "electric_bike", "fusion_lat": 0.0, "lat": 38.93675366666667, "name": "9d396075514aeed607c569dabba70abc", "fusion_lon": 0.0, "bike_id": "9d396075514aeed607c569dabba70abc", "is_disabled": 0, "is_reserved": 0}, {"rental_uris": {"ios": "https://dc.lft.to/lastmile_qr_scan", "android": "https://dc.lft.to/lastmile_qr_scan"}, "lon": -77.03858683333333, "type": "electric_scooter", "fusion_lat": 0.0, "lat": 38.91332083333333, "name": "82e5fcb9a3d63ec96903fc18cede625e", "fusion_lon": 0.0, "bike_id": "82e5fcb9a3d63ec96903fc18cede625e", "is_disabled": 0, "is_reserved": 0}, {"rental_uris": {"ios": "https://dc.lft.to/lastmile_qr_scan", "android": "https://dc.lft.to/lastmile_qr_scan"}, "lon": -77.04500916666667, "type": "electric_scooter", "fusion_lat": 0.0, "lat": 38.90576333333333, "name": "8e524380fc73e104a4e3940738519de1", "fusion_lon": 0.0, "bike_id": "8e524380fc73e104a4e3940738519de1", "is_disabled": 0, "is_reserved": 0}, {"rental_uris": {"ios": "https://dc.lft.to/lastmile_qr_scan", "android": "https://dc.lft.to/lastmile_qr_scan"}, "lon": -77.044454, "type": "electric_scooter", "fusion_lat": 0.0, "lat": 38.90570866666667, "name": "9124b6954215537cb7516a15bd51f537", "fusion_lon": 0.0, "bike_id": "9124b6954215537cb7516a15bd51f537", "is_disabled": 0, "is_reserved": 0}, {"rental_uris": {"ios": "https://dc.lft.to/lastmile_qr_scan", "android": "https://dc.lft.to/lastmile_qr_scan"}, "lon": -77.03198366666666, "type": "electric_scooter", "fusion_lat": 0.0, "lat": 38.913489166666665, "name": "e537008b06805a5cfc21b5bcf81a93b9", "fusion_lon": 0.0, "bike_id": "e537008b06805a5cfc21b5bcf81a93b9", "is_disabled": 0, "is_reserved": 0}, {"rental_uris": {"ios": "https://dc.lft.to/lastmile_qr_scan", "android": "https://dc.lft.to/lastmile_qr_scan"}, "lon": -77.031983, "type": "electric_scooter", "fusion_lat": 0.0, "lat": 38.907931166666664, "name": "4fd0a423eeb3875f25800dfe3da9218e", "fusion_lon": 0.0, "bike_id": "4fd0a423eeb3875f25800dfe3da9218e", "is_disabled": 0, "is_reserved": 0}, {"rental_uris": {"ios": "https://dc.lft.to/lastmile_qr_scan", "android": "https://dc.lft.to/lastmile_qr_scan"}, "lon": -76.98980333333333, "type": "electric_scooter", "fusion_lat": 0.0, "lat": 38.890468166666665, "name": "de9f1d6f6f98574901ba50c4445356d3", "fusion_lon": 0.0, "bike_id": "de9f1d6f6f98574901ba50c4445356d3", "is_disabled": 0, "is_reserved": 0}, {"rental_uris": {"ios": "https://dc.lft.to/lastmile_qr_scan", "android": "https://dc.lft.to/lastmile_qr_scan"}, "lon": -77.05122816666666, "type": "electric_scooter", "fusion_lat": 0.0, "lat": 38.923595166666665, "name": "0653e043e6dd8168abb4b314e61ed8a3", "fusion_lon": 0.0, "bike_id": "0653e043e6dd8168abb4b314e61ed8a3", "is_disabled": 0, "is_reserved": 0}, {"rental_uris": {"ios": "https://dc.lft.to/lastmile_qr_scan", "android": "https://dc.lft.to/lastmile_qr_scan"}, "lon": -77.00139266666666, "type": "electric_scooter", "fusion_lat": 0.0, "lat": 38.90406183333333, "name": "821782ecb2ae695ba16cbd6efb40b27f", "fusion_lon": 0.0, "bike_id": "821782ecb2ae695ba16cbd6efb40b27f", "is_disabled": 0, "is_reserved": 0}, {"rental_uris": {"ios": "https://dc.lft.to/lastmile_qr_scan", "android": "https://dc.lft.to/lastmile_qr_scan"}, "lon": -77.0196875, "type": "electric_scooter", "fusion_lat": 0.0, "lat": 38.87841683333333, "name": "92dc75e0ce58ec81ac77c4788094555c", "fusion_lon": 0.0, "bike_id": "92dc75e0ce58ec81ac77c4788094555c", "is_disabled": 0, "is_reserved": 0}, {"rental_uris": {"ios": "https://dc.lft.to/lastmile_qr_scan", "android": "https://dc.lft.to/lastmile_qr_scan"}, "lon": -77.00593333333333, "type": "electric_scooter", "fusion_lat": 0.0, "lat": 38.90545733333333, "name": "74d1277a8277f2336b307a0df1f4d1fd", "fusion_lon": 0.0, "bike_id": "74d1277a8277f2336b307a0df1f4d1fd", "is_disabled": 0, "is_reserved": 0}, {"rental_uris": {"ios": "https://dc.lft.to/lastmile_qr_scan", "android": "https://dc.lft.to/lastmile_qr_scan"}, "lon": -77.04719616666667, "type": "electric_scooter", "fusion_lat": 0.0, "lat": 38.90953583333334, "name": "a2c7749b875a87d4ef1ccf23f4e69053", "fusion_lon": 0.0, "bike_id": "a2c7749b875a87d4ef1ccf23f4e69053", "is_disabled": 0, "is_reserved": 0}, {"rental_uris": {"ios": "https://dc.lft.to/lastmile_qr_scan", "android": "https://dc.lft.to/lastmile_qr_scan"}, "lon": -76.9649385, "type": "electric_bike", "fusion_lat": 0.0, "lat": 38.875522, "name": "46215a2191457fde8e65c3961eaf5b3c", "fusion_lon": 0.0, "bike_id": "46215a2191457fde8e65c3961eaf5b3c", "is_disabled": 0, "is_reserved": 0}, {"rental_uris": {"ios": "https://dc.lft.to/lastmile_qr_scan", "android": "https://dc.lft.to/lastmile_qr_scan"}, "lon": -77.03433116666666, "type": "electric_scooter", "fusion_lat": 0.0, "lat": 38.918302, "name": "c66d4238e5136e78a737f1ef4af11b0c", "fusion_lon": 0.0, "bike_id": "c66d4238e5136e78a737f1ef4af11b0c", "is_disabled": 0, "is_reserved": 0}, {"rental_uris": {"ios": "https://dc.lft.to/lastmile_qr_scan", "android": "https://dc.lft.to/lastmile_qr_scan"}, "lon": -77.02461533333333, "type": "electric_scooter", "fusion_lat": 0.0, "lat": 38.89714566666667, "name": "5a8ca31b00c7d7cafde4ff9670d9fa73", "fusion_lon": 0.0, "bike_id": "5a8ca31b00c7d7cafde4ff9670d9fa73", "is_disabled": 0, "is_reserved": 0}, {"rental_uris": {"ios": "https://dc.lft.to/lastmile_qr_scan", "android": "https://dc.lft.to/lastmile_qr_scan"}, "lon": -77.07149566666666, "type": "electric_scooter", "fusion_lat": 0.0, "lat": 38.90744133333333, "name": "7c0d1097fe164eaf990dfa3f7eef1fab", "fusion_lon": 0.0, "bike_id": "7c0d1097fe164eaf990dfa3f7eef1fab", "is_disabled": 0, "is_reserved": 0}, {"rental_uris": {"ios": "https://dc.lft.to/lastmile_qr_scan", "android": "https://dc.lft.to/lastmile_qr_scan"}, "lon": -76.99872383333333, "type": "electric_scooter", "fusion_lat": 0.0, "lat": 38.90018416666667, "name": "78dd3cc1c1e27b3496d3526384d4f95c", "fusion_lon": 0.0, "bike_id": "78dd3cc1c1e27b3496d3526384d4f95c", "is_disabled": 0, "is_reserved": 0}, {"rental_uris": {"ios": "https://dc.lft.to/lastmile_qr_scan", "android": "https://dc.lft.to/lastmile_qr_scan"}, "lon": -77.03148283333333, "type": "electric_scooter", "fusion_lat": 0.0, "lat": 38.89715566666667, "name": "41dd83c3e48caf827da850a4db330bad", "fusion_lon": 0.0, "bike_id": "41dd83c3e48caf827da850a4db330bad", "is_disabled": 0, "is_reserved": 0}, {"rental_uris": {"ios": "https://dc.lft.to/lastmile_qr_scan", "android": "https://dc.lft.to/lastmile_qr_scan"}, "lon": -77.03571383333333, "type": "electric_scooter", "fusion_lat": 0.0, "lat": 38.907579, "name": "8cf3789f0c47b8bd411c847abaf00971", "fusion_lon": 0.0, "bike_id": "8cf3789f0c47b8bd411c847abaf00971", "is_disabled": 0, "is_reserved": 0}, {"rental_uris": {"ios": "https://dc.lft.to/lastmile_qr_scan", "android": "https://dc.lft.to/lastmile_qr_scan"}, "lon": -77.178404, "type": "electric_bike", "fusion_lat": 0.0, "lat": 39.08856983333333, "name": "7d2b91cea31905b78309c8ff800b8ba1", "fusion_lon": 0.0, "bike_id": "7d2b91cea31905b78309c8ff800b8ba1", "is_disabled": 0, "is_reserved": 0}, {"rental_uris": {"ios": "https://dc.lft.to/lastmile_qr_scan", "android": "https://dc.lft.to/lastmile_qr_scan"}, "lon": -76.95360066666667, "type": "electric_bike", "fusion_lat": 0.0, "lat": 38.9395125, "name": "6aedda9c4e3bb4e69c45bc0d93238094", "fusion_lon": 0.0, "bike_id": "6aedda9c4e3bb4e69c45bc0d93238094", "is_disabled": 0, "is_reserved": 0}, {"rental_uris": {"ios": "https://dc.lft.to/lastmile_qr_scan", "android": "https://dc.lft.to/lastmile_qr_scan"}, "lon": -77.03262666666667, "type": "electric_scooter", "fusion_lat": 0.0, "lat": 38.92743166666666, "name": "b0ac258b6f69cda41e4d3487d7297f67", "fusion_lon": 0.0, "bike_id": "b0ac258b6f69cda41e4d3487d7297f67", "is_disabled": 0, "is_reserved": 0}, {"rental_uris": {"ios": "https://dc.lft.to/lastmile_qr_scan", "android": "https://dc.lft.to/lastmile_qr_scan"}, "lon": -77.044231, "type": "electric_scooter", "fusion_lat": 0.0, "lat": 38.922318833333335, "name": "87d5efb4a1d217bb2720cdfd6c2cec63", "fusion_lon": 0.0, "bike_id": "87d5efb4a1d217bb2720cdfd6c2cec63", "is_disabled": 0, "is_reserved": 0}, {"rental_uris": {"ios": "https://dc.lft.to/lastmile_qr_scan", "android": "https://dc.lft.to/lastmile_qr_scan"}, "lon": -76.98900816666666, "type": "electric_scooter", "fusion_lat": 0.0, "lat": 38.86689633333334, "name": "6781f7c51f3b0e3ff752b245d28aa3b6", "fusion_lon": 0.0, "bike_id": "6781f7c51f3b0e3ff752b245d28aa3b6", "is_disabled": 0, "is_reserved": 0}, {"rental_uris": {"ios": "https://dc.lft.to/lastmile_qr_scan", "android": "https://dc.lft.to/lastmile_qr_scan"}, "lon": -77.00208733333334, "type": "electric_scooter", "fusion_lat": 0.0, "lat": 38.90011716666667, "name": "2c939a8abbfdfbcc7b6c697892ebaf29", "fusion_lon": 0.0, "bike_id": "2c939a8abbfdfbcc7b6c697892ebaf29", "is_disabled": 0, "is_reserved": 0}, {"rental_uris": {"ios": "https://dc.lft.to/lastmile_qr_scan", "android": "https://dc.lft.to/lastmile_qr_scan"}, "lon": -77.043086, "type": "electric_bike", "fusion_lat": 0.0, "lat": 39.05448283333333, "name": "b1360f7fdd49da8af5d77c7e0879c430", "fusion_lon": 0.0, "bike_id": "b1360f7fdd49da8af5d77c7e0879c430", "is_disabled": 0, "is_reserved": 0}, {"rental_uris": {"ios": "https://dc.lft.to/lastmile_qr_scan", "android": "https://dc.lft.to/lastmile_qr_scan"}, "lon": -77.02706733333333, "type": "electric_scooter", "fusion_lat": 0.0, "lat": 38.94998066666667, "name": "21ab443a55a9e5cf84536acb73eba260", "fusion_lon": 0.0, "bike_id": "21ab443a55a9e5cf84536acb73eba260", "is_disabled": 0, "is_reserved": 0}, {"rental_uris": {"ios": "https://dc.lft.to/lastmile_qr_scan", "android": "https://dc.lft.to/lastmile_qr_scan"}, "lon": -77.03314833333333, "type": "electric_scooter", "fusion_lat": 0.0, "lat": 38.91911183333333, "name": "ddef9542d9a73317cb7b93d902eec658", "fusion_lon": 0.0, "bike_id": "ddef9542d9a73317cb7b93d902eec658", "is_disabled": 0, "is_reserved": 0}, {"rental_uris": {"ios": "https://dc.lft.to/lastmile_qr_scan", "android": "https://dc.lft.to/lastmile_qr_scan"}, "lon": -77.048177, "type": "electric_scooter", "fusion_lat": 0.0, "lat": 38.90727166666667, "name": "c06a997b615de4962877ad160199997d", "fusion_lon": 0.0, "bike_id": "c06a997b615de4962877ad160199997d", "is_disabled": 0, "is_reserved": 0}, {"rental_uris": {"ios": "https://dc.lft.to/lastmile_qr_scan", "android": "https://dc.lft.to/lastmile_qr_scan"}, "lon": -77.03269116666667, "type": "electric_scooter", "fusion_lat": 0.0, "lat": 38.9478785, "name": "7f268195dd687da273cf3da62760d690", "fusion_lon": 0.0, "bike_id": "7f268195dd687da273cf3da62760d690", "is_disabled": 0, "is_reserved": 0}, {"rental_uris": {"ios": "https://dc.lft.to/lastmile_qr_scan", "android": "https://dc.lft.to/lastmile_qr_scan"}, "lon": -77.03280583333333, "type": "electric_scooter", "fusion_lat": 0.0, "lat": 38.93983, "name": "4db9f2efa6ee299cbb479f0fe1f9e835", "fusion_lon": 0.0, "bike_id": "4db9f2efa6ee299cbb479f0fe1f9e835", "is_disabled": 0, "is_reserved": 0}, {"rental_uris": {"ios": "https://dc.lft.to/lastmile_qr_scan", "android": "https://dc.lft.to/lastmile_qr_scan"}, "lon": -76.99676516666666, "type": "electric_scooter", "fusion_lat": 0.0, "lat": 38.932576, "name": "d20a09dd34cafb7df3aa0a97c951b686", "fusion_lon": 0.0, "bike_id": "d20a09dd34cafb7df3aa0a97c951b686", "is_disabled": 0, "is_reserved": 0}, {"rental_uris": {"ios": "https://dc.lft.to/lastmile_qr_scan", "android": "https://dc.lft.to/lastmile_qr_scan"}, "lon": -76.98683033333333, "type": "electric_scooter", "fusion_lat": 0.0, "lat": 38.88215966666667, "name": "f4cb8c9f633a7f1b8f524013a1d3665e", "fusion_lon": 0.0, "bike_id": "f4cb8c9f633a7f1b8f524013a1d3665e", "is_disabled": 0, "is_reserved": 0}, {"rental_uris": {"ios": "https://dc.lft.to/lastmile_qr_scan", "android": "https://dc.lft.to/lastmile_qr_scan"}, "lon": -77.02213816666666, "type": "electric_scooter", "fusion_lat": 0.0, "lat": 38.912684666666664, "name": "7c52d6f8cd09b30d265f2799298fcb26", "fusion_lon": 0.0, "bike_id": "7c52d6f8cd09b30d265f2799298fcb26", "is_disabled": 0, "is_reserved": 0}, {"rental_uris": {"ios": "https://dc.lft.to/lastmile_qr_scan", "android": "https://dc.lft.to/lastmile_qr_scan"}, "lon": -77.02983683333333, "type": "electric_scooter", "fusion_lat": 0.0, "lat": 38.90897433333333, "name": "d104843ef1ac16e328c0b48f2955d8e9", "fusion_lon": 0.0, "bike_id": "d104843ef1ac16e328c0b48f2955d8e9", "is_disabled": 0, "is_reserved": 0}, {"rental_uris": {"ios": "https://dc.lft.to/lastmile_qr_scan", "android": "https://dc.lft.to/lastmile_qr_scan"}, "lon": -77.04996816666667, "type": "electric_scooter", "fusion_lat": 0.0, "lat": 38.901302333333334, "name": "be7485953e55f2c0808b1b1031ef2561", "fusion_lon": 0.0, "bike_id": "be7485953e55f2c0808b1b1031ef2561", "is_disabled": 0, "is_reserved": 0}, {"rental_uris": {"ios": "https://dc.lft.to/lastmile_qr_scan", "android": "https://dc.lft.to/lastmile_qr_scan"}, "lon": -77.02186533333334, "type": "electric_bike", "fusion_lat": 0.0, "lat": 38.88355033333333, "name": "314060c0d0ac250e108b7cdd70eb3a72", "fusion_lon": 0.0, "bike_id": "314060c0d0ac250e108b7cdd70eb3a72", "is_disabled": 0, "is_reserved": 0}, {"rental_uris": {"ios": "https://dc.lft.to/lastmile_qr_scan", "android": "https://dc.lft.to/lastmile_qr_scan"}, "lon": -77.05680933333333, "type": "electric_scooter", "fusion_lat": 0.0, "lat": 38.92326, "name": "b23d33d87496c6401426b4d47cf201a7", "fusion_lon": 0.0, "bike_id": "b23d33d87496c6401426b4d47cf201a7", "is_disabled": 0, "is_reserved": 0}, {"rental_uris": {"ios": "https://dc.lft.to/lastmile_qr_scan", "android": "https://dc.lft.to/lastmile_qr_scan"}, "lon": -76.97958283333334, "type": "electric_scooter", "fusion_lat": 0.0, "lat": 38.9037575, "name": "e028b17adcccf811eed09863aed4d9a1", "fusion_lon": 0.0, "bike_id": "e028b17adcccf811eed09863aed4d9a1", "is_disabled": 0, "is_reserved": 0}, {"rental_uris": {"ios": "https://dc.lft.to/lastmile_qr_scan", "android": "https://dc.lft.to/lastmile_qr_scan"}, "lon": -77.0386215, "type": "electric_scooter", "fusion_lat": 0.0, "lat": 38.915485833333335, "name": "d96c7a9c8d7f01660f99432fd57fc76c", "fusion_lon": 0.0, "bike_id": "d96c7a9c8d7f01660f99432fd57fc76c", "is_disabled": 0, "is_reserved": 0}, {"rental_uris": {"ios": "https://dc.lft.to/lastmile_qr_scan", "android": "https://dc.lft.to/lastmile_qr_scan"}, "lon": -77.0286985, "type": "electric_scooter", "fusion_lat": 0.0, "lat": 38.9071755, "name": "9cb44769f31077402ff70e91f6b8517c", "fusion_lon": 0.0, "bike_id": "9cb44769f31077402ff70e91f6b8517c", "is_disabled": 0, "is_reserved": 0}, {"rental_uris": {"ios": "https://dc.lft.to/lastmile_qr_scan", "android": "https://dc.lft.to/lastmile_qr_scan"}, "lon": -77.02587283333334, "type": "electric_scooter", "fusion_lat": 0.0, "lat": 38.92035633333333, "name": "02723e10549e97de526b621cf475c7bb", "fusion_lon": 0.0, "bike_id": "02723e10549e97de526b621cf475c7bb", "is_disabled": 0, "is_reserved": 0}, {"rental_uris": {"ios": "https://dc.lft.to/lastmile_qr_scan", "android": "https://dc.lft.to/lastmile_qr_scan"}, "lon": -77.002012, "type": "electric_scooter", "fusion_lat": 0.0, "lat": 38.900574666666664, "name": "fc1a8ceea979d5c9dbc0a1ab0022f36f", "fusion_lon": 0.0, "bike_id": "fc1a8ceea979d5c9dbc0a1ab0022f36f", "is_disabled": 0, "is_reserved": 0}, {"rental_uris": {"ios": "https://dc.lft.to/lastmile_qr_scan", "android": "https://dc.lft.to/lastmile_qr_scan"}, "lon": -77.00675566666666, "type": "electric_bike", "fusion_lat": 0.0, "lat": 38.94512833333334, "name": "aba9755a63c68e5570c00631aef3cbfd", "fusion_lon": 0.0, "bike_id": "aba9755a63c68e5570c00631aef3cbfd", "is_disabled": 0, "is_reserved": 0}, {"rental_uris": {"ios": "https://dc.lft.to/lastmile_qr_scan", "android": "https://dc.lft.to/lastmile_qr_scan"}, "lon": -77.03913433333334, "type": "electric_scooter", "fusion_lat": 0.0, "lat": 38.91839733333333, "name": "95bb74dafc1d6fe70945a59d23b2d46d", "fusion_lon": 0.0, "bike_id": "95bb74dafc1d6fe70945a59d23b2d46d", "is_disabled": 0, "is_reserved": 0}, {"rental_uris": {"ios": "https://dc.lft.to/lastmile_qr_scan", "android": "https://dc.lft.to/lastmile_qr_scan"}, "lon": -77.069494, "type": "electric_bike", "fusion_lat": 0.0, "lat": 38.9903915, "name": "3b87ccd5d8f50c5d8e6a6d93e3ca2b69", "fusion_lon": 0.0, "bike_id": "3b87ccd5d8f50c5d8e6a6d93e3ca2b69", "is_disabled": 0, "is_reserved": 0}, {"rental_uris": {"ios": "https://dc.lft.to/lastmile_qr_scan", "android": "https://dc.lft.to/lastmile_qr_scan"}, "lon": -77.0473865, "type": "electric_scooter", "fusion_lat": 0.0, "lat": 38.9111925, "name": "a39c07fa281465ef50d189f7f39dc989", "fusion_lon": 0.0, "bike_id": "a39c07fa281465ef50d189f7f39dc989", "is_disabled": 0, "is_reserved": 0}, {"rental_uris": {"ios": "https://dc.lft.to/lastmile_qr_scan", "android": "https://dc.lft.to/lastmile_qr_scan"}, "lon": -77.03134633333333, "type": "electric_scooter", "fusion_lat": 0.0, "lat": 38.950737833333335, "name": "2b66a3c9ef8df8302817c84724de602c", "fusion_lon": 0.0, "bike_id": "2b66a3c9ef8df8302817c84724de602c", "is_disabled": 0, "is_reserved": 0}, {"rental_uris": {"ios": "https://dc.lft.to/lastmile_qr_scan", "android": "https://dc.lft.to/lastmile_qr_scan"}, "lon": -77.02951766666666, "type": "electric_scooter", "fusion_lat": 0.0, "lat": 38.91680866666667, "name": "c0e5d83cba2673c3b2452505dada7822", "fusion_lon": 0.0, "bike_id": "c0e5d83cba2673c3b2452505dada7822", "is_disabled": 0, "is_reserved": 0}, {"rental_uris": {"ios": "https://dc.lft.to/lastmile_qr_scan", "android": "https://dc.lft.to/lastmile_qr_scan"}, "lon": -77.035673, "type": "electric_scooter", "fusion_lat": 0.0, "lat": 38.91813, "name": "86ba5906829b9b1d82fb874f9004c2a8", "fusion_lon": 0.0, "bike_id": "86ba5906829b9b1d82fb874f9004c2a8", "is_disabled": 0, "is_reserved": 0}, {"rental_uris": {"ios": "https://dc.lft.to/lastmile_qr_scan", "android": "https://dc.lft.to/lastmile_qr_scan"}, "lon": -77.0334625, "type": "electric_scooter", "fusion_lat": 0.0, "lat": 38.89816416666667, "name": "97759c35b94ac622636f529f750b7d6b", "fusion_lon": 0.0, "bike_id": "97759c35b94ac622636f529f750b7d6b", "is_disabled": 0, "is_reserved": 0}, {"rental_uris": {"ios": "https://dc.lft.to/lastmile_qr_scan", "android": "https://dc.lft.to/lastmile_qr_scan"}, "lon": -77.0071225, "type": "electric_scooter", "fusion_lat": 0.0, "lat": 38.88487666666666, "name": "69adbb05f35b8b4de9a5e4ad80cb00f2", "fusion_lon": 0.0, "bike_id": "69adbb05f35b8b4de9a5e4ad80cb00f2", "is_disabled": 0, "is_reserved": 0}, {"rental_uris": {"ios": "https://dc.lft.to/lastmile_qr_scan", "android": "https://dc.lft.to/lastmile_qr_scan"}, "lon": -77.0588545, "type": "electric_scooter", "fusion_lat": 0.0, "lat": 38.936333, "name": "aa4f5ee4705084228bbe206445a8e886", "fusion_lon": 0.0, "bike_id": "aa4f5ee4705084228bbe206445a8e886", "is_disabled": 0, "is_reserved": 0}, {"rental_uris": {"ios": "https://dc.lft.to/lastmile_qr_scan", "android": "https://dc.lft.to/lastmile_qr_scan"}, "lon": -77.04146833333333, "type": "electric_scooter", "fusion_lat": 0.0, "lat": 38.92352616666667, "name": "24dda81418443677ca3887eb278044e7", "fusion_lon": 0.0, "bike_id": "24dda81418443677ca3887eb278044e7", "is_disabled": 0, "is_reserved": 0}, {"rental_uris": {"ios": "https://dc.lft.to/lastmile_qr_scan", "android": "https://dc.lft.to/lastmile_qr_scan"}, "lon": -77.03211116666667, "type": "electric_scooter", "fusion_lat": 0.0, "lat": 38.900108, "name": "11df1401ed337cf7f795ac85c9a7d403", "fusion_lon": 0.0, "bike_id": "11df1401ed337cf7f795ac85c9a7d403", "is_disabled": 0, "is_reserved": 0}, {"rental_uris": {"ios": "https://dc.lft.to/lastmile_qr_scan", "android": "https://dc.lft.to/lastmile_qr_scan"}, "lon": -77.02205166666667, "type": "electric_scooter", "fusion_lat": 0.0, "lat": 38.887238833333335, "name": "396d10c2160421e4a25c90b8befb92ab", "fusion_lon": 0.0, "bike_id": "396d10c2160421e4a25c90b8befb92ab", "is_disabled": 0, "is_reserved": 0}, {"rental_uris": {"ios": "https://dc.lft.to/lastmile_qr_scan", "android": "https://dc.lft.to/lastmile_qr_scan"}, "lon": -77.03212016666667, "type": "electric_scooter", "fusion_lat": 0.0, "lat": 38.92006083333333, "name": "9c4bfcdc00a20e3d4b560a1d9768dd5b", "fusion_lon": 0.0, "bike_id": "9c4bfcdc00a20e3d4b560a1d9768dd5b", "is_disabled": 0, "is_reserved": 0}, {"rental_uris": {"ios": "https://dc.lft.to/lastmile_qr_scan", "android": "https://dc.lft.to/lastmile_qr_scan"}, "lon": -76.94930383333333, "type": "electric_scooter", "fusion_lat": 0.0, "lat": 38.89478316666667, "name": "5992736a5cf4a8f91e0ea68ad97d41bd", "fusion_lon": 0.0, "bike_id": "5992736a5cf4a8f91e0ea68ad97d41bd", "is_disabled": 0, "is_reserved": 0}, {"rental_uris": {"ios": "https://dc.lft.to/lastmile_qr_scan", "android": "https://dc.lft.to/lastmile_qr_scan"}, "lon": -77.039148, "type": "electric_scooter", "fusion_lat": 0.0, "lat": 38.918375166666664, "name": "c9e52928c270d310034784c3ca35775e", "fusion_lon": 0.0, "bike_id": "c9e52928c270d310034784c3ca35775e", "is_disabled": 0, "is_reserved": 0}, {"rental_uris": {"ios": "https://dc.lft.to/lastmile_qr_scan", "android": "https://dc.lft.to/lastmile_qr_scan"}, "lon": -77.05002866666666, "type": "electric_scooter", "fusion_lat": 0.0, "lat": 38.892318833333334, "name": "602ac11ecf88700af92913136ccd4255", "fusion_lon": 0.0, "bike_id": "602ac11ecf88700af92913136ccd4255", "is_disabled": 0, "is_reserved": 0}, {"rental_uris": {"ios": "https://dc.lft.to/lastmile_qr_scan", "android": "https://dc.lft.to/lastmile_qr_scan"}, "lon": -77.09140633333334, "type": "electric_bike", "fusion_lat": 0.0, "lat": 38.804179, "name": "96179c07e314c2f8510f8f1a1c4a7bb4", "fusion_lon": 0.0, "bike_id": "96179c07e314c2f8510f8f1a1c4a7bb4", "is_disabled": 0, "is_reserved": 0}, {"rental_uris": {"ios": "https://dc.lft.to/lastmile_qr_scan", "android": "https://dc.lft.to/lastmile_qr_scan"}, "lon": -76.95245283333334, "type": "electric_bike", "fusion_lat": 0.0, "lat": 38.907046333333334, "name": "199e92dfdefe0efcc57a6ecff31eebbe", "fusion_lon": 0.0, "bike_id": "199e92dfdefe0efcc57a6ecff31eebbe", "is_disabled": 0, "is_reserved": 0}, {"rental_uris": {"ios": "https://dc.lft.to/lastmile_qr_scan", "android": "https://dc.lft.to/lastmile_qr_scan"}, "lon": -77.01320133333333, "type": "electric_scooter", "fusion_lat": 0.0, "lat": 38.8974665, "name": "66446ced16b45fbb35c4278ed389636b", "fusion_lon": 0.0, "bike_id": "66446ced16b45fbb35c4278ed389636b", "is_disabled": 0, "is_reserved": 0}, {"rental_uris": {"ios": "https://dc.lft.to/lastmile_qr_scan", "android": "https://dc.lft.to/lastmile_qr_scan"}, "lon": -77.02325016666667, "type": "electric_scooter", "fusion_lat": 0.0, "lat": 38.89387966666666, "name": "74d2e53d80a60f62bf4cb63af58fc452", "fusion_lon": 0.0, "bike_id": "74d2e53d80a60f62bf4cb63af58fc452", "is_disabled": 0, "is_reserved": 0}, {"rental_uris": {"ios": "https://dc.lft.to/lastmile_qr_scan", "android": "https://dc.lft.to/lastmile_qr_scan"}, "lon": -77.02211783333334, "type": "electric_scooter", "fusion_lat": 0.0, "lat": 38.9084415, "name": "e7b8826b126ba6a0d6df9064f2a7d47f", "fusion_lon": 0.0, "bike_id": "e7b8826b126ba6a0d6df9064f2a7d47f", "is_disabled": 0, "is_reserved": 0}, {"rental_uris": {"ios": "https://dc.lft.to/lastmile_qr_scan", "android": "https://dc.lft.to/lastmile_qr_scan"}, "lon": -76.980669, "type": "electric_bike", "fusion_lat": 0.0, "lat": 38.899779, "name": "89ec0acc6b3bfa6e6a9389bb49160d53", "fusion_lon": 0.0, "bike_id": "89ec0acc6b3bfa6e6a9389bb49160d53", "is_disabled": 0, "is_reserved": 0}, {"rental_uris": {"ios": "https://dc.lft.to/lastmile_qr_scan", "android": "https://dc.lft.to/lastmile_qr_scan"}, "lon": -77.01356366666667, "type": "electric_scooter", "fusion_lat": 0.0, "lat": 38.919797333333335, "name": "6a41538be54e155e0314c1a66d975308", "fusion_lon": 0.0, "bike_id": "6a41538be54e155e0314c1a66d975308", "is_disabled": 0, "is_reserved": 0}, {"rental_uris": {"ios": "https://dc.lft.to/lastmile_qr_scan", "android": "https://dc.lft.to/lastmile_qr_scan"}, "lon": -77.0220025, "type": "electric_scooter", "fusion_lat": 0.0, "lat": 38.931304, "name": "77f4de2721a223d934518c2457f33605", "fusion_lon": 0.0, "bike_id": "77f4de2721a223d934518c2457f33605", "is_disabled": 0, "is_reserved": 0}, {"rental_uris": {"ios": "https://dc.lft.to/lastmile_qr_scan", "android": "https://dc.lft.to/lastmile_qr_scan"}, "lon": -77.03218483333333, "type": "electric_scooter", "fusion_lat": 0.0, "lat": 38.892280666666665, "name": "ea5cbdff81fd6ed5d563423e4dfc0408", "fusion_lon": 0.0, "bike_id": "ea5cbdff81fd6ed5d563423e4dfc0408", "is_disabled": 0, "is_reserved": 0}, {"rental_uris": {"ios": "https://dc.lft.to/lastmile_qr_scan", "android": "https://dc.lft.to/lastmile_qr_scan"}, "lon": -77.03198183333333, "type": "electric_scooter", "fusion_lat": 0.0, "lat": 38.916521833333334, "name": "2fab62a2f74b2ef31b8abe0bcec3b068", "fusion_lon": 0.0, "bike_id": "2fab62a2f74b2ef31b8abe0bcec3b068", "is_disabled": 0, "is_reserved": 0}, {"rental_uris": {"ios": "https://dc.lft.to/lastmile_qr_scan", "android": "https://dc.lft.to/lastmile_qr_scan"}, "lon": -76.98359783333333, "type": "electric_scooter", "fusion_lat": 0.0, "lat": 38.864832666666665, "name": "acd7b326372ee33ba7ba272da3744cb0", "fusion_lon": 0.0, "bike_id": "acd7b326372ee33ba7ba272da3744cb0", "is_disabled": 0, "is_reserved": 0}, {"rental_uris": {"ios": "https://dc.lft.to/lastmile_qr_scan", "android": "https://dc.lft.to/lastmile_qr_scan"}, "lon": -76.9836335, "type": "electric_scooter", "fusion_lat": 0.0, "lat": 38.91543083333333, "name": "d59c4efc0d79969500c25c60b85a5d54", "fusion_lon": 0.0, "bike_id": "d59c4efc0d79969500c25c60b85a5d54", "is_disabled": 0, "is_reserved": 0}, {"rental_uris": {"ios": "https://dc.lft.to/lastmile_qr_scan", "android": "https://dc.lft.to/lastmile_qr_scan"}, "lon": -77.02961566666667, "type": "electric_scooter", "fusion_lat": 0.0, "lat": 38.90726433333333, "name": "096c74827d9e66f7b545034dc87a8d58", "fusion_lon": 0.0, "bike_id": "096c74827d9e66f7b545034dc87a8d58", "is_disabled": 0, "is_reserved": 0}, {"rental_uris": {"ios": "https://dc.lft.to/lastmile_qr_scan", "android": "https://dc.lft.to/lastmile_qr_scan"}, "lon": -77.03895866666667, "type": "electric_scooter", "fusion_lat": 0.0, "lat": 38.921854333333336, "name": "cdd830fcc189b6144aaa6fc419efaa29", "fusion_lon": 0.0, "bike_id": "cdd830fcc189b6144aaa6fc419efaa29", "is_disabled": 0, "is_reserved": 0}, {"rental_uris": {"ios": "https://dc.lft.to/lastmile_qr_scan", "android": "https://dc.lft.to/lastmile_qr_scan"}, "lon": -77.01755016666667, "type": "electric_scooter", "fusion_lat": 0.0, "lat": 38.8772015, "name": "bc46e76c048fcfc7d6b9d0c5cace01ef", "fusion_lon": 0.0, "bike_id": "bc46e76c048fcfc7d6b9d0c5cace01ef", "is_disabled": 0, "is_reserved": 0}, {"rental_uris": {"ios": "https://dc.lft.to/lastmile_qr_scan", "android": "https://dc.lft.to/lastmile_qr_scan"}, "lon": -76.98414183333334, "type": "electric_scooter", "fusion_lat": 0.0, "lat": 38.913864333333336, "name": "19c422ca072320c1a58a611a5b10b318", "fusion_lon": 0.0, "bike_id": "19c422ca072320c1a58a611a5b10b318", "is_disabled": 0, "is_reserved": 0}, {"rental_uris": {"ios": "https://dc.lft.to/lastmile_qr_scan", "android": "https://dc.lft.to/lastmile_qr_scan"}, "lon": -77.11427, "type": "electric_bike", "fusion_lat": 0.0, "lat": 38.85244333333333, "name": "412afab37f965a0141c48fc4c0445864", "fusion_lon": 0.0, "bike_id": "412afab37f965a0141c48fc4c0445864", "is_disabled": 0, "is_reserved": 0}, {"rental_uris": {"ios": "https://dc.lft.to/lastmile_qr_scan", "android": "https://dc.lft.to/lastmile_qr_scan"}, "lon": -76.97085916666667, "type": "electric_scooter", "fusion_lat": 0.0, "lat": 38.8787915, "name": "0ee3aa658a20074a6506b7cd6bf295d4", "fusion_lon": 0.0, "bike_id": "0ee3aa658a20074a6506b7cd6bf295d4", "is_disabled": 0, "is_reserved": 0}, {"rental_uris": {"ios": "https://dc.lft.to/lastmile_qr_scan", "android": "https://dc.lft.to/lastmile_qr_scan"}, "lon": -77.05123716666667, "type": "electric_scooter", "fusion_lat": 0.0, "lat": 38.923595666666664, "name": "b77d97ad29c50c7107c3676c988839c1", "fusion_lon": 0.0, "bike_id": "b77d97ad29c50c7107c3676c988839c1", "is_disabled": 0, "is_reserved": 0}, {"rental_uris": {"ios": "https://dc.lft.to/lastmile_qr_scan", "android": "https://dc.lft.to/lastmile_qr_scan"}, "lon": -77.0781835, "type": "electric_scooter", "fusion_lat": 0.0, "lat": 38.926253, "name": "e70fe09bd9f3a4b92f55aba887d0eeb3", "fusion_lon": 0.0, "bike_id": "e70fe09bd9f3a4b92f55aba887d0eeb3", "is_disabled": 0, "is_reserved": 0}, {"rental_uris": {"ios": "https://dc.lft.to/lastmile_qr_scan", "android": "https://dc.lft.to/lastmile_qr_scan"}, "lon": -77.02204233333333, "type": "electric_scooter", "fusion_lat": 0.0, "lat": 38.908502166666665, "name": "e2d1e21d8073810753c041888f922103", "fusion_lon": 0.0, "bike_id": "e2d1e21d8073810753c041888f922103", "is_disabled": 0, "is_reserved": 0}, {"rental_uris": {"ios": "https://dc.lft.to/lastmile_qr_scan", "android": "https://dc.lft.to/lastmile_qr_scan"}, "lon": -77.02215016666666, "type": "electric_scooter", "fusion_lat": 0.0, "lat": 38.887690166666665, "name": "c09adecbdb37258b84bafdfa7c7f4bcc", "fusion_lon": 0.0, "bike_id": "c09adecbdb37258b84bafdfa7c7f4bcc", "is_disabled": 0, "is_reserved": 0}, {"rental_uris": {"ios": "https://dc.lft.to/lastmile_qr_scan", "android": "https://dc.lft.to/lastmile_qr_scan"}, "lon": -77.03071966666667, "type": "electric_scooter", "fusion_lat": 0.0, "lat": 38.89961983333333, "name": "8d8e89e8ae7419efa4aa49e060986160", "fusion_lon": 0.0, "bike_id": "8d8e89e8ae7419efa4aa49e060986160", "is_disabled": 0, "is_reserved": 0}, {"rental_uris": {"ios": "https://dc.lft.to/lastmile_qr_scan", "android": "https://dc.lft.to/lastmile_qr_scan"}, "lon": -76.96775633333333, "type": "electric_scooter", "fusion_lat": 0.0, "lat": 38.86145, "name": "3cbb8d203fdc3ce6df274e2d0583c353", "fusion_lon": 0.0, "bike_id": "3cbb8d203fdc3ce6df274e2d0583c353", "is_disabled": 0, "is_reserved": 0}, {"rental_uris": {"ios": "https://dc.lft.to/lastmile_qr_scan", "android": "https://dc.lft.to/lastmile_qr_scan"}, "lon": -77.01963633333334, "type": "electric_scooter", "fusion_lat": 0.0, "lat": 38.903941833333334, "name": "694e6b4411ccc026e7021920921064f5", "fusion_lon": 0.0, "bike_id": "694e6b4411ccc026e7021920921064f5", "is_disabled": 0, "is_reserved": 0}, {"rental_uris": {"ios": "https://dc.lft.to/lastmile_qr_scan", "android": "https://dc.lft.to/lastmile_qr_scan"}, "lon": -77.03865166666667, "type": "electric_scooter", "fusion_lat": 0.0, "lat": 38.91546816666666, "name": "d36a43584001208d9e0d4577ffd72631", "fusion_lon": 0.0, "bike_id": "d36a43584001208d9e0d4577ffd72631", "is_disabled": 0, "is_reserved": 0}, {"rental_uris": {"ios": "https://dc.lft.to/lastmile_qr_scan", "android": "https://dc.lft.to/lastmile_qr_scan"}, "lon": -77.0260385, "type": "electric_scooter", "fusion_lat": 0.0, "lat": 38.9075315, "name": "12a6f9083b1d9c1a42f415d640618d5c", "fusion_lon": 0.0, "bike_id": "12a6f9083b1d9c1a42f415d640618d5c", "is_disabled": 0, "is_reserved": 0}, {"rental_uris": {"ios": "https://dc.lft.to/lastmile_qr_scan", "android": "https://dc.lft.to/lastmile_qr_scan"}, "lon": -76.99184883333334, "type": "electric_scooter", "fusion_lat": 0.0, "lat": 38.90840733333334, "name": "28ff1105709fe899e1287162b98417f2", "fusion_lon": 0.0, "bike_id": "28ff1105709fe899e1287162b98417f2", "is_disabled": 0, "is_reserved": 0}, {"rental_uris": {"ios": "https://dc.lft.to/lastmile_qr_scan", "android": "https://dc.lft.to/lastmile_qr_scan"}, "lon": -77.04447883333333, "type": "electric_scooter", "fusion_lat": 0.0, "lat": 38.91882316666667, "name": "3b5ed4b8958f5030e412efda3e26374d", "fusion_lon": 0.0, "bike_id": "3b5ed4b8958f5030e412efda3e26374d", "is_disabled": 0, "is_reserved": 0}, {"rental_uris": {"ios": "https://dc.lft.to/lastmile_qr_scan", "android": "https://dc.lft.to/lastmile_qr_scan"}, "lon": -77.030034, "type": "electric_scooter", "fusion_lat": 0.0, "lat": 38.91926216666667, "name": "449ce5c25b7a267c12a0fb4d7506a526", "fusion_lon": 0.0, "bike_id": "449ce5c25b7a267c12a0fb4d7506a526", "is_disabled": 0, "is_reserved": 0}, {"rental_uris": {"ios": "https://dc.lft.to/lastmile_qr_scan", "android": "https://dc.lft.to/lastmile_qr_scan"}, "lon": -77.03267283333334, "type": "electric_scooter", "fusion_lat": 0.0, "lat": 38.9344455, "name": "91d1ce6dc2a83b0ca91be928ea7c93c5", "fusion_lon": 0.0, "bike_id": "91d1ce6dc2a83b0ca91be928ea7c93c5", "is_disabled": 0, "is_reserved": 0}, {"rental_uris": {"ios": "https://dc.lft.to/lastmile_qr_scan", "android": "https://dc.lft.to/lastmile_qr_scan"}, "lon": -77.01864133333333, "type": "electric_scooter", "fusion_lat": 0.0, "lat": 38.90264166666667, "name": "1ae0151c482794d506f55925fb3c4bce", "fusion_lon": 0.0, "bike_id": "1ae0151c482794d506f55925fb3c4bce", "is_disabled": 0, "is_reserved": 0}, {"rental_uris": {"ios": "https://dc.lft.to/lastmile_qr_scan", "android": "https://dc.lft.to/lastmile_qr_scan"}, "lon": -77.031841, "type": "electric_scooter", "fusion_lat": 0.0, "lat": 38.9168685, "name": "9724e447dae80dd939cd429c8d4759bd", "fusion_lon": 0.0, "bike_id": "9724e447dae80dd939cd429c8d4759bd", "is_disabled": 0, "is_reserved": 0}, {"rental_uris": {"ios": "https://dc.lft.to/lastmile_qr_scan", "android": "https://dc.lft.to/lastmile_qr_scan"}, "lon": -77.0440695, "type": "electric_scooter", "fusion_lat": 0.0, "lat": 38.9056845, "name": "8a0be2bb2299fa39084c310db98978dc", "fusion_lon": 0.0, "bike_id": "8a0be2bb2299fa39084c310db98978dc", "is_disabled": 0, "is_reserved": 0}, {"rental_uris": {"ios": "https://dc.lft.to/lastmile_qr_scan", "android": "https://dc.lft.to/lastmile_qr_scan"}, "lon": -77.05024666666667, "type": "electric_scooter", "fusion_lat": 0.0, "lat": 38.92355, "name": "58d99a555e043a6dfaa9b6f629281c9e", "fusion_lon": 0.0, "bike_id": "58d99a555e043a6dfaa9b6f629281c9e", "is_disabled": 0, "is_reserved": 0}, {"rental_uris": {"ios": "https://dc.lft.to/lastmile_qr_scan", "android": "https://dc.lft.to/lastmile_qr_scan"}, "lon": -77.024013, "type": "electric_scooter", "fusion_lat": 0.0, "lat": 38.906991, "name": "35fa33fc9c5c71b908dfb2b8955ddb5c", "fusion_lon": 0.0, "bike_id": "35fa33fc9c5c71b908dfb2b8955ddb5c", "is_disabled": 0, "is_reserved": 0}, {"rental_uris": {"ios": "https://dc.lft.to/lastmile_qr_scan", "android": "https://dc.lft.to/lastmile_qr_scan"}, "lon": -77.04176983333333, "type": "electric_scooter", "fusion_lat": 0.0, "lat": 38.919891666666665, "name": "c6186c65ba56c06dba19c3cb1c76bac9", "fusion_lon": 0.0, "bike_id": "c6186c65ba56c06dba19c3cb1c76bac9", "is_disabled": 0, "is_reserved": 0}, {"rental_uris": {"ios": "https://dc.lft.to/lastmile_qr_scan", "android": "https://dc.lft.to/lastmile_qr_scan"}, "lon": -77.03473283333334, "type": "electric_scooter", "fusion_lat": 0.0, "lat": 38.91709433333333, "name": "b2b7468667e7acf983214576ef452acf", "fusion_lon": 0.0, "bike_id": "b2b7468667e7acf983214576ef452acf", "is_disabled": 0, "is_reserved": 0}, {"rental_uris": {"ios": "https://dc.lft.to/lastmile_qr_scan", "android": "https://dc.lft.to/lastmile_qr_scan"}, "lon": -77.09966516666667, "type": "electric_bike", "fusion_lat": 0.0, "lat": 38.8578765, "name": "c1ffb9ef79b951e57ee1049f5027ab15", "fusion_lon": 0.0, "bike_id": "c1ffb9ef79b951e57ee1049f5027ab15", "is_disabled": 0, "is_reserved": 0}, {"rental_uris": {"ios": "https://dc.lft.to/lastmile_qr_scan", "android": "https://dc.lft.to/lastmile_qr_scan"}, "lon": -77.08078583333334, "type": "electric_bike", "fusion_lat": 0.0, "lat": 38.906929166666664, "name": "ec7391e52093699ac0560d52c42d1726", "fusion_lon": 0.0, "bike_id": "ec7391e52093699ac0560d52c42d1726", "is_disabled": 0, "is_reserved": 0}, {"rental_uris": {"ios": "https://dc.lft.to/lastmile_qr_scan", "android": "https://dc.lft.to/lastmile_qr_scan"}, "lon": -76.94753666666666, "type": "electric_scooter", "fusion_lat": 0.0, "lat": 38.896792, "name": "8026928bfae626419c792b7fc5fd65ec", "fusion_lon": 0.0, "bike_id": "8026928bfae626419c792b7fc5fd65ec", "is_disabled": 0, "is_reserved": 0}, {"rental_uris": {"ios": "https://dc.lft.to/lastmile_qr_scan", "android": "https://dc.lft.to/lastmile_qr_scan"}, "lon": -77.03670783333334, "type": "electric_scooter", "fusion_lat": 0.0, "lat": 38.90690716666667, "name": "299af1458b2a95517c94080f7bfad2ae", "fusion_lon": 0.0, "bike_id": "299af1458b2a95517c94080f7bfad2ae", "is_disabled": 0, "is_reserved": 0}, {"rental_uris": {"ios": "https://dc.lft.to/lastmile_qr_scan", "android": "https://dc.lft.to/lastmile_qr_scan"}, "lon": -77.03307466666666, "type": "electric_scooter", "fusion_lat": 0.0, "lat": 38.9180175, "name": "147ec86927edc32d782761bd1c1dca1e", "fusion_lon": 0.0, "bike_id": "147ec86927edc32d782761bd1c1dca1e", "is_disabled": 0, "is_reserved": 0}, {"rental_uris": {"ios": "https://dc.lft.to/lastmile_qr_scan", "android": "https://dc.lft.to/lastmile_qr_scan"}, "lon": -77.02203533333333, "type": "electric_scooter", "fusion_lat": 0.0, "lat": 38.91538516666667, "name": "18bcf9d76e0101035166d59044bc60f0", "fusion_lon": 0.0, "bike_id": "18bcf9d76e0101035166d59044bc60f0", "is_disabled": 0, "is_reserved": 0}, {"rental_uris": {"ios": "https://dc.lft.to/lastmile_qr_scan", "android": "https://dc.lft.to/lastmile_qr_scan"}, "lon": -77.04513516666667, "type": "electric_scooter", "fusion_lat": 0.0, "lat": 38.90542283333333, "name": "f36d1dd203df146cf9a7a56783f5ad66", "fusion_lon": 0.0, "bike_id": "f36d1dd203df146cf9a7a56783f5ad66", "is_disabled": 0, "is_reserved": 0}, {"rental_uris": {"ios": "https://dc.lft.to/lastmile_qr_scan", "android": "https://dc.lft.to/lastmile_qr_scan"}, "lon": -77.0320035, "type": "electric_scooter", "fusion_lat": 0.0, "lat": 38.904295, "name": "2dc5ecd1ddea6a6d404d29b7adaa1d81", "fusion_lon": 0.0, "bike_id": "2dc5ecd1ddea6a6d404d29b7adaa1d81", "is_disabled": 0, "is_reserved": 0}, {"rental_uris": {"ios": "https://dc.lft.to/lastmile_qr_scan", "android": "https://dc.lft.to/lastmile_qr_scan"}, "lon": -77.04053683333333, "type": "electric_scooter", "fusion_lat": 0.0, "lat": 38.9269995, "name": "817f8c169e11a7f891b27f99c70a20c0", "fusion_lon": 0.0, "bike_id": "817f8c169e11a7f891b27f99c70a20c0", "is_disabled": 0, "is_reserved": 0}, {"rental_uris": {"ios": "https://dc.lft.to/lastmile_qr_scan", "android": "https://dc.lft.to/lastmile_qr_scan"}, "lon": -77.088206, "type": "electric_bike", "fusion_lat": 0.0, "lat": 38.909707166666664, "name": "449ec5f88174c8263bd97579d24b0cb8", "fusion_lon": 0.0, "bike_id": "449ec5f88174c8263bd97579d24b0cb8", "is_disabled": 0, "is_reserved": 0}, {"rental_uris": {"ios": "https://dc.lft.to/lastmile_qr_scan", "android": "https://dc.lft.to/lastmile_qr_scan"}, "lon": -77.02220933333334, "type": "electric_scooter", "fusion_lat": 0.0, "lat": 38.891948166666666, "name": "1b6da051520930cf61315a546746c7d3", "fusion_lon": 0.0, "bike_id": "1b6da051520930cf61315a546746c7d3", "is_disabled": 0, "is_reserved": 0}, {"rental_uris": {"ios": "https://dc.lft.to/lastmile_qr_scan", "android": "https://dc.lft.to/lastmile_qr_scan"}, "lon": -76.96553716666666, "type": "electric_scooter", "fusion_lat": 0.0, "lat": 38.9185305, "name": "35937a4ebf0bc2f0d916c89a45d64c77", "fusion_lon": 0.0, "bike_id": "35937a4ebf0bc2f0d916c89a45d64c77", "is_disabled": 0, "is_reserved": 0}, {"rental_uris": {"ios": "https://dc.lft.to/lastmile_qr_scan", "android": "https://dc.lft.to/lastmile_qr_scan"}, "lon": -77.03556733333333, "type": "electric_scooter", "fusion_lat": 0.0, "lat": 38.908268, "name": "973ccc3ff5aa69bc653a0d87bcec5a76", "fusion_lon": 0.0, "bike_id": "973ccc3ff5aa69bc653a0d87bcec5a76", "is_disabled": 0, "is_reserved": 0}, {"rental_uris": {"ios": "https://dc.lft.to/lastmile_qr_scan", "android": "https://dc.lft.to/lastmile_qr_scan"}, "lon": -77.02358233333334, "type": "electric_scooter", "fusion_lat": 0.0, "lat": 38.931327, "name": "673bb5b4270bb55682c99c50afaada01", "fusion_lon": 0.0, "bike_id": "673bb5b4270bb55682c99c50afaada01", "is_disabled": 0, "is_reserved": 0}, {"rental_uris": {"ios": "https://dc.lft.to/lastmile_qr_scan", "android": "https://dc.lft.to/lastmile_qr_scan"}, "lon": -77.012273, "type": "electric_scooter", "fusion_lat": 0.0, "lat": 38.91326083333333, "name": "cc670100e0a3c1667346e0a2ac1424c7", "fusion_lon": 0.0, "bike_id": "cc670100e0a3c1667346e0a2ac1424c7", "is_disabled": 0, "is_reserved": 0}, {"rental_uris": {"ios": "https://dc.lft.to/lastmile_qr_scan", "android": "https://dc.lft.to/lastmile_qr_scan"}, "lon": -77.02996666666667, "type": "electric_scooter", "fusion_lat": 0.0, "lat": 38.895639333333335, "name": "19c800b30edadaffe5b9874b9584c9e4", "fusion_lon": 0.0, "bike_id": "19c800b30edadaffe5b9874b9584c9e4", "is_disabled": 0, "is_reserved": 0}, {"rental_uris": {"ios": "https://dc.lft.to/lastmile_qr_scan", "android": "https://dc.lft.to/lastmile_qr_scan"}, "lon": -77.015297, "type": "electric_scooter", "fusion_lat": 0.0, "lat": 38.887376333333336, "name": "b2b999e7abd74d1dd7ac9fb8df1d725e", "fusion_lon": 0.0, "bike_id": "b2b999e7abd74d1dd7ac9fb8df1d725e", "is_disabled": 0, "is_reserved": 0}, {"rental_uris": {"ios": "https://dc.lft.to/lastmile_qr_scan", "android": "https://dc.lft.to/lastmile_qr_scan"}, "lon": -76.972623, "type": "electric_bike", "fusion_lat": 0.0, "lat": 38.919210666666665, "name": "c3b1b577bf4096e13ea6d20e97dade5f", "fusion_lon": 0.0, "bike_id": "c3b1b577bf4096e13ea6d20e97dade5f", "is_disabled": 0, "is_reserved": 0}, {"rental_uris": {"ios": "https://dc.lft.to/lastmile_qr_scan", "android": "https://dc.lft.to/lastmile_qr_scan"}, "lon": -77.02713266666666, "type": "electric_scooter", "fusion_lat": 0.0, "lat": 38.88139233333333, "name": "40704b875c7bc91285661384d3fbca33", "fusion_lon": 0.0, "bike_id": "40704b875c7bc91285661384d3fbca33", "is_disabled": 0, "is_reserved": 0}, {"rental_uris": {"ios": "https://dc.lft.to/lastmile_qr_scan", "android": "https://dc.lft.to/lastmile_qr_scan"}, "lon": -76.93620716666666, "type": "electric_bike", "fusion_lat": 0.0, "lat": 38.970506, "name": "84f7e3f0123cc509bffa25610c998203", "fusion_lon": 0.0, "bike_id": "84f7e3f0123cc509bffa25610c998203", "is_disabled": 0, "is_reserved": 0}, {"rental_uris": {"ios": "https://dc.lft.to/lastmile_qr_scan", "android": "https://dc.lft.to/lastmile_qr_scan"}, "lon": -77.07905366666667, "type": "electric_bike", "fusion_lat": 0.0, "lat": 38.839321166666664, "name": "e307784fcccf8d13352ef2bbde8b1741", "fusion_lon": 0.0, "bike_id": "e307784fcccf8d13352ef2bbde8b1741", "is_disabled": 0, "is_reserved": 0}, {"rental_uris": {"ios": "https://dc.lft.to/lastmile_qr_scan", "android": "https://dc.lft.to/lastmile_qr_scan"}, "lon": -77.00790333333333, "type": "electric_scooter", "fusion_lat": 0.0, "lat": 38.870925, "name": "077bd7d8b4b202f8b07cb9a6b490d633", "fusion_lon": 0.0, "bike_id": "077bd7d8b4b202f8b07cb9a6b490d633", "is_disabled": 0, "is_reserved": 0}, {"rental_uris": {"ios": "https://dc.lft.to/lastmile_qr_scan", "android": "https://dc.lft.to/lastmile_qr_scan"}, "lon": -77.11426233333333, "type": "electric_bike", "fusion_lat": 0.0, "lat": 38.84282183333333, "name": "801961159b8d90b001d7f1dbda5bd405", "fusion_lon": 0.0, "bike_id": "801961159b8d90b001d7f1dbda5bd405", "is_disabled": 0, "is_reserved": 0}, {"rental_uris": {"ios": "https://dc.lft.to/lastmile_qr_scan", "android": "https://dc.lft.to/lastmile_qr_scan"}, "lon": -77.02350316666667, "type": "electric_scooter", "fusion_lat": 0.0, "lat": 38.93382116666667, "name": "7e184f92937aa59f1506a5a238d62367", "fusion_lon": 0.0, "bike_id": "7e184f92937aa59f1506a5a238d62367", "is_disabled": 0, "is_reserved": 0}, {"rental_uris": {"ios": "https://dc.lft.to/lastmile_qr_scan", "android": "https://dc.lft.to/lastmile_qr_scan"}, "lon": -77.05087033333334, "type": "electric_bike", "fusion_lat": 0.0, "lat": 38.81324216666667, "name": "62e6840195748267ab2f441e5e8dc0fe", "fusion_lon": 0.0, "bike_id": "62e6840195748267ab2f441e5e8dc0fe", "is_disabled": 0, "is_reserved": 0}, {"rental_uris": {"ios": "https://dc.lft.to/lastmile_qr_scan", "android": "https://dc.lft.to/lastmile_qr_scan"}, "lon": -76.949708, "type": "electric_scooter", "fusion_lat": 0.0, "lat": 38.89377183333333, "name": "83bc3ab47cf475f551775ee9a7d16df3", "fusion_lon": 0.0, "bike_id": "83bc3ab47cf475f551775ee9a7d16df3", "is_disabled": 0, "is_reserved": 0}, {"rental_uris": {"ios": "https://dc.lft.to/lastmile_qr_scan", "android": "https://dc.lft.to/lastmile_qr_scan"}, "lon": -77.03198966666666, "type": "electric_scooter", "fusion_lat": 0.0, "lat": 38.8862375, "name": "17bccf46c0af920032b1f3602ce60f81", "fusion_lon": 0.0, "bike_id": "17bccf46c0af920032b1f3602ce60f81", "is_disabled": 0, "is_reserved": 0}, {"rental_uris": {"ios": "https://dc.lft.to/lastmile_qr_scan", "android": "https://dc.lft.to/lastmile_qr_scan"}, "lon": -76.931783, "type": "electric_scooter", "fusion_lat": 0.0, "lat": 38.89886816666667, "name": "195b83d00692ca55fdc7bff388be8ea2", "fusion_lon": 0.0, "bike_id": "195b83d00692ca55fdc7bff388be8ea2", "is_disabled": 0, "is_reserved": 0}, {"rental_uris": {"ios": "https://dc.lft.to/lastmile_qr_scan", "android": "https://dc.lft.to/lastmile_qr_scan"}, "lon": -77.04675433333334, "type": "electric_scooter", "fusion_lat": 0.0, "lat": 38.893337333333335, "name": "921c79b9a04ce3e3ea4e7fafc64c27fe", "fusion_lon": 0.0, "bike_id": "921c79b9a04ce3e3ea4e7fafc64c27fe", "is_disabled": 0, "is_reserved": 0}, {"rental_uris": {"ios": "https://dc.lft.to/lastmile_qr_scan", "android": "https://dc.lft.to/lastmile_qr_scan"}, "lon": -77.00208166666667, "type": "electric_scooter", "fusion_lat": 0.0, "lat": 38.902175666666665, "name": "328058055eb5c0f44615b1397f1f573f", "fusion_lon": 0.0, "bike_id": "328058055eb5c0f44615b1397f1f573f", "is_disabled": 0, "is_reserved": 0}, {"rental_uris": {"ios": "https://dc.lft.to/lastmile_qr_scan", "android": "https://dc.lft.to/lastmile_qr_scan"}, "lon": -77.05139616666666, "type": "electric_scooter", "fusion_lat": 0.0, "lat": 38.897848, "name": "7b055da6e60898d5962a963425aa28aa", "fusion_lon": 0.0, "bike_id": "7b055da6e60898d5962a963425aa28aa", "is_disabled": 0, "is_reserved": 0}, {"rental_uris": {"ios": "https://dc.lft.to/lastmile_qr_scan", "android": "https://dc.lft.to/lastmile_qr_scan"}, "lon": -77.0185975, "type": "electric_scooter", "fusion_lat": 0.0, "lat": 38.90077383333333, "name": "17a651bc5502bdb979cbf333e24aca1d", "fusion_lon": 0.0, "bike_id": "17a651bc5502bdb979cbf333e24aca1d", "is_disabled": 0, "is_reserved": 0}, {"rental_uris": {"ios": "https://dc.lft.to/lastmile_qr_scan", "android": "https://dc.lft.to/lastmile_qr_scan"}, "lon": -77.120232, "type": "electric_bike", "fusion_lat": 0.0, "lat": 38.855037, "name": "9211fc40257999075284c5ef544900b8", "fusion_lon": 0.0, "bike_id": "9211fc40257999075284c5ef544900b8", "is_disabled": 0, "is_reserved": 0}, {"rental_uris": {"ios": "https://dc.lft.to/lastmile_qr_scan", "android": "https://dc.lft.to/lastmile_qr_scan"}, "lon": -77.02664533333333, "type": "electric_scooter", "fusion_lat": 0.0, "lat": 38.93253283333333, "name": "0d40b33a52538d7d943c7426b9fcd64a", "fusion_lon": 0.0, "bike_id": "0d40b33a52538d7d943c7426b9fcd64a", "is_disabled": 0, "is_reserved": 0}, {"rental_uris": {"ios": "https://dc.lft.to/lastmile_qr_scan", "android": "https://dc.lft.to/lastmile_qr_scan"}, "lon": -77.061636, "type": "electric_scooter", "fusion_lat": 0.0, "lat": 38.94213516666667, "name": "95682bf6726f338277b367dc40335766", "fusion_lon": 0.0, "bike_id": "95682bf6726f338277b367dc40335766", "is_disabled": 0, "is_reserved": 0}, {"rental_uris": {"ios": "https://dc.lft.to/lastmile_qr_scan", "android": "https://dc.lft.to/lastmile_qr_scan"}, "lon": -77.03168633333334, "type": "electric_scooter", "fusion_lat": 0.0, "lat": 38.896110666666665, "name": "96cca535f0022aab640f9e1ed90c4f19", "fusion_lon": 0.0, "bike_id": "96cca535f0022aab640f9e1ed90c4f19", "is_disabled": 0, "is_reserved": 0}, {"rental_uris": {"ios": "https://dc.lft.to/lastmile_qr_scan", "android": "https://dc.lft.to/lastmile_qr_scan"}, "lon": -77.04679216666666, "type": "electric_scooter", "fusion_lat": 0.0, "lat": 38.90552233333333, "name": "9a67d9a1cef7d1f3c3b65aea2bd4697f", "fusion_lon": 0.0, "bike_id": "9a67d9a1cef7d1f3c3b65aea2bd4697f", "is_disabled": 0, "is_reserved": 0}, {"rental_uris": {"ios": "https://dc.lft.to/lastmile_qr_scan", "android": "https://dc.lft.to/lastmile_qr_scan"}, "lon": -76.9877155, "type": "electric_scooter", "fusion_lat": 0.0, "lat": 38.911708833333336, "name": "1b40d46247a9d81ce87cd3c1c7efcde8", "fusion_lon": 0.0, "bike_id": "1b40d46247a9d81ce87cd3c1c7efcde8", "is_disabled": 0, "is_reserved": 0}, {"rental_uris": {"ios": "https://dc.lft.to/lastmile_qr_scan", "android": "https://dc.lft.to/lastmile_qr_scan"}, "lon": -76.9789185, "type": "electric_scooter", "fusion_lat": 0.0, "lat": 38.916746333333336, "name": "93369a97a77145c85dc3b458e5e3a9ef", "fusion_lon": 0.0, "bike_id": "93369a97a77145c85dc3b458e5e3a9ef", "is_disabled": 0, "is_reserved": 0}, {"rental_uris": {"ios": "https://dc.lft.to/lastmile_qr_scan", "android": "https://dc.lft.to/lastmile_qr_scan"}, "lon": -77.04957983333334, "type": "electric_scooter", "fusion_lat": 0.0, "lat": 38.8966015, "name": "afae3c1567abccd35e6077ba37435cbf", "fusion_lon": 0.0, "bike_id": "afae3c1567abccd35e6077ba37435cbf", "is_disabled": 0, "is_reserved": 0}, {"rental_uris": {"ios": "https://dc.lft.to/lastmile_qr_scan", "android": "https://dc.lft.to/lastmile_qr_scan"}, "lon": -77.12746833333334, "type": "electric_bike", "fusion_lat": 0.0, "lat": 38.88816833333333, "name": "9fd693f04166e6986945a35db25b18d2", "fusion_lon": 0.0, "bike_id": "9fd693f04166e6986945a35db25b18d2", "is_disabled": 0, "is_reserved": 0}, {"rental_uris": {"ios": "https://dc.lft.to/lastmile_qr_scan", "android": "https://dc.lft.to/lastmile_qr_scan"}, "lon": -76.93812233333334, "type": "electric_scooter", "fusion_lat": 0.0, "lat": 38.913057, "name": "74bd92a600b89e64227e957a46b7845b", "fusion_lon": 0.0, "bike_id": "74bd92a600b89e64227e957a46b7845b", "is_disabled": 0, "is_reserved": 0}, {"rental_uris": {"ios": "https://dc.lft.to/lastmile_qr_scan", "android": "https://dc.lft.to/lastmile_qr_scan"}, "lon": -77.02840166666667, "type": "electric_scooter", "fusion_lat": 0.0, "lat": 38.8877045, "name": "a77b55f0226a4073bda64e118965b587", "fusion_lon": 0.0, "bike_id": "a77b55f0226a4073bda64e118965b587", "is_disabled": 0, "is_reserved": 0}, {"rental_uris": {"ios": "https://dc.lft.to/lastmile_qr_scan", "android": "https://dc.lft.to/lastmile_qr_scan"}, "lon": -77.032032, "type": "electric_scooter", "fusion_lat": 0.0, "lat": 38.91981466666667, "name": "073766c5e13ce9dd0dff490aec20d697", "fusion_lon": 0.0, "bike_id": "073766c5e13ce9dd0dff490aec20d697", "is_disabled": 0, "is_reserved": 0}, {"rental_uris": {"ios": "https://dc.lft.to/lastmile_qr_scan", "android": "https://dc.lft.to/lastmile_qr_scan"}, "lon": -77.04045033333334, "type": "electric_scooter", "fusion_lat": 0.0, "lat": 38.9257525, "name": "d89d95479de0027483d7f50473e61228", "fusion_lon": 0.0, "bike_id": "d89d95479de0027483d7f50473e61228", "is_disabled": 0, "is_reserved": 0}, {"rental_uris": {"ios": "https://dc.lft.to/lastmile_qr_scan", "android": "https://dc.lft.to/lastmile_qr_scan"}, "lon": -77.01865066666667, "type": "electric_scooter", "fusion_lat": 0.0, "lat": 38.9026345, "name": "a9bf67e5b909039ae8b18d54315fdd27", "fusion_lon": 0.0, "bike_id": "a9bf67e5b909039ae8b18d54315fdd27", "is_disabled": 0, "is_reserved": 0}, {"rental_uris": {"ios": "https://dc.lft.to/lastmile_qr_scan", "android": "https://dc.lft.to/lastmile_qr_scan"}, "lon": -77.03175783333333, "type": "electric_scooter", "fusion_lat": 0.0, "lat": 38.91925916666667, "name": "692f29354960622617e485460f80b124", "fusion_lon": 0.0, "bike_id": "692f29354960622617e485460f80b124", "is_disabled": 0, "is_reserved": 0}, {"rental_uris": {"ios": "https://dc.lft.to/lastmile_qr_scan", "android": "https://dc.lft.to/lastmile_qr_scan"}, "lon": -77.02973716666666, "type": "electric_scooter", "fusion_lat": 0.0, "lat": 38.907796, "name": "f48e863465d21cf21b3274cc7a951b95", "fusion_lon": 0.0, "bike_id": "f48e863465d21cf21b3274cc7a951b95", "is_disabled": 0, "is_reserved": 0}, {"rental_uris": {"ios": "https://dc.lft.to/lastmile_qr_scan", "android": "https://dc.lft.to/lastmile_qr_scan"}, "lon": -77.03264833333333, "type": "electric_scooter", "fusion_lat": 0.0, "lat": 38.914007166666664, "name": "86cb5fb8f44c67cc6fed2b7d4c9d2464", "fusion_lon": 0.0, "bike_id": "86cb5fb8f44c67cc6fed2b7d4c9d2464", "is_disabled": 0, "is_reserved": 0}, {"rental_uris": {"ios": "https://dc.lft.to/lastmile_qr_scan", "android": "https://dc.lft.to/lastmile_qr_scan"}, "lon": -77.01624466666667, "type": "electric_scooter", "fusion_lat": 0.0, "lat": 38.8768855, "name": "c7d8b601711b324a1229dd3a6ba7450a", "fusion_lon": 0.0, "bike_id": "c7d8b601711b324a1229dd3a6ba7450a", "is_disabled": 0, "is_reserved": 0}, {"rental_uris": {"ios": "https://dc.lft.to/lastmile_qr_scan", "android": "https://dc.lft.to/lastmile_qr_scan"}, "lon": -77.00208783333333, "type": "electric_scooter", "fusion_lat": 0.0, "lat": 38.90214266666667, "name": "cdac024df8462c1d5d318f2204b05fb3", "fusion_lon": 0.0, "bike_id": "cdac024df8462c1d5d318f2204b05fb3", "is_disabled": 0, "is_reserved": 0}, {"rental_uris": {"ios": "https://dc.lft.to/lastmile_qr_scan", "android": "https://dc.lft.to/lastmile_qr_scan"}, "lon": -77.02453383333334, "type": "electric_scooter", "fusion_lat": 0.0, "lat": 38.899912666666665, "name": "c5b97ea4a9b2ac8098f9b5b8ce0c51b3", "fusion_lon": 0.0, "bike_id": "c5b97ea4a9b2ac8098f9b5b8ce0c51b3", "is_disabled": 0, "is_reserved": 0}, {"rental_uris": {"ios": "https://dc.lft.to/lastmile_qr_scan", "android": "https://dc.lft.to/lastmile_qr_scan"}, "lon": -77.0057995, "type": "electric_scooter", "fusion_lat": 0.0, "lat": 38.8721575, "name": "ef6944d731f83c51fb86f54bee8fa0d1", "fusion_lon": 0.0, "bike_id": "ef6944d731f83c51fb86f54bee8fa0d1", "is_disabled": 0, "is_reserved": 0}, {"rental_uris": {"ios": "https://dc.lft.to/lastmile_qr_scan", "android": "https://dc.lft.to/lastmile_qr_scan"}, "lon": -77.0357585, "type": "electric_scooter", "fusion_lat": 0.0, "lat": 38.9232085, "name": "7154857ce4225cb14e11af72502e09c1", "fusion_lon": 0.0, "bike_id": "7154857ce4225cb14e11af72502e09c1", "is_disabled": 0, "is_reserved": 0}, {"rental_uris": {"ios": "https://dc.lft.to/lastmile_qr_scan", "android": "https://dc.lft.to/lastmile_qr_scan"}, "lon": -76.94893466666667, "type": "electric_scooter", "fusion_lat": 0.0, "lat": 38.89530216666667, "name": "995896baf5a8c0dc1ab8e9bf72042b56", "fusion_lon": 0.0, "bike_id": "995896baf5a8c0dc1ab8e9bf72042b56", "is_disabled": 0, "is_reserved": 0}, {"rental_uris": {"ios": "https://dc.lft.to/lastmile_qr_scan", "android": "https://dc.lft.to/lastmile_qr_scan"}, "lon": -77.02418633333333, "type": "electric_scooter", "fusion_lat": 0.0, "lat": 38.9182325, "name": "df0c561718d7a0a9b40b9b048635a1db", "fusion_lon": 0.0, "bike_id": "df0c561718d7a0a9b40b9b048635a1db", "is_disabled": 0, "is_reserved": 0}, {"rental_uris": {"ios": "https://dc.lft.to/lastmile_qr_scan", "android": "https://dc.lft.to/lastmile_qr_scan"}, "lon": -77.07476033333333, "type": "electric_bike", "fusion_lat": 0.0, "lat": 38.9206355, "name": "d52018f11135322a1af4255fa4bf7404", "fusion_lon": 0.0, "bike_id": "d52018f11135322a1af4255fa4bf7404", "is_disabled": 0, "is_reserved": 0}, {"rental_uris": {"ios": "https://dc.lft.to/lastmile_qr_scan", "android": "https://dc.lft.to/lastmile_qr_scan"}, "lon": -76.91665233333333, "type": "electric_bike", "fusion_lat": 0.0, "lat": 38.868677166666664, "name": "072e31b2ca0600e12d0f732d1fe9b6c4", "fusion_lon": 0.0, "bike_id": "072e31b2ca0600e12d0f732d1fe9b6c4", "is_disabled": 0, "is_reserved": 0}, {"rental_uris": {"ios": "https://dc.lft.to/lastmile_qr_scan", "android": "https://dc.lft.to/lastmile_qr_scan"}, "lon": -77.0502275, "type": "electric_scooter", "fusion_lat": 0.0, "lat": 38.90366866666667, "name": "4d78a81af7dd97c04f15538516f718ac", "fusion_lon": 0.0, "bike_id": "4d78a81af7dd97c04f15538516f718ac", "is_disabled": 0, "is_reserved": 0}, {"rental_uris": {"ios": "https://dc.lft.to/lastmile_qr_scan", "android": "https://dc.lft.to/lastmile_qr_scan"}, "lon": -77.09559383333334, "type": "electric_bike", "fusion_lat": 0.0, "lat": 38.917084333333335, "name": "64f712ac869bdfe460a23fd6c7587d54", "fusion_lon": 0.0, "bike_id": "64f712ac869bdfe460a23fd6c7587d54", "is_disabled": 0, "is_reserved": 0}, {"rental_uris": {"ios": "https://dc.lft.to/lastmile_qr_scan", "android": "https://dc.lft.to/lastmile_qr_scan"}, "lon": -77.12736016666666, "type": "electric_bike", "fusion_lat": 0.0, "lat": 38.89560566666667, "name": "db25a4389c3c27f37c44c20116b73534", "fusion_lon": 0.0, "bike_id": "db25a4389c3c27f37c44c20116b73534", "is_disabled": 0, "is_reserved": 0}, {"rental_uris": {"ios": "https://dc.lft.to/lastmile_qr_scan", "android": "https://dc.lft.to/lastmile_qr_scan"}, "lon": -77.04483183333333, "type": "electric_scooter", "fusion_lat": 0.0, "lat": 38.91916583333333, "name": "d4ba8b6f0729d51f1ae3c2d3a8b1266b", "fusion_lon": 0.0, "bike_id": "d4ba8b6f0729d51f1ae3c2d3a8b1266b", "is_disabled": 0, "is_reserved": 0}, {"rental_uris": {"ios": "https://dc.lft.to/lastmile_qr_scan", "android": "https://dc.lft.to/lastmile_qr_scan"}, "lon": -77.03265016666667, "type": "electric_scooter", "fusion_lat": 0.0, "lat": 38.91985066666667, "name": "5e25da1a46ad4fcb2d844a4ce827e017", "fusion_lon": 0.0, "bike_id": "5e25da1a46ad4fcb2d844a4ce827e017", "is_disabled": 0, "is_reserved": 0}, {"rental_uris": {"ios": "https://dc.lft.to/lastmile_qr_scan", "android": "https://dc.lft.to/lastmile_qr_scan"}, "lon": -76.99270666666666, "type": "electric_scooter", "fusion_lat": 0.0, "lat": 38.897673, "name": "e763ca43f2b7e0f22ab4e8b1d1367d40", "fusion_lon": 0.0, "bike_id": "e763ca43f2b7e0f22ab4e8b1d1367d40", "is_disabled": 0, "is_reserved": 0}, {"rental_uris": {"ios": "https://dc.lft.to/lastmile_qr_scan", "android": "https://dc.lft.to/lastmile_qr_scan"},