{"data": {"bikes": [{"is_reserved": 0, "type": "electric_scooter", "fusion_lat": 0.0, "is_disabled": 0, "rental_uris": {"ios": "https://dc.lft.to/lastmile_qr_scan", "android": "https://dc.lft.to/lastmile_qr_scan"}, "bike_id": "e559ea9fadb95b98b5e829a05ef68d4e", "lat": 38.913318833333335, "name": "e559ea9fadb95b98b5e829a05ef68d4e", "lon": -77.03039966666667, "fusion_lon": 0.0}, {"is_reserved": 0, "type": "electric_scooter", "fusion_lat": 0.0, "is_disabled": 0, "rental_uris": {"ios": "https://dc.lft.to/lastmile_qr_scan", "android": "https://dc.lft.to/lastmile_qr_scan"}, "bike_id": "4598c002efccbcbdc01b09b91193a653", "lat": 38.91823983333333, "name": "4598c002efccbcbdc01b09b91193a653", "lon": -77.01209166666666, "fusion_lon": 0.0}, {"is_reserved": 0, "type": "electric_scooter", "fusion_lat": 0.0, "is_disabled": 0, "rental_uris": {"ios": "https://dc.lft.to/lastmile_qr_scan", "android": "https://dc.lft.to/lastmile_qr_scan"}, "bike_id": "cedc8c727beb1a1ac91dd6602188575d", "lat": 38.921322333333336, "name": "cedc8c727beb1a1ac91dd6602188575d", "lon": -77.04573033333334, "fusion_lon": 0.0}, {"is_reserved": 0, "type": "electric_scooter", "fusion_lat": 0.0, "is_disabled": 0, "rental_uris": {"ios": "https://dc.lft.to/lastmile_qr_scan", "android": "https://dc.lft.to/lastmile_qr_scan"}, "bike_id": "59eec6175335472970b14b883de4b1ef", "lat": 38.90621566666667, "name": "59eec6175335472970b14b883de4b1ef", "lon": -77.02714, "fusion_lon": 0.0}, {"is_reserved": 0, "type": "electric_scooter", "fusion_lat": 0.0, "is_disabled": 0, "rental_uris": {"ios": "https://dc.lft.to/lastmile_qr_scan", "android": "https://dc.lft.to/lastmile_qr_scan"}, "bike_id": "7e8f5501e10feaa605b3c90bebd48316", "lat": 38.92040766666667, "name": "7e8f5501e10feaa605b3c90bebd48316", "lon": -77.0338435, "fusion_lon": 0.0}, {"is_reserved": 0, "type": "electric_scooter", "fusion_lat": 0.0, "is_disabled": 0, "rental_uris": {"ios": "https://dc.lft.to/lastmile_qr_scan", "android": "https://dc.lft.to/lastmile_qr_scan"}, "bike_id": "7a0393fb70fe13af1bba10106481707a", "lat": 38.92278833333334, "name": "7a0393fb70fe13af1bba10106481707a", "lon": -77.0423985, "fusion_lon": 0.0}, {"is_reserved": 0, "type": "electric_scooter", "fusion_lat": 0.0, "is_disabled": 0, "rental_uris": {"ios": "https://dc.lft.to/lastmile_qr_scan", "android": "https://dc.lft.to/lastmile_qr_scan"}, "bike_id": "d050e7355bd3bdcf7656f976c49e5d55", "lat": 38.92892833333333, "name": "d050e7355bd3bdcf7656f976c49e5d55", "lon": -77.032584, "fusion_lon": 0.0}, {"is_reserved": 0, "type": "electric_scooter", "fusion_lat": 0.0, "is_disabled": 0, "rental_uris": {"ios": "https://dc.lft.to/lastmile_qr_scan", "android": "https://dc.lft.to/lastmile_qr_scan"}, "bike_id": "889dc62a2af36121dd2ebb80c6450e55", "lat": 38.917016, "name": "889dc62a2af36121dd2ebb80c6450e55", "lon": -77.02737516666667, "fusion_lon": 0.0}, {"is_reserved": 0, "type": "electric_scooter", "fusion_lat": 0.0, "is_disabled": 0, "rental_uris": {"ios": "https://dc.lft.to/lastmile_qr_scan", "android": "https://dc.lft.to/lastmile_qr_scan"}, "bike_id": "4d26eb853f305eb9a74603817042ca18", "lat": 38.924406, "name": "4d26eb853f305eb9a74603817042ca18", "lon": -77.02137233333333, "fusion_lon": 0.0}, {"is_reserved": 0, "type": "electric_scooter", "fusion_lat": 0.0, "is_disabled": 0, "rental_uris": {"ios": "https://dc.lft.to/lastmile_qr_scan", "android": "https://dc.lft.to/lastmile_qr_scan"}, "bike_id": "ee98b2e1dddd9a63a130e5dc15e3501b", "lat": 38.924142, "name": "ee98b2e1dddd9a63a130e5dc15e3501b", "lon": -77.02037533333333, "fusion_lon": 0.0}, {"is_reserved": 0, "type": "electric_scooter", "fusion_lat": 0.0, "is_disabled": 0, "rental_uris": {"ios": "https://dc.lft.to/lastmile_qr_scan", "android": "https://dc.lft.to/lastmile_qr_scan"}, "bike_id": "b400c70be17fa281fcbbf65bc9bf84c1", "lat": 38.926526333333335, "name": "b400c70be17fa281fcbbf65bc9bf84c1", "lon": -77.02431283333334, "fusion_lon": 0.0}, {"is_reserved": 0, "type": "electric_bike", "fusion_lat": 0.0, "is_disabled": 0, "rental_uris": {"ios": "https://dc.lft.to/lastmile_qr_scan", "android": "https://dc.lft.to/lastmile_qr_scan"}, "bike_id": "383fe24905459a83513b87084b574626", "lat": 38.93351533333333, "name": "383fe24905459a83513b87084b574626", "lon": -77.09716183333333, "fusion_lon": 0.0}, {"is_reserved": 0, "type": "electric_scooter", "fusion_lat": 0.0, "is_disabled": 0, "rental_uris": {"ios": "https://dc.lft.to/lastmile_qr_scan", "android": "https://dc.lft.to/lastmile_qr_scan"}, "bike_id": "945822442d457066b219204e11b7c7a0", "lat": 38.908288166666665, "name": "945822442d457066b219204e11b7c7a0", "lon": -76.99700583333333, "fusion_lon": 0.0}, {"is_reserved": 0, "type": "electric_scooter", "fusion_lat": 0.0, "is_disabled": 0, "rental_uris": {"ios": "https://dc.lft.to/lastmile_qr_scan", "android": "https://dc.lft.to/lastmile_qr_scan"}, "bike_id": "fde64b5005a8adf701bdc11661b027ab", "lat": 38.897288833333334, "name": "fde64b5005a8adf701bdc11661b027ab", "lon": -77.00322216666666, "fusion_lon": 0.0}, {"is_reserved": 0, "type": "electric_scooter", "fusion_lat": 0.0, "is_disabled": 0, "rental_uris": {"ios": "https://dc.lft.to/lastmile_qr_scan", "android": "https://dc.lft.to/lastmile_qr_scan"}, "bike_id": "4742277fe4c1fb7c3603c0a044da5a66", "lat": 38.903768166666666, "name": "4742277fe4c1fb7c3603c0a044da5a66", "lon": -77.05197783333334, "fusion_lon": 0.0}, {"is_reserved": 0, "type": "electric_scooter", "fusion_lat": 0.0, "is_disabled": 0, "rental_uris": {"ios": "https://dc.lft.to/lastmile_qr_scan", "android": "https://dc.lft.to/lastmile_qr_scan"}, "bike_id": "766a4924b9938af98b40cbca0c16a06c", "lat": 38.909171, "name": "766a4924b9938af98b40cbca0c16a06c", "lon": -77.06426133333333, "fusion_lon": 0.0}, {"is_reserved": 0, "type": "electric_scooter", "fusion_lat": 0.0, "is_disabled": 0, "rental_uris": {"ios": "https://dc.lft.to/lastmile_qr_scan", "android": "https://dc.lft.to/lastmile_qr_scan"}, "bike_id": "9a39112f9cefacca5abae0fa26f6b02f", "lat": 38.905606, "name": "9a39112f9cefacca5abae0fa26f6b02f", "lon": -77.0265475, "fusion_lon": 0.0}, {"is_reserved": 0, "type": "electric_scooter", "fusion_lat": 0.0, "is_disabled": 0, "rental_uris": {"ios": "https://dc.lft.to/lastmile_qr_scan", "android": "https://dc.lft.to/lastmile_qr_scan"}, "bike_id": "c4465d06e8915100fcef72b4eca0bfcc", "lat": 38.91031683333333, "name": "c4465d06e8915100fcef72b4eca0bfcc", "lon": -77.04264633333334, "fusion_lon": 0.0}, {"is_reserved": 0, "type": "electric_bike", "fusion_lat": 0.0, "is_disabled": 0, "rental_uris": {"ios": "https://dc.lft.to/lastmile_qr_scan", "android": "https://dc.lft.to/lastmile_qr_scan"}, "bike_id": "e1f4959f7de27456657d44c66801b9aa", "lat": 38.900209, "name": "e1f4959f7de27456657d44c66801b9aa", "lon": -77.0558525, "fusion_lon": 0.0}, {"is_reserved": 0, "type": "electric_bike", "fusion_lat": 0.0, "is_disabled": 0, "rental_uris": {"ios": "https://dc.lft.to/lastmile_qr_scan", "android": "https://dc.lft.to/lastmile_qr_scan"}, "bike_id": "684bb2ee2692fc7e281530021b1735fe", "lat": 38.8422635, "name": "684bb2ee2692fc7e281530021b1735fe", "lon": -76.94895733333334, "fusion_lon": 0.0}, {"is_reserved": 0, "type": "electric_scooter", "fusion_lat": 0.0, "is_disabled": 0, "rental_uris": {"ios": "https://dc.lft.to/lastmile_qr_scan", "android": "https://dc.lft.to/lastmile_qr_scan"}, "bike_id": "82fd8006aac27507865754045c06712e", "lat": 38.88430916666667, "name": "82fd8006aac27507865754045c06712e", "lon": -77.03038433333333, "fusion_lon": 0.0}, {"is_reserved": 0, "type": "electric_bike", "fusion_lat": 0.0, "is_disabled": 0, "rental_uris": {"ios": "https://dc.lft.to/lastmile_qr_scan", "android": "https://dc.lft.to/lastmile_qr_scan"}, "bike_id": "db3f7f4c9a42f37eefeeb163a3976daf", "lat": 38.98365033333333, "name": "db3f7f4c9a42f37eefeeb163a3976daf", "lon": -76.98849383333334, "fusion_lon": 0.0}, {"is_reserved": 0, "type": "electric_scooter", "fusion_lat": 0.0, "is_disabled": 0, "rental_uris": {"ios": "https://dc.lft.to/lastmile_qr_scan", "android": "https://dc.lft.to/lastmile_qr_scan"}, "bike_id": "33d8bcbbd151757a39ecec6356bceebd", "lat": 38.95435716666667, "name": "33d8bcbbd151757a39ecec6356bceebd", "lon": -77.01855233333333, "fusion_lon": 0.0}, {"is_reserved": 0, "type": "electric_scooter", "fusion_lat": 0.0, "is_disabled": 0, "rental_uris": {"ios": "https://dc.lft.to/lastmile_qr_scan", "android": "https://dc.lft.to/lastmile_qr_scan"}, "bike_id": "e9ff17cdd82690359adaf035183eb97d", "lat": 38.89629983333333, "name": "e9ff17cdd82690359adaf035183eb97d", "lon": -77.02662633333334, "fusion_lon": 0.0}, {"is_reserved": 0, "type": "electric_scooter", "fusion_lat": 0.0, "is_disabled": 0, "rental_uris": {"ios": "https://dc.lft.to/lastmile_qr_scan", "android": "https://dc.lft.to/lastmile_qr_scan"}, "bike_id": "725469a5a29e40514df2b5e7515e59aa", "lat": 38.887696166666665, "name": "725469a5a29e40514df2b5e7515e59aa", "lon": -76.93262466666667, "fusion_lon": 0.0}, {"is_reserved": 0, "type": "electric_scooter", "fusion_lat": 0.0, "is_disabled": 0, "rental_uris": {"ios": "https://dc.lft.to/lastmile_qr_scan", "android": "https://dc.lft.to/lastmile_qr_scan"}, "bike_id": "e54fc6d6ce36237c2c6bc57d31c71369", "lat": 38.932397, "name": "e54fc6d6ce36237c2c6bc57d31c71369", "lon": -77.0385185, "fusion_lon": 0.0}, {"is_reserved": 0, "type": "electric_bike", "fusion_lat": 0.0, "is_disabled": 0, "rental_uris": {"ios": "https://dc.lft.to/lastmile_qr_scan", "android": "https://dc.lft.to/lastmile_qr_scan"}, "bike_id": "879f286b353998d1d3624351532e8505", "lat": 38.9715225, "name": "879f286b353998d1d3624351532e8505", "lon": -76.98363283333333, "fusion_lon": 0.0}, {"is_reserved": 0, "type": "electric_scooter", "fusion_lat": 0.0, "is_disabled": 0, "rental_uris": {"ios": "https://dc.lft.to/lastmile_qr_scan", "android": "https://dc.lft.to/lastmile_qr_scan"}, "bike_id": "ac76d26210483f275c900a5331d55072", "lat": 38.92332616666667, "name": "ac76d26210483f275c900a5331d55072", "lon": -77.02808283333333, "fusion_lon": 0.0}, {"is_reserved": 0, "type": "electric_scooter", "fusion_lat": 0.0, "is_disabled": 0, "rental_uris": {"ios": "https://dc.lft.to/lastmile_qr_scan", "android": "https://dc.lft.to/lastmile_qr_scan"}, "bike_id": "1131af6760025d89e2b95e5465ce5cd5", "lat": 38.90350166666666, "name": "1131af6760025d89e2b95e5465ce5cd5", "lon": -76.9749005, "fusion_lon": 0.0}, {"is_reserved": 0, "type": "electric_scooter", "fusion_lat": 0.0, "is_disabled": 0, "rental_uris": {"ios": "https://dc.lft.to/lastmile_qr_scan", "android": "https://dc.lft.to/lastmile_qr_scan"}, "bike_id": "0f6ddc16faa87acd0eef2cc12d9a5eda", "lat": 38.892226, "name": "0f6ddc16faa87acd0eef2cc12d9a5eda", "lon": -77.03337766666667, "fusion_lon": 0.0}, {"is_reserved": 0, "type": "electric_scooter", "fusion_lat": 0.0, "is_disabled": 0, "rental_uris": {"ios": "https://dc.lft.to/lastmile_qr_scan", "android": "https://dc.lft.to/lastmile_qr_scan"}, "bike_id": "b53e3d96a298e22e4cbb178c37be428b", "lat": 38.898496333333334, "name": "b53e3d96a298e22e4cbb178c37be428b", "lon": -77.00056516666666, "fusion_lon": 0.0}, {"is_reserved": 0, "type": "electric_scooter", "fusion_lat": 0.0, "is_disabled": 0, "rental_uris": {"ios": "https://dc.lft.to/lastmile_qr_scan", "android": "https://dc.lft.to/lastmile_qr_scan"}, "bike_id": "d50a093b6f106dffbc4794a9c64d5c74", "lat": 38.92164666666667, "name": "d50a093b6f106dffbc4794a9c64d5c74", "lon": -77.03834466666666, "fusion_lon": 0.0}, {"is_reserved": 0, "type": "electric_scooter", "fusion_lat": 0.0, "is_disabled": 0, "rental_uris": {"ios": "https://dc.lft.to/lastmile_qr_scan", "android": "https://dc.lft.to/lastmile_qr_scan"}, "bike_id": "23ea528fb77be1dec3b85ba91b218d4f", "lat": 38.9236805, "name": "23ea528fb77be1dec3b85ba91b218d4f", "lon": -77.02920083333333, "fusion_lon": 0.0}, {"is_reserved": 0, "type": "electric_scooter", "fusion_lat": 0.0, "is_disabled": 0, "rental_uris": {"ios": "https://dc.lft.to/lastmile_qr_scan", "android": "https://dc.lft.to/lastmile_qr_scan"}, "bike_id": "6ec7aecf523f62c6f7482270042a9896", "lat": 38.8863475, "name": "6ec7aecf523f62c6f7482270042a9896", "lon": -77.022172, "fusion_lon": 0.0}, {"is_reserved": 0, "type": "electric_scooter", "fusion_lat": 0.0, "is_disabled": 0, "rental_uris": {"ios": "https://dc.lft.to/lastmile_qr_scan", "android": "https://dc.lft.to/lastmile_qr_scan"}, "bike_id": "5664d2e8d64abc1800d3ad2f55c0f1d9", "lat": 38.93934566666667, "name": "5664d2e8d64abc1800d3ad2f55c0f1d9", "lon": -77.02587283333334, "fusion_lon": 0.0}, {"is_reserved": 0, "type": "electric_scooter", "fusion_lat": 0.0, "is_disabled": 0, "rental_uris": {"ios": "https://dc.lft.to/lastmile_qr_scan", "android": "https://dc.lft.to/lastmile_qr_scan"}, "bike_id": "95787b9e34f19f4696ec8a511bd22123", "lat": 38.9019365, "name": "95787b9e34f19f4696ec8a511bd22123", "lon": -76.99959716666666, "fusion_lon": 0.0}, {"is_reserved": 0, "type": "electric_scooter", "fusion_lat": 0.0, "is_disabled": 0, "rental_uris": {"ios": "https://dc.lft.to/lastmile_qr_scan", "android": "https://dc.lft.to/lastmile_qr_scan"}, "bike_id": "e59591cfbd0485ee1f31d2808070a750", "lat": 38.916214833333335, "name": "e59591cfbd0485ee1f31d2808070a750", "lon": -77.00494783333333, "fusion_lon": 0.0}, {"is_reserved": 0, "type": "electric_bike", "fusion_lat": 0.0, "is_disabled": 0, "rental_uris": {"ios": "https://dc.lft.to/lastmile_qr_scan", "android": "https://dc.lft.to/lastmile_qr_scan"}, "bike_id": "17da7c2565e60c70a026c7f2eed38db5", "lat": 38.9264845, "name": "17da7c2565e60c70a026c7f2eed38db5", "lon": -77.09025233333334, "fusion_lon": 0.0}, {"is_reserved": 0, "type": "electric_scooter", "fusion_lat": 0.0, "is_disabled": 0, "rental_uris": {"ios": "https://dc.lft.to/lastmile_qr_scan", "android": "https://dc.lft.to/lastmile_qr_scan"}, "bike_id": "6fa0ccfacacc548b5c8c10524b1e1658", "lat": 38.898458166666664, "name": "6fa0ccfacacc548b5c8c10524b1e1658", "lon": -77.0279975, "fusion_lon": 0.0}, {"is_reserved": 0, "type": "electric_scooter", "fusion_lat": 0.0, "is_disabled": 0, "rental_uris": {"ios": "https://dc.lft.to/lastmile_qr_scan", "android": "https://dc.lft.to/lastmile_qr_scan"}, "bike_id": "422dede286f1219f62109920095d9f66", "lat": 38.906095, "name": "422dede286f1219f62109920095d9f66", "lon": -77.0565385, "fusion_lon": 0.0}, {"is_reserved": 0, "type": "electric_scooter", "fusion_lat": 0.0, "is_disabled": 0, "rental_uris": {"ios": "https://dc.lft.to/lastmile_qr_scan", "android": "https://dc.lft.to/lastmile_qr_scan"}, "bike_id": "28b9b287e9f6ca0d1daaac3867901962", "lat": 38.93192066666667, "name": "28b9b287e9f6ca0d1daaac3867901962", "lon": -77.038946, "fusion_lon": 0.0}, {"is_reserved": 0, "type": "electric_scooter", "fusion_lat": 0.0, "is_disabled": 0, "rental_uris": {"ios": "https://dc.lft.to/lastmile_qr_scan", "android": "https://dc.lft.to/lastmile_qr_scan"}, "bike_id": "b0b3e412632b87518485d488bb075dbc", "lat": 38.920430833333334, "name": "b0b3e412632b87518485d488bb075dbc", "lon": -77.03393, "fusion_lon": 0.0}, {"is_reserved": 0, "type": "electric_scooter", "fusion_lat": 0.0, "is_disabled": 0, "rental_uris": {"ios": "https://dc.lft.to/lastmile_qr_scan", "android": "https://dc.lft.to/lastmile_qr_scan"}, "bike_id": "20e37204bf7c2b3afc80ec814407b7e8", "lat": 38.916576166666665, "name": "20e37204bf7c2b3afc80ec814407b7e8", "lon": -77.038555, "fusion_lon": 0.0}, {"is_reserved": 0, "type": "electric_scooter", "fusion_lat": 0.0, "is_disabled": 0, "rental_uris": {"ios": "https://dc.lft.to/lastmile_qr_scan", "android": "https://dc.lft.to/lastmile_qr_scan"}, "bike_id": "1c198962c469718700a302d40accb00d", "lat": 38.9171175, "name": "1c198962c469718700a302d40accb00d", "lon": -77.00888866666666, "fusion_lon": 0.0}, {"is_reserved": 0, "type": "electric_scooter", "fusion_lat": 0.0, "is_disabled": 0, "rental_uris": {"ios": "https://dc.lft.to/lastmile_qr_scan", "android": "https://dc.lft.to/lastmile_qr_scan"}, "bike_id": "d798cb761245a4f8711b7cd5c60a62eb", "lat": 38.898950166666665, "name": "d798cb761245a4f8711b7cd5c60a62eb", "lon": -77.0219305, "fusion_lon": 0.0}, {"is_reserved": 0, "type": "electric_scooter", "fusion_lat": 0.0, "is_disabled": 0, "rental_uris": {"ios": "https://dc.lft.to/lastmile_qr_scan", "android": "https://dc.lft.to/lastmile_qr_scan"}, "bike_id": "499d3dc0e10540f2bd2881d1267d4947", "lat": 38.91054616666667, "name": "499d3dc0e10540f2bd2881d1267d4947", "lon": -77.04336133333334, "fusion_lon": 0.0}, {"is_reserved": 0, "type": "electric_scooter", "fusion_lat": 0.0, "is_disabled": 0, "rental_uris": {"ios": "https://dc.lft.to/lastmile_qr_scan", "android": "https://dc.lft.to/lastmile_qr_scan"}, "bike_id": "822d6fd8ad248b2c842acbefadf380f3", "lat": 38.91773383333334, "name": "822d6fd8ad248b2c842acbefadf380f3", "lon": -77.0210775, "fusion_lon": 0.0}, {"is_reserved": 0, "type": "electric_scooter", "fusion_lat": 0.0, "is_disabled": 0, "rental_uris": {"ios": "https://dc.lft.to/lastmile_qr_scan", "android": "https://dc.lft.to/lastmile_qr_scan"}, "bike_id": "3b97e74d8ec1013b26f8164737850cb4", "lat": 38.916195, "name": "3b97e74d8ec1013b26f8164737850cb4", "lon": -77.0320255, "fusion_lon": 0.0}, {"is_reserved": 0, "type": "electric_scooter", "fusion_lat": 0.0, "is_disabled": 0, "rental_uris": {"ios": "https://dc.lft.to/lastmile_qr_scan", "android": "https://dc.lft.to/lastmile_qr_scan"}, "bike_id": "30f1a208fd1627ac6437dc0a146d435f", "lat": 38.89244383333333, "name": "30f1a208fd1627ac6437dc0a146d435f", "lon": -77.03204216666667, "fusion_lon": 0.0}, {"is_reserved": 0, "type": "electric_scooter", "fusion_lat": 0.0, "is_disabled": 0, "rental_uris": {"ios": "https://dc.lft.to/lastmile_qr_scan", "android": "https://dc.lft.to/lastmile_qr_scan"}, "bike_id": "ecee961de2eb8a3639b289b77e118f5d", "lat": 38.8988105, "name": "ecee961de2eb8a3639b289b77e118f5d", "lon": -76.93177333333334, "fusion_lon": 0.0}, {"is_reserved": 0, "type": "electric_scooter", "fusion_lat": 0.0, "is_disabled": 0, "rental_uris": {"ios": "https://dc.lft.to/lastmile_qr_scan", "android": "https://dc.lft.to/lastmile_qr_scan"}, "bike_id": "9ef16920fc8201842189df7084959bdd", "lat": 38.927211166666666, "name": "9ef16920fc8201842189df7084959bdd", "lon": -77.051449, "fusion_lon": 0.0}, {"is_reserved": 0, "type": "electric_scooter", "fusion_lat": 0.0, "is_disabled": 0, "rental_uris": {"ios": "https://dc.lft.to/lastmile_qr_scan", "android": "https://dc.lft.to/lastmile_qr_scan"}, "bike_id": "0b42583e3605380171765e74699e6870", "lat": 38.948571666666666, "name": "0b42583e3605380171765e74699e6870", "lon": -77.0788745, "fusion_lon": 0.0}, {"is_reserved": 0, "type": "electric_scooter", "fusion_lat": 0.0, "is_disabled": 0, "rental_uris": {"ios": "https://dc.lft.to/lastmile_qr_scan", "android": "https://dc.lft.to/lastmile_qr_scan"}, "bike_id": "2ccc3f368f82c2ea90fe3e386d5a11b3", "lat": 38.897732833333336, "name": "2ccc3f368f82c2ea90fe3e386d5a11b3", "lon": -77.0503005, "fusion_lon": 0.0}, {"is_reserved": 0, "type": "electric_scooter", "fusion_lat": 0.0, "is_disabled": 0, "rental_uris": {"ios": "https://dc.lft.to/lastmile_qr_scan", "android": "https://dc.lft.to/lastmile_qr_scan"}, "bike_id": "0947028765b26b75c9558b86e3c45add", "lat": 38.9058565, "name": "0947028765b26b75c9558b86e3c45add", "lon": -77.044532, "fusion_lon": 0.0}, {"is_reserved": 0, "type": "electric_scooter", "fusion_lat": 0.0, "is_disabled": 0, "rental_uris": {"ios": "https://dc.lft.to/lastmile_qr_scan", "android": "https://dc.lft.to/lastmile_qr_scan"}, "bike_id": "78990a223aad050eec7552ac08470c61", "lat": 38.88008766666667, "name": "78990a223aad050eec7552ac08470c61", "lon": -76.99739233333334, "fusion_lon": 0.0}, {"is_reserved": 0, "type": "electric_scooter", "fusion_lat": 0.0, "is_disabled": 0, "rental_uris": {"ios": "https://dc.lft.to/lastmile_qr_scan", "android": "https://dc.lft.to/lastmile_qr_scan"}, "bike_id": "67b33ae81be823af2505cf1f7c617e56", "lat": 38.8922425, "name": "67b33ae81be823af2505cf1f7c617e56", "lon": -77.02221266666666, "fusion_lon": 0.0}, {"is_reserved": 0, "type": "electric_scooter", "fusion_lat": 0.0, "is_disabled": 0, "rental_uris": {"ios": "https://dc.lft.to/lastmile_qr_scan", "android": "https://dc.lft.to/lastmile_qr_scan"}, "bike_id": "20e6d77032973405d00f474da7eeaa5b", "lat": 38.87672966666667, "name": "20e6d77032973405d00f474da7eeaa5b", "lon": -77.0176115, "fusion_lon": 0.0}, {"is_reserved": 0, "type": "electric_scooter", "fusion_lat": 0.0, "is_disabled": 0, "rental_uris": {"ios": "https://dc.lft.to/lastmile_qr_scan", "android": "https://dc.lft.to/lastmile_qr_scan"}, "bike_id": "26f63a29067142e9735553c37c0878fa", "lat": 38.918511, "name": "26f63a29067142e9735553c37c0878fa", "lon": -77.04108366666667, "fusion_lon": 0.0}, {"is_reserved": 0, "type": "electric_scooter", "fusion_lat": 0.0, "is_disabled": 0, "rental_uris": {"ios": "https://dc.lft.to/lastmile_qr_scan", "android": "https://dc.lft.to/lastmile_qr_scan"}, "bike_id": "1897d0cf1418276daacee0c27f72c82b", "lat": 38.927155666666664, "name": "1897d0cf1418276daacee0c27f72c82b", "lon": -77.036905, "fusion_lon": 0.0}, {"is_reserved": 0, "type": "electric_scooter", "fusion_lat": 0.0, "is_disabled": 0, "rental_uris": {"ios": "https://dc.lft.to/lastmile_qr_scan", "android": "https://dc.lft.to/lastmile_qr_scan"}, "bike_id": "867e462b3d1f76bb9bbf1ab2b10f3bb5", "lat": 38.89686283333333, "name": "867e462b3d1f76bb9bbf1ab2b10f3bb5", "lon": -77.04337833333334, "fusion_lon": 0.0}, {"is_reserved": 0, "type": "electric_scooter", "fusion_lat": 0.0, "is_disabled": 0, "rental_uris": {"ios": "https://dc.lft.to/lastmile_qr_scan", "android": "https://dc.lft.to/lastmile_qr_scan"}, "bike_id": "481d8a0ee354d031bf091166d817ead0", "lat": 38.9054385, "name": "481d8a0ee354d031bf091166d817ead0", "lon": -77.059181, "fusion_lon": 0.0}, {"is_reserved": 0, "type": "electric_scooter", "fusion_lat": 0.0, "is_disabled": 0, "rental_uris": {"ios": "https://dc.lft.to/lastmile_qr_scan", "android": "https://dc.lft.to/lastmile_qr_scan"}, "bike_id": "7e76e201a279dd9d4e16c6fe7aca498b", "lat": 38.88298283333334, "name": "7e76e201a279dd9d4e16c6fe7aca498b", "lon": -77.01766366666666, "fusion_lon": 0.0}, {"is_reserved": 0, "type": "electric_scooter", "fusion_lat": 0.0, "is_disabled": 0, "rental_uris": {"ios": "https://dc.lft.to/lastmile_qr_scan", "android": "https://dc.lft.to/lastmile_qr_scan"}, "bike_id": "2c6973649801f6976b8c8b13155ae660", "lat": 38.89858133333333, "name": "2c6973649801f6976b8c8b13155ae660", "lon": -76.99612766666667, "fusion_lon": 0.0}, {"is_reserved": 0, "type": "electric_scooter", "fusion_lat": 0.0, "is_disabled": 0, "rental_uris": {"ios": "https://dc.lft.to/lastmile_qr_scan", "android": "https://dc.lft.to/lastmile_qr_scan"}, "bike_id": "eb5a3f7a3358123cc64f63c2db146cee", "lat": 38.91553966666667, "name": "eb5a3f7a3358123cc64f63c2db146cee", "lon": -77.03260633333333, "fusion_lon": 0.0}, {"is_reserved": 0, "type": "electric_scooter", "fusion_lat": 0.0, "is_disabled": 0, "rental_uris": {"ios": "https://dc.lft.to/lastmile_qr_scan", "android": "https://dc.lft.to/lastmile_qr_scan"}, "bike_id": "5580c65b7b617726d13597efa78279c9", "lat": 38.923758, "name": "5580c65b7b617726d13597efa78279c9", "lon": -77.029261, "fusion_lon": 0.0}, {"is_reserved": 0, "type": "electric_scooter", "fusion_lat": 0.0, "is_disabled": 0, "rental_uris": {"ios": "https://dc.lft.to/lastmile_qr_scan", "android": "https://dc.lft.to/lastmile_qr_scan"}, "bike_id": "0ae1469ccb284a011d4ca9cf7d2551ff", "lat": 38.900569833333336, "name": "0ae1469ccb284a011d4ca9cf7d2551ff", "lon": -77.04541283333333, "fusion_lon": 0.0}, {"is_reserved": 0, "type": "electric_scooter", "fusion_lat": 0.0, "is_disabled": 0, "rental_uris": {"ios": "https://dc.lft.to/lastmile_qr_scan", "android": "https://dc.lft.to/lastmile_qr_scan"}, "bike_id": "1402c455abd288e8a5e700ad8e82c5b3", "lat": 38.90569333333333, "name": "1402c455abd288e8a5e700ad8e82c5b3", "lon": -77.02762716666666, "fusion_lon": 0.0}, {"is_reserved": 0, "type": "electric_scooter", "fusion_lat": 0.0, "is_disabled": 0, "rental_uris": {"ios": "https://dc.lft.to/lastmile_qr_scan", "android": "https://dc.lft.to/lastmile_qr_scan"}, "bike_id": "d6a6a1abcdc14c968a1d64acbbdd7e21", "lat": 38.9107625, "name": "d6a6a1abcdc14c968a1d64acbbdd7e21", "lon": -77.0217585, "fusion_lon": 0.0}, {"is_reserved": 0, "type": "electric_scooter", "fusion_lat": 0.0, "is_disabled": 0, "rental_uris": {"ios": "https://dc.lft.to/lastmile_qr_scan", "android": "https://dc.lft.to/lastmile_qr_scan"}, "bike_id": "56ed779bf48bfc3e3a5afe540c1fe19a", "lat": 38.89669983333334, "name": "56ed779bf48bfc3e3a5afe540c1fe19a", "lon": -76.9490965, "fusion_lon": 0.0}, {"is_reserved": 0, "type": "electric_scooter", "fusion_lat": 0.0, "is_disabled": 0, "rental_uris": {"ios": "https://dc.lft.to/lastmile_qr_scan", "android": "https://dc.lft.to/lastmile_qr_scan"}, "bike_id": "130e26288f34c603de2c55b274e72c21", "lat": 38.87289083333334, "name": "130e26288f34c603de2c55b274e72c21", "lon": -77.00987116666667, "fusion_lon": 0.0}, {"is_reserved": 0, "type": "electric_scooter", "fusion_lat": 0.0, "is_disabled": 0, "rental_uris": {"ios": "https://dc.lft.to/lastmile_qr_scan", "android": "https://dc.lft.to/lastmile_qr_scan"}, "bike_id": "e4942409e3845ddec6ebc802e874c3a7", "lat": 38.90388633333333, "name": "e4942409e3845ddec6ebc802e874c3a7", "lon": -77.050723, "fusion_lon": 0.0}, {"is_reserved": 0, "type": "electric_scooter", "fusion_lat": 0.0, "is_disabled": 0, "rental_uris": {"ios": "https://dc.lft.to/lastmile_qr_scan", "android": "https://dc.lft.to/lastmile_qr_scan"}, "bike_id": "b5e4a5ab4dbce440225685b5f6b1eb7c", "lat": 38.92150516666667, "name": "b5e4a5ab4dbce440225685b5f6b1eb7c", "lon": -77.035062, "fusion_lon": 0.0}, {"is_reserved": 0, "type": "electric_scooter", "fusion_lat": 0.0, "is_disabled": 0, "rental_uris": {"ios": "https://dc.lft.to/lastmile_qr_scan", "android": "https://dc.lft.to/lastmile_qr_scan"}, "bike_id": "5512bbbff798d7a7cc5041b936b0e164", "lat": 38.88116633333333, "name": "5512bbbff798d7a7cc5041b936b0e164", "lon": -77.0265125, "fusion_lon": 0.0}, {"is_reserved": 0, "type": "electric_scooter", "fusion_lat": 0.0, "is_disabled": 0, "rental_uris": {"ios": "https://dc.lft.to/lastmile_qr_scan", "android": "https://dc.lft.to/lastmile_qr_scan"}, "bike_id": "1b0afc6922ac743a394f0ddf85771f29", "lat": 38.91892983333334, "name": "1b0afc6922ac743a394f0ddf85771f29", "lon": -77.0231325, "fusion_lon": 0.0}, {"is_reserved": 0, "type": "electric_scooter", "fusion_lat": 0.0, "is_disabled": 0, "rental_uris": {"ios": "https://dc.lft.to/lastmile_qr_scan", "android": "https://dc.lft.to/lastmile_qr_scan"}, "bike_id": "963aaa8aca0e260e4d26429412255508", "lat": 38.90028483333333, "name": "963aaa8aca0e260e4d26429412255508", "lon": -77.01228783333333, "fusion_lon": 0.0}, {"is_reserved": 0, "type": "electric_scooter", "fusion_lat": 0.0, "is_disabled": 0, "rental_uris": {"ios": "https://dc.lft.to/lastmile_qr_scan", "android": "https://dc.lft.to/lastmile_qr_scan"}, "bike_id": "2b2b51d2d4c2ae4f2691d8adbac2c803", "lat": 38.910425333333336, "name": "2b2b51d2d4c2ae4f2691d8adbac2c803", "lon": -77.01666183333333, "fusion_lon": 0.0}, {"is_reserved": 0, "type": "electric_scooter", "fusion_lat": 0.0, "is_disabled": 0, "rental_uris": {"ios": "https://dc.lft.to/lastmile_qr_scan", "android": "https://dc.lft.to/lastmile_qr_scan"}, "bike_id": "c8cbd728e72b53da5df67919902feaba", "lat": 38.932618166666664, "name": "c8cbd728e72b53da5df67919902feaba", "lon": -77.02096333333333, "fusion_lon": 0.0}, {"is_reserved": 0, "type": "electric_scooter", "fusion_lat": 0.0, "is_disabled": 0, "rental_uris": {"ios": "https://dc.lft.to/lastmile_qr_scan", "android": "https://dc.lft.to/lastmile_qr_scan"}, "bike_id": "0026116c14d1bf44662e243550561f82", "lat": 38.899822666666665, "name": "0026116c14d1bf44662e243550561f82", "lon": -77.0238015, "fusion_lon": 0.0}, {"is_reserved": 0, "type": "electric_bike", "fusion_lat": 0.0, "is_disabled": 0, "rental_uris": {"ios": "https://dc.lft.to/lastmile_qr_scan", "android": "https://dc.lft.to/lastmile_qr_scan"}, "bike_id": "289dcabb45c5644815071ac05858bf1f", "lat": 38.80394833333333, "name": "289dcabb45c5644815071ac05858bf1f", "lon": -77.113303, "fusion_lon": 0.0}, {"is_reserved": 0, "type": "electric_bike", "fusion_lat": 0.0, "is_disabled": 0, "rental_uris": {"ios": "https://dc.lft.to/lastmile_qr_scan", "android": "https://dc.lft.to/lastmile_qr_scan"}, "bike_id": "bfa49f08b7d1b181e9aa93feb9283666", "lat": 38.8559785, "name": "bfa49f08b7d1b181e9aa93feb9283666", "lon": -76.97277516666666, "fusion_lon": 0.0}, {"is_reserved": 0, "type": "electric_scooter", "fusion_lat": 0.0, "is_disabled": 0, "rental_uris": {"ios": "https://dc.lft.to/lastmile_qr_scan", "android": "https://dc.lft.to/lastmile_qr_scan"}, "bike_id": "ae3bc4881f5bbb5eef2ecc2424ff8445", "lat": 38.90796483333333, "name": "ae3bc4881f5bbb5eef2ecc2424ff8445", "lon": -77.03134366666667, "fusion_lon": 0.0}, {"is_reserved": 0, "type": "electric_scooter", "fusion_lat": 0.0, "is_disabled": 0, "rental_uris": {"ios": "https://dc.lft.to/lastmile_qr_scan", "android": "https://dc.lft.to/lastmile_qr_scan"}, "bike_id": "940f4d4a1950bef75bb0c02af8961f7b", "lat": 38.90856333333333, "name": "940f4d4a1950bef75bb0c02af8961f7b", "lon": -76.991648, "fusion_lon": 0.0}, {"is_reserved": 0, "type": "electric_bike", "fusion_lat": 0.0, "is_disabled": 0, "rental_uris": {"ios": "https://dc.lft.to/lastmile_qr_scan", "android": "https://dc.lft.to/lastmile_qr_scan"}, "bike_id": "71964dc927370e05291f64ac3762086e", "lat": 39.07443966666666, "name": "71964dc927370e05291f64ac3762086e", "lon": -77.11523883333334, "fusion_lon": 0.0}, {"is_reserved": 0, "type": "electric_scooter", "fusion_lat": 0.0, "is_disabled": 0, "rental_uris": {"ios": "https://dc.lft.to/lastmile_qr_scan", "android": "https://dc.lft.to/lastmile_qr_scan"}, "bike_id": "63e72da3f872fbbcbca1d3c681657e37", "lat": 38.93587683333333, "name": "63e72da3f872fbbcbca1d3c681657e37", "lon": -77.07429216666667, "fusion_lon": 0.0}, {"is_reserved": 0, "type": "electric_scooter", "fusion_lat": 0.0, "is_disabled": 0, "rental_uris": {"ios": "https://dc.lft.to/lastmile_qr_scan", "android": "https://dc.lft.to/lastmile_qr_scan"}, "bike_id": "a39c3d96e5d967705bbeede03a3217a0", "lat": 38.90553383333334, "name": "a39c3d96e5d967705bbeede03a3217a0", "lon": -77.04860516666666, "fusion_lon": 0.0}, {"is_reserved": 0, "type": "electric_scooter", "fusion_lat": 0.0, "is_disabled": 0, "rental_uris": {"ios": "https://dc.lft.to/lastmile_qr_scan", "android": "https://dc.lft.to/lastmile_qr_scan"}, "bike_id": "dd1056a131bcd7fe4ea538b7ba141f1f", "lat": 38.8830505, "name": "dd1056a131bcd7fe4ea538b7ba141f1f", "lon": -76.99488933333333, "fusion_lon": 0.0}, {"is_reserved": 0, "type": "electric_scooter", "fusion_lat": 0.0, "is_disabled": 0, "rental_uris": {"ios": "https://dc.lft.to/lastmile_qr_scan", "android": "https://dc.lft.to/lastmile_qr_scan"}, "bike_id": "adceb0576a5a3afbd7f7c16b0830190d", "lat": 38.8933925, "name": "adceb0576a5a3afbd7f7c16b0830190d", "lon": -76.98560316666666, "fusion_lon": 0.0}, {"is_reserved": 0, "type": "electric_scooter", "fusion_lat": 0.0, "is_disabled": 0, "rental_uris": {"ios": "https://dc.lft.to/lastmile_qr_scan", "android": "https://dc.lft.to/lastmile_qr_scan"}, "bike_id": "eb2ca238885f0134844abf4af5b89c2a", "lat": 38.9280495, "name": "eb2ca238885f0134844abf4af5b89c2a", "lon": -77.03700116666667, "fusion_lon": 0.0}, {"is_reserved": 0, "type": "electric_scooter", "fusion_lat": 0.0, "is_disabled": 0, "rental_uris": {"ios": "https://dc.lft.to/lastmile_qr_scan", "android": "https://dc.lft.to/lastmile_qr_scan"}, "bike_id": "207a117029032bd9e0b10e541ca6daef", "lat": 38.90035233333333, "name": "207a117029032bd9e0b10e541ca6daef", "lon": -77.0062415, "fusion_lon": 0.0}, {"is_reserved": 0, "type": "electric_scooter", "fusion_lat": 0.0, "is_disabled": 0, "rental_uris": {"ios": "https://dc.lft.to/lastmile_qr_scan", "android": "https://dc.lft.to/lastmile_qr_scan"}, "bike_id": "e8b398ab209112a541bca8dde9dffa66", "lat": 38.918715166666665, "name": "e8b398ab209112a541bca8dde9dffa66", "lon": -77.03544016666666, "fusion_lon": 0.0}, {"is_reserved": 0, "type": "electric_scooter", "fusion_lat": 0.0, "is_disabled": 0, "rental_uris": {"ios": "https://dc.lft.to/lastmile_qr_scan", "android": "https://dc.lft.to/lastmile_qr_scan"}, "bike_id": "109b36e2fdb6f2933c0edc137d6df8f0", "lat": 38.87472116666667, "name": "109b36e2fdb6f2933c0edc137d6df8f0", "lon": -77.00513583333333, "fusion_lon": 0.0}, {"is_reserved": 0, "type": "electric_bike", "fusion_lat": 0.0, "is_disabled": 0, "rental_uris": {"ios": "https://dc.lft.to/lastmile_qr_scan", "android": "https://dc.lft.to/lastmile_qr_scan"}, "bike_id": "4ec9b53cbe601c7ac971187c2773f5d0", "lat": 38.86260133333333, "name": "4ec9b53cbe601c7ac971187c2773f5d0", "lon": -76.983526, "fusion_lon": 0.0}, {"is_reserved": 0, "type": "electric_scooter", "fusion_lat": 0.0, "is_disabled": 0, "rental_uris": {"ios": "https://dc.lft.to/lastmile_qr_scan", "android": "https://dc.lft.to/lastmile_qr_scan"}, "bike_id": "b7f97dc3c72852ab882145f17dc92964", "lat": 38.88181766666666, "name": "b7f97dc3c72852ab882145f17dc92964", "lon": -77.00893316666667, "fusion_lon": 0.0}, {"is_reserved": 0, "type": "electric_scooter", "fusion_lat": 0.0, "is_disabled": 0, "rental_uris": {"ios": "https://dc.lft.to/lastmile_qr_scan", "android": "https://dc.lft.to/lastmile_qr_scan"}, "bike_id": "d5065967dc33037351c63d74cc3ddd22", "lat": 38.9092395, "name": "d5065967dc33037351c63d74cc3ddd22", "lon": -77.04395383333333, "fusion_lon": 0.0}, {"is_reserved": 0, "type": "electric_scooter", "fusion_lat": 0.0, "is_disabled": 0, "rental_uris": {"ios": "https://dc.lft.to/lastmile_qr_scan", "android": "https://dc.lft.to/lastmile_qr_scan"}, "bike_id": "e8a53de58d0810a3db1b0adfed2945e3", "lat": 38.923436833333334, "name": "e8a53de58d0810a3db1b0adfed2945e3", "lon": -76.99872316666666, "fusion_lon": 0.0}, {"is_reserved": 0, "type": "electric_scooter", "fusion_lat": 0.0, "is_disabled": 0, "rental_uris": {"ios": "https://dc.lft.to/lastmile_qr_scan", "android": "https://dc.lft.to/lastmile_qr_scan"}, "bike_id": "58e82cb8ef56b819bc33d6f07783e39e", "lat": 38.94446766666667, "name": "58e82cb8ef56b819bc33d6f07783e39e", "lon": -77.0290825, "fusion_lon": 0.0}, {"is_reserved": 0, "type": "electric_scooter", "fusion_lat": 0.0, "is_disabled": 0, "rental_uris": {"ios": "https://dc.lft.to/lastmile_qr_scan", "android": "https://dc.lft.to/lastmile_qr_scan"}, "bike_id": "d07b7fee1be385c6851af4fb60d81dca", "lat": 38.88356433333333, "name": "d07b7fee1be385c6851af4fb60d81dca", "lon": -76.9950615, "fusion_lon": 0.0}, {"is_reserved": 0, "type": "electric_scooter", "fusion_lat": 0.0, "is_disabled": 0, "rental_uris": {"ios": "https://dc.lft.to/lastmile_qr_scan", "android": "https://dc.lft.to/lastmile_qr_scan"}, "bike_id": "20973578df4d19bafbf3c594f0fb3827", "lat": 38.9226065, "name": "20973578df4d19bafbf3c594f0fb3827", "lon": -77.03667733333333, "fusion_lon": 0.0}, {"is_reserved": 0, "type": "electric_scooter", "fusion_lat": 0.0, "is_disabled": 0, "rental_uris": {"ios": "https://dc.lft.to/lastmile_qr_scan", "android": "https://dc.lft.to/lastmile_qr_scan"}, "bike_id": "6093ebbea48766a7a2878e989f671ceb", "lat": 38.9220865, "name": "6093ebbea48766a7a2878e989f671ceb", "lon": -77.01875883333334, "fusion_lon": 0.0}, {"is_reserved": 0, "type": "electric_scooter", "fusion_lat": 0.0, "is_disabled": 0, "rental_uris": {"ios": "https://dc.lft.to/lastmile_qr_scan", "android": "https://dc.lft.to/lastmile_qr_scan"}, "bike_id": "9f05e4f76412396b43e38be47d27a7d5", "lat": 38.88854766666667, "name": "9f05e4f76412396b43e38be47d27a7d5", "lon": -76.979059, "fusion_lon": 0.0}, {"is_reserved": 0, "type": "electric_scooter", "fusion_lat": 0.0, "is_disabled": 0, "rental_uris": {"ios": "https://dc.lft.to/lastmile_qr_scan", "android": "https://dc.lft.to/lastmile_qr_scan"}, "bike_id": "7cf0084677e64896ef1809e045f90f0c", "lat": 38.90509466666666, "name": "7cf0084677e64896ef1809e045f90f0c", "lon": -76.95202666666667, "fusion_lon": 0.0}, {"is_reserved": 0, "type": "electric_scooter", "fusion_lat": 0.0, "is_disabled": 0, "rental_uris": {"ios": "https://dc.lft.to/lastmile_qr_scan", "android": "https://dc.lft.to/lastmile_qr_scan"}, "bike_id": "bac0834c83be45e0ea11b6bb66ea5cc1", "lat": 38.896638833333334, "name": "bac0834c83be45e0ea11b6bb66ea5cc1", "lon": -76.93206933333333, "fusion_lon": 0.0}, {"is_reserved": 0, "type": "electric_scooter", "fusion_lat": 0.0, "is_disabled": 0, "rental_uris": {"ios": "https://dc.lft.to/lastmile_qr_scan", "android": "https://dc.lft.to/lastmile_qr_scan"}, "bike_id": "8b01d725fc6c18cfa3a1b1e1644959a6", "lat": 38.87451266666667, "name": "8b01d725fc6c18cfa3a1b1e1644959a6", "lon": -77.00941583333334, "fusion_lon": 0.0}, {"is_reserved": 0, "type": "electric_scooter", "fusion_lat": 0.0, "is_disabled": 0, "rental_uris": {"ios": "https://dc.lft.to/lastmile_qr_scan", "android": "https://dc.lft.to/lastmile_qr_scan"}, "bike_id": "6959cfa577ac086ac4fe41b719c206c7", "lat": 38.924803, "name": "6959cfa577ac086ac4fe41b719c206c7", "lon": -77.027153, "fusion_lon": 0.0}, {"is_reserved": 0, "type": "electric_scooter", "fusion_lat": 0.0, "is_disabled": 0, "rental_uris": {"ios": "https://dc.lft.to/lastmile_qr_scan", "android": "https://dc.lft.to/lastmile_qr_scan"}, "bike_id": "60b0680404217f11ff6c7440a4f02a1f", "lat": 38.923179, "name": "60b0680404217f11ff6c7440a4f02a1f", "lon": -77.01952966666667, "fusion_lon": 0.0}, {"is_reserved": 0, "type": "electric_scooter", "fusion_lat": 0.0, "is_disabled": 0, "rental_uris": {"ios": "https://dc.lft.to/lastmile_qr_scan", "android": "https://dc.lft.to/lastmile_qr_scan"}, "bike_id": "6cd72800118b270227c1d172a7e9ea93", "lat": 38.885411, "name": "6cd72800118b270227c1d172a7e9ea93", "lon": -76.95974683333333, "fusion_lon": 0.0}, {"is_reserved": 0, "type": "electric_scooter", "fusion_lat": 0.0, "is_disabled": 0, "rental_uris": {"ios": "https://dc.lft.to/lastmile_qr_scan", "android": "https://dc.lft.to/lastmile_qr_scan"}, "bike_id": "38a30cc9cd69ed79dc1a352eeaa7fe8f", "lat": 38.89231433333333, "name": "38a30cc9cd69ed79dc1a352eeaa7fe8f", "lon": -77.02830816666666, "fusion_lon": 0.0}, {"is_reserved": 0, "type": "electric_bike", "fusion_lat": 0.0, "is_disabled": 0, "rental_uris": {"ios": "https://dc.lft.to/lastmile_qr_scan", "android": "https://dc.lft.to/lastmile_qr_scan"}, "bike_id": "e321951169ed0dc04a5624512fb83064", "lat": 38.86008016666667, "name": "e321951169ed0dc04a5624512fb83064", "lon": -77.0653, "fusion_lon": 0.0}, {"is_reserved": 0, "type": "electric_scooter", "fusion_lat": 0.0, "is_disabled": 0, "rental_uris": {"ios": "https://dc.lft.to/lastmile_qr_scan", "android": "https://dc.lft.to/lastmile_qr_scan"}, "bike_id": "8f2e72cba15137c71ad5f4428051ad10", "lat": 38.88072783333333, "name": "8f2e72cba15137c71ad5f4428051ad10", "lon": -76.98509483333333, "fusion_lon": 0.0}, {"is_reserved": 0, "type": "electric_scooter", "fusion_lat": 0.0, "is_disabled": 0, "rental_uris": {"ios": "https://dc.lft.to/lastmile_qr_scan", "android": "https://dc.lft.to/lastmile_qr_scan"}, "bike_id": "003cc26002add509751f8788d53f99ef", "lat": 38.883010666666664, "name": "003cc26002add509751f8788d53f99ef", "lon": -76.99374666666667, "fusion_lon": 0.0}, {"is_reserved": 0, "type": "electric_scooter", "fusion_lat": 0.0, "is_disabled": 0, "rental_uris": {"ios": "https://dc.lft.to/lastmile_qr_scan", "android": "https://dc.lft.to/lastmile_qr_scan"}, "bike_id": "be09555f8123849946841cf34651d9ec", "lat": 38.9384295, "name": "be09555f8123849946841cf34651d9ec", "lon": -77.0194605, "fusion_lon": 0.0}, {"is_reserved": 0, "type": "electric_scooter", "fusion_lat": 0.0, "is_disabled": 0, "rental_uris": {"ios": "https://dc.lft.to/lastmile_qr_scan", "android": "https://dc.lft.to/lastmile_qr_scan"}, "bike_id": "e5c1feb0c8d6eb09abf4665cdce50d22", "lat": 38.93065683333333, "name": "e5c1feb0c8d6eb09abf4665cdce50d22", "lon": -77.02339583333334, "fusion_lon": 0.0}, {"is_reserved": 0, "type": "electric_scooter", "fusion_lat": 0.0, "is_disabled": 0, "rental_uris": {"ios": "https://dc.lft.to/lastmile_qr_scan", "android": "https://dc.lft.to/lastmile_qr_scan"}, "bike_id": "308f9b940853170c1e7b59446edde017", "lat": 38.90965083333333, "name": "308f9b940853170c1e7b59446edde017", "lon": -77.02207733333333, "fusion_lon": 0.0}, {"is_reserved": 0, "type": "electric_scooter", "fusion_lat": 0.0, "is_disabled": 0, "rental_uris": {"ios": "https://dc.lft.to/lastmile_qr_scan", "android": "https://dc.lft.to/lastmile_qr_scan"}, "bike_id": "4e90b00358026569a8b72c36fa277c97", "lat": 38.880957, "name": "4e90b00358026569a8b72c36fa277c97", "lon": -77.02637466666667, "fusion_lon": 0.0}, {"is_reserved": 0, "type": "electric_scooter", "fusion_lat": 0.0, "is_disabled": 0, "rental_uris": {"ios": "https://dc.lft.to/lastmile_qr_scan", "android": "https://dc.lft.to/lastmile_qr_scan"}, "bike_id": "abbc95d0d7d5985b2c48f5bbd26a3a9f", "lat": 38.92318566666667, "name": "abbc95d0d7d5985b2c48f5bbd26a3a9f", "lon": -77.019538, "fusion_lon": 0.0}, {"is_reserved": 0, "type": "electric_scooter", "fusion_lat": 0.0, "is_disabled": 0, "rental_uris": {"ios": "https://dc.lft.to/lastmile_qr_scan", "android": "https://dc.lft.to/lastmile_qr_scan"}, "bike_id": "6bfd80c5e0a7c1c4875f15656dd8b12a", "lat": 38.9169965, "name": "6bfd80c5e0a7c1c4875f15656dd8b12a", "lon": -77.0393435, "fusion_lon": 0.0}, {"is_reserved": 0, "type": "electric_scooter", "fusion_lat": 0.0, "is_disabled": 0, "rental_uris": {"ios": "https://dc.lft.to/lastmile_qr_scan", "android": "https://dc.lft.to/lastmile_qr_scan"}, "bike_id": "4ecf2958fcd47794e2c8fbe5fa71fbee", "lat": 38.92329333333333, "name": "4ecf2958fcd47794e2c8fbe5fa71fbee", "lon": -77.0450865, "fusion_lon": 0.0}, {"is_reserved": 0, "type": "electric_scooter", "fusion_lat": 0.0, "is_disabled": 0, "rental_uris": {"ios": "https://dc.lft.to/lastmile_qr_scan", "android": "https://dc.lft.to/lastmile_qr_scan"}, "bike_id": "3be35ea958b9ff8806447b9013c5f9cf", "lat": 38.91728916666667, "name": "3be35ea958b9ff8806447b9013c5f9cf", "lon": -77.02506233333334, "fusion_lon": 0.0}, {"is_reserved": 0, "type": "electric_scooter", "fusion_lat": 0.0, "is_disabled": 0, "rental_uris": {"ios": "https://dc.lft.to/lastmile_qr_scan", "android": "https://dc.lft.to/lastmile_qr_scan"}, "bike_id": "3647dc464113f3cd7a2b3c6b05e8ae57", "lat": 38.9211265, "name": "3647dc464113f3cd7a2b3c6b05e8ae57", "lon": -77.030453, "fusion_lon": 0.0}, {"is_reserved": 0, "type": "electric_scooter", "fusion_lat": 0.0, "is_disabled": 0, "rental_uris": {"ios": "https://dc.lft.to/lastmile_qr_scan", "android": "https://dc.lft.to/lastmile_qr_scan"}, "bike_id": "2fce8c2da52df999d94cb19e0246044d", "lat": 38.907859, "name": "2fce8c2da52df999d94cb19e0246044d", "lon": -77.06912816666667, "fusion_lon": 0.0}, {"is_reserved": 0, "type": "electric_scooter", "fusion_lat": 0.0, "is_disabled": 0, "rental_uris": {"ios": "https://dc.lft.to/lastmile_qr_scan", "android": "https://dc.lft.to/lastmile_qr_scan"}, "bike_id": "0c90d4e15440a8e1077eb4a5c4ba3e75", "lat": 38.95067933333333, "name": "0c90d4e15440a8e1077eb4a5c4ba3e75", "lon": -77.06537266666666, "fusion_lon": 0.0}, {"is_reserved": 0, "type": "electric_scooter", "fusion_lat": 0.0, "is_disabled": 0, "rental_uris": {"ios": "https://dc.lft.to/lastmile_qr_scan", "android": "https://dc.lft.to/lastmile_qr_scan"}, "bike_id": "ee9293bfe6e288bb7e45ddbd61f9fbb0", "lat": 38.911163, "name": "ee9293bfe6e288bb7e45ddbd61f9fbb0", "lon": -77.0436985, "fusion_lon": 0.0}, {"is_reserved": 0, "type": "electric_scooter", "fusion_lat": 0.0, "is_disabled": 0, "rental_uris": {"ios": "https://dc.lft.to/lastmile_qr_scan", "android": "https://dc.lft.to/lastmile_qr_scan"}, "bike_id": "2844c538b60dafba847de7d6633f33b0", "lat": 38.929827, "name": "2844c538b60dafba847de7d6633f33b0", "lon": -77.03476616666667, "fusion_lon": 0.0}, {"is_reserved": 0, "type": "electric_scooter", "fusion_lat": 0.0, "is_disabled": 0, "rental_uris": {"ios": "https://dc.lft.to/lastmile_qr_scan", "android": "https://dc.lft.to/lastmile_qr_scan"}, "bike_id": "4c645dfe058b6f9c2c5961f1b85067c4", "lat": 38.89728483333333, "name": "4c645dfe058b6f9c2c5961f1b85067c4", "lon": -77.007771, "fusion_lon": 0.0}, {"is_reserved": 0, "type": "electric_scooter", "fusion_lat": 0.0, "is_disabled": 0, "rental_uris": {"ios": "https://dc.lft.to/lastmile_qr_scan", "android": "https://dc.lft.to/lastmile_qr_scan"}, "bike_id": "7a3e10b3060645f4dc840abfc5fa60e8", "lat": 38.8926005, "name": "7a3e10b3060645f4dc840abfc5fa60e8", "lon": -77.046627, "fusion_lon": 0.0}, {"is_reserved": 0, "type": "electric_scooter", "fusion_lat": 0.0, "is_disabled": 0, "rental_uris": {"ios": "https://dc.lft.to/lastmile_qr_scan", "android": "https://dc.lft.to/lastmile_qr_scan"}, "bike_id": "de3d0fbed04d6b8d7168df3d3ea3832f", "lat": 38.92215183333333, "name": "de3d0fbed04d6b8d7168df3d3ea3832f", "lon": -77.04337183333334, "fusion_lon": 0.0}, {"is_reserved": 0, "type": "electric_scooter", "fusion_lat": 0.0, "is_disabled": 0, "rental_uris": {"ios": "https://dc.lft.to/lastmile_qr_scan", "android": "https://dc.lft.to/lastmile_qr_scan"}, "bike_id": "34775a592f36baa249648c6355a2116c", "lat": 38.87562583333333, "name": "34775a592f36baa249648c6355a2116c", "lon": -77.00588483333334, "fusion_lon": 0.0}, {"is_reserved": 0, "type": "electric_scooter", "fusion_lat": 0.0, "is_disabled": 0, "rental_uris": {"ios": "https://dc.lft.to/lastmile_qr_scan", "android": "https://dc.lft.to/lastmile_qr_scan"}, "bike_id": "c598dc940018bb7908c9ef846b894709", "lat": 38.8995475, "name": "c598dc940018bb7908c9ef846b894709", "lon": -77.047513, "fusion_lon": 0.0}, {"is_reserved": 0, "type": "electric_scooter", "fusion_lat": 0.0, "is_disabled": 0, "rental_uris": {"ios": "https://dc.lft.to/lastmile_qr_scan", "android": "https://dc.lft.to/lastmile_qr_scan"}, "bike_id": "147e33c91dcff6a43c04d98de6c50bab", "lat": 38.88107933333333, "name": "147e33c91dcff6a43c04d98de6c50bab", "lon": -76.9877395, "fusion_lon": 0.0}, {"is_reserved": 0, "type": "electric_scooter", "fusion_lat": 0.0, "is_disabled": 0, "rental_uris": {"ios": "https://dc.lft.to/lastmile_qr_scan", "android": "https://dc.lft.to/lastmile_qr_scan"}, "bike_id": "3f1440fc5ba0eb4a8a5284450a102305", "lat": 38.910783, "name": "3f1440fc5ba0eb4a8a5284450a102305", "lon": -77.0217595, "fusion_lon": 0.0}, {"is_reserved": 0, "type": "electric_scooter", "fusion_lat": 0.0, "is_disabled": 0, "rental_uris": {"ios": "https://dc.lft.to/lastmile_qr_scan", "android": "https://dc.lft.to/lastmile_qr_scan"}, "bike_id": "ca54ad88b1c52b873b2050c227b9cb25", "lat": 38.894927333333335, "name": "ca54ad88b1c52b873b2050c227b9cb25", "lon": -77.0230835, "fusion_lon": 0.0}, {"is_reserved": 0, "type": "electric_bike", "fusion_lat": 0.0, "is_disabled": 0, "rental_uris": {"ios": "https://dc.lft.to/lastmile_qr_scan", "android": "https://dc.lft.to/lastmile_qr_scan"}, "bike_id": "310b7f63c9ea8dcb0cea10e6007d3cb7", "lat": 38.9063755, "name": "310b7f63c9ea8dcb0cea10e6007d3cb7", "lon": -77.07037216666667, "fusion_lon": 0.0}, {"is_reserved": 0, "type": "electric_bike", "fusion_lat": 0.0, "is_disabled": 0, "rental_uris": {"ios": "https://dc.lft.to/lastmile_qr_scan", "android": "https://dc.lft.to/lastmile_qr_scan"}, "bike_id": "e6f9201510898804ffad37af8334ebce", "lat": 38.901394833333335, "name": "e6f9201510898804ffad37af8334ebce", "lon": -77.02007183333333, "fusion_lon": 0.0}, {"is_reserved": 0, "type": "electric_scooter", "fusion_lat": 0.0, "is_disabled": 0, "rental_uris": {"ios": "https://dc.lft.to/lastmile_qr_scan", "android": "https://dc.lft.to/lastmile_qr_scan"}, "bike_id": "d20663f01456659c9c88f16763d93448", "lat": 38.921335, "name": "d20663f01456659c9c88f16763d93448", "lon": -77.00401833333333, "fusion_lon": 0.0}, {"is_reserved": 0, "type": "electric_scooter", "fusion_lat": 0.0, "is_disabled": 0, "rental_uris": {"ios": "https://dc.lft.to/lastmile_qr_scan", "android": "https://dc.lft.to/lastmile_qr_scan"}, "bike_id": "0cd20498d25c22807f3bfada25fe9f68", "lat": 38.916430166666665, "name": "0cd20498d25c22807f3bfada25fe9f68", "lon": -77.03945116666667, "fusion_lon": 0.0}, {"is_reserved": 0, "type": "electric_scooter", "fusion_lat": 0.0, "is_disabled": 0, "rental_uris": {"ios": "https://dc.lft.to/lastmile_qr_scan", "android": "https://dc.lft.to/lastmile_qr_scan"}, "bike_id": "119ffc11bc9406cf1b44beff2dae252b", "lat": 38.86213166666667, "name": "119ffc11bc9406cf1b44beff2dae252b", "lon": -76.9954935, "fusion_lon": 0.0}, {"is_reserved": 0, "type": "electric_bike", "fusion_lat": 0.0, "is_disabled": 0, "rental_uris": {"ios": "https://dc.lft.to/lastmile_qr_scan", "android": "https://dc.lft.to/lastmile_qr_scan"}, "bike_id": "49263b33bafb82ce3559a04104882c8e", "lat": 38.836012833333335, "name": "49263b33bafb82ce3559a04104882c8e", "lon": -77.00378266666667, "fusion_lon": 0.0}, {"is_reserved": 0, "type": "electric_scooter", "fusion_lat": 0.0, "is_disabled": 0, "rental_uris": {"ios": "https://dc.lft.to/lastmile_qr_scan", "android": "https://dc.lft.to/lastmile_qr_scan"}, "bike_id": "cad9d709c12cd4fb5421b282d3fbc221", "lat": 38.902279166666666, "name": "cad9d709c12cd4fb5421b282d3fbc221", "lon": -77.03469783333334, "fusion_lon": 0.0}, {"is_reserved": 0, "type": "electric_scooter", "fusion_lat": 0.0, "is_disabled": 0, "rental_uris": {"ios": "https://dc.lft.to/lastmile_qr_scan", "android": "https://dc.lft.to/lastmile_qr_scan"}, "bike_id": "5f22b2d2b48034dd007d7809095dedcc", "lat": 38.92415033333333, "name": "5f22b2d2b48034dd007d7809095dedcc", "lon": -77.02008383333333, "fusion_lon": 0.0}, {"is_reserved": 0, "type": "electric_scooter", "fusion_lat": 0.0, "is_disabled": 0, "rental_uris": {"ios": "https://dc.lft.to/lastmile_qr_scan", "android": "https://dc.lft.to/lastmile_qr_scan"}, "bike_id": "c799dab1fe33a34046134a913330f6e5", "lat": 38.904315833333335, "name": "c799dab1fe33a34046134a913330f6e5", "lon": -77.05133216666667, "fusion_lon": 0.0}, {"is_reserved": 0, "type": "electric_scooter", "fusion_lat": 0.0, "is_disabled": 0, "rental_uris": {"ios": "https://dc.lft.to/lastmile_qr_scan", "android": "https://dc.lft.to/lastmile_qr_scan"}, "bike_id": "64f9e6b26b88268b62ff4574a9aca80e", "lat": 38.9020455, "name": "64f9e6b26b88268b62ff4574a9aca80e", "lon": -76.99383016666667, "fusion_lon": 0.0}, {"is_reserved": 0, "type": "electric_bike", "fusion_lat": 0.0, "is_disabled": 0, "rental_uris": {"ios": "https://dc.lft.to/lastmile_qr_scan", "android": "https://dc.lft.to/lastmile_qr_scan"}, "bike_id": "8b3b891af28c1ce1a40eb8b4375afb7e", "lat": 38.857838, "name": "8b3b891af28c1ce1a40eb8b4375afb7e", "lon": -76.98764433333334, "fusion_lon": 0.0}, {"is_reserved": 0, "type": "electric_scooter", "fusion_lat": 0.0, "is_disabled": 0, "rental_uris": {"ios": "https://dc.lft.to/lastmile_qr_scan", "android": "https://dc.lft.to/lastmile_qr_scan"}, "bike_id": "c677ef10ab842202374bbd0f6155a275", "lat": 38.882317, "name": "c677ef10ab842202374bbd0f6155a275", "lon": -76.99093416666666, "fusion_lon": 0.0}, {"is_reserved": 0, "type": "electric_bike", "fusion_lat": 0.0, "is_disabled": 0, "rental_uris": {"ios": "https://dc.lft.to/lastmile_qr_scan", "android": "https://dc.lft.to/lastmile_qr_scan"}, "bike_id": "d996a2cc24607479478ff0b0f9a9318e", "lat": 39.005297166666665, "name": "d996a2cc24607479478ff0b0f9a9318e", "lon": -77.10400866666667, "fusion_lon": 0.0}, {"is_reserved": 0, "type": "electric_scooter", "fusion_lat": 0.0, "is_disabled": 0, "rental_uris": {"ios": "https://dc.lft.to/lastmile_qr_scan", "android": "https://dc.lft.to/lastmile_qr_scan"}, "bike_id": "9b96077cbb713945cf6dce915d3fd420", "lat": 38.92969316666667, "name": "9b96077cbb713945cf6dce915d3fd420", "lon": -77.02343016666667, "fusion_lon": 0.0}, {"is_reserved": 0, "type": "electric_scooter", "fusion_lat": 0.0, "is_disabled": 0, "rental_uris": {"ios": "https://dc.lft.to/lastmile_qr_scan", "android": "https://dc.lft.to/lastmile_qr_scan"}, "bike_id": "48b809ff72383809aae39dc40e2fc91a", "lat": 38.88527716666667, "name": "48b809ff72383809aae39dc40e2fc91a", "lon": -76.99612466666666, "fusion_lon": 0.0}, {"is_reserved": 0, "type": "electric_bike", "fusion_lat": 0.0, "is_disabled": 0, "rental_uris": {"ios": "https://dc.lft.to/lastmile_qr_scan", "android": "https://dc.lft.to/lastmile_qr_scan"}, "bike_id": "69feb74a98698ab4651f9e591c2d5122", "lat": 38.87736616666667, "name": "69feb74a98698ab4651f9e591c2d5122", "lon": -77.14871966666666, "fusion_lon": 0.0}, {"is_reserved": 0, "type": "electric_bike", "fusion_lat": 0.0, "is_disabled": 0, "rental_uris": {"ios": "https://dc.lft.to/lastmile_qr_scan", "android": "https://dc.lft.to/lastmile_qr_scan"}, "bike_id": "54fee19d591d0ed7be23032e954f343d", "lat": 38.9117315, "name": "54fee19d591d0ed7be23032e954f343d", "lon": -77.00280416666666, "fusion_lon": 0.0}, {"is_reserved": 0, "type": "electric_bike", "fusion_lat": 0.0, "is_disabled": 0, "rental_uris": {"ios": "https://dc.lft.to/lastmile_qr_scan", "android": "https://dc.lft.to/lastmile_qr_scan"}, "bike_id": "708acd537b57d843ff514c8a34a06464", "lat": 38.86504983333333, "name": "708acd537b57d843ff514c8a34a06464", "lon": -76.97303733333334, "fusion_lon": 0.0}, {"is_reserved": 0, "type": "electric_scooter", "fusion_lat": 0.0, "is_disabled": 0, "rental_uris": {"ios": "https://dc.lft.to/lastmile_qr_scan", "android": "https://dc.lft.to/lastmile_qr_scan"}, "bike_id": "48750ca15f99bf9a535ea7202c0f8a39", "lat": 38.9192395, "name": "48750ca15f99bf9a535ea7202c0f8a39", "lon": -77.0462625, "fusion_lon": 0.0}, {"is_reserved": 0, "type": "electric_scooter", "fusion_lat": 0.0, "is_disabled": 0, "rental_uris": {"ios": "https://dc.lft.to/lastmile_qr_scan", "android": "https://dc.lft.to/lastmile_qr_scan"}, "bike_id": "249b8a563c7feb62ea62c73a12d8b3a2", "lat": 38.907562, "name": "249b8a563c7feb62ea62c73a12d8b3a2", "lon": -77.04515183333334, "fusion_lon": 0.0}, {"is_reserved": 0, "type": "electric_scooter", "fusion_lat": 0.0, "is_disabled": 0, "rental_uris": {"ios": "https://dc.lft.to/lastmile_qr_scan", "android": "https://dc.lft.to/lastmile_qr_scan"}, "bike_id": "fe079cf0e1a14fb964e51318db7f116e", "lat": 38.881027333333336, "name": "fe079cf0e1a14fb964e51318db7f116e", "lon": -77.01236133333333, "fusion_lon": 0.0}, {"is_reserved": 0, "type": "electric_scooter", "fusion_lat": 0.0, "is_disabled": 0, "rental_uris": {"ios": "https://dc.lft.to/lastmile_qr_scan", "android": "https://dc.lft.to/lastmile_qr_scan"}, "bike_id": "54ea139d82d33abd28741d7446258228", "lat": 38.89810083333333, "name": "54ea139d82d33abd28741d7446258228", "lon": -77.03375033333333, "fusion_lon": 0.0}, {"is_reserved": 0, "type": "electric_scooter", "fusion_lat": 0.0, "is_disabled": 0, "rental_uris": {"ios": "https://dc.lft.to/lastmile_qr_scan", "android": "https://dc.lft.to/lastmile_qr_scan"}, "bike_id": "6874114f92f7e065cf8432f181a99c1d", "lat": 38.90910566666667, "name": "6874114f92f7e065cf8432f181a99c1d", "lon": -76.9840375, "fusion_lon": 0.0}, {"is_reserved": 0, "type": "electric_scooter", "fusion_lat": 0.0, "is_disabled": 0, "rental_uris": {"ios": "https://dc.lft.to/lastmile_qr_scan", "android": "https://dc.lft.to/lastmile_qr_scan"}, "bike_id": "cdc61b76ece8e23e7464bc14acc5a92d", "lat": 38.87827983333333, "name": "cdc61b76ece8e23e7464bc14acc5a92d", "lon": -77.00861983333333, "fusion_lon": 0.0}, {"is_reserved": 0, "type": "electric_scooter", "fusion_lat": 0.0, "is_disabled": 0, "rental_uris": {"ios": "https://dc.lft.to/lastmile_qr_scan", "android": "https://dc.lft.to/lastmile_qr_scan"}, "bike_id": "85f9c2c1f14ed123725628271b8737ae", "lat": 38.914160833333334, "name": "85f9c2c1f14ed123725628271b8737ae", "lon": -77.0333515, "fusion_lon": 0.0}, {"is_reserved": 0, "type": "electric_scooter", "fusion_lat": 0.0, "is_disabled": 0, "rental_uris": {"ios": "https://dc.lft.to/lastmile_qr_scan", "android": "https://dc.lft.to/lastmile_qr_scan"}, "bike_id": "4319567e1faab84c3c91f720724e6e93", "lat": 38.894445, "name": "4319567e1faab84c3c91f720724e6e93", "lon": -77.00132533333333, "fusion_lon": 0.0}, {"is_reserved": 0, "type": "electric_scooter", "fusion_lat": 0.0, "is_disabled": 0, "rental_uris": {"ios": "https://dc.lft.to/lastmile_qr_scan", "android": "https://dc.lft.to/lastmile_qr_scan"}, "bike_id": "45e5714955f7b68f782a219b29e2a530", "lat": 38.89228116666666, "name": "45e5714955f7b68f782a219b29e2a530", "lon": -77.01536183333333, "fusion_lon": 0.0}, {"is_reserved": 0, "type": "electric_scooter", "fusion_lat": 0.0, "is_disabled": 0, "rental_uris": {"ios": "https://dc.lft.to/lastmile_qr_scan", "android": "https://dc.lft.to/lastmile_qr_scan"}, "bike_id": "74976174da5ad2b6943b733c0ee6909e", "lat": 38.922061, "name": "74976174da5ad2b6943b733c0ee6909e", "lon": -77.01847566666666, "fusion_lon": 0.0}, {"is_reserved": 0, "type": "electric_scooter", "fusion_lat": 0.0, "is_disabled": 0, "rental_uris": {"ios": "https://dc.lft.to/lastmile_qr_scan", "android": "https://dc.lft.to/lastmile_qr_scan"}, "bike_id": "f92ab10a0ec765db254712f6dafa7e99", "lat": 38.904535, "name": "f92ab10a0ec765db254712f6dafa7e99", "lon": -76.93277683333334, "fusion_lon": 0.0}, {"is_reserved": 0, "type": "electric_scooter", "fusion_lat": 0.0, "is_disabled": 0, "rental_uris": {"ios": "https://dc.lft.to/lastmile_qr_scan", "android": "https://dc.lft.to/lastmile_qr_scan"}, "bike_id": "738e79c307349326660f5e2d22f7e943", "lat": 38.944914, "name": "738e79c307349326660f5e2d22f7e943", "lon": -77.00735166666666, "fusion_lon": 0.0}, {"is_reserved": 0, "type": "electric_scooter", "fusion_lat": 0.0, "is_disabled": 0, "rental_uris": {"ios": "https://dc.lft.to/lastmile_qr_scan", "android": "https://dc.lft.to/lastmile_qr_scan"}, "bike_id": "525e4843a1089824b5eca1401b54ba2c", "lat": 38.910398666666666, "name": "525e4843a1089824b5eca1401b54ba2c", "lon": -77.01667816666667, "fusion_lon": 0.0}, {"is_reserved": 0, "type": "electric_scooter", "fusion_lat": 0.0, "is_disabled": 0, "rental_uris": {"ios": "https://dc.lft.to/lastmile_qr_scan", "android": "https://dc.lft.to/lastmile_qr_scan"}, "bike_id": "c0234a1cafd82e494b9b1aaafa223120", "lat": 38.9056495, "name": "c0234a1cafd82e494b9b1aaafa223120", "lon": -77.03846366666667, "fusion_lon": 0.0}, {"is_reserved": 0, "type": "electric_scooter", "fusion_lat": 0.0, "is_disabled": 0, "rental_uris": {"ios": "https://dc.lft.to/lastmile_qr_scan", "android": "https://dc.lft.to/lastmile_qr_scan"}, "bike_id": "721ad16e134d52d14f13feddad7992fb", "lat": 38.89823116666667, "name": "721ad16e134d52d14f13feddad7992fb", "lon": -77.02978016666667, "fusion_lon": 0.0}, {"is_reserved": 0, "type": "electric_scooter", "fusion_lat": 0.0, "is_disabled": 0, "rental_uris": {"ios": "https://dc.lft.to/lastmile_qr_scan", "android": "https://dc.lft.to/lastmile_qr_scan"}, "bike_id": "858293eefb8f24679800fe33a4a75dad", "lat": 38.9169445, "name": "858293eefb8f24679800fe33a4a75dad", "lon": -77.05298633333334, "fusion_lon": 0.0}, {"is_reserved": 0, "type": "electric_scooter", "fusion_lat": 0.0, "is_disabled": 0, "rental_uris": {"ios": "https://dc.lft.to/lastmile_qr_scan", "android": "https://dc.lft.to/lastmile_qr_scan"}, "bike_id": "add46af93bf33811b9e9fd4efaebf29a", "lat": 38.9077565, "name": "add46af93bf33811b9e9fd4efaebf29a", "lon": -77.07170816666667, "fusion_lon": 0.0}, {"is_reserved": 0, "type": "electric_bike", "fusion_lat": 0.0, "is_disabled": 0, "rental_uris": {"ios": "https://dc.lft.to/lastmile_qr_scan", "android": "https://dc.lft.to/lastmile_qr_scan"}, "bike_id": "f774a301704c37545d5638964ed48a6a", "lat": 38.82205883333334, "name": "f774a301704c37545d5638964ed48a6a", "lon": -76.97702783333334, "fusion_lon": 0.0}, {"is_reserved": 0, "type": "electric_scooter", "fusion_lat": 0.0, "is_disabled": 0, "rental_uris": {"ios": "https://dc.lft.to/lastmile_qr_scan", "android": "https://dc.lft.to/lastmile_qr_scan"}, "bike_id": "1b67d6a0057e1838f36551f6d56b9bd4", "lat": 38.915327833333336, "name": "1b67d6a0057e1838f36551f6d56b9bd4", "lon": -77.012682, "fusion_lon": 0.0}, {"is_reserved": 0, "type": "electric_scooter", "fusion_lat": 0.0, "is_disabled": 0, "rental_uris": {"ios": "https://dc.lft.to/lastmile_qr_scan", "android": "https://dc.lft.to/lastmile_qr_scan"}, "bike_id": "55173594c38c257d4041d14afdc4c6ac", "lat": 38.921626333333336, "name": "55173594c38c257d4041d14afdc4c6ac", "lon": -77.0338595, "fusion_lon": 0.0}, {"is_reserved": 0, "type": "electric_scooter", "fusion_lat": 0.0, "is_disabled": 0, "rental_uris": {"ios": "https://dc.lft.to/lastmile_qr_scan", "android": "https://dc.lft.to/lastmile_qr_scan"}, "bike_id": "fcc4b926a39ed0501623fa6d75af11ec", "lat": 38.90963433333334, "name": "fcc4b926a39ed0501623fa6d75af11ec", "lon": -77.02281116666667, "fusion_lon": 0.0}, {"is_reserved": 0, "type": "electric_scooter", "fusion_lat": 0.0, "is_disabled": 0, "rental_uris": {"ios": "https://dc.lft.to/lastmile_qr_scan", "android": "https://dc.lft.to/lastmile_qr_scan"}, "bike_id": "3dcc8cb4392519ee68ee7598bcb9e98f", "lat": 38.93485483333333, "name": "3dcc8cb4392519ee68ee7598bcb9e98f", "lon": -77.0732775, "fusion_lon": 0.0}, {"is_reserved": 0, "type": "electric_bike", "fusion_lat": 0.0, "is_disabled": 0, "rental_uris": {"ios": "https://dc.lft.to/lastmile_qr_scan", "android": "https://dc.lft.to/lastmile_qr_scan"}, "bike_id": "1649114fe3468a9d88cfd4283f8d2572", "lat": 38.9747435, "name": "1649114fe3468a9d88cfd4283f8d2572", "lon": -76.98673466666666, "fusion_lon": 0.0}, {"is_reserved": 0, "type": "electric_bike", "fusion_lat": 0.0, "is_disabled": 0, "rental_uris": {"ios": "https://dc.lft.to/lastmile_qr_scan", "android": "https://dc.lft.to/lastmile_qr_scan"}, "bike_id": "d85631c68a373b19f9322504b5b4c313", "lat": 38.87833883333333, "name": "d85631c68a373b19f9322504b5b4c313", "lon": -77.00879866666666, "fusion_lon": 0.0}, {"is_reserved": 0, "type": "electric_bike", "fusion_lat": 0.0, "is_disabled": 0, "rental_uris": {"ios": "https://dc.lft.to/lastmile_qr_scan", "android": "https://dc.lft.to/lastmile_qr_scan"}, "bike_id": "d03e44820920d665791967cfe23811ea", "lat": 38.840889, "name": "d03e44820920d665791967cfe23811ea", "lon": -76.97026633333333, "fusion_lon": 0.0}, {"is_reserved": 0, "type": "electric_bike", "fusion_lat": 0.0, "is_disabled": 0, "rental_uris": {"ios": "https://dc.lft.to/lastmile_qr_scan", "android": "https://dc.lft.to/lastmile_qr_scan"}, "bike_id": "1f8276419a01cbcba5b65f028ab0cfdd", "lat": 39.0229165, "name": "1f8276419a01cbcba5b65f028ab0cfdd", "lon": -77.02107116666667, "fusion_lon": 0.0}, {"is_reserved": 0, "type": "electric_scooter", "fusion_lat": 0.0, "is_disabled": 0, "rental_uris": {"ios": "https://dc.lft.to/lastmile_qr_scan", "android": "https://dc.lft.to/lastmile_qr_scan"}, "bike_id": "a6673d259b6bba893ab08cc0d63f28f5", "lat": 38.9065535, "name": "a6673d259b6bba893ab08cc0d63f28f5", "lon": -77.0162195, "fusion_lon": 0.0}, {"is_reserved": 0, "type": "electric_scooter", "fusion_lat": 0.0, "is_disabled": 0, "rental_uris": {"ios": "https://dc.lft.to/lastmile_qr_scan", "android": "https://dc.lft.to/lastmile_qr_scan"}, "bike_id": "316f83e54e55ddb25ddfc8abf9bc2cc7", "lat": 38.89836483333333, "name": "316f83e54e55ddb25ddfc8abf9bc2cc7", "lon": -77.01878583333334, "fusion_lon": 0.0}, {"is_reserved": 0, "type": "electric_bike", "fusion_lat": 0.0, "is_disabled": 0, "rental_uris": {"ios": "https://dc.lft.to/lastmile_qr_scan", "android": "https://dc.lft.to/lastmile_qr_scan"}, "bike_id": "bf08e640d57f188778d6ea17c4d62201", "lat": 38.83482716666666, "name": "bf08e640d57f188778d6ea17c4d62201", "lon": -77.004352, "fusion_lon": 0.0}, {"is_reserved": 0, "type": "electric_scooter", "fusion_lat": 0.0, "is_disabled": 0, "rental_uris": {"ios": "https://dc.lft.to/lastmile_qr_scan", "android": "https://dc.lft.to/lastmile_qr_scan"}, "bike_id": "8908c76cc601470630387e57d4adce9b", "lat": 38.898557833333335, "name": "8908c76cc601470630387e57d4adce9b", "lon": -77.00194533333334, "fusion_lon": 0.0}, {"is_reserved": 0, "type": "electric_bike", "fusion_lat": 0.0, "is_disabled": 0, "rental_uris": {"ios": "https://dc.lft.to/lastmile_qr_scan", "android": "https://dc.lft.to/lastmile_qr_scan"}, "bike_id": "129127309fcba8bb0221aedf9241395f", "lat": 38.9012515, "name": "129127309fcba8bb0221aedf9241395f", "lon": -76.9963195, "fusion_lon": 0.0}, {"is_reserved": 0, "type": "electric_scooter", "fusion_lat": 0.0, "is_disabled": 0, "rental_uris": {"ios": "https://dc.lft.to/lastmile_qr_scan", "android": "https://dc.lft.to/lastmile_qr_scan"}, "bike_id": "0bcc8f85d947467f370e80ce8194c2d9", "lat": 38.91702133333333, "name": "0bcc8f85d947467f370e80ce8194c2d9", "lon": -77.0417545, "fusion_lon": 0.0}, {"is_reserved": 0, "type": "electric_scooter", "fusion_lat": 0.0, "is_disabled": 0, "rental_uris": {"ios": "https://dc.lft.to/lastmile_qr_scan", "android": "https://dc.lft.to/lastmile_qr_scan"}, "bike_id": "bd0d8b2230b102e250edc4c8dbb25a43", "lat": 38.914114, "name": "bd0d8b2230b102e250edc4c8dbb25a43", "lon": -77.04570383333333, "fusion_lon": 0.0}, {"is_reserved": 0, "type": "electric_bike", "fusion_lat": 0.0, "is_disabled": 0, "rental_uris": {"ios": "https://dc.lft.to/lastmile_qr_scan", "android": "https://dc.lft.to/lastmile_qr_scan"}, "bike_id": "253f4fe2330cad2dd75e66c5ae81f386", "lat": 38.9822045, "name": "253f4fe2330cad2dd75e66c5ae81f386", "lon": -77.09573416666667, "fusion_lon": 0.0}, {"is_reserved": 0, "type": "electric_scooter", "fusion_lat": 0.0, "is_disabled": 0, "rental_uris": {"ios": "https://dc.lft.to/lastmile_qr_scan", "android": "https://dc.lft.to/lastmile_qr_scan"}, "bike_id": "5741d136151e89d2a03e9e19f2aa3bb4", "lat": 38.89198283333333, "name": "5741d136151e89d2a03e9e19f2aa3bb4", "lon": -77.02364683333333, "fusion_lon": 0.0}, {"is_reserved": 0, "type": "electric_scooter", "fusion_lat": 0.0, "is_disabled": 0, "rental_uris": {"ios": "https://dc.lft.to/lastmile_qr_scan", "android": "https://dc.lft.to/lastmile_qr_scan"}, "bike_id": "6e7aea76dd72aa72c717bebd48616265", "lat": 38.920636333333334, "name": "6e7aea76dd72aa72c717bebd48616265", "lon": -77.03458766666667, "fusion_lon": 0.0}, {"is_reserved": 0, "type": "electric_bike", "fusion_lat": 0.0, "is_disabled": 0, "rental_uris": {"ios": "https://dc.lft.to/lastmile_qr_scan", "android": "https://dc.lft.to/lastmile_qr_scan"}, "bike_id": "aad3de21dfbd368e20a89cad99f4df6d", "lat": 38.875798, "name": "aad3de21dfbd368e20a89cad99f4df6d", "lon": -77.23411066666667, "fusion_lon": 0.0}, {"is_reserved": 0, "type": "electric_scooter", "fusion_lat": 0.0, "is_disabled": 0, "rental_uris": {"ios": "https://dc.lft.to/lastmile_qr_scan", "android": "https://dc.lft.to/lastmile_qr_scan"}, "bike_id": "61ffdbe48811eaf718ec564a6ea69983", "lat": 38.917045, "name": "61ffdbe48811eaf718ec564a6ea69983", "lon": -77.0417175, "fusion_lon": 0.0}, {"is_reserved": 0, "type": "electric_scooter", "fusion_lat": 0.0, "is_disabled": 0, "rental_uris": {"ios": "https://dc.lft.to/lastmile_qr_scan", "android": "https://dc.lft.to/lastmile_qr_scan"}, "bike_id": "32538ac0769267d5dcb4dfe558533a49", "lat": 38.90204966666667, "name": "32538ac0769267d5dcb4dfe558533a49", "lon": -76.990195, "fusion_lon": 0.0}, {"is_reserved": 0, "type": "electric_scooter", "fusion_lat": 0.0, "is_disabled": 0, "rental_uris": {"ios": "https://dc.lft.to/lastmile_qr_scan", "android": "https://dc.lft.to/lastmile_qr_scan"}, "bike_id": "a0ac42a87a8e059c09eba29682b42e10", "lat": 38.893282, "name": "a0ac42a87a8e059c09eba29682b42e10", "lon": -76.93930266666666, "fusion_lon": 0.0}, {"is_reserved": 0, "type": "electric_scooter", "fusion_lat": 0.0, "is_disabled": 0, "rental_uris": {"ios": "https://dc.lft.to/lastmile_qr_scan", "android": "https://dc.lft.to/lastmile_qr_scan"}, "bike_id": "ecf5b5a1b1cdd536fe012f1d57ab5125", "lat": 38.908498333333334, "name": "ecf5b5a1b1cdd536fe012f1d57ab5125", "lon": -77.02460966666666, "fusion_lon": 0.0}, {"is_reserved": 0, "type": "electric_scooter", "fusion_lat": 0.0, "is_disabled": 0, "rental_uris": {"ios": "https://dc.lft.to/lastmile_qr_scan", "android": "https://dc.lft.to/lastmile_qr_scan"}, "bike_id": "1194ecf6a0852d7777020eb03cfbaf2a", "lat": 38.8706545, "name": "1194ecf6a0852d7777020eb03cfbaf2a", "lon": -76.98125516666667, "fusion_lon": 0.0}, {"is_reserved": 0, "type": "electric_scooter", "fusion_lat": 0.0, "is_disabled": 0, "rental_uris": {"ios": "https://dc.lft.to/lastmile_qr_scan", "android": "https://dc.lft.to/lastmile_qr_scan"}, "bike_id": "67e4f684102b00c3a89f4661b85b10ff", "lat": 38.894799166666665, "name": "67e4f684102b00c3a89f4661b85b10ff", "lon": -76.948713, "fusion_lon": 0.0}, {"is_reserved": 0, "type": "electric_scooter", "fusion_lat": 0.0, "is_disabled": 0, "rental_uris": {"ios": "https://dc.lft.to/lastmile_qr_scan", "android": "https://dc.lft.to/lastmile_qr_scan"}, "bike_id": "bdc62a050689cf5fb454b4d34fd94a7b", "lat": 38.90696633333334, "name": "bdc62a050689cf5fb454b4d34fd94a7b", "lon": -77.046708, "fusion_lon": 0.0}, {"is_reserved": 0, "type": "electric_bike", "fusion_lat": 0.0, "is_disabled": 0, "rental_uris": {"ios": "https://dc.lft.to/lastmile_qr_scan", "android": "https://dc.lft.to/lastmile_qr_scan"}, "bike_id": "aa12ea1863411edd5e7147840165f9b2", "lat": 38.898323, "name": "aa12ea1863411edd5e7147840165f9b2", "lon": -76.94277333333334, "fusion_lon": 0.0}, {"is_reserved": 0, "type": "electric_scooter", "fusion_lat": 0.0, "is_disabled": 0, "rental_uris": {"ios": "https://dc.lft.to/lastmile_qr_scan", "android": "https://dc.lft.to/lastmile_qr_scan"}, "bike_id": "6224e56a88a9e00fd34f9d21372d2b36", "lat": 38.87691266666667, "name": "6224e56a88a9e00fd34f9d21372d2b36", "lon": -76.99623433333333, "fusion_lon": 0.0}, {"is_reserved": 0, "type": "electric_bike", "fusion_lat": 0.0, "is_disabled": 0, "rental_uris": {"ios": "https://dc.lft.to/lastmile_qr_scan", "android": "https://dc.lft.to/lastmile_qr_scan"}, "bike_id": "31fb035063c494008e0af1424e21cbf4", "lat": 38.88111633333333, "name": "31fb035063c494008e0af1424e21cbf4", "lon": -77.016648, "fusion_lon": 0.0}, {"is_reserved": 0, "type": "electric_scooter", "fusion_lat": 0.0, "is_disabled": 0, "rental_uris": {"ios": "https://dc.lft.to/lastmile_qr_scan", "android": "https://dc.lft.to/lastmile_qr_scan"}, "bike_id": "21d42404e998db3f35c21445fd0827dd", "lat": 38.93873, "name": "21d42404e998db3f35c21445fd0827dd", "lon": -77.02925166666667, "fusion_lon": 0.0}, {"is_reserved": 0, "type": "electric_scooter", "fusion_lat": 0.0, "is_disabled": 0, "rental_uris": {"ios": "https://dc.lft.to/lastmile_qr_scan", "android": "https://dc.lft.to/lastmile_qr_scan"}, "bike_id": "47e7ae5b43964cc74762b6ed979ed4d7", "lat": 38.9221625, "name": "47e7ae5b43964cc74762b6ed979ed4d7", "lon": -77.03897733333334, "fusion_lon": 0.0}, {"is_reserved": 0, "type": "electric_scooter", "fusion_lat": 0.0, "is_disabled": 0, "rental_uris": {"ios": "https://dc.lft.to/lastmile_qr_scan", "android": "https://dc.lft.to/lastmile_qr_scan"}, "bike_id": "ff6b7f30b9ae5cc52a7f7ee35066e8cf", "lat": 38.92114016666667, "name": "ff6b7f30b9ae5cc52a7f7ee35066e8cf", "lon": -77.03182883333334, "fusion_lon": 0.0}, {"is_reserved": 0, "type": "electric_scooter", "fusion_lat": 0.0, "is_disabled": 0, "rental_uris": {"ios": "https://dc.lft.to/lastmile_qr_scan", "android": "https://dc.lft.to/lastmile_qr_scan"}, "bike_id": "ff54576b78e7b71c6e907f3198f95ebe", "lat": 38.874437666666665, "name": "ff54576b78e7b71c6e907f3198f95ebe", "lon": -77.00273633333333, "fusion_lon": 0.0}, {"is_reserved": 0, "type": "electric_bike", "fusion_lat": 0.0, "is_disabled": 0, "rental_uris": {"ios": "https://dc.lft.to/lastmile_qr_scan", "android": "https://dc.lft.to/lastmile_qr_scan"}, "bike_id": "ab9d60a27027e9bdb73ae28db53980a0", "lat": 38.844710166666665, "name": "ab9d60a27027e9bdb73ae28db53980a0", "lon": -76.99602033333333, "fusion_lon": 0.0}, {"is_reserved": 0, "type": "electric_scooter", "fusion_lat": 0.0, "is_disabled": 0, "rental_uris": {"ios": "https://dc.lft.to/lastmile_qr_scan", "android": "https://dc.lft.to/lastmile_qr_scan"}, "bike_id": "11e1a46b82be20901605e6e9428d1679", "lat": 38.920775166666665, "name": "11e1a46b82be20901605e6e9428d1679", "lon": -77.02505033333334, "fusion_lon": 0.0}, {"is_reserved": 0, "type": "electric_scooter", "fusion_lat": 0.0, "is_disabled": 0, "rental_uris": {"ios": "https://dc.lft.to/lastmile_qr_scan", "android": "https://dc.lft.to/lastmile_qr_scan"}, "bike_id": "7a1c43627d93ab93f7c47784c37457f9", "lat": 38.9228185, "name": "7a1c43627d93ab93f7c47784c37457f9", "lon": -77.03657216666667, "fusion_lon": 0.0}, {"is_reserved": 0, "type": "electric_scooter", "fusion_lat": 0.0, "is_disabled": 0, "rental_uris": {"ios": "https://dc.lft.to/lastmile_qr_scan", "android": "https://dc.lft.to/lastmile_qr_scan"}, "bike_id": "fcad7befdd232e6ac31d096d384ab2e8", "lat": 38.897252, "name": "fcad7befdd232e6ac31d096d384ab2e8", "lon": -77.04365683333333, "fusion_lon": 0.0}, {"is_reserved": 0, "type": "electric_scooter", "fusion_lat": 0.0, "is_disabled": 0, "rental_uris": {"ios": "https://dc.lft.to/lastmile_qr_scan", "android": "https://dc.lft.to/lastmile_qr_scan"}, "bike_id": "3bcba167a2090bba548e759187516157", "lat": 38.93048, "name": "3bcba167a2090bba548e759187516157", "lon": -77.03203783333333, "fusion_lon": 0.0}, {"is_reserved": 0, "type": "electric_bike", "fusion_lat": 0.0, "is_disabled": 0, "rental_uris": {"ios": "https://dc.lft.to/lastmile_qr_scan", "android": "https://dc.lft.to/lastmile_qr_scan"}, "bike_id": "2a79db59ee4697bfd69b9fa2fc1b8f59", "lat": 38.920339, "name": "2a79db59ee4697bfd69b9fa2fc1b8f59", "lon": -76.97957, "fusion_lon": 0.0}, {"is_reserved": 0, "type": "electric_scooter", "fusion_lat": 0.0, "is_disabled": 0, "rental_uris": {"ios": "https://dc.lft.to/lastmile_qr_scan", "android": "https://dc.lft.to/lastmile_qr_scan"}, "bike_id": "32e57205a2ada00d6ba73d67eae1aee4", "lat": 38.939688, "name": "32e57205a2ada00d6ba73d67eae1aee4", "lon": -77.03427866666667, "fusion_lon": 0.0}, {"is_reserved": 0, "type": "electric_scooter", "fusion_lat": 0.0, "is_disabled": 0, "rental_uris": {"ios": "https://dc.lft.to/lastmile_qr_scan", "android": "https://dc.lft.to/lastmile_qr_scan"}, "bike_id": "fee44785138f1762af2a3f3f663cae9c", "lat": 38.895298333333336, "name": "fee44785138f1762af2a3f3f663cae9c", "lon": -77.02943766666667, "fusion_lon": 0.0}, {"is_reserved": 0, "type": "electric_scooter", "fusion_lat": 0.0, "is_disabled": 0, "rental_uris": {"ios": "https://dc.lft.to/lastmile_qr_scan", "android": "https://dc.lft.to/lastmile_qr_scan"}, "bike_id": "04089df02225d48cbf1859a15705dc48", "lat": 38.9146045, "name": "04089df02225d48cbf1859a15705dc48", "lon": -77.03214466666667, "fusion_lon": 0.0}, {"is_reserved": 0, "type": "electric_scooter", "fusion_lat": 0.0, "is_disabled": 0, "rental_uris": {"ios": "https://dc.lft.to/lastmile_qr_scan", "android": "https://dc.lft.to/lastmile_qr_scan"}, "bike_id": "34b8c39a13ecb245b3ce2bd333fe082b", "lat": 38.92074066666667, "name": "34b8c39a13ecb245b3ce2bd333fe082b", "lon": -77.0251305, "fusion_lon": 0.0}, {"is_reserved": 0, "type": "electric_scooter", "fusion_lat": 0.0, "is_disabled": 0, "rental_uris": {"ios": "https://dc.lft.to/lastmile_qr_scan", "android": "https://dc.lft.to/lastmile_qr_scan"}, "bike_id": "3c2110c6b7757a496baab9f6490424fa", "lat": 38.916971333333336, "name": "3c2110c6b7757a496baab9f6490424fa", "lon": -77.092146, "fusion_lon": 0.0}, {"is_reserved": 0, "type": "electric_bike", "fusion_lat": 0.0, "is_disabled": 0, "rental_uris": {"ios": "https://dc.lft.to/lastmile_qr_scan", "android": "https://dc.lft.to/lastmile_qr_scan"}, "bike_id": "c5206cd88a673d6c207cba7e697813ca", "lat": 38.83294766666667, "name": "c5206cd88a673d6c207cba7e697813ca", "lon": -77.08414066666667, "fusion_lon": 0.0}, {"is_reserved": 0, "type": "electric_scooter", "fusion_lat": 0.0, "is_disabled": 0, "rental_uris": {"ios": "https://dc.lft.to/lastmile_qr_scan", "android": "https://dc.lft.to/lastmile_qr_scan"}, "bike_id": "567363c07ea46373b7f94a510ad4d874", "lat": 38.9326165, "name": "567363c07ea46373b7f94a510ad4d874", "lon": -77.028652, "fusion_lon": 0.0}, {"is_reserved": 0, "type": "electric_scooter", "fusion_lat": 0.0, "is_disabled": 0, "rental_uris": {"ios": "https://dc.lft.to/lastmile_qr_scan", "android": "https://dc.lft.to/lastmile_qr_scan"}, "bike_id": "61528fc225fd5724e4dafb8fd8e49b74", "lat": 38.898441, "name": "61528fc225fd5724e4dafb8fd8e49b74", "lon": -76.9274635, "fusion_lon": 0.0}, {"is_reserved": 0, "type": "electric_scooter", "fusion_lat": 0.0, "is_disabled": 0, "rental_uris": {"ios": "https://dc.lft.to/lastmile_qr_scan", "android": "https://dc.lft.to/lastmile_qr_scan"}, "bike_id": "f3ad205567b3245a7f9624913d0edb13", "lat": 38.921408166666666, "name": "f3ad205567b3245a7f9624913d0edb13", "lon": -77.046945, "fusion_lon": 0.0}, {"is_reserved": 0, "type": "electric_scooter", "fusion_lat": 0.0, "is_disabled": 0, "rental_uris": {"ios": "https://dc.lft.to/lastmile_qr_scan", "android": "https://dc.lft.to/lastmile_qr_scan"}, "bike_id": "ef11a526fa793a035c180f9f9d58944e", "lat": 38.91674533333333, "name": "ef11a526fa793a035c180f9f9d58944e", "lon": -77.02964083333333, "fusion_lon": 0.0}, {"is_reserved": 0, "type": "electric_scooter", "fusion_lat": 0.0, "is_disabled": 0, "rental_uris": {"ios": "https://dc.lft.to/lastmile_qr_scan", "android": "https://dc.lft.to/lastmile_qr_scan"}, "bike_id": "393566e61dd3441bb1c1b1274d0156e7", "lat": 38.888390333333334, "name": "393566e61dd3441bb1c1b1274d0156e7", "lon": -77.0490505, "fusion_lon": 0.0}, {"is_reserved": 0, "type": "electric_scooter", "fusion_lat": 0.0, "is_disabled": 0, "rental_uris": {"ios": "https://dc.lft.to/lastmile_qr_scan", "android": "https://dc.lft.to/lastmile_qr_scan"}, "bike_id": "2eaaa764c15d40ffeb31a064583077d4", "lat": 38.915584, "name": "2eaaa764c15d40ffeb31a064583077d4", "lon": -77.03232783333333, "fusion_lon": 0.0}, {"is_reserved": 0, "type": "electric_scooter", "fusion_lat": 0.0, "is_disabled": 0, "rental_uris": {"ios": "https://dc.lft.to/lastmile_qr_scan", "android": "https://dc.lft.to/lastmile_qr_scan"}, "bike_id": "b391640498b0a92f403eb7c0003d4ca7", "lat": 38.894395833333334, "name": "b391640498b0a92f403eb7c0003d4ca7", "lon": -77.02200683333334, "fusion_lon": 0.0}, {"is_reserved": 0, "type": "electric_bike", "fusion_lat": 0.0, "is_disabled": 0, "rental_uris": {"ios": "https://dc.lft.to/lastmile_qr_scan", "android": "https://dc.lft.to/lastmile_qr_scan"}, "bike_id": "46df4b2a82357f8034e2528e1c52e646", "lat": 38.90427566666666, "name": "46df4b2a82357f8034e2528e1c52e646", "lon": -76.97228433333333, "fusion_lon": 0.0}, {"is_reserved": 0, "type": "electric_scooter", "fusion_lat": 0.0, "is_disabled": 0, "rental_uris": {"ios": "https://dc.lft.to/lastmile_qr_scan", "android": "https://dc.lft.to/lastmile_qr_scan"}, "bike_id": "9ee8612ca8d08ae8b9e653ea764857a8", "lat": 38.914105, "name": "9ee8612ca8d08ae8b9e653ea764857a8", "lon": -77.03470866666666, "fusion_lon": 0.0}, {"is_reserved": 0, "type": "electric_scooter", "fusion_lat": 0.0, "is_disabled": 0, "rental_uris": {"ios": "https://dc.lft.to/lastmile_qr_scan", "android": "https://dc.lft.to/lastmile_qr_scan"}, "bike_id": "1d345f5430c210236cd492a9d20a1408", "lat": 38.89169233333333, "name": "1d345f5430c210236cd492a9d20a1408", "lon": -77.01551066666667, "fusion_lon": 0.0}, {"is_reserved": 0, "type": "electric_scooter", "fusion_lat": 0.0, "is_disabled": 0, "rental_uris": {"ios": "https://dc.lft.to/lastmile_qr_scan", "android": "https://dc.lft.to/lastmile_qr_scan"}, "bike_id": "60874fc3eb6818659bafacc7b4ea4639", "lat": 38.90302116666667, "name": "60874fc3eb6818659bafacc7b4ea4639", "lon": -77.0213395, "fusion_lon": 0.0}, {"is_reserved": 0, "type": "electric_scooter", "fusion_lat": 0.0, "is_disabled": 0, "rental_uris": {"ios": "https://dc.lft.to/lastmile_qr_scan", "android": "https://dc.lft.to/lastmile_qr_scan"}, "bike_id": "dae23805231a78c195e6d61e042bc95a", "lat": 38.9141675, "name": "dae23805231a78c195e6d61e042bc95a", "lon": -77.044933, "fusion_lon": 0.0}, {"is_reserved": 0, "type": "electric_scooter", "fusion_lat": 0.0, "is_disabled": 0, "rental_uris": {"ios": "https://dc.lft.to/lastmile_qr_scan", "android": "https://dc.lft.to/lastmile_qr_scan"}, "bike_id": "32370e0053fa9cce12d228501230fafe", "lat": 38.90054466666667, "name": "32370e0053fa9cce12d228501230fafe", "lon": -77.01779766666667, "fusion_lon": 0.0}, {"is_reserved": 0, "type": "electric_scooter", "fusion_lat": 0.0, "is_disabled": 0, "rental_uris": {"ios": "https://dc.lft.to/lastmile_qr_scan", "android": "https://dc.lft.to/lastmile_qr_scan"}, "bike_id": "5f884c20fbeea0942524c3b224a6fbd4", "lat": 38.920789666666664, "name": "5f884c20fbeea0942524c3b224a6fbd4", "lon": -77.0239325, "fusion_lon": 0.0}, {"is_reserved": 0, "type": "electric_scooter", "fusion_lat": 0.0, "is_disabled": 0, "rental_uris": {"ios": "https://dc.lft.to/lastmile_qr_scan", "android": "https://dc.lft.to/lastmile_qr_scan"}, "bike_id": "22d03cc05d7f81ffea790baec3963288", "lat": 38.90780383333333, "name": "22d03cc05d7f81ffea790baec3963288", "lon": -77.06842033333334, "fusion_lon": 0.0}, {"is_reserved": 0, "type": "electric_scooter", "fusion_lat": 0.0, "is_disabled": 0, "rental_uris": {"ios": "https://dc.lft.to/lastmile_qr_scan", "android": "https://dc.lft.to/lastmile_qr_scan"}, "bike_id": "6bb4ed528349a557428fe27064d828ef", "lat": 38.9054355, "name": "6bb4ed528349a557428fe27064d828ef", "lon": -77.05692466666666, "fusion_lon": 0.0}, {"is_reserved": 0, "type": "electric_scooter", "fusion_lat": 0.0, "is_disabled": 0, "rental_uris": {"ios": "https://dc.lft.to/lastmile_qr_scan", "android": "https://dc.lft.to/lastmile_qr_scan"}, "bike_id": "aa3b27cf993eb287a390f0a5369e4370", "lat": 38.919176666666665, "name": "aa3b27cf993eb287a390f0a5369e4370", "lon": -77.00979416666667, "fusion_lon": 0.0}, {"is_reserved": 0, "type": "electric_scooter", "fusion_lat": 0.0, "is_disabled": 0, "rental_uris": {"ios": "https://dc.lft.to/lastmile_qr_scan", "android": "https://dc.lft.to/lastmile_qr_scan"}, "bike_id": "65cdf3861096e662bfe0821b728268f8", "lat": 38.897289, "name": "65cdf3861096e662bfe0821b728268f8", "lon": -77.01048366666667, "fusion_lon": 0.0}, {"is_reserved": 0, "type": "electric_scooter", "fusion_lat": 0.0, "is_disabled": 0, "rental_uris": {"ios": "https://dc.lft.to/lastmile_qr_scan", "android": "https://dc.lft.to/lastmile_qr_scan"}, "bike_id": "de9a96d9817beb8de131f01f1798b028", "lat": 38.91559083333333, "name": "de9a96d9817beb8de131f01f1798b028", "lon": -77.03139833333333, "fusion_lon": 0.0}, {"is_reserved": 0, "type": "electric_scooter", "fusion_lat": 0.0, "is_disabled": 0, "rental_uris": {"ios": "https://dc.lft.to/lastmile_qr_scan", "android": "https://dc.lft.to/lastmile_qr_scan"}, "bike_id": "04a75b1145f15d1ac5690adedc0f9924", "lat": 38.94312133333333, "name": "04a75b1145f15d1ac5690adedc0f9924", "lon": -77.01724866666666, "fusion_lon": 0.0}, {"is_reserved": 0, "type": "electric_scooter", "fusion_lat": 0.0, "is_disabled": 0, "rental_uris": {"ios": "https://dc.lft.to/lastmile_qr_scan", "android": "https://dc.lft.to/lastmile_qr_scan"}, "bike_id": "7e846417fe76917a3c0dec869b660a91", "lat": 38.90710283333333, "name": "7e846417fe76917a3c0dec869b660a91", "lon": -77.00361183333334, "fusion_lon": 0.0}, {"is_reserved": 0, "type": "electric_scooter", "fusion_lat": 0.0, "is_disabled": 0, "rental_uris": {"ios": "https://dc.lft.to/lastmile_qr_scan", "android": "https://dc.lft.to/lastmile_qr_scan"}, "bike_id": "7591ee539cff2539036b4a05176c84d8", "lat": 38.926788333333334, "name": "7591ee539cff2539036b4a05176c84d8", "lon": -76.9956065, "fusion_lon": 0.0}, {"is_reserved": 0, "type": "electric_scooter", "fusion_lat": 0.0, "is_disabled": 0, "rental_uris": {"ios": "https://dc.lft.to/lastmile_qr_scan", "android": "https://dc.lft.to/lastmile_qr_scan"}, "bike_id": "5a1c3aab5cfbafa732b48b7ab02a2e8b", "lat": 38.9366685, "name": "5a1c3aab5cfbafa732b48b7ab02a2e8b", "lon": -77.0363425, "fusion_lon": 0.0}, {"is_reserved": 0, "type": "electric_scooter", "fusion_lat": 0.0, "is_disabled": 0, "rental_uris": {"ios": "https://dc.lft.to/lastmile_qr_scan", "android": "https://dc.lft.to/lastmile_qr_scan"}, "bike_id": "a3ffc607bbdcd2f84871301824154b75", "lat": 38.92416766666667, "name": "a3ffc607bbdcd2f84871301824154b75", "lon": -77.02037533333333, "fusion_lon": 0.0}, {"is_reserved": 0, "type": "electric_scooter", "fusion_lat": 0.0, "is_disabled": 0, "rental_uris": {"ios": "https://dc.lft.to/lastmile_qr_scan", "android": "https://dc.lft.to/lastmile_qr_scan"}, "bike_id": "3e034888d7373881951c01cc94285d6a", "lat": 38.89619783333333, "name": "3e034888d7373881951c01cc94285d6a", "lon": -77.02849783333333, "fusion_lon": 0.0}, {"is_reserved": 0, "type": "electric_scooter", "fusion_lat": 0.0, "is_disabled": 0, "rental_uris": {"ios": "https://dc.lft.to/lastmile_qr_scan", "android": "https://dc.lft.to/lastmile_qr_scan"}, "bike_id": "9c8e5d71eff23981c40dc4d34f597694", "lat": 38.91650583333333, "name": "9c8e5d71eff23981c40dc4d34f597694", "lon": -77.01027416666666, "fusion_lon": 0.0}, {"is_reserved": 0, "type": "electric_scooter", "fusion_lat": 0.0, "is_disabled": 0, "rental_uris": {"ios": "https://dc.lft.to/lastmile_qr_scan", "android": "https://dc.lft.to/lastmile_qr_scan"}, "bike_id": "20fbe410ce2aba3761c52ca575a10595", "lat": 38.90068133333333, "name": "20fbe410ce2aba3761c52ca575a10595", "lon": -77.04531133333333, "fusion_lon": 0.0}, {"is_reserved": 0, "type": "electric_scooter", "fusion_lat": 0.0, "is_disabled": 0, "rental_uris": {"ios": "https://dc.lft.to/lastmile_qr_scan", "android": "https://dc.lft.to/lastmile_qr_scan"}, "bike_id": "b6239aad06df9a78604c681c8003e7e5", "lat": 38.89818566666667, "name": "b6239aad06df9a78604c681c8003e7e5", "lon": -76.93004083333334, "fusion_lon": 0.0}, {"is_reserved": 0, "type": "electric_bike", "fusion_lat": 0.0, "is_disabled": 0, "rental_uris": {"ios": "https://dc.lft.to/lastmile_qr_scan", "android": "https://dc.lft.to/lastmile_qr_scan"}, "bike_id": "a18a53058386d2552463d1237a0c5922", "lat": 38.809762166666665, "name": "a18a53058386d2552463d1237a0c5922", "lon": -77.076605, "fusion_lon": 0.0}, {"is_reserved": 0, "type": "electric_scooter", "fusion_lat": 0.0, "is_disabled": 0, "rental_uris": {"ios": "https://dc.lft.to/lastmile_qr_scan", "android": "https://dc.lft.to/lastmile_qr_scan"}, "bike_id": "51802ce8a43cbac0b622d9b1a6b347d6", "lat": 38.9201095, "name": "51802ce8a43cbac0b622d9b1a6b347d6", "lon": -77.04174, "fusion_lon": 0.0}, {"is_reserved": 0, "type": "electric_scooter", "fusion_lat": 0.0, "is_disabled": 0, "rental_uris": {"ios": "https://dc.lft.to/lastmile_qr_scan", "android": "https://dc.lft.to/lastmile_qr_scan"}, "bike_id": "2fb2ccb4c72e1e7582d31a80acaaa3ae", "lat": 38.8885835, "name": "2fb2ccb4c72e1e7582d31a80acaaa3ae", "lon": -76.97733366666667, "fusion_lon": 0.0}, {"is_reserved": 0, "type": "electric_scooter", "fusion_lat": 0.0, "is_disabled": 0, "rental_uris": {"ios": "https://dc.lft.to/lastmile_qr_scan", "android": "https://dc.lft.to/lastmile_qr_scan"}, "bike_id": "20187c4c291c331726dcd84dedc8009f", "lat": 38.89774933333333, "name": "20187c4c291c331726dcd84dedc8009f", "lon": -77.04785366666667, "fusion_lon": 0.0}, {"is_reserved": 0, "type": "electric_bike", "fusion_lat": 0.0, "is_disabled": 0, "rental_uris": {"ios": "https://dc.lft.to/lastmile_qr_scan", "android": "https://dc.lft.to/lastmile_qr_scan"}, "bike_id": "6dcfe9377ee99fe96e8144ec57f87cc9", "lat": 38.94215883333333, "name": "6dcfe9377ee99fe96e8144ec57f87cc9", "lon": -76.9613065, "fusion_lon": 0.0}, {"is_reserved": 0, "type": "electric_scooter", "fusion_lat": 0.0, "is_disabled": 0, "rental_uris": {"ios": "https://dc.lft.to/lastmile_qr_scan", "android": "https://dc.lft.to/lastmile_qr_scan"}, "bike_id": "5be010c0b9ddffd2b34d4fcc5074bd30", "lat": 38.90181783333333, "name": "5be010c0b9ddffd2b34d4fcc5074bd30", "lon": -76.99960933333334, "fusion_lon": 0.0}, {"is_reserved": 0, "type": "electric_scooter", "fusion_lat": 0.0, "is_disabled": 0, "rental_uris": {"ios": "https://dc.lft.to/lastmile_qr_scan", "android": "https://dc.lft.to/lastmile_qr_scan"}, "bike_id": "d335e1d457f591ef57b2bbb6c61e471d", "lat": 38.92434083333333, "name": "d335e1d457f591ef57b2bbb6c61e471d", "lon": -77.0521925, "fusion_lon": 0.0}, {"is_reserved": 0, "type": "electric_scooter", "fusion_lat": 0.0, "is_disabled": 0, "rental_uris": {"ios": "https://dc.lft.to/lastmile_qr_scan", "android": "https://dc.lft.to/lastmile_qr_scan"}, "bike_id": "a85853fbec38a0d290aa2baaa955feb2", "lat": 38.92872916666666, "name": "a85853fbec38a0d290aa2baaa955feb2", "lon": -77.03258116666667, "fusion_lon": 0.0}, {"is_reserved": 0, "type": "electric_scooter", "fusion_lat": 0.0, "is_disabled": 0, "rental_uris": {"ios": "https://dc.lft.to/lastmile_qr_scan", "android": "https://dc.lft.to/lastmile_qr_scan"}, "bike_id": "f27e53bb5a2dccfacb59014b9f4c1dcc", "lat": 38.8982415, "name": "f27e53bb5a2dccfacb59014b9f4c1dcc", "lon": -77.04638483333333, "fusion_lon": 0.0}, {"is_reserved": 0, "type": "electric_scooter", "fusion_lat": 0.0, "is_disabled": 0, "rental_uris": {"ios": "https://dc.lft.to/lastmile_qr_scan", "android": "https://dc.lft.to/lastmile_qr_scan"}, "bike_id": "1367212143ede0d96557b65f94c27eb3", "lat": 38.9162455, "name": "1367212143ede0d96557b65f94c27eb3", "lon": -77.03219416666667, "fusion_lon": 0.0}, {"is_reserved": 0, "type": "electric_scooter", "fusion_lat": 0.0, "is_disabled": 0, "rental_uris": {"ios": "https://dc.lft.to/lastmile_qr_scan", "android": "https://dc.lft.to/lastmile_qr_scan"}, "bike_id": "83795ebbe3b1b26d24ea96b3faaba75f", "lat": 38.938747666666664, "name": "83795ebbe3b1b26d24ea96b3faaba75f", "lon": -77.03219183333333, "fusion_lon": 0.0}, {"is_reserved": 0, "type": "electric_scooter", "fusion_lat": 0.0, "is_disabled": 0, "rental_uris": {"ios": "https://dc.lft.to/lastmile_qr_scan", "android": "https://dc.lft.to/lastmile_qr_scan"}, "bike_id": "ee8971c574d9b675341390102d41155b", "lat": 38.9368285, "name": "ee8971c574d9b675341390102d41155b", "lon": -77.03628666666667, "fusion_lon": 0.0}, {"is_reserved": 0, "type": "electric_scooter", "fusion_lat": 0.0, "is_disabled": 0, "rental_uris": {"ios": "https://dc.lft.to/lastmile_qr_scan", "android": "https://dc.lft.to/lastmile_qr_scan"}, "bike_id": "fd5fc22e5891b320530f2326b33c6a33", "lat": 38.957327166666666, "name": "fd5fc22e5891b320530f2326b33c6a33", "lon": -77.02419883333333, "fusion_lon": 0.0}, {"is_reserved": 0, "type": "electric_scooter", "fusion_lat": 0.0, "is_disabled": 0, "rental_uris": {"ios": "https://dc.lft.to/lastmile_qr_scan", "android": "https://dc.lft.to/lastmile_qr_scan"}, "bike_id": "20393587ba3ef7b9706da0dd7e0d01ef", "lat": 38.92240016666667, "name": "20393587ba3ef7b9706da0dd7e0d01ef", "lon": -77.01844133333333, "fusion_lon": 0.0}, {"is_reserved": 0, "type": "electric_scooter", "fusion_lat": 0.0, "is_disabled": 0, "rental_uris": {"ios": "https://dc.lft.to/lastmile_qr_scan", "android": "https://dc.lft.to/lastmile_qr_scan"}, "bike_id": "19f716531862c972fa78925c49267cbd", "lat": 38.907283, "name": "19f716531862c972fa78925c49267cbd", "lon": -77.039599, "fusion_lon": 0.0}, {"is_reserved": 0, "type": "electric_scooter", "fusion_lat": 0.0, "is_disabled": 0, "rental_uris": {"ios": "https://dc.lft.to/lastmile_qr_scan", "android": "https://dc.lft.to/lastmile_qr_scan"}, "bike_id": "e5a7770668932722741c4598f9fda5a4", "lat": 38.91793233333333, "name": "e5a7770668932722741c4598f9fda5a4", "lon": -77.03449833333333, "fusion_lon": 0.0}, {"is_reserved": 0, "type": "electric_scooter", "fusion_lat": 0.0, "is_disabled": 0, "rental_uris": {"ios": "https://dc.lft.to/lastmile_qr_scan", "android": "https://dc.lft.to/lastmile_qr_scan"}, "bike_id": "24de10da836338a377d9b2b0d50d02a2", "lat": 38.906882833333334, "name": "24de10da836338a377d9b2b0d50d02a2", "lon": -77.03531716666667, "fusion_lon": 0.0}, {"is_reserved": 0, "type": "electric_scooter", "fusion_lat": 0.0, "is_disabled": 0, "rental_uris": {"ios": "https://dc.lft.to/lastmile_qr_scan", "android": "https://dc.lft.to/lastmile_qr_scan"}, "bike_id": "57454d5f34be7165e23016c34913ab11", "lat": 38.90553233333333, "name": "57454d5f34be7165e23016c34913ab11", "lon": -77.00444916666666, "fusion_lon": 0.0}, {"is_reserved": 0, "type": "electric_bike", "fusion_lat": 0.0, "is_disabled": 0, "rental_uris": {"ios": "https://dc.lft.to/lastmile_qr_scan", "android": "https://dc.lft.to/lastmile_qr_scan"}, "bike_id": "b5e7b161ced36689308242d04a1e7c6a", "lat": 38.95241033333333, "name": "b5e7b161ced36689308242d04a1e7c6a", "lon": -76.98247966666666, "fusion_lon": 0.0}, {"is_reserved": 0, "type": "electric_scooter", "fusion_lat": 0.0, "is_disabled": 0, "rental_uris": {"ios": "https://dc.lft.to/lastmile_qr_scan", "android": "https://dc.lft.to/lastmile_qr_scan"}, "bike_id": "e6bb510a8104a141b137aca948674375", "lat": 38.9281535, "name": "e6bb510a8104a141b137aca948674375", "lon": -77.04332616666667, "fusion_lon": 0.0}, {"is_reserved": 0, "type": "electric_scooter", "fusion_lat": 0.0, "is_disabled": 0, "rental_uris": {"ios": "https://dc.lft.to/lastmile_qr_scan", "android": "https://dc.lft.to/lastmile_qr_scan"}, "bike_id": "263d31e4fc878806258a004480ebedee", "lat": 38.92067333333333, "name": "263d31e4fc878806258a004480ebedee", "lon": -77.0242195, "fusion_lon": 0.0}, {"is_reserved": 0, "type": "electric_scooter", "fusion_lat": 0.0, "is_disabled": 0, "rental_uris": {"ios": "https://dc.lft.to/lastmile_qr_scan", "android": "https://dc.lft.to/lastmile_qr_scan"}, "bike_id": "e233f0094eda959d6b6367a8660c91ea", "lat": 38.901276, "name": "e233f0094eda959d6b6367a8660c91ea", "lon": -77.01529783333334, "fusion_lon": 0.0}, {"is_reserved": 0, "type": "electric_scooter", "fusion_lat": 0.0, "is_disabled": 0, "rental_uris": {"ios": "https://dc.lft.to/lastmile_qr_scan", "android": "https://dc.lft.to/lastmile_qr_scan"}, "bike_id": "e4a5ef74fa31910a1987969b5831b19e", "lat": 38.927926, "name": "e4a5ef74fa31910a1987969b5831b19e", "lon": -77.02133216666667, "fusion_lon": 0.0}, {"is_reserved": 0, "type": "electric_scooter", "fusion_lat": 0.0, "is_disabled": 0, "rental_uris": {"ios": "https://dc.lft.to/lastmile_qr_scan", "android": "https://dc.lft.to/lastmile_qr_scan"}, "bike_id": "528b881b959014c65c411a0a431c8ca8", "lat": 38.92130783333333, "name": "528b881b959014c65c411a0a431c8ca8", "lon": -77.004005, "fusion_lon": 0.0}, {"is_reserved": 0, "type": "electric_scooter", "fusion_lat": 0.0, "is_disabled": 0, "rental_uris": {"ios": "https://dc.lft.to/lastmile_qr_scan", "android": "https://dc.lft.to/lastmile_qr_scan"}, "bike_id": "fa004fcdba4aca31486e8c63edda820b", "lat": 38.9052475, "name": "fa004fcdba4aca31486e8c63edda820b", "lon": -77.05020983333333, "fusion_lon": 0.0}, {"is_reserved": 0, "type": "electric_scooter", "fusion_lat": 0.0, "is_disabled": 0, "rental_uris": {"ios": "https://dc.lft.to/lastmile_qr_scan", "android": "https://dc.lft.to/lastmile_qr_scan"}, "bike_id": "acde9c4b267c34b82fd7860fa6c1f8c7", "lat": 38.9064655, "name": "acde9c4b267c34b82fd7860fa6c1f8c7", "lon": -77.02483366666667, "fusion_lon": 0.0}, {"is_reserved": 0, "type": "electric_scooter", "fusion_lat": 0.0, "is_disabled": 0, "rental_uris": {"ios": "https://dc.lft.to/lastmile_qr_scan", "android": "https://dc.lft.to/lastmile_qr_scan"}, "bike_id": "65dc4d6614dff0e40c9d3c8b48b7ad73", "lat": 38.91635983333333, "name": "65dc4d6614dff0e40c9d3c8b48b7ad73", "lon": -76.98284383333333, "fusion_lon": 0.0}, {"is_reserved": 0, "type": "electric_scooter", "fusion_lat": 0.0, "is_disabled": 0, "rental_uris": {"ios": "https://dc.lft.to/lastmile_qr_scan", "android": "https://dc.lft.to/lastmile_qr_scan"}, "bike_id": "226a4e4de0c52589a493fa9a2d1f845f", "lat": 38.92501983333333, "name": "226a4e4de0c52589a493fa9a2d1f845f", "lon": -77.0244285, "fusion_lon": 0.0}, {"is_reserved": 0, "type": "electric_scooter", "fusion_lat": 0.0, "is_disabled": 0, "rental_uris": {"ios": "https://dc.lft.to/lastmile_qr_scan", "android": "https://dc.lft.to/lastmile_qr_scan"}, "bike_id": "b46cf2e66ca6ee7f5c80674b6fd1f74e", "lat": 38.896052166666664, "name": "b46cf2e66ca6ee7f5c80674b6fd1f74e", "lon": -77.02782483333333, "fusion_lon": 0.0}, {"is_reserved": 0, "type": "electric_bike", "fusion_lat": 0.0, "is_disabled": 0, "rental_uris": {"ios": "https://dc.lft.to/lastmile_qr_scan", "android": "https://dc.lft.to/lastmile_qr_scan"}, "bike_id": "8b345961af8f45c4b5e9caa9542d0712", "lat": 38.955078, "name": "8b345961af8f45c4b5e9caa9542d0712", "lon": -77.02772316666666, "fusion_lon": 0.0}, {"is_reserved": 0, "type": "electric_bike", "fusion_lat": 0.0, "is_disabled": 0, "rental_uris": {"ios": "https://dc.lft.to/lastmile_qr_scan", "android": "https://dc.lft.to/lastmile_qr_scan"}, "bike_id": "fda9b0b7614379a1c9f2bbda36fa62de", "lat": 38.900068166666664, "name": "fda9b0b7614379a1c9f2bbda36fa62de", "lon": -76.99044083333334, "fusion_lon": 0.0}, {"is_reserved": 0, "type": "electric_bike", "fusion_lat": 0.0, "is_disabled": 0, "rental_uris": {"ios": "https://dc.lft.to/lastmile_qr_scan", "android": "https://dc.lft.to/lastmile_qr_scan"}, "bike_id": "b14eedb6a767b6e7067da3cdc04320cd", "lat": 38.96726533333333, "name": "b14eedb6a767b6e7067da3cdc04320cd", "lon": -77.089142, "fusion_lon": 0.0}, {"is_reserved": 0, "type": "electric_scooter", "fusion_lat": 0.0, "is_disabled": 0, "rental_uris": {"ios": "https://dc.lft.to/lastmile_qr_scan", "android": "https://dc.lft.to/lastmile_qr_scan"}, "bike_id": "f7aed4e245a7548fb8bd29bf534e67b0", "lat": 38.8949445, "name": "f7aed4e245a7548fb8bd29bf534e67b0", "lon": -77.02308366666666, "fusion_lon": 0.0}, {"is_reserved": 0, "type": "electric_scooter", "fusion_lat": 0.0, "is_disabled": 0, "rental_uris": {"ios": "https://dc.lft.to/lastmile_qr_scan", "android": "https://dc.lft.to/lastmile_qr_scan"}, "bike_id": "112b67ec848c86fd18f66149fa5dd4dc", "lat": 38.888386, "name": "112b67ec848c86fd18f66149fa5dd4dc", "lon": -76.977377, "fusion_lon": 0.0}, {"is_reserved": 0, "type": "electric_scooter", "fusion_lat": 0.0, "is_disabled": 0, "rental_uris": {"ios": "https://dc.lft.to/lastmile_qr_scan", "android": "https://dc.lft.to/lastmile_qr_scan"}, "bike_id": "e5921bfb4c127ff0d1687f1e91e1e29b", "lat": 38.92212583333333, "name": "e5921bfb4c127ff0d1687f1e91e1e29b", "lon": -77.0202825, "fusion_lon": 0.0}, {"is_reserved": 0, "type": "electric_scooter", "fusion_lat": 0.0, "is_disabled": 0, "rental_uris": {"ios": "https://dc.lft.to/lastmile_qr_scan", "android": "https://dc.lft.to/lastmile_qr_scan"}, "bike_id": "bcc96d1ba7f9f20a516ecea0ef73e51a", "lat": 38.92950233333333, "name": "bcc96d1ba7f9f20a516ecea0ef73e51a", "lon": -77.04407333333333, "fusion_lon": 0.0}, {"is_reserved": 0, "type": "electric_scooter", "fusion_lat": 0.0, "is_disabled": 0, "rental_uris": {"ios": "https://dc.lft.to/lastmile_qr_scan", "android": "https://dc.lft.to/lastmile_qr_scan"}, "bike_id": "b56cb2a8ad0cc95ed42a3dd854118a99", "lat": 38.897273166666665, "name": "b56cb2a8ad0cc95ed42a3dd854118a99", "lon": -76.99514316666667, "fusion_lon": 0.0}, {"is_reserved": 0, "type": "electric_scooter", "fusion_lat": 0.0, "is_disabled": 0, "rental_uris": {"ios": "https://dc.lft.to/lastmile_qr_scan", "android": "https://dc.lft.to/lastmile_qr_scan"}, "bike_id": "f0261382f2da50b9057c40d69e918c13", "lat": 38.90848866666666, "name": "f0261382f2da50b9057c40d69e918c13", "lon": -77.03644866666667, "fusion_lon": 0.0}, {"is_reserved": 0, "type": "electric_scooter", "fusion_lat": 0.0, "is_disabled": 0, "rental_uris": {"ios": "https://dc.lft.to/lastmile_qr_scan", "android": "https://dc.lft.to/lastmile_qr_scan"}, "bike_id": "55af240f8cd4a4845127e61984f81331", "lat": 38.917442333333334, "name": "55af240f8cd4a4845127e61984f81331", "lon": -77.01084866666666, "fusion_lon": 0.0}, {"is_reserved": 0, "type": "electric_bike", "fusion_lat": 0.0, "is_disabled": 0, "rental_uris": {"ios": "https://dc.lft.to/lastmile_qr_scan", "android": "https://dc.lft.to/lastmile_qr_scan"}, "bike_id": "406aad5333d688932f7ad8fe6f511af4", "lat": 38.8358655, "name": "406aad5333d688932f7ad8fe6f511af4", "lon": -76.99018533333333, "fusion_lon": 0.0}, {"is_reserved": 0, "type": "electric_scooter", "fusion_lat": 0.0, "is_disabled": 0, "rental_uris": {"ios": "https://dc.lft.to/lastmile_qr_scan", "android": "https://dc.lft.to/lastmile_qr_scan"}, "bike_id": "fd4a9ddea5c0e09ed9302cbb5406782a", "lat": 38.909936333333334, "name": "fd4a9ddea5c0e09ed9302cbb5406782a", "lon": -77.02691183333333, "fusion_lon": 0.0}, {"is_reserved": 0, "type": "electric_bike", "fusion_lat": 0.0, "is_disabled": 0, "rental_uris": {"ios": "https://dc.lft.to/lastmile_qr_scan", "android": "https://dc.lft.to/lastmile_qr_scan"}, "bike_id": "23d4324f1f5307ff6b7dd583dad837e8", "lat": 38.850827, "name": "23d4324f1f5307ff6b7dd583dad837e8", "lon": -76.98156916666667, "fusion_lon": 0.0}, {"is_reserved": 0, "type": "electric_scooter", "fusion_lat": 0.0, "is_disabled": 0, "rental_uris": {"ios": "https://dc.lft.to/lastmile_qr_scan", "android": "https://dc.lft.to/lastmile_qr_scan"},