{"data": {"bikes": [{"fusion_lat": 0.0, "bike_id": "208bdd69d672a9a8a4d4515759161f56", "fusion_lon": 0.0, "lon": -77.0634, "lat": 38.906816, "is_reserved": 0, "is_disabled": 0, "rental_uris": {"android": "https://dc.lft.to/lastmile_qr_scan", "ios": "https://dc.lft.to/lastmile_qr_scan"}, "name": "208bdd69d672a9a8a4d4515759161f56", "type": "electric_scooter"}, {"fusion_lat": 0.0, "bike_id": "1d68c5617c0d91ebd0c76d937447f31b", "fusion_lon": 0.0, "lon": -77.0350245, "lat": 38.93754083333334, "is_reserved": 0, "is_disabled": 0, "rental_uris": {"android": "https://dc.lft.to/lastmile_qr_scan", "ios": "https://dc.lft.to/lastmile_qr_scan"}, "name": "1d68c5617c0d91ebd0c76d937447f31b", "type": "electric_scooter"}, {"fusion_lat": 0.0, "bike_id": "e535f14f2165ff854be8e475bdda9bca", "fusion_lon": 0.0, "lon": -77.0044695, "lat": 38.876638166666666, "is_reserved": 0, "is_disabled": 0, "rental_uris": {"android": "https://dc.lft.to/lastmile_qr_scan", "ios": "https://dc.lft.to/lastmile_qr_scan"}, "name": "e535f14f2165ff854be8e475bdda9bca", "type": "electric_scooter"}, {"fusion_lat": 0.0, "bike_id": "babc17de4b1803ac831acb08bde50fb9", "fusion_lon": 0.0, "lon": -77.03254133333333, "lat": 38.915530833333335, "is_reserved": 0, "is_disabled": 0, "rental_uris": {"android": "https://dc.lft.to/lastmile_qr_scan", "ios": "https://dc.lft.to/lastmile_qr_scan"}, "name": "babc17de4b1803ac831acb08bde50fb9", "type": "electric_scooter"}, {"fusion_lat": 0.0, "bike_id": "2cbf38ce40e14153835e997969cb67bf", "fusion_lon": 0.0, "lon": -77.042708, "lat": 38.922433833333336, "is_reserved": 0, "is_disabled": 0, "rental_uris": {"android": "https://dc.lft.to/lastmile_qr_scan", "ios": "https://dc.lft.to/lastmile_qr_scan"}, "name": "2cbf38ce40e14153835e997969cb67bf", "type": "electric_scooter"}, {"fusion_lat": 0.0, "bike_id": "dd4c69d206e2f0b1c35e2d84dc4bf9c6", "fusion_lon": 0.0, "lon": -77.03424083333333, "lat": 38.922354166666665, "is_reserved": 0, "is_disabled": 0, "rental_uris": {"android": "https://dc.lft.to/lastmile_qr_scan", "ios": "https://dc.lft.to/lastmile_qr_scan"}, "name": "dd4c69d206e2f0b1c35e2d84dc4bf9c6", "type": "electric_scooter"}, {"fusion_lat": 0.0, "bike_id": "ca688e3e47a699bf9de6697f7e9fa528", "fusion_lon": 0.0, "lon": -77.0384955, "lat": 38.91010933333333, "is_reserved": 0, "is_disabled": 0, "rental_uris": {"android": "https://dc.lft.to/lastmile_qr_scan", "ios": "https://dc.lft.to/lastmile_qr_scan"}, "name": "ca688e3e47a699bf9de6697f7e9fa528", "type": "electric_scooter"}, {"fusion_lat": 0.0, "bike_id": "4aeee605c2a9ed069645d88655100974", "fusion_lon": 0.0, "lon": -76.94633666666667, "lat": 38.898328, "is_reserved": 0, "is_disabled": 0, "rental_uris": {"android": "https://dc.lft.to/lastmile_qr_scan", "ios": "https://dc.lft.to/lastmile_qr_scan"}, "name": "4aeee605c2a9ed069645d88655100974", "type": "electric_scooter"}, {"fusion_lat": 0.0, "bike_id": "a98605ddcc795d4f05f8eb6a3a20f337", "fusion_lon": 0.0, "lon": -77.02829733333333, "lat": 38.88735233333333, "is_reserved": 0, "is_disabled": 0, "rental_uris": {"android": "https://dc.lft.to/lastmile_qr_scan", "ios": "https://dc.lft.to/lastmile_qr_scan"}, "name": "a98605ddcc795d4f05f8eb6a3a20f337", "type": "electric_scooter"}, {"fusion_lat": 0.0, "bike_id": "14fa506a2bda769674b5a87195965c33", "fusion_lon": 0.0, "lon": -76.97393033333333, "lat": 38.90556383333333, "is_reserved": 0, "is_disabled": 0, "rental_uris": {"android": "https://dc.lft.to/lastmile_qr_scan", "ios": "https://dc.lft.to/lastmile_qr_scan"}, "name": "14fa506a2bda769674b5a87195965c33", "type": "electric_scooter"}, {"fusion_lat": 0.0, "bike_id": "0893fbcef315ea19b11b3b40e296f561", "fusion_lon": 0.0, "lon": -77.0230275, "lat": 38.940900666666664, "is_reserved": 0, "is_disabled": 0, "rental_uris": {"android": "https://dc.lft.to/lastmile_qr_scan", "ios": "https://dc.lft.to/lastmile_qr_scan"}, "name": "0893fbcef315ea19b11b3b40e296f561", "type": "electric_scooter"}, {"fusion_lat": 0.0, "bike_id": "84d3eec1ec6ed25245e90e7864d23962", "fusion_lon": 0.0, "lon": -76.97548433333333, "lat": 38.90321683333333, "is_reserved": 0, "is_disabled": 0, "rental_uris": {"android": "https://dc.lft.to/lastmile_qr_scan", "ios": "https://dc.lft.to/lastmile_qr_scan"}, "name": "84d3eec1ec6ed25245e90e7864d23962", "type": "electric_scooter"}, {"fusion_lat": 0.0, "bike_id": "914e00391014a53c19732b760be52292", "fusion_lon": 0.0, "lon": -77.12075833333333, "lat": 38.85412216666667, "is_reserved": 0, "is_disabled": 0, "rental_uris": {"android": "https://dc.lft.to/lastmile_qr_scan", "ios": "https://dc.lft.to/lastmile_qr_scan"}, "name": "914e00391014a53c19732b760be52292", "type": "electric_bike"}, {"fusion_lat": 0.0, "bike_id": "76682d3ee073ee2df4ab15642b8adb8f", "fusion_lon": 0.0, "lon": -76.98350066666667, "lat": 38.8876985, "is_reserved": 0, "is_disabled": 0, "rental_uris": {"android": "https://dc.lft.to/lastmile_qr_scan", "ios": "https://dc.lft.to/lastmile_qr_scan"}, "name": "76682d3ee073ee2df4ab15642b8adb8f", "type": "electric_scooter"}, {"fusion_lat": 0.0, "bike_id": "beebd847c252e305d93e2a8103d9a941", "fusion_lon": 0.0, "lon": -77.10536083333334, "lat": 38.855115833333336, "is_reserved": 0, "is_disabled": 0, "rental_uris": {"android": "https://dc.lft.to/lastmile_qr_scan", "ios": "https://dc.lft.to/lastmile_qr_scan"}, "name": "beebd847c252e305d93e2a8103d9a941", "type": "electric_bike"}, {"fusion_lat": 0.0, "bike_id": "7dd3530d27df00aa50c2e7e06b116a27", "fusion_lon": 0.0, "lon": -77.02190266666666, "lat": 38.900247666666665, "is_reserved": 0, "is_disabled": 0, "rental_uris": {"android": "https://dc.lft.to/lastmile_qr_scan", "ios": "https://dc.lft.to/lastmile_qr_scan"}, "name": "7dd3530d27df00aa50c2e7e06b116a27", "type": "electric_scooter"}, {"fusion_lat": 0.0, "bike_id": "204ac71b413bb7bb7530fa0edca09e84", "fusion_lon": 0.0, "lon": -77.04678283333334, "lat": 38.90585733333333, "is_reserved": 0, "is_disabled": 0, "rental_uris": {"android": "https://dc.lft.to/lastmile_qr_scan", "ios": "https://dc.lft.to/lastmile_qr_scan"}, "name": "204ac71b413bb7bb7530fa0edca09e84", "type": "electric_scooter"}, {"fusion_lat": 0.0, "bike_id": "25ab2d1ef049d88122fe888d08553fab", "fusion_lon": 0.0, "lon": -77.03273416666667, "lat": 38.9121395, "is_reserved": 0, "is_disabled": 0, "rental_uris": {"android": "https://dc.lft.to/lastmile_qr_scan", "ios": "https://dc.lft.to/lastmile_qr_scan"}, "name": "25ab2d1ef049d88122fe888d08553fab", "type": "electric_scooter"}, {"fusion_lat": 0.0, "bike_id": "1dbfe2f7587ea45db473940f11e044f4", "fusion_lon": 0.0, "lon": -77.002998, "lat": 38.9012395, "is_reserved": 0, "is_disabled": 0, "rental_uris": {"android": "https://dc.lft.to/lastmile_qr_scan", "ios": "https://dc.lft.to/lastmile_qr_scan"}, "name": "1dbfe2f7587ea45db473940f11e044f4", "type": "electric_scooter"}, {"fusion_lat": 0.0, "bike_id": "d773d59c43685204e9fd01feb3b51551", "fusion_lon": 0.0, "lon": -77.06770666666667, "lat": 38.904963, "is_reserved": 0, "is_disabled": 0, "rental_uris": {"android": "https://dc.lft.to/lastmile_qr_scan", "ios": "https://dc.lft.to/lastmile_qr_scan"}, "name": "d773d59c43685204e9fd01feb3b51551", "type": "electric_scooter"}, {"fusion_lat": 0.0, "bike_id": "728bc75b291f4327b6a955dc7ff931bb", "fusion_lon": 0.0, "lon": -76.988797, "lat": 38.86660583333333, "is_reserved": 0, "is_disabled": 0, "rental_uris": {"android": "https://dc.lft.to/lastmile_qr_scan", "ios": "https://dc.lft.to/lastmile_qr_scan"}, "name": "728bc75b291f4327b6a955dc7ff931bb", "type": "electric_scooter"}, {"fusion_lat": 0.0, "bike_id": "997081f8c9611db69022ab5530e0a4e9", "fusion_lon": 0.0, "lon": -77.05047133333333, "lat": 38.905226, "is_reserved": 0, "is_disabled": 0, "rental_uris": {"android": "https://dc.lft.to/lastmile_qr_scan", "ios": "https://dc.lft.to/lastmile_qr_scan"}, "name": "997081f8c9611db69022ab5530e0a4e9", "type": "electric_scooter"}, {"fusion_lat": 0.0, "bike_id": "31d98f7fac9cc32fdf01b97800875ec4", "fusion_lon": 0.0, "lon": -77.04999533333333, "lat": 38.8923035, "is_reserved": 0, "is_disabled": 0, "rental_uris": {"android": "https://dc.lft.to/lastmile_qr_scan", "ios": "https://dc.lft.to/lastmile_qr_scan"}, "name": "31d98f7fac9cc32fdf01b97800875ec4", "type": "electric_scooter"}, {"fusion_lat": 0.0, "bike_id": "ca453caffd85e0a02890ae011461bad9", "fusion_lon": 0.0, "lon": -77.03182716666667, "lat": 38.8995775, "is_reserved": 0, "is_disabled": 0, "rental_uris": {"android": "https://dc.lft.to/lastmile_qr_scan", "ios": "https://dc.lft.to/lastmile_qr_scan"}, "name": "ca453caffd85e0a02890ae011461bad9", "type": "electric_scooter"}, {"fusion_lat": 0.0, "bike_id": "81ed555223c91a8cede87c5304f2896f", "fusion_lon": 0.0, "lon": -77.044731, "lat": 38.89225233333333, "is_reserved": 0, "is_disabled": 0, "rental_uris": {"android": "https://dc.lft.to/lastmile_qr_scan", "ios": "https://dc.lft.to/lastmile_qr_scan"}, "name": "81ed555223c91a8cede87c5304f2896f", "type": "electric_scooter"}, {"fusion_lat": 0.0, "bike_id": "f78f531bcff1c833574b410c35ab55aa", "fusion_lon": 0.0, "lon": -77.03974633333333, "lat": 38.928040333333335, "is_reserved": 0, "is_disabled": 0, "rental_uris": {"android": "https://dc.lft.to/lastmile_qr_scan", "ios": "https://dc.lft.to/lastmile_qr_scan"}, "name": "f78f531bcff1c833574b410c35ab55aa", "type": "electric_scooter"}, {"fusion_lat": 0.0, "bike_id": "96fd2b0aa996539b101e87bdb56e242f", "fusion_lon": 0.0, "lon": -76.94102966666667, "lat": 38.884564833333336, "is_reserved": 0, "is_disabled": 0, "rental_uris": {"android": "https://dc.lft.to/lastmile_qr_scan", "ios": "https://dc.lft.to/lastmile_qr_scan"}, "name": "96fd2b0aa996539b101e87bdb56e242f", "type": "electric_scooter"}, {"fusion_lat": 0.0, "bike_id": "2c1e3cc2757fe05dd35b7d89594d28ed", "fusion_lon": 0.0, "lon": -77.23331783333333, "lat": 38.87273783333333, "is_reserved": 0, "is_disabled": 0, "rental_uris": {"android": "https://dc.lft.to/lastmile_qr_scan", "ios": "https://dc.lft.to/lastmile_qr_scan"}, "name": "2c1e3cc2757fe05dd35b7d89594d28ed", "type": "electric_bike"}, {"fusion_lat": 0.0, "bike_id": "bb44eb37332b90f3ebdeddf71c46d2f2", "fusion_lon": 0.0, "lon": -77.0344475, "lat": 38.904287, "is_reserved": 0, "is_disabled": 0, "rental_uris": {"android": "https://dc.lft.to/lastmile_qr_scan", "ios": "https://dc.lft.to/lastmile_qr_scan"}, "name": "bb44eb37332b90f3ebdeddf71c46d2f2", "type": "electric_scooter"}, {"fusion_lat": 0.0, "bike_id": "a91a3fb4d370e82a35a79b56ded068f5", "fusion_lon": 0.0, "lon": -77.00720933333334, "lat": 38.87680683333333, "is_reserved": 0, "is_disabled": 0, "rental_uris": {"android": "https://dc.lft.to/lastmile_qr_scan", "ios": "https://dc.lft.to/lastmile_qr_scan"}, "name": "a91a3fb4d370e82a35a79b56ded068f5", "type": "electric_scooter"}, {"fusion_lat": 0.0, "bike_id": "6c5c08d88aa314c970a3d42359261049", "fusion_lon": 0.0, "lon": -77.015881, "lat": 38.88503716666666, "is_reserved": 0, "is_disabled": 0, "rental_uris": {"android": "https://dc.lft.to/lastmile_qr_scan", "ios": "https://dc.lft.to/lastmile_qr_scan"}, "name": "6c5c08d88aa314c970a3d42359261049", "type": "electric_scooter"}, {"fusion_lat": 0.0, "bike_id": "e8b8bf8d2607ec5bf0c431b474656992", "fusion_lon": 0.0, "lon": -77.032759, "lat": 38.940906166666664, "is_reserved": 0, "is_disabled": 0, "rental_uris": {"android": "https://dc.lft.to/lastmile_qr_scan", "ios": "https://dc.lft.to/lastmile_qr_scan"}, "name": "e8b8bf8d2607ec5bf0c431b474656992", "type": "electric_scooter"}, {"fusion_lat": 0.0, "bike_id": "3f99f8b80e4b579fbe9f0c9501a39da2", "fusion_lon": 0.0, "lon": -77.02209383333333, "lat": 38.9054045, "is_reserved": 0, "is_disabled": 0, "rental_uris": {"android": "https://dc.lft.to/lastmile_qr_scan", "ios": "https://dc.lft.to/lastmile_qr_scan"}, "name": "3f99f8b80e4b579fbe9f0c9501a39da2", "type": "electric_scooter"}, {"fusion_lat": 0.0, "bike_id": "1e3f1b600e9c1fcd35d342565f52503d", "fusion_lon": 0.0, "lon": -77.02647866666666, "lat": 38.926043666666665, "is_reserved": 0, "is_disabled": 0, "rental_uris": {"android": "https://dc.lft.to/lastmile_qr_scan", "ios": "https://dc.lft.to/lastmile_qr_scan"}, "name": "1e3f1b600e9c1fcd35d342565f52503d", "type": "electric_scooter"}, {"fusion_lat": 0.0, "bike_id": "bd788447b68efa2119c85ebed7bf4ac6", "fusion_lon": 0.0, "lon": -76.94725533333333, "lat": 38.897399666666665, "is_reserved": 0, "is_disabled": 0, "rental_uris": {"android": "https://dc.lft.to/lastmile_qr_scan", "ios": "https://dc.lft.to/lastmile_qr_scan"}, "name": "bd788447b68efa2119c85ebed7bf4ac6", "type": "electric_scooter"}, {"fusion_lat": 0.0, "bike_id": "d85972edb40528b5aa57b0266d6c8ac4", "fusion_lon": 0.0, "lon": -77.0467055, "lat": 38.91107866666667, "is_reserved": 0, "is_disabled": 0, "rental_uris": {"android": "https://dc.lft.to/lastmile_qr_scan", "ios": "https://dc.lft.to/lastmile_qr_scan"}, "name": "d85972edb40528b5aa57b0266d6c8ac4", "type": "electric_scooter"}, {"fusion_lat": 0.0, "bike_id": "2a34909c505a3ca0fb1cd7a57a3693a4", "fusion_lon": 0.0, "lon": -76.99781066666667, "lat": 38.84425733333333, "is_reserved": 0, "is_disabled": 0, "rental_uris": {"android": "https://dc.lft.to/lastmile_qr_scan", "ios": "https://dc.lft.to/lastmile_qr_scan"}, "name": "2a34909c505a3ca0fb1cd7a57a3693a4", "type": "electric_scooter"}, {"fusion_lat": 0.0, "bike_id": "2acf5209e32b9e5e75921884e15f43ed", "fusion_lon": 0.0, "lon": -77.05288, "lat": 38.905140833333334, "is_reserved": 0, "is_disabled": 0, "rental_uris": {"android": "https://dc.lft.to/lastmile_qr_scan", "ios": "https://dc.lft.to/lastmile_qr_scan"}, "name": "2acf5209e32b9e5e75921884e15f43ed", "type": "electric_scooter"}, {"fusion_lat": 0.0, "bike_id": "245d8bf7c2a2af596008b617a90981d3", "fusion_lon": 0.0, "lon": -77.02173633333334, "lat": 38.94292883333333, "is_reserved": 0, "is_disabled": 0, "rental_uris": {"android": "https://dc.lft.to/lastmile_qr_scan", "ios": "https://dc.lft.to/lastmile_qr_scan"}, "name": "245d8bf7c2a2af596008b617a90981d3", "type": "electric_scooter"}, {"fusion_lat": 0.0, "bike_id": "63710f07bb5222a4cf6f6c02ac40a8c3", "fusion_lon": 0.0, "lon": -77.04181933333334, "lat": 38.8925035, "is_reserved": 0, "is_disabled": 0, "rental_uris": {"android": "https://dc.lft.to/lastmile_qr_scan", "ios": "https://dc.lft.to/lastmile_qr_scan"}, "name": "63710f07bb5222a4cf6f6c02ac40a8c3", "type": "electric_scooter"}, {"fusion_lat": 0.0, "bike_id": "f6d8b3a5609eeb4c8a52032b5dbdb95d", "fusion_lon": 0.0, "lon": -77.0209915, "lat": 38.93264933333333, "is_reserved": 0, "is_disabled": 0, "rental_uris": {"android": "https://dc.lft.to/lastmile_qr_scan", "ios": "https://dc.lft.to/lastmile_qr_scan"}, "name": "f6d8b3a5609eeb4c8a52032b5dbdb95d", "type": "electric_scooter"}, {"fusion_lat": 0.0, "bike_id": "9208db97f88a0e310763a69eaeb7da73", "fusion_lon": 0.0, "lon": -77.0379315, "lat": 38.996750166666665, "is_reserved": 0, "is_disabled": 0, "rental_uris": {"android": "https://dc.lft.to/lastmile_qr_scan", "ios": "https://dc.lft.to/lastmile_qr_scan"}, "name": "9208db97f88a0e310763a69eaeb7da73", "type": "electric_bike"}, {"fusion_lat": 0.0, "bike_id": "a37b52bc1a05065b68af43e64889d784", "fusion_lon": 0.0, "lon": -77.03090616666667, "lat": 38.93864516666667, "is_reserved": 0, "is_disabled": 0, "rental_uris": {"android": "https://dc.lft.to/lastmile_qr_scan", "ios": "https://dc.lft.to/lastmile_qr_scan"}, "name": "a37b52bc1a05065b68af43e64889d784", "type": "electric_scooter"}, {"fusion_lat": 0.0, "bike_id": "2f0f561cc3c959d2dd739e62b297e3a8", "fusion_lon": 0.0, "lon": -77.01768533333333, "lat": 38.90267866666667, "is_reserved": 0, "is_disabled": 0, "rental_uris": {"android": "https://dc.lft.to/lastmile_qr_scan", "ios": "https://dc.lft.to/lastmile_qr_scan"}, "name": "2f0f561cc3c959d2dd739e62b297e3a8", "type": "electric_scooter"}, {"fusion_lat": 0.0, "bike_id": "4fa7c9777c5a64fa6e91b1e60e662014", "fusion_lon": 0.0, "lon": -77.044732, "lat": 38.905351833333334, "is_reserved": 0, "is_disabled": 0, "rental_uris": {"android": "https://dc.lft.to/lastmile_qr_scan", "ios": "https://dc.lft.to/lastmile_qr_scan"}, "name": "4fa7c9777c5a64fa6e91b1e60e662014", "type": "electric_scooter"}, {"fusion_lat": 0.0, "bike_id": "79faac5b6c12467b042401aba7016888", "fusion_lon": 0.0, "lon": -76.9959845, "lat": 38.95073516666667, "is_reserved": 0, "is_disabled": 0, "rental_uris": {"android": "https://dc.lft.to/lastmile_qr_scan", "ios": "https://dc.lft.to/lastmile_qr_scan"}, "name": "79faac5b6c12467b042401aba7016888", "type": "electric_bike"}, {"fusion_lat": 0.0, "bike_id": "d6338613ee2871cd222bb5b0f9265724", "fusion_lon": 0.0, "lon": -76.9505155, "lat": 38.893087333333334, "is_reserved": 0, "is_disabled": 0, "rental_uris": {"android": "https://dc.lft.to/lastmile_qr_scan", "ios": "https://dc.lft.to/lastmile_qr_scan"}, "name": "d6338613ee2871cd222bb5b0f9265724", "type": "electric_scooter"}, {"fusion_lat": 0.0, "bike_id": "697358f9d3c16b623a7b8929f60bb059", "fusion_lon": 0.0, "lon": -77.0355855, "lat": 38.93378033333333, "is_reserved": 0, "is_disabled": 0, "rental_uris": {"android": "https://dc.lft.to/lastmile_qr_scan", "ios": "https://dc.lft.to/lastmile_qr_scan"}, "name": "697358f9d3c16b623a7b8929f60bb059", "type": "electric_scooter"}, {"fusion_lat": 0.0, "bike_id": "cfd24865466794abdbb55cd0ab3becf8", "fusion_lon": 0.0, "lon": -76.97858583333333, "lat": 38.907206333333335, "is_reserved": 0, "is_disabled": 0, "rental_uris": {"android": "https://dc.lft.to/lastmile_qr_scan", "ios": "https://dc.lft.to/lastmile_qr_scan"}, "name": "cfd24865466794abdbb55cd0ab3becf8", "type": "electric_scooter"}, {"fusion_lat": 0.0, "bike_id": "80720b18aeb9b0968b91f1d218806c53", "fusion_lon": 0.0, "lon": -77.05004083333333, "lat": 38.8919615, "is_reserved": 0, "is_disabled": 0, "rental_uris": {"android": "https://dc.lft.to/lastmile_qr_scan", "ios": "https://dc.lft.to/lastmile_qr_scan"}, "name": "80720b18aeb9b0968b91f1d218806c53", "type": "electric_scooter"}, {"fusion_lat": 0.0, "bike_id": "135b08a1ce3f4325c08eb8dcc40403ac", "fusion_lon": 0.0, "lon": -77.03718016666667, "lat": 38.926429, "is_reserved": 0, "is_disabled": 0, "rental_uris": {"android": "https://dc.lft.to/lastmile_qr_scan", "ios": "https://dc.lft.to/lastmile_qr_scan"}, "name": "135b08a1ce3f4325c08eb8dcc40403ac", "type": "electric_scooter"}, {"fusion_lat": 0.0, "bike_id": "c9ef9b6d92b939596a680e1987b4ce5c", "fusion_lon": 0.0, "lon": -77.01787366666667, "lat": 38.88601666666667, "is_reserved": 0, "is_disabled": 0, "rental_uris": {"android": "https://dc.lft.to/lastmile_qr_scan", "ios": "https://dc.lft.to/lastmile_qr_scan"}, "name": "c9ef9b6d92b939596a680e1987b4ce5c", "type": "electric_scooter"}, {"fusion_lat": 0.0, "bike_id": "903021fd4a324195a0f17b530d15de8d", "fusion_lon": 0.0, "lon": -77.02088783333333, "lat": 38.929082666666666, "is_reserved": 0, "is_disabled": 0, "rental_uris": {"android": "https://dc.lft.to/lastmile_qr_scan", "ios": "https://dc.lft.to/lastmile_qr_scan"}, "name": "903021fd4a324195a0f17b530d15de8d", "type": "electric_scooter"}, {"fusion_lat": 0.0, "bike_id": "1a3e52f78d57bef24e778b6d39839df3", "fusion_lon": 0.0, "lon": -77.03943316666667, "lat": 38.898856, "is_reserved": 0, "is_disabled": 0, "rental_uris": {"android": "https://dc.lft.to/lastmile_qr_scan", "ios": "https://dc.lft.to/lastmile_qr_scan"}, "name": "1a3e52f78d57bef24e778b6d39839df3", "type": "electric_scooter"}, {"fusion_lat": 0.0, "bike_id": "c36a0789c3c8fc583fc19fa12487f18e", "fusion_lon": 0.0, "lon": -77.04674733333333, "lat": 38.892297666666664, "is_reserved": 0, "is_disabled": 0, "rental_uris": {"android": "https://dc.lft.to/lastmile_qr_scan", "ios": "https://dc.lft.to/lastmile_qr_scan"}, "name": "c36a0789c3c8fc583fc19fa12487f18e", "type": "electric_scooter"}, {"fusion_lat": 0.0, "bike_id": "591e8e9b2c28bed123c310419aee1125", "fusion_lon": 0.0, "lon": -77.03294066666666, "lat": 38.91044516666667, "is_reserved": 0, "is_disabled": 0, "rental_uris": {"android": "https://dc.lft.to/lastmile_qr_scan", "ios": "https://dc.lft.to/lastmile_qr_scan"}, "name": "591e8e9b2c28bed123c310419aee1125", "type": "electric_scooter"}, {"fusion_lat": 0.0, "bike_id": "a0d105a17c83679dddd430dd75bebab7", "fusion_lon": 0.0, "lon": -77.03437483333333, "lat": 38.909815, "is_reserved": 0, "is_disabled": 0, "rental_uris": {"android": "https://dc.lft.to/lastmile_qr_scan", "ios": "https://dc.lft.to/lastmile_qr_scan"}, "name": "a0d105a17c83679dddd430dd75bebab7", "type": "electric_scooter"}, {"fusion_lat": 0.0, "bike_id": "c2c9da992117c544d83f901558527c73", "fusion_lon": 0.0, "lon": -77.05395066666667, "lat": 38.927584333333336, "is_reserved": 0, "is_disabled": 0, "rental_uris": {"android": "https://dc.lft.to/lastmile_qr_scan", "ios": "https://dc.lft.to/lastmile_qr_scan"}, "name": "c2c9da992117c544d83f901558527c73", "type": "electric_scooter"}, {"fusion_lat": 0.0, "bike_id": "268d219fd7fff13e9a9025fee3ea65e4", "fusion_lon": 0.0, "lon": -77.05046483333334, "lat": 38.9236355, "is_reserved": 0, "is_disabled": 0, "rental_uris": {"android": "https://dc.lft.to/lastmile_qr_scan", "ios": "https://dc.lft.to/lastmile_qr_scan"}, "name": "268d219fd7fff13e9a9025fee3ea65e4", "type": "electric_scooter"}, {"fusion_lat": 0.0, "bike_id": "901f99af6be154e961f3eae2cf4e2444", "fusion_lon": 0.0, "lon": -77.0318565, "lat": 38.91746466666667, "is_reserved": 0, "is_disabled": 0, "rental_uris": {"android": "https://dc.lft.to/lastmile_qr_scan", "ios": "https://dc.lft.to/lastmile_qr_scan"}, "name": "901f99af6be154e961f3eae2cf4e2444", "type": "electric_scooter"}, {"fusion_lat": 0.0, "bike_id": "91a769cd947df131089a4262d5cb9845", "fusion_lon": 0.0, "lon": -77.01967616666667, "lat": 38.883806166666666, "is_reserved": 0, "is_disabled": 0, "rental_uris": {"android": "https://dc.lft.to/lastmile_qr_scan", "ios": "https://dc.lft.to/lastmile_qr_scan"}, "name": "91a769cd947df131089a4262d5cb9845", "type": "electric_scooter"}, {"fusion_lat": 0.0, "bike_id": "68d22c0123182820ea2e7ee9e959358e", "fusion_lon": 0.0, "lon": -76.99003883333333, "lat": 38.86508583333333, "is_reserved": 0, "is_disabled": 0, "rental_uris": {"android": "https://dc.lft.to/lastmile_qr_scan", "ios": "https://dc.lft.to/lastmile_qr_scan"}, "name": "68d22c0123182820ea2e7ee9e959358e", "type": "electric_scooter"}, {"fusion_lat": 0.0, "bike_id": "68a780e9121f4c58568f4b4a14b69563", "fusion_lon": 0.0, "lon": -77.03744933333333, "lat": 38.918079166666665, "is_reserved": 0, "is_disabled": 0, "rental_uris": {"android": "https://dc.lft.to/lastmile_qr_scan", "ios": "https://dc.lft.to/lastmile_qr_scan"}, "name": "68a780e9121f4c58568f4b4a14b69563", "type": "electric_scooter"}, {"fusion_lat": 0.0, "bike_id": "2fc511f7925a624873ee45d86bf7e41c", "fusion_lon": 0.0, "lon": -77.04187383333333, "lat": 38.92301766666667, "is_reserved": 0, "is_disabled": 0, "rental_uris": {"android": "https://dc.lft.to/lastmile_qr_scan", "ios": "https://dc.lft.to/lastmile_qr_scan"}, "name": "2fc511f7925a624873ee45d86bf7e41c", "type": "electric_scooter"}, {"fusion_lat": 0.0, "bike_id": "e128cfac184bd2ed59cee26f8b58579a", "fusion_lon": 0.0, "lon": -77.0381235, "lat": 38.906740666666664, "is_reserved": 0, "is_disabled": 0, "rental_uris": {"android": "https://dc.lft.to/lastmile_qr_scan", "ios": "https://dc.lft.to/lastmile_qr_scan"}, "name": "e128cfac184bd2ed59cee26f8b58579a", "type": "electric_scooter"}, {"fusion_lat": 0.0, "bike_id": "439f3663291d37b989965a9c9dde65ff", "fusion_lon": 0.0, "lon": -77.0174135, "lat": 38.887418833333335, "is_reserved": 0, "is_disabled": 0, "rental_uris": {"android": "https://dc.lft.to/lastmile_qr_scan", "ios": "https://dc.lft.to/lastmile_qr_scan"}, "name": "439f3663291d37b989965a9c9dde65ff", "type": "electric_scooter"}, {"fusion_lat": 0.0, "bike_id": "1654b37ad9acd800535fc2dc057c6437", "fusion_lon": 0.0, "lon": -76.988571, "lat": 38.86736616666666, "is_reserved": 0, "is_disabled": 0, "rental_uris": {"android": "https://dc.lft.to/lastmile_qr_scan", "ios": "https://dc.lft.to/lastmile_qr_scan"}, "name": "1654b37ad9acd800535fc2dc057c6437", "type": "electric_scooter"}, {"fusion_lat": 0.0, "bike_id": "3b4816bfb07c5138b69bf20c42e23fca", "fusion_lon": 0.0, "lon": -77.02209666666667, "lat": 38.878960166666666, "is_reserved": 0, "is_disabled": 0, "rental_uris": {"android": "https://dc.lft.to/lastmile_qr_scan", "ios": "https://dc.lft.to/lastmile_qr_scan"}, "name": "3b4816bfb07c5138b69bf20c42e23fca", "type": "electric_scooter"}, {"fusion_lat": 0.0, "bike_id": "4b3fc5265398829f2cb41a78b41d9573", "fusion_lon": 0.0, "lon": -77.033229, "lat": 38.898451666666666, "is_reserved": 0, "is_disabled": 0, "rental_uris": {"android": "https://dc.lft.to/lastmile_qr_scan", "ios": "https://dc.lft.to/lastmile_qr_scan"}, "name": "4b3fc5265398829f2cb41a78b41d9573", "type": "electric_scooter"}, {"fusion_lat": 0.0, "bike_id": "0cde80d94a808e11d7db07c56c79df6f", "fusion_lon": 0.0, "lon": -77.027322, "lat": 38.89736416666667, "is_reserved": 0, "is_disabled": 0, "rental_uris": {"android": "https://dc.lft.to/lastmile_qr_scan", "ios": "https://dc.lft.to/lastmile_qr_scan"}, "name": "0cde80d94a808e11d7db07c56c79df6f", "type": "electric_scooter"}, {"fusion_lat": 0.0, "bike_id": "e31a13a861a0998a8612a41d51fd01a2", "fusion_lon": 0.0, "lon": -76.99368733333333, "lat": 38.879717, "is_reserved": 0, "is_disabled": 0, "rental_uris": {"android": "https://dc.lft.to/lastmile_qr_scan", "ios": "https://dc.lft.to/lastmile_qr_scan"}, "name": "e31a13a861a0998a8612a41d51fd01a2", "type": "electric_scooter"}, {"fusion_lat": 0.0, "bike_id": "3f1a2a16e42cbc2e863a88fc2c0efbae", "fusion_lon": 0.0, "lon": -77.04653633333334, "lat": 38.89222616666667, "is_reserved": 0, "is_disabled": 0, "rental_uris": {"android": "https://dc.lft.to/lastmile_qr_scan", "ios": "https://dc.lft.to/lastmile_qr_scan"}, "name": "3f1a2a16e42cbc2e863a88fc2c0efbae", "type": "electric_scooter"}, {"fusion_lat": 0.0, "bike_id": "3d97211610a0f3586f1b78c8e83fd2a4", "fusion_lon": 0.0, "lon": -77.01968133333334, "lat": 38.919278, "is_reserved": 0, "is_disabled": 0, "rental_uris": {"android": "https://dc.lft.to/lastmile_qr_scan", "ios": "https://dc.lft.to/lastmile_qr_scan"}, "name": "3d97211610a0f3586f1b78c8e83fd2a4", "type": "electric_scooter"}, {"fusion_lat": 0.0, "bike_id": "78779cdd2a7ebd438a1371c1c0e60d1c", "fusion_lon": 0.0, "lon": -77.03178766666667, "lat": 38.909999666666664, "is_reserved": 0, "is_disabled": 0, "rental_uris": {"android": "https://dc.lft.to/lastmile_qr_scan", "ios": "https://dc.lft.to/lastmile_qr_scan"}, "name": "78779cdd2a7ebd438a1371c1c0e60d1c", "type": "electric_scooter"}, {"fusion_lat": 0.0, "bike_id": "50543373f6e3005dbc477442463d18de", "fusion_lon": 0.0, "lon": -77.026978, "lat": 38.90659933333333, "is_reserved": 0, "is_disabled": 0, "rental_uris": {"android": "https://dc.lft.to/lastmile_qr_scan", "ios": "https://dc.lft.to/lastmile_qr_scan"}, "name": "50543373f6e3005dbc477442463d18de", "type": "electric_scooter"}, {"fusion_lat": 0.0, "bike_id": "8d4c69d5f4d7dd6c94b0bbdb0badb470", "fusion_lon": 0.0, "lon": -76.99035883333333, "lat": 38.902866333333336, "is_reserved": 0, "is_disabled": 0, "rental_uris": {"android": "https://dc.lft.to/lastmile_qr_scan", "ios": "https://dc.lft.to/lastmile_qr_scan"}, "name": "8d4c69d5f4d7dd6c94b0bbdb0badb470", "type": "electric_scooter"}, {"fusion_lat": 0.0, "bike_id": "d87f0f13b406798711070d70ddd2da32", "fusion_lon": 0.0, "lon": -77.00739866666666, "lat": 38.9253075, "is_reserved": 0, "is_disabled": 0, "rental_uris": {"android": "https://dc.lft.to/lastmile_qr_scan", "ios": "https://dc.lft.to/lastmile_qr_scan"}, "name": "d87f0f13b406798711070d70ddd2da32", "type": "electric_scooter"}, {"fusion_lat": 0.0, "bike_id": "d4f51a75d973fdda45008e78446c1a45", "fusion_lon": 0.0, "lon": -77.04192316666666, "lat": 38.92059616666667, "is_reserved": 0, "is_disabled": 0, "rental_uris": {"android": "https://dc.lft.to/lastmile_qr_scan", "ios": "https://dc.lft.to/lastmile_qr_scan"}, "name": "d4f51a75d973fdda45008e78446c1a45", "type": "electric_scooter"}, {"fusion_lat": 0.0, "bike_id": "fe6834ad3e4691fb1f3cc5542cfca164", "fusion_lon": 0.0, "lon": -77.04140433333333, "lat": 38.92297083333333, "is_reserved": 0, "is_disabled": 0, "rental_uris": {"android": "https://dc.lft.to/lastmile_qr_scan", "ios": "https://dc.lft.to/lastmile_qr_scan"}, "name": "fe6834ad3e4691fb1f3cc5542cfca164", "type": "electric_scooter"}, {"fusion_lat": 0.0, "bike_id": "4f5ac50e3c6ba2cbe9bdbb8eacd518f4", "fusion_lon": 0.0, "lon": -77.0280585, "lat": 38.912158, "is_reserved": 0, "is_disabled": 0, "rental_uris": {"android": "https://dc.lft.to/lastmile_qr_scan", "ios": "https://dc.lft.to/lastmile_qr_scan"}, "name": "4f5ac50e3c6ba2cbe9bdbb8eacd518f4", "type": "electric_scooter"}, {"fusion_lat": 0.0, "bike_id": "04071dd26095b5da2891caabce0006dd", "fusion_lon": 0.0, "lon": -77.0273025, "lat": 38.8973485, "is_reserved": 0, "is_disabled": 0, "rental_uris": {"android": "https://dc.lft.to/lastmile_qr_scan", "ios": "https://dc.lft.to/lastmile_qr_scan"}, "name": "04071dd26095b5da2891caabce0006dd", "type": "electric_scooter"}, {"fusion_lat": 0.0, "bike_id": "7e656924b27e747b5130593104c35aef", "fusion_lon": 0.0, "lon": -77.22798233333333, "lat": 38.91016883333333, "is_reserved": 0, "is_disabled": 0, "rental_uris": {"android": "https://dc.lft.to/lastmile_qr_scan", "ios": "https://dc.lft.to/lastmile_qr_scan"}, "name": "7e656924b27e747b5130593104c35aef", "type": "electric_bike"}, {"fusion_lat": 0.0, "bike_id": "84c5a1419fb3591b7a546af12c5fe379", "fusion_lon": 0.0, "lon": -77.03175583333334, "lat": 38.88735066666667, "is_reserved": 0, "is_disabled": 0, "rental_uris": {"android": "https://dc.lft.to/lastmile_qr_scan", "ios": "https://dc.lft.to/lastmile_qr_scan"}, "name": "84c5a1419fb3591b7a546af12c5fe379", "type": "electric_scooter"}, {"fusion_lat": 0.0, "bike_id": "2a3225816238c87323144b5952714091", "fusion_lon": 0.0, "lon": -77.02960366666667, "lat": 38.923133166666666, "is_reserved": 0, "is_disabled": 0, "rental_uris": {"android": "https://dc.lft.to/lastmile_qr_scan", "ios": "https://dc.lft.to/lastmile_qr_scan"}, "name": "2a3225816238c87323144b5952714091", "type": "electric_scooter"}, {"fusion_lat": 0.0, "bike_id": "78b5d06100abfbee375a63a5952f0f20", "fusion_lon": 0.0, "lon": -77.03861633333334, "lat": 38.932439333333335, "is_reserved": 0, "is_disabled": 0, "rental_uris": {"android": "https://dc.lft.to/lastmile_qr_scan", "ios": "https://dc.lft.to/lastmile_qr_scan"}, "name": "78b5d06100abfbee375a63a5952f0f20", "type": "electric_scooter"}, {"fusion_lat": 0.0, "bike_id": "8e7e9b73e52eb5f49cb21a4bdadf2a17", "fusion_lon": 0.0, "lon": -77.03421866666666, "lat": 38.919248333333336, "is_reserved": 0, "is_disabled": 0, "rental_uris": {"android": "https://dc.lft.to/lastmile_qr_scan", "ios": "https://dc.lft.to/lastmile_qr_scan"}, "name": "8e7e9b73e52eb5f49cb21a4bdadf2a17", "type": "electric_scooter"}, {"fusion_lat": 0.0, "bike_id": "fe0d81756f8f79fa966cd40e364a12f8", "fusion_lon": 0.0, "lon": -77.027947, "lat": 38.95403733333333, "is_reserved": 0, "is_disabled": 0, "rental_uris": {"android": "https://dc.lft.to/lastmile_qr_scan", "ios": "https://dc.lft.to/lastmile_qr_scan"}, "name": "fe0d81756f8f79fa966cd40e364a12f8", "type": "electric_scooter"}, {"fusion_lat": 0.0, "bike_id": "d4fd30f04d5d8df8c951e97e8c0098ba", "fusion_lon": 0.0, "lon": -77.0223625, "lat": 38.89214333333334, "is_reserved": 0, "is_disabled": 0, "rental_uris": {"android": "https://dc.lft.to/lastmile_qr_scan", "ios": "https://dc.lft.to/lastmile_qr_scan"}, "name": "d4fd30f04d5d8df8c951e97e8c0098ba", "type": "electric_scooter"}, {"fusion_lat": 0.0, "bike_id": "7fcf9b4f74a78a863c8fdfb44188f090", "fusion_lon": 0.0, "lon": -76.9596915, "lat": 38.94801366666667, "is_reserved": 0, "is_disabled": 0, "rental_uris": {"android": "https://dc.lft.to/lastmile_qr_scan", "ios": "https://dc.lft.to/lastmile_qr_scan"}, "name": "7fcf9b4f74a78a863c8fdfb44188f090", "type": "electric_bike"}, {"fusion_lat": 0.0, "bike_id": "e5b5636c0f3e33c093802decfe5ebd5a", "fusion_lon": 0.0, "lon": -76.97864466666667, "lat": 38.88301633333333, "is_reserved": 0, "is_disabled": 0, "rental_uris": {"android": "https://dc.lft.to/lastmile_qr_scan", "ios": "https://dc.lft.to/lastmile_qr_scan"}, "name": "e5b5636c0f3e33c093802decfe5ebd5a", "type": "electric_scooter"}, {"fusion_lat": 0.0, "bike_id": "55966c08a0d02f464e64a4825b3e8235", "fusion_lon": 0.0, "lon": -77.0381335, "lat": 38.90975683333333, "is_reserved": 0, "is_disabled": 0, "rental_uris": {"android": "https://dc.lft.to/lastmile_qr_scan", "ios": "https://dc.lft.to/lastmile_qr_scan"}, "name": "55966c08a0d02f464e64a4825b3e8235", "type": "electric_scooter"}, {"fusion_lat": 0.0, "bike_id": "aadad915ec14426f60ddcceab26d000e", "fusion_lon": 0.0, "lon": -77.01769816666666, "lat": 38.88726366666667, "is_reserved": 0, "is_disabled": 0, "rental_uris": {"android": "https://dc.lft.to/lastmile_qr_scan", "ios": "https://dc.lft.to/lastmile_qr_scan"}, "name": "aadad915ec14426f60ddcceab26d000e", "type": "electric_scooter"}, {"fusion_lat": 0.0, "bike_id": "0dcf100b5eac507c95ef64f55441c0a7", "fusion_lon": 0.0, "lon": -77.025581, "lat": 38.9416975, "is_reserved": 0, "is_disabled": 0, "rental_uris": {"android": "https://dc.lft.to/lastmile_qr_scan", "ios": "https://dc.lft.to/lastmile_qr_scan"}, "name": "0dcf100b5eac507c95ef64f55441c0a7", "type": "electric_scooter"}, {"fusion_lat": 0.0, "bike_id": "0bd0408e46ca361d0c86094c54d2a1ac", "fusion_lon": 0.0, "lon": -77.02965433333334, "lat": 38.912748, "is_reserved": 0, "is_disabled": 0, "rental_uris": {"android": "https://dc.lft.to/lastmile_qr_scan", "ios": "https://dc.lft.to/lastmile_qr_scan"}, "name": "0bd0408e46ca361d0c86094c54d2a1ac", "type": "electric_scooter"}, {"fusion_lat": 0.0, "bike_id": "5b212a4d6f78c6de9fd812c4d7eb8bba", "fusion_lon": 0.0, "lon": -77.03188566666667, "lat": 38.919236, "is_reserved": 0, "is_disabled": 0, "rental_uris": {"android": "https://dc.lft.to/lastmile_qr_scan", "ios": "https://dc.lft.to/lastmile_qr_scan"}, "name": "5b212a4d6f78c6de9fd812c4d7eb8bba", "type": "electric_scooter"}, {"fusion_lat": 0.0, "bike_id": "14bddd89ea5484212e71b3df02800ab8", "fusion_lon": 0.0, "lon": -77.06314033333334, "lat": 38.86543983333333, "is_reserved": 0, "is_disabled": 0, "rental_uris": {"android": "https://dc.lft.to/lastmile_qr_scan", "ios": "https://dc.lft.to/lastmile_qr_scan"}, "name": "14bddd89ea5484212e71b3df02800ab8", "type": "electric_bike"}, {"fusion_lat": 0.0, "bike_id": "fc55747a9b732118fbc9fb4ea73c2cba", "fusion_lon": 0.0, "lon": -77.07011283333334, "lat": 38.905919, "is_reserved": 0, "is_disabled": 0, "rental_uris": {"android": "https://dc.lft.to/lastmile_qr_scan", "ios": "https://dc.lft.to/lastmile_qr_scan"}, "name": "fc55747a9b732118fbc9fb4ea73c2cba", "type": "electric_scooter"}, {"fusion_lat": 0.0, "bike_id": "20045c08baf1c73d54d5a2d335e553f6", "fusion_lon": 0.0, "lon": -77.03861966666666, "lat": 38.9201755, "is_reserved": 0, "is_disabled": 0, "rental_uris": {"android": "https://dc.lft.to/lastmile_qr_scan", "ios": "https://dc.lft.to/lastmile_qr_scan"}, "name": "20045c08baf1c73d54d5a2d335e553f6", "type": "electric_scooter"}, {"fusion_lat": 0.0, "bike_id": "aad644aa32d16e3bb54a81a96765a981", "fusion_lon": 0.0, "lon": -77.03441433333333, "lat": 38.917994, "is_reserved": 0, "is_disabled": 0, "rental_uris": {"android": "https://dc.lft.to/lastmile_qr_scan", "ios": "https://dc.lft.to/lastmile_qr_scan"}, "name": "aad644aa32d16e3bb54a81a96765a981", "type": "electric_scooter"}, {"fusion_lat": 0.0, "bike_id": "e255e3ed84d9d58a7d0f76008fe37adb", "fusion_lon": 0.0, "lon": -77.01364616666666, "lat": 38.92885016666666, "is_reserved": 0, "is_disabled": 0, "rental_uris": {"android": "https://dc.lft.to/lastmile_qr_scan", "ios": "https://dc.lft.to/lastmile_qr_scan"}, "name": "e255e3ed84d9d58a7d0f76008fe37adb", "type": "electric_scooter"}, {"fusion_lat": 0.0, "bike_id": "17f5ca88787441e0642b4af7ed64169b", "fusion_lon": 0.0, "lon": -76.985868, "lat": 38.88409466666667, "is_reserved": 0, "is_disabled": 0, "rental_uris": {"android": "https://dc.lft.to/lastmile_qr_scan", "ios": "https://dc.lft.to/lastmile_qr_scan"}, "name": "17f5ca88787441e0642b4af7ed64169b", "type": "electric_scooter"}, {"fusion_lat": 0.0, "bike_id": "2988c11416aabd959feb8561a5666921", "fusion_lon": 0.0, "lon": -77.04982466666667, "lat": 39.06294416666667, "is_reserved": 0, "is_disabled": 0, "rental_uris": {"android": "https://dc.lft.to/lastmile_qr_scan", "ios": "https://dc.lft.to/lastmile_qr_scan"}, "name": "2988c11416aabd959feb8561a5666921", "type": "electric_bike"}, {"fusion_lat": 0.0, "bike_id": "5f0b5b882f7b7a14091da97d14c6d765", "fusion_lon": 0.0, "lon": -77.03168033333333, "lat": 38.903588166666665, "is_reserved": 0, "is_disabled": 0, "rental_uris": {"android": "https://dc.lft.to/lastmile_qr_scan", "ios": "https://dc.lft.to/lastmile_qr_scan"}, "name": "5f0b5b882f7b7a14091da97d14c6d765", "type": "electric_scooter"}, {"fusion_lat": 0.0, "bike_id": "a91f218e02e3d6c88170affaae5a046a", "fusion_lon": 0.0, "lon": -77.02563733333334, "lat": 38.925450166666664, "is_reserved": 0, "is_disabled": 0, "rental_uris": {"android": "https://dc.lft.to/lastmile_qr_scan", "ios": "https://dc.lft.to/lastmile_qr_scan"}, "name": "a91f218e02e3d6c88170affaae5a046a", "type": "electric_scooter"}, {"fusion_lat": 0.0, "bike_id": "b5c8ff8efaaeaf9a6e8d8d2d674740c3", "fusion_lon": 0.0, "lon": -76.98840416666667, "lat": 38.900693833333335, "is_reserved": 0, "is_disabled": 0, "rental_uris": {"android": "https://dc.lft.to/lastmile_qr_scan", "ios": "https://dc.lft.to/lastmile_qr_scan"}, "name": "b5c8ff8efaaeaf9a6e8d8d2d674740c3", "type": "electric_scooter"}, {"fusion_lat": 0.0, "bike_id": "685482db13339aaffd238df731f228a8", "fusion_lon": 0.0, "lon": -76.994758, "lat": 38.862194, "is_reserved": 0, "is_disabled": 0, "rental_uris": {"android": "https://dc.lft.to/lastmile_qr_scan", "ios": "https://dc.lft.to/lastmile_qr_scan"}, "name": "685482db13339aaffd238df731f228a8", "type": "electric_scooter"}, {"fusion_lat": 0.0, "bike_id": "1c4e5812f62ee8144f96cf2e0b9d3ccd", "fusion_lon": 0.0, "lon": -77.0803015, "lat": 38.950578, "is_reserved": 0, "is_disabled": 0, "rental_uris": {"android": "https://dc.lft.to/lastmile_qr_scan", "ios": "https://dc.lft.to/lastmile_qr_scan"}, "name": "1c4e5812f62ee8144f96cf2e0b9d3ccd", "type": "electric_scooter"}, {"fusion_lat": 0.0, "bike_id": "d5f3131b3b1f86a83313e0fa62e9dc94", "fusion_lon": 0.0, "lon": -77.0472945, "lat": 38.8973265, "is_reserved": 0, "is_disabled": 0, "rental_uris": {"android": "https://dc.lft.to/lastmile_qr_scan", "ios": "https://dc.lft.to/lastmile_qr_scan"}, "name": "d5f3131b3b1f86a83313e0fa62e9dc94", "type": "electric_scooter"}, {"fusion_lat": 0.0, "bike_id": "b4252bf008459dd1c33e5ecae5b9b0bf", "fusion_lon": 0.0, "lon": -76.983713, "lat": 38.889630833333335, "is_reserved": 0, "is_disabled": 0, "rental_uris": {"android": "https://dc.lft.to/lastmile_qr_scan", "ios": "https://dc.lft.to/lastmile_qr_scan"}, "name": "b4252bf008459dd1c33e5ecae5b9b0bf", "type": "electric_scooter"}, {"fusion_lat": 0.0, "bike_id": "5a1992c6e6a28cb97d78112899c658ec", "fusion_lon": 0.0, "lon": -77.05182683333334, "lat": 38.92425166666666, "is_reserved": 0, "is_disabled": 0, "rental_uris": {"android": "https://dc.lft.to/lastmile_qr_scan", "ios": "https://dc.lft.to/lastmile_qr_scan"}, "name": "5a1992c6e6a28cb97d78112899c658ec", "type": "electric_scooter"}, {"fusion_lat": 0.0, "bike_id": "3c8677be862eb44127da301e3e8b95d6", "fusion_lon": 0.0, "lon": -77.06098366666667, "lat": 38.94368716666666, "is_reserved": 0, "is_disabled": 0, "rental_uris": {"android": "https://dc.lft.to/lastmile_qr_scan", "ios": "https://dc.lft.to/lastmile_qr_scan"}, "name": "3c8677be862eb44127da301e3e8b95d6", "type": "electric_scooter"}, {"fusion_lat": 0.0, "bike_id": "24eb737f7cd0ffe26206b7de62a1ce48", "fusion_lon": 0.0, "lon": -77.05609566666666, "lat": 38.93161116666667, "is_reserved": 0, "is_disabled": 0, "rental_uris": {"android": "https://dc.lft.to/lastmile_qr_scan", "ios": "https://dc.lft.to/lastmile_qr_scan"}, "name": "24eb737f7cd0ffe26206b7de62a1ce48", "type": "electric_scooter"}, {"fusion_lat": 0.0, "bike_id": "d28342068574a28c053cab5b3d22910d", "fusion_lon": 0.0, "lon": -77.0337395, "lat": 38.92158116666667, "is_reserved": 0, "is_disabled": 0, "rental_uris": {"android": "https://dc.lft.to/lastmile_qr_scan", "ios": "https://dc.lft.to/lastmile_qr_scan"}, "name": "d28342068574a28c053cab5b3d22910d", "type": "electric_scooter"}, {"fusion_lat": 0.0, "bike_id": "af1e577b21416e639eb90661afeaaf3b", "fusion_lon": 0.0, "lon": -77.02582233333334, "lat": 38.89253716666666, "is_reserved": 0, "is_disabled": 0, "rental_uris": {"android": "https://dc.lft.to/lastmile_qr_scan", "ios": "https://dc.lft.to/lastmile_qr_scan"}, "name": "af1e577b21416e639eb90661afeaaf3b", "type": "electric_scooter"}, {"fusion_lat": 0.0, "bike_id": "6052554f44659cef63e8f959fa170e8b", "fusion_lon": 0.0, "lon": -77.02970866666666, "lat": 38.91725783333333, "is_reserved": 0, "is_disabled": 0, "rental_uris": {"android": "https://dc.lft.to/lastmile_qr_scan", "ios": "https://dc.lft.to/lastmile_qr_scan"}, "name": "6052554f44659cef63e8f959fa170e8b", "type": "electric_scooter"}, {"fusion_lat": 0.0, "bike_id": "8744c57bd836ee7846fd86536421e8c5", "fusion_lon": 0.0, "lon": -77.04243966666667, "lat": 38.916423333333334, "is_reserved": 0, "is_disabled": 0, "rental_uris": {"android": "https://dc.lft.to/lastmile_qr_scan", "ios": "https://dc.lft.to/lastmile_qr_scan"}, "name": "8744c57bd836ee7846fd86536421e8c5", "type": "electric_scooter"}, {"fusion_lat": 0.0, "bike_id": "c789a8778c5b0b5da1694bda37e0aa08", "fusion_lon": 0.0, "lon": -77.11708016666667, "lat": 38.867435, "is_reserved": 0, "is_disabled": 0, "rental_uris": {"android": "https://dc.lft.to/lastmile_qr_scan", "ios": "https://dc.lft.to/lastmile_qr_scan"}, "name": "c789a8778c5b0b5da1694bda37e0aa08", "type": "electric_bike"}, {"fusion_lat": 0.0, "bike_id": "2ed3efe06bb62401ec3232044def3937", "fusion_lon": 0.0, "lon": -77.03088666666666, "lat": 38.910608, "is_reserved": 0, "is_disabled": 0, "rental_uris": {"android": "https://dc.lft.to/lastmile_qr_scan", "ios": "https://dc.lft.to/lastmile_qr_scan"}, "name": "2ed3efe06bb62401ec3232044def3937", "type": "electric_scooter"}, {"fusion_lat": 0.0, "bike_id": "e18c4120dc689fe468be0bebe9d9bb56", "fusion_lon": 0.0, "lon": -77.0258355, "lat": 38.918169, "is_reserved": 0, "is_disabled": 0, "rental_uris": {"android": "https://dc.lft.to/lastmile_qr_scan", "ios": "https://dc.lft.to/lastmile_qr_scan"}, "name": "e18c4120dc689fe468be0bebe9d9bb56", "type": "electric_scooter"}, {"fusion_lat": 0.0, "bike_id": "ac0c6843bccb95d36998ca5f336e5543", "fusion_lon": 0.0, "lon": -77.07623333333333, "lat": 38.965757833333335, "is_reserved": 0, "is_disabled": 0, "rental_uris": {"android": "https://dc.lft.to/lastmile_qr_scan", "ios": "https://dc.lft.to/lastmile_qr_scan"}, "name": "ac0c6843bccb95d36998ca5f336e5543", "type": "electric_bike"}, {"fusion_lat": 0.0, "bike_id": "16bea11599952c16737a4f2023cf299c", "fusion_lon": 0.0, "lon": -76.9575025, "lat": 38.88423916666667, "is_reserved": 0, "is_disabled": 0, "rental_uris": {"android": "https://dc.lft.to/lastmile_qr_scan", "ios": "https://dc.lft.to/lastmile_qr_scan"}, "name": "16bea11599952c16737a4f2023cf299c", "type": "electric_scooter"}, {"fusion_lat": 0.0, "bike_id": "36fe5fa2f0597e919984d04bd21e3eb1", "fusion_lon": 0.0, "lon": -77.03509833333334, "lat": 38.96526316666667, "is_reserved": 0, "is_disabled": 0, "rental_uris": {"android": "https://dc.lft.to/lastmile_qr_scan", "ios": "https://dc.lft.to/lastmile_qr_scan"}, "name": "36fe5fa2f0597e919984d04bd21e3eb1", "type": "electric_bike"}, {"fusion_lat": 0.0, "bike_id": "3d984126212f9cc1171d750fd092e952", "fusion_lon": 0.0, "lon": -77.024891, "lat": 38.88499233333334, "is_reserved": 0, "is_disabled": 0, "rental_uris": {"android": "https://dc.lft.to/lastmile_qr_scan", "ios": "https://dc.lft.to/lastmile_qr_scan"}, "name": "3d984126212f9cc1171d750fd092e952", "type": "electric_scooter"}, {"fusion_lat": 0.0, "bike_id": "4b0c4356e8427336e69304d9406d8c4c", "fusion_lon": 0.0, "lon": -77.04498966666667, "lat": 38.9025585, "is_reserved": 0, "is_disabled": 0, "rental_uris": {"android": "https://dc.lft.to/lastmile_qr_scan", "ios": "https://dc.lft.to/lastmile_qr_scan"}, "name": "4b0c4356e8427336e69304d9406d8c4c", "type": "electric_scooter"}, {"fusion_lat": 0.0, "bike_id": "acbd4c8e6bd3f215f242bb11f50cbd66", "fusion_lon": 0.0, "lon": -77.03201116666666, "lat": 38.911279, "is_reserved": 0, "is_disabled": 0, "rental_uris": {"android": "https://dc.lft.to/lastmile_qr_scan", "ios": "https://dc.lft.to/lastmile_qr_scan"}, "name": "acbd4c8e6bd3f215f242bb11f50cbd66", "type": "electric_scooter"}, {"fusion_lat": 0.0, "bike_id": "5719544c1b3410a5d88eb429ce64002b", "fusion_lon": 0.0, "lon": -77.02223833333333, "lat": 38.93549316666667, "is_reserved": 0, "is_disabled": 0, "rental_uris": {"android": "https://dc.lft.to/lastmile_qr_scan", "ios": "https://dc.lft.to/lastmile_qr_scan"}, "name": "5719544c1b3410a5d88eb429ce64002b", "type": "electric_scooter"}, {"fusion_lat": 0.0, "bike_id": "15cecb829a14a047ebdcdc52369b3dcf", "fusion_lon": 0.0, "lon": -77.04191183333333, "lat": 38.899811166666666, "is_reserved": 0, "is_disabled": 0, "rental_uris": {"android": "https://dc.lft.to/lastmile_qr_scan", "ios": "https://dc.lft.to/lastmile_qr_scan"}, "name": "15cecb829a14a047ebdcdc52369b3dcf", "type": "electric_scooter"}, {"fusion_lat": 0.0, "bike_id": "878835e9dfcfb66873b25c021c485cb1", "fusion_lon": 0.0, "lon": -77.0209685, "lat": 38.93261, "is_reserved": 0, "is_disabled": 0, "rental_uris": {"android": "https://dc.lft.to/lastmile_qr_scan", "ios": "https://dc.lft.to/lastmile_qr_scan"}, "name": "878835e9dfcfb66873b25c021c485cb1", "type": "electric_scooter"}, {"fusion_lat": 0.0, "bike_id": "feaff1a726510f39b2e3d96255e6e050", "fusion_lon": 0.0, "lon": -77.017689, "lat": 38.9209685, "is_reserved": 0, "is_disabled": 0, "rental_uris": {"android": "https://dc.lft.to/lastmile_qr_scan", "ios": "https://dc.lft.to/lastmile_qr_scan"}, "name": "feaff1a726510f39b2e3d96255e6e050", "type": "electric_scooter"}, {"fusion_lat": 0.0, "bike_id": "7d70a046273e7d2385aeed1e843eab45", "fusion_lon": 0.0, "lon": -77.03603716666667, "lat": 38.936845166666664, "is_reserved": 0, "is_disabled": 0, "rental_uris": {"android": "https://dc.lft.to/lastmile_qr_scan", "ios": "https://dc.lft.to/lastmile_qr_scan"}, "name": "7d70a046273e7d2385aeed1e843eab45", "type": "electric_scooter"}, {"fusion_lat": 0.0, "bike_id": "c715b44ed9c1c4d5510565b30542866c", "fusion_lon": 0.0, "lon": -77.04497866666667, "lat": 38.915190833333334, "is_reserved": 0, "is_disabled": 0, "rental_uris": {"android": "https://dc.lft.to/lastmile_qr_scan", "ios": "https://dc.lft.to/lastmile_qr_scan"}, "name": "c715b44ed9c1c4d5510565b30542866c", "type": "electric_scooter"}, {"fusion_lat": 0.0, "bike_id": "3bbcc7fb8a61abd08a11b168437c1ef7", "fusion_lon": 0.0, "lon": -77.03220266666666, "lat": 38.925844, "is_reserved": 0, "is_disabled": 0, "rental_uris": {"android": "https://dc.lft.to/lastmile_qr_scan", "ios": "https://dc.lft.to/lastmile_qr_scan"}, "name": "3bbcc7fb8a61abd08a11b168437c1ef7", "type": "electric_scooter"}, {"fusion_lat": 0.0, "bike_id": "6c5d94291187bd1dd2195d36e5245285", "fusion_lon": 0.0, "lon": -77.02320416666667, "lat": 38.8948675, "is_reserved": 0, "is_disabled": 0, "rental_uris": {"android": "https://dc.lft.to/lastmile_qr_scan", "ios": "https://dc.lft.to/lastmile_qr_scan"}, "name": "6c5d94291187bd1dd2195d36e5245285", "type": "electric_scooter"}, {"fusion_lat": 0.0, "bike_id": "edf065ddeab7a1cffdf85459f2b29e39", "fusion_lon": 0.0, "lon": -76.99795616666667, "lat": 38.829056, "is_reserved": 0, "is_disabled": 0, "rental_uris": {"android": "https://dc.lft.to/lastmile_qr_scan", "ios": "https://dc.lft.to/lastmile_qr_scan"}, "name": "edf065ddeab7a1cffdf85459f2b29e39", "type": "electric_bike"}, {"fusion_lat": 0.0, "bike_id": "12a84afb2fb5ff4b27e4dd5a23d3b270", "fusion_lon": 0.0, "lon": -76.97209616666666, "lat": 38.89283533333333, "is_reserved": 0, "is_disabled": 0, "rental_uris": {"android": "https://dc.lft.to/lastmile_qr_scan", "ios": "https://dc.lft.to/lastmile_qr_scan"}, "name": "12a84afb2fb5ff4b27e4dd5a23d3b270", "type": "electric_bike"}, {"fusion_lat": 0.0, "bike_id": "df302af31af2f5ea8fbec67a946af3fe", "fusion_lon": 0.0, "lon": -77.05000416666667, "lat": 38.90513966666666, "is_reserved": 0, "is_disabled": 0, "rental_uris": {"android": "https://dc.lft.to/lastmile_qr_scan", "ios": "https://dc.lft.to/lastmile_qr_scan"}, "name": "df302af31af2f5ea8fbec67a946af3fe", "type": "electric_scooter"}, {"fusion_lat": 0.0, "bike_id": "f4f45a4d3946aee1c4dba3ce88fa86b1", "fusion_lon": 0.0, "lon": -76.99268366666666, "lat": 38.86026783333333, "is_reserved": 0, "is_disabled": 0, "rental_uris": {"android": "https://dc.lft.to/lastmile_qr_scan", "ios": "https://dc.lft.to/lastmile_qr_scan"}, "name": "f4f45a4d3946aee1c4dba3ce88fa86b1", "type": "electric_scooter"}, {"fusion_lat": 0.0, "bike_id": "5a4b47d297dfd50f25dd6988f74c9693", "fusion_lon": 0.0, "lon": -77.1392955, "lat": 38.8729995, "is_reserved": 0, "is_disabled": 0, "rental_uris": {"android": "https://dc.lft.to/lastmile_qr_scan", "ios": "https://dc.lft.to/lastmile_qr_scan"}, "name": "5a4b47d297dfd50f25dd6988f74c9693", "type": "electric_bike"}, {"fusion_lat": 0.0, "bike_id": "a24b04c197de90cefc3aa0d70372f956", "fusion_lon": 0.0, "lon": -77.02366316666667, "lat": 38.91785733333333, "is_reserved": 0, "is_disabled": 0, "rental_uris": {"android": "https://dc.lft.to/lastmile_qr_scan", "ios": "https://dc.lft.to/lastmile_qr_scan"}, "name": "a24b04c197de90cefc3aa0d70372f956", "type": "electric_scooter"}, {"fusion_lat": 0.0, "bike_id": "80411f42d3956986f13eeb85c29339ab", "fusion_lon": 0.0, "lon": -77.05559316666667, "lat": 38.93051233333333, "is_reserved": 0, "is_disabled": 0, "rental_uris": {"android": "https://dc.lft.to/lastmile_qr_scan", "ios": "https://dc.lft.to/lastmile_qr_scan"}, "name": "80411f42d3956986f13eeb85c29339ab", "type": "electric_scooter"}, {"fusion_lat": 0.0, "bike_id": "59deac57964453b019f69402fedced98", "fusion_lon": 0.0, "lon": -76.98842583333334, "lat": 38.896683333333335, "is_reserved": 0, "is_disabled": 0, "rental_uris": {"android": "https://dc.lft.to/lastmile_qr_scan", "ios": "https://dc.lft.to/lastmile_qr_scan"}, "name": "59deac57964453b019f69402fedced98", "type": "electric_scooter"}, {"fusion_lat": 0.0, "bike_id": "4f128f081aefb4479f3030e103f3b157", "fusion_lon": 0.0, "lon": -77.044901, "lat": 38.9132915, "is_reserved": 0, "is_disabled": 0, "rental_uris": {"android": "https://dc.lft.to/lastmile_qr_scan", "ios": "https://dc.lft.to/lastmile_qr_scan"}, "name": "4f128f081aefb4479f3030e103f3b157", "type": "electric_scooter"}, {"fusion_lat": 0.0, "bike_id": "d2a90a163acd0ad401c3ea65eedf054c", "fusion_lon": 0.0, "lon": -77.12465983333334, "lat": 38.853745, "is_reserved": 0, "is_disabled": 0, "rental_uris": {"android": "https://dc.lft.to/lastmile_qr_scan", "ios": "https://dc.lft.to/lastmile_qr_scan"}, "name": "d2a90a163acd0ad401c3ea65eedf054c", "type": "electric_bike"}, {"fusion_lat": 0.0, "bike_id": "b39aefff3b97eaeb40282260e66c2771", "fusion_lon": 0.0, "lon": -77.03224883333333, "lat": 38.8978165, "is_reserved": 0, "is_disabled": 0, "rental_uris": {"android": "https://dc.lft.to/lastmile_qr_scan", "ios": "https://dc.lft.to/lastmile_qr_scan"}, "name": "b39aefff3b97eaeb40282260e66c2771", "type": "electric_scooter"}, {"fusion_lat": 0.0, "bike_id": "f38c98168652ba6e4c9fc7a1f5e93928", "fusion_lon": 0.0, "lon": -77.03808133333334, "lat": 38.9311765, "is_reserved": 0, "is_disabled": 0, "rental_uris": {"android": "https://dc.lft.to/lastmile_qr_scan", "ios": "https://dc.lft.to/lastmile_qr_scan"}, "name": "f38c98168652ba6e4c9fc7a1f5e93928", "type": "electric_scooter"}, {"fusion_lat": 0.0, "bike_id": "9c7e26f657847b59b080486212db1c49", "fusion_lon": 0.0, "lon": -77.02709016666667, "lat": 38.9498985, "is_reserved": 0, "is_disabled": 0, "rental_uris": {"android": "https://dc.lft.to/lastmile_qr_scan", "ios": "https://dc.lft.to/lastmile_qr_scan"}, "name": "9c7e26f657847b59b080486212db1c49", "type": "electric_scooter"}, {"fusion_lat": 0.0, "bike_id": "b25172aadc553bbdef5193951ccb9ac5", "fusion_lon": 0.0, "lon": -77.03657866666667, "lat": 38.92119316666667, "is_reserved": 0, "is_disabled": 0, "rental_uris": {"android": "https://dc.lft.to/lastmile_qr_scan", "ios": "https://dc.lft.to/lastmile_qr_scan"}, "name": "b25172aadc553bbdef5193951ccb9ac5", "type": "electric_scooter"}, {"fusion_lat": 0.0, "bike_id": "bf3e2cdfee10832609b1f408513eee1c", "fusion_lon": 0.0, "lon": -77.04708716666667, "lat": 38.90236683333333, "is_reserved": 0, "is_disabled": 0, "rental_uris": {"android": "https://dc.lft.to/lastmile_qr_scan", "ios": "https://dc.lft.to/lastmile_qr_scan"}, "name": "bf3e2cdfee10832609b1f408513eee1c", "type": "electric_scooter"}, {"fusion_lat": 0.0, "bike_id": "61b1472de54a580263a24677baf0f1ef", "fusion_lon": 0.0, "lon": -77.02407816666667, "lat": 38.89982366666667, "is_reserved": 0, "is_disabled": 0, "rental_uris": {"android": "https://dc.lft.to/lastmile_qr_scan", "ios": "https://dc.lft.to/lastmile_qr_scan"}, "name": "61b1472de54a580263a24677baf0f1ef", "type": "electric_scooter"}, {"fusion_lat": 0.0, "bike_id": "f3e67819f1ab394887971453e0f8c87f", "fusion_lon": 0.0, "lon": -76.991337, "lat": 38.8641665, "is_reserved": 0, "is_disabled": 0, "rental_uris": {"android": "https://dc.lft.to/lastmile_qr_scan", "ios": "https://dc.lft.to/lastmile_qr_scan"}, "name": "f3e67819f1ab394887971453e0f8c87f", "type": "electric_scooter"}, {"fusion_lat": 0.0, "bike_id": "73b8c9bf8a2be2e36e013e7dbda85978", "fusion_lon": 0.0, "lon": -77.031124, "lat": 38.91261083333333, "is_reserved": 0, "is_disabled": 0, "rental_uris": {"android": "https://dc.lft.to/lastmile_qr_scan", "ios": "https://dc.lft.to/lastmile_qr_scan"}, "name": "73b8c9bf8a2be2e36e013e7dbda85978", "type": "electric_scooter"}, {"fusion_lat": 0.0, "bike_id": "58c7c554799dc48a6167971178b686ab", "fusion_lon": 0.0, "lon": -76.96908866666666, "lat": 38.8460805, "is_reserved": 0, "is_disabled": 0, "rental_uris": {"android": "https://dc.lft.to/lastmile_qr_scan", "ios": "https://dc.lft.to/lastmile_qr_scan"}, "name": "58c7c554799dc48a6167971178b686ab", "type": "electric_bike"}, {"fusion_lat": 0.0, "bike_id": "2224966bd5e383b509221ef22e64dd04", "fusion_lon": 0.0, "lon": -77.03214833333334, "lat": 38.89526766666667, "is_reserved": 0, "is_disabled": 0, "rental_uris": {"android": "https://dc.lft.to/lastmile_qr_scan", "ios": "https://dc.lft.to/lastmile_qr_scan"}, "name": "2224966bd5e383b509221ef22e64dd04", "type": "electric_scooter"}, {"fusion_lat": 0.0, "bike_id": "ff200210585a8646d420067f178fc498", "fusion_lon": 0.0, "lon": -77.115947, "lat": 39.074912833333336, "is_reserved": 0, "is_disabled": 0, "rental_uris": {"android": "https://dc.lft.to/lastmile_qr_scan", "ios": "https://dc.lft.to/lastmile_qr_scan"}, "name": "ff200210585a8646d420067f178fc498", "type": "electric_bike"}, {"fusion_lat": 0.0, "bike_id": "24c692c49115c3b4e08fbf741031b999", "fusion_lon": 0.0, "lon": -77.0417765, "lat": 38.90532, "is_reserved": 0, "is_disabled": 0, "rental_uris": {"android": "https://dc.lft.to/lastmile_qr_scan", "ios": "https://dc.lft.to/lastmile_qr_scan"}, "name": "24c692c49115c3b4e08fbf741031b999", "type": "electric_scooter"}, {"fusion_lat": 0.0, "bike_id": "b779dff0930e40899dd6ff4f55c4bd6f", "fusion_lon": 0.0, "lon": -76.9953945, "lat": 38.92669016666667, "is_reserved": 0, "is_disabled": 0, "rental_uris": {"android": "https://dc.lft.to/lastmile_qr_scan", "ios": "https://dc.lft.to/lastmile_qr_scan"}, "name": "b779dff0930e40899dd6ff4f55c4bd6f", "type": "electric_scooter"}, {"fusion_lat": 0.0, "bike_id": "8810987f665d34e4e1b9faf5db35b03d", "fusion_lon": 0.0, "lon": -77.00062383333334, "lat": 38.9014175, "is_reserved": 0, "is_disabled": 0, "rental_uris": {"android": "https://dc.lft.to/lastmile_qr_scan", "ios": "https://dc.lft.to/lastmile_qr_scan"}, "name": "8810987f665d34e4e1b9faf5db35b03d", "type": "electric_bike"}, {"fusion_lat": 0.0, "bike_id": "e07f0c3e14dc475d8bb19ccb0e0af934", "fusion_lon": 0.0, "lon": -77.04687883333334, "lat": 38.892226, "is_reserved": 0, "is_disabled": 0, "rental_uris": {"android": "https://dc.lft.to/lastmile_qr_scan", "ios": "https://dc.lft.to/lastmile_qr_scan"}, "name": "e07f0c3e14dc475d8bb19ccb0e0af934", "type": "electric_scooter"}, {"fusion_lat": 0.0, "bike_id": "860a07cf06a6d8db377f2bc4a6b76783", "fusion_lon": 0.0, "lon": -77.02709283333333, "lat": 38.92031216666667, "is_reserved": 0, "is_disabled": 0, "rental_uris": {"android": "https://dc.lft.to/lastmile_qr_scan", "ios": "https://dc.lft.to/lastmile_qr_scan"}, "name": "860a07cf06a6d8db377f2bc4a6b76783", "type": "electric_scooter"}, {"fusion_lat": 0.0, "bike_id": "0a58f349bb84bc51ad1acf724037b084", "fusion_lon": 0.0, "lon": -77.01742133333333, "lat": 38.8874455, "is_reserved": 0, "is_disabled": 0, "rental_uris": {"android": "https://dc.lft.to/lastmile_qr_scan", "ios": "https://dc.lft.to/lastmile_qr_scan"}, "name": "0a58f349bb84bc51ad1acf724037b084", "type": "electric_scooter"}, {"fusion_lat": 0.0, "bike_id": "00cf0fc885adbd5fa57f73397029d130", "fusion_lon": 0.0, "lon": -77.024829, "lat": 38.9387935, "is_reserved": 0, "is_disabled": 0, "rental_uris": {"android": "https://dc.lft.to/lastmile_qr_scan", "ios": "https://dc.lft.to/lastmile_qr_scan"}, "name": "00cf0fc885adbd5fa57f73397029d130", "type": "electric_scooter"}, {"fusion_lat": 0.0, "bike_id": "705d1a1c7ff427e2a6864858e1397cf5", "fusion_lon": 0.0, "lon": -77.04444666666667, "lat": 38.921649, "is_reserved": 0, "is_disabled": 0, "rental_uris": {"android": "https://dc.lft.to/lastmile_qr_scan", "ios": "https://dc.lft.to/lastmile_qr_scan"}, "name": "705d1a1c7ff427e2a6864858e1397cf5", "type": "electric_scooter"}, {"fusion_lat": 0.0, "bike_id": "566ce30ba45bd14625707ad08cf64f50", "fusion_lon": 0.0, "lon": -77.01537316666666, "lat": 38.88737016666666, "is_reserved": 0, "is_disabled": 0, "rental_uris": {"android": "https://dc.lft.to/lastmile_qr_scan", "ios": "https://dc.lft.to/lastmile_qr_scan"}, "name": "566ce30ba45bd14625707ad08cf64f50", "type": "electric_scooter"}, {"fusion_lat": 0.0, "bike_id": "8e0989606c0d2c301423d484677f53c3", "fusion_lon": 0.0, "lon": -77.03317666666666, "lat": 38.909629833333334, "is_reserved": 0, "is_disabled": 0, "rental_uris": {"android": "https://dc.lft.to/lastmile_qr_scan", "ios": "https://dc.lft.to/lastmile_qr_scan"}, "name": "8e0989606c0d2c301423d484677f53c3", "type": "electric_scooter"}, {"fusion_lat": 0.0, "bike_id": "8ec5007f6f1d438b473bc81335a4e0da", "fusion_lon": 0.0, "lon": -77.04174466666667, "lat": 38.90627816666667, "is_reserved": 0, "is_disabled": 0, "rental_uris": {"android": "https://dc.lft.to/lastmile_qr_scan", "ios": "https://dc.lft.to/lastmile_qr_scan"}, "name": "8ec5007f6f1d438b473bc81335a4e0da", "type": "electric_scooter"}, {"fusion_lat": 0.0, "bike_id": "1672cf88d6c6d4930ecccd6b3462727b", "fusion_lon": 0.0, "lon": -76.97858366666667, "lat": 38.871945333333336, "is_reserved": 0, "is_disabled": 0, "rental_uris": {"android": "https://dc.lft.to/lastmile_qr_scan", "ios": "https://dc.lft.to/lastmile_qr_scan"}, "name": "1672cf88d6c6d4930ecccd6b3462727b", "type": "electric_scooter"}, {"fusion_lat": 0.0, "bike_id": "34a5e8f1221225b7ac840f5737e01fe6", "fusion_lon": 0.0, "lon": -77.03005083333333, "lat": 38.895868, "is_reserved": 0, "is_disabled": 0, "rental_uris": {"android": "https://dc.lft.to/lastmile_qr_scan", "ios": "https://dc.lft.to/lastmile_qr_scan"}, "name": "34a5e8f1221225b7ac840f5737e01fe6", "type": "electric_scooter"}, {"fusion_lat": 0.0, "bike_id": "6dc42a475636787bf06193f239d5b023", "fusion_lon": 0.0, "lon": -77.0569185, "lat": 38.8648555, "is_reserved": 0, "is_disabled": 0, "rental_uris": {"android": "https://dc.lft.to/lastmile_qr_scan", "ios": "https://dc.lft.to/lastmile_qr_scan"}, "name": "6dc42a475636787bf06193f239d5b023", "type": "electric_bike"}, {"fusion_lat": 0.0, "bike_id": "869c4e8c5d3338182c09cc45f2d09c0a", "fusion_lon": 0.0, "lon": -77.03329633333334, "lat": 38.901197333333336, "is_reserved": 0, "is_disabled": 0, "rental_uris": {"android": "https://dc.lft.to/lastmile_qr_scan", "ios": "https://dc.lft.to/lastmile_qr_scan"}, "name": "869c4e8c5d3338182c09cc45f2d09c0a", "type": "electric_scooter"}, {"fusion_lat": 0.0, "bike_id": "381f6835b9b208a8cfdac67aa580b8cd", "fusion_lon": 0.0, "lon": -77.02659, "lat": 38.9277905, "is_reserved": 0, "is_disabled": 0, "rental_uris": {"android": "https://dc.lft.to/lastmile_qr_scan", "ios": "https://dc.lft.to/lastmile_qr_scan"}, "name": "381f6835b9b208a8cfdac67aa580b8cd", "type": "electric_scooter"}, {"fusion_lat": 0.0, "bike_id": "889072633407fd07de7084a14b2a3144", "fusion_lon": 0.0, "lon": -77.00043016666666, "lat": 38.96798183333333, "is_reserved": 0, "is_disabled": 0, "rental_uris": {"android": "https://dc.lft.to/lastmile_qr_scan", "ios": "https://dc.lft.to/lastmile_qr_scan"}, "name": "889072633407fd07de7084a14b2a3144", "type": "electric_bike"}, {"fusion_lat": 0.0, "bike_id": "f0752bf70d13cc11623d77a9a83892e6", "fusion_lon": 0.0, "lon": -77.02810783333334, "lat": 38.9113235, "is_reserved": 0, "is_disabled": 0, "rental_uris": {"android": "https://dc.lft.to/lastmile_qr_scan", "ios": "https://dc.lft.to/lastmile_qr_scan"}, "name": "f0752bf70d13cc11623d77a9a83892e6", "type": "electric_scooter"}, {"fusion_lat": 0.0, "bike_id": "1089919f65c04d690a34727340774062", "fusion_lon": 0.0, "lon": -77.03674783333334, "lat": 38.92270033333333, "is_reserved": 0, "is_disabled": 0, "rental_uris": {"android": "https://dc.lft.to/lastmile_qr_scan", "ios": "https://dc.lft.to/lastmile_qr_scan"}, "name": "1089919f65c04d690a34727340774062", "type": "electric_scooter"}, {"fusion_lat": 0.0, "bike_id": "92b8e5553d964dfd7389dad60344b4c6", "fusion_lon": 0.0, "lon": -77.02383683333333, "lat": 38.8923625, "is_reserved": 0, "is_disabled": 0, "rental_uris": {"android": "https://dc.lft.to/lastmile_qr_scan", "ios": "https://dc.lft.to/lastmile_qr_scan"}, "name": "92b8e5553d964dfd7389dad60344b4c6", "type": "electric_scooter"}, {"fusion_lat": 0.0, "bike_id": "6636fa268b8d05a7f91e186a3ac88726", "fusion_lon": 0.0, "lon": -77.03185933333333, "lat": 38.917463833333336, "is_reserved": 0, "is_disabled": 0, "rental_uris": {"android": "https://dc.lft.to/lastmile_qr_scan", "ios": "https://dc.lft.to/lastmile_qr_scan"}, "name": "6636fa268b8d05a7f91e186a3ac88726", "type": "electric_scooter"}, {"fusion_lat": 0.0, "bike_id": "33d4591bcc1f3cd474482fa61bd8b8d9", "fusion_lon": 0.0, "lon": -77.00205283333334, "lat": 38.902379333333336, "is_reserved": 0, "is_disabled": 0, "rental_uris": {"android": "https://dc.lft.to/lastmile_qr_scan", "ios": "https://dc.lft.to/lastmile_qr_scan"}, "name": "33d4591bcc1f3cd474482fa61bd8b8d9", "type": "electric_scooter"}, {"fusion_lat": 0.0, "bike_id": "6be7d371200cfdfbb9cfe97bdf47fbc0", "fusion_lon": 0.0, "lon": -77.05044616666666, "lat": 38.92360866666667, "is_reserved": 0, "is_disabled": 0, "rental_uris": {"android": "https://dc.lft.to/lastmile_qr_scan", "ios": "https://dc.lft.to/lastmile_qr_scan"}, "name": "6be7d371200cfdfbb9cfe97bdf47fbc0", "type": "electric_scooter"}, {"fusion_lat": 0.0, "bike_id": "8a11f32facc6caf731f9823aa9533bdf", "fusion_lon": 0.0, "lon": -77.03657366666667, "lat": 38.921372, "is_reserved": 0, "is_disabled": 0, "rental_uris": {"android": "https://dc.lft.to/lastmile_qr_scan", "ios": "https://dc.lft.to/lastmile_qr_scan"}, "name": "8a11f32facc6caf731f9823aa9533bdf", "type": "electric_scooter"}, {"fusion_lat": 0.0, "bike_id": "23b567759bbf05d99efc9e2dfa5d1a02", "fusion_lon": 0.0, "lon": -77.03885016666666, "lat": 38.929657166666665, "is_reserved": 0, "is_disabled": 0, "rental_uris": {"android": "https://dc.lft.to/lastmile_qr_scan", "ios": "https://dc.lft.to/lastmile_qr_scan"}, "name": "23b567759bbf05d99efc9e2dfa5d1a02", "type": "electric_scooter"}, {"fusion_lat": 0.0, "bike_id": "3dfa1a277c693172ee6a45c7f1c26649", "fusion_lon": 0.0, "lon": -77.028416, "lat": 38.925812666666666, "is_reserved": 0, "is_disabled": 0, "rental_uris": {"android": "https://dc.lft.to/lastmile_qr_scan", "ios": "https://dc.lft.to/lastmile_qr_scan"}, "name": "3dfa1a277c693172ee6a45c7f1c26649", "type": "electric_scooter"}, {"fusion_lat": 0.0, "bike_id": "c26a7b27bd0e04b0e9d4211f165a9024", "fusion_lon": 0.0, "lon": -77.02060433333334, "lat": 38.92363866666667, "is_reserved": 0, "is_disabled": 0, "rental_uris": {"android": "https://dc.lft.to/lastmile_qr_scan", "ios": "https://dc.lft.to/lastmile_qr_scan"}, "name": "c26a7b27bd0e04b0e9d4211f165a9024", "type": "electric_scooter"}, {"fusion_lat": 0.0, "bike_id": "a936846c84342d1c54c6f205c0541704", "fusion_lon": 0.0, "lon": -77.03224983333334, "lat": 38.904661, "is_reserved": 0, "is_disabled": 0, "rental_uris": {"android": "https://dc.lft.to/lastmile_qr_scan", "ios": "https://dc.lft.to/lastmile_qr_scan"}, "name": "a936846c84342d1c54c6f205c0541704", "type": "electric_scooter"}, {"fusion_lat": 0.0, "bike_id": "4a5c5bb575c28c6e074707ed78da5430", "fusion_lon": 0.0, "lon": -77.03219633333333, "lat": 38.8964825, "is_reserved": 0, "is_disabled": 0, "rental_uris": {"android": "https://dc.lft.to/lastmile_qr_scan", "ios": "https://dc.lft.to/lastmile_qr_scan"}, "name": "4a5c5bb575c28c6e074707ed78da5430", "type": "electric_scooter"}, {"fusion_lat": 0.0, "bike_id": "62090706cc08c7c32920fbea82cf00e1", "fusion_lon": 0.0, "lon": -77.05503566666667, "lat": 38.92979883333334, "is_reserved": 0, "is_disabled": 0, "rental_uris": {"android": "https://dc.lft.to/lastmile_qr_scan", "ios": "https://dc.lft.to/lastmile_qr_scan"}, "name": "62090706cc08c7c32920fbea82cf00e1", "type": "electric_scooter"}, {"fusion_lat": 0.0, "bike_id": "da65e2943bc0c284e677c233f688827e", "fusion_lon": 0.0, "lon": -77.02256083333333, "lat": 38.9245955, "is_reserved": 0, "is_disabled": 0, "rental_uris": {"android": "https://dc.lft.to/lastmile_qr_scan", "ios": "https://dc.lft.to/lastmile_qr_scan"}, "name": "da65e2943bc0c284e677c233f688827e", "type": "electric_scooter"}, {"fusion_lat": 0.0, "bike_id": "cf297caa7b028a32a3e7825dd2c1c189", "fusion_lon": 0.0, "lon": -77.050765, "lat": 38.90171083333333, "is_reserved": 0, "is_disabled": 0, "rental_uris": {"android": "https://dc.lft.to/lastmile_qr_scan", "ios": "https://dc.lft.to/lastmile_qr_scan"}, "name": "cf297caa7b028a32a3e7825dd2c1c189", "type": "electric_scooter"}, {"fusion_lat": 0.0, "bike_id": "10f9658c37efccd70f9edbd8c685a571", "fusion_lon": 0.0, "lon": -77.02492016666666, "lat": 38.91693566666667, "is_reserved": 0, "is_disabled": 0, "rental_uris": {"android": "https://dc.lft.to/lastmile_qr_scan", "ios": "https://dc.lft.to/lastmile_qr_scan"}, "name": "10f9658c37efccd70f9edbd8c685a571", "type": "electric_scooter"}, {"fusion_lat": 0.0, "bike_id": "a78c56d1638d195fce195f24fc28df53", "fusion_lon": 0.0, "lon": -77.06713133333334, "lat": 38.914395, "is_reserved": 0, "is_disabled": 0, "rental_uris": {"android": "https://dc.lft.to/lastmile_qr_scan", "ios": "https://dc.lft.to/lastmile_qr_scan"}, "name": "a78c56d1638d195fce195f24fc28df53", "type": "electric_scooter"}, {"fusion_lat": 0.0, "bike_id": "254c74c7c83a2008a789082b622255e0", "fusion_lon": 0.0, "lon": -77.032795, "lat": 38.91998066666667, "is_reserved": 0, "is_disabled": 0, "rental_uris": {"android": "https://dc.lft.to/lastmile_qr_scan", "ios": "https://dc.lft.to/lastmile_qr_scan"}, "name": "254c74c7c83a2008a789082b622255e0", "type": "electric_scooter"}, {"fusion_lat": 0.0, "bike_id": "a1a3c52e794ea4f25c29b9a89f090783", "fusion_lon": 0.0, "lon": -77.02405133333333, "lat": 38.91680783333334, "is_reserved": 0, "is_disabled": 0, "rental_uris": {"android": "https://dc.lft.to/lastmile_qr_scan", "ios": "https://dc.lft.to/lastmile_qr_scan"}, "name": "a1a3c52e794ea4f25c29b9a89f090783", "type": "electric_scooter"}, {"fusion_lat": 0.0, "bike_id": "354d32cb0198f827ee36689c8ad12b6b", "fusion_lon": 0.0, "lon": -77.04382016666666, "lat": 38.90019816666667, "is_reserved": 0, "is_disabled": 0, "rental_uris": {"android": "https://dc.lft.to/lastmile_qr_scan", "ios": "https://dc.lft.to/lastmile_qr_scan"}, "name": "354d32cb0198f827ee36689c8ad12b6b", "type": "electric_scooter"}, {"fusion_lat": 0.0, "bike_id": "b4a425a817368342d1f91e6e7ba842b2", "fusion_lon": 0.0, "lon": -77.112844, "lat": 39.0475445, "is_reserved": 0, "is_disabled": 0, "rental_uris": {"android": "https://dc.lft.to/lastmile_qr_scan", "ios": "https://dc.lft.to/lastmile_qr_scan"}, "name": "b4a425a817368342d1f91e6e7ba842b2", "type": "electric_bike"}, {"fusion_lat": 0.0, "bike_id": "ffad40edb94c0591d7b4b2a4a6920cac", "fusion_lon": 0.0, "lon": -77.01410566666667, "lat": 38.91477883333334, "is_reserved": 0, "is_disabled": 0, "rental_uris": {"android": "https://dc.lft.to/lastmile_qr_scan", "ios": "https://dc.lft.to/lastmile_qr_scan"}, "name": "ffad40edb94c0591d7b4b2a4a6920cac", "type": "electric_scooter"}, {"fusion_lat": 0.0, "bike_id": "e29359aac1710516d1176acbe24b00ac", "fusion_lon": 0.0, "lon": -76.97422966666667, "lat": 38.932322, "is_reserved": 0, "is_disabled": 0, "rental_uris": {"android": "https://dc.lft.to/lastmile_qr_scan", "ios": "https://dc.lft.to/lastmile_qr_scan"}, "name": "e29359aac1710516d1176acbe24b00ac", "type": "electric_bike"}, {"fusion_lat": 0.0, "bike_id": "9b41e1ed5a44051ebdb2b6836a1fac6e", "fusion_lon": 0.0, "lon": -77.06099216666667, "lat": 38.90527633333333, "is_reserved": 0, "is_disabled": 0, "rental_uris": {"android": "https://dc.lft.to/lastmile_qr_scan", "ios": "https://dc.lft.to/lastmile_qr_scan"}, "name": "9b41e1ed5a44051ebdb2b6836a1fac6e", "type": "electric_scooter"}, {"fusion_lat": 0.0, "bike_id": "f4b8389c8a15ad57dc86dbb9185226d9", "fusion_lon": 0.0, "lon": -76.99136666666666, "lat": 38.909022666666665, "is_reserved": 0, "is_disabled": 0, "rental_uris": {"android": "https://dc.lft.to/lastmile_qr_scan", "ios": "https://dc.lft.to/lastmile_qr_scan"}, "name": "f4b8389c8a15ad57dc86dbb9185226d9", "type": "electric_scooter"}, {"fusion_lat": 0.0, "bike_id": "11da129d5db99fe244f1f8ade2ccfd70", "fusion_lon": 0.0, "lon": -77.04376566666667, "lat": 38.8921805, "is_reserved": 0, "is_disabled": 0, "rental_uris": {"android": "https://dc.lft.to/lastmile_qr_scan", "ios": "https://dc.lft.to/lastmile_qr_scan"}, "name": "11da129d5db99fe244f1f8ade2ccfd70", "type": "electric_scooter"}, {"fusion_lat": 0.0, "bike_id": "d2c3beea325435107dd073e299b33617", "fusion_lon": 0.0, "lon": -77.01405783333334, "lat": 38.92838733333333, "is_reserved": 0, "is_disabled": 0, "rental_uris": {"android": "https://dc.lft.to/lastmile_qr_scan", "ios": "https://dc.lft.to/lastmile_qr_scan"}, "name": "d2c3beea325435107dd073e299b33617", "type": "electric_scooter"}, {"fusion_lat": 0.0, "bike_id": "7bd93da1066024d02d4ed9f01c021f9f", "fusion_lon": 0.0, "lon": -76.98714266666667, "lat": 38.86689466666667, "is_reserved": 0, "is_disabled": 0, "rental_uris": {"android": "https://dc.lft.to/lastmile_qr_scan", "ios": "https://dc.lft.to/lastmile_qr_scan"}, "name": "7bd93da1066024d02d4ed9f01c021f9f", "type": "electric_scooter"}, {"fusion_lat": 0.0, "bike_id": "eeed1775aecd805e4f064b483fb69932", "fusion_lon": 0.0, "lon": -77.008853, "lat": 38.926475833333335, "is_reserved": 0, "is_disabled": 0, "rental_uris": {"android": "https://dc.lft.to/lastmile_qr_scan", "ios": "https://dc.lft.to/lastmile_qr_scan"}, "name": "eeed1775aecd805e4f064b483fb69932", "type": "electric_scooter"}, {"fusion_lat": 0.0, "bike_id": "e883a97a018c3028371c61fc250075db", "fusion_lon": 0.0, "lon": -77.0467705, "lat": 38.895545166666665, "is_reserved": 0, "is_disabled": 0, "rental_uris": {"android": "https://dc.lft.to/lastmile_qr_scan", "ios": "https://dc.lft.to/lastmile_qr_scan"}, "name": "e883a97a018c3028371c61fc250075db", "type": "electric_scooter"}, {"fusion_lat": 0.0, "bike_id": "3452aaf727a9268815d52d0d8cab859f", "fusion_lon": 0.0, "lon": -77.02001333333334, "lat": 38.88741616666667, "is_reserved": 0, "is_disabled": 0, "rental_uris": {"android": "https://dc.lft.to/lastmile_qr_scan", "ios": "https://dc.lft.to/lastmile_qr_scan"}, "name": "3452aaf727a9268815d52d0d8cab859f", "type": "electric_scooter"}, {"fusion_lat": 0.0, "bike_id": "16c37d7dd1c4ce949416839f7660bf7d", "fusion_lon": 0.0, "lon": -77.02152066666666, "lat": 38.89486733333333, "is_reserved": 0, "is_disabled": 0, "rental_uris": {"android": "https://dc.lft.to/lastmile_qr_scan", "ios": "https://dc.lft.to/lastmile_qr_scan"}, "name": "16c37d7dd1c4ce949416839f7660bf7d", "type": "electric_scooter"}, {"fusion_lat": 0.0, "bike_id": "96a2a38a7d3c1cfc4bde667ec4a41f00", "fusion_lon": 0.0, "lon": -77.02490016666667, "lat": 38.927420166666664, "is_reserved": 0, "is_disabled": 0, "rental_uris": {"android": "https://dc.lft.to/lastmile_qr_scan", "ios": "https://dc.lft.to/lastmile_qr_scan"}, "name": "96a2a38a7d3c1cfc4bde667ec4a41f00", "type": "electric_scooter"}, {"fusion_lat": 0.0, "bike_id": "ff190b82dfdfbaeeb39d2c2c523e9436", "fusion_lon": 0.0, "lon": -76.9948455, "lat": 38.86241866666667, "is_reserved": 0, "is_disabled": 0, "rental_uris": {"android": "https://dc.lft.to/lastmile_qr_scan", "ios": "https://dc.lft.to/lastmile_qr_scan"}, "name": "ff190b82dfdfbaeeb39d2c2c523e9436", "type": "electric_scooter"}, {"fusion_lat": 0.0, "bike_id": "99dce085f3152cdce3caf5856c778115", "fusion_lon": 0.0, "lon": -77.0324985, "lat": 38.9338305, "is_reserved": 0, "is_disabled": 0, "rental_uris": {"android": "https://dc.lft.to/lastmile_qr_scan", "ios": "https://dc.lft.to/lastmile_qr_scan"}, "name": "99dce085f3152cdce3caf5856c778115", "type": "electric_scooter"}, {"fusion_lat": 0.0, "bike_id": "2b157eb85ccc90751aacf2570fddce08", "fusion_lon": 0.0, "lon": -77.04540583333333, "lat": 38.9132395, "is_reserved": 0, "is_disabled": 0, "rental_uris": {"android": "https://dc.lft.to/lastmile_qr_scan", "ios": "https://dc.lft.to/lastmile_qr_scan"}, "name": "2b157eb85ccc90751aacf2570fddce08", "type": "electric_scooter"}, {"fusion_lat": 0.0, "bike_id": "97510e73baf13760791bf37146fa4a24", "fusion_lon": 0.0, "lon": -77.04374183333333, "lat": 38.892179166666665, "is_reserved": 0, "is_disabled": 0, "rental_uris": {"android": "https://dc.lft.to/lastmile_qr_scan", "ios": "https://dc.lft.to/lastmile_qr_scan"}, "name": "97510e73baf13760791bf37146fa4a24", "type": "electric_scooter"}, {"fusion_lat": 0.0, "bike_id": "7b8747d66818e5329d420a6841a4a1a1", "fusion_lon": 0.0, "lon": -77.0222205, "lat": 38.935554833333335, "is_reserved": 0, "is_disabled": 0, "rental_uris": {"android": "https://dc.lft.to/lastmile_qr_scan", "ios": "https://dc.lft.to/lastmile_qr_scan"}, "name": "7b8747d66818e5329d420a6841a4a1a1", "type": "electric_scooter"}, {"fusion_lat": 0.0, "bike_id": "9bce987da2fe14596dfef8f5b2e473d9", "fusion_lon": 0.0, "lon": -77.05017216666667, "lat": 38.900754666666664, "is_reserved": 0, "is_disabled": 0, "rental_uris": {"android": "https://dc.lft.to/lastmile_qr_scan", "ios": "https://dc.lft.to/lastmile_qr_scan"}, "name": "9bce987da2fe14596dfef8f5b2e473d9", "type": "electric_scooter"}, {"fusion_lat": 0.0, "bike_id": "7a748731e6f719ac8d483029a805850f", "fusion_lon": 0.0, "lon": -77.01983666666666, "lat": 38.96025183333333, "is_reserved": 0, "is_disabled": 0, "rental_uris": {"android": "https://dc.lft.to/lastmile_qr_scan", "ios": "https://dc.lft.to/lastmile_qr_scan"}, "name": "7a748731e6f719ac8d483029a805850f", "type": "electric_scooter"}, {"fusion_lat": 0.0, "bike_id": "4ed292cdc62fba103e1b2fbf622e05a8", "fusion_lon": 0.0, "lon": -77.055011, "lat": 38.935367, "is_reserved": 0, "is_disabled": 0, "rental_uris": {"android": "https://dc.lft.to/lastmile_qr_scan", "ios": "https://dc.lft.to/lastmile_qr_scan"}, "name": "4ed292cdc62fba103e1b2fbf622e05a8", "type": "electric_scooter"}, {"fusion_lat": 0.0, "bike_id": "ec94ebdc979ac3a3475539f77f4b3381", "fusion_lon": 0.0, "lon": -76.93175966666666, "lat": 38.89885533333333, "is_reserved": 0, "is_disabled": 0, "rental_uris": {"android": "https://dc.lft.to/lastmile_qr_scan", "ios": "https://dc.lft.to/lastmile_qr_scan"}, "name": "ec94ebdc979ac3a3475539f77f4b3381", "type": "electric_scooter"}, {"fusion_lat": 0.0, "bike_id": "7c205ef662eeffe8a96002e9a982bfff", "fusion_lon": 0.0, "lon": -77.045079, "lat": 38.8922265, "is_reserved": 0, "is_disabled": 0, "rental_uris": {"android": "https://dc.lft.to/lastmile_qr_scan", "ios": "https://dc.lft.to/lastmile_qr_scan"}, "name": "7c205ef662eeffe8a96002e9a982bfff", "type": "electric_scooter"}, {"fusion_lat": 0.0, "bike_id": "c022ee1a5c3f62f733f6232fc8fb7be4", "fusion_lon": 0.0, "lon": -77.0352355, "lat": 38.9074575, "is_reserved": 0, "is_disabled": 0, "rental_uris": {"android": "https://dc.lft.to/lastmile_qr_scan", "ios": "https://dc.lft.to/lastmile_qr_scan"}, "name": "c022ee1a5c3f62f733f6232fc8fb7be4", "type": "electric_scooter"}, {"fusion_lat": 0.0, "bike_id": "051a38a2dc1df58064005763a5d540a5", "fusion_lon": 0.0, "lon": -77.04872516666667, "lat": 38.892284833333335, "is_reserved": 0, "is_disabled": 0, "rental_uris": {"android": "https://dc.lft.to/lastmile_qr_scan", "ios": "https://dc.lft.to/lastmile_qr_scan"}, "name": "051a38a2dc1df58064005763a5d540a5", "type": "electric_scooter"}, {"fusion_lat": 0.0, "bike_id": "3457e798692ba7c3b1edf60c25dbbd9b", "fusion_lon": 0.0, "lon": -77.03445, "lat": 38.9094765, "is_reserved": 0, "is_disabled": 0, "rental_uris": {"android": "https://dc.lft.to/lastmile_qr_scan", "ios": "https://dc.lft.to/lastmile_qr_scan"}, "name": "3457e798692ba7c3b1edf60c25dbbd9b", "type": "electric_scooter"}, {"fusion_lat": 0.0, "bike_id": "d9f5f6d5962f0230418ea69f718c5d22", "fusion_lon": 0.0, "lon": -76.96094083333334, "lat": 38.9185695, "is_reserved": 0, "is_disabled": 0, "rental_uris": {"android": "https://dc.lft.to/lastmile_qr_scan", "ios": "https://dc.lft.to/lastmile_qr_scan"}, "name": "d9f5f6d5962f0230418ea69f718c5d22", "type": "electric_bike"}, {"fusion_lat": 0.0, "bike_id": "61e43ed017d2efb3bc778ac66efefc4c", "fusion_lon": 0.0, "lon": -77.03381433333334, "lat": 38.921573, "is_reserved": 0, "is_disabled": 0, "rental_uris": {"android": "https://dc.lft.to/lastmile_qr_scan", "ios": "https://dc.lft.to/lastmile_qr_scan"}, "name": "61e43ed017d2efb3bc778ac66efefc4c", "type": "electric_scooter"}, {"fusion_lat": 0.0, "bike_id": "4183225b9d89261597f1b70d8a2d963b", "fusion_lon": 0.0, "lon": -77.0107595, "lat": 38.8980305, "is_reserved": 0, "is_disabled": 0, "rental_uris": {"android": "https://dc.lft.to/lastmile_qr_scan", "ios": "https://dc.lft.to/lastmile_qr_scan"}, "name": "4183225b9d89261597f1b70d8a2d963b", "type": "electric_scooter"}, {"fusion_lat": 0.0, "bike_id": "f7a035ac13ce2a5d8d8a20d6cb7f20b1", "fusion_lon": 0.0, "lon": -77.0176555, "lat": 38.887287, "is_reserved": 0, "is_disabled": 0, "rental_uris": {"android": "https://dc.lft.to/lastmile_qr_scan", "ios": "https://dc.lft.to/lastmile_qr_scan"}, "name": "f7a035ac13ce2a5d8d8a20d6cb7f20b1", "type": "electric_scooter"}, {"fusion_lat": 0.0, "bike_id": "d096175a0fddff3d2c0b4fa627a23bf0", "fusion_lon": 0.0, "lon": -77.02383616666667, "lat": 38.89235033333333, "is_reserved": 0, "is_disabled": 0, "rental_uris": {"android": "https://dc.lft.to/lastmile_qr_scan", "ios": "https://dc.lft.to/lastmile_qr_scan"}, "name": "d096175a0fddff3d2c0b4fa627a23bf0", "type": "electric_scooter"}, {"fusion_lat": 0.0, "bike_id": "e94deb2e8ccff87e32352e42fdbe5a3b", "fusion_lon": 0.0, "lon": -77.01806933333333, "lat": 38.92222733333333, "is_reserved": 0, "is_disabled": 0, "rental_uris": {"android": "https://dc.lft.to/lastmile_qr_scan", "ios": "https://dc.lft.to/lastmile_qr_scan"}, "name": "e94deb2e8ccff87e32352e42fdbe5a3b", "type": "electric_scooter"}, {"fusion_lat": 0.0, "bike_id": "b0835ed00ddac6b0aa8d8b163f9fa71f", "fusion_lon": 0.0, "lon": -77.04577733333333, "lat": 38.9211905, "is_reserved": 0, "is_disabled": 0, "rental_uris": {"android": "https://dc.lft.to/lastmile_qr_scan", "ios": "https://dc.lft.to/lastmile_qr_scan"}, "name": "b0835ed00ddac6b0aa8d8b163f9fa71f", "type": "electric_scooter"}, {"fusion_lat": 0.0, "bike_id": "6aa03e9975c98768a3dfefadf01d1a68", "fusion_lon": 0.0, "lon": -77.07225983333333, "lat": 38.968150333333334, "is_reserved": 0, "is_disabled": 0, "rental_uris": {"android": "https://dc.lft.to/lastmile_qr_scan", "ios": "https://dc.lft.to/lastmile_qr_scan"}, "name": "6aa03e9975c98768a3dfefadf01d1a68", "type": "electric_bike"}, {"fusion_lat": 0.0, "bike_id": "a611cc0ce777bc160e706d57a9edc6cb", "fusion_lon": 0.0, "lon": -77.05181416666667, "lat": 38.9238195, "is_reserved": 0, "is_disabled": 0, "rental_uris": {"android": "https://dc.lft.to/lastmile_qr_scan", "ios": "https://dc.lft.to/lastmile_qr_scan"}, "name": "a611cc0ce777bc160e706d57a9edc6cb", "type": "electric_scooter"}, {"fusion_lat": 0.0, "bike_id": "e519af7aac3f6aa699c04dfae665e486", "fusion_lon": 0.0, "lon": -77.03684266666667, "lat": 38.92637416666667, "is_reserved": 0, "is_disabled": 0, "rental_uris": {"android": "https://dc.lft.to/lastmile_qr_scan", "ios": "https://dc.lft.to/lastmile_qr_scan"}, "name": "e519af7aac3f6aa699c04dfae665e486", "type": "electric_scooter"}, {"fusion_lat": 0.0, "bike_id": "b4f086d4cd43ec46d80077f68eab0174", "fusion_lon": 0.0, "lon": -77.03475583333334, "lat": 38.90733633333333, "is_reserved": 0, "is_disabled": 0, "rental_uris": {"android": "https://dc.lft.to/lastmile_qr_scan", "ios": "https://dc.lft.to/lastmile_qr_scan"}, "name": "b4f086d4cd43ec46d80077f68eab0174", "type": "electric_scooter"}, {"fusion_lat": 0.0, "bike_id": "1aff632e65ead00b0c8efc8051c0b1a4", "fusion_lon": 0.0, "lon": -77.02815466666667, "lat": 38.91625366666667, "is_reserved": 0, "is_disabled": 0, "rental_uris": {"android": "https://dc.lft.to/lastmile_qr_scan", "ios": "https://dc.lft.to/lastmile_qr_scan"}, "name": "1aff632e65ead00b0c8efc8051c0b1a4", "type": "electric_scooter"}, {"fusion_lat": 0.0, "bike_id": "f97852fcbf14c2e833ee54c8b6d6b939", "fusion_lon": 0.0, "lon": -77.0135635, "lat": 38.8981665, "is_reserved": 0, "is_disabled": 0, "rental_uris": {"android": "https://dc.lft.to/lastmile_qr_scan", "ios": "https://dc.lft.to/lastmile_qr_scan"}, "name": "f97852fcbf14c2e833ee54c8b6d6b939", "type": "electric_scooter"}, {"fusion_lat": 0.0, "bike_id": "46310cfa3cc02da86149678c898a1088", "fusion_lon": 0.0, "lon": -77.01754633333333, "lat": 38.95210633333333, "is_reserved": 0, "is_disabled": 0, "rental_uris": {"android": "https://dc.lft.to/lastmile_qr_scan", "ios": "https://dc.lft.to/lastmile_qr_scan"}, "name": "46310cfa3cc02da86149678c898a1088", "type": "electric_scooter"}, {"fusion_lat": 0.0, "bike_id": "12d6bfd2b4f144563ab83964dcedcc2e", "fusion_lon": 0.0, "lon": -77.0142225, "lat": 38.92832683333334, "is_reserved": 0, "is_disabled": 0, "rental_uris": {"android": "https://dc.lft.to/lastmile_qr_scan", "ios": "https://dc.lft.to/lastmile_qr_scan"}, "name": "12d6bfd2b4f144563ab83964dcedcc2e", "type": "electric_scooter"}, {"fusion_lat": 0.0, "bike_id": "68061cb417bef30f55f836df3947ac78", "fusion_lon": 0.0, "lon": -77.02639883333333, "lat": 38.91694716666667, "is_reserved": 0, "is_disabled": 0, "rental_uris": {"android": "https://dc.lft.to/lastmile_qr_scan", "ios": "https://dc.lft.to/lastmile_qr_scan"}, "name": "68061cb417bef30f55f836df3947ac78", "type": "electric_scooter"}, {"fusion_lat": 0.0, "bike_id": "f759afc12fa5bcf12dfa2444dec0953a", "fusion_lon": 0.0, "lon": -76.99070983333333, "lat": 38.898211333333336, "is_reserved": 0, "is_disabled": 0, "rental_uris": {"android": "https://dc.lft.to/lastmile_qr_scan", "ios": "https://dc.lft.to/lastmile_qr_scan"}, "name": "f759afc12fa5bcf12dfa2444dec0953a", "type": "electric_bike"}, {"fusion_lat": 0.0, "bike_id": "04ecc5f0378a2d939e1c2027a64b0e15", "fusion_lon": 0.0, "lon": -77.05891033333333, "lat": 38.936088, "is_reserved": 0, "is_disabled": 0, "rental_uris": {"android": "https://dc.lft.to/lastmile_qr_scan", "ios": "https://dc.lft.to/lastmile_qr_scan"}, "name": "04ecc5f0378a2d939e1c2027a64b0e15", "type": "electric_scooter"}, {"fusion_lat": 0.0, "bike_id": "5eefdbfebdecf8e6edf3aff3f393469c", "fusion_lon": 0.0, "lon": -77.00127733333333, "lat": 38.87371266666667, "is_reserved": 0, "is_disabled": 0, "rental_uris": {"android": "https://dc.lft.to/lastmile_qr_scan", "ios": "https://dc.lft.to/lastmile_qr_scan"}, "name": "5eefdbfebdecf8e6edf3aff3f393469c", "type": "electric_scooter"}, {"fusion_lat": 0.0, "bike_id": "ff6c4b5a7de276504030960731167005", "fusion_lon": 0.0, "lon": -77.03261816666667, "lat": 38.932148166666664, "is_reserved": 0, "is_disabled": 0, "rental_uris": {"android": "https://dc.lft.to/lastmile_qr_scan", "ios": "https://dc.lft.to/lastmile_qr_scan"}, "name": "ff6c4b5a7de276504030960731167005", "type": "electric_scooter"}, {"fusion_lat": 0.0, "bike_id": "33cf8b46ca922f2c647e6c0aacce4539", "fusion_lon": 0.0, "lon": -77.01691666666666, "lat": 38.90448833333333, "is_reserved": 0, "is_disabled": 0, "rental_uris": {"android": "https://dc.lft.to/lastmile_qr_scan", "ios": "https://dc.lft.to/lastmile_qr_scan"}, "name": "33cf8b46ca922f2c647e6c0aacce4539", "type": "electric_scooter"}, {"fusion_lat": 0.0, "bike_id": "b309485ddd8264e09f209d9384a2e148", "fusion_lon": 0.0, "lon": -77.018373, "lat": 38.90962716666667, "is_reserved": 0, "is_disabled": 0, "rental_uris": {"android": "https://dc.lft.to/lastmile_qr_scan", "ios": "https://dc.lft.to/lastmile_qr_scan"}, "name": "b309485ddd8264e09f209d9384a2e148", "type": "electric_scooter"}, {"fusion_lat": 0.0, "bike_id": "e4552c66d5bd721b9a546caa44636d98", "fusion_lon": 0.0, "lon": -77.04173983333334, "lat": 38.898209666666666, "is_reserved": 0, "is_disabled": 0, "rental_uris": {"android": "https://dc.lft.to/lastmile_qr_scan", "ios": "https://dc.lft.to/lastmile_qr_scan"}, "name": "e4552c66d5bd721b9a546caa44636d98", "type": "electric_scooter"}, {"fusion_lat": 0.0, "bike_id": "6fa2af5687f30a397ae64732ad587f4d", "fusion_lon": 0.0, "lon": -77.03417933333333, "lat": 38.92737066666667, "is_reserved": 0, "is_disabled": 0, "rental_uris": {"android": "https://dc.lft.to/lastmile_qr_scan", "ios": "https://dc.lft.to/lastmile_qr_scan"}, "name": "6fa2af5687f30a397ae64732ad587f4d", "type": "electric_scooter"}, {"fusion_lat": 0.0, "bike_id": "fd7ddd51d0f07e9fb157d9b8d1459b1b", "fusion_lon": 0.0, "lon": -77.03654216666666, "lat": 38.92342133333333, "is_reserved": 0, "is_disabled": 0, "rental_uris": {"android": "https://dc.lft.to/lastmile_qr_scan", "ios": "https://dc.lft.to/lastmile_qr_scan"}, "name": "fd7ddd51d0f07e9fb157d9b8d1459b1b", "type": "electric_scooter"}, {"fusion_lat": 0.0, "bike_id": "b8cccf23137bd94ce9862c7af19a9696", "fusion_lon": 0.0, "lon": -77.059939, "lat": 38.905153, "is_reserved": 0, "is_disabled": 0, "rental_uris": {"android": "https://dc.lft.to/lastmile_qr_scan", "ios": "https://dc.lft.to/lastmile_qr_scan"}, "name": "b8cccf23137bd94ce9862c7af19a9696", "type": "electric_scooter"}, {"fusion_lat": 0.0, "bike_id": "99373bd3f1064ccd92f54e8d8ba9b068", "fusion_lon": 0.0, "lon": -76.98942316666667, "lat": 38.9039275, "is_reserved": 0, "is_disabled": 0, "rental_uris": {"android": "https://dc.lft.to/lastmile_qr_scan", "ios": "https://dc.lft.to/lastmile_qr_scan"}, "name": "99373bd3f1064ccd92f54e8d8ba9b068", "type": "electric_scooter"}, {"fusion_lat": 0.0, "bike_id": "335b8f2956f714c75ffb2210a191de0e", "fusion_lon": 0.0, "lon": -77.05809183333334, "lat": 38.823923, "is_reserved": 0, "is_disabled": 0, "rental_uris": {"android": "https://dc.lft.to/lastmile_qr_scan", "ios": "https://dc.lft.to/lastmile_qr_scan"}, "name": "335b8f2956f714c75ffb2210a191de0e", "type": "electric_bike"}, {"fusion_lat": 0.0, "bike_id": "41ac84e5b44dea84192d6b5fecceded7", "fusion_lon": 0.0, "lon": -77.04508966666667, "lat": 38.90799916666667, "is_reserved": 0, "is_disabled": 0, "rental_uris": {"android": "https://dc.lft.to/lastmile_qr_scan", "ios": "https://dc.lft.to/lastmile_qr_scan"}, "name": "41ac84e5b44dea84192d6b5fecceded7", "type": "electric_scooter"}, {"fusion_lat": 0.0, "bike_id": "549f63cad4921c3899dedace1a2a8aef", "fusion_lon": 0.0, "lon": -77.05464383333333, "lat": 38.92921166666667, "is_reserved": 0, "is_disabled": 0, "rental_uris": {"android": "https://dc.lft.to/lastmile_qr_scan", "ios": "https://dc.lft.to/lastmile_qr_scan"}, "name": "549f63cad4921c3899dedace1a2a8aef", "type": "electric_scooter"}, {"fusion_lat": 0.0, "bike_id": "cf518cdbecb1b6a06665b90c653880a1", "fusion_lon": 0.0, "lon": -76.94924, "lat": 38.893531, "is_reserved": 0, "is_disabled": 0, "rental_uris": {"android": "https://dc.lft.to/lastmile_qr_scan", "ios": "https://dc.lft.to/lastmile_qr_scan"}, "name": "cf518cdbecb1b6a06665b90c653880a1", "type": "electric_scooter"}, {"fusion_lat": 0.0, "bike_id": "4e79f2a666c7c6427ef082b9537e87c4", "fusion_lon": 0.0, "lon": -77.0258815, "lat": 38.89259883333333, "is_reserved": 0, "is_disabled": 0, "rental_uris": {"android": "https://dc.lft.to/lastmile_qr_scan", "ios": "https://dc.lft.to/lastmile_qr_scan"}, "name": "4e79f2a666c7c6427ef082b9537e87c4", "type": "electric_scooter"}, {"fusion_lat": 0.0, "bike_id": "a0d806b0829db61aed3fd1e1e4a7d9f5", "fusion_lon": 0.0, "lon": -77.02346116666666, "lat": 38.935339666666664, "is_reserved": 0, "is_disabled": 0, "rental_uris": {"android": "https://dc.lft.to/lastmile_qr_scan", "ios": "https://dc.lft.to/lastmile_qr_scan"}, "name": "a0d806b0829db61aed3fd1e1e4a7d9f5", "type": "electric_scooter"}, {"fusion_lat": 0.0, "bike_id": "6ebeb7f5df5609bfcaf82294c924b6ad", "fusion_lon": 0.0, "lon": -77.07432733333333, "lat": 38.999443166666666, "is_reserved": 0, "is_disabled": 0, "rental_uris": {"android": "https://dc.lft.to/lastmile_qr_scan", "ios": "https://dc.lft.to/lastmile_qr_scan"}, "name": "6ebeb7f5df5609bfcaf82294c924b6ad", "type": "electric_bike"}, {"fusion_lat": 0.0, "bike_id": "592fdd1f6b0c1e94972a117fec1cc3c2", "fusion_lon": 0.0, "lon": -76.987203, "lat": 38.86621183333333, "is_reserved": 0, "is_disabled": 0, "rental_uris": {"android": "https://dc.lft.to/lastmile_qr_scan", "ios": "https://dc.lft.to/lastmile_qr_scan"}, "name": "592fdd1f6b0c1e94972a117fec1cc3c2", "type": "electric_scooter"}, {"fusion_lat": 0.0, "bike_id": "ad5600e82b103e6f2f2ff59f95995e03", "fusion_lon": 0.0, "lon": -76.98898133333333, "lat": 38.913453833333335, "is_reserved": 0, "is_disabled": 0, "rental_uris": {"android": "https://dc.lft.to/lastmile_qr_scan", "ios": "https://dc.lft.to/lastmile_qr_scan"}, "name": "ad5600e82b103e6f2f2ff59f95995e03", "type": "electric_scooter"}, {"fusion_lat": 0.0, "bike_id": "258a584c3ca479c736c5aa0c5298fc1a", "fusion_lon": 0.0, "lon": -77.0185, "lat": 38.97369616666667, "is_reserved": 0, "is_disabled": 0, "rental_uris": {"android": "https://dc.lft.to/lastmile_qr_scan", "ios": "https://dc.lft.to/lastmile_qr_scan"}, "name": "258a584c3ca479c736c5aa0c5298fc1a", "type": "electric_scooter"}, {"fusion_lat": 0.0, "bike_id": "b07a5c161216e20475bc1edd455d9abe", "fusion_lon": 0.0, "lon": -77.03181516666666, "lat": 38.91825266666667, "is_reserved": 0, "is_disabled": 0, "rental_uris": {"android": "https://dc.lft.to/lastmile_qr_scan", "ios": "https://dc.lft.to/lastmile_qr_scan"}, "name": "b07a5c161216e20475bc1edd455d9abe", "type": "electric_scooter"}, {"fusion_lat": 0.0, "bike_id": "35d8ab716a670fa756dd758849347e0d", "fusion_lon": 0.0, "lon": -77.033767, "lat": 38.902608666666666, "is_reserved": 0, "is_disabled": 0, "rental_uris": {"android": "https://dc.lft.to/lastmile_qr_scan", "ios": "https://dc.lft.to/lastmile_qr_scan"}, "name": "35d8ab716a670fa756dd758849347e0d", "type": "electric_scooter"}, {"fusion_lat": 0.0, "bike_id": "0dc64ea0315228752b87defe716d6508", "fusion_lon": 0.0, "lon": -77.07918783333334, "lat": 38.9463435, "is_reserved": 0, "is_disabled": 0, "rental_uris": {"android": "https://dc.lft.to/lastmile_qr_scan", "ios": "https://dc.lft.to/lastmile_qr_scan"}, "name": "0dc64ea0315228752b87defe716d6508", "type": "electric_scooter"}, {"fusion_lat": 0.0, "bike_id": "b67ce1b7665dcea724e1080a5a3e2f38", "fusion_lon": 0.0, "lon": -77.04267033333333, "lat": 38.922339666666666, "is_reserved": 0, "is_disabled": 0, "rental_uris": {"android": "https://dc.lft.to/lastmile_qr_scan", "ios": "https://dc.lft.to/lastmile_qr_scan"}, "name": "b67ce1b7665dcea724e1080a5a3e2f38", "type": "electric_scooter"}, {"fusion_lat": 0.0, "bike_id": "504ce9e02b173b8427b81ff65c40d83f", "fusion_lon": 0.0, "lon": -77.04092366666667, "lat": 38.91567933333333, "is_reserved": 0, "is_disabled": 0, "rental_uris": {"android": "https://dc.lft.to/lastmile_qr_scan", "ios": "https://dc.lft.to/lastmile_qr_scan"}, "name": "504ce9e02b173b8427b81ff65c40d83f", "type": "electric_scooter"}, {"fusion_lat": 0.0, "bike_id": "32a30e52bbc977f6172eab5e144b7f11", "fusion_lon": 0.0, "lon": -77.02121816666667, "lat": 38.916054333333335, "is_reserved": 0, "is_disabled": 0, "rental_uris": {"android": "https://dc.lft.to/lastmile_qr_scan", "ios": "https://dc.lft.to/lastmile_qr_scan"}, "name": "32a30e52bbc977f6172eab5e144b7f11", "type": "electric_scooter"}, {"fusion_lat": 0.0, "bike_id": "ec5f90f2f37e6295d154591978cafe41", "fusion_lon": 0.0, "lon": -77.03652283333334, "lat": 38.90303083333333, "is_reserved": 0, "is_disabled": 0, "rental_uris": {"android": "https://dc.lft.to/lastmile_qr_scan", "ios": "https://dc.lft.to/lastmile_qr_scan"}, "name": "ec5f90f2f37e6295d154591978cafe41", "type": "electric_scooter"}, {"fusion_lat": 0.0, "bike_id": "f11638b66bcacbedb5e72975bb8dcdf3", "fusion_lon": 0.0, "lon": -77.0284095, "lat": 38.902348, "is_reserved": 0, "is_disabled": 0, "rental_uris": {"android": "https://dc.lft.to/lastmile_qr_scan", "ios": "https://dc.lft.to/lastmile_qr_scan"}, "name": "f11638b66bcacbedb5e72975bb8dcdf3", "type": "electric_scooter"}, {"fusion_lat": 0.0, "bike_id": "d473adc35d780113abcbbc56f5e11396", "fusion_lon": 0.0, "lon": -77.03173633333333, "lat": 38.8919855, "is_reserved": 0, "is_disabled": 0, "rental_uris": {"android": "https://dc.lft.to/lastmile_qr_scan", "ios": "https://dc.lft.to/lastmile_qr_scan"}, "name": "d473adc35d780113abcbbc56f5e11396", "type": "electric_scooter"}, {"fusion_lat": 0.0, "bike_id": "5cb21aceee20d1dc3d5027e847190f13", "fusion_lon": 0.0, "lon": -77.0382335, "lat": 38.90670983333333, "is_reserved": 0, "is_disabled": 0, "rental_uris": {"android": "https://dc.lft.to/lastmile_qr_scan", "ios": "https://dc.lft.to/lastmile_qr_scan"}, "name": "5cb21aceee20d1dc3d5027e847190f13", "type": "electric_scooter"}, {"fusion_lat": 0.0, "bike_id": "9bbeb55de93bc35994dc109e84750e59", "fusion_lon": 0.0, "lon": -77.02172966666667, "lat": 38.94290183333333, "is_reserved": 0, "is_disabled": 0, "rental_uris": {"android": "https://dc.lft.to/lastmile_qr_scan", "ios": "https://dc.lft.to/lastmile_qr_scan"}, "name": "9bbeb55de93bc35994dc109e84750e59", "type": "electric_scooter"}, {"fusion_lat": 0.0, "bike_id": "ff7e47a86b4625b5579035ed11579a9a", "fusion_lon": 0.0, "lon": -77.02201116666667, "lat": 38.91124933333333, "is_reserved": 0, "is_disabled": 0, "rental_uris": {"android": "https://dc.lft.to/lastmile_qr_scan", "ios": "https://dc.lft.to/lastmile_qr_scan"}, "name": "ff7e47a86b4625b5579035ed11579a9a", "type": "electric_scooter"}, {"fusion_lat": 0.0, "bike_id": "c3b1aef0c3f8e86c7aefedd7272e2354", "fusion_lon": 0.0, "lon": -76.97745966666666, "lat": 38.864882333333334, "is_reserved": 0, "is_disabled": 0, "rental_uris": {"android": "https://dc.lft.to/lastmile_qr_scan", "ios": "https://dc.lft.to/lastmile_qr_scan"}, "name": "c3b1aef0c3f8e86c7aefedd7272e2354", "type": "electric_bike"}, {"fusion_lat": 0.0, "bike_id": "c3a2b498ae4664ffa9a54fabd0c1591f", "fusion_lon": 0.0, "lon": -76.9993475, "lat": 38.84311916666667, "is_reserved": 0, "is_disabled": 0, "rental_uris": {"android": "https://dc.lft.to/lastmile_qr_scan", "ios": "https://dc.lft.to/lastmile_qr_scan"}, "name": "c3a2b498ae4664ffa9a54fabd0c1591f", "type": "electric_scooter"}, {"fusion_lat": 0.0, "bike_id": "7e5e4de4ca33ea419d667f0d6c24f3b7", "fusion_lon": 0.0, "lon": -77.05710333333333, "lat": 38.9260525, "is_reserved": 0, "is_disabled": 0, "rental_uris": {"android": "https://dc.lft.to/lastmile_qr_scan", "ios": "https://dc.lft.to/lastmile_qr_scan"}, "name": "7e5e4de4ca33ea419d667f0d6c24f3b7", "type": "electric_bike"}, {"fusion_lat": 0.0, "bike_id": "e9bc0e7571acd3d6913aeae6884bd880", "fusion_lon": 0.0, "lon": -77.0354605, "lat": 38.925839833333335, "is_reserved": 0, "is_disabled": 0, "rental_uris": {"android": "https://dc.lft.to/lastmile_qr_scan", "ios": "https://dc.lft.to/lastmile_qr_scan"}, "name": "e9bc0e7571acd3d6913aeae6884bd880", "type": "electric_scooter"}, {"fusion_lat": 0.0, "bike_id": "f8af03bd80e22d7e8988c334d8bca788", "fusion_lon": 0.0, "lon": -77.18561966666667, "lat": 39.09973216666667, "is_reserved": 0, "is_disabled": 0, "rental_uris": {"android": "https://dc.lft.to/lastmile_qr_scan", "ios": "https://dc.lft.to/lastmile_qr_scan"}, "name": "f8af03bd80e22d7e8988c334d8bca788", "type": "electric_bike"}, {"fusion_lat": 0.0, "bike_id": "9d51672b192a211a7449bf5df648042a", "fusion_lon": 0.0, "lon": -77.04123766666666, "lat": 38.927205666666666, "is_reserved": 0, "is_disabled": 0, "rental_uris": {"android": "https://dc.lft.to/lastmile_qr_scan", "ios": "https://dc.lft.to/lastmile_qr_scan"}, "name": "9d51672b192a211a7449bf5df648042a", "type": "electric_scooter"}, {"fusion_lat": 0.0, "bike_id": "7edf71bf7781eaff805464ab60e55fbe", "fusion_lon": 0.0, "lon": -77.0195525, "lat": 38.923671666666664, "is_reserved": 0, "is_disabled": 0, "rental_uris": {"android": "https://dc.lft.to/lastmile_qr_scan", "ios": "https://dc.lft.to/lastmile_qr_scan"}, "name": "7edf71bf7781eaff805464ab60e55fbe", "type": "electric_scooter"}, {"fusion_lat": 0.0, "bike_id": "2a56c0b763ecd681a47b516ea9e3b9f7", "fusion_lon": 0.0, "lon": -76.9305865, "lat": 38.90149433333333, "is_reserved": 0, "is_disabled": 0, "rental_uris": {"android": "https://dc.lft.to/lastmile_qr_scan", "ios": "https://dc.lft.to/lastmile_qr_scan"}, "name": "2a56c0b763ecd681a47b516ea9e3b9f7", "type": "electric_scooter"}, {"fusion_lat": 0.0, "bike_id": "c45d0765a3b722940014bdb253031bd2", "fusion_lon": 0.0, "lon": -76.97224333333334, "lat": 38.90033366666667, "is_reserved": 0, "is_disabled": 0, "rental_uris": {"android": "https://dc.lft.to/lastmile_qr_scan", "ios": "https://dc.lft.to/lastmile_qr_scan"}, "name": "c45d0765a3b722940014bdb253031bd2", "type": "electric_bike"}, {"fusion_lat": 0.0, "bike_id": "108c11309a0b576a182414bbd9c6d5de", "fusion_lon": 0.0, "lon": -77.0382725, "lat": 38.9103785, "is_reserved": 0, "is_disabled": 0, "rental_uris": {"android": "https://dc.lft.to/lastmile_qr_scan", "ios": "https://dc.lft.to/lastmile_qr_scan"}, "name": "108c11309a0b576a182414bbd9c6d5de", "type": "electric_scooter"}, {"fusion_lat": 0.0, "bike_id": "8b84561c2014ee37ab23ae4a0e58fd79", "fusion_lon": 0.0, "lon": -77.050281, "lat": 38.90369316666666, "is_reserved": 0, "is_disabled": 0, "rental_uris": {"android": "https://dc.lft.to/lastmile_qr_scan", "ios": "https://dc.lft.to/lastmile_qr_scan"}, "name": "8b84561c2014ee37ab23ae4a0e58fd79", "type": "electric_scooter"}, {"fusion_lat": 0.0, "bike_id": "4889124d442a4816e15e7f990a492168", "fusion_lon": 0.0, "lon": -77.02972933333334, "lat": 38.916785, "is_reserved": 0, "is_disabled": 0, "rental_uris": {"android": "https://dc.lft.to/lastmile_qr_scan", "ios": "https://dc.lft.to/lastmile_qr_scan"}, "name": "4889124d442a4816e15e7f990a492168", "type": "electric_scooter"}, {"fusion_lat": 0.0, "bike_id": "04d583a19d5108366c8112d0ec37b8a8", "fusion_lon": 0.0, "lon": -77.02187233333333, "lat": 38.909699333333336, "is_reserved": 0, "is_disabled": 0, "rental_uris": {"android": "https://dc.lft.to/lastmile_qr_scan", "ios": "https://dc.lft.to/lastmile_qr_scan"}, "name": "04d583a19d5108366c8112d0ec37b8a8", "type": "electric_scooter"}, {"fusion_lat": 0.0, "bike_id": "5a72430dedd841251a30faf48c8d027a", "fusion_lon": 0.0, "lon": -77.03298566666666, "lat": 38.92551183333333, "is_reserved": 0, "is_disabled": 0, "rental_uris": {"android": "https://dc.lft.to/lastmile_qr_scan", "ios": "https://dc.lft.to/lastmile_qr_scan"}, "name": "5a72430dedd841251a30faf48c8d027a", "type": "electric_scooter"}, {"fusion_lat": 0.0, "bike_id": "efb9d7ea1eb70c8d98d73f26218e9df9", "fusion_lon": 0.0, "lon": -77.0476975, "lat": 38.92138283333333, "is_reserved": 0, "is_disabled": 0, "rental_uris": {"android": "https://dc.lft.to/lastmile_qr_scan", "ios": "https://dc.lft.to/lastmile_qr_scan"}, "name": "efb9d7ea1eb70c8d98d73f26218e9df9", "type": "electric_scooter"}, {"fusion_lat": 0.0, "bike_id": "6f2afb1e69346f528f73eebc31eedb7f", "fusion_lon": 0.0, "lon": -77.0093065, "lat": 38.89988366666667, "is_reserved": 0, "is_disabled": 0, "rental_uris": {"android": "https://dc.lft.to/lastmile_qr_scan", "ios": "https://dc.lft.to/lastmile_qr_scan"}, "name": "6f2afb1e69346f528f73eebc31eedb7f", "type": "electric_scooter"},