{"data": {"bikes": [{"is_disabled": 0, "fusion_lon": 0.0, "fusion_lat": 0.0, "lat": 38.915325333333335, "type": "electric_scooter", "lon": -77.021827, "bike_id": "472c67bcc6b1cfac1d63bf1cd9e91aad", "rental_uris": {"android": "https://dc.lft.to/lastmile_qr_scan", "ios": "https://dc.lft.to/lastmile_qr_scan"}, "name": "472c67bcc6b1cfac1d63bf1cd9e91aad", "is_reserved": 0}, {"is_disabled": 0, "fusion_lon": 0.0, "fusion_lat": 0.0, "lat": 38.866707166666664, "type": "electric_scooter", "lon": -76.98875383333333, "bike_id": "7ecac7069bf78fda63fc9712ad8d47ed", "rental_uris": {"android": "https://dc.lft.to/lastmile_qr_scan", "ios": "https://dc.lft.to/lastmile_qr_scan"}, "name": "7ecac7069bf78fda63fc9712ad8d47ed", "is_reserved": 0}, {"is_disabled": 0, "fusion_lon": 0.0, "fusion_lat": 0.0, "lat": 38.91769683333333, "type": "electric_scooter", "lon": -77.031967, "bike_id": "a551a33730723d0167c28f54bc108284", "rental_uris": {"android": "https://dc.lft.to/lastmile_qr_scan", "ios": "https://dc.lft.to/lastmile_qr_scan"}, "name": "a551a33730723d0167c28f54bc108284", "is_reserved": 0}, {"is_disabled": 0, "fusion_lon": 0.0, "fusion_lat": 0.0, "lat": 38.928434833333334, "type": "electric_scooter", "lon": -77.05547583333333, "bike_id": "88860cb16a2d8057411d69094ba51127", "rental_uris": {"android": "https://dc.lft.to/lastmile_qr_scan", "ios": "https://dc.lft.to/lastmile_qr_scan"}, "name": "88860cb16a2d8057411d69094ba51127", "is_reserved": 0}, {"is_disabled": 0, "fusion_lon": 0.0, "fusion_lat": 0.0, "lat": 38.91039033333333, "type": "electric_scooter", "lon": -77.037975, "bike_id": "004581d2c314673a5de68b938aa49901", "rental_uris": {"android": "https://dc.lft.to/lastmile_qr_scan", "ios": "https://dc.lft.to/lastmile_qr_scan"}, "name": "004581d2c314673a5de68b938aa49901", "is_reserved": 0}, {"is_disabled": 0, "fusion_lon": 0.0, "fusion_lat": 0.0, "lat": 38.8680535, "type": "electric_scooter", "lon": -77.01178083333333, "bike_id": "83debbc5851014de3dfa9f355583bd9e", "rental_uris": {"android": "https://dc.lft.to/lastmile_qr_scan", "ios": "https://dc.lft.to/lastmile_qr_scan"}, "name": "83debbc5851014de3dfa9f355583bd9e", "is_reserved": 0}, {"is_disabled": 0, "fusion_lon": 0.0, "fusion_lat": 0.0, "lat": 38.89854733333333, "type": "electric_scooter", "lon": -77.02172883333333, "bike_id": "894f5bb704faf5ad9ccfb36804739f7c", "rental_uris": {"android": "https://dc.lft.to/lastmile_qr_scan", "ios": "https://dc.lft.to/lastmile_qr_scan"}, "name": "894f5bb704faf5ad9ccfb36804739f7c", "is_reserved": 0}, {"is_disabled": 0, "fusion_lon": 0.0, "fusion_lat": 0.0, "lat": 38.893907166666665, "type": "electric_scooter", "lon": -76.94999733333333, "bike_id": "98d60657c9de2458ab861876be5ae02e", "rental_uris": {"android": "https://dc.lft.to/lastmile_qr_scan", "ios": "https://dc.lft.to/lastmile_qr_scan"}, "name": "98d60657c9de2458ab861876be5ae02e", "is_reserved": 0}, {"is_disabled": 0, "fusion_lon": 0.0, "fusion_lat": 0.0, "lat": 39.054588833333334, "type": "electric_bike", "lon": -77.1433115, "bike_id": "23f44dc4f9bbe3d7d80c4315b63f91bd", "rental_uris": {"android": "https://dc.lft.to/lastmile_qr_scan", "ios": "https://dc.lft.to/lastmile_qr_scan"}, "name": "23f44dc4f9bbe3d7d80c4315b63f91bd", "is_reserved": 0}, {"is_disabled": 0, "fusion_lon": 0.0, "fusion_lat": 0.0, "lat": 38.897512666666664, "type": "electric_scooter", "lon": -77.04722983333333, "bike_id": "8218083c3c29368883821afdaf0b6a6f", "rental_uris": {"android": "https://dc.lft.to/lastmile_qr_scan", "ios": "https://dc.lft.to/lastmile_qr_scan"}, "name": "8218083c3c29368883821afdaf0b6a6f", "is_reserved": 0}, {"is_disabled": 0, "fusion_lon": 0.0, "fusion_lat": 0.0, "lat": 38.945908833333334, "type": "electric_bike", "lon": -77.34410433333333, "bike_id": "2a139308fd7cd74f5c829ca37204b825", "rental_uris": {"android": "https://dc.lft.to/lastmile_qr_scan", "ios": "https://dc.lft.to/lastmile_qr_scan"}, "name": "2a139308fd7cd74f5c829ca37204b825", "is_reserved": 0}, {"is_disabled": 0, "fusion_lon": 0.0, "fusion_lat": 0.0, "lat": 38.7762085, "type": "electric_bike", "lon": -77.083543, "bike_id": "1a851fddaf0f30bf857a8e8fa1a33625", "rental_uris": {"android": "https://dc.lft.to/lastmile_qr_scan", "ios": "https://dc.lft.to/lastmile_qr_scan"}, "name": "1a851fddaf0f30bf857a8e8fa1a33625", "is_reserved": 0}, {"is_disabled": 0, "fusion_lon": 0.0, "fusion_lat": 0.0, "lat": 38.898409, "type": "electric_scooter", "lon": -77.02952166666667, "bike_id": "75ec211ec7d8f9b1bccfe68062dd2f66", "rental_uris": {"android": "https://dc.lft.to/lastmile_qr_scan", "ios": "https://dc.lft.to/lastmile_qr_scan"}, "name": "75ec211ec7d8f9b1bccfe68062dd2f66", "is_reserved": 0}, {"is_disabled": 0, "fusion_lon": 0.0, "fusion_lat": 0.0, "lat": 38.88745, "type": "electric_scooter", "lon": -77.0143355, "bike_id": "20ebf52cf35d6ed66d8687afbb7ccf6f", "rental_uris": {"android": "https://dc.lft.to/lastmile_qr_scan", "ios": "https://dc.lft.to/lastmile_qr_scan"}, "name": "20ebf52cf35d6ed66d8687afbb7ccf6f", "is_reserved": 0}, {"is_disabled": 0, "fusion_lon": 0.0, "fusion_lat": 0.0, "lat": 38.88852116666666, "type": "electric_bike", "lon": -76.97705166666667, "bike_id": "b0610da9829712e03918545565788fc1", "rental_uris": {"android": "https://dc.lft.to/lastmile_qr_scan", "ios": "https://dc.lft.to/lastmile_qr_scan"}, "name": "b0610da9829712e03918545565788fc1", "is_reserved": 0}, {"is_disabled": 0, "fusion_lon": 0.0, "fusion_lat": 0.0, "lat": 38.90067366666667, "type": "electric_scooter", "lon": -77.00760783333334, "bike_id": "cccac650fcde6c367e55ef1dcc83755b", "rental_uris": {"android": "https://dc.lft.to/lastmile_qr_scan", "ios": "https://dc.lft.to/lastmile_qr_scan"}, "name": "cccac650fcde6c367e55ef1dcc83755b", "is_reserved": 0}, {"is_disabled": 0, "fusion_lon": 0.0, "fusion_lat": 0.0, "lat": 38.926025833333334, "type": "electric_scooter", "lon": -77.02154816666666, "bike_id": "c727ccf887c2e58c6bfdca48c978687f", "rental_uris": {"android": "https://dc.lft.to/lastmile_qr_scan", "ios": "https://dc.lft.to/lastmile_qr_scan"}, "name": "c727ccf887c2e58c6bfdca48c978687f", "is_reserved": 0}, {"is_disabled": 0, "fusion_lon": 0.0, "fusion_lat": 0.0, "lat": 38.9181495, "type": "electric_scooter", "lon": -77.0415365, "bike_id": "0d33043e7211f28a631377426fe14006", "rental_uris": {"android": "https://dc.lft.to/lastmile_qr_scan", "ios": "https://dc.lft.to/lastmile_qr_scan"}, "name": "0d33043e7211f28a631377426fe14006", "is_reserved": 0}, {"is_disabled": 0, "fusion_lon": 0.0, "fusion_lat": 0.0, "lat": 38.84878283333333, "type": "electric_scooter", "lon": -77.00518283333334, "bike_id": "940c4e09cc7d58af92232e4bfb66bc09", "rental_uris": {"android": "https://dc.lft.to/lastmile_qr_scan", "ios": "https://dc.lft.to/lastmile_qr_scan"}, "name": "940c4e09cc7d58af92232e4bfb66bc09", "is_reserved": 0}, {"is_disabled": 0, "fusion_lon": 0.0, "fusion_lat": 0.0, "lat": 38.896401, "type": "electric_scooter", "lon": -77.04351383333334, "bike_id": "95a993dd58fed8fc028f2660a543a3c5", "rental_uris": {"android": "https://dc.lft.to/lastmile_qr_scan", "ios": "https://dc.lft.to/lastmile_qr_scan"}, "name": "95a993dd58fed8fc028f2660a543a3c5", "is_reserved": 0}, {"is_disabled": 0, "fusion_lon": 0.0, "fusion_lat": 0.0, "lat": 38.981371, "type": "electric_bike", "lon": -77.00763983333333, "bike_id": "aa5100c893bf90bc82fef7b391b07c7f", "rental_uris": {"android": "https://dc.lft.to/lastmile_qr_scan", "ios": "https://dc.lft.to/lastmile_qr_scan"}, "name": "aa5100c893bf90bc82fef7b391b07c7f", "is_reserved": 0}, {"is_disabled": 0, "fusion_lon": 0.0, "fusion_lat": 0.0, "lat": 38.87777633333334, "type": "electric_scooter", "lon": -77.014379, "bike_id": "10c79323f39432f37619dc3a79968e83", "rental_uris": {"android": "https://dc.lft.to/lastmile_qr_scan", "ios": "https://dc.lft.to/lastmile_qr_scan"}, "name": "10c79323f39432f37619dc3a79968e83", "is_reserved": 0}, {"is_disabled": 0, "fusion_lon": 0.0, "fusion_lat": 0.0, "lat": 38.88741683333333, "type": "electric_scooter", "lon": -77.0152685, "bike_id": "8d316205ac253f9c38a92516989f2ca8", "rental_uris": {"android": "https://dc.lft.to/lastmile_qr_scan", "ios": "https://dc.lft.to/lastmile_qr_scan"}, "name": "8d316205ac253f9c38a92516989f2ca8", "is_reserved": 0}, {"is_disabled": 0, "fusion_lon": 0.0, "fusion_lat": 0.0, "lat": 38.8838275, "type": "electric_bike", "lon": -77.03076366666667, "bike_id": "4b499d382fc50156802d72dcd5e4edf7", "rental_uris": {"android": "https://dc.lft.to/lastmile_qr_scan", "ios": "https://dc.lft.to/lastmile_qr_scan"}, "name": "4b499d382fc50156802d72dcd5e4edf7", "is_reserved": 0}, {"is_disabled": 0, "fusion_lon": 0.0, "fusion_lat": 0.0, "lat": 38.91069916666667, "type": "electric_scooter", "lon": -76.98511033333334, "bike_id": "15179bcc39b538699052a14c9160f00b", "rental_uris": {"android": "https://dc.lft.to/lastmile_qr_scan", "ios": "https://dc.lft.to/lastmile_qr_scan"}, "name": "15179bcc39b538699052a14c9160f00b", "is_reserved": 0}, {"is_disabled": 0, "fusion_lon": 0.0, "fusion_lat": 0.0, "lat": 38.84612683333334, "type": "electric_bike", "lon": -76.9688015, "bike_id": "3e63012ed0be5b1fe88f26d6c16c9e78", "rental_uris": {"android": "https://dc.lft.to/lastmile_qr_scan", "ios": "https://dc.lft.to/lastmile_qr_scan"}, "name": "3e63012ed0be5b1fe88f26d6c16c9e78", "is_reserved": 0}, {"is_disabled": 0, "fusion_lon": 0.0, "fusion_lat": 0.0, "lat": 38.8766765, "type": "electric_scooter", "lon": -76.99367216666667, "bike_id": "119ad351f5cbe72a090e6faf219a7a42", "rental_uris": {"android": "https://dc.lft.to/lastmile_qr_scan", "ios": "https://dc.lft.to/lastmile_qr_scan"}, "name": "119ad351f5cbe72a090e6faf219a7a42", "is_reserved": 0}, {"is_disabled": 0, "fusion_lon": 0.0, "fusion_lat": 0.0, "lat": 38.928460333333334, "type": "electric_scooter", "lon": -77.01403783333333, "bike_id": "e881f83e5721d56045443282729da557", "rental_uris": {"android": "https://dc.lft.to/lastmile_qr_scan", "ios": "https://dc.lft.to/lastmile_qr_scan"}, "name": "e881f83e5721d56045443282729da557", "is_reserved": 0}, {"is_disabled": 0, "fusion_lon": 0.0, "fusion_lat": 0.0, "lat": 38.917809, "type": "electric_scooter", "lon": -77.03659416666666, "bike_id": "ae46aef2e587a0ca28a2a8366c9a6d5e", "rental_uris": {"android": "https://dc.lft.to/lastmile_qr_scan", "ios": "https://dc.lft.to/lastmile_qr_scan"}, "name": "ae46aef2e587a0ca28a2a8366c9a6d5e", "is_reserved": 0}, {"is_disabled": 0, "fusion_lon": 0.0, "fusion_lat": 0.0, "lat": 38.89741683333333, "type": "electric_scooter", "lon": -77.02039033333334, "bike_id": "6f9149efe9a694a0348e5697dc7cf3d6", "rental_uris": {"android": "https://dc.lft.to/lastmile_qr_scan", "ios": "https://dc.lft.to/lastmile_qr_scan"}, "name": "6f9149efe9a694a0348e5697dc7cf3d6", "is_reserved": 0}, {"is_disabled": 0, "fusion_lon": 0.0, "fusion_lat": 0.0, "lat": 38.90148283333333, "type": "electric_scooter", "lon": -77.04153183333334, "bike_id": "6bd165111ec122839be7f7576f200f23", "rental_uris": {"android": "https://dc.lft.to/lastmile_qr_scan", "ios": "https://dc.lft.to/lastmile_qr_scan"}, "name": "6bd165111ec122839be7f7576f200f23", "is_reserved": 0}, {"is_disabled": 0, "fusion_lon": 0.0, "fusion_lat": 0.0, "lat": 38.91545433333334, "type": "electric_scooter", "lon": -77.03858433333333, "bike_id": "31e96d897c1b9258860ca008fc299c1e", "rental_uris": {"android": "https://dc.lft.to/lastmile_qr_scan", "ios": "https://dc.lft.to/lastmile_qr_scan"}, "name": "31e96d897c1b9258860ca008fc299c1e", "is_reserved": 0}, {"is_disabled": 0, "fusion_lon": 0.0, "fusion_lat": 0.0, "lat": 38.905701, "type": "electric_scooter", "lon": -77.02178716666667, "bike_id": "0f406710ee4f72a1e7f11f0b341a63b6", "rental_uris": {"android": "https://dc.lft.to/lastmile_qr_scan", "ios": "https://dc.lft.to/lastmile_qr_scan"}, "name": "0f406710ee4f72a1e7f11f0b341a63b6", "is_reserved": 0}, {"is_disabled": 0, "fusion_lon": 0.0, "fusion_lat": 0.0, "lat": 38.907278833333336, "type": "electric_scooter", "lon": -77.04016333333334, "bike_id": "96499f37b6553746b2b2889eaf5c3fb2", "rental_uris": {"android": "https://dc.lft.to/lastmile_qr_scan", "ios": "https://dc.lft.to/lastmile_qr_scan"}, "name": "96499f37b6553746b2b2889eaf5c3fb2", "is_reserved": 0}, {"is_disabled": 0, "fusion_lon": 0.0, "fusion_lat": 0.0, "lat": 38.9004475, "type": "electric_scooter", "lon": -76.98833516666667, "bike_id": "bf3331175471683cf124be4f3296345b", "rental_uris": {"android": "https://dc.lft.to/lastmile_qr_scan", "ios": "https://dc.lft.to/lastmile_qr_scan"}, "name": "bf3331175471683cf124be4f3296345b", "is_reserved": 0}, {"is_disabled": 0, "fusion_lon": 0.0, "fusion_lat": 0.0, "lat": 38.8312205, "type": "electric_bike", "lon": -77.04323466666666, "bike_id": "72a6dca466e6dd75968688a0275b713d", "rental_uris": {"android": "https://dc.lft.to/lastmile_qr_scan", "ios": "https://dc.lft.to/lastmile_qr_scan"}, "name": "72a6dca466e6dd75968688a0275b713d", "is_reserved": 0}, {"is_disabled": 0, "fusion_lon": 0.0, "fusion_lat": 0.0, "lat": 38.90745616666667, "type": "electric_scooter", "lon": -77.03443333333334, "bike_id": "eb3a995af5992b99cb86ebf06994e2a3", "rental_uris": {"android": "https://dc.lft.to/lastmile_qr_scan", "ios": "https://dc.lft.to/lastmile_qr_scan"}, "name": "eb3a995af5992b99cb86ebf06994e2a3", "is_reserved": 0}, {"is_disabled": 0, "fusion_lon": 0.0, "fusion_lat": 0.0, "lat": 38.827309, "type": "electric_bike", "lon": -77.00863033333333, "bike_id": "fa3771bb3a1614e785ea920dc88af7a9", "rental_uris": {"android": "https://dc.lft.to/lastmile_qr_scan", "ios": "https://dc.lft.to/lastmile_qr_scan"}, "name": "fa3771bb3a1614e785ea920dc88af7a9", "is_reserved": 0}, {"is_disabled": 0, "fusion_lon": 0.0, "fusion_lat": 0.0, "lat": 38.88865, "type": "electric_scooter", "lon": -76.97742433333333, "bike_id": "3ce4fb434eec8a486102c75dcf2c84e2", "rental_uris": {"android": "https://dc.lft.to/lastmile_qr_scan", "ios": "https://dc.lft.to/lastmile_qr_scan"}, "name": "3ce4fb434eec8a486102c75dcf2c84e2", "is_reserved": 0}, {"is_disabled": 0, "fusion_lon": 0.0, "fusion_lat": 0.0, "lat": 38.89498716666667, "type": "electric_scooter", "lon": -77.021846, "bike_id": "58d3d4e61595034749637868b148d6e8", "rental_uris": {"android": "https://dc.lft.to/lastmile_qr_scan", "ios": "https://dc.lft.to/lastmile_qr_scan"}, "name": "58d3d4e61595034749637868b148d6e8", "is_reserved": 0}, {"is_disabled": 0, "fusion_lon": 0.0, "fusion_lat": 0.0, "lat": 38.8757645, "type": "electric_scooter", "lon": -77.00614166666666, "bike_id": "e612bbae67f61a9834c78145444b5f86", "rental_uris": {"android": "https://dc.lft.to/lastmile_qr_scan", "ios": "https://dc.lft.to/lastmile_qr_scan"}, "name": "e612bbae67f61a9834c78145444b5f86", "is_reserved": 0}, {"is_disabled": 0, "fusion_lon": 0.0, "fusion_lat": 0.0, "lat": 38.90546716666667, "type": "electric_scooter", "lon": -77.033543, "bike_id": "b53f692dea3f4ca242cccdffe1b48282", "rental_uris": {"android": "https://dc.lft.to/lastmile_qr_scan", "ios": "https://dc.lft.to/lastmile_qr_scan"}, "name": "b53f692dea3f4ca242cccdffe1b48282", "is_reserved": 0}, {"is_disabled": 0, "fusion_lon": 0.0, "fusion_lat": 0.0, "lat": 38.89319866666666, "type": "electric_scooter", "lon": -77.01960683333333, "bike_id": "cf384b23c190497b62dd81fe34a7fa3e", "rental_uris": {"android": "https://dc.lft.to/lastmile_qr_scan", "ios": "https://dc.lft.to/lastmile_qr_scan"}, "name": "cf384b23c190497b62dd81fe34a7fa3e", "is_reserved": 0}, {"is_disabled": 0, "fusion_lon": 0.0, "fusion_lat": 0.0, "lat": 38.91541133333333, "type": "electric_scooter", "lon": -77.03207266666666, "bike_id": "508412f3cdffe88af6a40cf3319d3602", "rental_uris": {"android": "https://dc.lft.to/lastmile_qr_scan", "ios": "https://dc.lft.to/lastmile_qr_scan"}, "name": "508412f3cdffe88af6a40cf3319d3602", "is_reserved": 0}, {"is_disabled": 0, "fusion_lon": 0.0, "fusion_lat": 0.0, "lat": 38.850682666666664, "type": "electric_scooter", "lon": -76.96534866666667, "bike_id": "63971d57c1ec628497e977a4b6b08326", "rental_uris": {"android": "https://dc.lft.to/lastmile_qr_scan", "ios": "https://dc.lft.to/lastmile_qr_scan"}, "name": "63971d57c1ec628497e977a4b6b08326", "is_reserved": 0}, {"is_disabled": 0, "fusion_lon": 0.0, "fusion_lat": 0.0, "lat": 38.901501, "type": "electric_scooter", "lon": -77.04149833333334, "bike_id": "7f4b61a3ed2447cc801c4e7a93c2d0cc", "rental_uris": {"android": "https://dc.lft.to/lastmile_qr_scan", "ios": "https://dc.lft.to/lastmile_qr_scan"}, "name": "7f4b61a3ed2447cc801c4e7a93c2d0cc", "is_reserved": 0}, {"is_disabled": 0, "fusion_lon": 0.0, "fusion_lat": 0.0, "lat": 38.92976016666667, "type": "electric_scooter", "lon": -77.02800383333333, "bike_id": "09e6564d3b103f6e7ea6b31753bf0a1a", "rental_uris": {"android": "https://dc.lft.to/lastmile_qr_scan", "ios": "https://dc.lft.to/lastmile_qr_scan"}, "name": "09e6564d3b103f6e7ea6b31753bf0a1a", "is_reserved": 0}, {"is_disabled": 0, "fusion_lon": 0.0, "fusion_lat": 0.0, "lat": 38.92289683333333, "type": "electric_scooter", "lon": -77.0296315, "bike_id": "6e842fb503b798a730fa5d4b7d052ded", "rental_uris": {"android": "https://dc.lft.to/lastmile_qr_scan", "ios": "https://dc.lft.to/lastmile_qr_scan"}, "name": "6e842fb503b798a730fa5d4b7d052ded", "is_reserved": 0}, {"is_disabled": 0, "fusion_lon": 0.0, "fusion_lat": 0.0, "lat": 38.92659033333333, "type": "electric_scooter", "lon": -77.03723333333333, "bike_id": "d11acbbb148d78cb9911df48ab76a515", "rental_uris": {"android": "https://dc.lft.to/lastmile_qr_scan", "ios": "https://dc.lft.to/lastmile_qr_scan"}, "name": "d11acbbb148d78cb9911df48ab76a515", "is_reserved": 0}, {"is_disabled": 0, "fusion_lon": 0.0, "fusion_lat": 0.0, "lat": 38.924625166666665, "type": "electric_scooter", "lon": -77.07867216666666, "bike_id": "b84339afc0c3fa95122da0e75d8529c9", "rental_uris": {"android": "https://dc.lft.to/lastmile_qr_scan", "ios": "https://dc.lft.to/lastmile_qr_scan"}, "name": "b84339afc0c3fa95122da0e75d8529c9", "is_reserved": 0}, {"is_disabled": 0, "fusion_lon": 0.0, "fusion_lat": 0.0, "lat": 38.939706666666666, "type": "electric_bike", "lon": -77.360892, "bike_id": "2eb710f8339e286ea411b1e5afea428d", "rental_uris": {"android": "https://dc.lft.to/lastmile_qr_scan", "ios": "https://dc.lft.to/lastmile_qr_scan"}, "name": "2eb710f8339e286ea411b1e5afea428d", "is_reserved": 0}, {"is_disabled": 0, "fusion_lon": 0.0, "fusion_lat": 0.0, "lat": 38.90592766666666, "type": "electric_scooter", "lon": -77.023812, "bike_id": "c33850cbd478f4f122579040c6249cd2", "rental_uris": {"android": "https://dc.lft.to/lastmile_qr_scan", "ios": "https://dc.lft.to/lastmile_qr_scan"}, "name": "c33850cbd478f4f122579040c6249cd2", "is_reserved": 0}, {"is_disabled": 0, "fusion_lon": 0.0, "fusion_lat": 0.0, "lat": 38.92592966666667, "type": "electric_scooter", "lon": -77.0251485, "bike_id": "e9356249f9c2abf7bcf860e4a6811238", "rental_uris": {"android": "https://dc.lft.to/lastmile_qr_scan", "ios": "https://dc.lft.to/lastmile_qr_scan"}, "name": "e9356249f9c2abf7bcf860e4a6811238", "is_reserved": 0}, {"is_disabled": 0, "fusion_lon": 0.0, "fusion_lat": 0.0, "lat": 38.902458833333334, "type": "electric_scooter", "lon": -77.01506583333334, "bike_id": "f9d8f512230fca49615b314359197026", "rental_uris": {"android": "https://dc.lft.to/lastmile_qr_scan", "ios": "https://dc.lft.to/lastmile_qr_scan"}, "name": "f9d8f512230fca49615b314359197026", "is_reserved": 0}, {"is_disabled": 0, "fusion_lon": 0.0, "fusion_lat": 0.0, "lat": 38.87759783333333, "type": "electric_bike", "lon": -76.97996783333333, "bike_id": "5802e9721af31b1e2d2e1cb27e6788a3", "rental_uris": {"android": "https://dc.lft.to/lastmile_qr_scan", "ios": "https://dc.lft.to/lastmile_qr_scan"}, "name": "5802e9721af31b1e2d2e1cb27e6788a3", "is_reserved": 0}, {"is_disabled": 0, "fusion_lon": 0.0, "fusion_lat": 0.0, "lat": 38.925795666666666, "type": "electric_scooter", "lon": -77.08056666666667, "bike_id": "93a0f2ac176cc84d6b80071190946735", "rental_uris": {"android": "https://dc.lft.to/lastmile_qr_scan", "ios": "https://dc.lft.to/lastmile_qr_scan"}, "name": "93a0f2ac176cc84d6b80071190946735", "is_reserved": 0}, {"is_disabled": 0, "fusion_lon": 0.0, "fusion_lat": 0.0, "lat": 38.912134, "type": "electric_scooter", "lon": -77.03841016666667, "bike_id": "9a4cb55dfa6858deaa35c5939723f622", "rental_uris": {"android": "https://dc.lft.to/lastmile_qr_scan", "ios": "https://dc.lft.to/lastmile_qr_scan"}, "name": "9a4cb55dfa6858deaa35c5939723f622", "is_reserved": 0}, {"is_disabled": 0, "fusion_lon": 0.0, "fusion_lat": 0.0, "lat": 38.914584166666664, "type": "electric_scooter", "lon": -76.98444016666667, "bike_id": "617fae1efa0d089db9a50c40ec64a91b", "rental_uris": {"android": "https://dc.lft.to/lastmile_qr_scan", "ios": "https://dc.lft.to/lastmile_qr_scan"}, "name": "617fae1efa0d089db9a50c40ec64a91b", "is_reserved": 0}, {"is_disabled": 0, "fusion_lon": 0.0, "fusion_lat": 0.0, "lat": 38.885949833333335, "type": "electric_scooter", "lon": -77.0176165, "bike_id": "797a51d904fa4d877a6b2bc2a272c057", "rental_uris": {"android": "https://dc.lft.to/lastmile_qr_scan", "ios": "https://dc.lft.to/lastmile_qr_scan"}, "name": "797a51d904fa4d877a6b2bc2a272c057", "is_reserved": 0}, {"is_disabled": 0, "fusion_lon": 0.0, "fusion_lat": 0.0, "lat": 38.91934466666667, "type": "electric_scooter", "lon": -76.980736, "bike_id": "206ce2679ae387ab98a68fd06d70072d", "rental_uris": {"android": "https://dc.lft.to/lastmile_qr_scan", "ios": "https://dc.lft.to/lastmile_qr_scan"}, "name": "206ce2679ae387ab98a68fd06d70072d", "is_reserved": 0}, {"is_disabled": 0, "fusion_lon": 0.0, "fusion_lat": 0.0, "lat": 38.90044916666667, "type": "electric_scooter", "lon": -77.0020175, "bike_id": "9bba3b13a6774e9332fd72a4b162be64", "rental_uris": {"android": "https://dc.lft.to/lastmile_qr_scan", "ios": "https://dc.lft.to/lastmile_qr_scan"}, "name": "9bba3b13a6774e9332fd72a4b162be64", "is_reserved": 0}, {"is_disabled": 0, "fusion_lon": 0.0, "fusion_lat": 0.0, "lat": 38.9132665, "type": "electric_scooter", "lon": -77.03181016666667, "bike_id": "a46081e557fe25a850909cd7eedb6b48", "rental_uris": {"android": "https://dc.lft.to/lastmile_qr_scan", "ios": "https://dc.lft.to/lastmile_qr_scan"}, "name": "a46081e557fe25a850909cd7eedb6b48", "is_reserved": 0}, {"is_disabled": 0, "fusion_lon": 0.0, "fusion_lat": 0.0, "lat": 38.920035166666665, "type": "electric_scooter", "lon": -77.02407516666666, "bike_id": "78bfbf04dde8dae4ce8c4ca38244ac64", "rental_uris": {"android": "https://dc.lft.to/lastmile_qr_scan", "ios": "https://dc.lft.to/lastmile_qr_scan"}, "name": "78bfbf04dde8dae4ce8c4ca38244ac64", "is_reserved": 0}, {"is_disabled": 0, "fusion_lon": 0.0, "fusion_lat": 0.0, "lat": 38.940810166666665, "type": "electric_scooter", "lon": -77.0211665, "bike_id": "4292407fedbbe12be92bbdf766c4e0a5", "rental_uris": {"android": "https://dc.lft.to/lastmile_qr_scan", "ios": "https://dc.lft.to/lastmile_qr_scan"}, "name": "4292407fedbbe12be92bbdf766c4e0a5", "is_reserved": 0}, {"is_disabled": 0, "fusion_lon": 0.0, "fusion_lat": 0.0, "lat": 38.9192185, "type": "electric_scooter", "lon": -77.0342165, "bike_id": "437f957b369f44bdc70b9c2f70077ae7", "rental_uris": {"android": "https://dc.lft.to/lastmile_qr_scan", "ios": "https://dc.lft.to/lastmile_qr_scan"}, "name": "437f957b369f44bdc70b9c2f70077ae7", "is_reserved": 0}, {"is_disabled": 0, "fusion_lon": 0.0, "fusion_lat": 0.0, "lat": 38.879030666666665, "type": "electric_scooter", "lon": -77.02191133333334, "bike_id": "b2d4a61926925a8ce0df8ba3fcca4d57", "rental_uris": {"android": "https://dc.lft.to/lastmile_qr_scan", "ios": "https://dc.lft.to/lastmile_qr_scan"}, "name": "b2d4a61926925a8ce0df8ba3fcca4d57", "is_reserved": 0}, {"is_disabled": 0, "fusion_lon": 0.0, "fusion_lat": 0.0, "lat": 38.92763983333333, "type": "electric_scooter", "lon": -77.005908, "bike_id": "ba8dcb9d6fcc7f9362fd394002d936ab", "rental_uris": {"android": "https://dc.lft.to/lastmile_qr_scan", "ios": "https://dc.lft.to/lastmile_qr_scan"}, "name": "ba8dcb9d6fcc7f9362fd394002d936ab", "is_reserved": 0}, {"is_disabled": 0, "fusion_lon": 0.0, "fusion_lat": 0.0, "lat": 38.91961366666666, "type": "electric_scooter", "lon": -77.02383766666667, "bike_id": "755d4e8f8e8f8d9d6a9cba5ea4aab4e4", "rental_uris": {"android": "https://dc.lft.to/lastmile_qr_scan", "ios": "https://dc.lft.to/lastmile_qr_scan"}, "name": "755d4e8f8e8f8d9d6a9cba5ea4aab4e4", "is_reserved": 0}, {"is_disabled": 0, "fusion_lon": 0.0, "fusion_lat": 0.0, "lat": 38.944516166666666, "type": "electric_scooter", "lon": -77.0634935, "bike_id": "9ffafb620db42b9116bcb24b32eb2297", "rental_uris": {"android": "https://dc.lft.to/lastmile_qr_scan", "ios": "https://dc.lft.to/lastmile_qr_scan"}, "name": "9ffafb620db42b9116bcb24b32eb2297", "is_reserved": 0}, {"is_disabled": 0, "fusion_lon": 0.0, "fusion_lat": 0.0, "lat": 38.876228166666664, "type": "electric_scooter", "lon": -77.006284, "bike_id": "78a8d040c642fcf55a3048f170af7636", "rental_uris": {"android": "https://dc.lft.to/lastmile_qr_scan", "ios": "https://dc.lft.to/lastmile_qr_scan"}, "name": "78a8d040c642fcf55a3048f170af7636", "is_reserved": 0}, {"is_disabled": 0, "fusion_lon": 0.0, "fusion_lat": 0.0, "lat": 38.855101833333336, "type": "electric_bike", "lon": -76.95842016666667, "bike_id": "892f4daffada20682bc3e433b8cd2e2d", "rental_uris": {"android": "https://dc.lft.to/lastmile_qr_scan", "ios": "https://dc.lft.to/lastmile_qr_scan"}, "name": "892f4daffada20682bc3e433b8cd2e2d", "is_reserved": 0}, {"is_disabled": 0, "fusion_lon": 0.0, "fusion_lat": 0.0, "lat": 38.9156855, "type": "electric_scooter", "lon": -77.03274883333333, "bike_id": "f7afe01bf309fd7ad72c3d3a65e98420", "rental_uris": {"android": "https://dc.lft.to/lastmile_qr_scan", "ios": "https://dc.lft.to/lastmile_qr_scan"}, "name": "f7afe01bf309fd7ad72c3d3a65e98420", "is_reserved": 0}, {"is_disabled": 0, "fusion_lon": 0.0, "fusion_lat": 0.0, "lat": 38.9132695, "type": "electric_scooter", "lon": -77.03181816666667, "bike_id": "c2ffb2b2f2dfbbce563dbd33981eb958", "rental_uris": {"android": "https://dc.lft.to/lastmile_qr_scan", "ios": "https://dc.lft.to/lastmile_qr_scan"}, "name": "c2ffb2b2f2dfbbce563dbd33981eb958", "is_reserved": 0}, {"is_disabled": 0, "fusion_lon": 0.0, "fusion_lat": 0.0, "lat": 38.917986666666664, "type": "electric_scooter", "lon": -77.04033383333334, "bike_id": "71e5a37b4badee2c5291519d1db81e27", "rental_uris": {"android": "https://dc.lft.to/lastmile_qr_scan", "ios": "https://dc.lft.to/lastmile_qr_scan"}, "name": "71e5a37b4badee2c5291519d1db81e27", "is_reserved": 0}, {"is_disabled": 0, "fusion_lon": 0.0, "fusion_lat": 0.0, "lat": 38.90968266666667, "type": "electric_scooter", "lon": -77.0156685, "bike_id": "2883554613b56fa85b809ae42c767ad1", "rental_uris": {"android": "https://dc.lft.to/lastmile_qr_scan", "ios": "https://dc.lft.to/lastmile_qr_scan"}, "name": "2883554613b56fa85b809ae42c767ad1", "is_reserved": 0}, {"is_disabled": 0, "fusion_lon": 0.0, "fusion_lat": 0.0, "lat": 38.86512283333333, "type": "electric_scooter", "lon": -76.99004, "bike_id": "f59ea4a5ac540bc6774804956e4a35f3", "rental_uris": {"android": "https://dc.lft.to/lastmile_qr_scan", "ios": "https://dc.lft.to/lastmile_qr_scan"}, "name": "f59ea4a5ac540bc6774804956e4a35f3", "is_reserved": 0}, {"is_disabled": 0, "fusion_lon": 0.0, "fusion_lat": 0.0, "lat": 38.91042133333333, "type": "electric_scooter", "lon": -77.01377, "bike_id": "ae6c60dc29ddf488a0fb18e2917c58ba", "rental_uris": {"android": "https://dc.lft.to/lastmile_qr_scan", "ios": "https://dc.lft.to/lastmile_qr_scan"}, "name": "ae6c60dc29ddf488a0fb18e2917c58ba", "is_reserved": 0}, {"is_disabled": 0, "fusion_lon": 0.0, "fusion_lat": 0.0, "lat": 38.9310495, "type": "electric_scooter", "lon": -77.04127766666667, "bike_id": "5819b36a048d6015b9e73664a56ed5b8", "rental_uris": {"android": "https://dc.lft.to/lastmile_qr_scan", "ios": "https://dc.lft.to/lastmile_qr_scan"}, "name": "5819b36a048d6015b9e73664a56ed5b8", "is_reserved": 0}, {"is_disabled": 0, "fusion_lon": 0.0, "fusion_lat": 0.0, "lat": 38.91920833333333, "type": "electric_scooter", "lon": -77.03022716666666, "bike_id": "1a4b6ff53ded048b7350d2c0cf848100", "rental_uris": {"android": "https://dc.lft.to/lastmile_qr_scan", "ios": "https://dc.lft.to/lastmile_qr_scan"}, "name": "1a4b6ff53ded048b7350d2c0cf848100", "is_reserved": 0}, {"is_disabled": 0, "fusion_lon": 0.0, "fusion_lat": 0.0, "lat": 38.892235, "type": "electric_scooter", "lon": -77.02262633333333, "bike_id": "07515674827f39903b2087dc20d271ba", "rental_uris": {"android": "https://dc.lft.to/lastmile_qr_scan", "ios": "https://dc.lft.to/lastmile_qr_scan"}, "name": "07515674827f39903b2087dc20d271ba", "is_reserved": 0}, {"is_disabled": 0, "fusion_lon": 0.0, "fusion_lat": 0.0, "lat": 38.94985233333333, "type": "electric_scooter", "lon": -77.0270265, "bike_id": "a8f601aa3924a7cabd3dd9979d73c13c", "rental_uris": {"android": "https://dc.lft.to/lastmile_qr_scan", "ios": "https://dc.lft.to/lastmile_qr_scan"}, "name": "a8f601aa3924a7cabd3dd9979d73c13c", "is_reserved": 0}, {"is_disabled": 0, "fusion_lon": 0.0, "fusion_lat": 0.0, "lat": 38.89165783333333, "type": "electric_scooter", "lon": -77.0154285, "bike_id": "fbf5d8a062ceac6f433ba3a562f7df51", "rental_uris": {"android": "https://dc.lft.to/lastmile_qr_scan", "ios": "https://dc.lft.to/lastmile_qr_scan"}, "name": "fbf5d8a062ceac6f433ba3a562f7df51", "is_reserved": 0}, {"is_disabled": 0, "fusion_lon": 0.0, "fusion_lat": 0.0, "lat": 38.90959816666667, "type": "electric_scooter", "lon": -77.02376616666666, "bike_id": "2d5c2dad141d34384a1ce9ed49dafcdb", "rental_uris": {"android": "https://dc.lft.to/lastmile_qr_scan", "ios": "https://dc.lft.to/lastmile_qr_scan"}, "name": "2d5c2dad141d34384a1ce9ed49dafcdb", "is_reserved": 0}, {"is_disabled": 0, "fusion_lon": 0.0, "fusion_lat": 0.0, "lat": 38.874148, "type": "electric_bike", "lon": -77.08572083333334, "bike_id": "a29f9e2359ae1649184758d488b1ad34", "rental_uris": {"android": "https://dc.lft.to/lastmile_qr_scan", "ios": "https://dc.lft.to/lastmile_qr_scan"}, "name": "a29f9e2359ae1649184758d488b1ad34", "is_reserved": 0}, {"is_disabled": 0, "fusion_lon": 0.0, "fusion_lat": 0.0, "lat": 38.917138, "type": "electric_scooter", "lon": -77.02990383333334, "bike_id": "6a945dd8c52d6846f4533a71cfc70018", "rental_uris": {"android": "https://dc.lft.to/lastmile_qr_scan", "ios": "https://dc.lft.to/lastmile_qr_scan"}, "name": "6a945dd8c52d6846f4533a71cfc70018", "is_reserved": 0}, {"is_disabled": 0, "fusion_lon": 0.0, "fusion_lat": 0.0, "lat": 38.89971883333333, "type": "electric_scooter", "lon": -77.03074283333333, "bike_id": "6f4f64df3e10b567bf613cb860595058", "rental_uris": {"android": "https://dc.lft.to/lastmile_qr_scan", "ios": "https://dc.lft.to/lastmile_qr_scan"}, "name": "6f4f64df3e10b567bf613cb860595058", "is_reserved": 0}, {"is_disabled": 0, "fusion_lon": 0.0, "fusion_lat": 0.0, "lat": 38.920761, "type": "electric_scooter", "lon": -77.00061366666667, "bike_id": "976bafc82c4e665cc63b5948e06d7feb", "rental_uris": {"android": "https://dc.lft.to/lastmile_qr_scan", "ios": "https://dc.lft.to/lastmile_qr_scan"}, "name": "976bafc82c4e665cc63b5948e06d7feb", "is_reserved": 0}, {"is_disabled": 0, "fusion_lon": 0.0, "fusion_lat": 0.0, "lat": 38.884895666666665, "type": "electric_scooter", "lon": -77.02497116666666, "bike_id": "9052a51cbfb4d590580235e242043475", "rental_uris": {"android": "https://dc.lft.to/lastmile_qr_scan", "ios": "https://dc.lft.to/lastmile_qr_scan"}, "name": "9052a51cbfb4d590580235e242043475", "is_reserved": 0}, {"is_disabled": 0, "fusion_lon": 0.0, "fusion_lat": 0.0, "lat": 38.894481166666665, "type": "electric_scooter", "lon": -77.02651883333333, "bike_id": "2d754abd05b8550fc2b8bbb469ed2635", "rental_uris": {"android": "https://dc.lft.to/lastmile_qr_scan", "ios": "https://dc.lft.to/lastmile_qr_scan"}, "name": "2d754abd05b8550fc2b8bbb469ed2635", "is_reserved": 0}, {"is_disabled": 0, "fusion_lon": 0.0, "fusion_lat": 0.0, "lat": 38.90033016666667, "type": "electric_scooter", "lon": -76.99828266666667, "bike_id": "618e5e0c5fc6c358319c9f5ca3945b6c", "rental_uris": {"android": "https://dc.lft.to/lastmile_qr_scan", "ios": "https://dc.lft.to/lastmile_qr_scan"}, "name": "618e5e0c5fc6c358319c9f5ca3945b6c", "is_reserved": 0}, {"is_disabled": 0, "fusion_lon": 0.0, "fusion_lat": 0.0, "lat": 38.931437833333334, "type": "electric_scooter", "lon": -77.042485, "bike_id": "2f461221e1e5b43c380ff8abbfd0f2f3", "rental_uris": {"android": "https://dc.lft.to/lastmile_qr_scan", "ios": "https://dc.lft.to/lastmile_qr_scan"}, "name": "2f461221e1e5b43c380ff8abbfd0f2f3", "is_reserved": 0}, {"is_disabled": 0, "fusion_lon": 0.0, "fusion_lat": 0.0, "lat": 38.916313, "type": "electric_scooter", "lon": -77.0331365, "bike_id": "a447ef425531c2648dc9d8644d1655f3", "rental_uris": {"android": "https://dc.lft.to/lastmile_qr_scan", "ios": "https://dc.lft.to/lastmile_qr_scan"}, "name": "a447ef425531c2648dc9d8644d1655f3", "is_reserved": 0}, {"is_disabled": 0, "fusion_lon": 0.0, "fusion_lat": 0.0, "lat": 38.908538666666665, "type": "electric_scooter", "lon": -76.9979995, "bike_id": "7bbaf593efac2c33e64b5e01057f091a", "rental_uris": {"android": "https://dc.lft.to/lastmile_qr_scan", "ios": "https://dc.lft.to/lastmile_qr_scan"}, "name": "7bbaf593efac2c33e64b5e01057f091a", "is_reserved": 0}, {"is_disabled": 0, "fusion_lon": 0.0, "fusion_lat": 0.0, "lat": 38.93622966666667, "type": "electric_bike", "lon": -77.05903333333333, "bike_id": "d954987f92de9dc605d682ceb720fabf", "rental_uris": {"android": "https://dc.lft.to/lastmile_qr_scan", "ios": "https://dc.lft.to/lastmile_qr_scan"}, "name": "d954987f92de9dc605d682ceb720fabf", "is_reserved": 0}, {"is_disabled": 0, "fusion_lon": 0.0, "fusion_lat": 0.0, "lat": 38.932319, "type": "electric_scooter", "lon": -76.99932916666667, "bike_id": "15f5f07b85c67858e0a54106b69d7148", "rental_uris": {"android": "https://dc.lft.to/lastmile_qr_scan", "ios": "https://dc.lft.to/lastmile_qr_scan"}, "name": "15f5f07b85c67858e0a54106b69d7148", "is_reserved": 0}, {"is_disabled": 0, "fusion_lon": 0.0, "fusion_lat": 0.0, "lat": 38.91806583333333, "type": "electric_scooter", "lon": -77.02687216666666, "bike_id": "52a8ed111404de56e79193ed9ed21132", "rental_uris": {"android": "https://dc.lft.to/lastmile_qr_scan", "ios": "https://dc.lft.to/lastmile_qr_scan"}, "name": "52a8ed111404de56e79193ed9ed21132", "is_reserved": 0}, {"is_disabled": 0, "fusion_lon": 0.0, "fusion_lat": 0.0, "lat": 38.89487916666667, "type": "electric_scooter", "lon": -77.00212533333334, "bike_id": "522021de3dd9ed776bd3b42dd14f2e10", "rental_uris": {"android": "https://dc.lft.to/lastmile_qr_scan", "ios": "https://dc.lft.to/lastmile_qr_scan"}, "name": "522021de3dd9ed776bd3b42dd14f2e10", "is_reserved": 0}, {"is_disabled": 0, "fusion_lon": 0.0, "fusion_lat": 0.0, "lat": 38.921626, "type": "electric_scooter", "lon": -77.0338185, "bike_id": "f63477da284af735f4beb1ddc6d222c6", "rental_uris": {"android": "https://dc.lft.to/lastmile_qr_scan", "ios": "https://dc.lft.to/lastmile_qr_scan"}, "name": "f63477da284af735f4beb1ddc6d222c6", "is_reserved": 0}, {"is_disabled": 0, "fusion_lon": 0.0, "fusion_lat": 0.0, "lat": 38.918170333333336, "type": "electric_scooter", "lon": -77.02720666666667, "bike_id": "a2a5f1974d4f04943082490ebf93bf98", "rental_uris": {"android": "https://dc.lft.to/lastmile_qr_scan", "ios": "https://dc.lft.to/lastmile_qr_scan"}, "name": "a2a5f1974d4f04943082490ebf93bf98", "is_reserved": 0}, {"is_disabled": 0, "fusion_lon": 0.0, "fusion_lat": 0.0, "lat": 38.89770883333333, "type": "electric_scooter", "lon": -77.02492483333333, "bike_id": "92fb349bbffd978037057e4afe184f89", "rental_uris": {"android": "https://dc.lft.to/lastmile_qr_scan", "ios": "https://dc.lft.to/lastmile_qr_scan"}, "name": "92fb349bbffd978037057e4afe184f89", "is_reserved": 0}, {"is_disabled": 0, "fusion_lon": 0.0, "fusion_lat": 0.0, "lat": 38.91810516666666, "type": "electric_scooter", "lon": -77.04008116666667, "bike_id": "8ec3c5e265b6e27e0a18614aa8a3892c", "rental_uris": {"android": "https://dc.lft.to/lastmile_qr_scan", "ios": "https://dc.lft.to/lastmile_qr_scan"}, "name": "8ec3c5e265b6e27e0a18614aa8a3892c", "is_reserved": 0}, {"is_disabled": 0, "fusion_lon": 0.0, "fusion_lat": 0.0, "lat": 38.941822, "type": "electric_scooter", "lon": -77.03653466666667, "bike_id": "8167490b23ed8bcb71a6db42247c7fb8", "rental_uris": {"android": "https://dc.lft.to/lastmile_qr_scan", "ios": "https://dc.lft.to/lastmile_qr_scan"}, "name": "8167490b23ed8bcb71a6db42247c7fb8", "is_reserved": 0}, {"is_disabled": 0, "fusion_lon": 0.0, "fusion_lat": 0.0, "lat": 38.898379, "type": "electric_scooter", "lon": -77.007455, "bike_id": "8e012dfb9305dfb6f5a48bbc50e37e1f", "rental_uris": {"android": "https://dc.lft.to/lastmile_qr_scan", "ios": "https://dc.lft.to/lastmile_qr_scan"}, "name": "8e012dfb9305dfb6f5a48bbc50e37e1f", "is_reserved": 0}, {"is_disabled": 0, "fusion_lon": 0.0, "fusion_lat": 0.0, "lat": 38.8961205, "type": "electric_scooter", "lon": -77.0294045, "bike_id": "ff849df4e950147a81d7adc516dff205", "rental_uris": {"android": "https://dc.lft.to/lastmile_qr_scan", "ios": "https://dc.lft.to/lastmile_qr_scan"}, "name": "ff849df4e950147a81d7adc516dff205", "is_reserved": 0}, {"is_disabled": 0, "fusion_lon": 0.0, "fusion_lat": 0.0, "lat": 38.932843, "type": "electric_scooter", "lon": -77.03624233333333, "bike_id": "2aa4abe02c1dc2adf908761de3b2e0e0", "rental_uris": {"android": "https://dc.lft.to/lastmile_qr_scan", "ios": "https://dc.lft.to/lastmile_qr_scan"}, "name": "2aa4abe02c1dc2adf908761de3b2e0e0", "is_reserved": 0}, {"is_disabled": 0, "fusion_lon": 0.0, "fusion_lat": 0.0, "lat": 38.90205266666667, "type": "electric_scooter", "lon": -77.04788133333334, "bike_id": "c4b15cae7a6397bcd23f01926f79cf7f", "rental_uris": {"android": "https://dc.lft.to/lastmile_qr_scan", "ios": "https://dc.lft.to/lastmile_qr_scan"}, "name": "c4b15cae7a6397bcd23f01926f79cf7f", "is_reserved": 0}, {"is_disabled": 0, "fusion_lon": 0.0, "fusion_lat": 0.0, "lat": 38.95650666666667, "type": "electric_scooter", "lon": -77.01497733333333, "bike_id": "5babbcd0b7719a82a91352d772f69c2b", "rental_uris": {"android": "https://dc.lft.to/lastmile_qr_scan", "ios": "https://dc.lft.to/lastmile_qr_scan"}, "name": "5babbcd0b7719a82a91352d772f69c2b", "is_reserved": 0}, {"is_disabled": 0, "fusion_lon": 0.0, "fusion_lat": 0.0, "lat": 38.8991075, "type": "electric_scooter", "lon": -76.93391066666666, "bike_id": "6559d8549fb036b0136296d463283d58", "rental_uris": {"android": "https://dc.lft.to/lastmile_qr_scan", "ios": "https://dc.lft.to/lastmile_qr_scan"}, "name": "6559d8549fb036b0136296d463283d58", "is_reserved": 0}, {"is_disabled": 0, "fusion_lon": 0.0, "fusion_lat": 0.0, "lat": 38.9241915, "type": "electric_scooter", "lon": -77.0561815, "bike_id": "ef1ac5de9d17369fe86d7b84f760aa7a", "rental_uris": {"android": "https://dc.lft.to/lastmile_qr_scan", "ios": "https://dc.lft.to/lastmile_qr_scan"}, "name": "ef1ac5de9d17369fe86d7b84f760aa7a", "is_reserved": 0}, {"is_disabled": 0, "fusion_lon": 0.0, "fusion_lat": 0.0, "lat": 38.96937366666667, "type": "electric_bike", "lon": -77.02633816666666, "bike_id": "33a927bb4edcd16bd8b221c03377cfd0", "rental_uris": {"android": "https://dc.lft.to/lastmile_qr_scan", "ios": "https://dc.lft.to/lastmile_qr_scan"}, "name": "33a927bb4edcd16bd8b221c03377cfd0", "is_reserved": 0}, {"is_disabled": 0, "fusion_lon": 0.0, "fusion_lat": 0.0, "lat": 38.892136, "type": "electric_scooter", "lon": -76.9879395, "bike_id": "7d9ea6ec2e2965676b94115c53f25b44", "rental_uris": {"android": "https://dc.lft.to/lastmile_qr_scan", "ios": "https://dc.lft.to/lastmile_qr_scan"}, "name": "7d9ea6ec2e2965676b94115c53f25b44", "is_reserved": 0}, {"is_disabled": 0, "fusion_lon": 0.0, "fusion_lat": 0.0, "lat": 38.920058, "type": "electric_scooter", "lon": -77.0241, "bike_id": "bec2e6b534c90951196cbdd30fe55fa4", "rental_uris": {"android": "https://dc.lft.to/lastmile_qr_scan", "ios": "https://dc.lft.to/lastmile_qr_scan"}, "name": "bec2e6b534c90951196cbdd30fe55fa4", "is_reserved": 0}, {"is_disabled": 0, "fusion_lon": 0.0, "fusion_lat": 0.0, "lat": 38.8714495, "type": "electric_scooter", "lon": -76.97899383333333, "bike_id": "dab65a77a4a84ba8e60a37987171a077", "rental_uris": {"android": "https://dc.lft.to/lastmile_qr_scan", "ios": "https://dc.lft.to/lastmile_qr_scan"}, "name": "dab65a77a4a84ba8e60a37987171a077", "is_reserved": 0}, {"is_disabled": 0, "fusion_lon": 0.0, "fusion_lat": 0.0, "lat": 38.918663, "type": "electric_bike", "lon": -76.961767, "bike_id": "ddf8cebc3b5b44bee173f5411ab522f9", "rental_uris": {"android": "https://dc.lft.to/lastmile_qr_scan", "ios": "https://dc.lft.to/lastmile_qr_scan"}, "name": "ddf8cebc3b5b44bee173f5411ab522f9", "is_reserved": 0}, {"is_disabled": 0, "fusion_lon": 0.0, "fusion_lat": 0.0, "lat": 38.8873665, "type": "electric_scooter", "lon": -77.01535316666667, "bike_id": "42d58941dd761e9a194337d8b6a0f1a0", "rental_uris": {"android": "https://dc.lft.to/lastmile_qr_scan", "ios": "https://dc.lft.to/lastmile_qr_scan"}, "name": "42d58941dd761e9a194337d8b6a0f1a0", "is_reserved": 0}, {"is_disabled": 0, "fusion_lon": 0.0, "fusion_lat": 0.0, "lat": 38.916966, "type": "electric_scooter", "lon": -77.03210383333334, "bike_id": "c4d61431bc14ff83050ae2d53be2a402", "rental_uris": {"android": "https://dc.lft.to/lastmile_qr_scan", "ios": "https://dc.lft.to/lastmile_qr_scan"}, "name": "c4d61431bc14ff83050ae2d53be2a402", "is_reserved": 0}, {"is_disabled": 0, "fusion_lon": 0.0, "fusion_lat": 0.0, "lat": 38.90051033333334, "type": "electric_scooter", "lon": -77.0007035, "bike_id": "24ab52ab11b2f06a5d5be7785b403ddd", "rental_uris": {"android": "https://dc.lft.to/lastmile_qr_scan", "ios": "https://dc.lft.to/lastmile_qr_scan"}, "name": "24ab52ab11b2f06a5d5be7785b403ddd", "is_reserved": 0}, {"is_disabled": 0, "fusion_lon": 0.0, "fusion_lat": 0.0, "lat": 38.935611333333334, "type": "electric_scooter", "lon": -77.029624, "bike_id": "f0c956d93e5f99a490f3b78f5b8070ea", "rental_uris": {"android": "https://dc.lft.to/lastmile_qr_scan", "ios": "https://dc.lft.to/lastmile_qr_scan"}, "name": "f0c956d93e5f99a490f3b78f5b8070ea", "is_reserved": 0}, {"is_disabled": 0, "fusion_lon": 0.0, "fusion_lat": 0.0, "lat": 38.986683666666664, "type": "electric_scooter", "lon": -77.02644316666667, "bike_id": "7f1214e3accbfadbdd1647ed345c4503", "rental_uris": {"android": "https://dc.lft.to/lastmile_qr_scan", "ios": "https://dc.lft.to/lastmile_qr_scan"}, "name": "7f1214e3accbfadbdd1647ed345c4503", "is_reserved": 0}, {"is_disabled": 0, "fusion_lon": 0.0, "fusion_lat": 0.0, "lat": 38.961205666666665, "type": "electric_bike", "lon": -77.0690225, "bike_id": "91450d3d8de3608731ab27f5fac10b93", "rental_uris": {"android": "https://dc.lft.to/lastmile_qr_scan", "ios": "https://dc.lft.to/lastmile_qr_scan"}, "name": "91450d3d8de3608731ab27f5fac10b93", "is_reserved": 0}, {"is_disabled": 0, "fusion_lon": 0.0, "fusion_lat": 0.0, "lat": 38.9074375, "type": "electric_scooter", "lon": -77.03448633333333, "bike_id": "efa7fa67bec5576c92f2f6ff5e00a049", "rental_uris": {"android": "https://dc.lft.to/lastmile_qr_scan", "ios": "https://dc.lft.to/lastmile_qr_scan"}, "name": "efa7fa67bec5576c92f2f6ff5e00a049", "is_reserved": 0}, {"is_disabled": 0, "fusion_lon": 0.0, "fusion_lat": 0.0, "lat": 38.93277416666667, "type": "electric_scooter", "lon": -76.99690266666667, "bike_id": "12860a15d463fa2c709cd473e9890e1c", "rental_uris": {"android": "https://dc.lft.to/lastmile_qr_scan", "ios": "https://dc.lft.to/lastmile_qr_scan"}, "name": "12860a15d463fa2c709cd473e9890e1c", "is_reserved": 0}, {"is_disabled": 0, "fusion_lon": 0.0, "fusion_lat": 0.0, "lat": 38.91821683333333, "type": "electric_scooter", "lon": -77.03186583333333, "bike_id": "849d00cafe8a6e8e530d92528bd8491f", "rental_uris": {"android": "https://dc.lft.to/lastmile_qr_scan", "ios": "https://dc.lft.to/lastmile_qr_scan"}, "name": "849d00cafe8a6e8e530d92528bd8491f", "is_reserved": 0}, {"is_disabled": 0, "fusion_lon": 0.0, "fusion_lat": 0.0, "lat": 38.9147365, "type": "electric_scooter", "lon": -77.0440075, "bike_id": "880775ed5bfc06aea381bb3a80f907c5", "rental_uris": {"android": "https://dc.lft.to/lastmile_qr_scan", "ios": "https://dc.lft.to/lastmile_qr_scan"}, "name": "880775ed5bfc06aea381bb3a80f907c5", "is_reserved": 0}, {"is_disabled": 0, "fusion_lon": 0.0, "fusion_lat": 0.0, "lat": 38.922939, "type": "electric_scooter", "lon": -77.072818, "bike_id": "5aef147bf35db739ede3f3f3dc0dae8f", "rental_uris": {"android": "https://dc.lft.to/lastmile_qr_scan", "ios": "https://dc.lft.to/lastmile_qr_scan"}, "name": "5aef147bf35db739ede3f3f3dc0dae8f", "is_reserved": 0}, {"is_disabled": 0, "fusion_lon": 0.0, "fusion_lat": 0.0, "lat": 39.00018433333333, "type": "electric_bike", "lon": -76.87285816666666, "bike_id": "df0fda6235c84e95851efd22e63b1429", "rental_uris": {"android": "https://dc.lft.to/lastmile_qr_scan", "ios": "https://dc.lft.to/lastmile_qr_scan"}, "name": "df0fda6235c84e95851efd22e63b1429", "is_reserved": 0}, {"is_disabled": 0, "fusion_lon": 0.0, "fusion_lat": 0.0, "lat": 38.90180516666667, "type": "electric_scooter", "lon": -77.02198583333333, "bike_id": "4069bfbed26b2ab4e44cab81cb4c61b5", "rental_uris": {"android": "https://dc.lft.to/lastmile_qr_scan", "ios": "https://dc.lft.to/lastmile_qr_scan"}, "name": "4069bfbed26b2ab4e44cab81cb4c61b5", "is_reserved": 0}, {"is_disabled": 0, "fusion_lon": 0.0, "fusion_lat": 0.0, "lat": 38.91705916666667, "type": "electric_scooter", "lon": -77.02842633333333, "bike_id": "ed7f2fe54079acb9c31c6d1d863e62ee", "rental_uris": {"android": "https://dc.lft.to/lastmile_qr_scan", "ios": "https://dc.lft.to/lastmile_qr_scan"}, "name": "ed7f2fe54079acb9c31c6d1d863e62ee", "is_reserved": 0}, {"is_disabled": 0, "fusion_lon": 0.0, "fusion_lat": 0.0, "lat": 38.902581, "type": "electric_scooter", "lon": -77.06108116666667, "bike_id": "9cd236e2324f2e1493b14fa25aad7f24", "rental_uris": {"android": "https://dc.lft.to/lastmile_qr_scan", "ios": "https://dc.lft.to/lastmile_qr_scan"}, "name": "9cd236e2324f2e1493b14fa25aad7f24", "is_reserved": 0}, {"is_disabled": 0, "fusion_lon": 0.0, "fusion_lat": 0.0, "lat": 38.828783666666666, "type": "electric_bike", "lon": -77.11213433333333, "bike_id": "ce2b3009ced9d9b5ced3baf81989b3c2", "rental_uris": {"android": "https://dc.lft.to/lastmile_qr_scan", "ios": "https://dc.lft.to/lastmile_qr_scan"}, "name": "ce2b3009ced9d9b5ced3baf81989b3c2", "is_reserved": 0}, {"is_disabled": 0, "fusion_lon": 0.0, "fusion_lat": 0.0, "lat": 38.91550433333333, "type": "electric_scooter", "lon": -77.03849566666666, "bike_id": "ac7491356b09044fe26fbf2059b9db75", "rental_uris": {"android": "https://dc.lft.to/lastmile_qr_scan", "ios": "https://dc.lft.to/lastmile_qr_scan"}, "name": "ac7491356b09044fe26fbf2059b9db75", "is_reserved": 0}, {"is_disabled": 0, "fusion_lon": 0.0, "fusion_lat": 0.0, "lat": 38.897238333333334, "type": "electric_scooter", "lon": -77.02161983333333, "bike_id": "d872af20ff52982c11705cfb0cc7332a", "rental_uris": {"android": "https://dc.lft.to/lastmile_qr_scan", "ios": "https://dc.lft.to/lastmile_qr_scan"}, "name": "d872af20ff52982c11705cfb0cc7332a", "is_reserved": 0}, {"is_disabled": 0, "fusion_lon": 0.0, "fusion_lat": 0.0, "lat": 38.90407883333334, "type": "electric_scooter", "lon": -77.03310666666667, "bike_id": "237aad51bacc870c97451249899bd3ab", "rental_uris": {"android": "https://dc.lft.to/lastmile_qr_scan", "ios": "https://dc.lft.to/lastmile_qr_scan"}, "name": "237aad51bacc870c97451249899bd3ab", "is_reserved": 0}, {"is_disabled": 0, "fusion_lon": 0.0, "fusion_lat": 0.0, "lat": 38.925559, "type": "electric_scooter", "lon": -77.05305566666667, "bike_id": "67e4257c8f25d0e5f69d668ed81df0d6", "rental_uris": {"android": "https://dc.lft.to/lastmile_qr_scan", "ios": "https://dc.lft.to/lastmile_qr_scan"}, "name": "67e4257c8f25d0e5f69d668ed81df0d6", "is_reserved": 0}, {"is_disabled": 0, "fusion_lon": 0.0, "fusion_lat": 0.0, "lat": 38.90830583333333, "type": "electric_scooter", "lon": -76.99700583333333, "bike_id": "10af8c086c397f33c1c61892282a2e49", "rental_uris": {"android": "https://dc.lft.to/lastmile_qr_scan", "ios": "https://dc.lft.to/lastmile_qr_scan"}, "name": "10af8c086c397f33c1c61892282a2e49", "is_reserved": 0}, {"is_disabled": 0, "fusion_lon": 0.0, "fusion_lat": 0.0, "lat": 38.91185483333334, "type": "electric_scooter", "lon": -77.01875716666666, "bike_id": "75c3897b0c0c81f428d3f655b4c2f3b3", "rental_uris": {"android": "https://dc.lft.to/lastmile_qr_scan", "ios": "https://dc.lft.to/lastmile_qr_scan"}, "name": "75c3897b0c0c81f428d3f655b4c2f3b3", "is_reserved": 0}, {"is_disabled": 0, "fusion_lon": 0.0, "fusion_lat": 0.0, "lat": 39.029978666666665, "type": "electric_bike", "lon": -77.10652183333333, "bike_id": "5941b6bf360adb4bb7a038bf75a616b1", "rental_uris": {"android": "https://dc.lft.to/lastmile_qr_scan", "ios": "https://dc.lft.to/lastmile_qr_scan"}, "name": "5941b6bf360adb4bb7a038bf75a616b1", "is_reserved": 0}, {"is_disabled": 0, "fusion_lon": 0.0, "fusion_lat": 0.0, "lat": 38.9404445, "type": "electric_scooter", "lon": -77.02498783333333, "bike_id": "4292ae754447c1e261191411a03a3ad0", "rental_uris": {"android": "https://dc.lft.to/lastmile_qr_scan", "ios": "https://dc.lft.to/lastmile_qr_scan"}, "name": "4292ae754447c1e261191411a03a3ad0", "is_reserved": 0}, {"is_disabled": 0, "fusion_lon": 0.0, "fusion_lat": 0.0, "lat": 38.92078216666667, "type": "electric_scooter", "lon": -77.02359883333334, "bike_id": "e0b0a0393dac6debe34109de4c4e0bd4", "rental_uris": {"android": "https://dc.lft.to/lastmile_qr_scan", "ios": "https://dc.lft.to/lastmile_qr_scan"}, "name": "e0b0a0393dac6debe34109de4c4e0bd4", "is_reserved": 0}, {"is_disabled": 0, "fusion_lon": 0.0, "fusion_lat": 0.0, "lat": 38.93299566666666, "type": "electric_scooter", "lon": -77.02836916666666, "bike_id": "eac9ed6098d23cfd41791cff91c9360d", "rental_uris": {"android": "https://dc.lft.to/lastmile_qr_scan", "ios": "https://dc.lft.to/lastmile_qr_scan"}, "name": "eac9ed6098d23cfd41791cff91c9360d", "is_reserved": 0}, {"is_disabled": 0, "fusion_lon": 0.0, "fusion_lat": 0.0, "lat": 38.92891566666667, "type": "electric_scooter", "lon": -77.0323185, "bike_id": "b1f4a89cef57abebcafd234073553909", "rental_uris": {"android": "https://dc.lft.to/lastmile_qr_scan", "ios": "https://dc.lft.to/lastmile_qr_scan"}, "name": "b1f4a89cef57abebcafd234073553909", "is_reserved": 0}, {"is_disabled": 0, "fusion_lon": 0.0, "fusion_lat": 0.0, "lat": 38.910647833333336, "type": "electric_scooter", "lon": -77.04271683333333, "bike_id": "0e7d445e8c182aaa509961008f793c7c", "rental_uris": {"android": "https://dc.lft.to/lastmile_qr_scan", "ios": "https://dc.lft.to/lastmile_qr_scan"}, "name": "0e7d445e8c182aaa509961008f793c7c", "is_reserved": 0}, {"is_disabled": 0, "fusion_lon": 0.0, "fusion_lat": 0.0, "lat": 38.90524666666666, "type": "electric_scooter", "lon": -77.0508325, "bike_id": "5ec03807faf94bdc3da1c63306d4f36a", "rental_uris": {"android": "https://dc.lft.to/lastmile_qr_scan", "ios": "https://dc.lft.to/lastmile_qr_scan"}, "name": "5ec03807faf94bdc3da1c63306d4f36a", "is_reserved": 0}, {"is_disabled": 0, "fusion_lon": 0.0, "fusion_lat": 0.0, "lat": 38.89740066666667, "type": "electric_scooter", "lon": -77.04657866666666, "bike_id": "475cdb0fbee9aa04bcff9631eb3462fe", "rental_uris": {"android": "https://dc.lft.to/lastmile_qr_scan", "ios": "https://dc.lft.to/lastmile_qr_scan"}, "name": "475cdb0fbee9aa04bcff9631eb3462fe", "is_reserved": 0}, {"is_disabled": 0, "fusion_lon": 0.0, "fusion_lat": 0.0, "lat": 38.8995505, "type": "electric_scooter", "lon": -77.05223033333333, "bike_id": "29fde95a9a7720510132cf215a81ae32", "rental_uris": {"android": "https://dc.lft.to/lastmile_qr_scan", "ios": "https://dc.lft.to/lastmile_qr_scan"}, "name": "29fde95a9a7720510132cf215a81ae32", "is_reserved": 0}, {"is_disabled": 0, "fusion_lon": 0.0, "fusion_lat": 0.0, "lat": 38.91692333333334, "type": "electric_scooter", "lon": -76.9808725, "bike_id": "067fa0260551b4249b29b38798ea6600", "rental_uris": {"android": "https://dc.lft.to/lastmile_qr_scan", "ios": "https://dc.lft.to/lastmile_qr_scan"}, "name": "067fa0260551b4249b29b38798ea6600", "is_reserved": 0}, {"is_disabled": 0, "fusion_lon": 0.0, "fusion_lat": 0.0, "lat": 38.985655333333334, "type": "electric_bike", "lon": -76.98826666666666, "bike_id": "34e05609d69a109709c25ebbeaf4fd27", "rental_uris": {"android": "https://dc.lft.to/lastmile_qr_scan", "ios": "https://dc.lft.to/lastmile_qr_scan"}, "name": "34e05609d69a109709c25ebbeaf4fd27", "is_reserved": 0}, {"is_disabled": 0, "fusion_lon": 0.0, "fusion_lat": 0.0, "lat": 38.842931, "type": "electric_scooter", "lon": -76.9995185, "bike_id": "61d1a801073d5ce7741d98a83e0dc525", "rental_uris": {"android": "https://dc.lft.to/lastmile_qr_scan", "ios": "https://dc.lft.to/lastmile_qr_scan"}, "name": "61d1a801073d5ce7741d98a83e0dc525", "is_reserved": 0}, {"is_disabled": 0, "fusion_lon": 0.0, "fusion_lat": 0.0, "lat": 38.90133683333333, "type": "electric_scooter", "lon": -77.04964866666667, "bike_id": "bd207b29023cc29ff1aacdff230e28de", "rental_uris": {"android": "https://dc.lft.to/lastmile_qr_scan", "ios": "https://dc.lft.to/lastmile_qr_scan"}, "name": "bd207b29023cc29ff1aacdff230e28de", "is_reserved": 0}, {"is_disabled": 0, "fusion_lon": 0.0, "fusion_lat": 0.0, "lat": 38.875782, "type": "electric_scooter", "lon": -77.019922, "bike_id": "fdf963ca664628976b544b4dbb0dc7fe", "rental_uris": {"android": "https://dc.lft.to/lastmile_qr_scan", "ios": "https://dc.lft.to/lastmile_qr_scan"}, "name": "fdf963ca664628976b544b4dbb0dc7fe", "is_reserved": 0}, {"is_disabled": 0, "fusion_lon": 0.0, "fusion_lat": 0.0, "lat": 38.91783816666667, "type": "electric_scooter", "lon": -77.036647, "bike_id": "6bf315ea22cc19af9fcbe6112b8dbce0", "rental_uris": {"android": "https://dc.lft.to/lastmile_qr_scan", "ios": "https://dc.lft.to/lastmile_qr_scan"}, "name": "6bf315ea22cc19af9fcbe6112b8dbce0", "is_reserved": 0}, {"is_disabled": 0, "fusion_lon": 0.0, "fusion_lat": 0.0, "lat": 38.902746666666665, "type": "electric_scooter", "lon": -77.03651133333334, "bike_id": "b8fb00705eff6ad419f296eac0af2dbb", "rental_uris": {"android": "https://dc.lft.to/lastmile_qr_scan", "ios": "https://dc.lft.to/lastmile_qr_scan"}, "name": "b8fb00705eff6ad419f296eac0af2dbb", "is_reserved": 0}, {"is_disabled": 0, "fusion_lon": 0.0, "fusion_lat": 0.0, "lat": 38.921505833333335, "type": "electric_scooter", "lon": -77.03506466666667, "bike_id": "c3d65bcf0c9c2bb28cce373759aa23f2", "rental_uris": {"android": "https://dc.lft.to/lastmile_qr_scan", "ios": "https://dc.lft.to/lastmile_qr_scan"}, "name": "c3d65bcf0c9c2bb28cce373759aa23f2", "is_reserved": 0}, {"is_disabled": 0, "fusion_lon": 0.0, "fusion_lat": 0.0, "lat": 38.9058625, "type": "electric_scooter", "lon": -77.023979, "bike_id": "c0d51a6aa3384e9b735a95b4363201ed", "rental_uris": {"android": "https://dc.lft.to/lastmile_qr_scan", "ios": "https://dc.lft.to/lastmile_qr_scan"}, "name": "c0d51a6aa3384e9b735a95b4363201ed", "is_reserved": 0}, {"is_disabled": 0, "fusion_lon": 0.0, "fusion_lat": 0.0, "lat": 38.908464333333335, "type": "electric_scooter", "lon": -77.0238325, "bike_id": "078659a298a40091f1e5fefb9d91a433", "rental_uris": {"android": "https://dc.lft.to/lastmile_qr_scan", "ios": "https://dc.lft.to/lastmile_qr_scan"}, "name": "078659a298a40091f1e5fefb9d91a433", "is_reserved": 0}, {"is_disabled": 0, "fusion_lon": 0.0, "fusion_lat": 0.0, "lat": 38.915539833333334, "type": "electric_scooter", "lon": -77.01230033333333, "bike_id": "9b1484a88f19eae1135a9a405e40586d", "rental_uris": {"android": "https://dc.lft.to/lastmile_qr_scan", "ios": "https://dc.lft.to/lastmile_qr_scan"}, "name": "9b1484a88f19eae1135a9a405e40586d", "is_reserved": 0}, {"is_disabled": 0, "fusion_lon": 0.0, "fusion_lat": 0.0, "lat": 38.92319416666667, "type": "electric_scooter", "lon": -77.04207516666666, "bike_id": "b69c6f138524d000fd555aa3554edad4", "rental_uris": {"android": "https://dc.lft.to/lastmile_qr_scan", "ios": "https://dc.lft.to/lastmile_qr_scan"}, "name": "b69c6f138524d000fd555aa3554edad4", "is_reserved": 0}, {"is_disabled": 0, "fusion_lon": 0.0, "fusion_lat": 0.0, "lat": 38.92161983333333, "type": "electric_scooter", "lon": -77.03848083333334, "bike_id": "36138012e5898a28a755997bfa584a92", "rental_uris": {"android": "https://dc.lft.to/lastmile_qr_scan", "ios": "https://dc.lft.to/lastmile_qr_scan"}, "name": "36138012e5898a28a755997bfa584a92", "is_reserved": 0}, {"is_disabled": 0, "fusion_lon": 0.0, "fusion_lat": 0.0, "lat": 38.893443500000004, "type": "electric_scooter", "lon": -77.04659066666666, "bike_id": "90b99c429b374fb1ad23a8415217caa5", "rental_uris": {"android": "https://dc.lft.to/lastmile_qr_scan", "ios": "https://dc.lft.to/lastmile_qr_scan"}, "name": "90b99c429b374fb1ad23a8415217caa5", "is_reserved": 0}, {"is_disabled": 0, "fusion_lon": 0.0, "fusion_lat": 0.0, "lat": 38.91424266666667, "type": "electric_scooter", "lon": -77.0415965, "bike_id": "3094ac6367c985c49238ac051d148afd", "rental_uris": {"android": "https://dc.lft.to/lastmile_qr_scan", "ios": "https://dc.lft.to/lastmile_qr_scan"}, "name": "3094ac6367c985c49238ac051d148afd", "is_reserved": 0}, {"is_disabled": 0, "fusion_lon": 0.0, "fusion_lat": 0.0, "lat": 38.910356, "type": "electric_scooter", "lon": -77.03435983333334, "bike_id": "f7b287f8830957e3bf279b180757b436", "rental_uris": {"android": "https://dc.lft.to/lastmile_qr_scan", "ios": "https://dc.lft.to/lastmile_qr_scan"}, "name": "f7b287f8830957e3bf279b180757b436", "is_reserved": 0}, {"is_disabled": 0, "fusion_lon": 0.0, "fusion_lat": 0.0, "lat": 38.89690316666667, "type": "electric_scooter", "lon": -76.94712733333333, "bike_id": "0026ffac658370ff32030894e091d706", "rental_uris": {"android": "https://dc.lft.to/lastmile_qr_scan", "ios": "https://dc.lft.to/lastmile_qr_scan"}, "name": "0026ffac658370ff32030894e091d706", "is_reserved": 0}, {"is_disabled": 0, "fusion_lon": 0.0, "fusion_lat": 0.0, "lat": 38.89995183333333, "type": "electric_scooter", "lon": -76.99858116666667, "bike_id": "11c693a05e9d6ef7096ee0c378dca2d7", "rental_uris": {"android": "https://dc.lft.to/lastmile_qr_scan", "ios": "https://dc.lft.to/lastmile_qr_scan"}, "name": "11c693a05e9d6ef7096ee0c378dca2d7", "is_reserved": 0}, {"is_disabled": 0, "fusion_lon": 0.0, "fusion_lat": 0.0, "lat": 38.848479166666664, "type": "electric_bike", "lon": -77.08044816666667, "bike_id": "080391ea1e9e847fab2acdb2674f2a41", "rental_uris": {"android": "https://dc.lft.to/lastmile_qr_scan", "ios": "https://dc.lft.to/lastmile_qr_scan"}, "name": "080391ea1e9e847fab2acdb2674f2a41", "is_reserved": 0}, {"is_disabled": 0, "fusion_lon": 0.0, "fusion_lat": 0.0, "lat": 38.95355033333333, "type": "electric_bike", "lon": -76.98092483333333, "bike_id": "20531c71cacb40a7c70de9d17af171ba", "rental_uris": {"android": "https://dc.lft.to/lastmile_qr_scan", "ios": "https://dc.lft.to/lastmile_qr_scan"}, "name": "20531c71cacb40a7c70de9d17af171ba", "is_reserved": 0}, {"is_disabled": 0, "fusion_lon": 0.0, "fusion_lat": 0.0, "lat": 38.9141635, "type": "electric_scooter", "lon": -77.04162983333333, "bike_id": "12d0e70e142f743dd9728b419b112ff5", "rental_uris": {"android": "https://dc.lft.to/lastmile_qr_scan", "ios": "https://dc.lft.to/lastmile_qr_scan"}, "name": "12d0e70e142f743dd9728b419b112ff5", "is_reserved": 0}, {"is_disabled": 0, "fusion_lon": 0.0, "fusion_lat": 0.0, "lat": 38.966047, "type": "electric_bike", "lon": -76.98337466666666, "bike_id": "317c7526698179956d4636d75327fd55", "rental_uris": {"android": "https://dc.lft.to/lastmile_qr_scan", "ios": "https://dc.lft.to/lastmile_qr_scan"}, "name": "317c7526698179956d4636d75327fd55", "is_reserved": 0}, {"is_disabled": 0, "fusion_lon": 0.0, "fusion_lat": 0.0, "lat": 38.94460016666667, "type": "electric_scooter", "lon": -77.063396, "bike_id": "6dece6c6766356a230e3d6fff719ee95", "rental_uris": {"android": "https://dc.lft.to/lastmile_qr_scan", "ios": "https://dc.lft.to/lastmile_qr_scan"}, "name": "6dece6c6766356a230e3d6fff719ee95", "is_reserved": 0}, {"is_disabled": 0, "fusion_lon": 0.0, "fusion_lat": 0.0, "lat": 38.89693116666667, "type": "electric_scooter", "lon": -77.00493216666666, "bike_id": "454dfdbf0c435b44759f75eff3d52b3f", "rental_uris": {"android": "https://dc.lft.to/lastmile_qr_scan", "ios": "https://dc.lft.to/lastmile_qr_scan"}, "name": "454dfdbf0c435b44759f75eff3d52b3f", "is_reserved": 0}, {"is_disabled": 0, "fusion_lon": 0.0, "fusion_lat": 0.0, "lat": 38.8922905, "type": "electric_scooter", "lon": -77.0318005, "bike_id": "7ccd218a518c8af867904e40032848d0", "rental_uris": {"android": "https://dc.lft.to/lastmile_qr_scan", "ios": "https://dc.lft.to/lastmile_qr_scan"}, "name": "7ccd218a518c8af867904e40032848d0", "is_reserved": 0}, {"is_disabled": 0, "fusion_lon": 0.0, "fusion_lat": 0.0, "lat": 38.92815383333333, "type": "electric_scooter", "lon": -77.02347266666666, "bike_id": "397a0fb5bbfafa089ede8a1627829108", "rental_uris": {"android": "https://dc.lft.to/lastmile_qr_scan", "ios": "https://dc.lft.to/lastmile_qr_scan"}, "name": "397a0fb5bbfafa089ede8a1627829108", "is_reserved": 0}, {"is_disabled": 0, "fusion_lon": 0.0, "fusion_lat": 0.0, "lat": 38.902254666666664, "type": "electric_scooter", "lon": -76.98209583333333, "bike_id": "6c58779f257bfba959bb3a9fb4352dc7", "rental_uris": {"android": "https://dc.lft.to/lastmile_qr_scan", "ios": "https://dc.lft.to/lastmile_qr_scan"}, "name": "6c58779f257bfba959bb3a9fb4352dc7", "is_reserved": 0}, {"is_disabled": 0, "fusion_lon": 0.0, "fusion_lat": 0.0, "lat": 38.898482666666666, "type": "electric_scooter", "lon": -77.02909933333333, "bike_id": "963e48b26400c2c7275311178da0cc77", "rental_uris": {"android": "https://dc.lft.to/lastmile_qr_scan", "ios": "https://dc.lft.to/lastmile_qr_scan"}, "name": "963e48b26400c2c7275311178da0cc77", "is_reserved": 0}, {"is_disabled": 0, "fusion_lon": 0.0, "fusion_lat": 0.0, "lat": 38.91741233333333, "type": "electric_scooter", "lon": -77.01714016666666, "bike_id": "65aabab6f1818ca0047536276bd85b53", "rental_uris": {"android": "https://dc.lft.to/lastmile_qr_scan", "ios": "https://dc.lft.to/lastmile_qr_scan"}, "name": "65aabab6f1818ca0047536276bd85b53", "is_reserved": 0}, {"is_disabled": 0, "fusion_lon": 0.0, "fusion_lat": 0.0, "lat": 38.91411433333333, "type": "electric_scooter", "lon": -77.03754, "bike_id": "c05e1fe18ead74778c2df00f1d4fc9d5", "rental_uris": {"android": "https://dc.lft.to/lastmile_qr_scan", "ios": "https://dc.lft.to/lastmile_qr_scan"}, "name": "c05e1fe18ead74778c2df00f1d4fc9d5", "is_reserved": 0}, {"is_disabled": 0, "fusion_lon": 0.0, "fusion_lat": 0.0, "lat": 39.05811383333333, "type": "electric_bike", "lon": -77.126255, "bike_id": "31eaaa7f2344a57cc98f68de55b5a8cf", "rental_uris": {"android": "https://dc.lft.to/lastmile_qr_scan", "ios": "https://dc.lft.to/lastmile_qr_scan"}, "name": "31eaaa7f2344a57cc98f68de55b5a8cf", "is_reserved": 0}, {"is_disabled": 0, "fusion_lon": 0.0, "fusion_lat": 0.0, "lat": 38.90534816666667, "type": "electric_scooter", "lon": -77.05348516666666, "bike_id": "2eb01de953c4b2a3444016659e0c6f1b", "rental_uris": {"android": "https://dc.lft.to/lastmile_qr_scan", "ios": "https://dc.lft.to/lastmile_qr_scan"}, "name": "2eb01de953c4b2a3444016659e0c6f1b", "is_reserved": 0}, {"is_disabled": 0, "fusion_lon": 0.0, "fusion_lat": 0.0, "lat": 38.92969816666667, "type": "electric_scooter", "lon": -77.00540216666667, "bike_id": "17129b591fbbd24df04b310a53fd4693", "rental_uris": {"android": "https://dc.lft.to/lastmile_qr_scan", "ios": "https://dc.lft.to/lastmile_qr_scan"}, "name": "17129b591fbbd24df04b310a53fd4693", "is_reserved": 0}, {"is_disabled": 0, "fusion_lon": 0.0, "fusion_lat": 0.0, "lat": 38.89830933333333, "type": "electric_scooter", "lon": -77.03171383333333, "bike_id": "3b0646ed8414d9e8181cdcaeb4b41418", "rental_uris": {"android": "https://dc.lft.to/lastmile_qr_scan", "ios": "https://dc.lft.to/lastmile_qr_scan"}, "name": "3b0646ed8414d9e8181cdcaeb4b41418", "is_reserved": 0}, {"is_disabled": 0, "fusion_lon": 0.0, "fusion_lat": 0.0, "lat": 38.92154433333333, "type": "electric_scooter", "lon": -77.03863, "bike_id": "fb26ae8f4a8928cb4cd81ac9d823899b", "rental_uris": {"android": "https://dc.lft.to/lastmile_qr_scan", "ios": "https://dc.lft.to/lastmile_qr_scan"}, "name": "fb26ae8f4a8928cb4cd81ac9d823899b", "is_reserved": 0}, {"is_disabled": 0, "fusion_lon": 0.0, "fusion_lat": 0.0, "lat": 38.9475445, "type": "electric_scooter", "lon": -77.0297905, "bike_id": "f03e29f477f692e236944e4d266b25c8", "rental_uris": {"android": "https://dc.lft.to/lastmile_qr_scan", "ios": "https://dc.lft.to/lastmile_qr_scan"}, "name": "f03e29f477f692e236944e4d266b25c8", "is_reserved": 0}, {"is_disabled": 0, "fusion_lon": 0.0, "fusion_lat": 0.0, "lat": 38.90084983333333, "type": "electric_scooter", "lon": -77.0316065, "bike_id": "fbc57d6cebd8b9fc7de1de4b56a7c69b", "rental_uris": {"android": "https://dc.lft.to/lastmile_qr_scan", "ios": "https://dc.lft.to/lastmile_qr_scan"}, "name": "fbc57d6cebd8b9fc7de1de4b56a7c69b", "is_reserved": 0}, {"is_disabled": 0, "fusion_lon": 0.0, "fusion_lat": 0.0, "lat": 38.931119333333335, "type": "electric_scooter", "lon": -77.01241883333333, "bike_id": "7698b9023ca428c2dcce7d4f98667e77", "rental_uris": {"android": "https://dc.lft.to/lastmile_qr_scan", "ios": "https://dc.lft.to/lastmile_qr_scan"}, "name": "7698b9023ca428c2dcce7d4f98667e77", "is_reserved": 0}, {"is_disabled": 0, "fusion_lon": 0.0, "fusion_lat": 0.0, "lat": 38.90975516666666, "type": "electric_scooter", "lon": -77.04065083333333, "bike_id": "60e8f32063ed9ef79bf7ea3de0e0e2cd", "rental_uris": {"android": "https://dc.lft.to/lastmile_qr_scan", "ios": "https://dc.lft.to/lastmile_qr_scan"}, "name": "60e8f32063ed9ef79bf7ea3de0e0e2cd", "is_reserved": 0}, {"is_disabled": 0, "fusion_lon": 0.0, "fusion_lat": 0.0, "lat": 38.92658483333334, "type": "electric_scooter", "lon": -77.03721466666667, "bike_id": "841659b574275152bac13cfc086d9dad", "rental_uris": {"android": "https://dc.lft.to/lastmile_qr_scan", "ios": "https://dc.lft.to/lastmile_qr_scan"}, "name": "841659b574275152bac13cfc086d9dad", "is_reserved": 0}, {"is_disabled": 0, "fusion_lon": 0.0, "fusion_lat": 0.0, "lat": 38.9043955, "type": "electric_scooter", "lon": -77.043538, "bike_id": "88519730544b1e6209b525040aad0235", "rental_uris": {"android": "https://dc.lft.to/lastmile_qr_scan", "ios": "https://dc.lft.to/lastmile_qr_scan"}, "name": "88519730544b1e6209b525040aad0235", "is_reserved": 0}, {"is_disabled": 0, "fusion_lon": 0.0, "fusion_lat": 0.0, "lat": 38.863700333333334, "type": "electric_scooter", "lon": -76.99058066666667, "bike_id": "ce335d236c449479706f35d21bfe923e", "rental_uris": {"android": "https://dc.lft.to/lastmile_qr_scan", "ios": "https://dc.lft.to/lastmile_qr_scan"}, "name": "ce335d236c449479706f35d21bfe923e", "is_reserved": 0}, {"is_disabled": 0, "fusion_lon": 0.0, "fusion_lat": 0.0, "lat": 38.901772, "type": "electric_scooter", "lon": -77.01904433333333, "bike_id": "942c05c93cabeec55ffac9f31c11910a", "rental_uris": {"android": "https://dc.lft.to/lastmile_qr_scan", "ios": "https://dc.lft.to/lastmile_qr_scan"}, "name": "942c05c93cabeec55ffac9f31c11910a", "is_reserved": 0}, {"is_disabled": 0, "fusion_lon": 0.0, "fusion_lat": 0.0, "lat": 38.92633333333333, "type": "electric_scooter", "lon": -77.03506916666667, "bike_id": "b6615752133063063f47fb32c316109a", "rental_uris": {"android": "https://dc.lft.to/lastmile_qr_scan", "ios": "https://dc.lft.to/lastmile_qr_scan"}, "name": "b6615752133063063f47fb32c316109a", "is_reserved": 0}, {"is_disabled": 0, "fusion_lon": 0.0, "fusion_lat": 0.0, "lat": 38.89614383333333, "type": "electric_scooter", "lon": -77.04545266666666, "bike_id": "867d9671b1d8583a7f1d147fc284e22b", "rental_uris": {"android": "https://dc.lft.to/lastmile_qr_scan", "ios": "https://dc.lft.to/lastmile_qr_scan"}, "name": "867d9671b1d8583a7f1d147fc284e22b", "is_reserved": 0}, {"is_disabled": 0, "fusion_lon": 0.0, "fusion_lat": 0.0, "lat": 38.89012016666667, "type": "electric_scooter", "lon": -76.93833616666667, "bike_id": "884f33149022250d6e7940fdcc7b1325", "rental_uris": {"android": "https://dc.lft.to/lastmile_qr_scan", "ios": "https://dc.lft.to/lastmile_qr_scan"}, "name": "884f33149022250d6e7940fdcc7b1325", "is_reserved": 0}, {"is_disabled": 0, "fusion_lon": 0.0, "fusion_lat": 0.0, "lat": 38.93086983333333, "type": "electric_scooter", "lon": -77.03620116666667, "bike_id": "62d97842a3f1ed74531a0b3b41f99c0f", "rental_uris": {"android": "https://dc.lft.to/lastmile_qr_scan", "ios": "https://dc.lft.to/lastmile_qr_scan"}, "name": "62d97842a3f1ed74531a0b3b41f99c0f", "is_reserved": 0}, {"is_disabled": 0, "fusion_lon": 0.0, "fusion_lat": 0.0, "lat": 38.9305685, "type": "electric_scooter", "lon": -77.0296485, "bike_id": "b2d0bee73034fcc75d1dacdc8b1018af", "rental_uris": {"android": "https://dc.lft.to/lastmile_qr_scan", "ios": "https://dc.lft.to/lastmile_qr_scan"}, "name": "b2d0bee73034fcc75d1dacdc8b1018af", "is_reserved": 0}, {"is_disabled": 0, "fusion_lon": 0.0, "fusion_lat": 0.0, "lat": 38.90033283333333, "type": "electric_scooter", "lon": -76.996325, "bike_id": "cb33cb87e3916f68025c82536ae961fa", "rental_uris": {"android": "https://dc.lft.to/lastmile_qr_scan", "ios": "https://dc.lft.to/lastmile_qr_scan"}, "name": "cb33cb87e3916f68025c82536ae961fa", "is_reserved": 0}, {"is_disabled": 0, "fusion_lon": 0.0, "fusion_lat": 0.0, "lat": 38.8984575, "type": "electric_scooter", "lon": -77.02906633333333, "bike_id": "50e36e3da02a9b3ed9950a0c436ce044", "rental_uris": {"android": "https://dc.lft.to/lastmile_qr_scan", "ios": "https://dc.lft.to/lastmile_qr_scan"}, "name": "50e36e3da02a9b3ed9950a0c436ce044", "is_reserved": 0}, {"is_disabled": 0, "fusion_lon": 0.0, "fusion_lat": 0.0, "lat": 39.024944, "type": "electric_bike", "lon": -77.125695, "bike_id": "0fa84d5c8bd8b7be8c9e1ea6498cee5d", "rental_uris": {"android": "https://dc.lft.to/lastmile_qr_scan", "ios": "https://dc.lft.to/lastmile_qr_scan"}, "name": "0fa84d5c8bd8b7be8c9e1ea6498cee5d", "is_reserved": 0}, {"is_disabled": 0, "fusion_lon": 0.0, "fusion_lat": 0.0, "lat": 38.92373933333333, "type": "electric_scooter", "lon": -77.03078216666667, "bike_id": "c65c17e56a17258c415169e04c97a8e4", "rental_uris": {"android": "https://dc.lft.to/lastmile_qr_scan", "ios": "https://dc.lft.to/lastmile_qr_scan"}, "name": "c65c17e56a17258c415169e04c97a8e4", "is_reserved": 0}, {"is_disabled": 0, "fusion_lon": 0.0, "fusion_lat": 0.0, "lat": 38.918389166666664, "type": "electric_scooter", "lon": -77.0319535, "bike_id": "d149f87080b62649fa62b440d9ea8e9c", "rental_uris": {"android": "https://dc.lft.to/lastmile_qr_scan", "ios": "https://dc.lft.to/lastmile_qr_scan"}, "name": "d149f87080b62649fa62b440d9ea8e9c", "is_reserved": 0}, {"is_disabled": 0, "fusion_lon": 0.0, "fusion_lat": 0.0, "lat": 38.91694533333333, "type": "electric_scooter", "lon": -77.0272965, "bike_id": "7d770ca4e14486882e08801559fb1592", "rental_uris": {"android": "https://dc.lft.to/lastmile_qr_scan", "ios": "https://dc.lft.to/lastmile_qr_scan"}, "name": "7d770ca4e14486882e08801559fb1592", "is_reserved": 0}, {"is_disabled": 0, "fusion_lon": 0.0, "fusion_lat": 0.0, "lat": 38.92249866666667, "type": "electric_scooter", "lon": -77.03660883333333, "bike_id": "c91ae70c3518c38644b476d31dd89972", "rental_uris": {"android": "https://dc.lft.to/lastmile_qr_scan", "ios": "https://dc.lft.to/lastmile_qr_scan"}, "name": "c91ae70c3518c38644b476d31dd89972", "is_reserved": 0}, {"is_disabled": 0, "fusion_lon": 0.0, "fusion_lat": 0.0, "lat": 38.943135166666664, "type": "electric_scooter", "lon": -77.06170133333333, "bike_id": "77b4777f5053fa7b19e6501da2ce2f01", "rental_uris": {"android": "https://dc.lft.to/lastmile_qr_scan", "ios": "https://dc.lft.to/lastmile_qr_scan"}, "name": "77b4777f5053fa7b19e6501da2ce2f01", "is_reserved": 0}, {"is_disabled": 0, "fusion_lon": 0.0, "fusion_lat": 0.0, "lat": 38.9127255, "type": "electric_scooter", "lon": -77.02230383333334, "bike_id": "76b2350ff620817b2175fd20c633528e", "rental_uris": {"android": "https://dc.lft.to/lastmile_qr_scan", "ios": "https://dc.lft.to/lastmile_qr_scan"}, "name": "76b2350ff620817b2175fd20c633528e", "is_reserved": 0}, {"is_disabled": 0, "fusion_lon": 0.0, "fusion_lat": 0.0, "lat": 38.90789933333333, "type": "electric_scooter", "lon": -77.04112816666667, "bike_id": "eb7b8e36fd543109c0b836f1c294dca1", "rental_uris": {"android": "https://dc.lft.to/lastmile_qr_scan", "ios": "https://dc.lft.to/lastmile_qr_scan"}, "name": "eb7b8e36fd543109c0b836f1c294dca1", "is_reserved": 0}, {"is_disabled": 0, "fusion_lon": 0.0, "fusion_lat": 0.0, "lat": 38.87632766666667, "type": "electric_scooter", "lon": -76.96527, "bike_id": "655cabb843bfb9bf81680e4700630f6c", "rental_uris": {"android": "https://dc.lft.to/lastmile_qr_scan", "ios": "https://dc.lft.to/lastmile_qr_scan"}, "name": "655cabb843bfb9bf81680e4700630f6c", "is_reserved": 0}, {"is_disabled": 0, "fusion_lon": 0.0, "fusion_lat": 0.0, "lat": 38.9073185, "type": "electric_scooter", "lon": -77.02367216666667, "bike_id": "f2d9ba9ec7e0ce116ce5ec532bbfb583", "rental_uris": {"android": "https://dc.lft.to/lastmile_qr_scan", "ios": "https://dc.lft.to/lastmile_qr_scan"}, "name": "f2d9ba9ec7e0ce116ce5ec532bbfb583", "is_reserved": 0}, {"is_disabled": 0, "fusion_lon": 0.0, "fusion_lat": 0.0, "lat": 38.898396166666664, "type": "electric_scooter", "lon": -77.02961, "bike_id": "fbff54c9d0103be90b9e1da67fb8e6cc", "rental_uris": {"android": "https://dc.lft.to/lastmile_qr_scan", "ios": "https://dc.lft.to/lastmile_qr_scan"}, "name": "fbff54c9d0103be90b9e1da67fb8e6cc", "is_reserved": 0}, {"is_disabled": 0, "fusion_lon": 0.0, "fusion_lat": 0.0, "lat": 38.95089983333333, "type": "electric_bike", "lon": -76.96558683333333, "bike_id": "d1197cf5cf9ed0a35bac7f1c40162c75", "rental_uris": {"android": "https://dc.lft.to/lastmile_qr_scan", "ios": "https://dc.lft.to/lastmile_qr_scan"}, "name": "d1197cf5cf9ed0a35bac7f1c40162c75", "is_reserved": 0}, {"is_disabled": 0, "fusion_lon": 0.0, "fusion_lat": 0.0, "lat": 38.878796666666666, "type": "electric_scooter", "lon": -77.01951966666667, "bike_id": "ddf9304885da5dfde2c644b9a9b16d4a", "rental_uris": {"android": "https://dc.lft.to/lastmile_qr_scan", "ios": "https://dc.lft.to/lastmile_qr_scan"}, "name": "ddf9304885da5dfde2c644b9a9b16d4a", "is_reserved": 0}, {"is_disabled": 0, "fusion_lon": 0.0, "fusion_lat": 0.0, "lat": 39.052698, "type": "electric_bike", "lon": -77.04388516666667, "bike_id": "ad59e97d054362d3945cfb63b3fda37c", "rental_uris": {"android": "https://dc.lft.to/lastmile_qr_scan", "ios": "https://dc.lft.to/lastmile_qr_scan"}, "name": "ad59e97d054362d3945cfb63b3fda37c", "is_reserved": 0}, {"is_disabled": 0, "fusion_lon": 0.0, "fusion_lat": 0.0, "lat": 38.90967416666667, "type": "electric_scooter", "lon": -77.039553, "bike_id": "e4339baf9b92e70f7321ac1464f380ff", "rental_uris": {"android": "https://dc.lft.to/lastmile_qr_scan", "ios": "https://dc.lft.to/lastmile_qr_scan"}, "name": "e4339baf9b92e70f7321ac1464f380ff", "is_reserved": 0}, {"is_disabled": 0, "fusion_lon": 0.0, "fusion_lat": 0.0, "lat": 38.9266575, "type": "electric_scooter", "lon": -77.015028, "bike_id": "46d6f165ea56376fdc73728ef79f982c", "rental_uris": {"android": "https://dc.lft.to/lastmile_qr_scan", "ios": "https://dc.lft.to/lastmile_qr_scan"}, "name": "46d6f165ea56376fdc73728ef79f982c", "is_reserved": 0}, {"is_disabled": 0, "fusion_lon": 0.0, "fusion_lat": 0.0, "lat": 38.9170505, "type": "electric_bike", "lon": -77.09564816666666, "bike_id": "ee5837c09695a2ac80a6372a326bd884", "rental_uris": {"android": "https://dc.lft.to/lastmile_qr_scan", "ios": "https://dc.lft.to/lastmile_qr_scan"}, "name": "ee5837c09695a2ac80a6372a326bd884", "is_reserved": 0}, {"is_disabled": 0, "fusion_lon": 0.0, "fusion_lat": 0.0, "lat": 38.933682, "type": "electric_scooter", "lon": -77.05751083333334, "bike_id": "afe52ed60e3f00a66111859e3a21d2ff", "rental_uris": {"android": "https://dc.lft.to/lastmile_qr_scan", "ios": "https://dc.lft.to/lastmile_qr_scan"}, "name": "afe52ed60e3f00a66111859e3a21d2ff", "is_reserved": 0}, {"is_disabled": 0, "fusion_lon": 0.0, "fusion_lat": 0.0, "lat": 38.865192, "type": "electric_scooter", "lon": -76.98991283333334, "bike_id": "37265a393c8acc457ce8ee6bc7242046", "rental_uris": {"android": "https://dc.lft.to/lastmile_qr_scan", "ios": "https://dc.lft.to/lastmile_qr_scan"}, "name": "37265a393c8acc457ce8ee6bc7242046", "is_reserved": 0}, {"is_disabled": 0, "fusion_lon": 0.0, "fusion_lat": 0.0, "lat": 38.94901016666667, "type": "electric_bike", "lon": -76.96364283333334, "bike_id": "f09b8d743f272dbd032210866b53dcb8", "rental_uris": {"android": "https://dc.lft.to/lastmile_qr_scan", "ios": "https://dc.lft.to/lastmile_qr_scan"}, "name": "f09b8d743f272dbd032210866b53dcb8", "is_reserved": 0}, {"is_disabled": 0, "fusion_lon": 0.0, "fusion_lat": 0.0, "lat": 38.928147, "type": "electric_scooter", "lon": -77.02346166666666, "bike_id": "b5c41de41237402a906ca25dc7c72472", "rental_uris": {"android": "https://dc.lft.to/lastmile_qr_scan", "ios": "https://dc.lft.to/lastmile_qr_scan"}, "name": "b5c41de41237402a906ca25dc7c72472", "is_reserved": 0}, {"is_disabled": 0, "fusion_lon": 0.0, "fusion_lat": 0.0, "lat": 38.924977, "type": "electric_scooter", "lon": -77.03933783333333, "bike_id": "85dc70fc8fae16f4c3e8775661494d8c", "rental_uris": {"android": "https://dc.lft.to/lastmile_qr_scan", "ios": "https://dc.lft.to/lastmile_qr_scan"}, "name": "85dc70fc8fae16f4c3e8775661494d8c", "is_reserved": 0}, {"is_disabled": 0, "fusion_lon": 0.0, "fusion_lat": 0.0, "lat": 38.907737166666664, "type": "electric_scooter", "lon": -77.03181716666667, "bike_id": "ee99eca45f700d18c4ffaf56a31f2e58", "rental_uris": {"android": "https://dc.lft.to/lastmile_qr_scan", "ios": "https://dc.lft.to/lastmile_qr_scan"}, "name": "ee99eca45f700d18c4ffaf56a31f2e58", "is_reserved": 0}, {"is_disabled": 0, "fusion_lon": 0.0, "fusion_lat": 0.0, "lat": 38.89970616666667, "type": "electric_scooter", "lon": -77.016319, "bike_id": "c684c8788ba6428cf9900a5af630b833", "rental_uris": {"android": "https://dc.lft.to/lastmile_qr_scan", "ios": "https://dc.lft.to/lastmile_qr_scan"}, "name": "c684c8788ba6428cf9900a5af630b833", "is_reserved": 0}, {"is_disabled": 0, "fusion_lon": 0.0, "fusion_lat": 0.0, "lat": 38.92440466666667, "type": "electric_scooter", "lon": -77.03528183333333, "bike_id": "bf051ccde276891346476417b9cdf821", "rental_uris": {"android": "https://dc.lft.to/lastmile_qr_scan", "ios": "https://dc.lft.to/lastmile_qr_scan"}, "name": "bf051ccde276891346476417b9cdf821", "is_reserved": 0}, {"is_disabled": 0, "fusion_lon": 0.0, "fusion_lat": 0.0, "lat": 38.931782166666665, "type": "electric_scooter", "lon": -77.023517, "bike_id": "c7aff7fb654c884713d35f293f7081ac", "rental_uris": {"android": "https://dc.lft.to/lastmile_qr_scan", "ios": "https://dc.lft.to/lastmile_qr_scan"}, "name": "c7aff7fb654c884713d35f293f7081ac", "is_reserved": 0}, {"is_disabled": 0, "fusion_lon": 0.0, "fusion_lat": 0.0, "lat": 38.8852955, "type": "electric_scooter", "lon": -76.92698966666667, "bike_id": "ff99713015da9ab39f9a51e1c1ac2424", "rental_uris": {"android": "https://dc.lft.to/lastmile_qr_scan", "ios": "https://dc.lft.to/lastmile_qr_scan"}, "name": "ff99713015da9ab39f9a51e1c1ac2424", "is_reserved": 0}, {"is_disabled": 0, "fusion_lon": 0.0, "fusion_lat": 0.0, "lat": 38.90254783333334, "type": "electric_scooter", "lon": -77.01802683333334, "bike_id": "1c2ebbd47ff8f8f64ae1a3f89886d1b6", "rental_uris": {"android": "https://dc.lft.to/lastmile_qr_scan", "ios": "https://dc.lft.to/lastmile_qr_scan"}, "name": "1c2ebbd47ff8f8f64ae1a3f89886d1b6", "is_reserved": 0}, {"is_disabled": 0, "fusion_lon": 0.0, "fusion_lat": 0.0, "lat": 38.92148233333333, "type": "electric_scooter", "lon": -77.02964366666667, "bike_id": "e57368103c5a5b3423b6bb488bcdbcd8", "rental_uris": {"android": "https://dc.lft.to/lastmile_qr_scan", "ios": "https://dc.lft.to/lastmile_qr_scan"}, "name": "e57368103c5a5b3423b6bb488bcdbcd8", "is_reserved": 0}, {"is_disabled": 0, "fusion_lon": 0.0, "fusion_lat": 0.0, "lat": 38.899452, "type": "electric_scooter", "lon": -77.0278025, "bike_id": "cff061f3005ec3d332853a081e62012f", "rental_uris": {"android": "https://dc.lft.to/lastmile_qr_scan", "ios": "https://dc.lft.to/lastmile_qr_scan"}, "name": "cff061f3005ec3d332853a081e62012f", "is_reserved": 0}, {"is_disabled": 0, "fusion_lon": 0.0, "fusion_lat": 0.0, "lat": 38.93337133333333, "type": "electric_scooter", "lon": -77.04134266666667, "bike_id": "43571a91eb7ede42e9d4c9f10b14c1b9", "rental_uris": {"android": "https://dc.lft.to/lastmile_qr_scan", "ios": "https://dc.lft.to/lastmile_qr_scan"}, "name": "43571a91eb7ede42e9d4c9f10b14c1b9", "is_reserved": 0}, {"is_disabled": 0, "fusion_lon": 0.0, "fusion_lat": 0.0, "lat": 38.867376666666665, "type": "electric_scooter", "lon": -76.97938133333334, "bike_id": "e54e4121769006f57dbdf99f255f8700", "rental_uris": {"android": "https://dc.lft.to/lastmile_qr_scan", "ios": "https://dc.lft.to/lastmile_qr_scan"}, "name": "e54e4121769006f57dbdf99f255f8700", "is_reserved": 0}, {"is_disabled": 0, "fusion_lon": 0.0, "fusion_lat": 0.0, "lat": 38.909718, "type": "electric_scooter", "lon": -77.02179533333333, "bike_id": "b543d92e1829aeeed9ba16788293b2ed", "rental_uris": {"android": "https://dc.lft.to/lastmile_qr_scan", "ios": "https://dc.lft.to/lastmile_qr_scan"}, "name": "b543d92e1829aeeed9ba16788293b2ed", "is_reserved": 0}, {"is_disabled": 0, "fusion_lon": 0.0, "fusion_lat": 0.0, "lat": 38.9231755, "type": "electric_scooter", "lon": -77.0461865, "bike_id": "14f15e7960e238f9ec22178798909cb5", "rental_uris": {"android": "https://dc.lft.to/lastmile_qr_scan", "ios": "https://dc.lft.to/lastmile_qr_scan"}, "name": "14f15e7960e238f9ec22178798909cb5", "is_reserved": 0}, {"is_disabled": 0, "fusion_lon": 0.0, "fusion_lat": 0.0, "lat": 38.906832666666666, "type": "electric_bike", "lon": -77.0364775, "bike_id": "eda87339ddb304b882a8a30af52cff54", "rental_uris": {"android": "https://dc.lft.to/lastmile_qr_scan", "ios": "https://dc.lft.to/lastmile_qr_scan"}, "name": "eda87339ddb304b882a8a30af52cff54", "is_reserved": 0}, {"is_disabled": 0, "fusion_lon": 0.0, "fusion_lat": 0.0, "lat": 38.91553566666666, "type": "electric_scooter", "lon": -77.0314805, "bike_id": "1e3e75045689a1afe582e4f76285ac13", "rental_uris": {"android": "https://dc.lft.to/lastmile_qr_scan", "ios": "https://dc.lft.to/lastmile_qr_scan"}, "name": "1e3e75045689a1afe582e4f76285ac13", "is_reserved": 0}, {"is_disabled": 0, "fusion_lon": 0.0, "fusion_lat": 0.0, "lat": 38.918092, "type": "electric_scooter", "lon": -77.0356385, "bike_id": "717e602631e1cdd34507edb8c9fadce8", "rental_uris": {"android": "https://dc.lft.to/lastmile_qr_scan", "ios": "https://dc.lft.to/lastmile_qr_scan"}, "name": "717e602631e1cdd34507edb8c9fadce8", "is_reserved": 0}, {"is_disabled": 0, "fusion_lon": 0.0, "fusion_lat": 0.0, "lat": 38.86597916666667, "type": "electric_bike", "lon": -76.93227966666667, "bike_id": "1a0faa740c44df702d18957f8a34d9a9", "rental_uris": {"android": "https://dc.lft.to/lastmile_qr_scan", "ios": "https://dc.lft.to/lastmile_qr_scan"}, "name": "1a0faa740c44df702d18957f8a34d9a9", "is_reserved": 0}, {"is_disabled": 0, "fusion_lon": 0.0, "fusion_lat": 0.0, "lat": 38.89254916666667, "type": "electric_scooter", "lon": -76.9985295, "bike_id": "b5cb7bec1f5265f0ebc8e710348d8956", "rental_uris": {"android": "https://dc.lft.to/lastmile_qr_scan", "ios": "https://dc.lft.to/lastmile_qr_scan"}, "name": "b5cb7bec1f5265f0ebc8e710348d8956", "is_reserved": 0}, {"is_disabled": 0, "fusion_lon": 0.0, "fusion_lat": 0.0, "lat": 38.91549233333333, "type": "electric_scooter", "lon": -77.0236835, "bike_id": "92d4e3b3663a56b1cbae1afb5caf1627", "rental_uris": {"android": "https://dc.lft.to/lastmile_qr_scan", "ios": "https://dc.lft.to/lastmile_qr_scan"}, "name": "92d4e3b3663a56b1cbae1afb5caf1627", "is_reserved": 0}, {"is_disabled": 0, "fusion_lon": 0.0, "fusion_lat": 0.0, "lat": 38.88229916666667, "type": "electric_scooter", "lon": -76.99082933333334, "bike_id": "84dfbbd9962ae0c3799b0cdf8e77d640", "rental_uris": {"android": "https://dc.lft.to/lastmile_qr_scan", "ios": "https://dc.lft.to/lastmile_qr_scan"}, "name": "84dfbbd9962ae0c3799b0cdf8e77d640", "is_reserved": 0}, {"is_disabled": 0, "fusion_lon": 0.0, "fusion_lat": 0.0, "lat": 38.9193265, "type": "electric_scooter", "lon": -77.034298, "bike_id": "b061ee6654e8c315ab3c8572133c3229", "rental_uris": {"android": "https://dc.lft.to/lastmile_qr_scan", "ios": "https://dc.lft.to/lastmile_qr_scan"}, "name": "b061ee6654e8c315ab3c8572133c3229", "is_reserved": 0}, {"is_disabled": 0, "fusion_lon": 0.0, "fusion_lat": 0.0, "lat": 38.85217316666667, "type": "electric_bike", "lon": -77.12759516666667, "bike_id": "10b5f3c72c7b3e920961f95b7d250875", "rental_uris": {"android": "https://dc.lft.to/lastmile_qr_scan", "ios": "https://dc.lft.to/lastmile_qr_scan"}, "name": "10b5f3c72c7b3e920961f95b7d250875", "is_reserved": 0}, {"is_disabled": 0, "fusion_lon": 0.0, "fusion_lat": 0.0, "lat": 38.89739483333334, "type": "electric_scooter", "lon": -77.04726416666666, "bike_id": "7a6d47c802a95c4b25cdf44c845f0783", "rental_uris": {"android": "https://dc.lft.to/lastmile_qr_scan", "ios": "https://dc.lft.to/lastmile_qr_scan"}, "name": "7a6d47c802a95c4b25cdf44c845f0783", "is_reserved": 0}, {"is_disabled": 0, "fusion_lon": 0.0, "fusion_lat": 0.0, "lat": 38.922072166666666, "type": "electric_scooter", "lon": -77.0182075, "bike_id": "d451c53a3124cfb3c1e1ce57946e5209", "rental_uris": {"android": "https://dc.lft.to/lastmile_qr_scan", "ios": "https://dc.lft.to/lastmile_qr_scan"}, "name": "d451c53a3124cfb3c1e1ce57946e5209", "is_reserved": 0}, {"is_disabled": 0, "fusion_lon": 0.0, "fusion_lat": 0.0, "lat": 38.890196, "type": "electric_scooter", "lon": -76.93732433333334, "bike_id": "8dac944c06023684bd0fd5d83742fc16", "rental_uris": {"android": "https://dc.lft.to/lastmile_qr_scan", "ios": "https://dc.lft.to/lastmile_qr_scan"}, "name": "8dac944c06023684bd0fd5d83742fc16", "is_reserved": 0}, {"is_disabled": 0, "fusion_lon": 0.0, "fusion_lat": 0.0, "lat": 38.91993933333333, "type": "electric_scooter", "lon": -76.98395133333334, "bike_id": "244728a608882d18b49e2a3d3e231982", "rental_uris": {"android": "https://dc.lft.to/lastmile_qr_scan", "ios": "https://dc.lft.to/lastmile_qr_scan"}, "name": "244728a608882d18b49e2a3d3e231982", "is_reserved": 0}, {"is_disabled": 0, "fusion_lon": 0.0, "fusion_lat": 0.0, "lat": 38.94500016666667, "type": "electric_bike", "lon": -77.006836, "bike_id": "fc5ab05a333729fe8da62ace4315af95", "rental_uris": {"android": "https://dc.lft.to/lastmile_qr_scan", "ios": "https://dc.lft.to/lastmile_qr_scan"}, "name": "fc5ab05a333729fe8da62ace4315af95", "is_reserved": 0}, {"is_disabled": 0, "fusion_lon": 0.0, "fusion_lat": 0.0, "lat": 38.9088215, "type": "electric_scooter", "lon": -77.043589, "bike_id": "7f07f8d500cfead16b3167c1beaf4c55", "rental_uris": {"android": "https://dc.lft.to/lastmile_qr_scan", "ios": "https://dc.lft.to/lastmile_qr_scan"}, "name": "7f07f8d500cfead16b3167c1beaf4c55", "is_reserved": 0}, {"is_disabled": 0, "fusion_lon": 0.0, "fusion_lat": 0.0, "lat": 38.933069833333334, "type": "electric_scooter", "lon": -77.03267666666666, "bike_id": "a253a40f60caf956f6845191b2df8ad9", "rental_uris": {"android": "https://dc.lft.to/lastmile_qr_scan", "ios": "https://dc.lft.to/lastmile_qr_scan"}, "name": "a253a40f60caf956f6845191b2df8ad9", "is_reserved": 0}, {"is_disabled": 0, "fusion_lon": 0.0, "fusion_lat": 0.0, "lat": 38.91561, "type": "electric_scooter", "lon": -77.03873833333333, "bike_id": "1869e1d8da9953c2fc8afb8e5d9890f1", "rental_uris": {"android": "https://dc.lft.to/lastmile_qr_scan", "ios": "https://dc.lft.to/lastmile_qr_scan"}, "name": "1869e1d8da9953c2fc8afb8e5d9890f1", "is_reserved": 0}, {"is_disabled": 0, "fusion_lon": 0.0, "fusion_lat": 0.0, "lat": 38.9178075, "type": "electric_scooter", "lon": -77.0318005, "bike_id": "f3e7fc338c18783df9bf14f2057fcda2", "rental_uris": {"android": "https://dc.lft.to/lastmile_qr_scan", "ios": "https://dc.lft.to/lastmile_qr_scan"}, "name": "f3e7fc338c18783df9bf14f2057fcda2", "is_reserved": 0}, {"is_disabled": 0, "fusion_lon": 0.0, "fusion_lat": 0.0, "lat": 38.9156695, "type": "electric_scooter", "lon": -77.03800683333333, "bike_id": "6703376b9d4bfc1813e7382b9cecc481", "rental_uris": {"android": "https://dc.lft.to/lastmile_qr_scan", "ios": "https://dc.lft.to/lastmile_qr_scan"}, "name": "6703376b9d4bfc1813e7382b9cecc481", "is_reserved": 0}, {"is_disabled": 0, "fusion_lon": 0.0, "fusion_lat": 0.0, "lat": 38.8976235, "type": "electric_scooter", "lon": -77.05110483333333, "bike_id": "2acb7fd38a7dc10541ac877a8af785de", "rental_uris": {"android": "https://dc.lft.to/lastmile_qr_scan", "ios": "https://dc.lft.to/lastmile_qr_scan"}, "name": "2acb7fd38a7dc10541ac877a8af785de", "is_reserved": 0}, {"is_disabled": 0, "fusion_lon": 0.0, "fusion_lat": 0.0, "lat": 38.91121616666667, "type": "electric_scooter", "lon": -77.0436235, "bike_id": "2f138e450f8490d3db83f02110443466", "rental_uris": {"android": "https://dc.lft.to/lastmile_qr_scan", "ios": "https://dc.lft.to/lastmile_qr_scan"}, "name": "2f138e450f8490d3db83f02110443466", "is_reserved": 0}, {"is_disabled": 0, "fusion_lon": 0.0, "fusion_lat": 0.0, "lat": 38.896042333333334, "type": "electric_scooter", "lon": -77.00915166666667, "bike_id": "b4f15b53b1a5b779e8fce150de93ae65", "rental_uris": {"android": "https://dc.lft.to/lastmile_qr_scan", "ios": "https://dc.lft.to/lastmile_qr_scan"}, "name": "b4f15b53b1a5b779e8fce150de93ae65", "is_reserved": 0}, {"is_disabled": 0, "fusion_lon": 0.0, "fusion_lat": 0.0, "lat": 38.905522833333336, "type": "electric_scooter", "lon": -77.046807, "bike_id": "1cfe18967bc9d26822d8aafbe1e91886", "rental_uris": {"android": "https://dc.lft.to/lastmile_qr_scan", "ios": "https://dc.lft.to/lastmile_qr_scan"}, "name": "1cfe18967bc9d26822d8aafbe1e91886", "is_reserved": 0}, {"is_disabled": 0, "fusion_lon": 0.0, "fusion_lat": 0.0, "lat": 38.92590916666666, "type": "electric_bike", "lon": -76.88913233333334, "bike_id": "cab4f917fc0b42b2a7736c256d9d2e85", "rental_uris": {"android": "https://dc.lft.to/lastmile_qr_scan", "ios": "https://dc.lft.to/lastmile_qr_scan"}, "name": "cab4f917fc0b42b2a7736c256d9d2e85", "is_reserved": 0}, {"is_disabled": 0, "fusion_lon": 0.0, "fusion_lat": 0.0, "lat": 38.90735133333333, "type": "electric_scooter", "lon": -77.02951083333333, "bike_id": "dc5c39cf0b43d1b34cd11c0cc5542ae7", "rental_uris": {"android": "https://dc.lft.to/lastmile_qr_scan", "ios": "https://dc.lft.to/lastmile_qr_scan"}, "name": "dc5c39cf0b43d1b34cd11c0cc5542ae7", "is_reserved": 0}, {"is_disabled": 0, "fusion_lon": 0.0, "fusion_lat": 0.0, "lat": 38.954218833333336, "type": "electric_scooter", "lon": -77.028418, "bike_id": "318e91590b5c9c2a5d4c9dd271f866a4", "rental_uris": {"android": "https://dc.lft.to/lastmile_qr_scan", "ios": "https://dc.lft.to/lastmile_qr_scan"}, "name": "318e91590b5c9c2a5d4c9dd271f866a4", "is_reserved": 0}, {"is_disabled": 0, "fusion_lon": 0.0, "fusion_lat": 0.0, "lat": 38.928708666666665, "type": "electric_scooter", "lon": -77.01393733333333, "bike_id": "d5acc05595d5b26f639c93815cd370da", "rental_uris": {"android": "https://dc.lft.to/lastmile_qr_scan", "ios": "https://dc.lft.to/lastmile_qr_scan"}, "name": "d5acc05595d5b26f639c93815cd370da", "is_reserved": 0}, {"is_disabled": 0, "fusion_lon": 0.0, "fusion_lat": 0.0, "lat": 38.976788, "type": "electric_bike", "lon": -76.9717, "bike_id": "13b86df5f979dedf8c98e01b325a1e62", "rental_uris": {"android": "https://dc.lft.to/lastmile_qr_scan", "ios": "https://dc.lft.to/lastmile_qr_scan"}, "name": "13b86df5f979dedf8c98e01b325a1e62", "is_reserved": 0}, {"is_disabled": 0, "fusion_lon": 0.0, "fusion_lat": 0.0, "lat": 38.917104, "type": "electric_scooter", "lon": -77.010762, "bike_id": "f923112bfe6ee416d637270fc29a7433", "rental_uris": {"android": "https://dc.lft.to/lastmile_qr_scan", "ios": "https://dc.lft.to/lastmile_qr_scan"}, "name": "f923112bfe6ee416d637270fc29a7433", "is_reserved": 0}, {"is_disabled": 0, "fusion_lon": 0.0, "fusion_lat": 0.0, "lat": 38.89235866666667, "type": "electric_bike", "lon": -76.95219483333334, "bike_id": "a1af4a7265f9349e88350d344834d827", "rental_uris": {"android": "https://dc.lft.to/lastmile_qr_scan", "ios": "https://dc.lft.to/lastmile_qr_scan"}, "name": "a1af4a7265f9349e88350d344834d827", "is_reserved": 0}, {"is_disabled": 0, "fusion_lon": 0.0, "fusion_lat": 0.0, "lat": 38.921502333333336, "type": "electric_scooter", "lon": -77.035123, "bike_id": "e8130e53b8f1cfa3c0060049420bc9cb", "rental_uris": {"android": "https://dc.lft.to/lastmile_qr_scan", "ios": "https://dc.lft.to/lastmile_qr_scan"}, "name": "e8130e53b8f1cfa3c0060049420bc9cb", "is_reserved": 0}, {"is_disabled": 0, "fusion_lon": 0.0, "fusion_lat": 0.0, "lat": 38.90293066666667, "type": "electric_scooter", "lon": -77.0339655, "bike_id": "8282ee3596856d18f85215d56cd3826f", "rental_uris": {"android": "https://dc.lft.to/lastmile_qr_scan", "ios": "https://dc.lft.to/lastmile_qr_scan"}, "name": "8282ee3596856d18f85215d56cd3826f", "is_reserved": 0}, {"is_disabled": 0, "fusion_lon": 0.0, "fusion_lat": 0.0, "lat": 38.95553816666666, "type": "electric_bike", "lon": -76.93547033333333, "bike_id": "a04b6fb7fb75a59886f72c53b84e0a36", "rental_uris": {"android": "https://dc.lft.to/lastmile_qr_scan", "ios": "https://dc.lft.to/lastmile_qr_scan"}, "name": "a04b6fb7fb75a59886f72c53b84e0a36", "is_reserved": 0}, {"is_disabled": 0, "fusion_lon": 0.0, "fusion_lat": 0.0, "lat": 38.828805833333334, "type": "electric_bike", "lon": -77.11220066666667, "bike_id": "76932ed391bf152f765c300a227cda2b", "rental_uris": {"android": "https://dc.lft.to/lastmile_qr_scan", "ios": "https://dc.lft.to/lastmile_qr_scan"}, "name": "76932ed391bf152f765c300a227cda2b", "is_reserved": 0}, {"is_disabled": 0, "fusion_lon": 0.0, "fusion_lat": 0.0, "lat": 38.91222416666667, "type": "electric_scooter", "lon": -77.05119016666667, "bike_id": "44c32c249a00e7f7b71c12839d50e9c0", "rental_uris": {"android": "https://dc.lft.to/lastmile_qr_scan", "ios": "https://dc.lft.to/lastmile_qr_scan"}, "name": "44c32c249a00e7f7b71c12839d50e9c0", "is_reserved": 0}, {"is_disabled": 0, "fusion_lon": 0.0, "fusion_lat": 0.0, "lat": 38.913418166666666, "type": "electric_scooter", "lon": -77.04860366666666, "bike_id": "abadf770dfe48a5c99576b8660337290", "rental_uris": {"android": "https://dc.lft.to/lastmile_qr_scan", "ios": "https://dc.lft.to/lastmile_qr_scan"}, "name": "abadf770dfe48a5c99576b8660337290", "is_reserved": 0}, {"is_disabled": 0, "fusion_lon": 0.0, "fusion_lat": 0.0, "lat": 38.833193666666666, "type": "electric_scooter", "lon": -77.00004966666667, "bike_id": "148c16f835d66704d8cf0174ad7c76e9", "rental_uris": {"android": "https://dc.lft.to/lastmile_qr_scan", "ios": "https://dc.lft.to/lastmile_qr_scan"}, "name": "148c16f835d66704d8cf0174ad7c76e9", "is_reserved": 0}, {"is_disabled": 0, "fusion_lon": 0.0, "fusion_lat": 0.0, "lat": 38.925969333333335, "type": "electric_scooter", "lon": -77.05529883333334, "bike_id": "f7ef7a21b4ba941f4a8d6b864e9cc6f1", "rental_uris": {"android": "https://dc.lft.to/lastmile_qr_scan", "ios": "https://dc.lft.to/lastmile_qr_scan"}, "name": "f7ef7a21b4ba941f4a8d6b864e9cc6f1", "is_reserved": 0}, {"is_disabled": 0, "fusion_lon": 0.0, "fusion_lat": 0.0, "lat": 38.917055500000004, "type": "electric_scooter", "lon": -77.02437733333333, "bike_id": "f9e0480e81568d89024d09f4d609e858", "rental_uris": {"android": "https://dc.lft.to/lastmile_qr_scan", "ios": "https://dc.lft.to/lastmile_qr_scan"}, "name": "f9e0480e81568d89024d09f4d609e858", "is_reserved": 0}, {"is_disabled": 0, "fusion_lon": 0.0, "fusion_lat": 0.0, "lat": 38.9283075, "type": "electric_scooter", "lon": -77.03700066666667, "bike_id": "7116860640b2e7e50d51e98feec7e24d", "rental_uris": {"android": "https://dc.lft.to/lastmile_qr_scan", "ios": "https://dc.lft.to/lastmile_qr_scan"}, "name": "7116860640b2e7e50d51e98feec7e24d", "is_reserved": 0}, {"is_disabled": 0, "fusion_lon": 0.0, "fusion_lat": 0.0, "lat": 38.87784766666667, "type": "electric_scooter", "lon": -76.99409933333334, "bike_id": "163f68238079325c9f39e300ffbf04c1", "rental_uris": {"android": "https://dc.lft.to/lastmile_qr_scan", "ios": "https://dc.lft.to/lastmile_qr_scan"}, "name": "163f68238079325c9f39e300ffbf04c1", "is_reserved": 0}, {"is_disabled": 0, "fusion_lon": 0.0, "fusion_lat": 0.0, "lat": 38.83197366666667, "type": "electric_bike", "lon": -77.07684733333333, "bike_id": "0d44415532b79c774edc84bd630f2ecb", "rental_uris": {"android": "https://dc.lft.to/lastmile_qr_scan", "ios": "https://dc.lft.to/lastmile_qr_scan"}, "name": "0d44415532b79c774edc84bd630f2ecb", "is_reserved": 0}, {"is_disabled": 0, "fusion_lon": 0.0, "fusion_lat": 0.0, "lat": 38.91883216666667, "type": "electric_scooter", "lon": -77.04174733333333, "bike_id": "c1e8a42b54f7a8902f93058838c4d988", "rental_uris": {"android": "https://dc.lft.to/lastmile_qr_scan", "ios": "https://dc.lft.to/lastmile_qr_scan"}, "name": "c1e8a42b54f7a8902f93058838c4d988", "is_reserved": 0}, {"is_disabled": 0, "fusion_lon": 0.0, "fusion_lat": 0.0, "lat": 38.90784716666667, "type": "electric_scooter", "lon": -77.0451165, "bike_id": "357c7413fcf0f58e1cc266bff0627f47", "rental_uris": {"android": "https://dc.lft.to/lastmile_qr_scan", "ios": "https://dc.lft.to/lastmile_qr_scan"}, "name": "357c7413fcf0f58e1cc266bff0627f47", "is_reserved": 0}, {"is_disabled": 0, "fusion_lon": 0.0, "fusion_lat": 0.0, "lat": 38.8993945, "type": "electric_scooter", "lon": -77.04043466666667, "bike_id": "0be775a9460f6b30bbd0c6bc434eb08b", "rental_uris": {"android": "https://dc.lft.to/lastmile_qr_scan", "ios": "https://dc.lft.to/lastmile_qr_scan"}, "name": "0be775a9460f6b30bbd0c6bc434eb08b", "is_reserved": 0}, {"is_disabled": 0, "fusion_lon": 0.0, "fusion_lat": 0.0, "lat": 38.904639833333334, "type": "electric_scooter", "lon": -77.00605, "bike_id": "d2bab47bc55ce35a1d36fc3cd55acf3a", "rental_uris": {"android": "https://dc.lft.to/lastmile_qr_scan", "ios": "https://dc.lft.to/lastmile_qr_scan"}, "name": "d2bab47bc55ce35a1d36fc3cd55acf3a", "is_reserved": 0}, {"is_disabled": 0, "fusion_lon": 0.0, "fusion_lat": 0.0, "lat": 38.916971333333336, "type": "electric_scooter", "lon": -77.03764766666667, "bike_id": "8dab71349b8333627b2bc421f7859c9f", "rental_uris": {"android": "https://dc.lft.to/lastmile_qr_scan", "ios": "https://dc.lft.to/lastmile_qr_scan"}, "name": "8dab71349b8333627b2bc421f7859c9f", "is_reserved": 0}, {"is_disabled": 0, "fusion_lon": 0.0, "fusion_lat": 0.0, "lat": 38.918116166666664, "type": "electric_scooter", "lon": -77.035625, "bike_id": "794e50ca7063aa8e4f568d095ae18f4f", "rental_uris": {"android": "https://dc.lft.to/lastmile_qr_scan", "ios": "https://dc.lft.to/lastmile_qr_scan"}, "name": "794e50ca7063aa8e4f568d095ae18f4f", "is_reserved": 0}, {"is_disabled": 0, "fusion_lon": 0.0, "fusion_lat": 0.0, "lat": 38.908449, "type": "electric_scooter", "lon": -77.03437316666667, "bike_id": "c71fdce0ee6b2f8dd1bcc40854a7ee5d", "rental_uris": {"android": "https://dc.lft.to/lastmile_qr_scan", "ios": "https://dc.lft.to/lastmile_qr_scan"}, "name": "c71fdce0ee6b2f8dd1bcc40854a7ee5d", "is_reserved": 0}, {"is_disabled": 0, "fusion_lon": 0.0, "fusion_lat": 0.0, "lat": 38.898259833333334, "type": "electric_scooter", "lon": -77.0316815, "bike_id": "136c363d269c290f0bbb912790790623", "rental_uris": {"android": "https://dc.lft.to/lastmile_qr_scan", "ios": "https://dc.lft.to/lastmile_qr_scan"}, "name": "136c363d269c290f0bbb912790790623", "is_reserved": 0}, {"is_disabled": 0, "fusion_lon": 0.0, "fusion_lat": 0.0, "lat": 38.88583916666666, "type": "electric_scooter", "lon": -77.01223783333333, "bike_id": "4ba0a4a228f28a5e5f8fad8ec81c495b", "rental_uris": {"android": "https://dc.lft.to/lastmile_qr_scan", "ios": "https://dc.lft.to/lastmile_qr_scan"}, "name": "4ba0a4a228f28a5e5f8fad8ec81c495b", "is_reserved": 0}, {"is_disabled": 0, "fusion_lon": 0.0, "fusion_lat": 0.0, "lat": 38.924928, "type": "electric_scooter", "lon": -77.0393295, "bike_id": "7f03d868ef360600d4a5f9c6906bbd31", "rental_uris": {"android": "https://dc.lft.to/lastmile_qr_scan", "ios": "https://dc.lft.to/lastmile_qr_scan"}, "name": "7f03d868ef360600d4a5f9c6906bbd31", "is_reserved": 0}, {"is_disabled": 0, "fusion_lon": 0.0, "fusion_lat": 0.0, "lat": 38.909583, "type": "electric_scooter", "lon": -77.0271155, "bike_id": "7bffe297743240ce54031a3ec774a510", "rental_uris": {"android": "https://dc.lft.to/lastmile_qr_scan", "ios": "https://dc.lft.to/lastmile_qr_scan"}, "name": "7bffe297743240ce54031a3ec774a510", "is_reserved": 0},