{"data": {"bikes": [{"name": "9b1b6ac8bb2e73b57a39a3dd51ac8f8c", "is_disabled": 0, "lat": 38.95551866666667, "rental_uris": {"ios": "https://dc.lft.to/lastmile_qr_scan", "android": "https://dc.lft.to/lastmile_qr_scan"}, "bike_id": "9b1b6ac8bb2e73b57a39a3dd51ac8f8c", "type": "electric_bike", "lon": -76.99974933333333, "is_reserved": 0, "fusion_lat": 0.0, "fusion_lon": 0.0}, {"name": "862833d133902e2fb2b391b03d700771", "is_disabled": 0, "lat": 38.891962, "rental_uris": {"ios": "https://dc.lft.to/lastmile_qr_scan", "android": "https://dc.lft.to/lastmile_qr_scan"}, "bike_id": "862833d133902e2fb2b391b03d700771", "type": "electric_scooter", "lon": -77.02220283333334, "is_reserved": 0, "fusion_lat": 0.0, "fusion_lon": 0.0}, {"name": "2ced788e39d261f666ce6eca920331c5", "is_disabled": 0, "lat": 38.887301666666666, "rental_uris": {"ios": "https://dc.lft.to/lastmile_qr_scan", "android": "https://dc.lft.to/lastmile_qr_scan"}, "bike_id": "2ced788e39d261f666ce6eca920331c5", "type": "electric_scooter", "lon": -77.03220816666666, "is_reserved": 0, "fusion_lat": 0.0, "fusion_lon": 0.0}, {"name": "2ccd5b14f3427e17ff0d3c05f6914014", "is_disabled": 0, "lat": 38.90066483333333, "rental_uris": {"ios": "https://dc.lft.to/lastmile_qr_scan", "android": "https://dc.lft.to/lastmile_qr_scan"}, "bike_id": "2ccd5b14f3427e17ff0d3c05f6914014", "type": "electric_scooter", "lon": -76.92744883333333, "is_reserved": 0, "fusion_lat": 0.0, "fusion_lon": 0.0}, {"name": "5342743a0c14af550991891640913bfe", "is_disabled": 0, "lat": 38.875336, "rental_uris": {"ios": "https://dc.lft.to/lastmile_qr_scan", "android": "https://dc.lft.to/lastmile_qr_scan"}, "bike_id": "5342743a0c14af550991891640913bfe", "type": "electric_scooter", "lon": -77.0050795, "is_reserved": 0, "fusion_lat": 0.0, "fusion_lon": 0.0}, {"name": "c996cc89291b89726f7daea7867074a8", "is_disabled": 0, "lat": 38.88729633333333, "rental_uris": {"ios": "https://dc.lft.to/lastmile_qr_scan", "android": "https://dc.lft.to/lastmile_qr_scan"}, "bike_id": "c996cc89291b89726f7daea7867074a8", "type": "electric_scooter", "lon": -77.0176675, "is_reserved": 0, "fusion_lat": 0.0, "fusion_lon": 0.0}, {"name": "999ba481320154476b0e15a858326fd0", "is_disabled": 0, "lat": 38.92456716666667, "rental_uris": {"ios": "https://dc.lft.to/lastmile_qr_scan", "android": "https://dc.lft.to/lastmile_qr_scan"}, "bike_id": "999ba481320154476b0e15a858326fd0", "type": "electric_scooter", "lon": -77.05232133333334, "is_reserved": 0, "fusion_lat": 0.0, "fusion_lon": 0.0}, {"name": "73fba999bb50be5284b24271596234aa", "is_disabled": 0, "lat": 38.957578166666664, "rental_uris": {"ios": "https://dc.lft.to/lastmile_qr_scan", "android": "https://dc.lft.to/lastmile_qr_scan"}, "bike_id": "73fba999bb50be5284b24271596234aa", "type": "electric_scooter", "lon": -77.02062383333333, "is_reserved": 0, "fusion_lat": 0.0, "fusion_lon": 0.0}, {"name": "7a7f66f837b05c43d7d490f79826ae20", "is_disabled": 0, "lat": 38.92361416666667, "rental_uris": {"ios": "https://dc.lft.to/lastmile_qr_scan", "android": "https://dc.lft.to/lastmile_qr_scan"}, "bike_id": "7a7f66f837b05c43d7d490f79826ae20", "type": "electric_scooter", "lon": -77.050531, "is_reserved": 0, "fusion_lat": 0.0, "fusion_lon": 0.0}, {"name": "d1650c049e85d2f6508a2a51f3ba9901", "is_disabled": 0, "lat": 38.90556983333333, "rental_uris": {"ios": "https://dc.lft.to/lastmile_qr_scan", "android": "https://dc.lft.to/lastmile_qr_scan"}, "bike_id": "d1650c049e85d2f6508a2a51f3ba9901", "type": "electric_scooter", "lon": -77.00600333333334, "is_reserved": 0, "fusion_lat": 0.0, "fusion_lon": 0.0}, {"name": "f96beccf7f0ff1a7cdbf1fb5c080deb2", "is_disabled": 0, "lat": 38.8075925, "rental_uris": {"ios": "https://dc.lft.to/lastmile_qr_scan", "android": "https://dc.lft.to/lastmile_qr_scan"}, "bike_id": "f96beccf7f0ff1a7cdbf1fb5c080deb2", "type": "electric_bike", "lon": -77.12983816666667, "is_reserved": 0, "fusion_lat": 0.0, "fusion_lon": 0.0}, {"name": "e93efd5fe3effe649c60e7c0ca559109", "is_disabled": 0, "lat": 38.9275755, "rental_uris": {"ios": "https://dc.lft.to/lastmile_qr_scan", "android": "https://dc.lft.to/lastmile_qr_scan"}, "bike_id": "e93efd5fe3effe649c60e7c0ca559109", "type": "electric_scooter", "lon": -77.02428633333334, "is_reserved": 0, "fusion_lat": 0.0, "fusion_lon": 0.0}, {"name": "06db9051670809db9a969a334245d82b", "is_disabled": 0, "lat": 38.901221166666666, "rental_uris": {"ios": "https://dc.lft.to/lastmile_qr_scan", "android": "https://dc.lft.to/lastmile_qr_scan"}, "bike_id": "06db9051670809db9a969a334245d82b", "type": "electric_scooter", "lon": -77.00211183333333, "is_reserved": 0, "fusion_lat": 0.0, "fusion_lon": 0.0}, {"name": "841a824e914841ecffd90eae8e7266a8", "is_disabled": 0, "lat": 38.89555633333333, "rental_uris": {"ios": "https://dc.lft.to/lastmile_qr_scan", "android": "https://dc.lft.to/lastmile_qr_scan"}, "bike_id": "841a824e914841ecffd90eae8e7266a8", "type": "electric_scooter", "lon": -76.94873883333334, "is_reserved": 0, "fusion_lat": 0.0, "fusion_lon": 0.0}, {"name": "3a3d7177e0b533b664c32d9d09e0517d", "is_disabled": 0, "lat": 38.917005, "rental_uris": {"ios": "https://dc.lft.to/lastmile_qr_scan", "android": "https://dc.lft.to/lastmile_qr_scan"}, "bike_id": "3a3d7177e0b533b664c32d9d09e0517d", "type": "electric_scooter", "lon": -77.03767683333334, "is_reserved": 0, "fusion_lat": 0.0, "fusion_lon": 0.0}, {"name": "ffc3a38fd227fccbd8b39cb6a066d119", "is_disabled": 0, "lat": 38.89548283333333, "rental_uris": {"ios": "https://dc.lft.to/lastmile_qr_scan", "android": "https://dc.lft.to/lastmile_qr_scan"}, "bike_id": "ffc3a38fd227fccbd8b39cb6a066d119", "type": "electric_scooter", "lon": -76.94949233333334, "is_reserved": 0, "fusion_lat": 0.0, "fusion_lon": 0.0}, {"name": "d778632de688f4c0c341746c2241f7a0", "is_disabled": 0, "lat": 38.936959333333334, "rental_uris": {"ios": "https://dc.lft.to/lastmile_qr_scan", "android": "https://dc.lft.to/lastmile_qr_scan"}, "bike_id": "d778632de688f4c0c341746c2241f7a0", "type": "electric_scooter", "lon": -77.05594066666667, "is_reserved": 0, "fusion_lat": 0.0, "fusion_lon": 0.0}, {"name": "f94883f1035a309b338c7e25fc17857b", "is_disabled": 0, "lat": 38.896582333333335, "rental_uris": {"ios": "https://dc.lft.to/lastmile_qr_scan", "android": "https://dc.lft.to/lastmile_qr_scan"}, "bike_id": "f94883f1035a309b338c7e25fc17857b", "type": "electric_scooter", "lon": -77.03352183333334, "is_reserved": 0, "fusion_lat": 0.0, "fusion_lon": 0.0}, {"name": "4f40d8c32d8b580cbf4ded06f3771aab", "is_disabled": 0, "lat": 38.887684, "rental_uris": {"ios": "https://dc.lft.to/lastmile_qr_scan", "android": "https://dc.lft.to/lastmile_qr_scan"}, "bike_id": "4f40d8c32d8b580cbf4ded06f3771aab", "type": "electric_scooter", "lon": -77.02369766666666, "is_reserved": 0, "fusion_lat": 0.0, "fusion_lon": 0.0}, {"name": "7a99971486c29cd1d0f4a359a46620d5", "is_disabled": 0, "lat": 38.919944666666666, "rental_uris": {"ios": "https://dc.lft.to/lastmile_qr_scan", "android": "https://dc.lft.to/lastmile_qr_scan"}, "bike_id": "7a99971486c29cd1d0f4a359a46620d5", "type": "electric_bike", "lon": -77.047635, "is_reserved": 0, "fusion_lat": 0.0, "fusion_lon": 0.0}, {"name": "0f7c81c6ca923ba6719797315e7013d9", "is_disabled": 0, "lat": 38.88736, "rental_uris": {"ios": "https://dc.lft.to/lastmile_qr_scan", "android": "https://dc.lft.to/lastmile_qr_scan"}, "bike_id": "0f7c81c6ca923ba6719797315e7013d9", "type": "electric_scooter", "lon": -77.01516433333333, "is_reserved": 0, "fusion_lat": 0.0, "fusion_lon": 0.0}, {"name": "ae053b50faa804197cf6db19c7af444c", "is_disabled": 0, "lat": 38.88532283333333, "rental_uris": {"ios": "https://dc.lft.to/lastmile_qr_scan", "android": "https://dc.lft.to/lastmile_qr_scan"}, "bike_id": "ae053b50faa804197cf6db19c7af444c", "type": "electric_scooter", "lon": -76.98274966666666, "is_reserved": 0, "fusion_lat": 0.0, "fusion_lon": 0.0}, {"name": "38d8a3ae810d6911c4eff5b42c5d2eee", "is_disabled": 0, "lat": 38.93186866666667, "rental_uris": {"ios": "https://dc.lft.to/lastmile_qr_scan", "android": "https://dc.lft.to/lastmile_qr_scan"}, "bike_id": "38d8a3ae810d6911c4eff5b42c5d2eee", "type": "electric_scooter", "lon": -77.0784355, "is_reserved": 0, "fusion_lat": 0.0, "fusion_lon": 0.0}, {"name": "c4dbe85e54a37e9ae6f1c9f1b83746e6", "is_disabled": 0, "lat": 38.9173465, "rental_uris": {"ios": "https://dc.lft.to/lastmile_qr_scan", "android": "https://dc.lft.to/lastmile_qr_scan"}, "bike_id": "c4dbe85e54a37e9ae6f1c9f1b83746e6", "type": "electric_scooter", "lon": -77.0281705, "is_reserved": 0, "fusion_lat": 0.0, "fusion_lon": 0.0}, {"name": "3f4d6376e9474b11e553d08b36beacba", "is_disabled": 0, "lat": 38.91439733333333, "rental_uris": {"ios": "https://dc.lft.to/lastmile_qr_scan", "android": "https://dc.lft.to/lastmile_qr_scan"}, "bike_id": "3f4d6376e9474b11e553d08b36beacba", "type": "electric_scooter", "lon": -77.04477033333333, "is_reserved": 0, "fusion_lat": 0.0, "fusion_lon": 0.0}, {"name": "4296c792416fa4fa6ab8e194f4bb1072", "is_disabled": 0, "lat": 38.91101316666666, "rental_uris": {"ios": "https://dc.lft.to/lastmile_qr_scan", "android": "https://dc.lft.to/lastmile_qr_scan"}, "bike_id": "4296c792416fa4fa6ab8e194f4bb1072", "type": "electric_scooter", "lon": -77.04203516666666, "is_reserved": 0, "fusion_lat": 0.0, "fusion_lon": 0.0}, {"name": "eb44139bfdd3cd656173f45a3a436314", "is_disabled": 0, "lat": 38.905802, "rental_uris": {"ios": "https://dc.lft.to/lastmile_qr_scan", "android": "https://dc.lft.to/lastmile_qr_scan"}, "bike_id": "eb44139bfdd3cd656173f45a3a436314", "type": "electric_scooter", "lon": -77.00888516666667, "is_reserved": 0, "fusion_lat": 0.0, "fusion_lon": 0.0}, {"name": "347ed750139eb552e3e898ea72c95cd4", "is_disabled": 0, "lat": 38.9061385, "rental_uris": {"ios": "https://dc.lft.to/lastmile_qr_scan", "android": "https://dc.lft.to/lastmile_qr_scan"}, "bike_id": "347ed750139eb552e3e898ea72c95cd4", "type": "electric_scooter", "lon": -77.0055685, "is_reserved": 0, "fusion_lat": 0.0, "fusion_lon": 0.0}, {"name": "7a5ca1a4126ea6365980102b0ed930f4", "is_disabled": 0, "lat": 38.89956433333333, "rental_uris": {"ios": "https://dc.lft.to/lastmile_qr_scan", "android": "https://dc.lft.to/lastmile_qr_scan"}, "bike_id": "7a5ca1a4126ea6365980102b0ed930f4", "type": "electric_scooter", "lon": -76.98560633333334, "is_reserved": 0, "fusion_lat": 0.0, "fusion_lon": 0.0}, {"name": "0dea5ae1d00fdb846e2a0cda75640c22", "is_disabled": 0, "lat": 38.9051105, "rental_uris": {"ios": "https://dc.lft.to/lastmile_qr_scan", "android": "https://dc.lft.to/lastmile_qr_scan"}, "bike_id": "0dea5ae1d00fdb846e2a0cda75640c22", "type": "electric_scooter", "lon": -77.04079866666666, "is_reserved": 0, "fusion_lat": 0.0, "fusion_lon": 0.0}, {"name": "f3fc1bf61f93fa2e38acdcb1b6b39291", "is_disabled": 0, "lat": 38.905076666666666, "rental_uris": {"ios": "https://dc.lft.to/lastmile_qr_scan", "android": "https://dc.lft.to/lastmile_qr_scan"}, "bike_id": "f3fc1bf61f93fa2e38acdcb1b6b39291", "type": "electric_scooter", "lon": -77.043441, "is_reserved": 0, "fusion_lat": 0.0, "fusion_lon": 0.0}, {"name": "1da9d8b287ed2a3bbfda6a33c2af40ce", "is_disabled": 0, "lat": 38.889892, "rental_uris": {"ios": "https://dc.lft.to/lastmile_qr_scan", "android": "https://dc.lft.to/lastmile_qr_scan"}, "bike_id": "1da9d8b287ed2a3bbfda6a33c2af40ce", "type": "electric_scooter", "lon": -76.914185, "is_reserved": 0, "fusion_lat": 0.0, "fusion_lon": 0.0}, {"name": "51af44dae91ed07f0c5115d0ea7eaf32", "is_disabled": 0, "lat": 38.88816516666667, "rental_uris": {"ios": "https://dc.lft.to/lastmile_qr_scan", "android": "https://dc.lft.to/lastmile_qr_scan"}, "bike_id": "51af44dae91ed07f0c5115d0ea7eaf32", "type": "electric_scooter", "lon": -77.01493666666667, "is_reserved": 0, "fusion_lat": 0.0, "fusion_lon": 0.0}, {"name": "6633dff8040b355ccfbe202fadfee68e", "is_disabled": 0, "lat": 38.902536833333336, "rental_uris": {"ios": "https://dc.lft.to/lastmile_qr_scan", "android": "https://dc.lft.to/lastmile_qr_scan"}, "bike_id": "6633dff8040b355ccfbe202fadfee68e", "type": "electric_scooter", "lon": -77.03855433333334, "is_reserved": 0, "fusion_lat": 0.0, "fusion_lon": 0.0}, {"name": "050c2a03935fba15f3222fce4f30012e", "is_disabled": 0, "lat": 38.90147283333334, "rental_uris": {"ios": "https://dc.lft.to/lastmile_qr_scan", "android": "https://dc.lft.to/lastmile_qr_scan"}, "bike_id": "050c2a03935fba15f3222fce4f30012e", "type": "electric_scooter", "lon": -77.044243, "is_reserved": 0, "fusion_lat": 0.0, "fusion_lon": 0.0}, {"name": "f0faed5e2645c5a02641e987bf86b08c", "is_disabled": 0, "lat": 38.8981755, "rental_uris": {"ios": "https://dc.lft.to/lastmile_qr_scan", "android": "https://dc.lft.to/lastmile_qr_scan"}, "bike_id": "f0faed5e2645c5a02641e987bf86b08c", "type": "electric_bike", "lon": -77.006027, "is_reserved": 0, "fusion_lat": 0.0, "fusion_lon": 0.0}, {"name": "3bd967482df835453098cd90856f4946", "is_disabled": 0, "lat": 38.907324, "rental_uris": {"ios": "https://dc.lft.to/lastmile_qr_scan", "android": "https://dc.lft.to/lastmile_qr_scan"}, "bike_id": "3bd967482df835453098cd90856f4946", "type": "electric_scooter", "lon": -77.0320935, "is_reserved": 0, "fusion_lat": 0.0, "fusion_lon": 0.0}, {"name": "b240732a911e99e4d4f3ec98c0b93a68", "is_disabled": 0, "lat": 38.918128833333334, "rental_uris": {"ios": "https://dc.lft.to/lastmile_qr_scan", "android": "https://dc.lft.to/lastmile_qr_scan"}, "bike_id": "b240732a911e99e4d4f3ec98c0b93a68", "type": "electric_scooter", "lon": -77.024778, "is_reserved": 0, "fusion_lat": 0.0, "fusion_lon": 0.0}, {"name": "b93fb1ea5211b637730ccbea6b34b858", "is_disabled": 0, "lat": 38.914854166666665, "rental_uris": {"ios": "https://dc.lft.to/lastmile_qr_scan", "android": "https://dc.lft.to/lastmile_qr_scan"}, "bike_id": "b93fb1ea5211b637730ccbea6b34b858", "type": "electric_scooter", "lon": -77.025857, "is_reserved": 0, "fusion_lat": 0.0, "fusion_lon": 0.0}, {"name": "500fefb48be3528870b63914c32b5c1e", "is_disabled": 0, "lat": 38.865139666666664, "rental_uris": {"ios": "https://dc.lft.to/lastmile_qr_scan", "android": "https://dc.lft.to/lastmile_qr_scan"}, "bike_id": "500fefb48be3528870b63914c32b5c1e", "type": "electric_bike", "lon": -77.12938366666667, "is_reserved": 0, "fusion_lat": 0.0, "fusion_lon": 0.0}, {"name": "010689b96aeeeea941ab38f6367c36e4", "is_disabled": 0, "lat": 38.9054685, "rental_uris": {"ios": "https://dc.lft.to/lastmile_qr_scan", "android": "https://dc.lft.to/lastmile_qr_scan"}, "bike_id": "010689b96aeeeea941ab38f6367c36e4", "type": "electric_scooter", "lon": -77.0223295, "is_reserved": 0, "fusion_lat": 0.0, "fusion_lon": 0.0}, {"name": "97f7aeb5250b2f4ba120b56d08baee9f", "is_disabled": 0, "lat": 38.90692766666667, "rental_uris": {"ios": "https://dc.lft.to/lastmile_qr_scan", "android": "https://dc.lft.to/lastmile_qr_scan"}, "bike_id": "97f7aeb5250b2f4ba120b56d08baee9f", "type": "electric_scooter", "lon": -77.03187733333333, "is_reserved": 0, "fusion_lat": 0.0, "fusion_lon": 0.0}, {"name": "f990e0b6f15b426663f446a4e1069f8c", "is_disabled": 0, "lat": 38.91758433333333, "rental_uris": {"ios": "https://dc.lft.to/lastmile_qr_scan", "android": "https://dc.lft.to/lastmile_qr_scan"}, "bike_id": "f990e0b6f15b426663f446a4e1069f8c", "type": "electric_scooter", "lon": -77.02285866666666, "is_reserved": 0, "fusion_lat": 0.0, "fusion_lon": 0.0}, {"name": "5844fb20497f4e4c1fed626d63598bd7", "is_disabled": 0, "lat": 38.900093166666665, "rental_uris": {"ios": "https://dc.lft.to/lastmile_qr_scan", "android": "https://dc.lft.to/lastmile_qr_scan"}, "bike_id": "5844fb20497f4e4c1fed626d63598bd7", "type": "electric_scooter", "lon": -76.99862416666667, "is_reserved": 0, "fusion_lat": 0.0, "fusion_lon": 0.0}, {"name": "a61a21fbbd6cc809d253372c2e2f0dff", "is_disabled": 0, "lat": 38.919935, "rental_uris": {"ios": "https://dc.lft.to/lastmile_qr_scan", "android": "https://dc.lft.to/lastmile_qr_scan"}, "bike_id": "a61a21fbbd6cc809d253372c2e2f0dff", "type": "electric_scooter", "lon": -77.0322795, "is_reserved": 0, "fusion_lat": 0.0, "fusion_lon": 0.0}, {"name": "de58e177fa625713eebac5951d3239b6", "is_disabled": 0, "lat": 38.90370716666666, "rental_uris": {"ios": "https://dc.lft.to/lastmile_qr_scan", "android": "https://dc.lft.to/lastmile_qr_scan"}, "bike_id": "de58e177fa625713eebac5951d3239b6", "type": "electric_scooter", "lon": -77.034561, "is_reserved": 0, "fusion_lat": 0.0, "fusion_lon": 0.0}, {"name": "6fa6b31c2d577c209ccfac7b00b14262", "is_disabled": 0, "lat": 38.923468, "rental_uris": {"ios": "https://dc.lft.to/lastmile_qr_scan", "android": "https://dc.lft.to/lastmile_qr_scan"}, "bike_id": "6fa6b31c2d577c209ccfac7b00b14262", "type": "electric_scooter", "lon": -77.05175033333333, "is_reserved": 0, "fusion_lat": 0.0, "fusion_lon": 0.0}, {"name": "423644221bc1b5492f06e9dff04bf0c8", "is_disabled": 0, "lat": 38.914018, "rental_uris": {"ios": "https://dc.lft.to/lastmile_qr_scan", "android": "https://dc.lft.to/lastmile_qr_scan"}, "bike_id": "423644221bc1b5492f06e9dff04bf0c8", "type": "electric_scooter", "lon": -77.02208516666667, "is_reserved": 0, "fusion_lat": 0.0, "fusion_lon": 0.0}, {"name": "f2171089191f15d4f5115a06dc422df1", "is_disabled": 0, "lat": 38.905603, "rental_uris": {"ios": "https://dc.lft.to/lastmile_qr_scan", "android": "https://dc.lft.to/lastmile_qr_scan"}, "bike_id": "f2171089191f15d4f5115a06dc422df1", "type": "electric_scooter", "lon": -77.0168745, "is_reserved": 0, "fusion_lat": 0.0, "fusion_lon": 0.0}, {"name": "6110cf277bda47e12981acbe071e7dc4", "is_disabled": 0, "lat": 38.9077685, "rental_uris": {"ios": "https://dc.lft.to/lastmile_qr_scan", "android": "https://dc.lft.to/lastmile_qr_scan"}, "bike_id": "6110cf277bda47e12981acbe071e7dc4", "type": "electric_scooter", "lon": -77.03858283333334, "is_reserved": 0, "fusion_lat": 0.0, "fusion_lon": 0.0}, {"name": "5d4796e62b29364d403527a6cd91fbf3", "is_disabled": 0, "lat": 38.911815, "rental_uris": {"ios": "https://dc.lft.to/lastmile_qr_scan", "android": "https://dc.lft.to/lastmile_qr_scan"}, "bike_id": "5d4796e62b29364d403527a6cd91fbf3", "type": "electric_scooter", "lon": -77.04490366666667, "is_reserved": 0, "fusion_lat": 0.0, "fusion_lon": 0.0}, {"name": "d346c90b347f95d906e151309207689c", "is_disabled": 0, "lat": 38.924127, "rental_uris": {"ios": "https://dc.lft.to/lastmile_qr_scan", "android": "https://dc.lft.to/lastmile_qr_scan"}, "bike_id": "d346c90b347f95d906e151309207689c", "type": "electric_scooter", "lon": -77.06524433333334, "is_reserved": 0, "fusion_lat": 0.0, "fusion_lon": 0.0}, {"name": "2686523dbad44c3d4daec6b7e856b6fe", "is_disabled": 0, "lat": 38.906842, "rental_uris": {"ios": "https://dc.lft.to/lastmile_qr_scan", "android": "https://dc.lft.to/lastmile_qr_scan"}, "bike_id": "2686523dbad44c3d4daec6b7e856b6fe", "type": "electric_scooter", "lon": -76.99957533333334, "is_reserved": 0, "fusion_lat": 0.0, "fusion_lon": 0.0}, {"name": "f95d891a8d52ae3bfe10d5a9cbe6de3d", "is_disabled": 0, "lat": 38.8926795, "rental_uris": {"ios": "https://dc.lft.to/lastmile_qr_scan", "android": "https://dc.lft.to/lastmile_qr_scan"}, "bike_id": "f95d891a8d52ae3bfe10d5a9cbe6de3d", "type": "electric_scooter", "lon": -77.04655866666667, "is_reserved": 0, "fusion_lat": 0.0, "fusion_lon": 0.0}, {"name": "2229c0b20afb3c3cd45481be6076a22a", "is_disabled": 0, "lat": 38.913490333333336, "rental_uris": {"ios": "https://dc.lft.to/lastmile_qr_scan", "android": "https://dc.lft.to/lastmile_qr_scan"}, "bike_id": "2229c0b20afb3c3cd45481be6076a22a", "type": "electric_scooter", "lon": -77.0205905, "is_reserved": 0, "fusion_lat": 0.0, "fusion_lon": 0.0}, {"name": "edb6bb4d9bce6d8b2bc2b3493bf979e0", "is_disabled": 0, "lat": 38.92332183333333, "rental_uris": {"ios": "https://dc.lft.to/lastmile_qr_scan", "android": "https://dc.lft.to/lastmile_qr_scan"}, "bike_id": "edb6bb4d9bce6d8b2bc2b3493bf979e0", "type": "electric_scooter", "lon": -77.046206, "is_reserved": 0, "fusion_lat": 0.0, "fusion_lon": 0.0}, {"name": "1d7812098879f90fce033d4134b8be80", "is_disabled": 0, "lat": 38.87714233333333, "rental_uris": {"ios": "https://dc.lft.to/lastmile_qr_scan", "android": "https://dc.lft.to/lastmile_qr_scan"}, "bike_id": "1d7812098879f90fce033d4134b8be80", "type": "electric_scooter", "lon": -77.01762016666666, "is_reserved": 0, "fusion_lat": 0.0, "fusion_lon": 0.0}, {"name": "1cfd5231ab8dbaa5db3043cbbcb5a424", "is_disabled": 0, "lat": 38.900151666666666, "rental_uris": {"ios": "https://dc.lft.to/lastmile_qr_scan", "android": "https://dc.lft.to/lastmile_qr_scan"}, "bike_id": "1cfd5231ab8dbaa5db3043cbbcb5a424", "type": "electric_scooter", "lon": -76.99855666666667, "is_reserved": 0, "fusion_lat": 0.0, "fusion_lon": 0.0}, {"name": "508ff2b74b284011acf2a8b8794d0f34", "is_disabled": 0, "lat": 38.964481666666664, "rental_uris": {"ios": "https://dc.lft.to/lastmile_qr_scan", "android": "https://dc.lft.to/lastmile_qr_scan"}, "bike_id": "508ff2b74b284011acf2a8b8794d0f34", "type": "electric_bike", "lon": -77.02245533333334, "is_reserved": 0, "fusion_lat": 0.0, "fusion_lon": 0.0}, {"name": "66badfb776f15ac4475e6b54bfb091a4", "is_disabled": 0, "lat": 38.922301833333336, "rental_uris": {"ios": "https://dc.lft.to/lastmile_qr_scan", "android": "https://dc.lft.to/lastmile_qr_scan"}, "bike_id": "66badfb776f15ac4475e6b54bfb091a4", "type": "electric_bike", "lon": -77.02339433333333, "is_reserved": 0, "fusion_lat": 0.0, "fusion_lon": 0.0}, {"name": "1b6dcd0a8851b74c6db1953a7b921b1f", "is_disabled": 0, "lat": 38.89862333333333, "rental_uris": {"ios": "https://dc.lft.to/lastmile_qr_scan", "android": "https://dc.lft.to/lastmile_qr_scan"}, "bike_id": "1b6dcd0a8851b74c6db1953a7b921b1f", "type": "electric_scooter", "lon": -77.0395625, "is_reserved": 0, "fusion_lat": 0.0, "fusion_lon": 0.0}, {"name": "927c77bcdfaade888d0ff6d186b11f83", "is_disabled": 0, "lat": 38.916774, "rental_uris": {"ios": "https://dc.lft.to/lastmile_qr_scan", "android": "https://dc.lft.to/lastmile_qr_scan"}, "bike_id": "927c77bcdfaade888d0ff6d186b11f83", "type": "electric_scooter", "lon": -77.0368185, "is_reserved": 0, "fusion_lat": 0.0, "fusion_lon": 0.0}, {"name": "0690ce2414d3b2b0749e3cc26bcca0ec", "is_disabled": 0, "lat": 38.90292483333333, "rental_uris": {"ios": "https://dc.lft.to/lastmile_qr_scan", "android": "https://dc.lft.to/lastmile_qr_scan"}, "bike_id": "0690ce2414d3b2b0749e3cc26bcca0ec", "type": "electric_scooter", "lon": -77.04879533333333, "is_reserved": 0, "fusion_lat": 0.0, "fusion_lon": 0.0}, {"name": "644561a93dcf84fd668148d89d08902d", "is_disabled": 0, "lat": 38.918052333333335, "rental_uris": {"ios": "https://dc.lft.to/lastmile_qr_scan", "android": "https://dc.lft.to/lastmile_qr_scan"}, "bike_id": "644561a93dcf84fd668148d89d08902d", "type": "electric_scooter", "lon": -77.03183616666666, "is_reserved": 0, "fusion_lat": 0.0, "fusion_lon": 0.0}, {"name": "295f966a18edcd77aa54fc3b720902a5", "is_disabled": 0, "lat": 38.93081383333333, "rental_uris": {"ios": "https://dc.lft.to/lastmile_qr_scan", "android": "https://dc.lft.to/lastmile_qr_scan"}, "bike_id": "295f966a18edcd77aa54fc3b720902a5", "type": "electric_scooter", "lon": -77.01985516666667, "is_reserved": 0, "fusion_lat": 0.0, "fusion_lon": 0.0}, {"name": "2a3d77b77f9e93bb2b0c3e037e3d41a9", "is_disabled": 0, "lat": 38.92321166666667, "rental_uris": {"ios": "https://dc.lft.to/lastmile_qr_scan", "android": "https://dc.lft.to/lastmile_qr_scan"}, "bike_id": "2a3d77b77f9e93bb2b0c3e037e3d41a9", "type": "electric_scooter", "lon": -77.0404425, "is_reserved": 0, "fusion_lat": 0.0, "fusion_lon": 0.0}, {"name": "7daa419f42499476f23fae062f26a388", "is_disabled": 0, "lat": 38.911076, "rental_uris": {"ios": "https://dc.lft.to/lastmile_qr_scan", "android": "https://dc.lft.to/lastmile_qr_scan"}, "bike_id": "7daa419f42499476f23fae062f26a388", "type": "electric_scooter", "lon": -77.03161566666667, "is_reserved": 0, "fusion_lat": 0.0, "fusion_lon": 0.0}, {"name": "e60be52dc9e66bee67541bbea312a5bf", "is_disabled": 0, "lat": 38.922213666666664, "rental_uris": {"ios": "https://dc.lft.to/lastmile_qr_scan", "android": "https://dc.lft.to/lastmile_qr_scan"}, "bike_id": "e60be52dc9e66bee67541bbea312a5bf", "type": "electric_scooter", "lon": -77.021192, "is_reserved": 0, "fusion_lat": 0.0, "fusion_lon": 0.0}, {"name": "42bc698fa8f6e01dfa84dc2165f510f3", "is_disabled": 0, "lat": 38.860154, "rental_uris": {"ios": "https://dc.lft.to/lastmile_qr_scan", "android": "https://dc.lft.to/lastmile_qr_scan"}, "bike_id": "42bc698fa8f6e01dfa84dc2165f510f3", "type": "electric_scooter", "lon": -76.96705433333334, "is_reserved": 0, "fusion_lat": 0.0, "fusion_lon": 0.0}, {"name": "019ebbbf7e7c29ebbf1b9bb0d7d9dc3e", "is_disabled": 0, "lat": 38.90792966666667, "rental_uris": {"ios": "https://dc.lft.to/lastmile_qr_scan", "android": "https://dc.lft.to/lastmile_qr_scan"}, "bike_id": "019ebbbf7e7c29ebbf1b9bb0d7d9dc3e", "type": "electric_scooter", "lon": -77.04253183333333, "is_reserved": 0, "fusion_lat": 0.0, "fusion_lon": 0.0}, {"name": "56deecfaf7d2f98e7331f67b42475d6f", "is_disabled": 0, "lat": 38.9045875, "rental_uris": {"ios": "https://dc.lft.to/lastmile_qr_scan", "android": "https://dc.lft.to/lastmile_qr_scan"}, "bike_id": "56deecfaf7d2f98e7331f67b42475d6f", "type": "electric_scooter", "lon": -77.028203, "is_reserved": 0, "fusion_lat": 0.0, "fusion_lon": 0.0}, {"name": "82b61c8a3f46e21204cb7903e31cf99d", "is_disabled": 0, "lat": 38.894188666666665, "rental_uris": {"ios": "https://dc.lft.to/lastmile_qr_scan", "android": "https://dc.lft.to/lastmile_qr_scan"}, "bike_id": "82b61c8a3f46e21204cb7903e31cf99d", "type": "electric_scooter", "lon": -77.02170916666667, "is_reserved": 0, "fusion_lat": 0.0, "fusion_lon": 0.0}, {"name": "f24ca018faabf5ebdf7e122e4158b6dc", "is_disabled": 0, "lat": 38.9317755, "rental_uris": {"ios": "https://dc.lft.to/lastmile_qr_scan", "android": "https://dc.lft.to/lastmile_qr_scan"}, "bike_id": "f24ca018faabf5ebdf7e122e4158b6dc", "type": "electric_scooter", "lon": -77.020019, "is_reserved": 0, "fusion_lat": 0.0, "fusion_lon": 0.0}, {"name": "55ae7fba7d617a6129f7bfdd4f1cc13f", "is_disabled": 0, "lat": 38.90198016666667, "rental_uris": {"ios": "https://dc.lft.to/lastmile_qr_scan", "android": "https://dc.lft.to/lastmile_qr_scan"}, "bike_id": "55ae7fba7d617a6129f7bfdd4f1cc13f", "type": "electric_scooter", "lon": -77.02311533333334, "is_reserved": 0, "fusion_lat": 0.0, "fusion_lon": 0.0}, {"name": "b4c6b368a55d45cb34312e376588cf71", "is_disabled": 0, "lat": 38.90676716666667, "rental_uris": {"ios": "https://dc.lft.to/lastmile_qr_scan", "android": "https://dc.lft.to/lastmile_qr_scan"}, "bike_id": "b4c6b368a55d45cb34312e376588cf71", "type": "electric_scooter", "lon": -77.03802816666666, "is_reserved": 0, "fusion_lat": 0.0, "fusion_lon": 0.0}, {"name": "8e9e07c910df441d137d40a15b728d4b", "is_disabled": 0, "lat": 38.924642, "rental_uris": {"ios": "https://dc.lft.to/lastmile_qr_scan", "android": "https://dc.lft.to/lastmile_qr_scan"}, "bike_id": "8e9e07c910df441d137d40a15b728d4b", "type": "electric_scooter", "lon": -77.020734, "is_reserved": 0, "fusion_lat": 0.0, "fusion_lon": 0.0}, {"name": "7604ae5d8cac52f60afc88b4fe276c4e", "is_disabled": 0, "lat": 38.923406166666666, "rental_uris": {"ios": "https://dc.lft.to/lastmile_qr_scan", "android": "https://dc.lft.to/lastmile_qr_scan"}, "bike_id": "7604ae5d8cac52f60afc88b4fe276c4e", "type": "electric_scooter", "lon": -77.052209, "is_reserved": 0, "fusion_lat": 0.0, "fusion_lon": 0.0}, {"name": "76ab7a37447e94b7de18c356e32b2f96", "is_disabled": 0, "lat": 38.874817666666665, "rental_uris": {"ios": "https://dc.lft.to/lastmile_qr_scan", "android": "https://dc.lft.to/lastmile_qr_scan"}, "bike_id": "76ab7a37447e94b7de18c356e32b2f96", "type": "electric_scooter", "lon": -77.00601666666667, "is_reserved": 0, "fusion_lat": 0.0, "fusion_lon": 0.0}, {"name": "12496b35ddc5f4788ad2df135594bf27", "is_disabled": 0, "lat": 38.9112455, "rental_uris": {"ios": "https://dc.lft.to/lastmile_qr_scan", "android": "https://dc.lft.to/lastmile_qr_scan"}, "bike_id": "12496b35ddc5f4788ad2df135594bf27", "type": "electric_scooter", "lon": -77.02198683333333, "is_reserved": 0, "fusion_lat": 0.0, "fusion_lon": 0.0}, {"name": "ac699afabda65f5d436102e27bea2259", "is_disabled": 0, "lat": 38.92146666666667, "rental_uris": {"ios": "https://dc.lft.to/lastmile_qr_scan", "android": "https://dc.lft.to/lastmile_qr_scan"}, "bike_id": "ac699afabda65f5d436102e27bea2259", "type": "electric_scooter", "lon": -77.03868983333334, "is_reserved": 0, "fusion_lat": 0.0, "fusion_lon": 0.0}, {"name": "682e114d11468c76c4150f79c0da65e6", "is_disabled": 0, "lat": 38.87659466666667, "rental_uris": {"ios": "https://dc.lft.to/lastmile_qr_scan", "android": "https://dc.lft.to/lastmile_qr_scan"}, "bike_id": "682e114d11468c76c4150f79c0da65e6", "type": "electric_scooter", "lon": -77.01738216666666, "is_reserved": 0, "fusion_lat": 0.0, "fusion_lon": 0.0}, {"name": "78ec85c11c6284ca72fe0d32a2628596", "is_disabled": 0, "lat": 38.92319416666667, "rental_uris": {"ios": "https://dc.lft.to/lastmile_qr_scan", "android": "https://dc.lft.to/lastmile_qr_scan"}, "bike_id": "78ec85c11c6284ca72fe0d32a2628596", "type": "electric_scooter", "lon": -77.04355183333334, "is_reserved": 0, "fusion_lat": 0.0, "fusion_lon": 0.0}, {"name": "5ec41a4ca5a0c7af08fceb9b8299c0f1", "is_disabled": 0, "lat": 38.918173833333334, "rental_uris": {"ios": "https://dc.lft.to/lastmile_qr_scan", "android": "https://dc.lft.to/lastmile_qr_scan"}, "bike_id": "5ec41a4ca5a0c7af08fceb9b8299c0f1", "type": "electric_scooter", "lon": -77.031784, "is_reserved": 0, "fusion_lat": 0.0, "fusion_lon": 0.0}, {"name": "b3d545d5a835abba42dd67da57fb2e8b", "is_disabled": 0, "lat": 38.90735383333333, "rental_uris": {"ios": "https://dc.lft.to/lastmile_qr_scan", "android": "https://dc.lft.to/lastmile_qr_scan"}, "bike_id": "b3d545d5a835abba42dd67da57fb2e8b", "type": "electric_scooter", "lon": -77.032091, "is_reserved": 0, "fusion_lat": 0.0, "fusion_lon": 0.0}, {"name": "4c35cbb0161f4e75979a9f167cff3b4c", "is_disabled": 0, "lat": 38.887189, "rental_uris": {"ios": "https://dc.lft.to/lastmile_qr_scan", "android": "https://dc.lft.to/lastmile_qr_scan"}, "bike_id": "4c35cbb0161f4e75979a9f167cff3b4c", "type": "electric_scooter", "lon": -77.02586033333333, "is_reserved": 0, "fusion_lat": 0.0, "fusion_lon": 0.0}, {"name": "76d1663568a975f153be802413fa1f33", "is_disabled": 0, "lat": 38.9001205, "rental_uris": {"ios": "https://dc.lft.to/lastmile_qr_scan", "android": "https://dc.lft.to/lastmile_qr_scan"}, "bike_id": "76d1663568a975f153be802413fa1f33", "type": "electric_scooter", "lon": -77.01181583333333, "is_reserved": 0, "fusion_lat": 0.0, "fusion_lon": 0.0}, {"name": "71d00152a07bdca9f013470e2febb994", "is_disabled": 0, "lat": 38.91957883333333, "rental_uris": {"ios": "https://dc.lft.to/lastmile_qr_scan", "android": "https://dc.lft.to/lastmile_qr_scan"}, "bike_id": "71d00152a07bdca9f013470e2febb994", "type": "electric_scooter", "lon": -77.02497383333333, "is_reserved": 0, "fusion_lat": 0.0, "fusion_lon": 0.0}, {"name": "6ff443ee482667f73c69c94c4c221d7f", "is_disabled": 0, "lat": 38.919137166666665, "rental_uris": {"ios": "https://dc.lft.to/lastmile_qr_scan", "android": "https://dc.lft.to/lastmile_qr_scan"}, "bike_id": "6ff443ee482667f73c69c94c4c221d7f", "type": "electric_scooter", "lon": -77.02730433333333, "is_reserved": 0, "fusion_lat": 0.0, "fusion_lon": 0.0}, {"name": "c79529141e1185487f881b0bd6cb9c95", "is_disabled": 0, "lat": 39.034332666666664, "rental_uris": {"ios": "https://dc.lft.to/lastmile_qr_scan", "android": "https://dc.lft.to/lastmile_qr_scan"}, "bike_id": "c79529141e1185487f881b0bd6cb9c95", "type": "electric_bike", "lon": -77.04305683333334, "is_reserved": 0, "fusion_lat": 0.0, "fusion_lon": 0.0}, {"name": "493e229266da294766222f52ab1aac9c", "is_disabled": 0, "lat": 38.89773983333333, "rental_uris": {"ios": "https://dc.lft.to/lastmile_qr_scan", "android": "https://dc.lft.to/lastmile_qr_scan"}, "bike_id": "493e229266da294766222f52ab1aac9c", "type": "electric_scooter", "lon": -76.98463283333334, "is_reserved": 0, "fusion_lat": 0.0, "fusion_lon": 0.0}, {"name": "e040f74ff9fd7adc11d1560664e6a4f4", "is_disabled": 0, "lat": 38.92153866666666, "rental_uris": {"ios": "https://dc.lft.to/lastmile_qr_scan", "android": "https://dc.lft.to/lastmile_qr_scan"}, "bike_id": "e040f74ff9fd7adc11d1560664e6a4f4", "type": "electric_scooter", "lon": -77.034323, "is_reserved": 0, "fusion_lat": 0.0, "fusion_lon": 0.0}, {"name": "dbc404bbab65fa2bdaf4d03218b75f18", "is_disabled": 0, "lat": 38.8536535, "rental_uris": {"ios": "https://dc.lft.to/lastmile_qr_scan", "android": "https://dc.lft.to/lastmile_qr_scan"}, "bike_id": "dbc404bbab65fa2bdaf4d03218b75f18", "type": "electric_bike", "lon": -77.11517316666666, "is_reserved": 0, "fusion_lat": 0.0, "fusion_lon": 0.0}, {"name": "eae1b33539f0b7385a77c03aa41ef8b4", "is_disabled": 0, "lat": 38.873848, "rental_uris": {"ios": "https://dc.lft.to/lastmile_qr_scan", "android": "https://dc.lft.to/lastmile_qr_scan"}, "bike_id": "eae1b33539f0b7385a77c03aa41ef8b4", "type": "electric_scooter", "lon": -77.00048966666667, "is_reserved": 0, "fusion_lat": 0.0, "fusion_lon": 0.0}, {"name": "533eba79891b8b3405a118b4c46fc21b", "is_disabled": 0, "lat": 38.94333866666667, "rental_uris": {"ios": "https://dc.lft.to/lastmile_qr_scan", "android": "https://dc.lft.to/lastmile_qr_scan"}, "bike_id": "533eba79891b8b3405a118b4c46fc21b", "type": "electric_scooter", "lon": -77.06148766666666, "is_reserved": 0, "fusion_lat": 0.0, "fusion_lon": 0.0}, {"name": "882a65125bc27388e0bc62fae6124a02", "is_disabled": 0, "lat": 38.9169355, "rental_uris": {"ios": "https://dc.lft.to/lastmile_qr_scan", "android": "https://dc.lft.to/lastmile_qr_scan"}, "bike_id": "882a65125bc27388e0bc62fae6124a02", "type": "electric_scooter", "lon": -77.0304945, "is_reserved": 0, "fusion_lat": 0.0, "fusion_lon": 0.0}, {"name": "b13df49ac1113b0b533f0a39c96c6e23", "is_disabled": 0, "lat": 38.902551833333334, "rental_uris": {"ios": "https://dc.lft.to/lastmile_qr_scan", "android": "https://dc.lft.to/lastmile_qr_scan"}, "bike_id": "b13df49ac1113b0b533f0a39c96c6e23", "type": "electric_scooter", "lon": -77.03258716666667, "is_reserved": 0, "fusion_lat": 0.0, "fusion_lon": 0.0}, {"name": "36bb6e1969f697c65270aeff850333f1", "is_disabled": 0, "lat": 38.93354766666667, "rental_uris": {"ios": "https://dc.lft.to/lastmile_qr_scan", "android": "https://dc.lft.to/lastmile_qr_scan"}, "bike_id": "36bb6e1969f697c65270aeff850333f1", "type": "electric_scooter", "lon": -77.03416933333334, "is_reserved": 0, "fusion_lat": 0.0, "fusion_lon": 0.0}, {"name": "0a932f2ac85250d66b36af8370a93d60", "is_disabled": 0, "lat": 38.877417666666666, "rental_uris": {"ios": "https://dc.lft.to/lastmile_qr_scan", "android": "https://dc.lft.to/lastmile_qr_scan"}, "bike_id": "0a932f2ac85250d66b36af8370a93d60", "type": "electric_scooter", "lon": -76.99669783333333, "is_reserved": 0, "fusion_lat": 0.0, "fusion_lon": 0.0}, {"name": "4ec5720a498755c50e868e0553646528", "is_disabled": 0, "lat": 38.86063766666667, "rental_uris": {"ios": "https://dc.lft.to/lastmile_qr_scan", "android": "https://dc.lft.to/lastmile_qr_scan"}, "bike_id": "4ec5720a498755c50e868e0553646528", "type": "electric_scooter", "lon": -76.96717316666667, "is_reserved": 0, "fusion_lat": 0.0, "fusion_lon": 0.0}, {"name": "ec1615ea06686eeb18660fb2c1c2dc00", "is_disabled": 0, "lat": 38.917109833333335, "rental_uris": {"ios": "https://dc.lft.to/lastmile_qr_scan", "android": "https://dc.lft.to/lastmile_qr_scan"}, "bike_id": "ec1615ea06686eeb18660fb2c1c2dc00", "type": "electric_scooter", "lon": -77.038676, "is_reserved": 0, "fusion_lat": 0.0, "fusion_lon": 0.0}, {"name": "cda5211089858b66fd2a1e937efabd2b", "is_disabled": 0, "lat": 38.910675499999996, "rental_uris": {"ios": "https://dc.lft.to/lastmile_qr_scan", "android": "https://dc.lft.to/lastmile_qr_scan"}, "bike_id": "cda5211089858b66fd2a1e937efabd2b", "type": "electric_scooter", "lon": -77.04252683333333, "is_reserved": 0, "fusion_lat": 0.0, "fusion_lon": 0.0}, {"name": "6c6952a410cd78ca9c8d9c14248a4e1c", "is_disabled": 0, "lat": 38.88744766666667, "rental_uris": {"ios": "https://dc.lft.to/lastmile_qr_scan", "android": "https://dc.lft.to/lastmile_qr_scan"}, "bike_id": "6c6952a410cd78ca9c8d9c14248a4e1c", "type": "electric_scooter", "lon": -77.02137866666666, "is_reserved": 0, "fusion_lat": 0.0, "fusion_lon": 0.0}, {"name": "0cfb0803d127cd2d4f2043aa48bf33c2", "is_disabled": 0, "lat": 38.9072355, "rental_uris": {"ios": "https://dc.lft.to/lastmile_qr_scan", "android": "https://dc.lft.to/lastmile_qr_scan"}, "bike_id": "0cfb0803d127cd2d4f2043aa48bf33c2", "type": "electric_scooter", "lon": -77.04562716666666, "is_reserved": 0, "fusion_lat": 0.0, "fusion_lon": 0.0}, {"name": "647f5725aa5d59c277a90086cf68b0e5", "is_disabled": 0, "lat": 38.90283766666667, "rental_uris": {"ios": "https://dc.lft.to/lastmile_qr_scan", "android": "https://dc.lft.to/lastmile_qr_scan"}, "bike_id": "647f5725aa5d59c277a90086cf68b0e5", "type": "electric_scooter", "lon": -77.036439, "is_reserved": 0, "fusion_lat": 0.0, "fusion_lon": 0.0}, {"name": "37be155e1f7a4f0da0395e464ad67665", "is_disabled": 0, "lat": 38.90028216666666, "rental_uris": {"ios": "https://dc.lft.to/lastmile_qr_scan", "android": "https://dc.lft.to/lastmile_qr_scan"}, "bike_id": "37be155e1f7a4f0da0395e464ad67665", "type": "electric_scooter", "lon": -76.99875866666666, "is_reserved": 0, "fusion_lat": 0.0, "fusion_lon": 0.0}, {"name": "bf6a0e11109bfddb6e0d7fdca135338f", "is_disabled": 0, "lat": 38.8884825, "rental_uris": {"ios": "https://dc.lft.to/lastmile_qr_scan", "android": "https://dc.lft.to/lastmile_qr_scan"}, "bike_id": "bf6a0e11109bfddb6e0d7fdca135338f", "type": "electric_scooter", "lon": -76.9268385, "is_reserved": 0, "fusion_lat": 0.0, "fusion_lon": 0.0}, {"name": "51492d23c64205733177c83ea269df41", "is_disabled": 0, "lat": 38.914032166666665, "rental_uris": {"ios": "https://dc.lft.to/lastmile_qr_scan", "android": "https://dc.lft.to/lastmile_qr_scan"}, "bike_id": "51492d23c64205733177c83ea269df41", "type": "electric_scooter", "lon": -77.07553533333333, "is_reserved": 0, "fusion_lat": 0.0, "fusion_lon": 0.0}, {"name": "a143cd281b69407e92d2b7cfb4fa69f5", "is_disabled": 0, "lat": 38.899511833333335, "rental_uris": {"ios": "https://dc.lft.to/lastmile_qr_scan", "android": "https://dc.lft.to/lastmile_qr_scan"}, "bike_id": "a143cd281b69407e92d2b7cfb4fa69f5", "type": "electric_scooter", "lon": -77.05705416666666, "is_reserved": 0, "fusion_lat": 0.0, "fusion_lon": 0.0}, {"name": "a077b5f8945610694b368409f9f491ba", "is_disabled": 0, "lat": 38.915369, "rental_uris": {"ios": "https://dc.lft.to/lastmile_qr_scan", "android": "https://dc.lft.to/lastmile_qr_scan"}, "bike_id": "a077b5f8945610694b368409f9f491ba", "type": "electric_scooter", "lon": -77.03210916666667, "is_reserved": 0, "fusion_lat": 0.0, "fusion_lon": 0.0}, {"name": "c7e53b903de707327880436d14a1944d", "is_disabled": 0, "lat": 38.888238, "rental_uris": {"ios": "https://dc.lft.to/lastmile_qr_scan", "android": "https://dc.lft.to/lastmile_qr_scan"}, "bike_id": "c7e53b903de707327880436d14a1944d", "type": "electric_scooter", "lon": -76.977198, "is_reserved": 0, "fusion_lat": 0.0, "fusion_lon": 0.0}, {"name": "95ad084a24195be9b78fae6ed347130d", "is_disabled": 0, "lat": 38.90078666666667, "rental_uris": {"ios": "https://dc.lft.to/lastmile_qr_scan", "android": "https://dc.lft.to/lastmile_qr_scan"}, "bike_id": "95ad084a24195be9b78fae6ed347130d", "type": "electric_scooter", "lon": -77.0136065, "is_reserved": 0, "fusion_lat": 0.0, "fusion_lon": 0.0}, {"name": "d92d5b58075d623c45b072daa953f3d4", "is_disabled": 0, "lat": 38.92545716666667, "rental_uris": {"ios": "https://dc.lft.to/lastmile_qr_scan", "android": "https://dc.lft.to/lastmile_qr_scan"}, "bike_id": "d92d5b58075d623c45b072daa953f3d4", "type": "electric_scooter", "lon": -77.07705833333333, "is_reserved": 0, "fusion_lat": 0.0, "fusion_lon": 0.0}, {"name": "bedf4311bb990c513c33cfa89cec8941", "is_disabled": 0, "lat": 38.912555, "rental_uris": {"ios": "https://dc.lft.to/lastmile_qr_scan", "android": "https://dc.lft.to/lastmile_qr_scan"}, "bike_id": "bedf4311bb990c513c33cfa89cec8941", "type": "electric_scooter", "lon": -77.0315855, "is_reserved": 0, "fusion_lat": 0.0, "fusion_lon": 0.0}, {"name": "198513d6fc3188d42ed3146f891893d5", "is_disabled": 0, "lat": 38.888219, "rental_uris": {"ios": "https://dc.lft.to/lastmile_qr_scan", "android": "https://dc.lft.to/lastmile_qr_scan"}, "bike_id": "198513d6fc3188d42ed3146f891893d5", "type": "electric_scooter", "lon": -76.97717483333334, "is_reserved": 0, "fusion_lat": 0.0, "fusion_lon": 0.0}, {"name": "c361888cfac825853d0ecfb256727b72", "is_disabled": 0, "lat": 38.942621833333334, "rental_uris": {"ios": "https://dc.lft.to/lastmile_qr_scan", "android": "https://dc.lft.to/lastmile_qr_scan"}, "bike_id": "c361888cfac825853d0ecfb256727b72", "type": "electric_bike", "lon": -77.02845766666667, "is_reserved": 0, "fusion_lat": 0.0, "fusion_lon": 0.0}, {"name": "ef4ae438013b21a3448ddbe0ea056938", "is_disabled": 0, "lat": 38.90684433333333, "rental_uris": {"ios": "https://dc.lft.to/lastmile_qr_scan", "android": "https://dc.lft.to/lastmile_qr_scan"}, "bike_id": "ef4ae438013b21a3448ddbe0ea056938", "type": "electric_scooter", "lon": -77.03598433333333, "is_reserved": 0, "fusion_lat": 0.0, "fusion_lon": 0.0}, {"name": "2024c2a16b6307705f79bd81a33f3c7f", "is_disabled": 0, "lat": 38.89890783333333, "rental_uris": {"ios": "https://dc.lft.to/lastmile_qr_scan", "android": "https://dc.lft.to/lastmile_qr_scan"}, "bike_id": "2024c2a16b6307705f79bd81a33f3c7f", "type": "electric_scooter", "lon": -76.99359633333333, "is_reserved": 0, "fusion_lat": 0.0, "fusion_lon": 0.0}, {"name": "d75f2dd7e15a19569bd61ef00148f489", "is_disabled": 0, "lat": 38.917055833333336, "rental_uris": {"ios": "https://dc.lft.to/lastmile_qr_scan", "android": "https://dc.lft.to/lastmile_qr_scan"}, "bike_id": "d75f2dd7e15a19569bd61ef00148f489", "type": "electric_scooter", "lon": -77.03117183333333, "is_reserved": 0, "fusion_lat": 0.0, "fusion_lon": 0.0}, {"name": "9d3a4c64e15869119d3664a14e720c8f", "is_disabled": 0, "lat": 38.885018333333335, "rental_uris": {"ios": "https://dc.lft.to/lastmile_qr_scan", "android": "https://dc.lft.to/lastmile_qr_scan"}, "bike_id": "9d3a4c64e15869119d3664a14e720c8f", "type": "electric_scooter", "lon": -77.01497633333334, "is_reserved": 0, "fusion_lat": 0.0, "fusion_lon": 0.0}, {"name": "5fe54fb742bc6c69ae538219415ff448", "is_disabled": 0, "lat": 38.911474166666665, "rental_uris": {"ios": "https://dc.lft.to/lastmile_qr_scan", "android": "https://dc.lft.to/lastmile_qr_scan"}, "bike_id": "5fe54fb742bc6c69ae538219415ff448", "type": "electric_scooter", "lon": -77.08748183333333, "is_reserved": 0, "fusion_lat": 0.0, "fusion_lon": 0.0}, {"name": "0f968d53a8c364e358d4eea04bd12efc", "is_disabled": 0, "lat": 38.89543233333333, "rental_uris": {"ios": "https://dc.lft.to/lastmile_qr_scan", "android": "https://dc.lft.to/lastmile_qr_scan"}, "bike_id": "0f968d53a8c364e358d4eea04bd12efc", "type": "electric_scooter", "lon": -76.98340083333333, "is_reserved": 0, "fusion_lat": 0.0, "fusion_lon": 0.0}, {"name": "278f09a4f83b075e128a74eb9be2c4a0", "is_disabled": 0, "lat": 38.89823416666667, "rental_uris": {"ios": "https://dc.lft.to/lastmile_qr_scan", "android": "https://dc.lft.to/lastmile_qr_scan"}, "bike_id": "278f09a4f83b075e128a74eb9be2c4a0", "type": "electric_scooter", "lon": -77.04609633333334, "is_reserved": 0, "fusion_lat": 0.0, "fusion_lon": 0.0}, {"name": "3228bfe358121a006bf2d88f5ba8ab99", "is_disabled": 0, "lat": 38.91537266666667, "rental_uris": {"ios": "https://dc.lft.to/lastmile_qr_scan", "android": "https://dc.lft.to/lastmile_qr_scan"}, "bike_id": "3228bfe358121a006bf2d88f5ba8ab99", "type": "electric_scooter", "lon": -77.03208066666667, "is_reserved": 0, "fusion_lat": 0.0, "fusion_lon": 0.0}, {"name": "db617c969cf58e6c5bb6c539d0ce9664", "is_disabled": 0, "lat": 38.90392133333334, "rental_uris": {"ios": "https://dc.lft.to/lastmile_qr_scan", "android": "https://dc.lft.to/lastmile_qr_scan"}, "bike_id": "db617c969cf58e6c5bb6c539d0ce9664", "type": "electric_scooter", "lon": -77.045151, "is_reserved": 0, "fusion_lat": 0.0, "fusion_lon": 0.0}, {"name": "7007ffb0821cc2849598d2957a2b25b8", "is_disabled": 0, "lat": 38.912572833333336, "rental_uris": {"ios": "https://dc.lft.to/lastmile_qr_scan", "android": "https://dc.lft.to/lastmile_qr_scan"}, "bike_id": "7007ffb0821cc2849598d2957a2b25b8", "type": "electric_scooter", "lon": -77.038689, "is_reserved": 0, "fusion_lat": 0.0, "fusion_lon": 0.0}, {"name": "2e73f86d97ad756e2831cbf5407455fc", "is_disabled": 0, "lat": 38.901460166666666, "rental_uris": {"ios": "https://dc.lft.to/lastmile_qr_scan", "android": "https://dc.lft.to/lastmile_qr_scan"}, "bike_id": "2e73f86d97ad756e2831cbf5407455fc", "type": "electric_scooter", "lon": -77.03898416666667, "is_reserved": 0, "fusion_lat": 0.0, "fusion_lon": 0.0}, {"name": "af7f21e9dd2cb9bc5da1803e758b8f4c", "is_disabled": 0, "lat": 38.8985135, "rental_uris": {"ios": "https://dc.lft.to/lastmile_qr_scan", "android": "https://dc.lft.to/lastmile_qr_scan"}, "bike_id": "af7f21e9dd2cb9bc5da1803e758b8f4c", "type": "electric_scooter", "lon": -76.99026966666666, "is_reserved": 0, "fusion_lat": 0.0, "fusion_lon": 0.0}, {"name": "0a2d54ad986e31bffb0677eecbc7e05b", "is_disabled": 0, "lat": 38.9029335, "rental_uris": {"ios": "https://dc.lft.to/lastmile_qr_scan", "android": "https://dc.lft.to/lastmile_qr_scan"}, "bike_id": "0a2d54ad986e31bffb0677eecbc7e05b", "type": "electric_scooter", "lon": -77.06101966666667, "is_reserved": 0, "fusion_lat": 0.0, "fusion_lon": 0.0}, {"name": "1ed346d670f8c51faea1219b3223bc7b", "is_disabled": 0, "lat": 38.90367616666666, "rental_uris": {"ios": "https://dc.lft.to/lastmile_qr_scan", "android": "https://dc.lft.to/lastmile_qr_scan"}, "bike_id": "1ed346d670f8c51faea1219b3223bc7b", "type": "electric_scooter", "lon": -77.01989833333333, "is_reserved": 0, "fusion_lat": 0.0, "fusion_lon": 0.0}, {"name": "3e7248771302ff3d6049d3e3148005ab", "is_disabled": 0, "lat": 38.9181235, "rental_uris": {"ios": "https://dc.lft.to/lastmile_qr_scan", "android": "https://dc.lft.to/lastmile_qr_scan"}, "bike_id": "3e7248771302ff3d6049d3e3148005ab", "type": "electric_scooter", "lon": -77.01193483333333, "is_reserved": 0, "fusion_lat": 0.0, "fusion_lon": 0.0}, {"name": "f2883fc1b90bff9a5ff4133da077d932", "is_disabled": 0, "lat": 38.94831333333333, "rental_uris": {"ios": "https://dc.lft.to/lastmile_qr_scan", "android": "https://dc.lft.to/lastmile_qr_scan"}, "bike_id": "f2883fc1b90bff9a5ff4133da077d932", "type": "electric_scooter", "lon": -77.06545066666666, "is_reserved": 0, "fusion_lat": 0.0, "fusion_lon": 0.0}, {"name": "d316eb15d668d78cc56ab5cc0c8a25f0", "is_disabled": 0, "lat": 38.9944375, "rental_uris": {"ios": "https://dc.lft.to/lastmile_qr_scan", "android": "https://dc.lft.to/lastmile_qr_scan"}, "bike_id": "d316eb15d668d78cc56ab5cc0c8a25f0", "type": "electric_bike", "lon": -76.99590283333333, "is_reserved": 0, "fusion_lat": 0.0, "fusion_lon": 0.0}, {"name": "c6306c2d90350909736bed70b888948f", "is_disabled": 0, "lat": 38.924908333333335, "rental_uris": {"ios": "https://dc.lft.to/lastmile_qr_scan", "android": "https://dc.lft.to/lastmile_qr_scan"}, "bike_id": "c6306c2d90350909736bed70b888948f", "type": "electric_scooter", "lon": -77.0254915, "is_reserved": 0, "fusion_lat": 0.0, "fusion_lon": 0.0}, {"name": "d01b700da50c1179be2835af947f2155", "is_disabled": 0, "lat": 38.91175283333333, "rental_uris": {"ios": "https://dc.lft.to/lastmile_qr_scan", "android": "https://dc.lft.to/lastmile_qr_scan"}, "bike_id": "d01b700da50c1179be2835af947f2155", "type": "electric_scooter", "lon": -77.021898, "is_reserved": 0, "fusion_lat": 0.0, "fusion_lon": 0.0}, {"name": "da5fb941b5022526c600e9e235e26696", "is_disabled": 0, "lat": 38.90158016666667, "rental_uris": {"ios": "https://dc.lft.to/lastmile_qr_scan", "android": "https://dc.lft.to/lastmile_qr_scan"}, "bike_id": "da5fb941b5022526c600e9e235e26696", "type": "electric_scooter", "lon": -77.039713, "is_reserved": 0, "fusion_lat": 0.0, "fusion_lon": 0.0}, {"name": "4dc7934d79b7620749ed93381c6e424b", "is_disabled": 0, "lat": 38.916644, "rental_uris": {"ios": "https://dc.lft.to/lastmile_qr_scan", "android": "https://dc.lft.to/lastmile_qr_scan"}, "bike_id": "4dc7934d79b7620749ed93381c6e424b", "type": "electric_scooter", "lon": -77.03702133333333, "is_reserved": 0, "fusion_lat": 0.0, "fusion_lon": 0.0}, {"name": "34ff78a4ae14835d4aaa1197d6295530", "is_disabled": 0, "lat": 38.937648, "rental_uris": {"ios": "https://dc.lft.to/lastmile_qr_scan", "android": "https://dc.lft.to/lastmile_qr_scan"}, "bike_id": "34ff78a4ae14835d4aaa1197d6295530", "type": "electric_scooter", "lon": -77.0245155, "is_reserved": 0, "fusion_lat": 0.0, "fusion_lon": 0.0}, {"name": "78f2cb307aa285f46a346b64f351fa5e", "is_disabled": 0, "lat": 38.9177265, "rental_uris": {"ios": "https://dc.lft.to/lastmile_qr_scan", "android": "https://dc.lft.to/lastmile_qr_scan"}, "bike_id": "78f2cb307aa285f46a346b64f351fa5e", "type": "electric_scooter", "lon": -77.0321065, "is_reserved": 0, "fusion_lat": 0.0, "fusion_lon": 0.0}, {"name": "c82f002eb6085c7618802c84c66ec24d", "is_disabled": 0, "lat": 38.92092233333333, "rental_uris": {"ios": "https://dc.lft.to/lastmile_qr_scan", "android": "https://dc.lft.to/lastmile_qr_scan"}, "bike_id": "c82f002eb6085c7618802c84c66ec24d", "type": "electric_scooter", "lon": -77.02533633333333, "is_reserved": 0, "fusion_lat": 0.0, "fusion_lon": 0.0}, {"name": "7be50a95a20352fc8e4701a2e2d5bf96", "is_disabled": 0, "lat": 38.88745, "rental_uris": {"ios": "https://dc.lft.to/lastmile_qr_scan", "android": "https://dc.lft.to/lastmile_qr_scan"}, "bike_id": "7be50a95a20352fc8e4701a2e2d5bf96", "type": "electric_scooter", "lon": -77.02567383333333, "is_reserved": 0, "fusion_lat": 0.0, "fusion_lon": 0.0}, {"name": "a22e43b22bddae0ffd4bec0bc3389f87", "is_disabled": 0, "lat": 38.9175235, "rental_uris": {"ios": "https://dc.lft.to/lastmile_qr_scan", "android": "https://dc.lft.to/lastmile_qr_scan"}, "bike_id": "a22e43b22bddae0ffd4bec0bc3389f87", "type": "electric_scooter", "lon": -77.0259845, "is_reserved": 0, "fusion_lat": 0.0, "fusion_lon": 0.0}, {"name": "44520c5937935eaf49451169f7f12fdf", "is_disabled": 0, "lat": 38.916872833333336, "rental_uris": {"ios": "https://dc.lft.to/lastmile_qr_scan", "android": "https://dc.lft.to/lastmile_qr_scan"}, "bike_id": "44520c5937935eaf49451169f7f12fdf", "type": "electric_scooter", "lon": -77.02283566666667, "is_reserved": 0, "fusion_lat": 0.0, "fusion_lon": 0.0}, {"name": "1c1c08b8f337e31b86d6dd5d71ff5ae9", "is_disabled": 0, "lat": 38.935395166666666, "rental_uris": {"ios": "https://dc.lft.to/lastmile_qr_scan", "android": "https://dc.lft.to/lastmile_qr_scan"}, "bike_id": "1c1c08b8f337e31b86d6dd5d71ff5ae9", "type": "electric_scooter", "lon": -77.05751933333333, "is_reserved": 0, "fusion_lat": 0.0, "fusion_lon": 0.0}, {"name": "d8527e6f7c6fa5639f950133fc0dc3f5", "is_disabled": 0, "lat": 38.91636466666667, "rental_uris": {"ios": "https://dc.lft.to/lastmile_qr_scan", "android": "https://dc.lft.to/lastmile_qr_scan"}, "bike_id": "d8527e6f7c6fa5639f950133fc0dc3f5", "type": "electric_scooter", "lon": -77.03205533333333, "is_reserved": 0, "fusion_lat": 0.0, "fusion_lon": 0.0}, {"name": "875a9a12c5b3dcaf687096e1d2d8ee92", "is_disabled": 0, "lat": 38.90579666666667, "rental_uris": {"ios": "https://dc.lft.to/lastmile_qr_scan", "android": "https://dc.lft.to/lastmile_qr_scan"}, "bike_id": "875a9a12c5b3dcaf687096e1d2d8ee92", "type": "electric_scooter", "lon": -77.008903, "is_reserved": 0, "fusion_lat": 0.0, "fusion_lon": 0.0}, {"name": "b0d2c3f861f66ca4ba2470689a510994", "is_disabled": 0, "lat": 38.911043666666664, "rental_uris": {"ios": "https://dc.lft.to/lastmile_qr_scan", "android": "https://dc.lft.to/lastmile_qr_scan"}, "bike_id": "b0d2c3f861f66ca4ba2470689a510994", "type": "electric_scooter", "lon": -77.04201766666667, "is_reserved": 0, "fusion_lat": 0.0, "fusion_lon": 0.0}, {"name": "f06899ed68d6b69ed99596c67ea5131e", "is_disabled": 0, "lat": 38.90853116666667, "rental_uris": {"ios": "https://dc.lft.to/lastmile_qr_scan", "android": "https://dc.lft.to/lastmile_qr_scan"}, "bike_id": "f06899ed68d6b69ed99596c67ea5131e", "type": "electric_scooter", "lon": -77.03300233333333, "is_reserved": 0, "fusion_lat": 0.0, "fusion_lon": 0.0}, {"name": "3a581bc2a85f738d0c46a924ef7f5487", "is_disabled": 0, "lat": 38.87578633333333, "rental_uris": {"ios": "https://dc.lft.to/lastmile_qr_scan", "android": "https://dc.lft.to/lastmile_qr_scan"}, "bike_id": "3a581bc2a85f738d0c46a924ef7f5487", "type": "electric_bike", "lon": -77.234112, "is_reserved": 0, "fusion_lat": 0.0, "fusion_lon": 0.0}, {"name": "9fd440fd1eafb1afb7c80fd50857e8ef", "is_disabled": 0, "lat": 38.8996785, "rental_uris": {"ios": "https://dc.lft.to/lastmile_qr_scan", "android": "https://dc.lft.to/lastmile_qr_scan"}, "bike_id": "9fd440fd1eafb1afb7c80fd50857e8ef", "type": "electric_scooter", "lon": -76.93762416666667, "is_reserved": 0, "fusion_lat": 0.0, "fusion_lon": 0.0}, {"name": "b60e5d1f36e407343191c09ace0347c6", "is_disabled": 0, "lat": 38.9236095, "rental_uris": {"ios": "https://dc.lft.to/lastmile_qr_scan", "android": "https://dc.lft.to/lastmile_qr_scan"}, "bike_id": "b60e5d1f36e407343191c09ace0347c6", "type": "electric_scooter", "lon": -77.050528, "is_reserved": 0, "fusion_lat": 0.0, "fusion_lon": 0.0}, {"name": "48c39e964d0f5ac1ba2fc06a8cd56e44", "is_disabled": 0, "lat": 38.8907405, "rental_uris": {"ios": "https://dc.lft.to/lastmile_qr_scan", "android": "https://dc.lft.to/lastmile_qr_scan"}, "bike_id": "48c39e964d0f5ac1ba2fc06a8cd56e44", "type": "electric_scooter", "lon": -76.98825666666667, "is_reserved": 0, "fusion_lat": 0.0, "fusion_lon": 0.0}, {"name": "3fb6d6e3e38fe9d874508c9a1259ef2a", "is_disabled": 0, "lat": 38.90588966666667, "rental_uris": {"ios": "https://dc.lft.to/lastmile_qr_scan", "android": "https://dc.lft.to/lastmile_qr_scan"}, "bike_id": "3fb6d6e3e38fe9d874508c9a1259ef2a", "type": "electric_scooter", "lon": -77.00262533333333, "is_reserved": 0, "fusion_lat": 0.0, "fusion_lon": 0.0}, {"name": "930fcd2c60dd58a446a7c55d2a813d9f", "is_disabled": 0, "lat": 38.89682466666667, "rental_uris": {"ios": "https://dc.lft.to/lastmile_qr_scan", "android": "https://dc.lft.to/lastmile_qr_scan"}, "bike_id": "930fcd2c60dd58a446a7c55d2a813d9f", "type": "electric_scooter", "lon": -76.93713416666667, "is_reserved": 0, "fusion_lat": 0.0, "fusion_lon": 0.0}, {"name": "b4f16e5402c1585f22f5cea504a12b0e", "is_disabled": 0, "lat": 38.89961666666667, "rental_uris": {"ios": "https://dc.lft.to/lastmile_qr_scan", "android": "https://dc.lft.to/lastmile_qr_scan"}, "bike_id": "b4f16e5402c1585f22f5cea504a12b0e", "type": "electric_scooter", "lon": -77.02726683333333, "is_reserved": 0, "fusion_lat": 0.0, "fusion_lon": 0.0}, {"name": "2f481b4a3f603a1045c08c8569ed6350", "is_disabled": 0, "lat": 38.95057883333333, "rental_uris": {"ios": "https://dc.lft.to/lastmile_qr_scan", "android": "https://dc.lft.to/lastmile_qr_scan"}, "bike_id": "2f481b4a3f603a1045c08c8569ed6350", "type": "electric_scooter", "lon": -77.08027666666666, "is_reserved": 0, "fusion_lat": 0.0, "fusion_lon": 0.0}, {"name": "72634bb652d71baf1363a27559e7d25f", "is_disabled": 0, "lat": 38.91816766666667, "rental_uris": {"ios": "https://dc.lft.to/lastmile_qr_scan", "android": "https://dc.lft.to/lastmile_qr_scan"}, "bike_id": "72634bb652d71baf1363a27559e7d25f", "type": "electric_scooter", "lon": -77.02698283333334, "is_reserved": 0, "fusion_lat": 0.0, "fusion_lon": 0.0}, {"name": "1d363d0b7c69071a0f9c2f53e10b34d0", "is_disabled": 0, "lat": 38.9241065, "rental_uris": {"ios": "https://dc.lft.to/lastmile_qr_scan", "android": "https://dc.lft.to/lastmile_qr_scan"}, "bike_id": "1d363d0b7c69071a0f9c2f53e10b34d0", "type": "electric_scooter", "lon": -77.05262616666667, "is_reserved": 0, "fusion_lat": 0.0, "fusion_lon": 0.0}, {"name": "1f83f36d1ce0847cbf9ebcca67328052", "is_disabled": 0, "lat": 38.9055215, "rental_uris": {"ios": "https://dc.lft.to/lastmile_qr_scan", "android": "https://dc.lft.to/lastmile_qr_scan"}, "bike_id": "1f83f36d1ce0847cbf9ebcca67328052", "type": "electric_scooter", "lon": -77.04649033333334, "is_reserved": 0, "fusion_lat": 0.0, "fusion_lon": 0.0}, {"name": "4a1a3eea1c76aa3f89a7c0a918ccaf6d", "is_disabled": 0, "lat": 38.847569166666666, "rental_uris": {"ios": "https://dc.lft.to/lastmile_qr_scan", "android": "https://dc.lft.to/lastmile_qr_scan"}, "bike_id": "4a1a3eea1c76aa3f89a7c0a918ccaf6d", "type": "electric_scooter", "lon": -76.99500233333333, "is_reserved": 0, "fusion_lat": 0.0, "fusion_lon": 0.0}, {"name": "a3cb3532347c89cf1576e60ebacb5650", "is_disabled": 0, "lat": 38.90682283333334, "rental_uris": {"ios": "https://dc.lft.to/lastmile_qr_scan", "android": "https://dc.lft.to/lastmile_qr_scan"}, "bike_id": "a3cb3532347c89cf1576e60ebacb5650", "type": "electric_scooter", "lon": -77.02685283333334, "is_reserved": 0, "fusion_lat": 0.0, "fusion_lon": 0.0}, {"name": "f0fc9121b22e7db3816a9890b3a2efe5", "is_disabled": 0, "lat": 38.921503333333334, "rental_uris": {"ios": "https://dc.lft.to/lastmile_qr_scan", "android": "https://dc.lft.to/lastmile_qr_scan"}, "bike_id": "f0fc9121b22e7db3816a9890b3a2efe5", "type": "electric_scooter", "lon": -76.99358566666666, "is_reserved": 0, "fusion_lat": 0.0, "fusion_lon": 0.0}, {"name": "addf9bb0e57ed1bc1030c69f70e60c32", "is_disabled": 0, "lat": 38.922459333333336, "rental_uris": {"ios": "https://dc.lft.to/lastmile_qr_scan", "android": "https://dc.lft.to/lastmile_qr_scan"}, "bike_id": "addf9bb0e57ed1bc1030c69f70e60c32", "type": "electric_scooter", "lon": -77.0281055, "is_reserved": 0, "fusion_lat": 0.0, "fusion_lon": 0.0}, {"name": "6860282329afa9ac7674c2e826223434", "is_disabled": 0, "lat": 38.90169866666667, "rental_uris": {"ios": "https://dc.lft.to/lastmile_qr_scan", "android": "https://dc.lft.to/lastmile_qr_scan"}, "bike_id": "6860282329afa9ac7674c2e826223434", "type": "electric_scooter", "lon": -76.99263883333333, "is_reserved": 0, "fusion_lat": 0.0, "fusion_lon": 0.0}, {"name": "efed9b94d2ec3df2f68dba84b2f5d4f1", "is_disabled": 0, "lat": 38.935783666666666, "rental_uris": {"ios": "https://dc.lft.to/lastmile_qr_scan", "android": "https://dc.lft.to/lastmile_qr_scan"}, "bike_id": "efed9b94d2ec3df2f68dba84b2f5d4f1", "type": "electric_scooter", "lon": -77.03663266666666, "is_reserved": 0, "fusion_lat": 0.0, "fusion_lon": 0.0}, {"name": "4c240dea18a19c93e8b586a2200b9dd9", "is_disabled": 0, "lat": 38.908661333333335, "rental_uris": {"ios": "https://dc.lft.to/lastmile_qr_scan", "android": "https://dc.lft.to/lastmile_qr_scan"}, "bike_id": "4c240dea18a19c93e8b586a2200b9dd9", "type": "electric_scooter", "lon": -77.07163666666666, "is_reserved": 0, "fusion_lat": 0.0, "fusion_lon": 0.0}, {"name": "0521d305de7bb92fc906c8f6d10f90e8", "is_disabled": 0, "lat": 38.90712583333333, "rental_uris": {"ios": "https://dc.lft.to/lastmile_qr_scan", "android": "https://dc.lft.to/lastmile_qr_scan"}, "bike_id": "0521d305de7bb92fc906c8f6d10f90e8", "type": "electric_scooter", "lon": -77.0271975, "is_reserved": 0, "fusion_lat": 0.0, "fusion_lon": 0.0}, {"name": "b4574f60181df2ae3fe3ef1b5baae487", "is_disabled": 0, "lat": 38.88344333333333, "rental_uris": {"ios": "https://dc.lft.to/lastmile_qr_scan", "android": "https://dc.lft.to/lastmile_qr_scan"}, "bike_id": "b4574f60181df2ae3fe3ef1b5baae487", "type": "electric_scooter", "lon": -77.031667, "is_reserved": 0, "fusion_lat": 0.0, "fusion_lon": 0.0}, {"name": "33eb1b310b3203172d1b6d1bd50b723a", "is_disabled": 0, "lat": 38.88752083333333, "rental_uris": {"ios": "https://dc.lft.to/lastmile_qr_scan", "android": "https://dc.lft.to/lastmile_qr_scan"}, "bike_id": "33eb1b310b3203172d1b6d1bd50b723a", "type": "electric_scooter", "lon": -76.99605916666667, "is_reserved": 0, "fusion_lat": 0.0, "fusion_lon": 0.0}, {"name": "5e05bd6b68b3993e53e979b10be74b1c", "is_disabled": 0, "lat": 38.92319466666667, "rental_uris": {"ios": "https://dc.lft.to/lastmile_qr_scan", "android": "https://dc.lft.to/lastmile_qr_scan"}, "bike_id": "5e05bd6b68b3993e53e979b10be74b1c", "type": "electric_scooter", "lon": -77.03976766666666, "is_reserved": 0, "fusion_lat": 0.0, "fusion_lon": 0.0}, {"name": "f76480b1dc06a1fab2a9f4d1b5992f93", "is_disabled": 0, "lat": 38.941827, "rental_uris": {"ios": "https://dc.lft.to/lastmile_qr_scan", "android": "https://dc.lft.to/lastmile_qr_scan"}, "bike_id": "f76480b1dc06a1fab2a9f4d1b5992f93", "type": "electric_scooter", "lon": -77.02616416666666, "is_reserved": 0, "fusion_lat": 0.0, "fusion_lon": 0.0}, {"name": "93bad2bec743e79adc92eae7d38e259c", "is_disabled": 0, "lat": 38.922654333333334, "rental_uris": {"ios": "https://dc.lft.to/lastmile_qr_scan", "android": "https://dc.lft.to/lastmile_qr_scan"}, "bike_id": "93bad2bec743e79adc92eae7d38e259c", "type": "electric_scooter", "lon": -77.019585, "is_reserved": 0, "fusion_lat": 0.0, "fusion_lon": 0.0}, {"name": "42d2e6b867264324fe3bd924b89012de", "is_disabled": 0, "lat": 38.887408666666666, "rental_uris": {"ios": "https://dc.lft.to/lastmile_qr_scan", "android": "https://dc.lft.to/lastmile_qr_scan"}, "bike_id": "42d2e6b867264324fe3bd924b89012de", "type": "electric_scooter", "lon": -77.02133533333334, "is_reserved": 0, "fusion_lat": 0.0, "fusion_lon": 0.0}, {"name": "ee97fb5acb029b5840080647fe211836", "is_disabled": 0, "lat": 38.898518333333335, "rental_uris": {"ios": "https://dc.lft.to/lastmile_qr_scan", "android": "https://dc.lft.to/lastmile_qr_scan"}, "bike_id": "ee97fb5acb029b5840080647fe211836", "type": "electric_scooter", "lon": -77.02178333333333, "is_reserved": 0, "fusion_lat": 0.0, "fusion_lon": 0.0}, {"name": "2a36158bae8981cc7c1746a6b3ee74c7", "is_disabled": 0, "lat": 38.877017333333335, "rental_uris": {"ios": "https://dc.lft.to/lastmile_qr_scan", "android": "https://dc.lft.to/lastmile_qr_scan"}, "bike_id": "2a36158bae8981cc7c1746a6b3ee74c7", "type": "electric_scooter", "lon": -77.01910233333334, "is_reserved": 0, "fusion_lat": 0.0, "fusion_lon": 0.0}, {"name": "8bfa60f940138f6d499ec3b25448757c", "is_disabled": 0, "lat": 38.8571965, "rental_uris": {"ios": "https://dc.lft.to/lastmile_qr_scan", "android": "https://dc.lft.to/lastmile_qr_scan"}, "bike_id": "8bfa60f940138f6d499ec3b25448757c", "type": "electric_bike", "lon": -76.9809405, "is_reserved": 0, "fusion_lat": 0.0, "fusion_lon": 0.0}, {"name": "634ea61735fa23479066dc2e48605ffa", "is_disabled": 0, "lat": 38.90597183333333, "rental_uris": {"ios": "https://dc.lft.to/lastmile_qr_scan", "android": "https://dc.lft.to/lastmile_qr_scan"}, "bike_id": "634ea61735fa23479066dc2e48605ffa", "type": "electric_scooter", "lon": -77.02604633333333, "is_reserved": 0, "fusion_lat": 0.0, "fusion_lon": 0.0}, {"name": "d94cf5bdced884f8b60acc09124fd7a6", "is_disabled": 0, "lat": 38.90156966666667, "rental_uris": {"ios": "https://dc.lft.to/lastmile_qr_scan", "android": "https://dc.lft.to/lastmile_qr_scan"}, "bike_id": "d94cf5bdced884f8b60acc09124fd7a6", "type": "electric_scooter", "lon": -77.04184783333334, "is_reserved": 0, "fusion_lat": 0.0, "fusion_lon": 0.0}, {"name": "c63287a933f177caaa2fafc9335e6cc4", "is_disabled": 0, "lat": 38.90374583333333, "rental_uris": {"ios": "https://dc.lft.to/lastmile_qr_scan", "android": "https://dc.lft.to/lastmile_qr_scan"}, "bike_id": "c63287a933f177caaa2fafc9335e6cc4", "type": "electric_scooter", "lon": -77.007685, "is_reserved": 0, "fusion_lat": 0.0, "fusion_lon": 0.0}, {"name": "7657fe6e8a095db23f999c0b8a1386de", "is_disabled": 0, "lat": 38.908109333333336, "rental_uris": {"ios": "https://dc.lft.to/lastmile_qr_scan", "android": "https://dc.lft.to/lastmile_qr_scan"}, "bike_id": "7657fe6e8a095db23f999c0b8a1386de", "type": "electric_scooter", "lon": -77.03440183333333, "is_reserved": 0, "fusion_lat": 0.0, "fusion_lon": 0.0}, {"name": "5e4bd4ea29c81cd425c47d830432d513", "is_disabled": 0, "lat": 38.90664783333333, "rental_uris": {"ios": "https://dc.lft.to/lastmile_qr_scan", "android": "https://dc.lft.to/lastmile_qr_scan"}, "bike_id": "5e4bd4ea29c81cd425c47d830432d513", "type": "electric_scooter", "lon": -77.03753016666667, "is_reserved": 0, "fusion_lat": 0.0, "fusion_lon": 0.0}, {"name": "fa60bef93d12ed25adda2776281f7ac2", "is_disabled": 0, "lat": 38.9340845, "rental_uris": {"ios": "https://dc.lft.to/lastmile_qr_scan", "android": "https://dc.lft.to/lastmile_qr_scan"}, "bike_id": "fa60bef93d12ed25adda2776281f7ac2", "type": "electric_bike", "lon": -77.04307883333334, "is_reserved": 0, "fusion_lat": 0.0, "fusion_lon": 0.0}, {"name": "86ddeb944b670df0eb194ee20ec32888", "is_disabled": 0, "lat": 38.912245, "rental_uris": {"ios": "https://dc.lft.to/lastmile_qr_scan", "android": "https://dc.lft.to/lastmile_qr_scan"}, "bike_id": "86ddeb944b670df0eb194ee20ec32888", "type": "electric_scooter", "lon": -77.06599466666667, "is_reserved": 0, "fusion_lat": 0.0, "fusion_lon": 0.0}, {"name": "256c0889d88ba90a0ce1d6f7bdce6e70", "is_disabled": 0, "lat": 38.90637483333333, "rental_uris": {"ios": "https://dc.lft.to/lastmile_qr_scan", "android": "https://dc.lft.to/lastmile_qr_scan"}, "bike_id": "256c0889d88ba90a0ce1d6f7bdce6e70", "type": "electric_scooter", "lon": -77.0067865, "is_reserved": 0, "fusion_lat": 0.0, "fusion_lon": 0.0}, {"name": "4290fcd1328546610bb9b6cc3e27af3d", "is_disabled": 0, "lat": 38.901858833333335, "rental_uris": {"ios": "https://dc.lft.to/lastmile_qr_scan", "android": "https://dc.lft.to/lastmile_qr_scan"}, "bike_id": "4290fcd1328546610bb9b6cc3e27af3d", "type": "electric_scooter", "lon": -77.04997683333333, "is_reserved": 0, "fusion_lat": 0.0, "fusion_lon": 0.0}, {"name": "7ec44f7d87d87ebd455f035f8bfde23a", "is_disabled": 0, "lat": 38.909068166666664, "rental_uris": {"ios": "https://dc.lft.to/lastmile_qr_scan", "android": "https://dc.lft.to/lastmile_qr_scan"}, "bike_id": "7ec44f7d87d87ebd455f035f8bfde23a", "type": "electric_scooter", "lon": -77.027178, "is_reserved": 0, "fusion_lat": 0.0, "fusion_lon": 0.0}, {"name": "c7ec6d42e316098f5fceee64f5c43f21", "is_disabled": 0, "lat": 38.99774933333333, "rental_uris": {"ios": "https://dc.lft.to/lastmile_qr_scan", "android": "https://dc.lft.to/lastmile_qr_scan"}, "bike_id": "c7ec6d42e316098f5fceee64f5c43f21", "type": "electric_bike", "lon": -77.04713166666667, "is_reserved": 0, "fusion_lat": 0.0, "fusion_lon": 0.0}, {"name": "120d3bf12d76579159469713fe19feab", "is_disabled": 0, "lat": 38.90028933333333, "rental_uris": {"ios": "https://dc.lft.to/lastmile_qr_scan", "android": "https://dc.lft.to/lastmile_qr_scan"}, "bike_id": "120d3bf12d76579159469713fe19feab", "type": "electric_scooter", "lon": -76.988127, "is_reserved": 0, "fusion_lat": 0.0, "fusion_lon": 0.0}, {"name": "850966edc36771a267d4c0d4e4f975ec", "is_disabled": 0, "lat": 38.932432666666664, "rental_uris": {"ios": "https://dc.lft.to/lastmile_qr_scan", "android": "https://dc.lft.to/lastmile_qr_scan"}, "bike_id": "850966edc36771a267d4c0d4e4f975ec", "type": "electric_scooter", "lon": -77.03263616666666, "is_reserved": 0, "fusion_lat": 0.0, "fusion_lon": 0.0}, {"name": "b6d787bca48fa2c942d9e0e01689a29c", "is_disabled": 0, "lat": 38.9002955, "rental_uris": {"ios": "https://dc.lft.to/lastmile_qr_scan", "android": "https://dc.lft.to/lastmile_qr_scan"}, "bike_id": "b6d787bca48fa2c942d9e0e01689a29c", "type": "electric_scooter", "lon": -76.99630016666667, "is_reserved": 0, "fusion_lat": 0.0, "fusion_lon": 0.0}, {"name": "a32231027c4412da4eafb6569b06ffb0", "is_disabled": 0, "lat": 38.9428155, "rental_uris": {"ios": "https://dc.lft.to/lastmile_qr_scan", "android": "https://dc.lft.to/lastmile_qr_scan"}, "bike_id": "a32231027c4412da4eafb6569b06ffb0", "type": "electric_scooter", "lon": -77.02938316666666, "is_reserved": 0, "fusion_lat": 0.0, "fusion_lon": 0.0}, {"name": "9e181ec2671869506df438a57957478f", "is_disabled": 0, "lat": 38.90224883333333, "rental_uris": {"ios": "https://dc.lft.to/lastmile_qr_scan", "android": "https://dc.lft.to/lastmile_qr_scan"}, "bike_id": "9e181ec2671869506df438a57957478f", "type": "electric_scooter", "lon": -77.017918, "is_reserved": 0, "fusion_lat": 0.0, "fusion_lon": 0.0}, {"name": "2a947ade22ae4223142e81c052d4e0d5", "is_disabled": 0, "lat": 38.900830666666664, "rental_uris": {"ios": "https://dc.lft.to/lastmile_qr_scan", "android": "https://dc.lft.to/lastmile_qr_scan"}, "bike_id": "2a947ade22ae4223142e81c052d4e0d5", "type": "electric_scooter", "lon": -77.04762566666666, "is_reserved": 0, "fusion_lat": 0.0, "fusion_lon": 0.0}, {"name": "35fc756402a59afa5b330c4943a1659e", "is_disabled": 0, "lat": 38.919139333333334, "rental_uris": {"ios": "https://dc.lft.to/lastmile_qr_scan", "android": "https://dc.lft.to/lastmile_qr_scan"}, "bike_id": "35fc756402a59afa5b330c4943a1659e", "type": "electric_scooter", "lon": -77.03058666666666, "is_reserved": 0, "fusion_lat": 0.0, "fusion_lon": 0.0}, {"name": "fa5fa7424ae19e4ac380250afb1c6ec6", "is_disabled": 0, "lat": 38.909531666666666, "rental_uris": {"ios": "https://dc.lft.to/lastmile_qr_scan", "android": "https://dc.lft.to/lastmile_qr_scan"}, "bike_id": "fa5fa7424ae19e4ac380250afb1c6ec6", "type": "electric_scooter", "lon": -76.9853955, "is_reserved": 0, "fusion_lat": 0.0, "fusion_lon": 0.0}, {"name": "705c65860ac76d2e624b75fab7ff6b73", "is_disabled": 0, "lat": 38.9257, "rental_uris": {"ios": "https://dc.lft.to/lastmile_qr_scan", "android": "https://dc.lft.to/lastmile_qr_scan"}, "bike_id": "705c65860ac76d2e624b75fab7ff6b73", "type": "electric_scooter", "lon": -77.052557, "is_reserved": 0, "fusion_lat": 0.0, "fusion_lon": 0.0}, {"name": "5ebdf3a4a11ec2a6bd3d0803524d76d7", "is_disabled": 0, "lat": 38.92031716666666, "rental_uris": {"ios": "https://dc.lft.to/lastmile_qr_scan", "android": "https://dc.lft.to/lastmile_qr_scan"}, "bike_id": "5ebdf3a4a11ec2a6bd3d0803524d76d7", "type": "electric_scooter", "lon": -77.07147183333333, "is_reserved": 0, "fusion_lat": 0.0, "fusion_lon": 0.0}, {"name": "fea913c941e23658622148541d95a6ea", "is_disabled": 0, "lat": 38.922542166666666, "rental_uris": {"ios": "https://dc.lft.to/lastmile_qr_scan", "android": "https://dc.lft.to/lastmile_qr_scan"}, "bike_id": "fea913c941e23658622148541d95a6ea", "type": "electric_scooter", "lon": -77.019348, "is_reserved": 0, "fusion_lat": 0.0, "fusion_lon": 0.0}, {"name": "ecf1f8f762b45a97d12671b43200d69b", "is_disabled": 0, "lat": 38.89555416666666, "rental_uris": {"ios": "https://dc.lft.to/lastmile_qr_scan", "android": "https://dc.lft.to/lastmile_qr_scan"}, "bike_id": "ecf1f8f762b45a97d12671b43200d69b", "type": "electric_scooter", "lon": -76.948728, "is_reserved": 0, "fusion_lat": 0.0, "fusion_lon": 0.0}, {"name": "f981271f2f3afaed4c555188f2b364de", "is_disabled": 0, "lat": 38.8926985, "rental_uris": {"ios": "https://dc.lft.to/lastmile_qr_scan", "android": "https://dc.lft.to/lastmile_qr_scan"}, "bike_id": "f981271f2f3afaed4c555188f2b364de", "type": "electric_scooter", "lon": -77.03167133333334, "is_reserved": 0, "fusion_lat": 0.0, "fusion_lon": 0.0}, {"name": "2ca91c72875d6c9b8f3d02b819955172", "is_disabled": 0, "lat": 38.912519833333334, "rental_uris": {"ios": "https://dc.lft.to/lastmile_qr_scan", "android": "https://dc.lft.to/lastmile_qr_scan"}, "bike_id": "2ca91c72875d6c9b8f3d02b819955172", "type": "electric_scooter", "lon": -77.03869233333333, "is_reserved": 0, "fusion_lat": 0.0, "fusion_lon": 0.0}, {"name": "310e7082c4d0d4c17f9b3161b6515fd1", "is_disabled": 0, "lat": 38.87471083333333, "rental_uris": {"ios": "https://dc.lft.to/lastmile_qr_scan", "android": "https://dc.lft.to/lastmile_qr_scan"}, "bike_id": "310e7082c4d0d4c17f9b3161b6515fd1", "type": "electric_scooter", "lon": -77.00472883333333, "is_reserved": 0, "fusion_lat": 0.0, "fusion_lon": 0.0}, {"name": "6c94c2a1f29a1ba213485a93e2fc0f60", "is_disabled": 0, "lat": 38.89484216666666, "rental_uris": {"ios": "https://dc.lft.to/lastmile_qr_scan", "android": "https://dc.lft.to/lastmile_qr_scan"}, "bike_id": "6c94c2a1f29a1ba213485a93e2fc0f60", "type": "electric_scooter", "lon": -77.0030875, "is_reserved": 0, "fusion_lat": 0.0, "fusion_lon": 0.0}, {"name": "f2a3a9ab088ea8f5298ea7ad850eb047", "is_disabled": 0, "lat": 38.910366333333336, "rental_uris": {"ios": "https://dc.lft.to/lastmile_qr_scan", "android": "https://dc.lft.to/lastmile_qr_scan"}, "bike_id": "f2a3a9ab088ea8f5298ea7ad850eb047", "type": "electric_scooter", "lon": -77.04276, "is_reserved": 0, "fusion_lat": 0.0, "fusion_lon": 0.0}, {"name": "701aa655f3391348b26daf0f7b3c60ed", "is_disabled": 0, "lat": 38.91547683333334, "rental_uris": {"ios": "https://dc.lft.to/lastmile_qr_scan", "android": "https://dc.lft.to/lastmile_qr_scan"}, "bike_id": "701aa655f3391348b26daf0f7b3c60ed", "type": "electric_scooter", "lon": -77.03855316666667, "is_reserved": 0, "fusion_lat": 0.0, "fusion_lon": 0.0}, {"name": "62b25f9fa6ec2a8646678947de776953", "is_disabled": 0, "lat": 38.917621, "rental_uris": {"ios": "https://dc.lft.to/lastmile_qr_scan", "android": "https://dc.lft.to/lastmile_qr_scan"}, "bike_id": "62b25f9fa6ec2a8646678947de776953", "type": "electric_scooter", "lon": -77.0695035, "is_reserved": 0, "fusion_lat": 0.0, "fusion_lon": 0.0}, {"name": "09a3e53d8ee88312c52182a604077e75", "is_disabled": 0, "lat": 38.9311745, "rental_uris": {"ios": "https://dc.lft.to/lastmile_qr_scan", "android": "https://dc.lft.to/lastmile_qr_scan"}, "bike_id": "09a3e53d8ee88312c52182a604077e75", "type": "electric_scooter", "lon": -77.02099866666667, "is_reserved": 0, "fusion_lat": 0.0, "fusion_lon": 0.0}, {"name": "f09b27b1265394919f76aa166e267f7f", "is_disabled": 0, "lat": 38.92647783333334, "rental_uris": {"ios": "https://dc.lft.to/lastmile_qr_scan", "android": "https://dc.lft.to/lastmile_qr_scan"}, "bike_id": "f09b27b1265394919f76aa166e267f7f", "type": "electric_scooter", "lon": -77.04139316666667, "is_reserved": 0, "fusion_lat": 0.0, "fusion_lon": 0.0}, {"name": "179658beb315c1f8658ffcc64213a576", "is_disabled": 0, "lat": 38.923474666666664, "rental_uris": {"ios": "https://dc.lft.to/lastmile_qr_scan", "android": "https://dc.lft.to/lastmile_qr_scan"}, "bike_id": "179658beb315c1f8658ffcc64213a576", "type": "electric_scooter", "lon": -77.03312166666667, "is_reserved": 0, "fusion_lat": 0.0, "fusion_lon": 0.0}, {"name": "88273e5893a210647b07affbbb090636", "is_disabled": 0, "lat": 38.894712, "rental_uris": {"ios": "https://dc.lft.to/lastmile_qr_scan", "android": "https://dc.lft.to/lastmile_qr_scan"}, "bike_id": "88273e5893a210647b07affbbb090636", "type": "electric_scooter", "lon": -77.01766383333333, "is_reserved": 0, "fusion_lat": 0.0, "fusion_lon": 0.0}, {"name": "8256681b62a53622ff420714556afcd5", "is_disabled": 0, "lat": 38.87381033333333, "rental_uris": {"ios": "https://dc.lft.to/lastmile_qr_scan", "android": "https://dc.lft.to/lastmile_qr_scan"}, "bike_id": "8256681b62a53622ff420714556afcd5", "type": "electric_scooter", "lon": -77.00062016666666, "is_reserved": 0, "fusion_lat": 0.0, "fusion_lon": 0.0}, {"name": "acbf815591993d26f4d728c42f9dbf88", "is_disabled": 0, "lat": 38.9149945, "rental_uris": {"ios": "https://dc.lft.to/lastmile_qr_scan", "android": "https://dc.lft.to/lastmile_qr_scan"}, "bike_id": "acbf815591993d26f4d728c42f9dbf88", "type": "electric_scooter", "lon": -76.98368583333334, "is_reserved": 0, "fusion_lat": 0.0, "fusion_lon": 0.0}, {"name": "0000611d0fc7ab79111e40beaed8bc49", "is_disabled": 0, "lat": 38.90769133333333, "rental_uris": {"ios": "https://dc.lft.to/lastmile_qr_scan", "android": "https://dc.lft.to/lastmile_qr_scan"}, "bike_id": "0000611d0fc7ab79111e40beaed8bc49", "type": "electric_scooter", "lon": -76.993719, "is_reserved": 0, "fusion_lat": 0.0, "fusion_lon": 0.0}, {"name": "374b1867ff35141d31c93ffdc417460a", "is_disabled": 0, "lat": 38.93246, "rental_uris": {"ios": "https://dc.lft.to/lastmile_qr_scan", "android": "https://dc.lft.to/lastmile_qr_scan"}, "bike_id": "374b1867ff35141d31c93ffdc417460a", "type": "electric_scooter", "lon": -76.99522783333333, "is_reserved": 0, "fusion_lat": 0.0, "fusion_lon": 0.0}, {"name": "9d058e9bdd2c581c5fbaf170e85f2c01", "is_disabled": 0, "lat": 38.9275885, "rental_uris": {"ios": "https://dc.lft.to/lastmile_qr_scan", "android": "https://dc.lft.to/lastmile_qr_scan"}, "bike_id": "9d058e9bdd2c581c5fbaf170e85f2c01", "type": "electric_scooter", "lon": -77.02962, "is_reserved": 0, "fusion_lat": 0.0, "fusion_lon": 0.0}, {"name": "17de56925a512d9f702766b4e8e16aa5", "is_disabled": 0, "lat": 38.92497, "rental_uris": {"ios": "https://dc.lft.to/lastmile_qr_scan", "android": "https://dc.lft.to/lastmile_qr_scan"}, "bike_id": "17de56925a512d9f702766b4e8e16aa5", "type": "electric_scooter", "lon": -77.024054, "is_reserved": 0, "fusion_lat": 0.0, "fusion_lon": 0.0}, {"name": "5e1c70b4b6b3cbb1528aaed73326129a", "is_disabled": 0, "lat": 38.916133333333335, "rental_uris": {"ios": "https://dc.lft.to/lastmile_qr_scan", "android": "https://dc.lft.to/lastmile_qr_scan"}, "bike_id": "5e1c70b4b6b3cbb1528aaed73326129a", "type": "electric_scooter", "lon": -77.03209283333334, "is_reserved": 0, "fusion_lat": 0.0, "fusion_lon": 0.0}, {"name": "16964486ff3a57e69f5b5462ed86b5c1", "is_disabled": 0, "lat": 38.914743666666666, "rental_uris": {"ios": "https://dc.lft.to/lastmile_qr_scan", "android": "https://dc.lft.to/lastmile_qr_scan"}, "bike_id": "16964486ff3a57e69f5b5462ed86b5c1", "type": "electric_scooter", "lon": -77.038479, "is_reserved": 0, "fusion_lat": 0.0, "fusion_lon": 0.0}, {"name": "2dbdac9f4d7fbd663ede9ef8d6d6c707", "is_disabled": 0, "lat": 38.980447166666664, "rental_uris": {"ios": "https://dc.lft.to/lastmile_qr_scan", "android": "https://dc.lft.to/lastmile_qr_scan"}, "bike_id": "2dbdac9f4d7fbd663ede9ef8d6d6c707", "type": "electric_bike", "lon": -76.95787616666667, "is_reserved": 0, "fusion_lat": 0.0, "fusion_lon": 0.0}, {"name": "93cd5e255af38bef817e7efd55dc591f", "is_disabled": 0, "lat": 38.89550533333333, "rental_uris": {"ios": "https://dc.lft.to/lastmile_qr_scan", "android": "https://dc.lft.to/lastmile_qr_scan"}, "bike_id": "93cd5e255af38bef817e7efd55dc591f", "type": "electric_scooter", "lon": -77.00916533333333, "is_reserved": 0, "fusion_lat": 0.0, "fusion_lon": 0.0}, {"name": "5842ffb084d6fc06e5fc92072276fb7b", "is_disabled": 0, "lat": 38.949765666666664, "rental_uris": {"ios": "https://dc.lft.to/lastmile_qr_scan", "android": "https://dc.lft.to/lastmile_qr_scan"}, "bike_id": "5842ffb084d6fc06e5fc92072276fb7b", "type": "electric_scooter", "lon": -77.02447433333333, "is_reserved": 0, "fusion_lat": 0.0, "fusion_lon": 0.0}, {"name": "8008bda7b925e1c34f71a40f1abe5e5f", "is_disabled": 0, "lat": 38.899320833333334, "rental_uris": {"ios": "https://dc.lft.to/lastmile_qr_scan", "android": "https://dc.lft.to/lastmile_qr_scan"}, "bike_id": "8008bda7b925e1c34f71a40f1abe5e5f", "type": "electric_scooter", "lon": -77.01274466666666, "is_reserved": 0, "fusion_lat": 0.0, "fusion_lon": 0.0}, {"name": "bb0612543cd19b69ea3fb81f6883afb0", "is_disabled": 0, "lat": 38.90571833333333, "rental_uris": {"ios": "https://dc.lft.to/lastmile_qr_scan", "android": "https://dc.lft.to/lastmile_qr_scan"}, "bike_id": "bb0612543cd19b69ea3fb81f6883afb0", "type": "electric_scooter", "lon": -77.02207566666667, "is_reserved": 0, "fusion_lat": 0.0, "fusion_lon": 0.0}, {"name": "6098101357fd4897d41730f1d2a3d282", "is_disabled": 0, "lat": 38.89856966666667, "rental_uris": {"ios": "https://dc.lft.to/lastmile_qr_scan", "android": "https://dc.lft.to/lastmile_qr_scan"}, "bike_id": "6098101357fd4897d41730f1d2a3d282", "type": "electric_scooter", "lon": -77.02182066666667, "is_reserved": 0, "fusion_lat": 0.0, "fusion_lon": 0.0}, {"name": "c120d2493052391260628a30b246d642", "is_disabled": 0, "lat": 38.9140105, "rental_uris": {"ios": "https://dc.lft.to/lastmile_qr_scan", "android": "https://dc.lft.to/lastmile_qr_scan"}, "bike_id": "c120d2493052391260628a30b246d642", "type": "electric_scooter", "lon": -77.032095, "is_reserved": 0, "fusion_lat": 0.0, "fusion_lon": 0.0}, {"name": "fd4f126ddda8163e2151bac097bcb5bc", "is_disabled": 0, "lat": 38.938398166666666, "rental_uris": {"ios": "https://dc.lft.to/lastmile_qr_scan", "android": "https://dc.lft.to/lastmile_qr_scan"}, "bike_id": "fd4f126ddda8163e2151bac097bcb5bc", "type": "electric_scooter", "lon": -77.0248335, "is_reserved": 0, "fusion_lat": 0.0, "fusion_lon": 0.0}, {"name": "d09f454cc69656eeed1ab91e55769c69", "is_disabled": 0, "lat": 38.90266416666667, "rental_uris": {"ios": "https://dc.lft.to/lastmile_qr_scan", "android": "https://dc.lft.to/lastmile_qr_scan"}, "bike_id": "d09f454cc69656eeed1ab91e55769c69", "type": "electric_scooter", "lon": -77.0532, "is_reserved": 0, "fusion_lat": 0.0, "fusion_lon": 0.0}, {"name": "8f0299c4169e20f2bbfcabf26a20dc55", "is_disabled": 0, "lat": 38.919234833333334, "rental_uris": {"ios": "https://dc.lft.to/lastmile_qr_scan", "android": "https://dc.lft.to/lastmile_qr_scan"}, "bike_id": "8f0299c4169e20f2bbfcabf26a20dc55", "type": "electric_scooter", "lon": -77.03266433333333, "is_reserved": 0, "fusion_lat": 0.0, "fusion_lon": 0.0}, {"name": "0b591215aa1ef6395caa00f98ef87f20", "is_disabled": 0, "lat": 38.94192483333333, "rental_uris": {"ios": "https://dc.lft.to/lastmile_qr_scan", "android": "https://dc.lft.to/lastmile_qr_scan"}, "bike_id": "0b591215aa1ef6395caa00f98ef87f20", "type": "electric_scooter", "lon": -77.041097, "is_reserved": 0, "fusion_lat": 0.0, "fusion_lon": 0.0}, {"name": "6b4d6fcca29695dd483b1ae0116145ee", "is_disabled": 0, "lat": 38.86243483333333, "rental_uris": {"ios": "https://dc.lft.to/lastmile_qr_scan", "android": "https://dc.lft.to/lastmile_qr_scan"}, "bike_id": "6b4d6fcca29695dd483b1ae0116145ee", "type": "electric_scooter", "lon": -76.994971, "is_reserved": 0, "fusion_lat": 0.0, "fusion_lon": 0.0}, {"name": "62e3a34b331f92679a402a4c5bf2329c", "is_disabled": 0, "lat": 38.90200033333333, "rental_uris": {"ios": "https://dc.lft.to/lastmile_qr_scan", "android": "https://dc.lft.to/lastmile_qr_scan"}, "bike_id": "62e3a34b331f92679a402a4c5bf2329c", "type": "electric_scooter", "lon": -77.02370866666666, "is_reserved": 0, "fusion_lat": 0.0, "fusion_lon": 0.0}, {"name": "788293e566b35e1e041d907bf29b9c52", "is_disabled": 0, "lat": 38.941198666666665, "rental_uris": {"ios": "https://dc.lft.to/lastmile_qr_scan", "android": "https://dc.lft.to/lastmile_qr_scan"}, "bike_id": "788293e566b35e1e041d907bf29b9c52", "type": "electric_scooter", "lon": -77.00043916666667, "is_reserved": 0, "fusion_lat": 0.0, "fusion_lon": 0.0}, {"name": "a150983a8b2d0586f9cd8fc915430d87", "is_disabled": 0, "lat": 38.909255, "rental_uris": {"ios": "https://dc.lft.to/lastmile_qr_scan", "android": "https://dc.lft.to/lastmile_qr_scan"}, "bike_id": "a150983a8b2d0586f9cd8fc915430d87", "type": "electric_scooter", "lon": -77.07361066666667, "is_reserved": 0, "fusion_lat": 0.0, "fusion_lon": 0.0}, {"name": "b4fd9376c0e89707731ba79e305e5461", "is_disabled": 0, "lat": 38.91122266666667, "rental_uris": {"ios": "https://dc.lft.to/lastmile_qr_scan", "android": "https://dc.lft.to/lastmile_qr_scan"}, "bike_id": "b4fd9376c0e89707731ba79e305e5461", "type": "electric_scooter", "lon": -77.03837183333333, "is_reserved": 0, "fusion_lat": 0.0, "fusion_lon": 0.0}, {"name": "be9a17a72415214426e7b22af9577dc8", "is_disabled": 0, "lat": 38.8900475, "rental_uris": {"ios": "https://dc.lft.to/lastmile_qr_scan", "android": "https://dc.lft.to/lastmile_qr_scan"}, "bike_id": "be9a17a72415214426e7b22af9577dc8", "type": "electric_scooter", "lon": -76.937437, "is_reserved": 0, "fusion_lat": 0.0, "fusion_lon": 0.0}, {"name": "4975ce14d42064fe02c6c1541612d964", "is_disabled": 0, "lat": 38.9179505, "rental_uris": {"ios": "https://dc.lft.to/lastmile_qr_scan", "android": "https://dc.lft.to/lastmile_qr_scan"}, "bike_id": "4975ce14d42064fe02c6c1541612d964", "type": "electric_scooter", "lon": -77.04168716666666, "is_reserved": 0, "fusion_lat": 0.0, "fusion_lon": 0.0}, {"name": "3746875c69ee51c74811f0c955304f52", "is_disabled": 0, "lat": 38.937719333333334, "rental_uris": {"ios": "https://dc.lft.to/lastmile_qr_scan", "android": "https://dc.lft.to/lastmile_qr_scan"}, "bike_id": "3746875c69ee51c74811f0c955304f52", "type": "electric_bike", "lon": -77.01911666666666, "is_reserved": 0, "fusion_lat": 0.0, "fusion_lon": 0.0}, {"name": "faf8ebb1e38df182cb6c9acaab661401", "is_disabled": 0, "lat": 38.86344716666667, "rental_uris": {"ios": "https://dc.lft.to/lastmile_qr_scan", "android": "https://dc.lft.to/lastmile_qr_scan"}, "bike_id": "faf8ebb1e38df182cb6c9acaab661401", "type": "electric_bike", "lon": -77.07722133333333, "is_reserved": 0, "fusion_lat": 0.0, "fusion_lon": 0.0}, {"name": "85c523118f4d49ab774655cd031d896f", "is_disabled": 0, "lat": 38.90510716666667, "rental_uris": {"ios": "https://dc.lft.to/lastmile_qr_scan", "android": "https://dc.lft.to/lastmile_qr_scan"}, "bike_id": "85c523118f4d49ab774655cd031d896f", "type": "electric_bike", "lon": -77.04150516666667, "is_reserved": 0, "fusion_lat": 0.0, "fusion_lon": 0.0}, {"name": "18f742037a62cf794189606149669e7b", "is_disabled": 0, "lat": 38.9375825, "rental_uris": {"ios": "https://dc.lft.to/lastmile_qr_scan", "android": "https://dc.lft.to/lastmile_qr_scan"}, "bike_id": "18f742037a62cf794189606149669e7b", "type": "electric_bike", "lon": -76.95825483333333, "is_reserved": 0, "fusion_lat": 0.0, "fusion_lon": 0.0}, {"name": "6717cbbf7a3452b21b6b2142eedb7c31", "is_disabled": 0, "lat": 38.90096283333333, "rental_uris": {"ios": "https://dc.lft.to/lastmile_qr_scan", "android": "https://dc.lft.to/lastmile_qr_scan"}, "bike_id": "6717cbbf7a3452b21b6b2142eedb7c31", "type": "electric_scooter", "lon": -77.04759833333334, "is_reserved": 0, "fusion_lat": 0.0, "fusion_lon": 0.0}, {"name": "9daaad950e53be845e6914926ad91b8f", "is_disabled": 0, "lat": 38.907734166666664, "rental_uris": {"ios": "https://dc.lft.to/lastmile_qr_scan", "android": "https://dc.lft.to/lastmile_qr_scan"}, "bike_id": "9daaad950e53be845e6914926ad91b8f", "type": "electric_scooter", "lon": -76.99713183333333, "is_reserved": 0, "fusion_lat": 0.0, "fusion_lon": 0.0}, {"name": "3f92f37bd011e4ccc444003152e2951d", "is_disabled": 0, "lat": 38.9140325, "rental_uris": {"ios": "https://dc.lft.to/lastmile_qr_scan", "android": "https://dc.lft.to/lastmile_qr_scan"}, "bike_id": "3f92f37bd011e4ccc444003152e2951d", "type": "electric_scooter", "lon": -77.03166533333334, "is_reserved": 0, "fusion_lat": 0.0, "fusion_lon": 0.0}, {"name": "2a1de2b25e47feece759efcbe754d723", "is_disabled": 0, "lat": 38.94495966666667, "rental_uris": {"ios": "https://dc.lft.to/lastmile_qr_scan", "android": "https://dc.lft.to/lastmile_qr_scan"}, "bike_id": "2a1de2b25e47feece759efcbe754d723", "type": "electric_bike", "lon": -77.0068155, "is_reserved": 0, "fusion_lat": 0.0, "fusion_lon": 0.0}, {"name": "b7d1ffd7cca1c18ba9103a549c398d43", "is_disabled": 0, "lat": 38.891889666666664, "rental_uris": {"ios": "https://dc.lft.to/lastmile_qr_scan", "android": "https://dc.lft.to/lastmile_qr_scan"}, "bike_id": "b7d1ffd7cca1c18ba9103a549c398d43", "type": "electric_scooter", "lon": -76.99838783333334, "is_reserved": 0, "fusion_lat": 0.0, "fusion_lon": 0.0}, {"name": "b6867b2c9128635bf982ff3c3b64479d", "is_disabled": 0, "lat": 38.90398283333333, "rental_uris": {"ios": "https://dc.lft.to/lastmile_qr_scan", "android": "https://dc.lft.to/lastmile_qr_scan"}, "bike_id": "b6867b2c9128635bf982ff3c3b64479d", "type": "electric_scooter", "lon": -77.001931, "is_reserved": 0, "fusion_lat": 0.0, "fusion_lon": 0.0}, {"name": "482fd2d3ab0a98022611eafc24011cc1", "is_disabled": 0, "lat": 38.92366666666667, "rental_uris": {"ios": "https://dc.lft.to/lastmile_qr_scan", "android": "https://dc.lft.to/lastmile_qr_scan"}, "bike_id": "482fd2d3ab0a98022611eafc24011cc1", "type": "electric_scooter", "lon": -77.02813583333334, "is_reserved": 0, "fusion_lat": 0.0, "fusion_lon": 0.0}, {"name": "17b05d3cb0034dad40d6e221dfb95ef4", "is_disabled": 0, "lat": 38.91211916666666, "rental_uris": {"ios": "https://dc.lft.to/lastmile_qr_scan", "android": "https://dc.lft.to/lastmile_qr_scan"}, "bike_id": "17b05d3cb0034dad40d6e221dfb95ef4", "type": "electric_scooter", "lon": -77.0386175, "is_reserved": 0, "fusion_lat": 0.0, "fusion_lon": 0.0}, {"name": "838dfd8ae7d3a41fbbce5ded6f35bfa9", "is_disabled": 0, "lat": 38.91937766666667, "rental_uris": {"ios": "https://dc.lft.to/lastmile_qr_scan", "android": "https://dc.lft.to/lastmile_qr_scan"}, "bike_id": "838dfd8ae7d3a41fbbce5ded6f35bfa9", "type": "electric_scooter", "lon": -77.04887833333333, "is_reserved": 0, "fusion_lat": 0.0, "fusion_lon": 0.0}, {"name": "235e177b206aaf2cea6af27b1057a74b", "is_disabled": 0, "lat": 38.924081666666666, "rental_uris": {"ios": "https://dc.lft.to/lastmile_qr_scan", "android": "https://dc.lft.to/lastmile_qr_scan"}, "bike_id": "235e177b206aaf2cea6af27b1057a74b", "type": "electric_scooter", "lon": -77.027088, "is_reserved": 0, "fusion_lat": 0.0, "fusion_lon": 0.0}, {"name": "6540969d93801b9a3a6677a5d4eb1c48", "is_disabled": 0, "lat": 38.921239666666665, "rental_uris": {"ios": "https://dc.lft.to/lastmile_qr_scan", "android": "https://dc.lft.to/lastmile_qr_scan"}, "bike_id": "6540969d93801b9a3a6677a5d4eb1c48", "type": "electric_scooter", "lon": -77.02519883333333, "is_reserved": 0, "fusion_lat": 0.0, "fusion_lon": 0.0}, {"name": "f41c810e2649acb531572d7b27ebf536", "is_disabled": 0, "lat": 38.90950616666667, "rental_uris": {"ios": "https://dc.lft.to/lastmile_qr_scan", "android": "https://dc.lft.to/lastmile_qr_scan"}, "bike_id": "f41c810e2649acb531572d7b27ebf536", "type": "electric_scooter", "lon": -77.02716066666666, "is_reserved": 0, "fusion_lat": 0.0, "fusion_lon": 0.0}, {"name": "39e22b0bbab3a9662425ba5bdb3dde1d", "is_disabled": 0, "lat": 38.89613383333333, "rental_uris": {"ios": "https://dc.lft.to/lastmile_qr_scan", "android": "https://dc.lft.to/lastmile_qr_scan"}, "bike_id": "39e22b0bbab3a9662425ba5bdb3dde1d", "type": "electric_scooter", "lon": -77.0056105, "is_reserved": 0, "fusion_lat": 0.0, "fusion_lon": 0.0}, {"name": "86e6e2f884b51173859c513b02dda479", "is_disabled": 0, "lat": 38.90365666666667, "rental_uris": {"ios": "https://dc.lft.to/lastmile_qr_scan", "android": "https://dc.lft.to/lastmile_qr_scan"}, "bike_id": "86e6e2f884b51173859c513b02dda479", "type": "electric_scooter", "lon": -77.009869, "is_reserved": 0, "fusion_lat": 0.0, "fusion_lon": 0.0}, {"name": "d323b8b27a6e2932610cf9840c0ccfb1", "is_disabled": 0, "lat": 38.950128666666664, "rental_uris": {"ios": "https://dc.lft.to/lastmile_qr_scan", "android": "https://dc.lft.to/lastmile_qr_scan"}, "bike_id": "d323b8b27a6e2932610cf9840c0ccfb1", "type": "electric_scooter", "lon": -77.080775, "is_reserved": 0, "fusion_lat": 0.0, "fusion_lon": 0.0}, {"name": "de044370bbd9eb35bca26cd2a8d19144", "is_disabled": 0, "lat": 38.883741666666666, "rental_uris": {"ios": "https://dc.lft.to/lastmile_qr_scan", "android": "https://dc.lft.to/lastmile_qr_scan"}, "bike_id": "de044370bbd9eb35bca26cd2a8d19144", "type": "electric_scooter", "lon": -76.995217, "is_reserved": 0, "fusion_lat": 0.0, "fusion_lon": 0.0}, {"name": "6f3be94f0b8fcf7e7e3df369f97fa69a", "is_disabled": 0, "lat": 38.892171166666664, "rental_uris": {"ios": "https://dc.lft.to/lastmile_qr_scan", "android": "https://dc.lft.to/lastmile_qr_scan"}, "bike_id": "6f3be94f0b8fcf7e7e3df369f97fa69a", "type": "electric_scooter", "lon": -77.02657233333333, "is_reserved": 0, "fusion_lat": 0.0, "fusion_lon": 0.0}, {"name": "fb1d66ce32806435edc70e51649b5531", "is_disabled": 0, "lat": 38.9171845, "rental_uris": {"ios": "https://dc.lft.to/lastmile_qr_scan", "android": "https://dc.lft.to/lastmile_qr_scan"}, "bike_id": "fb1d66ce32806435edc70e51649b5531", "type": "electric_scooter", "lon": -77.0229325, "is_reserved": 0, "fusion_lat": 0.0, "fusion_lon": 0.0}, {"name": "9ea33e5f1b99c4854b0411275ad48871", "is_disabled": 0, "lat": 38.900404333333334, "rental_uris": {"ios": "https://dc.lft.to/lastmile_qr_scan", "android": "https://dc.lft.to/lastmile_qr_scan"}, "bike_id": "9ea33e5f1b99c4854b0411275ad48871", "type": "electric_scooter", "lon": -77.04190466666667, "is_reserved": 0, "fusion_lat": 0.0, "fusion_lon": 0.0}, {"name": "7e0e7cd7cd540bba76f6a66007ca92a4", "is_disabled": 0, "lat": 38.921979, "rental_uris": {"ios": "https://dc.lft.to/lastmile_qr_scan", "android": "https://dc.lft.to/lastmile_qr_scan"}, "bike_id": "7e0e7cd7cd540bba76f6a66007ca92a4", "type": "electric_scooter", "lon": -77.039732, "is_reserved": 0, "fusion_lat": 0.0, "fusion_lon": 0.0}, {"name": "7e1cc27418f6a535da48fd09aa440ffb", "is_disabled": 0, "lat": 38.941870333333334, "rental_uris": {"ios": "https://dc.lft.to/lastmile_qr_scan", "android": "https://dc.lft.to/lastmile_qr_scan"}, "bike_id": "7e1cc27418f6a535da48fd09aa440ffb", "type": "electric_scooter", "lon": -77.02617583333334, "is_reserved": 0, "fusion_lat": 0.0, "fusion_lon": 0.0}, {"name": "fa8c486781561d58c1e24227b3c762be", "is_disabled": 0, "lat": 38.914378, "rental_uris": {"ios": "https://dc.lft.to/lastmile_qr_scan", "android": "https://dc.lft.to/lastmile_qr_scan"}, "bike_id": "fa8c486781561d58c1e24227b3c762be", "type": "electric_scooter", "lon": -77.02201266666667, "is_reserved": 0, "fusion_lat": 0.0, "fusion_lon": 0.0}, {"name": "ef2e2ccd30a2fc236c4fe89cf54e75a8", "is_disabled": 0, "lat": 38.928529166666664, "rental_uris": {"ios": "https://dc.lft.to/lastmile_qr_scan", "android": "https://dc.lft.to/lastmile_qr_scan"}, "bike_id": "ef2e2ccd30a2fc236c4fe89cf54e75a8", "type": "electric_scooter", "lon": -77.03299816666667, "is_reserved": 0, "fusion_lat": 0.0, "fusion_lon": 0.0}, {"name": "2bef293ea377119ee4c42973776efb26", "is_disabled": 0, "lat": 38.893562333333335, "rental_uris": {"ios": "https://dc.lft.to/lastmile_qr_scan", "android": "https://dc.lft.to/lastmile_qr_scan"}, "bike_id": "2bef293ea377119ee4c42973776efb26", "type": "electric_scooter", "lon": -77.00335, "is_reserved": 0, "fusion_lat": 0.0, "fusion_lon": 0.0}, {"name": "be21681fbcae4b9513dc88ef86cffee6", "is_disabled": 0, "lat": 38.905530166666665, "rental_uris": {"ios": "https://dc.lft.to/lastmile_qr_scan", "android": "https://dc.lft.to/lastmile_qr_scan"}, "bike_id": "be21681fbcae4b9513dc88ef86cffee6", "type": "electric_scooter", "lon": -76.99455366666666, "is_reserved": 0, "fusion_lat": 0.0, "fusion_lon": 0.0}, {"name": "799d0509755c6ddb0b9e564f3141690c", "is_disabled": 0, "lat": 38.91684683333333, "rental_uris": {"ios": "https://dc.lft.to/lastmile_qr_scan", "android": "https://dc.lft.to/lastmile_qr_scan"}, "bike_id": "799d0509755c6ddb0b9e564f3141690c", "type": "electric_scooter", "lon": -77.02278433333333, "is_reserved": 0, "fusion_lat": 0.0, "fusion_lon": 0.0}, {"name": "2f4feb0c7dd5694d3bd07b5770bbca5a", "is_disabled": 0, "lat": 38.876715833333336, "rental_uris": {"ios": "https://dc.lft.to/lastmile_qr_scan", "android": "https://dc.lft.to/lastmile_qr_scan"}, "bike_id": "2f4feb0c7dd5694d3bd07b5770bbca5a", "type": "electric_scooter", "lon": -77.0034765, "is_reserved": 0, "fusion_lat": 0.0, "fusion_lon": 0.0}, {"name": "f8fe7dd8571d114e4272bf59355affc5", "is_disabled": 0, "lat": 38.87376483333333, "rental_uris": {"ios": "https://dc.lft.to/lastmile_qr_scan", "android": "https://dc.lft.to/lastmile_qr_scan"}, "bike_id": "f8fe7dd8571d114e4272bf59355affc5", "type": "electric_scooter", "lon": -77.00129816666667, "is_reserved": 0, "fusion_lat": 0.0, "fusion_lon": 0.0}, {"name": "dcea9cfe2be16e373e2265f1fdf876f9", "is_disabled": 0, "lat": 38.91917616666667, "rental_uris": {"ios": "https://dc.lft.to/lastmile_qr_scan", "android": "https://dc.lft.to/lastmile_qr_scan"}, "bike_id": "dcea9cfe2be16e373e2265f1fdf876f9", "type": "electric_scooter", "lon": -77.03178166666666, "is_reserved": 0, "fusion_lat": 0.0, "fusion_lon": 0.0}, {"name": "f50663033d71b667f80e06c502b6f028", "is_disabled": 0, "lat": 38.84615083333333, "rental_uris": {"ios": "https://dc.lft.to/lastmile_qr_scan", "android": "https://dc.lft.to/lastmile_qr_scan"}, "bike_id": "f50663033d71b667f80e06c502b6f028", "type": "electric_bike", "lon": -76.96917833333333, "is_reserved": 0, "fusion_lat": 0.0, "fusion_lon": 0.0}, {"name": "d7eb65d512464351db44a8ba8f30996b", "is_disabled": 0, "lat": 38.918106333333334, "rental_uris": {"ios": "https://dc.lft.to/lastmile_qr_scan", "android": "https://dc.lft.to/lastmile_qr_scan"}, "bike_id": "d7eb65d512464351db44a8ba8f30996b", "type": "electric_scooter", "lon": -77.03195716666667, "is_reserved": 0, "fusion_lat": 0.0, "fusion_lon": 0.0}, {"name": "1e7ec06530d1411d9f557f73cc0660a1", "is_disabled": 0, "lat": 38.913013666666664, "rental_uris": {"ios": "https://dc.lft.to/lastmile_qr_scan", "android": "https://dc.lft.to/lastmile_qr_scan"}, "bike_id": "1e7ec06530d1411d9f557f73cc0660a1", "type": "electric_scooter", "lon": -77.03178383333334, "is_reserved": 0, "fusion_lat": 0.0, "fusion_lon": 0.0}, {"name": "98caf54c69a5e4c92eaece36f9ac25d5", "is_disabled": 0, "lat": 38.8923405, "rental_uris": {"ios": "https://dc.lft.to/lastmile_qr_scan", "android": "https://dc.lft.to/lastmile_qr_scan"}, "bike_id": "98caf54c69a5e4c92eaece36f9ac25d5", "type": "electric_scooter", "lon": -77.02383016666667, "is_reserved": 0, "fusion_lat": 0.0, "fusion_lon": 0.0}, {"name": "d46dd5e590a005949c152dc013f005d1", "is_disabled": 0, "lat": 38.897648833333335, "rental_uris": {"ios": "https://dc.lft.to/lastmile_qr_scan", "android": "https://dc.lft.to/lastmile_qr_scan"}, "bike_id": "d46dd5e590a005949c152dc013f005d1", "type": "electric_scooter", "lon": -77.03306, "is_reserved": 0, "fusion_lat": 0.0, "fusion_lon": 0.0}, {"name": "5efd3cdd900fee07f83b476703b8d2bc", "is_disabled": 0, "lat": 38.908554, "rental_uris": {"ios": "https://dc.lft.to/lastmile_qr_scan", "android": "https://dc.lft.to/lastmile_qr_scan"}, "bike_id": "5efd3cdd900fee07f83b476703b8d2bc", "type": "electric_scooter", "lon": -77.02725, "is_reserved": 0, "fusion_lat": 0.0, "fusion_lon": 0.0}, {"name": "3157dabfefbab9d0c8eb4cae62cba77d", "is_disabled": 0, "lat": 38.874545833333336, "rental_uris": {"ios": "https://dc.lft.to/lastmile_qr_scan", "android": "https://dc.lft.to/lastmile_qr_scan"}, "bike_id": "3157dabfefbab9d0c8eb4cae62cba77d", "type": "electric_scooter", "lon": -77.00858666666667, "is_reserved": 0, "fusion_lat": 0.0, "fusion_lon": 0.0}, {"name": "d6bc84c28f6c0b15671868da20660f80", "is_disabled": 0, "lat": 38.93917033333334, "rental_uris": {"ios": "https://dc.lft.to/lastmile_qr_scan", "android": "https://dc.lft.to/lastmile_qr_scan"}, "bike_id": "d6bc84c28f6c0b15671868da20660f80", "type": "electric_scooter", "lon": -77.02463116666667, "is_reserved": 0, "fusion_lat": 0.0, "fusion_lon": 0.0}, {"name": "91b0ef7a86d51428252a8b850ad6c196", "is_disabled": 0, "lat": 38.904594833333334, "rental_uris": {"ios": "https://dc.lft.to/lastmile_qr_scan", "android": "https://dc.lft.to/lastmile_qr_scan"}, "bike_id": "91b0ef7a86d51428252a8b850ad6c196", "type": "electric_scooter", "lon": -77.05334666666667, "is_reserved": 0, "fusion_lat": 0.0, "fusion_lon": 0.0}, {"name": "4a91f4f5e63eca115f0bbeb69d5338ab", "is_disabled": 0, "lat": 38.9669985, "rental_uris": {"ios": "https://dc.lft.to/lastmile_qr_scan", "android": "https://dc.lft.to/lastmile_qr_scan"}, "bike_id": "4a91f4f5e63eca115f0bbeb69d5338ab", "type": "electric_bike", "lon": -77.028298, "is_reserved": 0, "fusion_lat": 0.0, "fusion_lon": 0.0}, {"name": "ee87d11bf457d4df16a248cb1978ea67", "is_disabled": 0, "lat": 38.91251316666666, "rental_uris": {"ios": "https://dc.lft.to/lastmile_qr_scan", "android": "https://dc.lft.to/lastmile_qr_scan"}, "bike_id": "ee87d11bf457d4df16a248cb1978ea67", "type": "electric_scooter", "lon": -77.00777683333334, "is_reserved": 0, "fusion_lat": 0.0, "fusion_lon": 0.0}, {"name": "fd896b9ea71b8a5b2d314ad95a80cd5f", "is_disabled": 0, "lat": 38.90991483333333, "rental_uris": {"ios": "https://dc.lft.to/lastmile_qr_scan", "android": "https://dc.lft.to/lastmile_qr_scan"}, "bike_id": "fd896b9ea71b8a5b2d314ad95a80cd5f", "type": "electric_scooter", "lon": -76.99468683333333, "is_reserved": 0, "fusion_lat": 0.0, "fusion_lon": 0.0}, {"name": "71ae6908ed3b488df56f566f475b5879", "is_disabled": 0, "lat": 38.88735466666667, "rental_uris": {"ios": "https://dc.lft.to/lastmile_qr_scan", "android": "https://dc.lft.to/lastmile_qr_scan"}, "bike_id": "71ae6908ed3b488df56f566f475b5879", "type": "electric_scooter", "lon": -77.023834, "is_reserved": 0, "fusion_lat": 0.0, "fusion_lon": 0.0}, {"name": "626bc908f9c3f9dc27cd0e702111a1be", "is_disabled": 0, "lat": 38.90968183333333, "rental_uris": {"ios": "https://dc.lft.to/lastmile_qr_scan", "android": "https://dc.lft.to/lastmile_qr_scan"}, "bike_id": "626bc908f9c3f9dc27cd0e702111a1be", "type": "electric_scooter", "lon": -77.042328, "is_reserved": 0, "fusion_lat": 0.0, "fusion_lon": 0.0},