{"data": {"bikes": [{"rental_uris": {"ios": "https://dc.lft.to/lastmile_qr_scan", "android": "https://dc.lft.to/lastmile_qr_scan"}, "lon": -77.04658233333333, "type": "electric_scooter", "fusion_lat": 0.0, "lat": 38.9055015, "name": "eb63b9bba01cd70649c08a9dc7b9668d", "fusion_lon": 0.0, "bike_id": "eb63b9bba01cd70649c08a9dc7b9668d", "is_disabled": 0, "is_reserved": 0}, {"rental_uris": {"ios": "https://dc.lft.to/lastmile_qr_scan", "android": "https://dc.lft.to/lastmile_qr_scan"}, "lon": -77.0213555, "type": "electric_scooter", "fusion_lat": 0.0, "lat": 38.933042, "name": "1c19a22e6c76ddbb7757c720a47fd7ea", "fusion_lon": 0.0, "bike_id": "1c19a22e6c76ddbb7757c720a47fd7ea", "is_disabled": 0, "is_reserved": 0}, {"rental_uris": {"ios": "https://dc.lft.to/lastmile_qr_scan", "android": "https://dc.lft.to/lastmile_qr_scan"}, "lon": -77.12502783333333, "type": "electric_bike", "fusion_lat": 0.0, "lat": 39.024167, "name": "3ed3618afd5742b84f5760ae9de1d785", "fusion_lon": 0.0, "bike_id": "3ed3618afd5742b84f5760ae9de1d785", "is_disabled": 0, "is_reserved": 0}, {"rental_uris": {"ios": "https://dc.lft.to/lastmile_qr_scan", "android": "https://dc.lft.to/lastmile_qr_scan"}, "lon": -77.024699, "type": "electric_scooter", "fusion_lat": 0.0, "lat": 38.931053, "name": "0072c09360b5661cc6ba1b80c065ec2d", "fusion_lon": 0.0, "bike_id": "0072c09360b5661cc6ba1b80c065ec2d", "is_disabled": 0, "is_reserved": 0}, {"rental_uris": {"ios": "https://dc.lft.to/lastmile_qr_scan", "android": "https://dc.lft.to/lastmile_qr_scan"}, "lon": -77.04515516666666, "type": "electric_scooter", "fusion_lat": 0.0, "lat": 38.91287466666667, "name": "3a3d73a768636fd1206f237362aceea0", "fusion_lon": 0.0, "bike_id": "3a3d73a768636fd1206f237362aceea0", "is_disabled": 0, "is_reserved": 0}, {"rental_uris": {"ios": "https://dc.lft.to/lastmile_qr_scan", "android": "https://dc.lft.to/lastmile_qr_scan"}, "lon": -77.031985, "type": "electric_scooter", "fusion_lat": 0.0, "lat": 38.92284566666667, "name": "11468886553ffd0d19543f96a3d59836", "fusion_lon": 0.0, "bike_id": "11468886553ffd0d19543f96a3d59836", "is_disabled": 0, "is_reserved": 0}, {"rental_uris": {"ios": "https://dc.lft.to/lastmile_qr_scan", "android": "https://dc.lft.to/lastmile_qr_scan"}, "lon": -77.03699116666667, "type": "electric_scooter", "fusion_lat": 0.0, "lat": 38.92628966666667, "name": "99af7cf362dd5be0bce857879e91c9d5", "fusion_lon": 0.0, "bike_id": "99af7cf362dd5be0bce857879e91c9d5", "is_disabled": 0, "is_reserved": 0}, {"rental_uris": {"ios": "https://dc.lft.to/lastmile_qr_scan", "android": "https://dc.lft.to/lastmile_qr_scan"}, "lon": -77.005922, "type": "electric_scooter", "fusion_lat": 0.0, "lat": 38.915634833333336, "name": "c0a177a58337ec2eb3b33794223e3746", "fusion_lon": 0.0, "bike_id": "c0a177a58337ec2eb3b33794223e3746", "is_disabled": 0, "is_reserved": 0}, {"rental_uris": {"ios": "https://dc.lft.to/lastmile_qr_scan", "android": "https://dc.lft.to/lastmile_qr_scan"}, "lon": -77.02404533333333, "type": "electric_scooter", "fusion_lat": 0.0, "lat": 38.93103633333333, "name": "0cf8f0d716d7267875c9b663c1bbe565", "fusion_lon": 0.0, "bike_id": "0cf8f0d716d7267875c9b663c1bbe565", "is_disabled": 0, "is_reserved": 0}, {"rental_uris": {"ios": "https://dc.lft.to/lastmile_qr_scan", "android": "https://dc.lft.to/lastmile_qr_scan"}, "lon": -77.015448, "type": "electric_scooter", "fusion_lat": 0.0, "lat": 38.892022, "name": "b097050b76f07f351abeaefc010067e0", "fusion_lon": 0.0, "bike_id": "b097050b76f07f351abeaefc010067e0", "is_disabled": 0, "is_reserved": 0}, {"rental_uris": {"ios": "https://dc.lft.to/lastmile_qr_scan", "android": "https://dc.lft.to/lastmile_qr_scan"}, "lon": -76.99260483333333, "type": "electric_scooter", "fusion_lat": 0.0, "lat": 38.919740166666664, "name": "73e977266e57925d0c9e7a91ef0f15c0", "fusion_lon": 0.0, "bike_id": "73e977266e57925d0c9e7a91ef0f15c0", "is_disabled": 0, "is_reserved": 0}, {"rental_uris": {"ios": "https://dc.lft.to/lastmile_qr_scan", "android": "https://dc.lft.to/lastmile_qr_scan"}, "lon": -77.02379933333333, "type": "electric_scooter", "fusion_lat": 0.0, "lat": 38.9377715, "name": "60bd554e557d841a71bacfe380b76314", "fusion_lon": 0.0, "bike_id": "60bd554e557d841a71bacfe380b76314", "is_disabled": 0, "is_reserved": 0}, {"rental_uris": {"ios": "https://dc.lft.to/lastmile_qr_scan", "android": "https://dc.lft.to/lastmile_qr_scan"}, "lon": -77.01212083333333, "type": "electric_scooter", "fusion_lat": 0.0, "lat": 38.92121, "name": "3bb1ebf7019fdf1a822bbcd39e36fa1d", "fusion_lon": 0.0, "bike_id": "3bb1ebf7019fdf1a822bbcd39e36fa1d", "is_disabled": 0, "is_reserved": 0}, {"rental_uris": {"ios": "https://dc.lft.to/lastmile_qr_scan", "android": "https://dc.lft.to/lastmile_qr_scan"}, "lon": -77.05744516666667, "type": "electric_scooter", "fusion_lat": 0.0, "lat": 38.93401316666667, "name": "484e830d862446767a811532b92f4370", "fusion_lon": 0.0, "bike_id": "484e830d862446767a811532b92f4370", "is_disabled": 0, "is_reserved": 0}, {"rental_uris": {"ios": "https://dc.lft.to/lastmile_qr_scan", "android": "https://dc.lft.to/lastmile_qr_scan"}, "lon": -77.11525366666666, "type": "electric_bike", "fusion_lat": 0.0, "lat": 38.8549395, "name": "a8574046052de84bdb272aff39d47123", "fusion_lon": 0.0, "bike_id": "a8574046052de84bdb272aff39d47123", "is_disabled": 0, "is_reserved": 0}, {"rental_uris": {"ios": "https://dc.lft.to/lastmile_qr_scan", "android": "https://dc.lft.to/lastmile_qr_scan"}, "lon": -77.03180883333333, "type": "electric_scooter", "fusion_lat": 0.0, "lat": 38.91489816666667, "name": "5f102fc095764309017275d3e2c0e8a0", "fusion_lon": 0.0, "bike_id": "5f102fc095764309017275d3e2c0e8a0", "is_disabled": 0, "is_reserved": 0}, {"rental_uris": {"ios": "https://dc.lft.to/lastmile_qr_scan", "android": "https://dc.lft.to/lastmile_qr_scan"}, "lon": -77.03222116666667, "type": "electric_scooter", "fusion_lat": 0.0, "lat": 38.92001066666667, "name": "57b90344d2f4d1fb00735949287dde0f", "fusion_lon": 0.0, "bike_id": "57b90344d2f4d1fb00735949287dde0f", "is_disabled": 0, "is_reserved": 0}, {"rental_uris": {"ios": "https://dc.lft.to/lastmile_qr_scan", "android": "https://dc.lft.to/lastmile_qr_scan"}, "lon": -77.032033, "type": "electric_scooter", "fusion_lat": 0.0, "lat": 38.88567916666667, "name": "80a7b650752cca49f573753198cb3d7a", "fusion_lon": 0.0, "bike_id": "80a7b650752cca49f573753198cb3d7a", "is_disabled": 0, "is_reserved": 0}, {"rental_uris": {"ios": "https://dc.lft.to/lastmile_qr_scan", "android": "https://dc.lft.to/lastmile_qr_scan"}, "lon": -76.982018, "type": "electric_scooter", "fusion_lat": 0.0, "lat": 38.903896333333336, "name": "96dfc360d39fc3ff041e924be006c695", "fusion_lon": 0.0, "bike_id": "96dfc360d39fc3ff041e924be006c695", "is_disabled": 0, "is_reserved": 0}, {"rental_uris": {"ios": "https://dc.lft.to/lastmile_qr_scan", "android": "https://dc.lft.to/lastmile_qr_scan"}, "lon": -77.0480115, "type": "electric_scooter", "fusion_lat": 0.0, "lat": 38.916430166666665, "name": "cc81aa42016bfe40053ec9f483e836bf", "fusion_lon": 0.0, "bike_id": "cc81aa42016bfe40053ec9f483e836bf", "is_disabled": 0, "is_reserved": 0}, {"rental_uris": {"ios": "https://dc.lft.to/lastmile_qr_scan", "android": "https://dc.lft.to/lastmile_qr_scan"}, "lon": -77.00768216666667, "type": "electric_scooter", "fusion_lat": 0.0, "lat": 38.878576, "name": "4cd27e5edefef3f4326ec8fc8fcfb148", "fusion_lon": 0.0, "bike_id": "4cd27e5edefef3f4326ec8fc8fcfb148", "is_disabled": 0, "is_reserved": 0}, {"rental_uris": {"ios": "https://dc.lft.to/lastmile_qr_scan", "android": "https://dc.lft.to/lastmile_qr_scan"}, "lon": -77.06330983333334, "type": "electric_bike", "fusion_lat": 0.0, "lat": 38.9210985, "name": "4360e9c2dcb8db2086fe0bd97e44b7e4", "fusion_lon": 0.0, "bike_id": "4360e9c2dcb8db2086fe0bd97e44b7e4", "is_disabled": 0, "is_reserved": 0}, {"rental_uris": {"ios": "https://dc.lft.to/lastmile_qr_scan", "android": "https://dc.lft.to/lastmile_qr_scan"}, "lon": -77.01576066666667, "type": "electric_scooter", "fusion_lat": 0.0, "lat": 38.8997785, "name": "b177d41b46c9642b8099ef36192f42f3", "fusion_lon": 0.0, "bike_id": "b177d41b46c9642b8099ef36192f42f3", "is_disabled": 0, "is_reserved": 0}, {"rental_uris": {"ios": "https://dc.lft.to/lastmile_qr_scan", "android": "https://dc.lft.to/lastmile_qr_scan"}, "lon": -77.03215116666667, "type": "electric_scooter", "fusion_lat": 0.0, "lat": 38.916949333333335, "name": "59ffc8b4502874464b0628fe37d122d8", "fusion_lon": 0.0, "bike_id": "59ffc8b4502874464b0628fe37d122d8", "is_disabled": 0, "is_reserved": 0}, {"rental_uris": {"ios": "https://dc.lft.to/lastmile_qr_scan", "android": "https://dc.lft.to/lastmile_qr_scan"}, "lon": -77.02177766666667, "type": "electric_scooter", "fusion_lat": 0.0, "lat": 38.94294883333333, "name": "5eea4089ab26dae90106972c1b9d2a98", "fusion_lon": 0.0, "bike_id": "5eea4089ab26dae90106972c1b9d2a98", "is_disabled": 0, "is_reserved": 0}, {"rental_uris": {"ios": "https://dc.lft.to/lastmile_qr_scan", "android": "https://dc.lft.to/lastmile_qr_scan"}, "lon": -77.04826166666666, "type": "electric_scooter", "fusion_lat": 0.0, "lat": 38.90795283333333, "name": "cc912940bc90aa30151bd507eec6d960", "fusion_lon": 0.0, "bike_id": "cc912940bc90aa30151bd507eec6d960", "is_disabled": 0, "is_reserved": 0}, {"rental_uris": {"ios": "https://dc.lft.to/lastmile_qr_scan", "android": "https://dc.lft.to/lastmile_qr_scan"}, "lon": -77.01362916666666, "type": "electric_scooter", "fusion_lat": 0.0, "lat": 38.86369366666667, "name": "ad23247369a5b202dc691e0ecd664e6b", "fusion_lon": 0.0, "bike_id": "ad23247369a5b202dc691e0ecd664e6b", "is_disabled": 0, "is_reserved": 0}, {"rental_uris": {"ios": "https://dc.lft.to/lastmile_qr_scan", "android": "https://dc.lft.to/lastmile_qr_scan"}, "lon": -76.94634216666667, "type": "electric_scooter", "fusion_lat": 0.0, "lat": 38.898471666666666, "name": "abe41a150c0360c89be1b8863b523ad0", "fusion_lon": 0.0, "bike_id": "abe41a150c0360c89be1b8863b523ad0", "is_disabled": 0, "is_reserved": 0}, {"rental_uris": {"ios": "https://dc.lft.to/lastmile_qr_scan", "android": "https://dc.lft.to/lastmile_qr_scan"}, "lon": -77.05870416666667, "type": "electric_scooter", "fusion_lat": 0.0, "lat": 38.9360755, "name": "8ecc2a1eccf6cb08081fe03a847efed3", "fusion_lon": 0.0, "bike_id": "8ecc2a1eccf6cb08081fe03a847efed3", "is_disabled": 0, "is_reserved": 0}, {"rental_uris": {"ios": "https://dc.lft.to/lastmile_qr_scan", "android": "https://dc.lft.to/lastmile_qr_scan"}, "lon": -77.06039916666667, "type": "electric_scooter", "fusion_lat": 0.0, "lat": 38.93913033333333, "name": "aa40f87a1908935f0360363df9f57da4", "fusion_lon": 0.0, "bike_id": "aa40f87a1908935f0360363df9f57da4", "is_disabled": 0, "is_reserved": 0}, {"rental_uris": {"ios": "https://dc.lft.to/lastmile_qr_scan", "android": "https://dc.lft.to/lastmile_qr_scan"}, "lon": -77.0359, "type": "electric_scooter", "fusion_lat": 0.0, "lat": 38.93228383333334, "name": "79bfdc0d77e42fe4a53b63d91a902f5c", "fusion_lon": 0.0, "bike_id": "79bfdc0d77e42fe4a53b63d91a902f5c", "is_disabled": 0, "is_reserved": 0}, {"rental_uris": {"ios": "https://dc.lft.to/lastmile_qr_scan", "android": "https://dc.lft.to/lastmile_qr_scan"}, "lon": -77.03352583333333, "type": "electric_scooter", "fusion_lat": 0.0, "lat": 38.9170575, "name": "cfcc07a07efa4c57e376ef15e0c97d2a", "fusion_lon": 0.0, "bike_id": "cfcc07a07efa4c57e376ef15e0c97d2a", "is_disabled": 0, "is_reserved": 0}, {"rental_uris": {"ios": "https://dc.lft.to/lastmile_qr_scan", "android": "https://dc.lft.to/lastmile_qr_scan"}, "lon": -77.04587266666667, "type": "electric_scooter", "fusion_lat": 0.0, "lat": 38.921326, "name": "1452ca01b054374e292bb071d3874970", "fusion_lon": 0.0, "bike_id": "1452ca01b054374e292bb071d3874970", "is_disabled": 0, "is_reserved": 0}, {"rental_uris": {"ios": "https://dc.lft.to/lastmile_qr_scan", "android": "https://dc.lft.to/lastmile_qr_scan"}, "lon": -76.9732955, "type": "electric_scooter", "fusion_lat": 0.0, "lat": 38.917773, "name": "02893fd97cb91ea74d07f43221c5fd42", "fusion_lon": 0.0, "bike_id": "02893fd97cb91ea74d07f43221c5fd42", "is_disabled": 0, "is_reserved": 0}, {"rental_uris": {"ios": "https://dc.lft.to/lastmile_qr_scan", "android": "https://dc.lft.to/lastmile_qr_scan"}, "lon": -77.01296083333334, "type": "electric_bike", "fusion_lat": 0.0, "lat": 38.88126483333333, "name": "1c56dd369ac120a7535c543b5abfc29e", "fusion_lon": 0.0, "bike_id": "1c56dd369ac120a7535c543b5abfc29e", "is_disabled": 0, "is_reserved": 0}, {"rental_uris": {"ios": "https://dc.lft.to/lastmile_qr_scan", "android": "https://dc.lft.to/lastmile_qr_scan"}, "lon": -77.02439433333333, "type": "electric_scooter", "fusion_lat": 0.0, "lat": 38.92069766666667, "name": "be6bede277ab3765c0a9fc8b82ebe5b1", "fusion_lon": 0.0, "bike_id": "be6bede277ab3765c0a9fc8b82ebe5b1", "is_disabled": 0, "is_reserved": 0}, {"rental_uris": {"ios": "https://dc.lft.to/lastmile_qr_scan", "android": "https://dc.lft.to/lastmile_qr_scan"}, "lon": -77.01536316666666, "type": "electric_scooter", "fusion_lat": 0.0, "lat": 38.8872995, "name": "4681fb553000725676b37f26a287aa67", "fusion_lon": 0.0, "bike_id": "4681fb553000725676b37f26a287aa67", "is_disabled": 0, "is_reserved": 0}, {"rental_uris": {"ios": "https://dc.lft.to/lastmile_qr_scan", "android": "https://dc.lft.to/lastmile_qr_scan"}, "lon": -77.005806, "type": "electric_scooter", "fusion_lat": 0.0, "lat": 38.84494566666667, "name": "59236820e1eef3717d36d0a1364d60df", "fusion_lon": 0.0, "bike_id": "59236820e1eef3717d36d0a1364d60df", "is_disabled": 0, "is_reserved": 0}, {"rental_uris": {"ios": "https://dc.lft.to/lastmile_qr_scan", "android": "https://dc.lft.to/lastmile_qr_scan"}, "lon": -77.03154983333333, "type": "electric_scooter", "fusion_lat": 0.0, "lat": 38.945368333333334, "name": "943111e151c24496e0ebc5c318a65ee1", "fusion_lon": 0.0, "bike_id": "943111e151c24496e0ebc5c318a65ee1", "is_disabled": 0, "is_reserved": 0}, {"rental_uris": {"ios": "https://dc.lft.to/lastmile_qr_scan", "android": "https://dc.lft.to/lastmile_qr_scan"}, "lon": -77.0451225, "type": "electric_scooter", "fusion_lat": 0.0, "lat": 38.91293733333333, "name": "c8b5e1814ffadc14913605952c84476d", "fusion_lon": 0.0, "bike_id": "c8b5e1814ffadc14913605952c84476d", "is_disabled": 0, "is_reserved": 0}, {"rental_uris": {"ios": "https://dc.lft.to/lastmile_qr_scan", "android": "https://dc.lft.to/lastmile_qr_scan"}, "lon": -77.0242605, "type": "electric_scooter", "fusion_lat": 0.0, "lat": 38.90226033333333, "name": "df64ebc9e37ceaf89aee50c904dfab96", "fusion_lon": 0.0, "bike_id": "df64ebc9e37ceaf89aee50c904dfab96", "is_disabled": 0, "is_reserved": 0}, {"rental_uris": {"ios": "https://dc.lft.to/lastmile_qr_scan", "android": "https://dc.lft.to/lastmile_qr_scan"}, "lon": -77.043178, "type": "electric_scooter", "fusion_lat": 0.0, "lat": 38.918818333333334, "name": "88e2a5d82cca271d71e77d67f67f1b9d", "fusion_lon": 0.0, "bike_id": "88e2a5d82cca271d71e77d67f67f1b9d", "is_disabled": 0, "is_reserved": 0}, {"rental_uris": {"ios": "https://dc.lft.to/lastmile_qr_scan", "android": "https://dc.lft.to/lastmile_qr_scan"}, "lon": -77.01013183333333, "type": "electric_scooter", "fusion_lat": 0.0, "lat": 38.9068715, "name": "aae3473839ec93308746cf335cab7715", "fusion_lon": 0.0, "bike_id": "aae3473839ec93308746cf335cab7715", "is_disabled": 0, "is_reserved": 0}, {"rental_uris": {"ios": "https://dc.lft.to/lastmile_qr_scan", "android": "https://dc.lft.to/lastmile_qr_scan"}, "lon": -77.024549, "type": "electric_scooter", "fusion_lat": 0.0, "lat": 38.908567, "name": "5007529a2e4115bc34ca05ac409a63ce", "fusion_lon": 0.0, "bike_id": "5007529a2e4115bc34ca05ac409a63ce", "is_disabled": 0, "is_reserved": 0}, {"rental_uris": {"ios": "https://dc.lft.to/lastmile_qr_scan", "android": "https://dc.lft.to/lastmile_qr_scan"}, "lon": -77.03453016666667, "type": "electric_scooter", "fusion_lat": 0.0, "lat": 38.90269416666667, "name": "eadc9b88fd37bb14e068f00377dd3629", "fusion_lon": 0.0, "bike_id": "eadc9b88fd37bb14e068f00377dd3629", "is_disabled": 0, "is_reserved": 0}, {"rental_uris": {"ios": "https://dc.lft.to/lastmile_qr_scan", "android": "https://dc.lft.to/lastmile_qr_scan"}, "lon": -77.023864, "type": "electric_scooter", "fusion_lat": 0.0, "lat": 38.9360665, "name": "79ad1e69452fa41174f5c31843e165db", "fusion_lon": 0.0, "bike_id": "79ad1e69452fa41174f5c31843e165db", "is_disabled": 0, "is_reserved": 0}, {"rental_uris": {"ios": "https://dc.lft.to/lastmile_qr_scan", "android": "https://dc.lft.to/lastmile_qr_scan"}, "lon": -77.01371433333334, "type": "electric_scooter", "fusion_lat": 0.0, "lat": 38.886512, "name": "85e45dfed34d8dd45704774c2f4f94d9", "fusion_lon": 0.0, "bike_id": "85e45dfed34d8dd45704774c2f4f94d9", "is_disabled": 0, "is_reserved": 0}, {"rental_uris": {"ios": "https://dc.lft.to/lastmile_qr_scan", "android": "https://dc.lft.to/lastmile_qr_scan"}, "lon": -77.0525125, "type": "electric_scooter", "fusion_lat": 0.0, "lat": 38.934307833333335, "name": "4c62acc2926e68e63c6fe7764cccfb56", "fusion_lon": 0.0, "bike_id": "4c62acc2926e68e63c6fe7764cccfb56", "is_disabled": 0, "is_reserved": 0}, {"rental_uris": {"ios": "https://dc.lft.to/lastmile_qr_scan", "android": "https://dc.lft.to/lastmile_qr_scan"}, "lon": -77.03847466666667, "type": "electric_scooter", "fusion_lat": 0.0, "lat": 38.9093695, "name": "0f9e652f08c5e06c7a3e30ab75b36ac7", "fusion_lon": 0.0, "bike_id": "0f9e652f08c5e06c7a3e30ab75b36ac7", "is_disabled": 0, "is_reserved": 0}, {"rental_uris": {"ios": "https://dc.lft.to/lastmile_qr_scan", "android": "https://dc.lft.to/lastmile_qr_scan"}, "lon": -77.0429, "type": "electric_scooter", "fusion_lat": 0.0, "lat": 38.89536233333333, "name": "b21ea8a4a77a628229b308f93cfd0a7e", "fusion_lon": 0.0, "bike_id": "b21ea8a4a77a628229b308f93cfd0a7e", "is_disabled": 0, "is_reserved": 0}, {"rental_uris": {"ios": "https://dc.lft.to/lastmile_qr_scan", "android": "https://dc.lft.to/lastmile_qr_scan"}, "lon": -77.0286805, "type": "electric_scooter", "fusion_lat": 0.0, "lat": 38.90872266666667, "name": "0cd7326a5f80b2344a53d73dac8ad62c", "fusion_lon": 0.0, "bike_id": "0cd7326a5f80b2344a53d73dac8ad62c", "is_disabled": 0, "is_reserved": 0}, {"rental_uris": {"ios": "https://dc.lft.to/lastmile_qr_scan", "android": "https://dc.lft.to/lastmile_qr_scan"}, "lon": -77.00209766666667, "type": "electric_scooter", "fusion_lat": 0.0, "lat": 38.900234166666664, "name": "ff3d4f26b75e63527128df29d53b49d1", "fusion_lon": 0.0, "bike_id": "ff3d4f26b75e63527128df29d53b49d1", "is_disabled": 0, "is_reserved": 0}, {"rental_uris": {"ios": "https://dc.lft.to/lastmile_qr_scan", "android": "https://dc.lft.to/lastmile_qr_scan"}, "lon": -77.03283866666666, "type": "electric_scooter", "fusion_lat": 0.0, "lat": 38.93882, "name": "33c90c2cb36718a11f8d8c2608034812", "fusion_lon": 0.0, "bike_id": "33c90c2cb36718a11f8d8c2608034812", "is_disabled": 0, "is_reserved": 0}, {"rental_uris": {"ios": "https://dc.lft.to/lastmile_qr_scan", "android": "https://dc.lft.to/lastmile_qr_scan"}, "lon": -76.931734, "type": "electric_scooter", "fusion_lat": 0.0, "lat": 38.898854166666666, "name": "e899842104a7302c70593e00a57c332d", "fusion_lon": 0.0, "bike_id": "e899842104a7302c70593e00a57c332d", "is_disabled": 0, "is_reserved": 0}, {"rental_uris": {"ios": "https://dc.lft.to/lastmile_qr_scan", "android": "https://dc.lft.to/lastmile_qr_scan"}, "lon": -76.9799465, "type": "electric_bike", "fusion_lat": 0.0, "lat": 38.9002475, "name": "2a655a53c659a9bca53e4bbbaee7af2e", "fusion_lon": 0.0, "bike_id": "2a655a53c659a9bca53e4bbbaee7af2e", "is_disabled": 0, "is_reserved": 0}, {"rental_uris": {"ios": "https://dc.lft.to/lastmile_qr_scan", "android": "https://dc.lft.to/lastmile_qr_scan"}, "lon": -77.03665816666667, "type": "electric_scooter", "fusion_lat": 0.0, "lat": 38.918733333333336, "name": "b43ef6a836762af024f672125352dd90", "fusion_lon": 0.0, "bike_id": "b43ef6a836762af024f672125352dd90", "is_disabled": 0, "is_reserved": 0}, {"rental_uris": {"ios": "https://dc.lft.to/lastmile_qr_scan", "android": "https://dc.lft.to/lastmile_qr_scan"}, "lon": -76.959016, "type": "electric_scooter", "fusion_lat": 0.0, "lat": 38.9269325, "name": "82d5dc85574720ef13c0730ce2b39158", "fusion_lon": 0.0, "bike_id": "82d5dc85574720ef13c0730ce2b39158", "is_disabled": 0, "is_reserved": 0}, {"rental_uris": {"ios": "https://dc.lft.to/lastmile_qr_scan", "android": "https://dc.lft.to/lastmile_qr_scan"}, "lon": -77.01096166666666, "type": "electric_scooter", "fusion_lat": 0.0, "lat": 38.90348733333333, "name": "286f9176eaaa87f80d6452e79e5d1e32", "fusion_lon": 0.0, "bike_id": "286f9176eaaa87f80d6452e79e5d1e32", "is_disabled": 0, "is_reserved": 0}, {"rental_uris": {"ios": "https://dc.lft.to/lastmile_qr_scan", "android": "https://dc.lft.to/lastmile_qr_scan"}, "lon": -77.04884766666666, "type": "electric_scooter", "fusion_lat": 0.0, "lat": 38.90585566666667, "name": "3654665883d5a1f30bbc575f3b5593a4", "fusion_lon": 0.0, "bike_id": "3654665883d5a1f30bbc575f3b5593a4", "is_disabled": 0, "is_reserved": 0}, {"rental_uris": {"ios": "https://dc.lft.to/lastmile_qr_scan", "android": "https://dc.lft.to/lastmile_qr_scan"}, "lon": -77.04412283333333, "type": "electric_scooter", "fusion_lat": 0.0, "lat": 38.913179666666665, "name": "c40b2c6eea0ebdaf01831f198d7b65bd", "fusion_lon": 0.0, "bike_id": "c40b2c6eea0ebdaf01831f198d7b65bd", "is_disabled": 0, "is_reserved": 0}, {"rental_uris": {"ios": "https://dc.lft.to/lastmile_qr_scan", "android": "https://dc.lft.to/lastmile_qr_scan"}, "lon": -77.01317933333333, "type": "electric_scooter", "fusion_lat": 0.0, "lat": 38.897441, "name": "8434454880368b28c0ffe5ed4cfb7094", "fusion_lon": 0.0, "bike_id": "8434454880368b28c0ffe5ed4cfb7094", "is_disabled": 0, "is_reserved": 0}, {"rental_uris": {"ios": "https://dc.lft.to/lastmile_qr_scan", "android": "https://dc.lft.to/lastmile_qr_scan"}, "lon": -76.95190866666667, "type": "electric_bike", "fusion_lat": 0.0, "lat": 38.90685766666667, "name": "28c4370b3b7190040c7a461a277efa3e", "fusion_lon": 0.0, "bike_id": "28c4370b3b7190040c7a461a277efa3e", "is_disabled": 0, "is_reserved": 0}, {"rental_uris": {"ios": "https://dc.lft.to/lastmile_qr_scan", "android": "https://dc.lft.to/lastmile_qr_scan"}, "lon": -77.03773433333333, "type": "electric_scooter", "fusion_lat": 0.0, "lat": 38.93017316666667, "name": "f9e3d495b5b0cf66f3f2d202e7fb33c1", "fusion_lon": 0.0, "bike_id": "f9e3d495b5b0cf66f3f2d202e7fb33c1", "is_disabled": 0, "is_reserved": 0}, {"rental_uris": {"ios": "https://dc.lft.to/lastmile_qr_scan", "android": "https://dc.lft.to/lastmile_qr_scan"}, "lon": -76.95740483333333, "type": "electric_scooter", "fusion_lat": 0.0, "lat": 38.89215466666667, "name": "ef44f236cbb1d216b71b097483367156", "fusion_lon": 0.0, "bike_id": "ef44f236cbb1d216b71b097483367156", "is_disabled": 0, "is_reserved": 0}, {"rental_uris": {"ios": "https://dc.lft.to/lastmile_qr_scan", "android": "https://dc.lft.to/lastmile_qr_scan"}, "lon": -77.03510483333334, "type": "electric_scooter", "fusion_lat": 0.0, "lat": 38.921511833333334, "name": "21911d02d892c50dc09eb14e03095440", "fusion_lon": 0.0, "bike_id": "21911d02d892c50dc09eb14e03095440", "is_disabled": 0, "is_reserved": 0}, {"rental_uris": {"ios": "https://dc.lft.to/lastmile_qr_scan", "android": "https://dc.lft.to/lastmile_qr_scan"}, "lon": -77.0487125, "type": "electric_scooter", "fusion_lat": 0.0, "lat": 38.90298766666667, "name": "1daeced7c34232386073b942096fbf5c", "fusion_lon": 0.0, "bike_id": "1daeced7c34232386073b942096fbf5c", "is_disabled": 0, "is_reserved": 0}, {"rental_uris": {"ios": "https://dc.lft.to/lastmile_qr_scan", "android": "https://dc.lft.to/lastmile_qr_scan"}, "lon": -77.131787, "type": "electric_bike", "fusion_lat": 0.0, "lat": 38.86914183333333, "name": "9266235013cea8ee2fb072d54f2b7061", "fusion_lon": 0.0, "bike_id": "9266235013cea8ee2fb072d54f2b7061", "is_disabled": 0, "is_reserved": 0}, {"rental_uris": {"ios": "https://dc.lft.to/lastmile_qr_scan", "android": "https://dc.lft.to/lastmile_qr_scan"}, "lon": -77.03628116666667, "type": "electric_scooter", "fusion_lat": 0.0, "lat": 38.93689766666667, "name": "5e105f909899dbaa23235cd477da6d5a", "fusion_lon": 0.0, "bike_id": "5e105f909899dbaa23235cd477da6d5a", "is_disabled": 0, "is_reserved": 0}, {"rental_uris": {"ios": "https://dc.lft.to/lastmile_qr_scan", "android": "https://dc.lft.to/lastmile_qr_scan"}, "lon": -77.05067266666667, "type": "electric_scooter", "fusion_lat": 0.0, "lat": 38.90041683333333, "name": "d799c1e629772e36d26b3fd405c5050c", "fusion_lon": 0.0, "bike_id": "d799c1e629772e36d26b3fd405c5050c", "is_disabled": 0, "is_reserved": 0}, {"rental_uris": {"ios": "https://dc.lft.to/lastmile_qr_scan", "android": "https://dc.lft.to/lastmile_qr_scan"}, "lon": -76.974255, "type": "electric_bike", "fusion_lat": 0.0, "lat": 38.8641315, "name": "9f10cc0d615a9059fda74e2137998eeb", "fusion_lon": 0.0, "bike_id": "9f10cc0d615a9059fda74e2137998eeb", "is_disabled": 0, "is_reserved": 0}, {"rental_uris": {"ios": "https://dc.lft.to/lastmile_qr_scan", "android": "https://dc.lft.to/lastmile_qr_scan"}, "lon": -77.053299, "type": "electric_scooter", "fusion_lat": 0.0, "lat": 38.90293916666667, "name": "c0a7b2a4b99771aa922b77dea7b31869", "fusion_lon": 0.0, "bike_id": "c0a7b2a4b99771aa922b77dea7b31869", "is_disabled": 0, "is_reserved": 0}, {"rental_uris": {"ios": "https://dc.lft.to/lastmile_qr_scan", "android": "https://dc.lft.to/lastmile_qr_scan"}, "lon": -76.97728633333334, "type": "electric_scooter", "fusion_lat": 0.0, "lat": 38.872882, "name": "fe74d10846596eb8977bb19e52fabfc5", "fusion_lon": 0.0, "bike_id": "fe74d10846596eb8977bb19e52fabfc5", "is_disabled": 0, "is_reserved": 0}, {"rental_uris": {"ios": "https://dc.lft.to/lastmile_qr_scan", "android": "https://dc.lft.to/lastmile_qr_scan"}, "lon": -77.03784716666667, "type": "electric_bike", "fusion_lat": 0.0, "lat": 38.99670016666666, "name": "4aa50039b160da009ef9f9aa60d1f0e0", "fusion_lon": 0.0, "bike_id": "4aa50039b160da009ef9f9aa60d1f0e0", "is_disabled": 0, "is_reserved": 0}, {"rental_uris": {"ios": "https://dc.lft.to/lastmile_qr_scan", "android": "https://dc.lft.to/lastmile_qr_scan"}, "lon": -77.01512366666667, "type": "electric_scooter", "fusion_lat": 0.0, "lat": 38.89813, "name": "36bcb1d5fda3e9eeeb24c77946f59e7e", "fusion_lon": 0.0, "bike_id": "36bcb1d5fda3e9eeeb24c77946f59e7e", "is_disabled": 0, "is_reserved": 0}, {"rental_uris": {"ios": "https://dc.lft.to/lastmile_qr_scan", "android": "https://dc.lft.to/lastmile_qr_scan"}, "lon": -76.997746, "type": "electric_scooter", "fusion_lat": 0.0, "lat": 38.844243666666664, "name": "84126a2551881c17f48be51b4be732be", "fusion_lon": 0.0, "bike_id": "84126a2551881c17f48be51b4be732be", "is_disabled": 0, "is_reserved": 0}, {"rental_uris": {"ios": "https://dc.lft.to/lastmile_qr_scan", "android": "https://dc.lft.to/lastmile_qr_scan"}, "lon": -77.04114583333333, "type": "electric_scooter", "fusion_lat": 0.0, "lat": 38.905793, "name": "af94f80a6e9c3c0868a1b961d3d03c99", "fusion_lon": 0.0, "bike_id": "af94f80a6e9c3c0868a1b961d3d03c99", "is_disabled": 0, "is_reserved": 0}, {"rental_uris": {"ios": "https://dc.lft.to/lastmile_qr_scan", "android": "https://dc.lft.to/lastmile_qr_scan"}, "lon": -76.949849, "type": "electric_scooter", "fusion_lat": 0.0, "lat": 38.89361666666667, "name": "d72dac5fa15a4306e85fabfc1525bb31", "fusion_lon": 0.0, "bike_id": "d72dac5fa15a4306e85fabfc1525bb31", "is_disabled": 0, "is_reserved": 0}, {"rental_uris": {"ios": "https://dc.lft.to/lastmile_qr_scan", "android": "https://dc.lft.to/lastmile_qr_scan"}, "lon": -77.002347, "type": "electric_scooter", "fusion_lat": 0.0, "lat": 38.908500333333336, "name": "2e3285c606ab0cc6b7880003060f54f1", "fusion_lon": 0.0, "bike_id": "2e3285c606ab0cc6b7880003060f54f1", "is_disabled": 0, "is_reserved": 0}, {"rental_uris": {"ios": "https://dc.lft.to/lastmile_qr_scan", "android": "https://dc.lft.to/lastmile_qr_scan"}, "lon": -77.02950433333334, "type": "electric_scooter", "fusion_lat": 0.0, "lat": 38.90050333333333, "name": "ec16156ab877931c0d8422bdbc4c5b25", "fusion_lon": 0.0, "bike_id": "ec16156ab877931c0d8422bdbc4c5b25", "is_disabled": 0, "is_reserved": 0}, {"rental_uris": {"ios": "https://dc.lft.to/lastmile_qr_scan", "android": "https://dc.lft.to/lastmile_qr_scan"}, "lon": -77.01865433333333, "type": "electric_scooter", "fusion_lat": 0.0, "lat": 38.91573483333333, "name": "70dc1f5ffbc07fc590ab676ac6f7188c", "fusion_lon": 0.0, "bike_id": "70dc1f5ffbc07fc590ab676ac6f7188c", "is_disabled": 0, "is_reserved": 0}, {"rental_uris": {"ios": "https://dc.lft.to/lastmile_qr_scan", "android": "https://dc.lft.to/lastmile_qr_scan"}, "lon": -77.03584966666666, "type": "electric_scooter", "fusion_lat": 0.0, "lat": 38.93239716666667, "name": "cfcf937d2632b76f4b30835619637b65", "fusion_lon": 0.0, "bike_id": "cfcf937d2632b76f4b30835619637b65", "is_disabled": 0, "is_reserved": 0}, {"rental_uris": {"ios": "https://dc.lft.to/lastmile_qr_scan", "android": "https://dc.lft.to/lastmile_qr_scan"}, "lon": -77.0000655, "type": "electric_bike", "fusion_lat": 0.0, "lat": 38.923986, "name": "5acb708251fa87579696b80e3b9da601", "fusion_lon": 0.0, "bike_id": "5acb708251fa87579696b80e3b9da601", "is_disabled": 0, "is_reserved": 0}, {"rental_uris": {"ios": "https://dc.lft.to/lastmile_qr_scan", "android": "https://dc.lft.to/lastmile_qr_scan"}, "lon": -77.0386355, "type": "electric_scooter", "fusion_lat": 0.0, "lat": 38.94203, "name": "e51a38413e97cef51e10d3b10e10e4d0", "fusion_lon": 0.0, "bike_id": "e51a38413e97cef51e10d3b10e10e4d0", "is_disabled": 0, "is_reserved": 0}, {"rental_uris": {"ios": "https://dc.lft.to/lastmile_qr_scan", "android": "https://dc.lft.to/lastmile_qr_scan"}, "lon": -76.99000383333333, "type": "electric_scooter", "fusion_lat": 0.0, "lat": 38.865024, "name": "5ab63c40043c969ccf47ca538d389365", "fusion_lon": 0.0, "bike_id": "5ab63c40043c969ccf47ca538d389365", "is_disabled": 0, "is_reserved": 0}, {"rental_uris": {"ios": "https://dc.lft.to/lastmile_qr_scan", "android": "https://dc.lft.to/lastmile_qr_scan"}, "lon": -77.02488583333333, "type": "electric_scooter", "fusion_lat": 0.0, "lat": 38.94186633333333, "name": "15f1bf8bd50e4c1478cb41508155c833", "fusion_lon": 0.0, "bike_id": "15f1bf8bd50e4c1478cb41508155c833", "is_disabled": 0, "is_reserved": 0}, {"rental_uris": {"ios": "https://dc.lft.to/lastmile_qr_scan", "android": "https://dc.lft.to/lastmile_qr_scan"}, "lon": -77.00594883333333, "type": "electric_scooter", "fusion_lat": 0.0, "lat": 38.90572133333333, "name": "348725266253badc3e29347928bec6e7", "fusion_lon": 0.0, "bike_id": "348725266253badc3e29347928bec6e7", "is_disabled": 0, "is_reserved": 0}, {"rental_uris": {"ios": "https://dc.lft.to/lastmile_qr_scan", "android": "https://dc.lft.to/lastmile_qr_scan"}, "lon": -77.03254816666667, "type": "electric_scooter", "fusion_lat": 0.0, "lat": 38.912677333333335, "name": "e438ecc7f4ef68ef4e1e3d2c84997403", "fusion_lon": 0.0, "bike_id": "e438ecc7f4ef68ef4e1e3d2c84997403", "is_disabled": 0, "is_reserved": 0}, {"rental_uris": {"ios": "https://dc.lft.to/lastmile_qr_scan", "android": "https://dc.lft.to/lastmile_qr_scan"}, "lon": -77.04881816666666, "type": "electric_scooter", "fusion_lat": 0.0, "lat": 38.90595283333333, "name": "ec863f0eca9b94f29f90a9722171d49a", "fusion_lon": 0.0, "bike_id": "ec863f0eca9b94f29f90a9722171d49a", "is_disabled": 0, "is_reserved": 0}, {"rental_uris": {"ios": "https://dc.lft.to/lastmile_qr_scan", "android": "https://dc.lft.to/lastmile_qr_scan"}, "lon": -77.0387205, "type": "electric_scooter", "fusion_lat": 0.0, "lat": 38.91567766666667, "name": "957da4b2123dd511c35ae828e960e71e", "fusion_lon": 0.0, "bike_id": "957da4b2123dd511c35ae828e960e71e", "is_disabled": 0, "is_reserved": 0}, {"rental_uris": {"ios": "https://dc.lft.to/lastmile_qr_scan", "android": "https://dc.lft.to/lastmile_qr_scan"}, "lon": -77.0423895, "type": "electric_scooter", "fusion_lat": 0.0, "lat": 38.92159233333334, "name": "ccbd8c9a6475c6a368903736199aa025", "fusion_lon": 0.0, "bike_id": "ccbd8c9a6475c6a368903736199aa025", "is_disabled": 0, "is_reserved": 0}, {"rental_uris": {"ios": "https://dc.lft.to/lastmile_qr_scan", "android": "https://dc.lft.to/lastmile_qr_scan"}, "lon": -77.03673533333334, "type": "electric_scooter", "fusion_lat": 0.0, "lat": 38.917084333333335, "name": "2e9460dff501bdb095d3f59479159220", "fusion_lon": 0.0, "bike_id": "2e9460dff501bdb095d3f59479159220", "is_disabled": 0, "is_reserved": 0}, {"rental_uris": {"ios": "https://dc.lft.to/lastmile_qr_scan", "android": "https://dc.lft.to/lastmile_qr_scan"}, "lon": -77.06112883333333, "type": "electric_scooter", "fusion_lat": 0.0, "lat": 38.91299433333333, "name": "dd061f3b5b5c4c2a92447da51b420bed", "fusion_lon": 0.0, "bike_id": "dd061f3b5b5c4c2a92447da51b420bed", "is_disabled": 0, "is_reserved": 0}, {"rental_uris": {"ios": "https://dc.lft.to/lastmile_qr_scan", "android": "https://dc.lft.to/lastmile_qr_scan"}, "lon": -77.00318333333334, "type": "electric_scooter", "fusion_lat": 0.0, "lat": 38.894907333333336, "name": "70c805a18bb5390863b743d5158dce81", "fusion_lon": 0.0, "bike_id": "70c805a18bb5390863b743d5158dce81", "is_disabled": 0, "is_reserved": 0}, {"rental_uris": {"ios": "https://dc.lft.to/lastmile_qr_scan", "android": "https://dc.lft.to/lastmile_qr_scan"}, "lon": -77.019691, "type": "electric_scooter", "fusion_lat": 0.0, "lat": 38.93414383333333, "name": "8cabf88cb4796eb2a5c776d26632db70", "fusion_lon": 0.0, "bike_id": "8cabf88cb4796eb2a5c776d26632db70", "is_disabled": 0, "is_reserved": 0}, {"rental_uris": {"ios": "https://dc.lft.to/lastmile_qr_scan", "android": "https://dc.lft.to/lastmile_qr_scan"}, "lon": -77.03659866666666, "type": "electric_scooter", "fusion_lat": 0.0, "lat": 38.92124333333334, "name": "1d83930e5462f49263c9fa9588b71b00", "fusion_lon": 0.0, "bike_id": "1d83930e5462f49263c9fa9588b71b00", "is_disabled": 0, "is_reserved": 0}, {"rental_uris": {"ios": "https://dc.lft.to/lastmile_qr_scan", "android": "https://dc.lft.to/lastmile_qr_scan"}, "lon": -77.04833416666666, "type": "electric_scooter", "fusion_lat": 0.0, "lat": 38.920368, "name": "56f7481839b799a14650b5f195eea061", "fusion_lon": 0.0, "bike_id": "56f7481839b799a14650b5f195eea061", "is_disabled": 0, "is_reserved": 0}, {"rental_uris": {"ios": "https://dc.lft.to/lastmile_qr_scan", "android": "https://dc.lft.to/lastmile_qr_scan"}, "lon": -76.99075983333333, "type": "electric_scooter", "fusion_lat": 0.0, "lat": 38.893546, "name": "58651933f78efc0fd87eb0d9b6c0c11c", "fusion_lon": 0.0, "bike_id": "58651933f78efc0fd87eb0d9b6c0c11c", "is_disabled": 0, "is_reserved": 0}, {"rental_uris": {"ios": "https://dc.lft.to/lastmile_qr_scan", "android": "https://dc.lft.to/lastmile_qr_scan"}, "lon": -77.05000883333334, "type": "electric_scooter", "fusion_lat": 0.0, "lat": 38.900634333333336, "name": "0a4bf022e46d1dfc3e05e02ff8084fe2", "fusion_lon": 0.0, "bike_id": "0a4bf022e46d1dfc3e05e02ff8084fe2", "is_disabled": 0, "is_reserved": 0}, {"rental_uris": {"ios": "https://dc.lft.to/lastmile_qr_scan", "android": "https://dc.lft.to/lastmile_qr_scan"}, "lon": -77.04213716666666, "type": "electric_scooter", "fusion_lat": 0.0, "lat": 38.921080333333336, "name": "ed18d1e79db84cb14f1c5a34a80ab7af", "fusion_lon": 0.0, "bike_id": "ed18d1e79db84cb14f1c5a34a80ab7af", "is_disabled": 0, "is_reserved": 0}, {"rental_uris": {"ios": "https://dc.lft.to/lastmile_qr_scan", "android": "https://dc.lft.to/lastmile_qr_scan"}, "lon": -76.9816245, "type": "electric_scooter", "fusion_lat": 0.0, "lat": 38.932976833333335, "name": "616e78adfa66e3def6d44fd33dd3fe36", "fusion_lon": 0.0, "bike_id": "616e78adfa66e3def6d44fd33dd3fe36", "is_disabled": 0, "is_reserved": 0}, {"rental_uris": {"ios": "https://dc.lft.to/lastmile_qr_scan", "android": "https://dc.lft.to/lastmile_qr_scan"}, "lon": -76.99502, "type": "electric_scooter", "fusion_lat": 0.0, "lat": 38.92702366666666, "name": "79e7452b156c75760b252d93e69d5db2", "fusion_lon": 0.0, "bike_id": "79e7452b156c75760b252d93e69d5db2", "is_disabled": 0, "is_reserved": 0}, {"rental_uris": {"ios": "https://dc.lft.to/lastmile_qr_scan", "android": "https://dc.lft.to/lastmile_qr_scan"}, "lon": -77.02600883333334, "type": "electric_scooter", "fusion_lat": 0.0, "lat": 38.91993766666667, "name": "fbf403c6e245364b907cac971d9be0a7", "fusion_lon": 0.0, "bike_id": "fbf403c6e245364b907cac971d9be0a7", "is_disabled": 0, "is_reserved": 0}, {"rental_uris": {"ios": "https://dc.lft.to/lastmile_qr_scan", "android": "https://dc.lft.to/lastmile_qr_scan"}, "lon": -76.9906805, "type": "electric_scooter", "fusion_lat": 0.0, "lat": 38.86358583333333, "name": "dd5f451018d8b7c294af4bf3943e7e20", "fusion_lon": 0.0, "bike_id": "dd5f451018d8b7c294af4bf3943e7e20", "is_disabled": 0, "is_reserved": 0}, {"rental_uris": {"ios": "https://dc.lft.to/lastmile_qr_scan", "android": "https://dc.lft.to/lastmile_qr_scan"}, "lon": -77.00672683333333, "type": "electric_scooter", "fusion_lat": 0.0, "lat": 38.916934833333336, "name": "f1ece83e10f769c97ba3435d903d9b58", "fusion_lon": 0.0, "bike_id": "f1ece83e10f769c97ba3435d903d9b58", "is_disabled": 0, "is_reserved": 0}, {"rental_uris": {"ios": "https://dc.lft.to/lastmile_qr_scan", "android": "https://dc.lft.to/lastmile_qr_scan"}, "lon": -76.9043965, "type": "electric_bike", "fusion_lat": 0.0, "lat": 38.89780016666667, "name": "d6bcb2747883563a2a66656e35485596", "fusion_lon": 0.0, "bike_id": "d6bcb2747883563a2a66656e35485596", "is_disabled": 0, "is_reserved": 0}, {"rental_uris": {"ios": "https://dc.lft.to/lastmile_qr_scan", "android": "https://dc.lft.to/lastmile_qr_scan"}, "lon": -77.04240533333333, "type": "electric_scooter", "fusion_lat": 0.0, "lat": 38.9242875, "name": "1b8b5ccb81d303260cf8fd36ff4d15f0", "fusion_lon": 0.0, "bike_id": "1b8b5ccb81d303260cf8fd36ff4d15f0", "is_disabled": 0, "is_reserved": 0}, {"rental_uris": {"ios": "https://dc.lft.to/lastmile_qr_scan", "android": "https://dc.lft.to/lastmile_qr_scan"}, "lon": -77.01868433333334, "type": "electric_scooter", "fusion_lat": 0.0, "lat": 38.9489515, "name": "d093b20fee72195eeb2e003760f3a1a5", "fusion_lon": 0.0, "bike_id": "d093b20fee72195eeb2e003760f3a1a5", "is_disabled": 0, "is_reserved": 0}, {"rental_uris": {"ios": "https://dc.lft.to/lastmile_qr_scan", "android": "https://dc.lft.to/lastmile_qr_scan"}, "lon": -76.9652365, "type": "electric_scooter", "fusion_lat": 0.0, "lat": 38.876264, "name": "0ffaff40e0f5e739175c40fa3f8f238a", "fusion_lon": 0.0, "bike_id": "0ffaff40e0f5e739175c40fa3f8f238a", "is_disabled": 0, "is_reserved": 0}, {"rental_uris": {"ios": "https://dc.lft.to/lastmile_qr_scan", "android": "https://dc.lft.to/lastmile_qr_scan"}, "lon": -77.03233583333333, "type": "electric_scooter", "fusion_lat": 0.0, "lat": 38.91701833333333, "name": "b8d92902873f251ae172c5b8c92a60b4", "fusion_lon": 0.0, "bike_id": "b8d92902873f251ae172c5b8c92a60b4", "is_disabled": 0, "is_reserved": 0}, {"rental_uris": {"ios": "https://dc.lft.to/lastmile_qr_scan", "android": "https://dc.lft.to/lastmile_qr_scan"}, "lon": -77.04141383333334, "type": "electric_scooter", "fusion_lat": 0.0, "lat": 38.92297816666667, "name": "1ead2ed83b580046b4170d68038731fd", "fusion_lon": 0.0, "bike_id": "1ead2ed83b580046b4170d68038731fd", "is_disabled": 0, "is_reserved": 0}, {"rental_uris": {"ios": "https://dc.lft.to/lastmile_qr_scan", "android": "https://dc.lft.to/lastmile_qr_scan"}, "lon": -76.99746433333334, "type": "electric_scooter", "fusion_lat": 0.0, "lat": 38.909336, "name": "c3aa53d6ffd8bdfabbc776dca26e11b8", "fusion_lon": 0.0, "bike_id": "c3aa53d6ffd8bdfabbc776dca26e11b8", "is_disabled": 0, "is_reserved": 0}, {"rental_uris": {"ios": "https://dc.lft.to/lastmile_qr_scan", "android": "https://dc.lft.to/lastmile_qr_scan"}, "lon": -77.06609583333334, "type": "electric_scooter", "fusion_lat": 0.0, "lat": 38.905387, "name": "6c8ab81fc01a55dd55310e3e5498e24d", "fusion_lon": 0.0, "bike_id": "6c8ab81fc01a55dd55310e3e5498e24d", "is_disabled": 0, "is_reserved": 0}, {"rental_uris": {"ios": "https://dc.lft.to/lastmile_qr_scan", "android": "https://dc.lft.to/lastmile_qr_scan"}, "lon": -77.05938033333334, "type": "electric_scooter", "fusion_lat": 0.0, "lat": 38.90920933333334, "name": "428db3495f2a77cd4bbb447967895834", "fusion_lon": 0.0, "bike_id": "428db3495f2a77cd4bbb447967895834", "is_disabled": 0, "is_reserved": 0}, {"rental_uris": {"ios": "https://dc.lft.to/lastmile_qr_scan", "android": "https://dc.lft.to/lastmile_qr_scan"}, "lon": -77.08819916666667, "type": "electric_bike", "fusion_lat": 0.0, "lat": 38.911691833333336, "name": "b441cef2e655c634fce66a873ff367d1", "fusion_lon": 0.0, "bike_id": "b441cef2e655c634fce66a873ff367d1", "is_disabled": 0, "is_reserved": 0}, {"rental_uris": {"ios": "https://dc.lft.to/lastmile_qr_scan", "android": "https://dc.lft.to/lastmile_qr_scan"}, "lon": -77.04767016666666, "type": "electric_scooter", "fusion_lat": 0.0, "lat": 38.89768983333333, "name": "bc4fc0ca6d8b8bcf6b945ba3ea903ec3", "fusion_lon": 0.0, "bike_id": "bc4fc0ca6d8b8bcf6b945ba3ea903ec3", "is_disabled": 0, "is_reserved": 0}, {"rental_uris": {"ios": "https://dc.lft.to/lastmile_qr_scan", "android": "https://dc.lft.to/lastmile_qr_scan"}, "lon": -77.04496866666666, "type": "electric_scooter", "fusion_lat": 0.0, "lat": 38.918736333333335, "name": "89d0f501c8d42ca7769b00b9bca0ddb3", "fusion_lon": 0.0, "bike_id": "89d0f501c8d42ca7769b00b9bca0ddb3", "is_disabled": 0, "is_reserved": 0}, {"rental_uris": {"ios": "https://dc.lft.to/lastmile_qr_scan", "android": "https://dc.lft.to/lastmile_qr_scan"}, "lon": -77.03839483333333, "type": "electric_scooter", "fusion_lat": 0.0, "lat": 38.9264715, "name": "5cb4f247d497c566817234c0cc4dd878", "fusion_lon": 0.0, "bike_id": "5cb4f247d497c566817234c0cc4dd878", "is_disabled": 0, "is_reserved": 0}, {"rental_uris": {"ios": "https://dc.lft.to/lastmile_qr_scan", "android": "https://dc.lft.to/lastmile_qr_scan"}, "lon": -77.04707433333333, "type": "electric_scooter", "fusion_lat": 0.0, "lat": 38.9040275, "name": "b62ededd93f07df7c09900662c76e70e", "fusion_lon": 0.0, "bike_id": "b62ededd93f07df7c09900662c76e70e", "is_disabled": 0, "is_reserved": 0}, {"rental_uris": {"ios": "https://dc.lft.to/lastmile_qr_scan", "android": "https://dc.lft.to/lastmile_qr_scan"}, "lon": -77.04489483333333, "type": "electric_scooter", "fusion_lat": 0.0, "lat": 38.918769833333336, "name": "fc08928afeb1cf9382f0209d01b08370", "fusion_lon": 0.0, "bike_id": "fc08928afeb1cf9382f0209d01b08370", "is_disabled": 0, "is_reserved": 0}, {"rental_uris": {"ios": "https://dc.lft.to/lastmile_qr_scan", "android": "https://dc.lft.to/lastmile_qr_scan"}, "lon": -76.99881283333333, "type": "electric_scooter", "fusion_lat": 0.0, "lat": 38.907593, "name": "3a1b942883c1d33518727da7a9b189a2", "fusion_lon": 0.0, "bike_id": "3a1b942883c1d33518727da7a9b189a2", "is_disabled": 0, "is_reserved": 0}, {"rental_uris": {"ios": "https://dc.lft.to/lastmile_qr_scan", "android": "https://dc.lft.to/lastmile_qr_scan"}, "lon": -77.01497233333333, "type": "electric_scooter", "fusion_lat": 0.0, "lat": 38.9014055, "name": "74fa5269d0140bbd79a27804f0afc934", "fusion_lon": 0.0, "bike_id": "74fa5269d0140bbd79a27804f0afc934", "is_disabled": 0, "is_reserved": 0}, {"rental_uris": {"ios": "https://dc.lft.to/lastmile_qr_scan", "android": "https://dc.lft.to/lastmile_qr_scan"}, "lon": -76.97215433333334, "type": "electric_scooter", "fusion_lat": 0.0, "lat": 38.854919833333334, "name": "f7b6a0c0800d3d3d123531796f0312f9", "fusion_lon": 0.0, "bike_id": "f7b6a0c0800d3d3d123531796f0312f9", "is_disabled": 0, "is_reserved": 0}, {"rental_uris": {"ios": "https://dc.lft.to/lastmile_qr_scan", "android": "https://dc.lft.to/lastmile_qr_scan"}, "lon": -77.02651766666666, "type": "electric_scooter", "fusion_lat": 0.0, "lat": 38.89611983333333, "name": "1d62fb578de243e40c3e9866ce92720c", "fusion_lon": 0.0, "bike_id": "1d62fb578de243e40c3e9866ce92720c", "is_disabled": 0, "is_reserved": 0}, {"rental_uris": {"ios": "https://dc.lft.to/lastmile_qr_scan", "android": "https://dc.lft.to/lastmile_qr_scan"}, "lon": -76.946304, "type": "electric_bike", "fusion_lat": 0.0, "lat": 38.9462705, "name": "2fac5db303a46ab1dff0e70e14417711", "fusion_lon": 0.0, "bike_id": "2fac5db303a46ab1dff0e70e14417711", "is_disabled": 0, "is_reserved": 0}, {"rental_uris": {"ios": "https://dc.lft.to/lastmile_qr_scan", "android": "https://dc.lft.to/lastmile_qr_scan"}, "lon": -77.0433365, "type": "electric_scooter", "fusion_lat": 0.0, "lat": 38.895908166666665, "name": "d30bd0424e153d2c10c142bf00e216f2", "fusion_lon": 0.0, "bike_id": "d30bd0424e153d2c10c142bf00e216f2", "is_disabled": 0, "is_reserved": 0}, {"rental_uris": {"ios": "https://dc.lft.to/lastmile_qr_scan", "android": "https://dc.lft.to/lastmile_qr_scan"}, "lon": -77.03468233333334, "type": "electric_scooter", "fusion_lat": 0.0, "lat": 38.91711733333333, "name": "682f9a4d1e45ee327b29699cd3f4d4e8", "fusion_lon": 0.0, "bike_id": "682f9a4d1e45ee327b29699cd3f4d4e8", "is_disabled": 0, "is_reserved": 0}, {"rental_uris": {"ios": "https://dc.lft.to/lastmile_qr_scan", "android": "https://dc.lft.to/lastmile_qr_scan"}, "lon": -77.03925483333333, "type": "electric_scooter", "fusion_lat": 0.0, "lat": 38.899027, "name": "9bbb92dbac85b78cd4a57cfb5f8536e6", "fusion_lon": 0.0, "bike_id": "9bbb92dbac85b78cd4a57cfb5f8536e6", "is_disabled": 0, "is_reserved": 0}, {"rental_uris": {"ios": "https://dc.lft.to/lastmile_qr_scan", "android": "https://dc.lft.to/lastmile_qr_scan"}, "lon": -77.02410183333333, "type": "electric_scooter", "fusion_lat": 0.0, "lat": 38.917304, "name": "4f404e4ba824c23017c59f1aa0352ae5", "fusion_lon": 0.0, "bike_id": "4f404e4ba824c23017c59f1aa0352ae5", "is_disabled": 0, "is_reserved": 0}, {"rental_uris": {"ios": "https://dc.lft.to/lastmile_qr_scan", "android": "https://dc.lft.to/lastmile_qr_scan"}, "lon": -77.03199733333334, "type": "electric_scooter", "fusion_lat": 0.0, "lat": 38.907511666666664, "name": "2d4eea24a38100c1d4b3ab5b72433154", "fusion_lon": 0.0, "bike_id": "2d4eea24a38100c1d4b3ab5b72433154", "is_disabled": 0, "is_reserved": 0}, {"rental_uris": {"ios": "https://dc.lft.to/lastmile_qr_scan", "android": "https://dc.lft.to/lastmile_qr_scan"}, "lon": -77.0283495, "type": "electric_scooter", "fusion_lat": 0.0, "lat": 38.8874815, "name": "11af1aa6a3eb052de1e6a180d105015f", "fusion_lon": 0.0, "bike_id": "11af1aa6a3eb052de1e6a180d105015f", "is_disabled": 0, "is_reserved": 0}, {"rental_uris": {"ios": "https://dc.lft.to/lastmile_qr_scan", "android": "https://dc.lft.to/lastmile_qr_scan"}, "lon": -76.9444015, "type": "electric_bike", "fusion_lat": 0.0, "lat": 38.902999333333334, "name": "9fd59d5ad50bd576c3322cbd0e61a3c8", "fusion_lon": 0.0, "bike_id": "9fd59d5ad50bd576c3322cbd0e61a3c8", "is_disabled": 0, "is_reserved": 0}, {"rental_uris": {"ios": "https://dc.lft.to/lastmile_qr_scan", "android": "https://dc.lft.to/lastmile_qr_scan"}, "lon": -77.01123266666667, "type": "electric_scooter", "fusion_lat": 0.0, "lat": 38.912678666666665, "name": "a95ffd8ac850722b86319b1b6c9bd2d4", "fusion_lon": 0.0, "bike_id": "a95ffd8ac850722b86319b1b6c9bd2d4", "is_disabled": 0, "is_reserved": 0}, {"rental_uris": {"ios": "https://dc.lft.to/lastmile_qr_scan", "android": "https://dc.lft.to/lastmile_qr_scan"}, "lon": -77.04185616666666, "type": "electric_scooter", "fusion_lat": 0.0, "lat": 38.92050966666667, "name": "7a1d228db1f3a680cae270839d8c4e0e", "fusion_lon": 0.0, "bike_id": "7a1d228db1f3a680cae270839d8c4e0e", "is_disabled": 0, "is_reserved": 0}, {"rental_uris": {"ios": "https://dc.lft.to/lastmile_qr_scan", "android": "https://dc.lft.to/lastmile_qr_scan"}, "lon": -77.03213866666667, "type": "electric_scooter", "fusion_lat": 0.0, "lat": 38.933845833333336, "name": "fb97f4036dbb5d9fd47b41bb88e92072", "fusion_lon": 0.0, "bike_id": "fb97f4036dbb5d9fd47b41bb88e92072", "is_disabled": 0, "is_reserved": 0}, {"rental_uris": {"ios": "https://dc.lft.to/lastmile_qr_scan", "android": "https://dc.lft.to/lastmile_qr_scan"}, "lon": -76.97219, "type": "electric_bike", "fusion_lat": 0.0, "lat": 38.8447995, "name": "9b577ebd8cede160e59d1a78d2810a01", "fusion_lon": 0.0, "bike_id": "9b577ebd8cede160e59d1a78d2810a01", "is_disabled": 0, "is_reserved": 0}, {"rental_uris": {"ios": "https://dc.lft.to/lastmile_qr_scan", "android": "https://dc.lft.to/lastmile_qr_scan"}, "lon": -77.03210783333333, "type": "electric_scooter", "fusion_lat": 0.0, "lat": 38.9098965, "name": "2e99f5a4defabdbe4c4ac8c046e07203", "fusion_lon": 0.0, "bike_id": "2e99f5a4defabdbe4c4ac8c046e07203", "is_disabled": 0, "is_reserved": 0}, {"rental_uris": {"ios": "https://dc.lft.to/lastmile_qr_scan", "android": "https://dc.lft.to/lastmile_qr_scan"}, "lon": -77.0239675, "type": "electric_scooter", "fusion_lat": 0.0, "lat": 38.919915333333336, "name": "ec59c7bdc167c2610b05a35d708fbc8d", "fusion_lon": 0.0, "bike_id": "ec59c7bdc167c2610b05a35d708fbc8d", "is_disabled": 0, "is_reserved": 0}, {"rental_uris": {"ios": "https://dc.lft.to/lastmile_qr_scan", "android": "https://dc.lft.to/lastmile_qr_scan"}, "lon": -77.02229266666667, "type": "electric_scooter", "fusion_lat": 0.0, "lat": 38.891952833333335, "name": "8720a84cfb1803b4a2637e05e7252d70", "fusion_lon": 0.0, "bike_id": "8720a84cfb1803b4a2637e05e7252d70", "is_disabled": 0, "is_reserved": 0}, {"rental_uris": {"ios": "https://dc.lft.to/lastmile_qr_scan", "android": "https://dc.lft.to/lastmile_qr_scan"}, "lon": -77.09873316666666, "type": "electric_bike", "fusion_lat": 0.0, "lat": 38.853752166666666, "name": "829ab36e70c6674d4771ab86fd42aa4e", "fusion_lon": 0.0, "bike_id": "829ab36e70c6674d4771ab86fd42aa4e", "is_disabled": 0, "is_reserved": 0}, {"rental_uris": {"ios": "https://dc.lft.to/lastmile_qr_scan", "android": "https://dc.lft.to/lastmile_qr_scan"}, "lon": -77.06939383333334, "type": "electric_scooter", "fusion_lat": 0.0, "lat": 38.90515533333333, "name": "2c326474e94f5a648f546460792ecc84", "fusion_lon": 0.0, "bike_id": "2c326474e94f5a648f546460792ecc84", "is_disabled": 0, "is_reserved": 0}, {"rental_uris": {"ios": "https://dc.lft.to/lastmile_qr_scan", "android": "https://dc.lft.to/lastmile_qr_scan"}, "lon": -77.0338835, "type": "electric_scooter", "fusion_lat": 0.0, "lat": 38.93848666666667, "name": "2d18a5ec4e73576601d1581a9bdcbb62", "fusion_lon": 0.0, "bike_id": "2d18a5ec4e73576601d1581a9bdcbb62", "is_disabled": 0, "is_reserved": 0}, {"rental_uris": {"ios": "https://dc.lft.to/lastmile_qr_scan", "android": "https://dc.lft.to/lastmile_qr_scan"}, "lon": -77.02672283333334, "type": "electric_scooter", "fusion_lat": 0.0, "lat": 38.90164566666667, "name": "cb778ab99db25265074c3fa3f95068c6", "fusion_lon": 0.0, "bike_id": "cb778ab99db25265074c3fa3f95068c6", "is_disabled": 0, "is_reserved": 0}, {"rental_uris": {"ios": "https://dc.lft.to/lastmile_qr_scan", "android": "https://dc.lft.to/lastmile_qr_scan"}, "lon": -77.02489566666667, "type": "electric_scooter", "fusion_lat": 0.0, "lat": 38.941856, "name": "52dabc71233c6165372ac313acf52bba", "fusion_lon": 0.0, "bike_id": "52dabc71233c6165372ac313acf52bba", "is_disabled": 0, "is_reserved": 0}, {"rental_uris": {"ios": "https://dc.lft.to/lastmile_qr_scan", "android": "https://dc.lft.to/lastmile_qr_scan"}, "lon": -77.03446016666666, "type": "electric_scooter", "fusion_lat": 0.0, "lat": 38.918252833333334, "name": "0f06b677de9b7269e4ceae61e17afbd8", "fusion_lon": 0.0, "bike_id": "0f06b677de9b7269e4ceae61e17afbd8", "is_disabled": 0, "is_reserved": 0}, {"rental_uris": {"ios": "https://dc.lft.to/lastmile_qr_scan", "android": "https://dc.lft.to/lastmile_qr_scan"}, "lon": -77.04053616666667, "type": "electric_scooter", "fusion_lat": 0.0, "lat": 38.9271735, "name": "493e11622502d7e1982862178b4e6636", "fusion_lon": 0.0, "bike_id": "493e11622502d7e1982862178b4e6636", "is_disabled": 0, "is_reserved": 0}, {"rental_uris": {"ios": "https://dc.lft.to/lastmile_qr_scan", "android": "https://dc.lft.to/lastmile_qr_scan"}, "lon": -77.00592116666667, "type": "electric_scooter", "fusion_lat": 0.0, "lat": 38.9055785, "name": "ba51720932021d3ebf143349ee77698d", "fusion_lon": 0.0, "bike_id": "ba51720932021d3ebf143349ee77698d", "is_disabled": 0, "is_reserved": 0}, {"rental_uris": {"ios": "https://dc.lft.to/lastmile_qr_scan", "android": "https://dc.lft.to/lastmile_qr_scan"}, "lon": -77.04563616666667, "type": "electric_scooter", "fusion_lat": 0.0, "lat": 38.908590833333335, "name": "294a54efc25d281a819136c94a2fa005", "fusion_lon": 0.0, "bike_id": "294a54efc25d281a819136c94a2fa005", "is_disabled": 0, "is_reserved": 0}, {"rental_uris": {"ios": "https://dc.lft.to/lastmile_qr_scan", "android": "https://dc.lft.to/lastmile_qr_scan"}, "lon": -77.02475516666667, "type": "electric_scooter", "fusion_lat": 0.0, "lat": 38.918133166666664, "name": "96cbaedf115dd35cc1b04750720b61ba", "fusion_lon": 0.0, "bike_id": "96cbaedf115dd35cc1b04750720b61ba", "is_disabled": 0, "is_reserved": 0}, {"rental_uris": {"ios": "https://dc.lft.to/lastmile_qr_scan", "android": "https://dc.lft.to/lastmile_qr_scan"}, "lon": -77.03162983333333, "type": "electric_scooter", "fusion_lat": 0.0, "lat": 38.91993016666667, "name": "8208afb6536e737963a1ffa6a1b65a03", "fusion_lon": 0.0, "bike_id": "8208afb6536e737963a1ffa6a1b65a03", "is_disabled": 0, "is_reserved": 0}, {"rental_uris": {"ios": "https://dc.lft.to/lastmile_qr_scan", "android": "https://dc.lft.to/lastmile_qr_scan"}, "lon": -77.09755366666667, "type": "electric_bike", "fusion_lat": 0.0, "lat": 38.8585005, "name": "ad82ceeb252f34df6412c2c00df3423c", "fusion_lon": 0.0, "bike_id": "ad82ceeb252f34df6412c2c00df3423c", "is_disabled": 0, "is_reserved": 0}, {"rental_uris": {"ios": "https://dc.lft.to/lastmile_qr_scan", "android": "https://dc.lft.to/lastmile_qr_scan"}, "lon": -77.0368885, "type": "electric_scooter", "fusion_lat": 0.0, "lat": 38.9182295, "name": "c7d241639f0c70ce84f3e716c5096311", "fusion_lon": 0.0, "bike_id": "c7d241639f0c70ce84f3e716c5096311", "is_disabled": 0, "is_reserved": 0}, {"rental_uris": {"ios": "https://dc.lft.to/lastmile_qr_scan", "android": "https://dc.lft.to/lastmile_qr_scan"}, "lon": -77.03036666666667, "type": "electric_scooter", "fusion_lat": 0.0, "lat": 38.897657333333335, "name": "d5f8bcc96e59de1aa8be5d0041cef4db", "fusion_lon": 0.0, "bike_id": "d5f8bcc96e59de1aa8be5d0041cef4db", "is_disabled": 0, "is_reserved": 0}, {"rental_uris": {"ios": "https://dc.lft.to/lastmile_qr_scan", "android": "https://dc.lft.to/lastmile_qr_scan"}, "lon": -77.0276105, "type": "electric_scooter", "fusion_lat": 0.0, "lat": 38.923107, "name": "89b4f38c8e2708f872d5ea451f607a6e", "fusion_lon": 0.0, "bike_id": "89b4f38c8e2708f872d5ea451f607a6e", "is_disabled": 0, "is_reserved": 0}, {"rental_uris": {"ios": "https://dc.lft.to/lastmile_qr_scan", "android": "https://dc.lft.to/lastmile_qr_scan"}, "lon": -77.02847333333334, "type": "electric_scooter", "fusion_lat": 0.0, "lat": 38.92577133333333, "name": "7dfbd31c0f10aa2aa209ea3120bcf76c", "fusion_lon": 0.0, "bike_id": "7dfbd31c0f10aa2aa209ea3120bcf76c", "is_disabled": 0, "is_reserved": 0}, {"rental_uris": {"ios": "https://dc.lft.to/lastmile_qr_scan", "android": "https://dc.lft.to/lastmile_qr_scan"}, "lon": -77.0559065, "type": "electric_scooter", "fusion_lat": 0.0, "lat": 38.90516683333333, "name": "c70bfe1cba0600565661090dc0697a52", "fusion_lon": 0.0, "bike_id": "c70bfe1cba0600565661090dc0697a52", "is_disabled": 0, "is_reserved": 0}, {"rental_uris": {"ios": "https://dc.lft.to/lastmile_qr_scan", "android": "https://dc.lft.to/lastmile_qr_scan"}, "lon": -77.0285115, "type": "electric_scooter", "fusion_lat": 0.0, "lat": 38.95083183333333, "name": "1254c4b34893f348568f6f2dd7f4a897", "fusion_lon": 0.0, "bike_id": "1254c4b34893f348568f6f2dd7f4a897", "is_disabled": 0, "is_reserved": 0}, {"rental_uris": {"ios": "https://dc.lft.to/lastmile_qr_scan", "android": "https://dc.lft.to/lastmile_qr_scan"}, "lon": -77.004333, "type": "electric_scooter", "fusion_lat": 0.0, "lat": 38.903978, "name": "b7bef40dd01145f808da2b3a7a2c322e", "fusion_lon": 0.0, "bike_id": "b7bef40dd01145f808da2b3a7a2c322e", "is_disabled": 0, "is_reserved": 0}, {"rental_uris": {"ios": "https://dc.lft.to/lastmile_qr_scan", "android": "https://dc.lft.to/lastmile_qr_scan"}, "lon": -76.93831916666667, "type": "electric_scooter", "fusion_lat": 0.0, "lat": 38.897599166666666, "name": "23b4b361201be789c0781f4160bb5f5a", "fusion_lon": 0.0, "bike_id": "23b4b361201be789c0781f4160bb5f5a", "is_disabled": 0, "is_reserved": 0}, {"rental_uris": {"ios": "https://dc.lft.to/lastmile_qr_scan", "android": "https://dc.lft.to/lastmile_qr_scan"}, "lon": -76.965067, "type": "electric_scooter", "fusion_lat": 0.0, "lat": 38.876457, "name": "0e94c4e8528e790e5a00dbe42f43e6b6", "fusion_lon": 0.0, "bike_id": "0e94c4e8528e790e5a00dbe42f43e6b6", "is_disabled": 0, "is_reserved": 0}, {"rental_uris": {"ios": "https://dc.lft.to/lastmile_qr_scan", "android": "https://dc.lft.to/lastmile_qr_scan"}, "lon": -77.048621, "type": "electric_scooter", "fusion_lat": 0.0, "lat": 38.900670833333336, "name": "b4e846b9260a0fcbe20cbe572607328a", "fusion_lon": 0.0, "bike_id": "b4e846b9260a0fcbe20cbe572607328a", "is_disabled": 0, "is_reserved": 0}, {"rental_uris": {"ios": "https://dc.lft.to/lastmile_qr_scan", "android": "https://dc.lft.to/lastmile_qr_scan"}, "lon": -77.03508133333334, "type": "electric_scooter", "fusion_lat": 0.0, "lat": 38.92149633333333, "name": "e6838b58c3077062cca07dc4cada58dd", "fusion_lon": 0.0, "bike_id": "e6838b58c3077062cca07dc4cada58dd", "is_disabled": 0, "is_reserved": 0}, {"rental_uris": {"ios": "https://dc.lft.to/lastmile_qr_scan", "android": "https://dc.lft.to/lastmile_qr_scan"}, "lon": -77.04352166666666, "type": "electric_scooter", "fusion_lat": 0.0, "lat": 38.926754333333335, "name": "c90aafca7410440add64b9bbd3fa1f8c", "fusion_lon": 0.0, "bike_id": "c90aafca7410440add64b9bbd3fa1f8c", "is_disabled": 0, "is_reserved": 0}, {"rental_uris": {"ios": "https://dc.lft.to/lastmile_qr_scan", "android": "https://dc.lft.to/lastmile_qr_scan"}, "lon": -77.03865533333334, "type": "electric_scooter", "fusion_lat": 0.0, "lat": 38.91561516666667, "name": "a7ba37d18b31b82d861eeae1181681d5", "fusion_lon": 0.0, "bike_id": "a7ba37d18b31b82d861eeae1181681d5", "is_disabled": 0, "is_reserved": 0}, {"rental_uris": {"ios": "https://dc.lft.to/lastmile_qr_scan", "android": "https://dc.lft.to/lastmile_qr_scan"}, "lon": -77.0289895, "type": "electric_scooter", "fusion_lat": 0.0, "lat": 38.9257585, "name": "71c6cafa271c1c0dabb21490bb6ed558", "fusion_lon": 0.0, "bike_id": "71c6cafa271c1c0dabb21490bb6ed558", "is_disabled": 0, "is_reserved": 0}, {"rental_uris": {"ios": "https://dc.lft.to/lastmile_qr_scan", "android": "https://dc.lft.to/lastmile_qr_scan"}, "lon": -77.04789683333334, "type": "electric_scooter", "fusion_lat": 0.0, "lat": 38.90852133333333, "name": "79d674b8f2eb7722f60d1766a7fe0246", "fusion_lon": 0.0, "bike_id": "79d674b8f2eb7722f60d1766a7fe0246", "is_disabled": 0, "is_reserved": 0}, {"rental_uris": {"ios": "https://dc.lft.to/lastmile_qr_scan", "android": "https://dc.lft.to/lastmile_qr_scan"}, "lon": -76.98684283333333, "type": "electric_scooter", "fusion_lat": 0.0, "lat": 38.88214633333333, "name": "3e581c7675e1f1ed7fe6ee0e98d5509c", "fusion_lon": 0.0, "bike_id": "3e581c7675e1f1ed7fe6ee0e98d5509c", "is_disabled": 0, "is_reserved": 0}, {"rental_uris": {"ios": "https://dc.lft.to/lastmile_qr_scan", "android": "https://dc.lft.to/lastmile_qr_scan"}, "lon": -77.00199266666667, "type": "electric_bike", "fusion_lat": 0.0, "lat": 38.88310766666667, "name": "68c2c467ec5294c7c36f960f41c112e8", "fusion_lon": 0.0, "bike_id": "68c2c467ec5294c7c36f960f41c112e8", "is_disabled": 0, "is_reserved": 0}, {"rental_uris": {"ios": "https://dc.lft.to/lastmile_qr_scan", "android": "https://dc.lft.to/lastmile_qr_scan"}, "lon": -77.0088215, "type": "electric_scooter", "fusion_lat": 0.0, "lat": 38.91674283333333, "name": "03a35ba6a4e73f9ca3dd2e2796b8d598", "fusion_lon": 0.0, "bike_id": "03a35ba6a4e73f9ca3dd2e2796b8d598", "is_disabled": 0, "is_reserved": 0}, {"rental_uris": {"ios": "https://dc.lft.to/lastmile_qr_scan", "android": "https://dc.lft.to/lastmile_qr_scan"}, "lon": -77.03118383333333, "type": "electric_scooter", "fusion_lat": 0.0, "lat": 38.913353666666666, "name": "4df37384347d38bf1eae381be274ec81", "fusion_lon": 0.0, "bike_id": "4df37384347d38bf1eae381be274ec81", "is_disabled": 0, "is_reserved": 0}, {"rental_uris": {"ios": "https://dc.lft.to/lastmile_qr_scan", "android": "https://dc.lft.to/lastmile_qr_scan"}, "lon": -76.97623983333334, "type": "electric_scooter", "fusion_lat": 0.0, "lat": 38.90569216666667, "name": "1f1d35f53a774939764867d96ec73f34", "fusion_lon": 0.0, "bike_id": "1f1d35f53a774939764867d96ec73f34", "is_disabled": 0, "is_reserved": 0}, {"rental_uris": {"ios": "https://dc.lft.to/lastmile_qr_scan", "android": "https://dc.lft.to/lastmile_qr_scan"}, "lon": -77.05201216666667, "type": "electric_scooter", "fusion_lat": 0.0, "lat": 38.924354666666666, "name": "a2ee33dbfa840ec6608c4816c44f0f64", "fusion_lon": 0.0, "bike_id": "a2ee33dbfa840ec6608c4816c44f0f64", "is_disabled": 0, "is_reserved": 0}, {"rental_uris": {"ios": "https://dc.lft.to/lastmile_qr_scan", "android": "https://dc.lft.to/lastmile_qr_scan"}, "lon": -77.0296085, "type": "electric_scooter", "fusion_lat": 0.0, "lat": 38.91678733333333, "name": "57a5696baa8f3ffb5b744853c1dfe282", "fusion_lon": 0.0, "bike_id": "57a5696baa8f3ffb5b744853c1dfe282", "is_disabled": 0, "is_reserved": 0}, {"rental_uris": {"ios": "https://dc.lft.to/lastmile_qr_scan", "android": "https://dc.lft.to/lastmile_qr_scan"}, "lon": -77.05889066666667, "type": "electric_scooter", "fusion_lat": 0.0, "lat": 38.936393, "name": "f9402b3aeacce164cc9c9b31f232a43a", "fusion_lon": 0.0, "bike_id": "f9402b3aeacce164cc9c9b31f232a43a", "is_disabled": 0, "is_reserved": 0}, {"rental_uris": {"ios": "https://dc.lft.to/lastmile_qr_scan", "android": "https://dc.lft.to/lastmile_qr_scan"}, "lon": -76.99477866666666, "type": "electric_bike", "fusion_lat": 0.0, "lat": 38.8999125, "name": "345f3f05a7ecfe636b35ba2a40b3a268", "fusion_lon": 0.0, "bike_id": "345f3f05a7ecfe636b35ba2a40b3a268", "is_disabled": 0, "is_reserved": 0}, {"rental_uris": {"ios": "https://dc.lft.to/lastmile_qr_scan", "android": "https://dc.lft.to/lastmile_qr_scan"}, "lon": -77.00211933333334, "type": "electric_scooter", "fusion_lat": 0.0, "lat": 38.91190016666667, "name": "9b39b2517c665b3947c1887de7b93038", "fusion_lon": 0.0, "bike_id": "9b39b2517c665b3947c1887de7b93038", "is_disabled": 0, "is_reserved": 0}, {"rental_uris": {"ios": "https://dc.lft.to/lastmile_qr_scan", "android": "https://dc.lft.to/lastmile_qr_scan"}, "lon": -76.98314016666667, "type": "electric_scooter", "fusion_lat": 0.0, "lat": 38.868863166666664, "name": "8444905a7d9acb9d85c803e6c77b7d77", "fusion_lon": 0.0, "bike_id": "8444905a7d9acb9d85c803e6c77b7d77", "is_disabled": 0, "is_reserved": 0}, {"rental_uris": {"ios": "https://dc.lft.to/lastmile_qr_scan", "android": "https://dc.lft.to/lastmile_qr_scan"}, "lon": -77.03739166666666, "type": "electric_scooter", "fusion_lat": 0.0, "lat": 38.9290355, "name": "ef51a685bf38904798e5444726c9c574", "fusion_lon": 0.0, "bike_id": "ef51a685bf38904798e5444726c9c574", "is_disabled": 0, "is_reserved": 0}, {"rental_uris": {"ios": "https://dc.lft.to/lastmile_qr_scan", "android": "https://dc.lft.to/lastmile_qr_scan"}, "lon": -77.06010066666667, "type": "electric_scooter", "fusion_lat": 0.0, "lat": 38.912657333333335, "name": "a3d34d9b0fc1f0ee3b25becfaff299fc", "fusion_lon": 0.0, "bike_id": "a3d34d9b0fc1f0ee3b25becfaff299fc", "is_disabled": 0, "is_reserved": 0}, {"rental_uris": {"ios": "https://dc.lft.to/lastmile_qr_scan", "android": "https://dc.lft.to/lastmile_qr_scan"}, "lon": -77.03865566666667, "type": "electric_scooter", "fusion_lat": 0.0, "lat": 38.915618333333335, "name": "fad6f803ccfa7ec7ee00cf79ce13a79d", "fusion_lon": 0.0, "bike_id": "fad6f803ccfa7ec7ee00cf79ce13a79d", "is_disabled": 0, "is_reserved": 0}, {"rental_uris": {"ios": "https://dc.lft.to/lastmile_qr_scan", "android": "https://dc.lft.to/lastmile_qr_scan"}, "lon": -76.98714016666666, "type": "electric_scooter", "fusion_lat": 0.0, "lat": 38.862568, "name": "fb3035891fd2f5b918cd21e783e4b597", "fusion_lon": 0.0, "bike_id": "fb3035891fd2f5b918cd21e783e4b597", "is_disabled": 0, "is_reserved": 0}, {"rental_uris": {"ios": "https://dc.lft.to/lastmile_qr_scan", "android": "https://dc.lft.to/lastmile_qr_scan"}, "lon": -77.0361705, "type": "electric_scooter", "fusion_lat": 0.0, "lat": 38.93259116666667, "name": "bcb16a3640d0428862edfd4ac61f658f", "fusion_lon": 0.0, "bike_id": "bcb16a3640d0428862edfd4ac61f658f", "is_disabled": 0, "is_reserved": 0}, {"rental_uris": {"ios": "https://dc.lft.to/lastmile_qr_scan", "android": "https://dc.lft.to/lastmile_qr_scan"}, "lon": -76.94179116666666, "type": "electric_scooter", "fusion_lat": 0.0, "lat": 38.882189, "name": "fb7ed6bbbae173fd91f8a3bcec1ce014", "fusion_lon": 0.0, "bike_id": "fb7ed6bbbae173fd91f8a3bcec1ce014", "is_disabled": 0, "is_reserved": 0}, {"rental_uris": {"ios": "https://dc.lft.to/lastmile_qr_scan", "android": "https://dc.lft.to/lastmile_qr_scan"}, "lon": -77.034437, "type": "electric_scooter", "fusion_lat": 0.0, "lat": 38.9073465, "name": "159c0b2792ae9bbdf2a1d1cc6ee9d0de", "fusion_lon": 0.0, "bike_id": "159c0b2792ae9bbdf2a1d1cc6ee9d0de", "is_disabled": 0, "is_reserved": 0}, {"rental_uris": {"ios": "https://dc.lft.to/lastmile_qr_scan", "android": "https://dc.lft.to/lastmile_qr_scan"}, "lon": -77.03227883333334, "type": "electric_scooter", "fusion_lat": 0.0, "lat": 38.9154385, "name": "0bf7d55dc707f82988026108e782395e", "fusion_lon": 0.0, "bike_id": "0bf7d55dc707f82988026108e782395e", "is_disabled": 0, "is_reserved": 0}, {"rental_uris": {"ios": "https://dc.lft.to/lastmile_qr_scan", "android": "https://dc.lft.to/lastmile_qr_scan"}, "lon": -77.0271285, "type": "electric_scooter", "fusion_lat": 0.0, "lat": 38.92468683333333, "name": "30c414df3ba35b42ced452793dad8b35", "fusion_lon": 0.0, "bike_id": "30c414df3ba35b42ced452793dad8b35", "is_disabled": 0, "is_reserved": 0}, {"rental_uris": {"ios": "https://dc.lft.to/lastmile_qr_scan", "android": "https://dc.lft.to/lastmile_qr_scan"}, "lon": -76.955284, "type": "electric_scooter", "fusion_lat": 0.0, "lat": 38.88782066666667, "name": "eab00eb917fb967a67ba3eb968bef17f", "fusion_lon": 0.0, "bike_id": "eab00eb917fb967a67ba3eb968bef17f", "is_disabled": 0, "is_reserved": 0}, {"rental_uris": {"ios": "https://dc.lft.to/lastmile_qr_scan", "android": "https://dc.lft.to/lastmile_qr_scan"}, "lon": -77.05482116666667, "type": "electric_scooter", "fusion_lat": 0.0, "lat": 38.921124166666665, "name": "fc00c4074a25b5c081bf145f7d13807e", "fusion_lon": 0.0, "bike_id": "fc00c4074a25b5c081bf145f7d13807e", "is_disabled": 0, "is_reserved": 0}, {"rental_uris": {"ios": "https://dc.lft.to/lastmile_qr_scan", "android": "https://dc.lft.to/lastmile_qr_scan"}, "lon": -77.012734, "type": "electric_bike", "fusion_lat": 0.0, "lat": 38.881189666666664, "name": "f1a2373d5c3d920084c8a37c3e42b955", "fusion_lon": 0.0, "bike_id": "f1a2373d5c3d920084c8a37c3e42b955", "is_disabled": 0, "is_reserved": 0}, {"rental_uris": {"ios": "https://dc.lft.to/lastmile_qr_scan", "android": "https://dc.lft.to/lastmile_qr_scan"}, "lon": -77.10337916666667, "type": "electric_bike", "fusion_lat": 0.0, "lat": 38.85233016666667, "name": "3f7fa0784601dbd93b870ac821986ae1", "fusion_lon": 0.0, "bike_id": "3f7fa0784601dbd93b870ac821986ae1", "is_disabled": 0, "is_reserved": 0}, {"rental_uris": {"ios": "https://dc.lft.to/lastmile_qr_scan", "android": "https://dc.lft.to/lastmile_qr_scan"}, "lon": -77.03854533333333, "type": "electric_scooter", "fusion_lat": 0.0, "lat": 38.91320916666667, "name": "dd05a9a0fdf250b01678b94da1e16491", "fusion_lon": 0.0, "bike_id": "dd05a9a0fdf250b01678b94da1e16491", "is_disabled": 0, "is_reserved": 0}, {"rental_uris": {"ios": "https://dc.lft.to/lastmile_qr_scan", "android": "https://dc.lft.to/lastmile_qr_scan"}, "lon": -77.02974583333334, "type": "electric_scooter", "fusion_lat": 0.0, "lat": 38.96226716666666, "name": "15037aa8a5ee00405f0ccd23865eb6df", "fusion_lon": 0.0, "bike_id": "15037aa8a5ee00405f0ccd23865eb6df", "is_disabled": 0, "is_reserved": 0}, {"rental_uris": {"ios": "https://dc.lft.to/lastmile_qr_scan", "android": "https://dc.lft.to/lastmile_qr_scan"}, "lon": -77.02672316666667, "type": "electric_scooter", "fusion_lat": 0.0, "lat": 38.880687333333334, "name": "627ad826ce9931075981843a1d0058e0", "fusion_lon": 0.0, "bike_id": "627ad826ce9931075981843a1d0058e0", "is_disabled": 0, "is_reserved": 0}, {"rental_uris": {"ios": "https://dc.lft.to/lastmile_qr_scan", "android": "https://dc.lft.to/lastmile_qr_scan"}, "lon": -77.04698983333333, "type": "electric_scooter", "fusion_lat": 0.0, "lat": 38.905708833333335, "name": "529ff17a052cf488cb3343222e237ca6", "fusion_lon": 0.0, "bike_id": "529ff17a052cf488cb3343222e237ca6", "is_disabled": 0, "is_reserved": 0}, {"rental_uris": {"ios": "https://dc.lft.to/lastmile_qr_scan", "android": "https://dc.lft.to/lastmile_qr_scan"}, "lon": -76.92723233333334, "type": "electric_scooter", "fusion_lat": 0.0, "lat": 38.880425833333334, "name": "88925ba248b7d1434ef016a8614f0595", "fusion_lon": 0.0, "bike_id": "88925ba248b7d1434ef016a8614f0595", "is_disabled": 0, "is_reserved": 0}, {"rental_uris": {"ios": "https://dc.lft.to/lastmile_qr_scan", "android": "https://dc.lft.to/lastmile_qr_scan"}, "lon": -77.00139966666667, "type": "electric_scooter", "fusion_lat": 0.0, "lat": 38.9041905, "name": "884d95727a1069531f2f11fac4a54e02", "fusion_lon": 0.0, "bike_id": "884d95727a1069531f2f11fac4a54e02", "is_disabled": 0, "is_reserved": 0}, {"rental_uris": {"ios": "https://dc.lft.to/lastmile_qr_scan", "android": "https://dc.lft.to/lastmile_qr_scan"}, "lon": -77.0088085, "type": "electric_scooter", "fusion_lat": 0.0, "lat": 38.91406466666667, "name": "73ebb93859eb491a449b7636e422d3dd", "fusion_lon": 0.0, "bike_id": "73ebb93859eb491a449b7636e422d3dd", "is_disabled": 0, "is_reserved": 0}, {"rental_uris": {"ios": "https://dc.lft.to/lastmile_qr_scan", "android": "https://dc.lft.to/lastmile_qr_scan"}, "lon": -77.004986, "type": "electric_scooter", "fusion_lat": 0.0, "lat": 38.8785405, "name": "3d2264b0f85b4748b022ade59fa56e7b", "fusion_lon": 0.0, "bike_id": "3d2264b0f85b4748b022ade59fa56e7b", "is_disabled": 0, "is_reserved": 0}, {"rental_uris": {"ios": "https://dc.lft.to/lastmile_qr_scan", "android": "https://dc.lft.to/lastmile_qr_scan"}, "lon": -77.03191783333334, "type": "electric_scooter", "fusion_lat": 0.0, "lat": 38.90740616666667, "name": "ee148ffcc67af9ef8e7d4ee3f682ca69", "fusion_lon": 0.0, "bike_id": "ee148ffcc67af9ef8e7d4ee3f682ca69", "is_disabled": 0, "is_reserved": 0}, {"rental_uris": {"ios": "https://dc.lft.to/lastmile_qr_scan", "android": "https://dc.lft.to/lastmile_qr_scan"}, "lon": -76.9258855, "type": "electric_scooter", "fusion_lat": 0.0, "lat": 38.89728433333333, "name": "c0960aa5d115252f20290642138de1be", "fusion_lon": 0.0, "bike_id": "c0960aa5d115252f20290642138de1be", "is_disabled": 0, "is_reserved": 0}, {"rental_uris": {"ios": "https://dc.lft.to/lastmile_qr_scan", "android": "https://dc.lft.to/lastmile_qr_scan"}, "lon": -77.10783816666667, "type": "electric_bike", "fusion_lat": 0.0, "lat": 38.892205, "name": "b551e10b5cf1bd556efa5d31fd3427bd", "fusion_lon": 0.0, "bike_id": "b551e10b5cf1bd556efa5d31fd3427bd", "is_disabled": 0, "is_reserved": 0}, {"rental_uris": {"ios": "https://dc.lft.to/lastmile_qr_scan", "android": "https://dc.lft.to/lastmile_qr_scan"}, "lon": -77.0222965, "type": "electric_scooter", "fusion_lat": 0.0, "lat": 38.8922225, "name": "4100fd876a31538da7777b6649368da9", "fusion_lon": 0.0, "bike_id": "4100fd876a31538da7777b6649368da9", "is_disabled": 0, "is_reserved": 0}, {"rental_uris": {"ios": "https://dc.lft.to/lastmile_qr_scan", "android": "https://dc.lft.to/lastmile_qr_scan"}, "lon": -76.98902066666666, "type": "electric_scooter", "fusion_lat": 0.0, "lat": 38.86690633333333, "name": "0dd631613c852a99e582717864ff5b83", "fusion_lon": 0.0, "bike_id": "0dd631613c852a99e582717864ff5b83", "is_disabled": 0, "is_reserved": 0}, {"rental_uris": {"ios": "https://dc.lft.to/lastmile_qr_scan", "android": "https://dc.lft.to/lastmile_qr_scan"}, "lon": -77.04030766666666, "type": "electric_scooter", "fusion_lat": 0.0, "lat": 38.918087166666666, "name": "3176652b1c74363cfdac2e46bcbea675", "fusion_lon": 0.0, "bike_id": "3176652b1c74363cfdac2e46bcbea675", "is_disabled": 0, "is_reserved": 0}, {"rental_uris": {"ios": "https://dc.lft.to/lastmile_qr_scan", "android": "https://dc.lft.to/lastmile_qr_scan"}, "lon": -77.021641, "type": "electric_scooter", "fusion_lat": 0.0, "lat": 38.942882833333336, "name": "d0fe6b336aaa64b099a15dac7eba3305", "fusion_lon": 0.0, "bike_id": "d0fe6b336aaa64b099a15dac7eba3305", "is_disabled": 0, "is_reserved": 0}, {"rental_uris": {"ios": "https://dc.lft.to/lastmile_qr_scan", "android": "https://dc.lft.to/lastmile_qr_scan"}, "lon": -77.03561033333334, "type": "electric_scooter", "fusion_lat": 0.0, "lat": 38.9180465, "name": "deef748766edffd2d9b2e323269d6fe1", "fusion_lon": 0.0, "bike_id": "deef748766edffd2d9b2e323269d6fe1", "is_disabled": 0, "is_reserved": 0}, {"rental_uris": {"ios": "https://dc.lft.to/lastmile_qr_scan", "android": "https://dc.lft.to/lastmile_qr_scan"}, "lon": -77.0099215, "type": "electric_scooter", "fusion_lat": 0.0, "lat": 38.872855, "name": "eac2bf22f53bf55fdf4342a86fb56038", "fusion_lon": 0.0, "bike_id": "eac2bf22f53bf55fdf4342a86fb56038", "is_disabled": 0, "is_reserved": 0}, {"rental_uris": {"ios": "https://dc.lft.to/lastmile_qr_scan", "android": "https://dc.lft.to/lastmile_qr_scan"}, "lon": -77.04202316666667, "type": "electric_scooter", "fusion_lat": 0.0, "lat": 38.91102816666667, "name": "43d4c843cf985169a1630e7a83df2312", "fusion_lon": 0.0, "bike_id": "43d4c843cf985169a1630e7a83df2312", "is_disabled": 0, "is_reserved": 0}, {"rental_uris": {"ios": "https://dc.lft.to/lastmile_qr_scan", "android": "https://dc.lft.to/lastmile_qr_scan"}, "lon": -77.03663383333334, "type": "electric_scooter", "fusion_lat": 0.0, "lat": 38.9221135, "name": "46c428d383e365293d08f05267b464d9", "fusion_lon": 0.0, "bike_id": "46c428d383e365293d08f05267b464d9", "is_disabled": 0, "is_reserved": 0}, {"rental_uris": {"ios": "https://dc.lft.to/lastmile_qr_scan", "android": "https://dc.lft.to/lastmile_qr_scan"}, "lon": -77.038313, "type": "electric_scooter", "fusion_lat": 0.0, "lat": 38.907644, "name": "1e710312f2ee9a464dd0ae82392d88bb", "fusion_lon": 0.0, "bike_id": "1e710312f2ee9a464dd0ae82392d88bb", "is_disabled": 0, "is_reserved": 0}, {"rental_uris": {"ios": "https://dc.lft.to/lastmile_qr_scan", "android": "https://dc.lft.to/lastmile_qr_scan"}, "lon": -77.0662935, "type": "electric_scooter", "fusion_lat": 0.0, "lat": 38.92801, "name": "de31f7abf76aaccd61269ff35fac5589", "fusion_lon": 0.0, "bike_id": "de31f7abf76aaccd61269ff35fac5589", "is_disabled": 0, "is_reserved": 0}, {"rental_uris": {"ios": "https://dc.lft.to/lastmile_qr_scan", "android": "https://dc.lft.to/lastmile_qr_scan"}, "lon": -77.06999983333333, "type": "electric_bike", "fusion_lat": 0.0, "lat": 38.95503033333333, "name": "efb93a6c8e674c04f000b08df67eaf0a", "fusion_lon": 0.0, "bike_id": "efb93a6c8e674c04f000b08df67eaf0a", "is_disabled": 0, "is_reserved": 0}, {"rental_uris": {"ios": "https://dc.lft.to/lastmile_qr_scan", "android": "https://dc.lft.to/lastmile_qr_scan"}, "lon": -76.99187383333333, "type": "electric_scooter", "fusion_lat": 0.0, "lat": 38.90453566666667, "name": "5a0a4e6d302b861da6d483ed73df541d", "fusion_lon": 0.0, "bike_id": "5a0a4e6d302b861da6d483ed73df541d", "is_disabled": 0, "is_reserved": 0}, {"rental_uris": {"ios": "https://dc.lft.to/lastmile_qr_scan", "android": "https://dc.lft.to/lastmile_qr_scan"}, "lon": -77.024714, "type": "electric_scooter", "fusion_lat": 0.0, "lat": 38.93816116666667, "name": "74884f7cd77f28b4cec5248def6d7698", "fusion_lon": 0.0, "bike_id": "74884f7cd77f28b4cec5248def6d7698", "is_disabled": 0, "is_reserved": 0}, {"rental_uris": {"ios": "https://dc.lft.to/lastmile_qr_scan", "android": "https://dc.lft.to/lastmile_qr_scan"}, "lon": -77.02613166666667, "type": "electric_scooter", "fusion_lat": 0.0, "lat": 38.902402, "name": "e2760b508bcae6079267cadf603d74c8", "fusion_lon": 0.0, "bike_id": "e2760b508bcae6079267cadf603d74c8", "is_disabled": 0, "is_reserved": 0}, {"rental_uris": {"ios": "https://dc.lft.to/lastmile_qr_scan", "android": "https://dc.lft.to/lastmile_qr_scan"}, "lon": -77.1121975, "type": "electric_bike", "fusion_lat": 0.0, "lat": 38.8287135, "name": "4965bdb113a6e130dbdac24de5409f32", "fusion_lon": 0.0, "bike_id": "4965bdb113a6e130dbdac24de5409f32", "is_disabled": 0, "is_reserved": 0}, {"rental_uris": {"ios": "https://dc.lft.to/lastmile_qr_scan", "android": "https://dc.lft.to/lastmile_qr_scan"}, "lon": -77.02399783333334, "type": "electric_scooter", "fusion_lat": 0.0, "lat": 38.91990533333333, "name": "41db5b13dfb4a40e55f1d1bb1d89146f", "fusion_lon": 0.0, "bike_id": "41db5b13dfb4a40e55f1d1bb1d89146f", "is_disabled": 0, "is_reserved": 0}, {"rental_uris": {"ios": "https://dc.lft.to/lastmile_qr_scan", "android": "https://dc.lft.to/lastmile_qr_scan"}, "lon": -77.04014666666667, "type": "electric_scooter", "fusion_lat": 0.0, "lat": 38.91567516666667, "name": "bc13849220e7e0473d2d953a8c3959b3", "fusion_lon": 0.0, "bike_id": "bc13849220e7e0473d2d953a8c3959b3", "is_disabled": 0, "is_reserved": 0}, {"rental_uris": {"ios": "https://dc.lft.to/lastmile_qr_scan", "android": "https://dc.lft.to/lastmile_qr_scan"}, "lon": -76.87493966666666, "type": "electric_bike", "fusion_lat": 0.0, "lat": 38.99088666666667, "name": "351ae4c5bca45f0f8ff15b81f2768774", "fusion_lon": 0.0, "bike_id": "351ae4c5bca45f0f8ff15b81f2768774", "is_disabled": 0, "is_reserved": 0}, {"rental_uris": {"ios": "https://dc.lft.to/lastmile_qr_scan", "android": "https://dc.lft.to/lastmile_qr_scan"}, "lon": -77.02745266666666, "type": "electric_scooter", "fusion_lat": 0.0, "lat": 38.881706, "name": "979c2935a195aa0b27799688e920ac0f", "fusion_lon": 0.0, "bike_id": "979c2935a195aa0b27799688e920ac0f", "is_disabled": 0, "is_reserved": 0}, {"rental_uris": {"ios": "https://dc.lft.to/lastmile_qr_scan", "android": "https://dc.lft.to/lastmile_qr_scan"}, "lon": -77.03932066666667, "type": "electric_scooter", "fusion_lat": 0.0, "lat": 38.9211855, "name": "39aa1c42ca73a3a2e1fa190f01e06922", "fusion_lon": 0.0, "bike_id": "39aa1c42ca73a3a2e1fa190f01e06922", "is_disabled": 0, "is_reserved": 0}, {"rental_uris": {"ios": "https://dc.lft.to/lastmile_qr_scan", "android": "https://dc.lft.to/lastmile_qr_scan"}, "lon": -77.03469616666666, "type": "electric_scooter", "fusion_lat": 0.0, "lat": 38.9171815, "name": "aeb071f06088577dded21a144391863f", "fusion_lon": 0.0, "bike_id": "aeb071f06088577dded21a144391863f", "is_disabled": 0, "is_reserved": 0}, {"rental_uris": {"ios": "https://dc.lft.to/lastmile_qr_scan", "android": "https://dc.lft.to/lastmile_qr_scan"}, "lon": -77.028216, "type": "electric_scooter", "fusion_lat": 0.0, "lat": 38.9112065, "name": "49b108ee9ee76c3db3ebf7afc6da2b22", "fusion_lon": 0.0, "bike_id": "49b108ee9ee76c3db3ebf7afc6da2b22", "is_disabled": 0, "is_reserved": 0}, {"rental_uris": {"ios": "https://dc.lft.to/lastmile_qr_scan", "android": "https://dc.lft.to/lastmile_qr_scan"}, "lon": -77.04538216666667, "type": "electric_scooter", "fusion_lat": 0.0, "lat": 38.934098166666665, "name": "4cb32788cedbc68ad148116edf51d014", "fusion_lon": 0.0, "bike_id": "4cb32788cedbc68ad148116edf51d014", "is_disabled": 0, "is_reserved": 0}, {"rental_uris": {"ios": "https://dc.lft.to/lastmile_qr_scan", "android": "https://dc.lft.to/lastmile_qr_scan"}, "lon": -77.03291, "type": "electric_scooter", "fusion_lat": 0.0, "lat": 38.9234745, "name": "5dbebb7103eb6dcbd3808de4d501b470", "fusion_lon": 0.0, "bike_id": "5dbebb7103eb6dcbd3808de4d501b470", "is_disabled": 0, "is_reserved": 0}, {"rental_uris": {"ios": "https://dc.lft.to/lastmile_qr_scan", "android": "https://dc.lft.to/lastmile_qr_scan"}, "lon": -76.94635633333333, "type": "electric_scooter", "fusion_lat": 0.0, "lat": 38.89831916666667, "name": "278cc85ccf202621d18844671d95cc1b", "fusion_lon": 0.0, "bike_id": "278cc85ccf202621d18844671d95cc1b", "is_disabled": 0, "is_reserved": 0}, {"rental_uris": {"ios": "https://dc.lft.to/lastmile_qr_scan", "android": "https://dc.lft.to/lastmile_qr_scan"}, "lon": -77.044918, "type": "electric_scooter", "fusion_lat": 0.0, "lat": 38.9087005, "name": "46d52b6b40bc6468896e1aa9d3453e74", "fusion_lon": 0.0, "bike_id": "46d52b6b40bc6468896e1aa9d3453e74", "is_disabled": 0, "is_reserved": 0}, {"rental_uris": {"ios": "https://dc.lft.to/lastmile_qr_scan", "android": "https://dc.lft.to/lastmile_qr_scan"}, "lon": -77.001162, "type": "electric_scooter", "fusion_lat": 0.0, "lat": 38.90815333333333, "name": "54a42cfb7a193afedee3d9689c49a736", "fusion_lon": 0.0, "bike_id": "54a42cfb7a193afedee3d9689c49a736", "is_disabled": 0, "is_reserved": 0}, {"rental_uris": {"ios": "https://dc.lft.to/lastmile_qr_scan", "android": "https://dc.lft.to/lastmile_qr_scan"}, "lon": -77.1045435, "type": "electric_bike", "fusion_lat": 0.0, "lat": 38.8963475, "name": "a60fd37ab4bdecb6b90492f5f26f3e4c", "fusion_lon": 0.0, "bike_id": "a60fd37ab4bdecb6b90492f5f26f3e4c", "is_disabled": 0, "is_reserved": 0}, {"rental_uris": {"ios": "https://dc.lft.to/lastmile_qr_scan", "android": "https://dc.lft.to/lastmile_qr_scan"}, "lon": -77.04441183333333, "type": "electric_scooter", "fusion_lat": 0.0, "lat": 38.910168666666664, "name": "04bd91e6de236312b64809c5760f6937", "fusion_lon": 0.0, "bike_id": "04bd91e6de236312b64809c5760f6937", "is_disabled": 0, "is_reserved": 0}, {"rental_uris": {"ios": "https://dc.lft.to/lastmile_qr_scan", "android": "https://dc.lft.to/lastmile_qr_scan"}, "lon": -77.02706016666667, "type": "electric_scooter", "fusion_lat": 0.0, "lat": 38.95002316666667, "name": "fd2d34896e67e01c766a361dfe6fe130", "fusion_lon": 0.0, "bike_id": "fd2d34896e67e01c766a361dfe6fe130", "is_disabled": 0, "is_reserved": 0}, {"rental_uris": {"ios": "https://dc.lft.to/lastmile_qr_scan", "android": "https://dc.lft.to/lastmile_qr_scan"}, "lon": -77.025856, "type": "electric_scooter", "fusion_lat": 0.0, "lat": 38.92989683333333, "name": "3ec7ea2c964c352dd62c517c30cf7e8d", "fusion_lon": 0.0, "bike_id": "3ec7ea2c964c352dd62c517c30cf7e8d", "is_disabled": 0, "is_reserved": 0}, {"rental_uris": {"ios": "https://dc.lft.to/lastmile_qr_scan", "android": "https://dc.lft.to/lastmile_qr_scan"}, "lon": -77.017201, "type": "electric_scooter", "fusion_lat": 0.0, "lat": 38.920465666666665, "name": "e18d59d1ecd8751d382865b5635de087", "fusion_lon": 0.0, "bike_id": "e18d59d1ecd8751d382865b5635de087", "is_disabled": 0, "is_reserved": 0}, {"rental_uris": {"ios": "https://dc.lft.to/lastmile_qr_scan", "android": "https://dc.lft.to/lastmile_qr_scan"}, "lon": -77.03345916666666, "type": "electric_scooter", "fusion_lat": 0.0, "lat": 38.934164833333334, "name": "c34b85466950fbd9b97074142b84e2ca", "fusion_lon": 0.0, "bike_id": "c34b85466950fbd9b97074142b84e2ca", "is_disabled": 0, "is_reserved": 0}, {"rental_uris": {"ios": "https://dc.lft.to/lastmile_qr_scan", "android": "https://dc.lft.to/lastmile_qr_scan"}, "lon": -77.02248333333333, "type": "electric_scooter", "fusion_lat": 0.0, "lat": 38.92458583333333, "name": "7fc437d826d4c280f2fd022be3d15fe5", "fusion_lon": 0.0, "bike_id": "7fc437d826d4c280f2fd022be3d15fe5", "is_disabled": 0, "is_reserved": 0}, {"rental_uris": {"ios": "https://dc.lft.to/lastmile_qr_scan", "android": "https://dc.lft.to/lastmile_qr_scan"}, "lon": -77.035497, "type": "electric_scooter", "fusion_lat": 0.0, "lat": 38.93285316666667, "name": "0ec2f7814594c99f53a494920c5a5846", "fusion_lon": 0.0, "bike_id": "0ec2f7814594c99f53a494920c5a5846", "is_disabled": 0, "is_reserved": 0}, {"rental_uris": {"ios": "https://dc.lft.to/lastmile_qr_scan", "android": "https://dc.lft.to/lastmile_qr_scan"}, "lon": -77.04824016666667, "type": "electric_scooter", "fusion_lat": 0.0, "lat": 38.92045366666667, "name": "671dde15dbb3dbb2fce5e22f46c19254", "fusion_lon": 0.0, "bike_id": "671dde15dbb3dbb2fce5e22f46c19254", "is_disabled": 0, "is_reserved": 0}, {"rental_uris": {"ios": "https://dc.lft.to/lastmile_qr_scan", "android": "https://dc.lft.to/lastmile_qr_scan"}, "lon": -77.01317433333334, "type": "electric_scooter", "fusion_lat": 0.0, "lat": 38.900533833333334, "name": "238f1ccf1530b2fb57d6e77cdf3e895d", "fusion_lon": 0.0, "bike_id": "238f1ccf1530b2fb57d6e77cdf3e895d", "is_disabled": 0, "is_reserved": 0}, {"rental_uris": {"ios": "https://dc.lft.to/lastmile_qr_scan", "android": "https://dc.lft.to/lastmile_qr_scan"}, "lon": -77.03423516666666, "type": "electric_scooter", "fusion_lat": 0.0, "lat": 38.935335333333335, "name": "0b6c8b818d5ab9dbcf5ce0e1d1e29122", "fusion_lon": 0.0, "bike_id": "0b6c8b818d5ab9dbcf5ce0e1d1e29122", "is_disabled": 0, "is_reserved": 0}, {"rental_uris": {"ios": "https://dc.lft.to/lastmile_qr_scan", "android": "https://dc.lft.to/lastmile_qr_scan"}, "lon": -77.03669416666666, "type": "electric_scooter", "fusion_lat": 0.0, "lat": 38.917079, "name": "51b3ca46338300891d6cfac584f979c5", "fusion_lon": 0.0, "bike_id": "51b3ca46338300891d6cfac584f979c5", "is_disabled": 0, "is_reserved": 0}, {"rental_uris": {"ios": "https://dc.lft.to/lastmile_qr_scan", "android": "https://dc.lft.to/lastmile_qr_scan"}, "lon": -77.04237833333333, "type": "electric_scooter", "fusion_lat": 0.0, "lat": 38.905864, "name": "59c018617cdcb113950bab297e670050", "fusion_lon": 0.0, "bike_id": "59c018617cdcb113950bab297e670050", "is_disabled": 0, "is_reserved": 0}, {"rental_uris": {"ios": "https://dc.lft.to/lastmile_qr_scan", "android": "https://dc.lft.to/lastmile_qr_scan"}, "lon": -77.0414385, "type": "electric_bike", "fusion_lat": 0.0, "lat": 38.9168645, "name": "bc8d20d07af0c1235973851bbaad867b", "fusion_lon": 0.0, "bike_id": "bc8d20d07af0c1235973851bbaad867b", "is_disabled": 0, "is_reserved": 0}, {"rental_uris": {"ios": "https://dc.lft.to/lastmile_qr_scan", "android": "https://dc.lft.to/lastmile_qr_scan"}, "lon": -77.02861166666666, "type": "electric_scooter", "fusion_lat": 0.0, "lat": 38.92818883333333, "name": "4081ddd1470f27be977d88f2d57eb4de", "fusion_lon": 0.0, "bike_id": "4081ddd1470f27be977d88f2d57eb4de", "is_disabled": 0, "is_reserved": 0}, {"rental_uris": {"ios": "https://dc.lft.to/lastmile_qr_scan", "android": "https://dc.lft.to/lastmile_qr_scan"}, "lon": -77.02358016666666, "type": "electric_scooter", "fusion_lat": 0.0, "lat": 38.925083, "name": "3bc54c0715829d72498439f8d15c295f", "fusion_lon": 0.0, "bike_id": "3bc54c0715829d72498439f8d15c295f", "is_disabled": 0, "is_reserved": 0}, {"rental_uris": {"ios": "https://dc.lft.to/lastmile_qr_scan", "android": "https://dc.lft.to/lastmile_qr_scan"}, "lon": -77.03514433333333, "type": "electric_bike", "fusion_lat": 0.0, "lat": 38.965281, "name": "c652f9a6dce4aa2ff631fbaefde0bda7", "fusion_lon": 0.0, "bike_id": "c652f9a6dce4aa2ff631fbaefde0bda7", "is_disabled": 0, "is_reserved": 0}, {"rental_uris": {"ios": "https://dc.lft.to/lastmile_qr_scan", "android": "https://dc.lft.to/lastmile_qr_scan"}, "lon": -76.98701833333334, "type": "electric_scooter", "fusion_lat": 0.0, "lat": 38.907083166666666, "name": "cdc13b806fbeab4770fc25083f24c5d2", "fusion_lon": 0.0, "bike_id": "cdc13b806fbeab4770fc25083f24c5d2", "is_disabled": 0, "is_reserved": 0}, {"rental_uris": {"ios": "https://dc.lft.to/lastmile_qr_scan", "android": "https://dc.lft.to/lastmile_qr_scan"}, "lon": -77.03610433333333, "type": "electric_scooter", "fusion_lat": 0.0, "lat": 38.9233175, "name": "c2a06750cc555dffb7aeaa26d7a51ea3", "fusion_lon": 0.0, "bike_id": "c2a06750cc555dffb7aeaa26d7a51ea3", "is_disabled": 0, "is_reserved": 0}, {"rental_uris": {"ios": "https://dc.lft.to/lastmile_qr_scan", "android": "https://dc.lft.to/lastmile_qr_scan"}, "lon": -77.014808, "type": "electric_scooter", "fusion_lat": 0.0, "lat": 38.8812085, "name": "5f9f5b87c2c202f1de8a92c530cac590", "fusion_lon": 0.0, "bike_id": "5f9f5b87c2c202f1de8a92c530cac590", "is_disabled": 0, "is_reserved": 0}, {"rental_uris": {"ios": "https://dc.lft.to/lastmile_qr_scan", "android": "https://dc.lft.to/lastmile_qr_scan"}, "lon": -77.02618083333333, "type": "electric_scooter", "fusion_lat": 0.0, "lat": 38.905742333333336, "name": "04cf677cd7378cdacca1194fbed90a57", "fusion_lon": 0.0, "bike_id": "04cf677cd7378cdacca1194fbed90a57", "is_disabled": 0, "is_reserved": 0}, {"rental_uris": {"ios": "https://dc.lft.to/lastmile_qr_scan", "android": "https://dc.lft.to/lastmile_qr_scan"}, "lon": -77.0407125, "type": "electric_scooter", "fusion_lat": 0.0, "lat": 38.902707666666664, "name": "ac47ef6b822ac6ab5f1bff8a57528d88", "fusion_lon": 0.0, "bike_id": "ac47ef6b822ac6ab5f1bff8a57528d88", "is_disabled": 0, "is_reserved": 0}, {"rental_uris": {"ios": "https://dc.lft.to/lastmile_qr_scan", "android": "https://dc.lft.to/lastmile_qr_scan"}, "lon": -77.0107295, "type": "electric_scooter", "fusion_lat": 0.0, "lat": 38.894751166666666, "name": "f73649bfb81560ce421a9ff98f2a1cdb", "fusion_lon": 0.0, "bike_id": "f73649bfb81560ce421a9ff98f2a1cdb", "is_disabled": 0, "is_reserved": 0}, {"rental_uris": {"ios": "https://dc.lft.to/lastmile_qr_scan", "android": "https://dc.lft.to/lastmile_qr_scan"}, "lon": -77.00054683333333, "type": "electric_scooter", "fusion_lat": 0.0, "lat": 38.9072595, "name": "5e282ee5e72650332beeb01f0ccbecad", "fusion_lon": 0.0, "bike_id": "5e282ee5e72650332beeb01f0ccbecad", "is_disabled": 0, "is_reserved": 0}, {"rental_uris": {"ios": "https://dc.lft.to/lastmile_qr_scan", "android": "https://dc.lft.to/lastmile_qr_scan"}, "lon": -77.0351135, "type": "electric_scooter", "fusion_lat": 0.0, "lat": 38.9215295, "name": "56189d9216614401ef75df0b1a36d146", "fusion_lon": 0.0, "bike_id": "56189d9216614401ef75df0b1a36d146", "is_disabled": 0, "is_reserved": 0}, {"rental_uris": {"ios": "https://dc.lft.to/lastmile_qr_scan", "android": "https://dc.lft.to/lastmile_qr_scan"}, "lon": -77.024762, "type": "electric_scooter", "fusion_lat": 0.0, "lat": 38.918142333333336, "name": "4a7b91e6ae92752529e3437f764b8ad6", "fusion_lon": 0.0, "bike_id": "4a7b91e6ae92752529e3437f764b8ad6", "is_disabled": 0, "is_reserved": 0}, {"rental_uris": {"ios": "https://dc.lft.to/lastmile_qr_scan", "android": "https://dc.lft.to/lastmile_qr_scan"}, "lon": -77.03865383333333, "type": "electric_scooter", "fusion_lat": 0.0, "lat": 38.92022683333333, "name": "116259072f1d4df46b530da67644b7f4", "fusion_lon": 0.0, "bike_id": "116259072f1d4df46b530da67644b7f4", "is_disabled": 0, "is_reserved": 0}, {"rental_uris": {"ios": "https://dc.lft.to/lastmile_qr_scan", "android": "https://dc.lft.to/lastmile_qr_scan"}, "lon": -76.97884016666667, "type": "electric_scooter", "fusion_lat": 0.0, "lat": 38.88509216666667, "name": "3b03df174ba8c78ea98118412bb57b11", "fusion_lon": 0.0, "bike_id": "3b03df174ba8c78ea98118412bb57b11", "is_disabled": 0, "is_reserved": 0}, {"rental_uris": {"ios": "https://dc.lft.to/lastmile_qr_scan", "android": "https://dc.lft.to/lastmile_qr_scan"}, "lon": -77.0640255, "type": "electric_bike", "fusion_lat": 0.0, "lat": 38.843490833333334, "name": "5b577ef4c89ede90894459f2b4664de8", "fusion_lon": 0.0, "bike_id": "5b577ef4c89ede90894459f2b4664de8", "is_disabled": 0, "is_reserved": 0}, {"rental_uris": {"ios": "https://dc.lft.to/lastmile_qr_scan", "android": "https://dc.lft.to/lastmile_qr_scan"}, "lon": -77.05384833333333, "type": "electric_scooter", "fusion_lat": 0.0, "lat": 38.902835833333334, "name": "be804ab8a62bd12101f60e63fbbdd2ea", "fusion_lon": 0.0, "bike_id": "be804ab8a62bd12101f60e63fbbdd2ea", "is_disabled": 0, "is_reserved": 0}, {"rental_uris": {"ios": "https://dc.lft.to/lastmile_qr_scan", "android": "https://dc.lft.to/lastmile_qr_scan"}, "lon": -76.99277633333334, "type": "electric_scooter", "fusion_lat": 0.0, "lat": 38.921322833333335, "name": "9bfea2dd51af5649589ec9dd353ec874", "fusion_lon": 0.0, "bike_id": "9bfea2dd51af5649589ec9dd353ec874", "is_disabled": 0, "is_reserved": 0}, {"rental_uris": {"ios": "https://dc.lft.to/lastmile_qr_scan", "android": "https://dc.lft.to/lastmile_qr_scan"}, "lon": -77.02951383333334, "type": "electric_scooter", "fusion_lat": 0.0, "lat": 38.91675583333333, "name": "507f16a944bddb2c63fa8530db0e894a", "fusion_lon": 0.0, "bike_id": "507f16a944bddb2c63fa8530db0e894a", "is_disabled": 0, "is_reserved": 0}, {"rental_uris": {"ios": "https://dc.lft.to/lastmile_qr_scan", "android": "https://dc.lft.to/lastmile_qr_scan"}, "lon": -77.02679683333334, "type": "electric_scooter", "fusion_lat": 0.0, "lat": 38.907206333333335, "name": "12ec8193ee83d11f4afdd6f1e078ab01", "fusion_lon": 0.0, "bike_id": "12ec8193ee83d11f4afdd6f1e078ab01", "is_disabled": 0, "is_reserved": 0}, {"rental_uris": {"ios": "https://dc.lft.to/lastmile_qr_scan", "android": "https://dc.lft.to/lastmile_qr_scan"}, "lon": -76.9887465, "type": "electric_scooter", "fusion_lat": 0.0, "lat": 38.832403, "name": "fb4407d1681a64ac414b7a3d18ea5f63", "fusion_lon": 0.0, "bike_id": "fb4407d1681a64ac414b7a3d18ea5f63", "is_disabled": 0, "is_reserved": 0}, {"rental_uris": {"ios": "https://dc.lft.to/lastmile_qr_scan", "android": "https://dc.lft.to/lastmile_qr_scan"}, "lon": -77.01770466666666, "type": "electric_scooter", "fusion_lat": 0.0, "lat": 38.90569833333333, "name": "5dc9d97205200c241e5c4cd4bbd6c5c9", "fusion_lon": 0.0, "bike_id": "5dc9d97205200c241e5c4cd4bbd6c5c9", "is_disabled": 0, "is_reserved": 0}, {"rental_uris": {"ios": "https://dc.lft.to/lastmile_qr_scan", "android": "https://dc.lft.to/lastmile_qr_scan"}, "lon": -77.027109, "type": "electric_scooter", "fusion_lat": 0.0, "lat": 38.9069235, "name": "faa71ba65253ba6f5959e28feac42e69", "fusion_lon": 0.0, "bike_id": "faa71ba65253ba6f5959e28feac42e69", "is_disabled": 0, "is_reserved": 0}, {"rental_uris": {"ios": "https://dc.lft.to/lastmile_qr_scan", "android": "https://dc.lft.to/lastmile_qr_scan"}, "lon": -76.93956816666666, "type": "electric_scooter", "fusion_lat": 0.0, "lat": 38.8941885, "name": "6c2223caa6a937f10ff08da43e12ad5e", "fusion_lon": 0.0, "bike_id": "6c2223caa6a937f10ff08da43e12ad5e", "is_disabled": 0, "is_reserved": 0}, {"rental_uris": {"ios": "https://dc.lft.to/lastmile_qr_scan", "android": "https://dc.lft.to/lastmile_qr_scan"}, "lon": -77.0782305, "type": "electric_scooter", "fusion_lat": 0.0, "lat": 38.940922666666665, "name": "c4a74177cd142adabb17668ecdcf90fd", "fusion_lon": 0.0, "bike_id": "c4a74177cd142adabb17668ecdcf90fd", "is_disabled": 0, "is_reserved": 0}, {"rental_uris": {"ios": "https://dc.lft.to/lastmile_qr_scan", "android": "https://dc.lft.to/lastmile_qr_scan"}, "lon": -77.03272233333334, "type": "electric_scooter", "fusion_lat": 0.0, "lat": 38.9376805, "name": "6be2edb74f7d8d3e8d989488b658f63e", "fusion_lon": 0.0, "bike_id": "6be2edb74f7d8d3e8d989488b658f63e", "is_disabled": 0, "is_reserved": 0}, {"rental_uris": {"ios": "https://dc.lft.to/lastmile_qr_scan", "android": "https://dc.lft.to/lastmile_qr_scan"}, "lon": -77.007134, "type": "electric_scooter", "fusion_lat": 0.0, "lat": 38.913489, "name": "957ba82571a3f3742c54c4c4b5bde833", "fusion_lon": 0.0, "bike_id": "957ba82571a3f3742c54c4c4b5bde833", "is_disabled": 0, "is_reserved": 0}, {"rental_uris": {"ios": "https://dc.lft.to/lastmile_qr_scan", "android": "https://dc.lft.to/lastmile_qr_scan"}, "lon": -77.015929, "type": "electric_scooter", "fusion_lat": 0.0, "lat": 38.896176833333335, "name": "8301556838b80e569ebfafcb40681115", "fusion_lon": 0.0, "bike_id": "8301556838b80e569ebfafcb40681115", "is_disabled": 0, "is_reserved": 0}, {"rental_uris": {"ios": "https://dc.lft.to/lastmile_qr_scan", "android": "https://dc.lft.to/lastmile_qr_scan"}, "lon": -77.05265033333333, "type": "electric_scooter", "fusion_lat": 0.0, "lat": 38.910143166666664, "name": "39558e4060e07f489d201dc9621502e5", "fusion_lon": 0.0, "bike_id": "39558e4060e07f489d201dc9621502e5", "is_disabled": 0, "is_reserved": 0}, {"rental_uris": {"ios": "https://dc.lft.to/lastmile_qr_scan", "android": "https://dc.lft.to/lastmile_qr_scan"}, "lon": -77.00599183333334, "type": "electric_scooter", "fusion_lat": 0.0, "lat": 38.90585766666667, "name": "a45f1758f553da2f381fcbff6b22e712", "fusion_lon": 0.0, "bike_id": "a45f1758f553da2f381fcbff6b22e712", "is_disabled": 0, "is_reserved": 0}, {"rental_uris": {"ios": "https://dc.lft.to/lastmile_qr_scan", "android": "https://dc.lft.to/lastmile_qr_scan"}, "lon": -77.03177016666666, "type": "electric_scooter", "fusion_lat": 0.0, "lat": 38.917999333333334, "name": "939ecca5528b917a59c5b19b67afaeee", "fusion_lon": 0.0, "bike_id": "939ecca5528b917a59c5b19b67afaeee", "is_disabled": 0, "is_reserved": 0}, {"rental_uris": {"ios": "https://dc.lft.to/lastmile_qr_scan", "android": "https://dc.lft.to/lastmile_qr_scan"}, "lon": -76.92997066666666, "type": "electric_bike", "fusion_lat": 0.0, "lat": 38.88801483333334, "name": "430df6212d6faa83dd94b5ea8b5697d4", "fusion_lon": 0.0, "bike_id": "430df6212d6faa83dd94b5ea8b5697d4", "is_disabled": 0, "is_reserved": 0}, {"rental_uris": {"ios": "https://dc.lft.to/lastmile_qr_scan", "android": "https://dc.lft.to/lastmile_qr_scan"}, "lon": -77.04923183333334, "type": "electric_scooter", "fusion_lat": 0.0, "lat": 38.89606666666667, "name": "22fbcb10d74dc6850e02ca54dd35a292", "fusion_lon": 0.0, "bike_id": "22fbcb10d74dc6850e02ca54dd35a292", "is_disabled": 0, "is_reserved": 0}, {"rental_uris": {"ios": "https://dc.lft.to/lastmile_qr_scan", "android": "https://dc.lft.to/lastmile_qr_scan"}, "lon": -77.01999316666667, "type": "electric_scooter", "fusion_lat": 0.0, "lat": 38.88559633333333, "name": "555cc3e65c3c4430c2b354acd1a73471", "fusion_lon": 0.0, "bike_id": "555cc3e65c3c4430c2b354acd1a73471", "is_disabled": 0, "is_reserved": 0}, {"rental_uris": {"ios": "https://dc.lft.to/lastmile_qr_scan", "android": "https://dc.lft.to/lastmile_qr_scan"}, "lon": -77.029621, "type": "electric_scooter", "fusion_lat": 0.0, "lat": 38.905192666666665, "name": "d001cfba23a16d5445979f9d6d01e004", "fusion_lon": 0.0, "bike_id": "d001cfba23a16d5445979f9d6d01e004", "is_disabled": 0, "is_reserved": 0}, {"rental_uris": {"ios": "https://dc.lft.to/lastmile_qr_scan", "android": "https://dc.lft.to/lastmile_qr_scan"}, "lon": -77.056253, "type": "electric_bike", "fusion_lat": 0.0, "lat": 38.9240495, "name": "4e4a141214de352bb4bfff1da267c4e3", "fusion_lon": 0.0, "bike_id": "4e4a141214de352bb4bfff1da267c4e3", "is_disabled": 0, "is_reserved": 0}, {"rental_uris": {"ios": "https://dc.lft.to/lastmile_qr_scan", "android": "https://dc.lft.to/lastmile_qr_scan"}, "lon": -77.03224466666667, "type": "electric_scooter", "fusion_lat": 0.0, "lat": 38.92671966666666, "name": "7f9bbc03fc693bd94973b9f07e5351a0", "fusion_lon": 0.0, "bike_id": "7f9bbc03fc693bd94973b9f07e5351a0", "is_disabled": 0, "is_reserved": 0}, {"rental_uris": {"ios": "https://dc.lft.to/lastmile_qr_scan", "android": "https://dc.lft.to/lastmile_qr_scan"}, "lon": -77.04114133333333, "type": "electric_scooter", "fusion_lat": 0.0, "lat": 38.92448683333333, "name": "97a74d69ba15a356522d636bbdec3fa9", "fusion_lon": 0.0, "bike_id": "97a74d69ba15a356522d636bbdec3fa9", "is_disabled": 0, "is_reserved": 0}, {"rental_uris": {"ios": "https://dc.lft.to/lastmile_qr_scan", "android": "https://dc.lft.to/lastmile_qr_scan"}, "lon": -76.97493016666667, "type": "electric_bike", "fusion_lat": 0.0, "lat": 38.9200625, "name": "38e472ff23ec277e80b648c33053b071", "fusion_lon": 0.0, "bike_id": "38e472ff23ec277e80b648c33053b071", "is_disabled": 0, "is_reserved": 0}, {"rental_uris": {"ios": "https://dc.lft.to/lastmile_qr_scan", "android": "https://dc.lft.to/lastmile_qr_scan"}, "lon": -77.00262083333334, "type": "electric_scooter", "fusion_lat": 0.0, "lat": 38.911947166666664, "name": "c0b760c0913f998bf5eebaecbcbe6424", "fusion_lon": 0.0, "bike_id": "c0b760c0913f998bf5eebaecbcbe6424", "is_disabled": 0, "is_reserved": 0}, {"rental_uris": {"ios": "https://dc.lft.to/lastmile_qr_scan", "android": "https://dc.lft.to/lastmile_qr_scan"}, "lon": -76.93719083333333, "type": "electric_scooter", "fusion_lat": 0.0, "lat": 38.89589133333333, "name": "89ed80cc4e689c823a28cf615627ebb2", "fusion_lon": 0.0, "bike_id": "89ed80cc4e689c823a28cf615627ebb2", "is_disabled": 0, "is_reserved": 0}, {"rental_uris": {"ios": "https://dc.lft.to/lastmile_qr_scan", "android": "https://dc.lft.to/lastmile_qr_scan"}, "lon": -77.04013716666667, "type": "electric_scooter", "fusion_lat": 0.0, "lat": 38.9100655, "name": "410fcd531b8d809d4303f137004a5bcd", "fusion_lon": 0.0, "bike_id": "410fcd531b8d809d4303f137004a5bcd", "is_disabled": 0, "is_reserved": 0}, {"rental_uris": {"ios": "https://dc.lft.to/lastmile_qr_scan", "android": "https://dc.lft.to/lastmile_qr_scan"},