{"data": {"bikes": [{"is_disabled": 0, "fusion_lon": 0.0, "fusion_lat": 0.0, "lat": 38.98480816666667, "type": "electric_bike", "lon": -76.98167733333334, "bike_id": "902a84c7ff219d28e75a071d6927f772", "rental_uris": {"android": "https://dc.lft.to/lastmile_qr_scan", "ios": "https://dc.lft.to/lastmile_qr_scan"}, "name": "902a84c7ff219d28e75a071d6927f772", "is_reserved": 0}, {"is_disabled": 0, "fusion_lon": 0.0, "fusion_lat": 0.0, "lat": 38.915656, "type": "electric_scooter", "lon": -77.01020216666667, "bike_id": "a8e99664daaf9b67e12b033e4e4f7ce9", "rental_uris": {"android": "https://dc.lft.to/lastmile_qr_scan", "ios": "https://dc.lft.to/lastmile_qr_scan"}, "name": "a8e99664daaf9b67e12b033e4e4f7ce9", "is_reserved": 0}, {"is_disabled": 0, "fusion_lon": 0.0, "fusion_lat": 0.0, "lat": 38.90524883333333, "type": "electric_scooter", "lon": -77.02529333333334, "bike_id": "7cde1abb1f859ee4a9b8c2f2bfb1b84f", "rental_uris": {"android": "https://dc.lft.to/lastmile_qr_scan", "ios": "https://dc.lft.to/lastmile_qr_scan"}, "name": "7cde1abb1f859ee4a9b8c2f2bfb1b84f", "is_reserved": 0}, {"is_disabled": 0, "fusion_lon": 0.0, "fusion_lat": 0.0, "lat": 38.876780333333336, "type": "electric_scooter", "lon": -77.00885666666667, "bike_id": "3311bcef253880b754d75f127656f97c", "rental_uris": {"android": "https://dc.lft.to/lastmile_qr_scan", "ios": "https://dc.lft.to/lastmile_qr_scan"}, "name": "3311bcef253880b754d75f127656f97c", "is_reserved": 0}, {"is_disabled": 0, "fusion_lon": 0.0, "fusion_lat": 0.0, "lat": 38.904782, "type": "electric_scooter", "lon": -76.97318483333333, "bike_id": "7065f074cf16a675b033359fe01330ad", "rental_uris": {"android": "https://dc.lft.to/lastmile_qr_scan", "ios": "https://dc.lft.to/lastmile_qr_scan"}, "name": "7065f074cf16a675b033359fe01330ad", "is_reserved": 0}, {"is_disabled": 0, "fusion_lon": 0.0, "fusion_lat": 0.0, "lat": 38.91705683333333, "type": "electric_scooter", "lon": -77.00114833333333, "bike_id": "1e3816c67e88db41bf1339d00e1e6bcf", "rental_uris": {"android": "https://dc.lft.to/lastmile_qr_scan", "ios": "https://dc.lft.to/lastmile_qr_scan"}, "name": "1e3816c67e88db41bf1339d00e1e6bcf", "is_reserved": 0}, {"is_disabled": 0, "fusion_lon": 0.0, "fusion_lat": 0.0, "lat": 38.909197, "type": "electric_scooter", "lon": -77.02306133333333, "bike_id": "47d58421c1d42d3196523dab607417b6", "rental_uris": {"android": "https://dc.lft.to/lastmile_qr_scan", "ios": "https://dc.lft.to/lastmile_qr_scan"}, "name": "47d58421c1d42d3196523dab607417b6", "is_reserved": 0}, {"is_disabled": 0, "fusion_lon": 0.0, "fusion_lat": 0.0, "lat": 38.917981166666664, "type": "electric_scooter", "lon": -77.0239735, "bike_id": "8718001822974ac886db9c04de6455e3", "rental_uris": {"android": "https://dc.lft.to/lastmile_qr_scan", "ios": "https://dc.lft.to/lastmile_qr_scan"}, "name": "8718001822974ac886db9c04de6455e3", "is_reserved": 0}, {"is_disabled": 0, "fusion_lon": 0.0, "fusion_lat": 0.0, "lat": 38.914623166666665, "type": "electric_scooter", "lon": -77.03184083333333, "bike_id": "c28ba18e39e19370c8b6873f689cbc45", "rental_uris": {"android": "https://dc.lft.to/lastmile_qr_scan", "ios": "https://dc.lft.to/lastmile_qr_scan"}, "name": "c28ba18e39e19370c8b6873f689cbc45", "is_reserved": 0}, {"is_disabled": 0, "fusion_lon": 0.0, "fusion_lat": 0.0, "lat": 38.911323833333334, "type": "electric_scooter", "lon": -77.04196266666666, "bike_id": "be9656ef52e15758993445fdd50b6cf3", "rental_uris": {"android": "https://dc.lft.to/lastmile_qr_scan", "ios": "https://dc.lft.to/lastmile_qr_scan"}, "name": "be9656ef52e15758993445fdd50b6cf3", "is_reserved": 0}, {"is_disabled": 0, "fusion_lon": 0.0, "fusion_lat": 0.0, "lat": 38.86598133333333, "type": "electric_bike", "lon": -76.932186, "bike_id": "946e2daae3ea66ddefeaff3eb0cbf83e", "rental_uris": {"android": "https://dc.lft.to/lastmile_qr_scan", "ios": "https://dc.lft.to/lastmile_qr_scan"}, "name": "946e2daae3ea66ddefeaff3eb0cbf83e", "is_reserved": 0}, {"is_disabled": 0, "fusion_lon": 0.0, "fusion_lat": 0.0, "lat": 38.85202666666667, "type": "electric_bike", "lon": -77.12762183333334, "bike_id": "d33bc8056dcfa478c130f4d500090831", "rental_uris": {"android": "https://dc.lft.to/lastmile_qr_scan", "ios": "https://dc.lft.to/lastmile_qr_scan"}, "name": "d33bc8056dcfa478c130f4d500090831", "is_reserved": 0}, {"is_disabled": 0, "fusion_lon": 0.0, "fusion_lat": 0.0, "lat": 38.8925085, "type": "electric_scooter", "lon": -76.99845266666667, "bike_id": "bebd28d512cebec01bb80940fe3966b4", "rental_uris": {"android": "https://dc.lft.to/lastmile_qr_scan", "ios": "https://dc.lft.to/lastmile_qr_scan"}, "name": "bebd28d512cebec01bb80940fe3966b4", "is_reserved": 0}, {"is_disabled": 0, "fusion_lon": 0.0, "fusion_lat": 0.0, "lat": 38.902942333333336, "type": "electric_scooter", "lon": -77.05072333333334, "bike_id": "e09e1762a8e69970fe6a199a0263391a", "rental_uris": {"android": "https://dc.lft.to/lastmile_qr_scan", "ios": "https://dc.lft.to/lastmile_qr_scan"}, "name": "e09e1762a8e69970fe6a199a0263391a", "is_reserved": 0}, {"is_disabled": 0, "fusion_lon": 0.0, "fusion_lat": 0.0, "lat": 38.936051666666664, "type": "electric_scooter", "lon": -77.058599, "bike_id": "e439a91dfe20c31a832eea0995bb7a9c", "rental_uris": {"android": "https://dc.lft.to/lastmile_qr_scan", "ios": "https://dc.lft.to/lastmile_qr_scan"}, "name": "e439a91dfe20c31a832eea0995bb7a9c", "is_reserved": 0}, {"is_disabled": 0, "fusion_lon": 0.0, "fusion_lat": 0.0, "lat": 38.94940833333333, "type": "electric_bike", "lon": -77.00766716666666, "bike_id": "1d0a02ef1956c4ab1ad3c8d271f74db0", "rental_uris": {"android": "https://dc.lft.to/lastmile_qr_scan", "ios": "https://dc.lft.to/lastmile_qr_scan"}, "name": "1d0a02ef1956c4ab1ad3c8d271f74db0", "is_reserved": 0}, {"is_disabled": 0, "fusion_lon": 0.0, "fusion_lat": 0.0, "lat": 38.900241666666666, "type": "electric_scooter", "lon": -76.9915715, "bike_id": "6abec3c1b5d75576869255c45ac28dfb", "rental_uris": {"android": "https://dc.lft.to/lastmile_qr_scan", "ios": "https://dc.lft.to/lastmile_qr_scan"}, "name": "6abec3c1b5d75576869255c45ac28dfb", "is_reserved": 0}, {"is_disabled": 0, "fusion_lon": 0.0, "fusion_lat": 0.0, "lat": 38.916918833333334, "type": "electric_scooter", "lon": -77.00637566666667, "bike_id": "425b1bfd54f8ec988142124d8f85cea3", "rental_uris": {"android": "https://dc.lft.to/lastmile_qr_scan", "ios": "https://dc.lft.to/lastmile_qr_scan"}, "name": "425b1bfd54f8ec988142124d8f85cea3", "is_reserved": 0}, {"is_disabled": 0, "fusion_lon": 0.0, "fusion_lat": 0.0, "lat": 38.911114, "type": "electric_scooter", "lon": -77.04502483333333, "bike_id": "3a952f1adf0e382a135c2d0388536806", "rental_uris": {"android": "https://dc.lft.to/lastmile_qr_scan", "ios": "https://dc.lft.to/lastmile_qr_scan"}, "name": "3a952f1adf0e382a135c2d0388536806", "is_reserved": 0}, {"is_disabled": 0, "fusion_lon": 0.0, "fusion_lat": 0.0, "lat": 38.907984666666664, "type": "electric_bike", "lon": -77.04881866666666, "bike_id": "adf2c3f9b21f94d2b84d8c9ff337b82d", "rental_uris": {"android": "https://dc.lft.to/lastmile_qr_scan", "ios": "https://dc.lft.to/lastmile_qr_scan"}, "name": "adf2c3f9b21f94d2b84d8c9ff337b82d", "is_reserved": 0}, {"is_disabled": 0, "fusion_lon": 0.0, "fusion_lat": 0.0, "lat": 38.89741216666667, "type": "electric_scooter", "lon": -77.0511615, "bike_id": "d975b1a1365eab4f98f6ffadf666a33e", "rental_uris": {"android": "https://dc.lft.to/lastmile_qr_scan", "ios": "https://dc.lft.to/lastmile_qr_scan"}, "name": "d975b1a1365eab4f98f6ffadf666a33e", "is_reserved": 0}, {"is_disabled": 0, "fusion_lon": 0.0, "fusion_lat": 0.0, "lat": 38.9142205, "type": "electric_scooter", "lon": -77.01427083333333, "bike_id": "2f4a478ffcbf234e85fbe4175fd17c5f", "rental_uris": {"android": "https://dc.lft.to/lastmile_qr_scan", "ios": "https://dc.lft.to/lastmile_qr_scan"}, "name": "2f4a478ffcbf234e85fbe4175fd17c5f", "is_reserved": 0}, {"is_disabled": 0, "fusion_lon": 0.0, "fusion_lat": 0.0, "lat": 38.9214235, "type": "electric_scooter", "lon": -77.00917133333333, "bike_id": "f9f73787e133739546ff52c18986a388", "rental_uris": {"android": "https://dc.lft.to/lastmile_qr_scan", "ios": "https://dc.lft.to/lastmile_qr_scan"}, "name": "f9f73787e133739546ff52c18986a388", "is_reserved": 0}, {"is_disabled": 0, "fusion_lon": 0.0, "fusion_lat": 0.0, "lat": 38.9073265, "type": "electric_scooter", "lon": -77.02417066666666, "bike_id": "59328470bd714cb8961ca8b826ed7dba", "rental_uris": {"android": "https://dc.lft.to/lastmile_qr_scan", "ios": "https://dc.lft.to/lastmile_qr_scan"}, "name": "59328470bd714cb8961ca8b826ed7dba", "is_reserved": 0}, {"is_disabled": 0, "fusion_lon": 0.0, "fusion_lat": 0.0, "lat": 38.91917883333333, "type": "electric_scooter", "lon": -77.04473283333333, "bike_id": "5cf47fc0730d44bb589fc033a16f45ef", "rental_uris": {"android": "https://dc.lft.to/lastmile_qr_scan", "ios": "https://dc.lft.to/lastmile_qr_scan"}, "name": "5cf47fc0730d44bb589fc033a16f45ef", "is_reserved": 0}, {"is_disabled": 0, "fusion_lon": 0.0, "fusion_lat": 0.0, "lat": 38.87499533333333, "type": "electric_scooter", "lon": -76.99792866666667, "bike_id": "fb5ee4ebf0569d76a32140e050963e2a", "rental_uris": {"android": "https://dc.lft.to/lastmile_qr_scan", "ios": "https://dc.lft.to/lastmile_qr_scan"}, "name": "fb5ee4ebf0569d76a32140e050963e2a", "is_reserved": 0}, {"is_disabled": 0, "fusion_lon": 0.0, "fusion_lat": 0.0, "lat": 38.845120333333334, "type": "electric_scooter", "lon": -76.9815005, "bike_id": "a984d1e663780f5f5a6782f05d5675cd", "rental_uris": {"android": "https://dc.lft.to/lastmile_qr_scan", "ios": "https://dc.lft.to/lastmile_qr_scan"}, "name": "a984d1e663780f5f5a6782f05d5675cd", "is_reserved": 0}, {"is_disabled": 0, "fusion_lon": 0.0, "fusion_lat": 0.0, "lat": 38.88720283333333, "type": "electric_scooter", "lon": -77.02205933333333, "bike_id": "86b149bf6622c4f55463a6302eb69319", "rental_uris": {"android": "https://dc.lft.to/lastmile_qr_scan", "ios": "https://dc.lft.to/lastmile_qr_scan"}, "name": "86b149bf6622c4f55463a6302eb69319", "is_reserved": 0}, {"is_disabled": 0, "fusion_lon": 0.0, "fusion_lat": 0.0, "lat": 38.91821816666667, "type": "electric_scooter", "lon": -77.03530266666667, "bike_id": "b9f8cfbc5f16545b2298a5707e58023a", "rental_uris": {"android": "https://dc.lft.to/lastmile_qr_scan", "ios": "https://dc.lft.to/lastmile_qr_scan"}, "name": "b9f8cfbc5f16545b2298a5707e58023a", "is_reserved": 0}, {"is_disabled": 0, "fusion_lon": 0.0, "fusion_lat": 0.0, "lat": 38.931008, "type": "electric_scooter", "lon": -77.02447766666667, "bike_id": "8e9778e811683c518601e9a42dc5e043", "rental_uris": {"android": "https://dc.lft.to/lastmile_qr_scan", "ios": "https://dc.lft.to/lastmile_qr_scan"}, "name": "8e9778e811683c518601e9a42dc5e043", "is_reserved": 0}, {"is_disabled": 0, "fusion_lon": 0.0, "fusion_lat": 0.0, "lat": 38.90260466666667, "type": "electric_scooter", "lon": -77.00017166666666, "bike_id": "d195e391b7b5030fa5d2933f01c5f94c", "rental_uris": {"android": "https://dc.lft.to/lastmile_qr_scan", "ios": "https://dc.lft.to/lastmile_qr_scan"}, "name": "d195e391b7b5030fa5d2933f01c5f94c", "is_reserved": 0}, {"is_disabled": 0, "fusion_lon": 0.0, "fusion_lat": 0.0, "lat": 38.86463283333333, "type": "electric_scooter", "lon": -76.996119, "bike_id": "4a02f2139123353ec9b89a476e853da4", "rental_uris": {"android": "https://dc.lft.to/lastmile_qr_scan", "ios": "https://dc.lft.to/lastmile_qr_scan"}, "name": "4a02f2139123353ec9b89a476e853da4", "is_reserved": 0}, {"is_disabled": 0, "fusion_lon": 0.0, "fusion_lat": 0.0, "lat": 38.92117833333333, "type": "electric_scooter", "lon": -77.012089, "bike_id": "e3cddf632c22b780735a4c5f6c4d2831", "rental_uris": {"android": "https://dc.lft.to/lastmile_qr_scan", "ios": "https://dc.lft.to/lastmile_qr_scan"}, "name": "e3cddf632c22b780735a4c5f6c4d2831", "is_reserved": 0}, {"is_disabled": 0, "fusion_lon": 0.0, "fusion_lat": 0.0, "lat": 38.930938833333336, "type": "electric_scooter", "lon": -77.02542433333333, "bike_id": "d337f77a582a9fcb71ea33b3bc68b880", "rental_uris": {"android": "https://dc.lft.to/lastmile_qr_scan", "ios": "https://dc.lft.to/lastmile_qr_scan"}, "name": "d337f77a582a9fcb71ea33b3bc68b880", "is_reserved": 0}, {"is_disabled": 0, "fusion_lon": 0.0, "fusion_lat": 0.0, "lat": 38.931358833333334, "type": "electric_scooter", "lon": -77.07846266666667, "bike_id": "1a755d945f869341b0e3d62ea9a24b70", "rental_uris": {"android": "https://dc.lft.to/lastmile_qr_scan", "ios": "https://dc.lft.to/lastmile_qr_scan"}, "name": "1a755d945f869341b0e3d62ea9a24b70", "is_reserved": 0}, {"is_disabled": 0, "fusion_lon": 0.0, "fusion_lat": 0.0, "lat": 38.900405666666664, "type": "electric_scooter", "lon": -76.98315616666666, "bike_id": "519de15086b20bf0994d6fde34ed751e", "rental_uris": {"android": "https://dc.lft.to/lastmile_qr_scan", "ios": "https://dc.lft.to/lastmile_qr_scan"}, "name": "519de15086b20bf0994d6fde34ed751e", "is_reserved": 0}, {"is_disabled": 0, "fusion_lon": 0.0, "fusion_lat": 0.0, "lat": 38.9051165, "type": "electric_scooter", "lon": -77.0488755, "bike_id": "ea658d8f1cf4aa11db218eb67c1037ba", "rental_uris": {"android": "https://dc.lft.to/lastmile_qr_scan", "ios": "https://dc.lft.to/lastmile_qr_scan"}, "name": "ea658d8f1cf4aa11db218eb67c1037ba", "is_reserved": 0}, {"is_disabled": 0, "fusion_lon": 0.0, "fusion_lat": 0.0, "lat": 38.905690166666666, "type": "electric_scooter", "lon": -77.04352433333334, "bike_id": "e641b3d227623554be7733c4da81404d", "rental_uris": {"android": "https://dc.lft.to/lastmile_qr_scan", "ios": "https://dc.lft.to/lastmile_qr_scan"}, "name": "e641b3d227623554be7733c4da81404d", "is_reserved": 0}, {"is_disabled": 0, "fusion_lon": 0.0, "fusion_lat": 0.0, "lat": 38.87498816666667, "type": "electric_scooter", "lon": -76.99794583333333, "bike_id": "956ddad768050edc19660ded2ab1b457", "rental_uris": {"android": "https://dc.lft.to/lastmile_qr_scan", "ios": "https://dc.lft.to/lastmile_qr_scan"}, "name": "956ddad768050edc19660ded2ab1b457", "is_reserved": 0}, {"is_disabled": 0, "fusion_lon": 0.0, "fusion_lat": 0.0, "lat": 38.89496166666667, "type": "electric_scooter", "lon": -77.009483, "bike_id": "19932fb0464352c04ee17cb258fdd730", "rental_uris": {"android": "https://dc.lft.to/lastmile_qr_scan", "ios": "https://dc.lft.to/lastmile_qr_scan"}, "name": "19932fb0464352c04ee17cb258fdd730", "is_reserved": 0}, {"is_disabled": 0, "fusion_lon": 0.0, "fusion_lat": 0.0, "lat": 38.91107083333333, "type": "electric_scooter", "lon": -77.04500266666666, "bike_id": "2a6f0d95f3b92607d7a2b5f12e0998e5", "rental_uris": {"android": "https://dc.lft.to/lastmile_qr_scan", "ios": "https://dc.lft.to/lastmile_qr_scan"}, "name": "2a6f0d95f3b92607d7a2b5f12e0998e5", "is_reserved": 0}, {"is_disabled": 0, "fusion_lon": 0.0, "fusion_lat": 0.0, "lat": 38.92992316666667, "type": "electric_scooter", "lon": -77.02399266666667, "bike_id": "a54a2a7a102b84cda53c05f049a9c25a", "rental_uris": {"android": "https://dc.lft.to/lastmile_qr_scan", "ios": "https://dc.lft.to/lastmile_qr_scan"}, "name": "a54a2a7a102b84cda53c05f049a9c25a", "is_reserved": 0}, {"is_disabled": 0, "fusion_lon": 0.0, "fusion_lat": 0.0, "lat": 38.91683316666666, "type": "electric_scooter", "lon": -77.02523283333333, "bike_id": "7cf67dbb6acbe66fdd11c09492ebf916", "rental_uris": {"android": "https://dc.lft.to/lastmile_qr_scan", "ios": "https://dc.lft.to/lastmile_qr_scan"}, "name": "7cf67dbb6acbe66fdd11c09492ebf916", "is_reserved": 0}, {"is_disabled": 0, "fusion_lon": 0.0, "fusion_lat": 0.0, "lat": 38.9165865, "type": "electric_scooter", "lon": -77.02796483333333, "bike_id": "c7e7d8480149aac57ccbad23c8d729ee", "rental_uris": {"android": "https://dc.lft.to/lastmile_qr_scan", "ios": "https://dc.lft.to/lastmile_qr_scan"}, "name": "c7e7d8480149aac57ccbad23c8d729ee", "is_reserved": 0}, {"is_disabled": 0, "fusion_lon": 0.0, "fusion_lat": 0.0, "lat": 38.90711433333333, "type": "electric_scooter", "lon": -77.02710066666667, "bike_id": "b8274febd9244e44f5a52c4827791f89", "rental_uris": {"android": "https://dc.lft.to/lastmile_qr_scan", "ios": "https://dc.lft.to/lastmile_qr_scan"}, "name": "b8274febd9244e44f5a52c4827791f89", "is_reserved": 0}, {"is_disabled": 0, "fusion_lon": 0.0, "fusion_lat": 0.0, "lat": 38.84510316666667, "type": "electric_bike", "lon": -76.97208666666667, "bike_id": "07b40495e2666b7ff73065f87ad5578a", "rental_uris": {"android": "https://dc.lft.to/lastmile_qr_scan", "ios": "https://dc.lft.to/lastmile_qr_scan"}, "name": "07b40495e2666b7ff73065f87ad5578a", "is_reserved": 0}, {"is_disabled": 0, "fusion_lon": 0.0, "fusion_lat": 0.0, "lat": 38.936350166666664, "type": "electric_scooter", "lon": -77.0246285, "bike_id": "214501352f4ca2780fc08fc6717d67d0", "rental_uris": {"android": "https://dc.lft.to/lastmile_qr_scan", "ios": "https://dc.lft.to/lastmile_qr_scan"}, "name": "214501352f4ca2780fc08fc6717d67d0", "is_reserved": 0}, {"is_disabled": 0, "fusion_lon": 0.0, "fusion_lat": 0.0, "lat": 38.94454266666666, "type": "electric_scooter", "lon": -77.06023366666666, "bike_id": "e137ace0578738909838c81f178d48e6", "rental_uris": {"android": "https://dc.lft.to/lastmile_qr_scan", "ios": "https://dc.lft.to/lastmile_qr_scan"}, "name": "e137ace0578738909838c81f178d48e6", "is_reserved": 0}, {"is_disabled": 0, "fusion_lon": 0.0, "fusion_lat": 0.0, "lat": 38.92222, "type": "electric_scooter", "lon": -77.042417, "bike_id": "87dc28de285c2b75f9a1b79b9aa8ce80", "rental_uris": {"android": "https://dc.lft.to/lastmile_qr_scan", "ios": "https://dc.lft.to/lastmile_qr_scan"}, "name": "87dc28de285c2b75f9a1b79b9aa8ce80", "is_reserved": 0}, {"is_disabled": 0, "fusion_lon": 0.0, "fusion_lat": 0.0, "lat": 38.90535883333333, "type": "electric_scooter", "lon": -77.02689216666667, "bike_id": "578fd06037bdc6310d003a9e2af0dd91", "rental_uris": {"android": "https://dc.lft.to/lastmile_qr_scan", "ios": "https://dc.lft.to/lastmile_qr_scan"}, "name": "578fd06037bdc6310d003a9e2af0dd91", "is_reserved": 0}, {"is_disabled": 0, "fusion_lon": 0.0, "fusion_lat": 0.0, "lat": 38.99669, "type": "electric_bike", "lon": -76.991428, "bike_id": "7666f7015cd7db82a4b4ee7c6ff96030", "rental_uris": {"android": "https://dc.lft.to/lastmile_qr_scan", "ios": "https://dc.lft.to/lastmile_qr_scan"}, "name": "7666f7015cd7db82a4b4ee7c6ff96030", "is_reserved": 0}, {"is_disabled": 0, "fusion_lon": 0.0, "fusion_lat": 0.0, "lat": 38.89659183333333, "type": "electric_scooter", "lon": -77.043431, "bike_id": "55d92195b01241a8610983b94106af27", "rental_uris": {"android": "https://dc.lft.to/lastmile_qr_scan", "ios": "https://dc.lft.to/lastmile_qr_scan"}, "name": "55d92195b01241a8610983b94106af27", "is_reserved": 0}, {"is_disabled": 0, "fusion_lon": 0.0, "fusion_lat": 0.0, "lat": 38.926165166666664, "type": "electric_scooter", "lon": -77.04201583333334, "bike_id": "81bb5ff6b24b2c836db2ecf920518b6e", "rental_uris": {"android": "https://dc.lft.to/lastmile_qr_scan", "ios": "https://dc.lft.to/lastmile_qr_scan"}, "name": "81bb5ff6b24b2c836db2ecf920518b6e", "is_reserved": 0}, {"is_disabled": 0, "fusion_lon": 0.0, "fusion_lat": 0.0, "lat": 38.8752635, "type": "electric_scooter", "lon": -77.01369866666667, "bike_id": "6897fad7398fa363ccd2ffe52f71b808", "rental_uris": {"android": "https://dc.lft.to/lastmile_qr_scan", "ios": "https://dc.lft.to/lastmile_qr_scan"}, "name": "6897fad7398fa363ccd2ffe52f71b808", "is_reserved": 0}, {"is_disabled": 0, "fusion_lon": 0.0, "fusion_lat": 0.0, "lat": 38.872894333333335, "type": "electric_scooter", "lon": -77.00986033333334, "bike_id": "4a3b576b5b12650e63cdf9540edd5b72", "rental_uris": {"android": "https://dc.lft.to/lastmile_qr_scan", "ios": "https://dc.lft.to/lastmile_qr_scan"}, "name": "4a3b576b5b12650e63cdf9540edd5b72", "is_reserved": 0}, {"is_disabled": 0, "fusion_lon": 0.0, "fusion_lat": 0.0, "lat": 38.896524, "type": "electric_scooter", "lon": -77.01197833333333, "bike_id": "41f16053113df8901efebcaabf955e4a", "rental_uris": {"android": "https://dc.lft.to/lastmile_qr_scan", "ios": "https://dc.lft.to/lastmile_qr_scan"}, "name": "41f16053113df8901efebcaabf955e4a", "is_reserved": 0}, {"is_disabled": 0, "fusion_lon": 0.0, "fusion_lat": 0.0, "lat": 38.910034333333336, "type": "electric_scooter", "lon": -77.0372655, "bike_id": "ee30188f2bb3c3f5d0892e00120398db", "rental_uris": {"android": "https://dc.lft.to/lastmile_qr_scan", "ios": "https://dc.lft.to/lastmile_qr_scan"}, "name": "ee30188f2bb3c3f5d0892e00120398db", "is_reserved": 0}, {"is_disabled": 0, "fusion_lon": 0.0, "fusion_lat": 0.0, "lat": 38.90400133333333, "type": "electric_scooter", "lon": -77.017162, "bike_id": "5eaf5baab72dbaad3341cc180b8a6359", "rental_uris": {"android": "https://dc.lft.to/lastmile_qr_scan", "ios": "https://dc.lft.to/lastmile_qr_scan"}, "name": "5eaf5baab72dbaad3341cc180b8a6359", "is_reserved": 0}, {"is_disabled": 0, "fusion_lon": 0.0, "fusion_lat": 0.0, "lat": 38.92156716666667, "type": "electric_scooter", "lon": -77.03402266666667, "bike_id": "486494d02adbab92079d44ac8cc7ee4d", "rental_uris": {"android": "https://dc.lft.to/lastmile_qr_scan", "ios": "https://dc.lft.to/lastmile_qr_scan"}, "name": "486494d02adbab92079d44ac8cc7ee4d", "is_reserved": 0}, {"is_disabled": 0, "fusion_lon": 0.0, "fusion_lat": 0.0, "lat": 38.902722, "type": "electric_scooter", "lon": -77.05318783333334, "bike_id": "19c70538e851af912a8a0479279ae660", "rental_uris": {"android": "https://dc.lft.to/lastmile_qr_scan", "ios": "https://dc.lft.to/lastmile_qr_scan"}, "name": "19c70538e851af912a8a0479279ae660", "is_reserved": 0}, {"is_disabled": 0, "fusion_lon": 0.0, "fusion_lat": 0.0, "lat": 38.88478416666667, "type": "electric_scooter", "lon": -76.92996133333334, "bike_id": "da1ea258d7e638f91757bc286512899b", "rental_uris": {"android": "https://dc.lft.to/lastmile_qr_scan", "ios": "https://dc.lft.to/lastmile_qr_scan"}, "name": "da1ea258d7e638f91757bc286512899b", "is_reserved": 0}, {"is_disabled": 0, "fusion_lon": 0.0, "fusion_lat": 0.0, "lat": 38.911247833333334, "type": "electric_scooter", "lon": -77.05935066666666, "bike_id": "b6c80565c37f3a47b03866bac5f06c64", "rental_uris": {"android": "https://dc.lft.to/lastmile_qr_scan", "ios": "https://dc.lft.to/lastmile_qr_scan"}, "name": "b6c80565c37f3a47b03866bac5f06c64", "is_reserved": 0}, {"is_disabled": 0, "fusion_lon": 0.0, "fusion_lat": 0.0, "lat": 38.905316666666664, "type": "electric_scooter", "lon": -77.04671183333333, "bike_id": "ca30c187a359feacb6090d16b69014c5", "rental_uris": {"android": "https://dc.lft.to/lastmile_qr_scan", "ios": "https://dc.lft.to/lastmile_qr_scan"}, "name": "ca30c187a359feacb6090d16b69014c5", "is_reserved": 0}, {"is_disabled": 0, "fusion_lon": 0.0, "fusion_lat": 0.0, "lat": 38.865884333333334, "type": "electric_scooter", "lon": -76.99022316666667, "bike_id": "54223a211a9dec94834b4ff14103fa4b", "rental_uris": {"android": "https://dc.lft.to/lastmile_qr_scan", "ios": "https://dc.lft.to/lastmile_qr_scan"}, "name": "54223a211a9dec94834b4ff14103fa4b", "is_reserved": 0}, {"is_disabled": 0, "fusion_lon": 0.0, "fusion_lat": 0.0, "lat": 38.918684999999996, "type": "electric_bike", "lon": -76.96120133333334, "bike_id": "a7291bd654dea8260328e69b92132fd3", "rental_uris": {"android": "https://dc.lft.to/lastmile_qr_scan", "ios": "https://dc.lft.to/lastmile_qr_scan"}, "name": "a7291bd654dea8260328e69b92132fd3", "is_reserved": 0}, {"is_disabled": 0, "fusion_lon": 0.0, "fusion_lat": 0.0, "lat": 38.90176233333333, "type": "electric_scooter", "lon": -76.928235, "bike_id": "7af96d8b831efc47800cb36369de2444", "rental_uris": {"android": "https://dc.lft.to/lastmile_qr_scan", "ios": "https://dc.lft.to/lastmile_qr_scan"}, "name": "7af96d8b831efc47800cb36369de2444", "is_reserved": 0}, {"is_disabled": 0, "fusion_lon": 0.0, "fusion_lat": 0.0, "lat": 38.91687916666667, "type": "electric_scooter", "lon": -77.02456766666667, "bike_id": "32f559512e93f55dc0767646124d7a50", "rental_uris": {"android": "https://dc.lft.to/lastmile_qr_scan", "ios": "https://dc.lft.to/lastmile_qr_scan"}, "name": "32f559512e93f55dc0767646124d7a50", "is_reserved": 0}, {"is_disabled": 0, "fusion_lon": 0.0, "fusion_lat": 0.0, "lat": 38.9027225, "type": "electric_scooter", "lon": -77.01906716666667, "bike_id": "5c5f0c6ca9adafea15fde77ad48f0dd9", "rental_uris": {"android": "https://dc.lft.to/lastmile_qr_scan", "ios": "https://dc.lft.to/lastmile_qr_scan"}, "name": "5c5f0c6ca9adafea15fde77ad48f0dd9", "is_reserved": 0}, {"is_disabled": 0, "fusion_lon": 0.0, "fusion_lat": 0.0, "lat": 38.920717833333335, "type": "electric_scooter", "lon": -77.0179055, "bike_id": "88cc3914f9a1c2e0505e8e46b701a2d7", "rental_uris": {"android": "https://dc.lft.to/lastmile_qr_scan", "ios": "https://dc.lft.to/lastmile_qr_scan"}, "name": "88cc3914f9a1c2e0505e8e46b701a2d7", "is_reserved": 0}, {"is_disabled": 0, "fusion_lon": 0.0, "fusion_lat": 0.0, "lat": 38.8887695, "type": "electric_scooter", "lon": -77.0285695, "bike_id": "6a81f03b6745810db4f34011279c6879", "rental_uris": {"android": "https://dc.lft.to/lastmile_qr_scan", "ios": "https://dc.lft.to/lastmile_qr_scan"}, "name": "6a81f03b6745810db4f34011279c6879", "is_reserved": 0}, {"is_disabled": 0, "fusion_lon": 0.0, "fusion_lat": 0.0, "lat": 38.91871883333334, "type": "electric_scooter", "lon": -77.04412583333334, "bike_id": "25feb281369ba3e6bddd20d3ded22a5f", "rental_uris": {"android": "https://dc.lft.to/lastmile_qr_scan", "ios": "https://dc.lft.to/lastmile_qr_scan"}, "name": "25feb281369ba3e6bddd20d3ded22a5f", "is_reserved": 0}, {"is_disabled": 0, "fusion_lon": 0.0, "fusion_lat": 0.0, "lat": 38.91911266666666, "type": "electric_scooter", "lon": -77.03373616666667, "bike_id": "aa7e4c4b83635cbda60af923c3f416a7", "rental_uris": {"android": "https://dc.lft.to/lastmile_qr_scan", "ios": "https://dc.lft.to/lastmile_qr_scan"}, "name": "aa7e4c4b83635cbda60af923c3f416a7", "is_reserved": 0}, {"is_disabled": 0, "fusion_lon": 0.0, "fusion_lat": 0.0, "lat": 38.89614616666667, "type": "electric_scooter", "lon": -76.99632033333333, "bike_id": "f6abf7234e3431451d41355182f98d90", "rental_uris": {"android": "https://dc.lft.to/lastmile_qr_scan", "ios": "https://dc.lft.to/lastmile_qr_scan"}, "name": "f6abf7234e3431451d41355182f98d90", "is_reserved": 0}, {"is_disabled": 0, "fusion_lon": 0.0, "fusion_lat": 0.0, "lat": 38.90351283333333, "type": "electric_scooter", "lon": -77.025906, "bike_id": "df9253f7c29b6c429c2bc1961a63ac15", "rental_uris": {"android": "https://dc.lft.to/lastmile_qr_scan", "ios": "https://dc.lft.to/lastmile_qr_scan"}, "name": "df9253f7c29b6c429c2bc1961a63ac15", "is_reserved": 0}, {"is_disabled": 0, "fusion_lon": 0.0, "fusion_lat": 0.0, "lat": 38.947875333333336, "type": "electric_scooter", "lon": -77.09275416666667, "bike_id": "ced9ee1bae8b2ca0858a130b5b35e59a", "rental_uris": {"android": "https://dc.lft.to/lastmile_qr_scan", "ios": "https://dc.lft.to/lastmile_qr_scan"}, "name": "ced9ee1bae8b2ca0858a130b5b35e59a", "is_reserved": 0}, {"is_disabled": 0, "fusion_lon": 0.0, "fusion_lat": 0.0, "lat": 38.94082066666667, "type": "electric_scooter", "lon": -77.05954183333333, "bike_id": "846f6c2bdee828ef69fb1204a51c7858", "rental_uris": {"android": "https://dc.lft.to/lastmile_qr_scan", "ios": "https://dc.lft.to/lastmile_qr_scan"}, "name": "846f6c2bdee828ef69fb1204a51c7858", "is_reserved": 0}, {"is_disabled": 0, "fusion_lon": 0.0, "fusion_lat": 0.0, "lat": 38.91482966666667, "type": "electric_scooter", "lon": -77.021774, "bike_id": "12dacc427030d0fe7e7dbb014e6f2bbe", "rental_uris": {"android": "https://dc.lft.to/lastmile_qr_scan", "ios": "https://dc.lft.to/lastmile_qr_scan"}, "name": "12dacc427030d0fe7e7dbb014e6f2bbe", "is_reserved": 0}, {"is_disabled": 0, "fusion_lon": 0.0, "fusion_lat": 0.0, "lat": 38.89751016666666, "type": "electric_bike", "lon": -77.023757, "bike_id": "74ab360089b623f4ceffc12ce3fe257b", "rental_uris": {"android": "https://dc.lft.to/lastmile_qr_scan", "ios": "https://dc.lft.to/lastmile_qr_scan"}, "name": "74ab360089b623f4ceffc12ce3fe257b", "is_reserved": 0}, {"is_disabled": 0, "fusion_lon": 0.0, "fusion_lat": 0.0, "lat": 38.905053833333334, "type": "electric_scooter", "lon": -76.98848883333334, "bike_id": "519f544f00492763354d757aa9dba511", "rental_uris": {"android": "https://dc.lft.to/lastmile_qr_scan", "ios": "https://dc.lft.to/lastmile_qr_scan"}, "name": "519f544f00492763354d757aa9dba511", "is_reserved": 0}, {"is_disabled": 0, "fusion_lon": 0.0, "fusion_lat": 0.0, "lat": 38.90577866666667, "type": "electric_scooter", "lon": -76.98752516666667, "bike_id": "ce98417b694e1e54dfad7b098bddabeb", "rental_uris": {"android": "https://dc.lft.to/lastmile_qr_scan", "ios": "https://dc.lft.to/lastmile_qr_scan"}, "name": "ce98417b694e1e54dfad7b098bddabeb", "is_reserved": 0}, {"is_disabled": 0, "fusion_lon": 0.0, "fusion_lat": 0.0, "lat": 38.88795533333333, "type": "electric_bike", "lon": -76.9299695, "bike_id": "f2648179f00748e1704ff98c25ecb7ca", "rental_uris": {"android": "https://dc.lft.to/lastmile_qr_scan", "ios": "https://dc.lft.to/lastmile_qr_scan"}, "name": "f2648179f00748e1704ff98c25ecb7ca", "is_reserved": 0}, {"is_disabled": 0, "fusion_lon": 0.0, "fusion_lat": 0.0, "lat": 38.91022433333333, "type": "electric_scooter", "lon": -77.04801033333334, "bike_id": "803a13309d6e971ae50af7abc5440033", "rental_uris": {"android": "https://dc.lft.to/lastmile_qr_scan", "ios": "https://dc.lft.to/lastmile_qr_scan"}, "name": "803a13309d6e971ae50af7abc5440033", "is_reserved": 0}, {"is_disabled": 0, "fusion_lon": 0.0, "fusion_lat": 0.0, "lat": 38.9529495, "type": "electric_scooter", "lon": -77.06863033333333, "bike_id": "d2a2127845723c58718c11c046523926", "rental_uris": {"android": "https://dc.lft.to/lastmile_qr_scan", "ios": "https://dc.lft.to/lastmile_qr_scan"}, "name": "d2a2127845723c58718c11c046523926", "is_reserved": 0}, {"is_disabled": 0, "fusion_lon": 0.0, "fusion_lat": 0.0, "lat": 38.94041566666667, "type": "electric_scooter", "lon": -77.02910966666667, "bike_id": "eb633bd72fb211ad6d79e6261f4734e2", "rental_uris": {"android": "https://dc.lft.to/lastmile_qr_scan", "ios": "https://dc.lft.to/lastmile_qr_scan"}, "name": "eb633bd72fb211ad6d79e6261f4734e2", "is_reserved": 0}, {"is_disabled": 0, "fusion_lon": 0.0, "fusion_lat": 0.0, "lat": 38.911033833333335, "type": "electric_scooter", "lon": -77.01688333333334, "bike_id": "3694e4fdd2bbc31f418347d7a093660b", "rental_uris": {"android": "https://dc.lft.to/lastmile_qr_scan", "ios": "https://dc.lft.to/lastmile_qr_scan"}, "name": "3694e4fdd2bbc31f418347d7a093660b", "is_reserved": 0}, {"is_disabled": 0, "fusion_lon": 0.0, "fusion_lat": 0.0, "lat": 38.89308466666667, "type": "electric_scooter", "lon": -77.0220495, "bike_id": "410b6de92501d0b7e2e6b914cbc81e22", "rental_uris": {"android": "https://dc.lft.to/lastmile_qr_scan", "ios": "https://dc.lft.to/lastmile_qr_scan"}, "name": "410b6de92501d0b7e2e6b914cbc81e22", "is_reserved": 0}, {"is_disabled": 0, "fusion_lon": 0.0, "fusion_lat": 0.0, "lat": 38.893705, "type": "electric_scooter", "lon": -76.949969, "bike_id": "2bf4d6cb9b4138e6353e66820efb05df", "rental_uris": {"android": "https://dc.lft.to/lastmile_qr_scan", "ios": "https://dc.lft.to/lastmile_qr_scan"}, "name": "2bf4d6cb9b4138e6353e66820efb05df", "is_reserved": 0}, {"is_disabled": 0, "fusion_lon": 0.0, "fusion_lat": 0.0, "lat": 38.91037133333333, "type": "electric_scooter", "lon": -77.04057983333334, "bike_id": "5f3a4d170937932f1972e237bc3f7a5f", "rental_uris": {"android": "https://dc.lft.to/lastmile_qr_scan", "ios": "https://dc.lft.to/lastmile_qr_scan"}, "name": "5f3a4d170937932f1972e237bc3f7a5f", "is_reserved": 0}, {"is_disabled": 0, "fusion_lon": 0.0, "fusion_lat": 0.0, "lat": 38.999334833333336, "type": "electric_bike", "lon": -77.00121516666667, "bike_id": "36c57fab3af9dbb2973ded168e965f11", "rental_uris": {"android": "https://dc.lft.to/lastmile_qr_scan", "ios": "https://dc.lft.to/lastmile_qr_scan"}, "name": "36c57fab3af9dbb2973ded168e965f11", "is_reserved": 0}, {"is_disabled": 0, "fusion_lon": 0.0, "fusion_lat": 0.0, "lat": 38.898471, "type": "electric_scooter", "lon": -76.94558783333333, "bike_id": "28ddc57a40075f47075b5b69f7984ce4", "rental_uris": {"android": "https://dc.lft.to/lastmile_qr_scan", "ios": "https://dc.lft.to/lastmile_qr_scan"}, "name": "28ddc57a40075f47075b5b69f7984ce4", "is_reserved": 0}, {"is_disabled": 0, "fusion_lon": 0.0, "fusion_lat": 0.0, "lat": 39.0959015, "type": "electric_bike", "lon": -77.1477305, "bike_id": "27548bef861f87bdd33d910272dbf18a", "rental_uris": {"android": "https://dc.lft.to/lastmile_qr_scan", "ios": "https://dc.lft.to/lastmile_qr_scan"}, "name": "27548bef861f87bdd33d910272dbf18a", "is_reserved": 0}, {"is_disabled": 0, "fusion_lon": 0.0, "fusion_lat": 0.0, "lat": 38.86029533333333, "type": "electric_scooter", "lon": -76.996947, "bike_id": "86fda41fbaaed9ca4354b9f6a8db1f2e", "rental_uris": {"android": "https://dc.lft.to/lastmile_qr_scan", "ios": "https://dc.lft.to/lastmile_qr_scan"}, "name": "86fda41fbaaed9ca4354b9f6a8db1f2e", "is_reserved": 0}, {"is_disabled": 0, "fusion_lon": 0.0, "fusion_lat": 0.0, "lat": 38.919365166666665, "type": "electric_scooter", "lon": -77.08128216666667, "bike_id": "63f7323ddbe676523f4ab4c43fbda6b3", "rental_uris": {"android": "https://dc.lft.to/lastmile_qr_scan", "ios": "https://dc.lft.to/lastmile_qr_scan"}, "name": "63f7323ddbe676523f4ab4c43fbda6b3", "is_reserved": 0}, {"is_disabled": 0, "fusion_lon": 0.0, "fusion_lat": 0.0, "lat": 38.89501516666667, "type": "electric_scooter", "lon": -76.948786, "bike_id": "0d72a257472d25384a65e11f80e177d5", "rental_uris": {"android": "https://dc.lft.to/lastmile_qr_scan", "ios": "https://dc.lft.to/lastmile_qr_scan"}, "name": "0d72a257472d25384a65e11f80e177d5", "is_reserved": 0}, {"is_disabled": 0, "fusion_lon": 0.0, "fusion_lat": 0.0, "lat": 38.916151666666664, "type": "electric_scooter", "lon": -77.04862983333334, "bike_id": "1e0cb9aee9abf5c507d0353b02fcced3", "rental_uris": {"android": "https://dc.lft.to/lastmile_qr_scan", "ios": "https://dc.lft.to/lastmile_qr_scan"}, "name": "1e0cb9aee9abf5c507d0353b02fcced3", "is_reserved": 0}, {"is_disabled": 0, "fusion_lon": 0.0, "fusion_lat": 0.0, "lat": 38.90634083333333, "type": "electric_scooter", "lon": -77.02504383333333, "bike_id": "6752b2fc8dae90716b82d73b12a3ccb2", "rental_uris": {"android": "https://dc.lft.to/lastmile_qr_scan", "ios": "https://dc.lft.to/lastmile_qr_scan"}, "name": "6752b2fc8dae90716b82d73b12a3ccb2", "is_reserved": 0}, {"is_disabled": 0, "fusion_lon": 0.0, "fusion_lat": 0.0, "lat": 38.913134, "type": "electric_scooter", "lon": -77.01434416666666, "bike_id": "ab46d071d8ae6644649fa4c627babdc7", "rental_uris": {"android": "https://dc.lft.to/lastmile_qr_scan", "ios": "https://dc.lft.to/lastmile_qr_scan"}, "name": "ab46d071d8ae6644649fa4c627babdc7", "is_reserved": 0}, {"is_disabled": 0, "fusion_lon": 0.0, "fusion_lat": 0.0, "lat": 38.849303666666664, "type": "electric_bike", "lon": -77.10013033333334, "bike_id": "491ab556d9d7bf3ea9b6d2664583aa6b", "rental_uris": {"android": "https://dc.lft.to/lastmile_qr_scan", "ios": "https://dc.lft.to/lastmile_qr_scan"}, "name": "491ab556d9d7bf3ea9b6d2664583aa6b", "is_reserved": 0}, {"is_disabled": 0, "fusion_lon": 0.0, "fusion_lat": 0.0, "lat": 38.87053683333333, "type": "electric_scooter", "lon": -76.98079533333333, "bike_id": "34d4e5c1b318f1a4b35d267ce4e66494", "rental_uris": {"android": "https://dc.lft.to/lastmile_qr_scan", "ios": "https://dc.lft.to/lastmile_qr_scan"}, "name": "34d4e5c1b318f1a4b35d267ce4e66494", "is_reserved": 0}, {"is_disabled": 0, "fusion_lon": 0.0, "fusion_lat": 0.0, "lat": 38.856477, "type": "electric_bike", "lon": -77.08528533333333, "bike_id": "6ad51a79d509e88838ef8d52a1ab43b7", "rental_uris": {"android": "https://dc.lft.to/lastmile_qr_scan", "ios": "https://dc.lft.to/lastmile_qr_scan"}, "name": "6ad51a79d509e88838ef8d52a1ab43b7", "is_reserved": 0}, {"is_disabled": 0, "fusion_lon": 0.0, "fusion_lat": 0.0, "lat": 38.9563615, "type": "electric_scooter", "lon": -77.09099583333334, "bike_id": "b3ba1bec051f4dc239bf1dd0b8520816", "rental_uris": {"android": "https://dc.lft.to/lastmile_qr_scan", "ios": "https://dc.lft.to/lastmile_qr_scan"}, "name": "b3ba1bec051f4dc239bf1dd0b8520816", "is_reserved": 0}, {"is_disabled": 0, "fusion_lon": 0.0, "fusion_lat": 0.0, "lat": 38.907402166666664, "type": "electric_scooter", "lon": -77.00106533333333, "bike_id": "890adad2aa911d51501e78dbabcccce9", "rental_uris": {"android": "https://dc.lft.to/lastmile_qr_scan", "ios": "https://dc.lft.to/lastmile_qr_scan"}, "name": "890adad2aa911d51501e78dbabcccce9", "is_reserved": 0}, {"is_disabled": 0, "fusion_lon": 0.0, "fusion_lat": 0.0, "lat": 38.88611733333333, "type": "electric_scooter", "lon": -77.0057395, "bike_id": "47f8a82783232aa8870e605f75a9f862", "rental_uris": {"android": "https://dc.lft.to/lastmile_qr_scan", "ios": "https://dc.lft.to/lastmile_qr_scan"}, "name": "47f8a82783232aa8870e605f75a9f862", "is_reserved": 0}, {"is_disabled": 0, "fusion_lon": 0.0, "fusion_lat": 0.0, "lat": 38.886881333333335, "type": "electric_scooter", "lon": -76.98797833333333, "bike_id": "e0b807c9382d3158bdcbd33567125a38", "rental_uris": {"android": "https://dc.lft.to/lastmile_qr_scan", "ios": "https://dc.lft.to/lastmile_qr_scan"}, "name": "e0b807c9382d3158bdcbd33567125a38", "is_reserved": 0}, {"is_disabled": 0, "fusion_lon": 0.0, "fusion_lat": 0.0, "lat": 38.9191105, "type": "electric_scooter", "lon": -77.02401533333334, "bike_id": "316d2b96a3c5d2993ef7b08ada98db5d", "rental_uris": {"android": "https://dc.lft.to/lastmile_qr_scan", "ios": "https://dc.lft.to/lastmile_qr_scan"}, "name": "316d2b96a3c5d2993ef7b08ada98db5d", "is_reserved": 0}, {"is_disabled": 0, "fusion_lon": 0.0, "fusion_lat": 0.0, "lat": 38.93701183333334, "type": "electric_scooter", "lon": -77.0559815, "bike_id": "d3b92999e49c729bfc8ef289814ef147", "rental_uris": {"android": "https://dc.lft.to/lastmile_qr_scan", "ios": "https://dc.lft.to/lastmile_qr_scan"}, "name": "d3b92999e49c729bfc8ef289814ef147", "is_reserved": 0}, {"is_disabled": 0, "fusion_lon": 0.0, "fusion_lat": 0.0, "lat": 38.916962166666664, "type": "electric_scooter", "lon": -77.01164633333333, "bike_id": "829b0f1344ab0d8b584cef9935ee7760", "rental_uris": {"android": "https://dc.lft.to/lastmile_qr_scan", "ios": "https://dc.lft.to/lastmile_qr_scan"}, "name": "829b0f1344ab0d8b584cef9935ee7760", "is_reserved": 0}, {"is_disabled": 0, "fusion_lon": 0.0, "fusion_lat": 0.0, "lat": 38.91689483333333, "type": "electric_scooter", "lon": -77.02746333333333, "bike_id": "16d983183936342b5303d8b4d54a064b", "rental_uris": {"android": "https://dc.lft.to/lastmile_qr_scan", "ios": "https://dc.lft.to/lastmile_qr_scan"}, "name": "16d983183936342b5303d8b4d54a064b", "is_reserved": 0}, {"is_disabled": 0, "fusion_lon": 0.0, "fusion_lat": 0.0, "lat": 38.90387183333333, "type": "electric_scooter", "lon": -77.053634, "bike_id": "2345fe64514d80fe4a16600a1274a6d4", "rental_uris": {"android": "https://dc.lft.to/lastmile_qr_scan", "ios": "https://dc.lft.to/lastmile_qr_scan"}, "name": "2345fe64514d80fe4a16600a1274a6d4", "is_reserved": 0}, {"is_disabled": 0, "fusion_lon": 0.0, "fusion_lat": 0.0, "lat": 38.931902, "type": "electric_bike", "lon": -77.22934483333333, "bike_id": "eaadd90e13d1d4800d9473fd2437a80c", "rental_uris": {"android": "https://dc.lft.to/lastmile_qr_scan", "ios": "https://dc.lft.to/lastmile_qr_scan"}, "name": "eaadd90e13d1d4800d9473fd2437a80c", "is_reserved": 0}, {"is_disabled": 0, "fusion_lon": 0.0, "fusion_lat": 0.0, "lat": 38.95080083333333, "type": "electric_scooter", "lon": -77.0287435, "bike_id": "7a22215401d6a9b83d6eea26b0b0f832", "rental_uris": {"android": "https://dc.lft.to/lastmile_qr_scan", "ios": "https://dc.lft.to/lastmile_qr_scan"}, "name": "7a22215401d6a9b83d6eea26b0b0f832", "is_reserved": 0}, {"is_disabled": 0, "fusion_lon": 0.0, "fusion_lat": 0.0, "lat": 38.89617966666667, "type": "electric_scooter", "lon": -76.95633433333333, "bike_id": "1078b419247f15f4fcea22131cfb3180", "rental_uris": {"android": "https://dc.lft.to/lastmile_qr_scan", "ios": "https://dc.lft.to/lastmile_qr_scan"}, "name": "1078b419247f15f4fcea22131cfb3180", "is_reserved": 0}, {"is_disabled": 0, "fusion_lon": 0.0, "fusion_lat": 0.0, "lat": 38.91326816666667, "type": "electric_scooter", "lon": -77.04013516666667, "bike_id": "401b0fbd865b08c01b44e79f729c7df7", "rental_uris": {"android": "https://dc.lft.to/lastmile_qr_scan", "ios": "https://dc.lft.to/lastmile_qr_scan"}, "name": "401b0fbd865b08c01b44e79f729c7df7", "is_reserved": 0}, {"is_disabled": 0, "fusion_lon": 0.0, "fusion_lat": 0.0, "lat": 38.992480666666665, "type": "electric_bike", "lon": -77.0499885, "bike_id": "376e5c179a078b60461cdbdb8ce732c0", "rental_uris": {"android": "https://dc.lft.to/lastmile_qr_scan", "ios": "https://dc.lft.to/lastmile_qr_scan"}, "name": "376e5c179a078b60461cdbdb8ce732c0", "is_reserved": 0}, {"is_disabled": 0, "fusion_lon": 0.0, "fusion_lat": 0.0, "lat": 38.917594333333334, "type": "electric_scooter", "lon": -77.03589766666667, "bike_id": "9f4f124d6f08a077119d208b430edd80", "rental_uris": {"android": "https://dc.lft.to/lastmile_qr_scan", "ios": "https://dc.lft.to/lastmile_qr_scan"}, "name": "9f4f124d6f08a077119d208b430edd80", "is_reserved": 0}, {"is_disabled": 0, "fusion_lon": 0.0, "fusion_lat": 0.0, "lat": 38.920525, "type": "electric_scooter", "lon": -76.99871433333334, "bike_id": "4caa07a24638d49cdde73df944c8e568", "rental_uris": {"android": "https://dc.lft.to/lastmile_qr_scan", "ios": "https://dc.lft.to/lastmile_qr_scan"}, "name": "4caa07a24638d49cdde73df944c8e568", "is_reserved": 0}, {"is_disabled": 0, "fusion_lon": 0.0, "fusion_lat": 0.0, "lat": 38.88374566666667, "type": "electric_scooter", "lon": -76.92639333333334, "bike_id": "0beb3f09d97e50c80812d1b7ac6b9bfb", "rental_uris": {"android": "https://dc.lft.to/lastmile_qr_scan", "ios": "https://dc.lft.to/lastmile_qr_scan"}, "name": "0beb3f09d97e50c80812d1b7ac6b9bfb", "is_reserved": 0}, {"is_disabled": 0, "fusion_lon": 0.0, "fusion_lat": 0.0, "lat": 38.918789833333335, "type": "electric_scooter", "lon": -77.0159215, "bike_id": "299b30e532821ce43340a85bc424d477", "rental_uris": {"android": "https://dc.lft.to/lastmile_qr_scan", "ios": "https://dc.lft.to/lastmile_qr_scan"}, "name": "299b30e532821ce43340a85bc424d477", "is_reserved": 0}, {"is_disabled": 0, "fusion_lon": 0.0, "fusion_lat": 0.0, "lat": 38.897398, "type": "electric_scooter", "lon": -77.0268855, "bike_id": "ad5d1d63bbe4168fe6680d96c7525039", "rental_uris": {"android": "https://dc.lft.to/lastmile_qr_scan", "ios": "https://dc.lft.to/lastmile_qr_scan"}, "name": "ad5d1d63bbe4168fe6680d96c7525039", "is_reserved": 0}, {"is_disabled": 0, "fusion_lon": 0.0, "fusion_lat": 0.0, "lat": 38.919337, "type": "electric_bike", "lon": -76.97506866666667, "bike_id": "82839de6d93c0cf3f8dfcbe34642499e", "rental_uris": {"android": "https://dc.lft.to/lastmile_qr_scan", "ios": "https://dc.lft.to/lastmile_qr_scan"}, "name": "82839de6d93c0cf3f8dfcbe34642499e", "is_reserved": 0}, {"is_disabled": 0, "fusion_lon": 0.0, "fusion_lat": 0.0, "lat": 38.90000466666667, "type": "electric_scooter", "lon": -77.0331665, "bike_id": "617357fec87def42f0025710ab37c213", "rental_uris": {"android": "https://dc.lft.to/lastmile_qr_scan", "ios": "https://dc.lft.to/lastmile_qr_scan"}, "name": "617357fec87def42f0025710ab37c213", "is_reserved": 0}, {"is_disabled": 0, "fusion_lon": 0.0, "fusion_lat": 0.0, "lat": 38.90965216666667, "type": "electric_scooter", "lon": -77.0237885, "bike_id": "9cb8ef8a8155eb902ffa5d0fd75630d0", "rental_uris": {"android": "https://dc.lft.to/lastmile_qr_scan", "ios": "https://dc.lft.to/lastmile_qr_scan"}, "name": "9cb8ef8a8155eb902ffa5d0fd75630d0", "is_reserved": 0}, {"is_disabled": 0, "fusion_lon": 0.0, "fusion_lat": 0.0, "lat": 38.89408933333333, "type": "electric_scooter", "lon": -77.01083483333333, "bike_id": "f32fac69fc2185d518802edddbe5f108", "rental_uris": {"android": "https://dc.lft.to/lastmile_qr_scan", "ios": "https://dc.lft.to/lastmile_qr_scan"}, "name": "f32fac69fc2185d518802edddbe5f108", "is_reserved": 0}, {"is_disabled": 0, "fusion_lon": 0.0, "fusion_lat": 0.0, "lat": 38.918930333333336, "type": "electric_scooter", "lon": -77.07113583333333, "bike_id": "63121827530f815b1bdb1515180aacb0", "rental_uris": {"android": "https://dc.lft.to/lastmile_qr_scan", "ios": "https://dc.lft.to/lastmile_qr_scan"}, "name": "63121827530f815b1bdb1515180aacb0", "is_reserved": 0}, {"is_disabled": 0, "fusion_lon": 0.0, "fusion_lat": 0.0, "lat": 38.905124, "type": "electric_scooter", "lon": -77.05325133333334, "bike_id": "9a4f078f89565084e9b364d6b82a4b21", "rental_uris": {"android": "https://dc.lft.to/lastmile_qr_scan", "ios": "https://dc.lft.to/lastmile_qr_scan"}, "name": "9a4f078f89565084e9b364d6b82a4b21", "is_reserved": 0}, {"is_disabled": 0, "fusion_lon": 0.0, "fusion_lat": 0.0, "lat": 38.94301866666667, "type": "electric_scooter", "lon": -77.027635, "bike_id": "1e41d7feb8c6fe3fcbafa80f695067a1", "rental_uris": {"android": "https://dc.lft.to/lastmile_qr_scan", "ios": "https://dc.lft.to/lastmile_qr_scan"}, "name": "1e41d7feb8c6fe3fcbafa80f695067a1", "is_reserved": 0}, {"is_disabled": 0, "fusion_lon": 0.0, "fusion_lat": 0.0, "lat": 38.92067016666667, "type": "electric_scooter", "lon": -77.0438035, "bike_id": "cc88b93af134d40d56853316a4debcb9", "rental_uris": {"android": "https://dc.lft.to/lastmile_qr_scan", "ios": "https://dc.lft.to/lastmile_qr_scan"}, "name": "cc88b93af134d40d56853316a4debcb9", "is_reserved": 0}, {"is_disabled": 0, "fusion_lon": 0.0, "fusion_lat": 0.0, "lat": 38.869566166666665, "type": "electric_scooter", "lon": -76.96028216666667, "bike_id": "a0b08015014b9b5cb8f95c880d9d0f4e", "rental_uris": {"android": "https://dc.lft.to/lastmile_qr_scan", "ios": "https://dc.lft.to/lastmile_qr_scan"}, "name": "a0b08015014b9b5cb8f95c880d9d0f4e", "is_reserved": 0}, {"is_disabled": 0, "fusion_lon": 0.0, "fusion_lat": 0.0, "lat": 38.91835916666667, "type": "electric_scooter", "lon": -77.07213283333333, "bike_id": "ea2065fd24da94de9e090dd6e808aa3b", "rental_uris": {"android": "https://dc.lft.to/lastmile_qr_scan", "ios": "https://dc.lft.to/lastmile_qr_scan"}, "name": "ea2065fd24da94de9e090dd6e808aa3b", "is_reserved": 0}, {"is_disabled": 0, "fusion_lon": 0.0, "fusion_lat": 0.0, "lat": 38.9233525, "type": "electric_scooter", "lon": -77.041882, "bike_id": "8e7c2c8ac5c6f70533fdf16950839694", "rental_uris": {"android": "https://dc.lft.to/lastmile_qr_scan", "ios": "https://dc.lft.to/lastmile_qr_scan"}, "name": "8e7c2c8ac5c6f70533fdf16950839694", "is_reserved": 0}, {"is_disabled": 0, "fusion_lon": 0.0, "fusion_lat": 0.0, "lat": 38.810209, "type": "electric_bike", "lon": -77.08435683333333, "bike_id": "9a52c340881aa2e1a52d1ed05b68dfc4", "rental_uris": {"android": "https://dc.lft.to/lastmile_qr_scan", "ios": "https://dc.lft.to/lastmile_qr_scan"}, "name": "9a52c340881aa2e1a52d1ed05b68dfc4", "is_reserved": 0}, {"is_disabled": 0, "fusion_lon": 0.0, "fusion_lat": 0.0, "lat": 38.93439083333333, "type": "electric_scooter", "lon": -77.02599933333333, "bike_id": "db0bf7eeeff9bd7e5744619a528e9818", "rental_uris": {"android": "https://dc.lft.to/lastmile_qr_scan", "ios": "https://dc.lft.to/lastmile_qr_scan"}, "name": "db0bf7eeeff9bd7e5744619a528e9818", "is_reserved": 0}, {"is_disabled": 0, "fusion_lon": 0.0, "fusion_lat": 0.0, "lat": 38.92967, "type": "electric_scooter", "lon": -77.04197733333334, "bike_id": "23099a594cc971b1dddfb14d9dc04a97", "rental_uris": {"android": "https://dc.lft.to/lastmile_qr_scan", "ios": "https://dc.lft.to/lastmile_qr_scan"}, "name": "23099a594cc971b1dddfb14d9dc04a97", "is_reserved": 0}, {"is_disabled": 0, "fusion_lon": 0.0, "fusion_lat": 0.0, "lat": 38.91263466666667, "type": "electric_scooter", "lon": -77.03370466666667, "bike_id": "d564088306e38b517f024a98cda11460", "rental_uris": {"android": "https://dc.lft.to/lastmile_qr_scan", "ios": "https://dc.lft.to/lastmile_qr_scan"}, "name": "d564088306e38b517f024a98cda11460", "is_reserved": 0}, {"is_disabled": 0, "fusion_lon": 0.0, "fusion_lat": 0.0, "lat": 38.95171783333333, "type": "electric_scooter", "lon": -77.03336133333333, "bike_id": "d4ae2ecaf284ee7e1ac92e9f062e7bd8", "rental_uris": {"android": "https://dc.lft.to/lastmile_qr_scan", "ios": "https://dc.lft.to/lastmile_qr_scan"}, "name": "d4ae2ecaf284ee7e1ac92e9f062e7bd8", "is_reserved": 0}, {"is_disabled": 0, "fusion_lon": 0.0, "fusion_lat": 0.0, "lat": 38.91538, "type": "electric_scooter", "lon": -77.03804483333333, "bike_id": "fb97660880cf18ceb02adccf680eb5c2", "rental_uris": {"android": "https://dc.lft.to/lastmile_qr_scan", "ios": "https://dc.lft.to/lastmile_qr_scan"}, "name": "fb97660880cf18ceb02adccf680eb5c2", "is_reserved": 0}, {"is_disabled": 0, "fusion_lon": 0.0, "fusion_lat": 0.0, "lat": 38.94619683333333, "type": "electric_scooter", "lon": -77.036225, "bike_id": "ae26800595474f958d36970a4ffd605c", "rental_uris": {"android": "https://dc.lft.to/lastmile_qr_scan", "ios": "https://dc.lft.to/lastmile_qr_scan"}, "name": "ae26800595474f958d36970a4ffd605c", "is_reserved": 0}, {"is_disabled": 0, "fusion_lon": 0.0, "fusion_lat": 0.0, "lat": 38.96620333333333, "type": "electric_scooter", "lon": -77.03533266666666, "bike_id": "1d0269434bf925aa6f0e36d37b7fe26d", "rental_uris": {"android": "https://dc.lft.to/lastmile_qr_scan", "ios": "https://dc.lft.to/lastmile_qr_scan"}, "name": "1d0269434bf925aa6f0e36d37b7fe26d", "is_reserved": 0}, {"is_disabled": 0, "fusion_lon": 0.0, "fusion_lat": 0.0, "lat": 38.9130905, "type": "electric_scooter", "lon": -77.0084475, "bike_id": "b19b9fbb8d4b4f074fcf23876c84c0ac", "rental_uris": {"android": "https://dc.lft.to/lastmile_qr_scan", "ios": "https://dc.lft.to/lastmile_qr_scan"}, "name": "b19b9fbb8d4b4f074fcf23876c84c0ac", "is_reserved": 0}, {"is_disabled": 0, "fusion_lon": 0.0, "fusion_lat": 0.0, "lat": 38.895262333333335, "type": "electric_scooter", "lon": -77.00914683333333, "bike_id": "5eba8d5cc37f1d4ab69e585119e7dac6", "rental_uris": {"android": "https://dc.lft.to/lastmile_qr_scan", "ios": "https://dc.lft.to/lastmile_qr_scan"}, "name": "5eba8d5cc37f1d4ab69e585119e7dac6", "is_reserved": 0}, {"is_disabled": 0, "fusion_lon": 0.0, "fusion_lat": 0.0, "lat": 38.92552666666667, "type": "electric_scooter", "lon": -77.02573866666667, "bike_id": "2a841f07d3cd874c79dc2c6283d6fc57", "rental_uris": {"android": "https://dc.lft.to/lastmile_qr_scan", "ios": "https://dc.lft.to/lastmile_qr_scan"}, "name": "2a841f07d3cd874c79dc2c6283d6fc57", "is_reserved": 0}, {"is_disabled": 0, "fusion_lon": 0.0, "fusion_lat": 0.0, "lat": 38.906689666666665, "type": "electric_scooter", "lon": -77.02699383333334, "bike_id": "04f4ec2e8dd802b95b40257420c3b452", "rental_uris": {"android": "https://dc.lft.to/lastmile_qr_scan", "ios": "https://dc.lft.to/lastmile_qr_scan"}, "name": "04f4ec2e8dd802b95b40257420c3b452", "is_reserved": 0}, {"is_disabled": 0, "fusion_lon": 0.0, "fusion_lat": 0.0, "lat": 38.92825166666667, "type": "electric_scooter", "lon": -77.02254966666666, "bike_id": "85112b693dce30a2f65d1d83fc4bac3a", "rental_uris": {"android": "https://dc.lft.to/lastmile_qr_scan", "ios": "https://dc.lft.to/lastmile_qr_scan"}, "name": "85112b693dce30a2f65d1d83fc4bac3a", "is_reserved": 0}, {"is_disabled": 0, "fusion_lon": 0.0, "fusion_lat": 0.0, "lat": 38.917969, "type": "electric_scooter", "lon": -77.02397866666666, "bike_id": "4754636310bc245d7cbdebe3132a131b", "rental_uris": {"android": "https://dc.lft.to/lastmile_qr_scan", "ios": "https://dc.lft.to/lastmile_qr_scan"}, "name": "4754636310bc245d7cbdebe3132a131b", "is_reserved": 0}, {"is_disabled": 0, "fusion_lon": 0.0, "fusion_lat": 0.0, "lat": 38.869503333333334, "type": "electric_scooter", "lon": -76.97936416666667, "bike_id": "6c8382baed7194a7bf97cd5eedc41ae1", "rental_uris": {"android": "https://dc.lft.to/lastmile_qr_scan", "ios": "https://dc.lft.to/lastmile_qr_scan"}, "name": "6c8382baed7194a7bf97cd5eedc41ae1", "is_reserved": 0}, {"is_disabled": 0, "fusion_lon": 0.0, "fusion_lat": 0.0, "lat": 38.9017735, "type": "electric_scooter", "lon": -77.05009966666667, "bike_id": "f93360bba91f2ecba7bdcf360aa8a93d", "rental_uris": {"android": "https://dc.lft.to/lastmile_qr_scan", "ios": "https://dc.lft.to/lastmile_qr_scan"}, "name": "f93360bba91f2ecba7bdcf360aa8a93d", "is_reserved": 0}, {"is_disabled": 0, "fusion_lon": 0.0, "fusion_lat": 0.0, "lat": 38.904202833333336, "type": "electric_scooter", "lon": -77.05144116666666, "bike_id": "09e4a3bfe6e97cfbcc861b8018204b40", "rental_uris": {"android": "https://dc.lft.to/lastmile_qr_scan", "ios": "https://dc.lft.to/lastmile_qr_scan"}, "name": "09e4a3bfe6e97cfbcc861b8018204b40", "is_reserved": 0}, {"is_disabled": 0, "fusion_lon": 0.0, "fusion_lat": 0.0, "lat": 38.90841183333333, "type": "electric_scooter", "lon": -77.02695033333333, "bike_id": "2e81d9c338ff2a385f59416523c7cc75", "rental_uris": {"android": "https://dc.lft.to/lastmile_qr_scan", "ios": "https://dc.lft.to/lastmile_qr_scan"}, "name": "2e81d9c338ff2a385f59416523c7cc75", "is_reserved": 0}, {"is_disabled": 0, "fusion_lon": 0.0, "fusion_lat": 0.0, "lat": 38.89323666666667, "type": "electric_scooter", "lon": -77.02138066666667, "bike_id": "2e32ef33771ed7dfa3ba98eb233cc675", "rental_uris": {"android": "https://dc.lft.to/lastmile_qr_scan", "ios": "https://dc.lft.to/lastmile_qr_scan"}, "name": "2e32ef33771ed7dfa3ba98eb233cc675", "is_reserved": 0}, {"is_disabled": 0, "fusion_lon": 0.0, "fusion_lat": 0.0, "lat": 38.88877166666666, "type": "electric_bike", "lon": -77.028543, "bike_id": "e9d8b141f234e11f6869a0d7828d1c20", "rental_uris": {"android": "https://dc.lft.to/lastmile_qr_scan", "ios": "https://dc.lft.to/lastmile_qr_scan"}, "name": "e9d8b141f234e11f6869a0d7828d1c20", "is_reserved": 0}, {"is_disabled": 0, "fusion_lon": 0.0, "fusion_lat": 0.0, "lat": 38.931881, "type": "electric_scooter", "lon": -77.04152516666667, "bike_id": "45c36eb5af9c8ae63f39d01e203c80c9", "rental_uris": {"android": "https://dc.lft.to/lastmile_qr_scan", "ios": "https://dc.lft.to/lastmile_qr_scan"}, "name": "45c36eb5af9c8ae63f39d01e203c80c9", "is_reserved": 0}, {"is_disabled": 0, "fusion_lon": 0.0, "fusion_lat": 0.0, "lat": 38.8652265, "type": "electric_scooter", "lon": -76.98966816666666, "bike_id": "1032840c9cba19c8a5d98399f54a76b4", "rental_uris": {"android": "https://dc.lft.to/lastmile_qr_scan", "ios": "https://dc.lft.to/lastmile_qr_scan"}, "name": "1032840c9cba19c8a5d98399f54a76b4", "is_reserved": 0}, {"is_disabled": 0, "fusion_lon": 0.0, "fusion_lat": 0.0, "lat": 38.89847066666667, "type": "electric_scooter", "lon": -76.94492233333334, "bike_id": "3f30309458b11334d71d5e99bbf9776f", "rental_uris": {"android": "https://dc.lft.to/lastmile_qr_scan", "ios": "https://dc.lft.to/lastmile_qr_scan"}, "name": "3f30309458b11334d71d5e99bbf9776f", "is_reserved": 0}, {"is_disabled": 0, "fusion_lon": 0.0, "fusion_lat": 0.0, "lat": 38.92325, "type": "electric_scooter", "lon": -77.04498783333334, "bike_id": "d32d4747bebbe808bd8f2e07e98346f6", "rental_uris": {"android": "https://dc.lft.to/lastmile_qr_scan", "ios": "https://dc.lft.to/lastmile_qr_scan"}, "name": "d32d4747bebbe808bd8f2e07e98346f6", "is_reserved": 0}, {"is_disabled": 0, "fusion_lon": 0.0, "fusion_lat": 0.0, "lat": 38.941869833333335, "type": "electric_scooter", "lon": -77.0425535, "bike_id": "7a28aaaec8428ba1aa799dd040cd4d35", "rental_uris": {"android": "https://dc.lft.to/lastmile_qr_scan", "ios": "https://dc.lft.to/lastmile_qr_scan"}, "name": "7a28aaaec8428ba1aa799dd040cd4d35", "is_reserved": 0}, {"is_disabled": 0, "fusion_lon": 0.0, "fusion_lat": 0.0, "lat": 38.908689, "type": "electric_scooter", "lon": -77.0301045, "bike_id": "b0d1776530609f8bc0ac3404fd450d42", "rental_uris": {"android": "https://dc.lft.to/lastmile_qr_scan", "ios": "https://dc.lft.to/lastmile_qr_scan"}, "name": "b0d1776530609f8bc0ac3404fd450d42", "is_reserved": 0}, {"is_disabled": 0, "fusion_lon": 0.0, "fusion_lat": 0.0, "lat": 39.02297166666666, "type": "electric_bike", "lon": -77.02100666666666, "bike_id": "402674fefc712dabf2b7d42ee39d06a3", "rental_uris": {"android": "https://dc.lft.to/lastmile_qr_scan", "ios": "https://dc.lft.to/lastmile_qr_scan"}, "name": "402674fefc712dabf2b7d42ee39d06a3", "is_reserved": 0}, {"is_disabled": 0, "fusion_lon": 0.0, "fusion_lat": 0.0, "lat": 38.895535, "type": "electric_scooter", "lon": -76.9487975, "bike_id": "90cb990288c0c2c7eb93c0dad32908d7", "rental_uris": {"android": "https://dc.lft.to/lastmile_qr_scan", "ios": "https://dc.lft.to/lastmile_qr_scan"}, "name": "90cb990288c0c2c7eb93c0dad32908d7", "is_reserved": 0}, {"is_disabled": 0, "fusion_lon": 0.0, "fusion_lat": 0.0, "lat": 38.91262316666667, "type": "electric_scooter", "lon": -77.01067383333333, "bike_id": "94c7195e056220ebbc9bdc18247a2bd8", "rental_uris": {"android": "https://dc.lft.to/lastmile_qr_scan", "ios": "https://dc.lft.to/lastmile_qr_scan"}, "name": "94c7195e056220ebbc9bdc18247a2bd8", "is_reserved": 0}, {"is_disabled": 0, "fusion_lon": 0.0, "fusion_lat": 0.0, "lat": 38.88738933333333, "type": "electric_scooter", "lon": -77.01533633333334, "bike_id": "89f18327d753c89a42f521fd798ed648", "rental_uris": {"android": "https://dc.lft.to/lastmile_qr_scan", "ios": "https://dc.lft.to/lastmile_qr_scan"}, "name": "89f18327d753c89a42f521fd798ed648", "is_reserved": 0}, {"is_disabled": 0, "fusion_lon": 0.0, "fusion_lat": 0.0, "lat": 38.91948583333333, "type": "electric_scooter", "lon": -77.01386, "bike_id": "8e145a62d8f641de3fe3ba2ad83ea78b", "rental_uris": {"android": "https://dc.lft.to/lastmile_qr_scan", "ios": "https://dc.lft.to/lastmile_qr_scan"}, "name": "8e145a62d8f641de3fe3ba2ad83ea78b", "is_reserved": 0}, {"is_disabled": 0, "fusion_lon": 0.0, "fusion_lat": 0.0, "lat": 38.8837615, "type": "electric_scooter", "lon": -77.024443, "bike_id": "6b96631d0e2988622b22619cc97fc4e1", "rental_uris": {"android": "https://dc.lft.to/lastmile_qr_scan", "ios": "https://dc.lft.to/lastmile_qr_scan"}, "name": "6b96631d0e2988622b22619cc97fc4e1", "is_reserved": 0}, {"is_disabled": 0, "fusion_lon": 0.0, "fusion_lat": 0.0, "lat": 38.8955075, "type": "electric_bike", "lon": -76.98373216666667, "bike_id": "c4c8d5da1a7822d92cbb0e1d5d4a9746", "rental_uris": {"android": "https://dc.lft.to/lastmile_qr_scan", "ios": "https://dc.lft.to/lastmile_qr_scan"}, "name": "c4c8d5da1a7822d92cbb0e1d5d4a9746", "is_reserved": 0}, {"is_disabled": 0, "fusion_lon": 0.0, "fusion_lat": 0.0, "lat": 38.93481283333333, "type": "electric_scooter", "lon": -77.0239375, "bike_id": "de40ebba78bacd72d1cbbe787dbac817", "rental_uris": {"android": "https://dc.lft.to/lastmile_qr_scan", "ios": "https://dc.lft.to/lastmile_qr_scan"}, "name": "de40ebba78bacd72d1cbbe787dbac817", "is_reserved": 0}, {"is_disabled": 0, "fusion_lon": 0.0, "fusion_lat": 0.0, "lat": 38.90664116666667, "type": "electric_scooter", "lon": -77.03453133333333, "bike_id": "aefc028faa8a9c7ea53955b8a4b08484", "rental_uris": {"android": "https://dc.lft.to/lastmile_qr_scan", "ios": "https://dc.lft.to/lastmile_qr_scan"}, "name": "aefc028faa8a9c7ea53955b8a4b08484", "is_reserved": 0}, {"is_disabled": 0, "fusion_lon": 0.0, "fusion_lat": 0.0, "lat": 38.916922, "type": "electric_scooter", "lon": -77.0306665, "bike_id": "b266e7d55f1b171c64e9aa0da9ded521", "rental_uris": {"android": "https://dc.lft.to/lastmile_qr_scan", "ios": "https://dc.lft.to/lastmile_qr_scan"}, "name": "b266e7d55f1b171c64e9aa0da9ded521", "is_reserved": 0}, {"is_disabled": 0, "fusion_lon": 0.0, "fusion_lat": 0.0, "lat": 38.917096, "type": "electric_scooter", "lon": -77.0288475, "bike_id": "346dcafb40ca4f01417690139000ab08", "rental_uris": {"android": "https://dc.lft.to/lastmile_qr_scan", "ios": "https://dc.lft.to/lastmile_qr_scan"}, "name": "346dcafb40ca4f01417690139000ab08", "is_reserved": 0}, {"is_disabled": 0, "fusion_lon": 0.0, "fusion_lat": 0.0, "lat": 38.9360615, "type": "electric_scooter", "lon": -77.055915, "bike_id": "6713339fec764498cbf2ef6088a7bd92", "rental_uris": {"android": "https://dc.lft.to/lastmile_qr_scan", "ios": "https://dc.lft.to/lastmile_qr_scan"}, "name": "6713339fec764498cbf2ef6088a7bd92", "is_reserved": 0}, {"is_disabled": 0, "fusion_lon": 0.0, "fusion_lat": 0.0, "lat": 38.9220685, "type": "electric_scooter", "lon": -77.04242166666667, "bike_id": "fe992ad46fac5f76d5e1ad0d42cda886", "rental_uris": {"android": "https://dc.lft.to/lastmile_qr_scan", "ios": "https://dc.lft.to/lastmile_qr_scan"}, "name": "fe992ad46fac5f76d5e1ad0d42cda886", "is_reserved": 0}, {"is_disabled": 0, "fusion_lon": 0.0, "fusion_lat": 0.0, "lat": 38.9153905, "type": "electric_scooter", "lon": -77.0379565, "bike_id": "aebabd39b978cf687d5d83bdf987e093", "rental_uris": {"android": "https://dc.lft.to/lastmile_qr_scan", "ios": "https://dc.lft.to/lastmile_qr_scan"}, "name": "aebabd39b978cf687d5d83bdf987e093", "is_reserved": 0}, {"is_disabled": 0, "fusion_lon": 0.0, "fusion_lat": 0.0, "lat": 38.802954666666665, "type": "electric_bike", "lon": -77.03983416666667, "bike_id": "b6f87ffd7972b852ba7a32482c9e6d36", "rental_uris": {"android": "https://dc.lft.to/lastmile_qr_scan", "ios": "https://dc.lft.to/lastmile_qr_scan"}, "name": "b6f87ffd7972b852ba7a32482c9e6d36", "is_reserved": 0}, {"is_disabled": 0, "fusion_lon": 0.0, "fusion_lat": 0.0, "lat": 38.908012666666664, "type": "electric_scooter", "lon": -77.03400016666667, "bike_id": "cb8eee5399a3620ce1a9c78acb540bc3", "rental_uris": {"android": "https://dc.lft.to/lastmile_qr_scan", "ios": "https://dc.lft.to/lastmile_qr_scan"}, "name": "cb8eee5399a3620ce1a9c78acb540bc3", "is_reserved": 0}, {"is_disabled": 0, "fusion_lon": 0.0, "fusion_lat": 0.0, "lat": 38.8548975, "type": "electric_bike", "lon": -77.12040233333333, "bike_id": "08884bde01dd2f3078e16873695bfe06", "rental_uris": {"android": "https://dc.lft.to/lastmile_qr_scan", "ios": "https://dc.lft.to/lastmile_qr_scan"}, "name": "08884bde01dd2f3078e16873695bfe06", "is_reserved": 0}, {"is_disabled": 0, "fusion_lon": 0.0, "fusion_lat": 0.0, "lat": 38.92229533333333, "type": "electric_scooter", "lon": -77.03318183333333, "bike_id": "626d71fdebfedec0dee0cfce1497a926", "rental_uris": {"android": "https://dc.lft.to/lastmile_qr_scan", "ios": "https://dc.lft.to/lastmile_qr_scan"}, "name": "626d71fdebfedec0dee0cfce1497a926", "is_reserved": 0}, {"is_disabled": 0, "fusion_lon": 0.0, "fusion_lat": 0.0, "lat": 38.93657183333333, "type": "electric_scooter", "lon": -77.05922633333333, "bike_id": "24690d01e89a0e1b6f610dde0b43ecdb", "rental_uris": {"android": "https://dc.lft.to/lastmile_qr_scan", "ios": "https://dc.lft.to/lastmile_qr_scan"}, "name": "24690d01e89a0e1b6f610dde0b43ecdb", "is_reserved": 0}, {"is_disabled": 0, "fusion_lon": 0.0, "fusion_lat": 0.0, "lat": 38.906708333333334, "type": "electric_scooter", "lon": -77.02390366666667, "bike_id": "4258d3e8ec4a78886dee46cb9a17537a", "rental_uris": {"android": "https://dc.lft.to/lastmile_qr_scan", "ios": "https://dc.lft.to/lastmile_qr_scan"}, "name": "4258d3e8ec4a78886dee46cb9a17537a", "is_reserved": 0}, {"is_disabled": 0, "fusion_lon": 0.0, "fusion_lat": 0.0, "lat": 38.92281716666667, "type": "electric_scooter", "lon": -77.0446285, "bike_id": "07a67513124e2c1db3d61a66412fa205", "rental_uris": {"android": "https://dc.lft.to/lastmile_qr_scan", "ios": "https://dc.lft.to/lastmile_qr_scan"}, "name": "07a67513124e2c1db3d61a66412fa205", "is_reserved": 0}, {"is_disabled": 0, "fusion_lon": 0.0, "fusion_lat": 0.0, "lat": 38.924618833333334, "type": "electric_scooter", "lon": -77.07861433333333, "bike_id": "74d9082d895cc3b339410ce4c5a60c5e", "rental_uris": {"android": "https://dc.lft.to/lastmile_qr_scan", "ios": "https://dc.lft.to/lastmile_qr_scan"}, "name": "74d9082d895cc3b339410ce4c5a60c5e", "is_reserved": 0}, {"is_disabled": 0, "fusion_lon": 0.0, "fusion_lat": 0.0, "lat": 38.940716, "type": "electric_scooter", "lon": -77.02875533333334, "bike_id": "05f3bda1274a878292d7d71449df13b1", "rental_uris": {"android": "https://dc.lft.to/lastmile_qr_scan", "ios": "https://dc.lft.to/lastmile_qr_scan"}, "name": "05f3bda1274a878292d7d71449df13b1", "is_reserved": 0}, {"is_disabled": 0, "fusion_lon": 0.0, "fusion_lat": 0.0, "lat": 38.905838833333334, "type": "electric_scooter", "lon": -77.0560395, "bike_id": "f32ef6861b424088e6eecb3ff91cfff9", "rental_uris": {"android": "https://dc.lft.to/lastmile_qr_scan", "ios": "https://dc.lft.to/lastmile_qr_scan"}, "name": "f32ef6861b424088e6eecb3ff91cfff9", "is_reserved": 0}, {"is_disabled": 0, "fusion_lon": 0.0, "fusion_lat": 0.0, "lat": 38.895145666666664, "type": "electric_scooter", "lon": -77.048486, "bike_id": "c252bdcdcbe483569b0ea28a0957a86b", "rental_uris": {"android": "https://dc.lft.to/lastmile_qr_scan", "ios": "https://dc.lft.to/lastmile_qr_scan"}, "name": "c252bdcdcbe483569b0ea28a0957a86b", "is_reserved": 0}, {"is_disabled": 0, "fusion_lon": 0.0, "fusion_lat": 0.0, "lat": 38.90284183333333, "type": "electric_scooter", "lon": -77.04868283333333, "bike_id": "317c974f6abf3450e1f341d399af0459", "rental_uris": {"android": "https://dc.lft.to/lastmile_qr_scan", "ios": "https://dc.lft.to/lastmile_qr_scan"}, "name": "317c974f6abf3450e1f341d399af0459", "is_reserved": 0}, {"is_disabled": 0, "fusion_lon": 0.0, "fusion_lat": 0.0, "lat": 38.877565833333335, "type": "electric_bike", "lon": -76.980007, "bike_id": "6cf17338f45f4694c6ee45edfc49b0a8", "rental_uris": {"android": "https://dc.lft.to/lastmile_qr_scan", "ios": "https://dc.lft.to/lastmile_qr_scan"}, "name": "6cf17338f45f4694c6ee45edfc49b0a8", "is_reserved": 0}, {"is_disabled": 0, "fusion_lon": 0.0, "fusion_lat": 0.0, "lat": 38.92104166666667, "type": "electric_scooter", "lon": -77.01773016666667, "bike_id": "a953ed0cc16ab0760b1499d937e9ee74", "rental_uris": {"android": "https://dc.lft.to/lastmile_qr_scan", "ios": "https://dc.lft.to/lastmile_qr_scan"}, "name": "a953ed0cc16ab0760b1499d937e9ee74", "is_reserved": 0}, {"is_disabled": 0, "fusion_lon": 0.0, "fusion_lat": 0.0, "lat": 38.85317666666667, "type": "electric_bike", "lon": -77.053335, "bike_id": "41ac5507ec8a7fef642461794af3f40e", "rental_uris": {"android": "https://dc.lft.to/lastmile_qr_scan", "ios": "https://dc.lft.to/lastmile_qr_scan"}, "name": "41ac5507ec8a7fef642461794af3f40e", "is_reserved": 0}, {"is_disabled": 0, "fusion_lon": 0.0, "fusion_lat": 0.0, "lat": 38.925643, "type": "electric_scooter", "lon": -77.0805885, "bike_id": "5c6726fef14c024b6fa3d8dac559cbe8", "rental_uris": {"android": "https://dc.lft.to/lastmile_qr_scan", "ios": "https://dc.lft.to/lastmile_qr_scan"}, "name": "5c6726fef14c024b6fa3d8dac559cbe8", "is_reserved": 0}, {"is_disabled": 0, "fusion_lon": 0.0, "fusion_lat": 0.0, "lat": 38.939635, "type": "electric_bike", "lon": -77.360933, "bike_id": "d8306ccd515defd02f7a70fd0bfceca0", "rental_uris": {"android": "https://dc.lft.to/lastmile_qr_scan", "ios": "https://dc.lft.to/lastmile_qr_scan"}, "name": "d8306ccd515defd02f7a70fd0bfceca0", "is_reserved": 0}, {"is_disabled": 0, "fusion_lon": 0.0, "fusion_lat": 0.0, "lat": 38.90566066666667, "type": "electric_scooter", "lon": -77.03392066666666, "bike_id": "35ea56f0515a80cbb133d72dbbeea9cc", "rental_uris": {"android": "https://dc.lft.to/lastmile_qr_scan", "ios": "https://dc.lft.to/lastmile_qr_scan"}, "name": "35ea56f0515a80cbb133d72dbbeea9cc", "is_reserved": 0}, {"is_disabled": 0, "fusion_lon": 0.0, "fusion_lat": 0.0, "lat": 38.886040666666666, "type": "electric_scooter", "lon": -77.0218825, "bike_id": "73828871d7b05caf18f9ddf98040531f", "rental_uris": {"android": "https://dc.lft.to/lastmile_qr_scan", "ios": "https://dc.lft.to/lastmile_qr_scan"}, "name": "73828871d7b05caf18f9ddf98040531f", "is_reserved": 0}, {"is_disabled": 0, "fusion_lon": 0.0, "fusion_lat": 0.0, "lat": 38.891895833333336, "type": "electric_scooter", "lon": -76.98829283333333, "bike_id": "c907b0c4a02746219f89b0c3a914f83c", "rental_uris": {"android": "https://dc.lft.to/lastmile_qr_scan", "ios": "https://dc.lft.to/lastmile_qr_scan"}, "name": "c907b0c4a02746219f89b0c3a914f83c", "is_reserved": 0}, {"is_disabled": 0, "fusion_lon": 0.0, "fusion_lat": 0.0, "lat": 38.93495866666667, "type": "electric_scooter", "lon": -77.02414083333333, "bike_id": "f39ebf1af856167bd7bc5b3cc8357127", "rental_uris": {"android": "https://dc.lft.to/lastmile_qr_scan", "ios": "https://dc.lft.to/lastmile_qr_scan"}, "name": "f39ebf1af856167bd7bc5b3cc8357127", "is_reserved": 0}, {"is_disabled": 0, "fusion_lon": 0.0, "fusion_lat": 0.0, "lat": 38.913263, "type": "electric_scooter", "lon": -77.0323305, "bike_id": "3f9e826c86bb30ecc3460e4218fd4761", "rental_uris": {"android": "https://dc.lft.to/lastmile_qr_scan", "ios": "https://dc.lft.to/lastmile_qr_scan"}, "name": "3f9e826c86bb30ecc3460e4218fd4761", "is_reserved": 0}, {"is_disabled": 0, "fusion_lon": 0.0, "fusion_lat": 0.0, "lat": 38.906087666666664, "type": "electric_scooter", "lon": -77.03437416666667, "bike_id": "4e5d48c7d51fc2ce7af19cd2427840a4", "rental_uris": {"android": "https://dc.lft.to/lastmile_qr_scan", "ios": "https://dc.lft.to/lastmile_qr_scan"}, "name": "4e5d48c7d51fc2ce7af19cd2427840a4", "is_reserved": 0}, {"is_disabled": 0, "fusion_lon": 0.0, "fusion_lat": 0.0, "lat": 38.90551033333333, "type": "electric_scooter", "lon": -77.03398933333334, "bike_id": "43c2da1fed3a732673d168e9fb003603", "rental_uris": {"android": "https://dc.lft.to/lastmile_qr_scan", "ios": "https://dc.lft.to/lastmile_qr_scan"}, "name": "43c2da1fed3a732673d168e9fb003603", "is_reserved": 0}, {"is_disabled": 0, "fusion_lon": 0.0, "fusion_lat": 0.0, "lat": 38.908739833333335, "type": "electric_scooter", "lon": -77.07638533333333, "bike_id": "daea8826bcf4b784828692769d961a45", "rental_uris": {"android": "https://dc.lft.to/lastmile_qr_scan", "ios": "https://dc.lft.to/lastmile_qr_scan"}, "name": "daea8826bcf4b784828692769d961a45", "is_reserved": 0}, {"is_disabled": 0, "fusion_lon": 0.0, "fusion_lat": 0.0, "lat": 38.93645333333333, "type": "electric_scooter", "lon": -77.03038983333333, "bike_id": "643dc87c8bf369a12292d9ed04b46efb", "rental_uris": {"android": "https://dc.lft.to/lastmile_qr_scan", "ios": "https://dc.lft.to/lastmile_qr_scan"}, "name": "643dc87c8bf369a12292d9ed04b46efb", "is_reserved": 0}, {"is_disabled": 0, "fusion_lon": 0.0, "fusion_lat": 0.0, "lat": 38.921781833333334, "type": "electric_scooter", "lon": -77.02518166666667, "bike_id": "7fbc4f7a46cfa63bbcbd31118371652c", "rental_uris": {"android": "https://dc.lft.to/lastmile_qr_scan", "ios": "https://dc.lft.to/lastmile_qr_scan"}, "name": "7fbc4f7a46cfa63bbcbd31118371652c", "is_reserved": 0}, {"is_disabled": 0, "fusion_lon": 0.0, "fusion_lat": 0.0, "lat": 38.91834133333333, "type": "electric_scooter", "lon": -77.03517683333334, "bike_id": "b0425cbd6006e2aa60188952e37e429e", "rental_uris": {"android": "https://dc.lft.to/lastmile_qr_scan", "ios": "https://dc.lft.to/lastmile_qr_scan"}, "name": "b0425cbd6006e2aa60188952e37e429e", "is_reserved": 0}, {"is_disabled": 0, "fusion_lon": 0.0, "fusion_lat": 0.0, "lat": 38.897497666666666, "type": "electric_scooter", "lon": -77.00323183333333, "bike_id": "64ba0fb89e615ece8f9847cca9ebd6ca", "rental_uris": {"android": "https://dc.lft.to/lastmile_qr_scan", "ios": "https://dc.lft.to/lastmile_qr_scan"}, "name": "64ba0fb89e615ece8f9847cca9ebd6ca", "is_reserved": 0}, {"is_disabled": 0, "fusion_lon": 0.0, "fusion_lat": 0.0, "lat": 38.86953466666667, "type": "electric_scooter", "lon": -76.97594783333334, "bike_id": "c7c38abe2bfd9981d855913ff5ebae13", "rental_uris": {"android": "https://dc.lft.to/lastmile_qr_scan", "ios": "https://dc.lft.to/lastmile_qr_scan"}, "name": "c7c38abe2bfd9981d855913ff5ebae13", "is_reserved": 0}, {"is_disabled": 0, "fusion_lon": 0.0, "fusion_lat": 0.0, "lat": 38.91695816666667, "type": "electric_scooter", "lon": -77.03308216666667, "bike_id": "7b24a7f96b411c7c560624fd1f39034e", "rental_uris": {"android": "https://dc.lft.to/lastmile_qr_scan", "ios": "https://dc.lft.to/lastmile_qr_scan"}, "name": "7b24a7f96b411c7c560624fd1f39034e", "is_reserved": 0}, {"is_disabled": 0, "fusion_lon": 0.0, "fusion_lat": 0.0, "lat": 38.89823766666667, "type": "electric_scooter", "lon": -76.94651983333333, "bike_id": "dfb74c243da5250f9140a9a314cd0584", "rental_uris": {"android": "https://dc.lft.to/lastmile_qr_scan", "ios": "https://dc.lft.to/lastmile_qr_scan"}, "name": "dfb74c243da5250f9140a9a314cd0584", "is_reserved": 0}, {"is_disabled": 0, "fusion_lon": 0.0, "fusion_lat": 0.0, "lat": 38.90282283333333, "type": "electric_scooter", "lon": -77.03436733333334, "bike_id": "b258d044eb6bdf0f0a6c7e669bf2f01b", "rental_uris": {"android": "https://dc.lft.to/lastmile_qr_scan", "ios": "https://dc.lft.to/lastmile_qr_scan"}, "name": "b258d044eb6bdf0f0a6c7e669bf2f01b", "is_reserved": 0}, {"is_disabled": 0, "fusion_lon": 0.0, "fusion_lat": 0.0, "lat": 38.924564333333336, "type": "electric_scooter", "lon": -77.029619, "bike_id": "b53b221987bc7a421c7bf01055bcf953", "rental_uris": {"android": "https://dc.lft.to/lastmile_qr_scan", "ios": "https://dc.lft.to/lastmile_qr_scan"}, "name": "b53b221987bc7a421c7bf01055bcf953", "is_reserved": 0}, {"is_disabled": 0, "fusion_lon": 0.0, "fusion_lat": 0.0, "lat": 38.9462365, "type": "electric_bike", "lon": -76.93412083333334, "bike_id": "6600f01db8d271ffe933737014e4aff5", "rental_uris": {"android": "https://dc.lft.to/lastmile_qr_scan", "ios": "https://dc.lft.to/lastmile_qr_scan"}, "name": "6600f01db8d271ffe933737014e4aff5", "is_reserved": 0}, {"is_disabled": 0, "fusion_lon": 0.0, "fusion_lat": 0.0, "lat": 38.91693016666667, "type": "electric_scooter", "lon": -77.03476483333333, "bike_id": "18441db60b3318acf3331c720ef73913", "rental_uris": {"android": "https://dc.lft.to/lastmile_qr_scan", "ios": "https://dc.lft.to/lastmile_qr_scan"}, "name": "18441db60b3318acf3331c720ef73913", "is_reserved": 0}, {"is_disabled": 0, "fusion_lon": 0.0, "fusion_lat": 0.0, "lat": 38.903883, "type": "electric_scooter", "lon": -76.9900705, "bike_id": "7174e35e16fba8ab2546e4410c5f60a2", "rental_uris": {"android": "https://dc.lft.to/lastmile_qr_scan", "ios": "https://dc.lft.to/lastmile_qr_scan"}, "name": "7174e35e16fba8ab2546e4410c5f60a2", "is_reserved": 0}, {"is_disabled": 0, "fusion_lon": 0.0, "fusion_lat": 0.0, "lat": 38.951822166666666, "type": "electric_scooter", "lon": -77.02605666666666, "bike_id": "4f7c35c8cba5b975691a5338c32ac2d2", "rental_uris": {"android": "https://dc.lft.to/lastmile_qr_scan", "ios": "https://dc.lft.to/lastmile_qr_scan"}, "name": "4f7c35c8cba5b975691a5338c32ac2d2", "is_reserved": 0}, {"is_disabled": 0, "fusion_lon": 0.0, "fusion_lat": 0.0, "lat": 38.88113633333333, "type": "electric_bike", "lon": -77.01665133333333, "bike_id": "f757cee79f48f26eee616ee2ddacc693", "rental_uris": {"android": "https://dc.lft.to/lastmile_qr_scan", "ios": "https://dc.lft.to/lastmile_qr_scan"}, "name": "f757cee79f48f26eee616ee2ddacc693", "is_reserved": 0}, {"is_disabled": 0, "fusion_lon": 0.0, "fusion_lat": 0.0, "lat": 38.928102, "type": "electric_scooter", "lon": -77.036139, "bike_id": "f77b42e955a59420dfb4a3808663293d", "rental_uris": {"android": "https://dc.lft.to/lastmile_qr_scan", "ios": "https://dc.lft.to/lastmile_qr_scan"}, "name": "f77b42e955a59420dfb4a3808663293d", "is_reserved": 0}, {"is_disabled": 0, "fusion_lon": 0.0, "fusion_lat": 0.0, "lat": 38.9517295, "type": "electric_scooter", "lon": -77.05653033333333, "bike_id": "6a34db6fe60aa4c92eb99df696d45918", "rental_uris": {"android": "https://dc.lft.to/lastmile_qr_scan", "ios": "https://dc.lft.to/lastmile_qr_scan"}, "name": "6a34db6fe60aa4c92eb99df696d45918", "is_reserved": 0}, {"is_disabled": 0, "fusion_lon": 0.0, "fusion_lat": 0.0, "lat": 38.955508333333334, "type": "electric_bike", "lon": -76.9353875, "bike_id": "4b2ca2a330b3a3160df8f871f631d3cf", "rental_uris": {"android": "https://dc.lft.to/lastmile_qr_scan", "ios": "https://dc.lft.to/lastmile_qr_scan"}, "name": "4b2ca2a330b3a3160df8f871f631d3cf", "is_reserved": 0}, {"is_disabled": 0, "fusion_lon": 0.0, "fusion_lat": 0.0, "lat": 38.96571733333333, "type": "electric_scooter", "lon": -77.01566833333334, "bike_id": "7ec2e8a7b28a8e303632d0d75f4306a6", "rental_uris": {"android": "https://dc.lft.to/lastmile_qr_scan", "ios": "https://dc.lft.to/lastmile_qr_scan"}, "name": "7ec2e8a7b28a8e303632d0d75f4306a6", "is_reserved": 0}, {"is_disabled": 0, "fusion_lon": 0.0, "fusion_lat": 0.0, "lat": 38.901141, "type": "electric_scooter", "lon": -77.0241675, "bike_id": "3dac285e0c5f48ab16f5b995f576da98", "rental_uris": {"android": "https://dc.lft.to/lastmile_qr_scan", "ios": "https://dc.lft.to/lastmile_qr_scan"}, "name": "3dac285e0c5f48ab16f5b995f576da98", "is_reserved": 0}, {"is_disabled": 0, "fusion_lon": 0.0, "fusion_lat": 0.0, "lat": 38.903699, "type": "electric_scooter", "lon": -77.0414195, "bike_id": "33d20ae947afc1ffeb83637a8cc0781d", "rental_uris": {"android": "https://dc.lft.to/lastmile_qr_scan", "ios": "https://dc.lft.to/lastmile_qr_scan"}, "name": "33d20ae947afc1ffeb83637a8cc0781d", "is_reserved": 0}, {"is_disabled": 0, "fusion_lon": 0.0, "fusion_lat": 0.0, "lat": 38.920611, "type": "electric_scooter", "lon": -77.02710916666666, "bike_id": "5dee17734350c6eb813a5e91dc0b08ef", "rental_uris": {"android": "https://dc.lft.to/lastmile_qr_scan", "ios": "https://dc.lft.to/lastmile_qr_scan"}, "name": "5dee17734350c6eb813a5e91dc0b08ef", "is_reserved": 0}, {"is_disabled": 0, "fusion_lon": 0.0, "fusion_lat": 0.0, "lat": 38.831909333333336, "type": "electric_bike", "lon": -77.07682016666666, "bike_id": "c80f707d12e9a5ae548dd73ec0f95fdb", "rental_uris": {"android": "https://dc.lft.to/lastmile_qr_scan", "ios": "https://dc.lft.to/lastmile_qr_scan"}, "name": "c80f707d12e9a5ae548dd73ec0f95fdb", "is_reserved": 0}, {"is_disabled": 0, "fusion_lon": 0.0, "fusion_lat": 0.0, "lat": 38.91103283333333, "type": "electric_scooter", "lon": -77.02379483333333, "bike_id": "1d4a7a3e42a576e5f4da954544b0ff0c", "rental_uris": {"android": "https://dc.lft.to/lastmile_qr_scan", "ios": "https://dc.lft.to/lastmile_qr_scan"}, "name": "1d4a7a3e42a576e5f4da954544b0ff0c", "is_reserved": 0}, {"is_disabled": 0, "fusion_lon": 0.0, "fusion_lat": 0.0, "lat": 38.88768566666667, "type": "electric_bike", "lon": -77.1225935, "bike_id": "d64971f49e04d851685eb2210b3b3e32", "rental_uris": {"android": "https://dc.lft.to/lastmile_qr_scan", "ios": "https://dc.lft.to/lastmile_qr_scan"}, "name": "d64971f49e04d851685eb2210b3b3e32", "is_reserved": 0}, {"is_disabled": 0, "fusion_lon": 0.0, "fusion_lat": 0.0, "lat": 38.87243183333333, "type": "electric_scooter", "lon": -76.97726516666667, "bike_id": "d77b880c4f4440b53f6975ea6680e34c", "rental_uris": {"android": "https://dc.lft.to/lastmile_qr_scan", "ios": "https://dc.lft.to/lastmile_qr_scan"}, "name": "d77b880c4f4440b53f6975ea6680e34c", "is_reserved": 0}, {"is_disabled": 0, "fusion_lon": 0.0, "fusion_lat": 0.0, "lat": 38.882641, "type": "electric_scooter", "lon": -76.985422, "bike_id": "28d433b849d5a2ca043ac4857cdd34aa", "rental_uris": {"android": "https://dc.lft.to/lastmile_qr_scan", "ios": "https://dc.lft.to/lastmile_qr_scan"}, "name": "28d433b849d5a2ca043ac4857cdd34aa", "is_reserved": 0}, {"is_disabled": 0, "fusion_lon": 0.0, "fusion_lat": 0.0, "lat": 38.91538033333333, "type": "electric_scooter", "lon": -77.03793966666667, "bike_id": "8500cbf880e9fea9981021b5d8c3b567", "rental_uris": {"android": "https://dc.lft.to/lastmile_qr_scan", "ios": "https://dc.lft.to/lastmile_qr_scan"}, "name": "8500cbf880e9fea9981021b5d8c3b567", "is_reserved": 0}, {"is_disabled": 0, "fusion_lon": 0.0, "fusion_lat": 0.0, "lat": 38.913367, "type": "electric_scooter", "lon": -77.0486535, "bike_id": "4a24eb9e746853dbdec10254aec2aa6b", "rental_uris": {"android": "https://dc.lft.to/lastmile_qr_scan", "ios": "https://dc.lft.to/lastmile_qr_scan"}, "name": "4a24eb9e746853dbdec10254aec2aa6b", "is_reserved": 0}, {"is_disabled": 0, "fusion_lon": 0.0, "fusion_lat": 0.0, "lat": 38.828736, "type": "electric_bike", "lon": -77.11225883333333, "bike_id": "850a15d86ad36a5d8d8e2323a9b31283", "rental_uris": {"android": "https://dc.lft.to/lastmile_qr_scan", "ios": "https://dc.lft.to/lastmile_qr_scan"}, "name": "850a15d86ad36a5d8d8e2323a9b31283", "is_reserved": 0}, {"is_disabled": 0, "fusion_lon": 0.0, "fusion_lat": 0.0, "lat": 38.87630633333333, "type": "electric_scooter", "lon": -77.00944483333333, "bike_id": "01e0cf9901e20a8760207e04b91d6b3d", "rental_uris": {"android": "https://dc.lft.to/lastmile_qr_scan", "ios": "https://dc.lft.to/lastmile_qr_scan"}, "name": "01e0cf9901e20a8760207e04b91d6b3d", "is_reserved": 0}, {"is_disabled": 0, "fusion_lon": 0.0, "fusion_lat": 0.0, "lat": 38.93410383333333, "type": "electric_scooter", "lon": -77.04262233333333, "bike_id": "f0b139a05aaf9f9bd165e2a9f52954a3", "rental_uris": {"android": "https://dc.lft.to/lastmile_qr_scan", "ios": "https://dc.lft.to/lastmile_qr_scan"}, "name": "f0b139a05aaf9f9bd165e2a9f52954a3", "is_reserved": 0}, {"is_disabled": 0, "fusion_lon": 0.0, "fusion_lat": 0.0, "lat": 38.910106, "type": "electric_scooter", "lon": -77.02089283333333, "bike_id": "24670e60d71a266b4429b637c59b0b81", "rental_uris": {"android": "https://dc.lft.to/lastmile_qr_scan", "ios": "https://dc.lft.to/lastmile_qr_scan"}, "name": "24670e60d71a266b4429b637c59b0b81", "is_reserved": 0}, {"is_disabled": 0, "fusion_lon": 0.0, "fusion_lat": 0.0, "lat": 38.920912, "type": "electric_scooter", "lon": -77.02591316666667, "bike_id": "1b8f91b7b8bbc93eded57a9c30aa87a8", "rental_uris": {"android": "https://dc.lft.to/lastmile_qr_scan", "ios": "https://dc.lft.to/lastmile_qr_scan"}, "name": "1b8f91b7b8bbc93eded57a9c30aa87a8", "is_reserved": 0}, {"is_disabled": 0, "fusion_lon": 0.0, "fusion_lat": 0.0, "lat": 38.90263733333333, "type": "electric_scooter", "lon": -77.03945633333333, "bike_id": "7f7d40a04d67da47fd39599db46c2c89", "rental_uris": {"android": "https://dc.lft.to/lastmile_qr_scan", "ios": "https://dc.lft.to/lastmile_qr_scan"}, "name": "7f7d40a04d67da47fd39599db46c2c89", "is_reserved": 0}, {"is_disabled": 0, "fusion_lon": 0.0, "fusion_lat": 0.0, "lat": 38.884464666666666, "type": "electric_scooter", "lon": -76.9509675, "bike_id": "3aa98d79bdc3147575e214cf5988a659", "rental_uris": {"android": "https://dc.lft.to/lastmile_qr_scan", "ios": "https://dc.lft.to/lastmile_qr_scan"}, "name": "3aa98d79bdc3147575e214cf5988a659", "is_reserved": 0}, {"is_disabled": 0, "fusion_lon": 0.0, "fusion_lat": 0.0, "lat": 38.8977645, "type": "electric_scooter", "lon": -77.0475015, "bike_id": "b3b6082ffe45eb1763b2cde8e80aad78", "rental_uris": {"android": "https://dc.lft.to/lastmile_qr_scan", "ios": "https://dc.lft.to/lastmile_qr_scan"}, "name": "b3b6082ffe45eb1763b2cde8e80aad78", "is_reserved": 0}, {"is_disabled": 0, "fusion_lon": 0.0, "fusion_lat": 0.0, "lat": 38.895741, "type": "electric_bike", "lon": -76.9761685, "bike_id": "c360f33de4b124bff37823f5eef91e15", "rental_uris": {"android": "https://dc.lft.to/lastmile_qr_scan", "ios": "https://dc.lft.to/lastmile_qr_scan"}, "name": "c360f33de4b124bff37823f5eef91e15", "is_reserved": 0}, {"is_disabled": 0, "fusion_lon": 0.0, "fusion_lat": 0.0, "lat": 38.923559, "type": "electric_scooter", "lon": -77.03901183333333, "bike_id": "62934caec6130d00a86ee5c7e8cbbf9a", "rental_uris": {"android": "https://dc.lft.to/lastmile_qr_scan", "ios": "https://dc.lft.to/lastmile_qr_scan"}, "name": "62934caec6130d00a86ee5c7e8cbbf9a", "is_reserved": 0}, {"is_disabled": 0, "fusion_lon": 0.0, "fusion_lat": 0.0, "lat": 38.934040833333334, "type": "electric_scooter", "lon": -77.03268133333333, "bike_id": "3c34f4b1cc5892325cb58202e665362a", "rental_uris": {"android": "https://dc.lft.to/lastmile_qr_scan", "ios": "https://dc.lft.to/lastmile_qr_scan"}, "name": "3c34f4b1cc5892325cb58202e665362a", "is_reserved": 0}, {"is_disabled": 0, "fusion_lon": 0.0, "fusion_lat": 0.0, "lat": 38.9113265, "type": "electric_scooter", "lon": -77.04188016666667, "bike_id": "5330a4643aada3f3d0620340282f6460", "rental_uris": {"android": "https://dc.lft.to/lastmile_qr_scan", "ios": "https://dc.lft.to/lastmile_qr_scan"}, "name": "5330a4643aada3f3d0620340282f6460", "is_reserved": 0}, {"is_disabled": 0, "fusion_lon": 0.0, "fusion_lat": 0.0, "lat": 38.929735666666666, "type": "electric_scooter", "lon": -77.0207055, "bike_id": "43e04b01fe3393adb3f16eef144d95a8", "rental_uris": {"android": "https://dc.lft.to/lastmile_qr_scan", "ios": "https://dc.lft.to/lastmile_qr_scan"}, "name": "43e04b01fe3393adb3f16eef144d95a8", "is_reserved": 0}, {"is_disabled": 0, "fusion_lon": 0.0, "fusion_lat": 0.0, "lat": 38.86522816666667, "type": "electric_scooter", "lon": -76.98963916666666, "bike_id": "bd179ff57de35acf566ab2f4dbbeb642", "rental_uris": {"android": "https://dc.lft.to/lastmile_qr_scan", "ios": "https://dc.lft.to/lastmile_qr_scan"}, "name": "bd179ff57de35acf566ab2f4dbbeb642", "is_reserved": 0}, {"is_disabled": 0, "fusion_lon": 0.0, "fusion_lat": 0.0, "lat": 38.916086166666666, "type": "electric_scooter", "lon": -77.031205, "bike_id": "2c15d617a5831ecfa4737e5d32b88edd", "rental_uris": {"android": "https://dc.lft.to/lastmile_qr_scan", "ios": "https://dc.lft.to/lastmile_qr_scan"}, "name": "2c15d617a5831ecfa4737e5d32b88edd", "is_reserved": 0}, {"is_disabled": 0, "fusion_lon": 0.0, "fusion_lat": 0.0, "lat": 38.93476, "type": "electric_scooter", "lon": -77.0357925, "bike_id": "05222800d129ef6d93d3e326d234c1fc", "rental_uris": {"android": "https://dc.lft.to/lastmile_qr_scan", "ios": "https://dc.lft.to/lastmile_qr_scan"}, "name": "05222800d129ef6d93d3e326d234c1fc", "is_reserved": 0}, {"is_disabled": 0, "fusion_lon": 0.0, "fusion_lat": 0.0, "lat": 38.90132783333333, "type": "electric_scooter", "lon": -77.02294583333334, "bike_id": "137b3fc3f2216b6ad9e5fa1cd222bebf", "rental_uris": {"android": "https://dc.lft.to/lastmile_qr_scan", "ios": "https://dc.lft.to/lastmile_qr_scan"}, "name": "137b3fc3f2216b6ad9e5fa1cd222bebf", "is_reserved": 0}, {"is_disabled": 0, "fusion_lon": 0.0, "fusion_lat": 0.0, "lat": 38.906799166666666, "type": "electric_scooter", "lon": -76.9799685, "bike_id": "557873e5a3e2366b3eef3b24d8396ae5", "rental_uris": {"android": "https://dc.lft.to/lastmile_qr_scan", "ios": "https://dc.lft.to/lastmile_qr_scan"}, "name": "557873e5a3e2366b3eef3b24d8396ae5", "is_reserved": 0}, {"is_disabled": 0, "fusion_lon": 0.0, "fusion_lat": 0.0, "lat": 38.910355333333335, "type": "electric_scooter", "lon": -77.04011316666667, "bike_id": "7c503e03deb0aadd94114da4d1f01d56", "rental_uris": {"android": "https://dc.lft.to/lastmile_qr_scan", "ios": "https://dc.lft.to/lastmile_qr_scan"}, "name": "7c503e03deb0aadd94114da4d1f01d56", "is_reserved": 0}, {"is_disabled": 0, "fusion_lon": 0.0, "fusion_lat": 0.0, "lat": 38.896094, "type": "electric_scooter", "lon": -77.00931616666666, "bike_id": "7c400595bd85e2465d2338249f0e749c", "rental_uris": {"android": "https://dc.lft.to/lastmile_qr_scan", "ios": "https://dc.lft.to/lastmile_qr_scan"}, "name": "7c400595bd85e2465d2338249f0e749c", "is_reserved": 0}, {"is_disabled": 0, "fusion_lon": 0.0, "fusion_lat": 0.0, "lat": 38.942034, "type": "electric_scooter", "lon": -77.02593383333334, "bike_id": "289889c60eee7482beb91298474530fa", "rental_uris": {"android": "https://dc.lft.to/lastmile_qr_scan", "ios": "https://dc.lft.to/lastmile_qr_scan"}, "name": "289889c60eee7482beb91298474530fa", "is_reserved": 0}, {"is_disabled": 0, "fusion_lon": 0.0, "fusion_lat": 0.0, "lat": 38.903817, "type": "electric_scooter", "lon": -77.01624316666667, "bike_id": "f5412919ee32c35c6eaebb88d7093e28", "rental_uris": {"android": "https://dc.lft.to/lastmile_qr_scan", "ios": "https://dc.lft.to/lastmile_qr_scan"}, "name": "f5412919ee32c35c6eaebb88d7093e28", "is_reserved": 0}, {"is_disabled": 0, "fusion_lon": 0.0, "fusion_lat": 0.0, "lat": 38.9352675, "type": "electric_scooter", "lon": -77.0544275, "bike_id": "80bc95e883629072355fee3773cb5cf9", "rental_uris": {"android": "https://dc.lft.to/lastmile_qr_scan", "ios": "https://dc.lft.to/lastmile_qr_scan"}, "name": "80bc95e883629072355fee3773cb5cf9", "is_reserved": 0}, {"is_disabled": 0, "fusion_lon": 0.0, "fusion_lat": 0.0, "lat": 38.92600183333333, "type": "electric_scooter", "lon": -77.05706183333334, "bike_id": "5a5b6ac40b4e6d8bd190dd8d33ffca50", "rental_uris": {"android": "https://dc.lft.to/lastmile_qr_scan", "ios": "https://dc.lft.to/lastmile_qr_scan"}, "name": "5a5b6ac40b4e6d8bd190dd8d33ffca50", "is_reserved": 0}, {"is_disabled": 0, "fusion_lon": 0.0, "fusion_lat": 0.0, "lat": 38.9118225, "type": "electric_scooter", "lon": -77.03498516666667, "bike_id": "48faf7d7afbd85556031ec1a30f956b2", "rental_uris": {"android": "https://dc.lft.to/lastmile_qr_scan", "ios": "https://dc.lft.to/lastmile_qr_scan"}, "name": "48faf7d7afbd85556031ec1a30f956b2", "is_reserved": 0}, {"is_disabled": 0, "fusion_lon": 0.0, "fusion_lat": 0.0, "lat": 38.858071333333335, "type": "electric_scooter", "lon": -76.98654333333333, "bike_id": "6c4d93f75a6da6182763c4dd1f02f0ae", "rental_uris": {"android": "https://dc.lft.to/lastmile_qr_scan", "ios": "https://dc.lft.to/lastmile_qr_scan"}, "name": "6c4d93f75a6da6182763c4dd1f02f0ae", "is_reserved": 0}, {"is_disabled": 0, "fusion_lon": 0.0, "fusion_lat": 0.0, "lat": 38.9087255, "type": "electric_scooter", "lon": -77.03537, "bike_id": "390f72223260e32a28d30d4bfb42327c", "rental_uris": {"android": "https://dc.lft.to/lastmile_qr_scan", "ios": "https://dc.lft.to/lastmile_qr_scan"}, "name": "390f72223260e32a28d30d4bfb42327c", "is_reserved": 0}, {"is_disabled": 0, "fusion_lon": 0.0, "fusion_lat": 0.0, "lat": 38.961001333333336, "type": "electric_scooter", "lon": -77.06894466666667, "bike_id": "14b00d5402a941219f6720cbd1c1fa39", "rental_uris": {"android": "https://dc.lft.to/lastmile_qr_scan", "ios": "https://dc.lft.to/lastmile_qr_scan"}, "name": "14b00d5402a941219f6720cbd1c1fa39", "is_reserved": 0}, {"is_disabled": 0, "fusion_lon": 0.0, "fusion_lat": 0.0, "lat": 38.9194865, "type": "electric_scooter", "lon": -77.02494666666666, "bike_id": "a364cb18fe6b87526c4fc2829ca003d5", "rental_uris": {"android": "https://dc.lft.to/lastmile_qr_scan", "ios": "https://dc.lft.to/lastmile_qr_scan"}, "name": "a364cb18fe6b87526c4fc2829ca003d5", "is_reserved": 0}, {"is_disabled": 0, "fusion_lon": 0.0, "fusion_lat": 0.0, "lat": 38.923073, "type": "electric_scooter", "lon": -77.03109483333333, "bike_id": "7d5c9d87abc0950765fa2c10366a02bb", "rental_uris": {"android": "https://dc.lft.to/lastmile_qr_scan", "ios": "https://dc.lft.to/lastmile_qr_scan"}, "name": "7d5c9d87abc0950765fa2c10366a02bb", "is_reserved": 0}, {"is_disabled": 0, "fusion_lon": 0.0, "fusion_lat": 0.0, "lat": 38.90237316666666, "type": "electric_scooter", "lon": -77.02417166666666, "bike_id": "935f442ce60017d244127b4e0f32c252", "rental_uris": {"android": "https://dc.lft.to/lastmile_qr_scan", "ios": "https://dc.lft.to/lastmile_qr_scan"}, "name": "935f442ce60017d244127b4e0f32c252", "is_reserved": 0}, {"is_disabled": 0, "fusion_lon": 0.0, "fusion_lat": 0.0, "lat": 38.965587666666664, "type": "electric_bike", "lon": -77.022988, "bike_id": "1da298968e9e5ca87be946991d25d243", "rental_uris": {"android": "https://dc.lft.to/lastmile_qr_scan", "ios": "https://dc.lft.to/lastmile_qr_scan"}, "name": "1da298968e9e5ca87be946991d25d243", "is_reserved": 0}, {"is_disabled": 0, "fusion_lon": 0.0, "fusion_lat": 0.0, "lat": 38.907112833333336, "type": "electric_scooter", "lon": -77.02707866666667, "bike_id": "af48a5db39ed526889d30d96ef17c6bd", "rental_uris": {"android": "https://dc.lft.to/lastmile_qr_scan", "ios": "https://dc.lft.to/lastmile_qr_scan"}, "name": "af48a5db39ed526889d30d96ef17c6bd", "is_reserved": 0}, {"is_disabled": 0, "fusion_lon": 0.0, "fusion_lat": 0.0, "lat": 38.934643333333334, "type": "electric_scooter", "lon": -77.027429, "bike_id": "8aa54de74c0d67781807bb5657458fcb", "rental_uris": {"android": "https://dc.lft.to/lastmile_qr_scan", "ios": "https://dc.lft.to/lastmile_qr_scan"}, "name": "8aa54de74c0d67781807bb5657458fcb", "is_reserved": 0}, {"is_disabled": 0, "fusion_lon": 0.0, "fusion_lat": 0.0, "lat": 38.903179333333334, "type": "electric_scooter", "lon": -77.02887966666667, "bike_id": "dd51a0c1b67dd007ab6111e938a0d8dc", "rental_uris": {"android": "https://dc.lft.to/lastmile_qr_scan", "ios": "https://dc.lft.to/lastmile_qr_scan"}, "name": "dd51a0c1b67dd007ab6111e938a0d8dc", "is_reserved": 0}, {"is_disabled": 0, "fusion_lon": 0.0, "fusion_lat": 0.0, "lat": 39.003799666666666, "type": "electric_bike", "lon": -77.012911, "bike_id": "94383104a8ec99fafb73c73c90013da1", "rental_uris": {"android": "https://dc.lft.to/lastmile_qr_scan", "ios": "https://dc.lft.to/lastmile_qr_scan"}, "name": "94383104a8ec99fafb73c73c90013da1", "is_reserved": 0}, {"is_disabled": 0, "fusion_lon": 0.0, "fusion_lat": 0.0, "lat": 38.91805633333333, "type": "electric_scooter", "lon": -77.02445716666666, "bike_id": "6fb878df3351172f8783335d1b8073c5", "rental_uris": {"android": "https://dc.lft.to/lastmile_qr_scan", "ios": "https://dc.lft.to/lastmile_qr_scan"}, "name": "6fb878df3351172f8783335d1b8073c5", "is_reserved": 0}, {"is_disabled": 0, "fusion_lon": 0.0, "fusion_lat": 0.0, "lat": 38.90095133333333, "type": "electric_scooter", "lon": -77.01792833333333, "bike_id": "3be78931bbc62ad30242de16d5dcd810", "rental_uris": {"android": "https://dc.lft.to/lastmile_qr_scan", "ios": "https://dc.lft.to/lastmile_qr_scan"}, "name": "3be78931bbc62ad30242de16d5dcd810", "is_reserved": 0}, {"is_disabled": 0, "fusion_lon": 0.0, "fusion_lat": 0.0, "lat": 38.89728183333333, "type": "electric_scooter", "lon": -77.0547905, "bike_id": "9f0ba31449fa2cd59bf5e9a6fd79a3a5", "rental_uris": {"android": "https://dc.lft.to/lastmile_qr_scan", "ios": "https://dc.lft.to/lastmile_qr_scan"}, "name": "9f0ba31449fa2cd59bf5e9a6fd79a3a5", "is_reserved": 0}, {"is_disabled": 0, "fusion_lon": 0.0, "fusion_lat": 0.0, "lat": 38.86624616666667, "type": "electric_scooter", "lon": -76.98716416666667, "bike_id": "e73bcfd11da6fc460da76e10cdf416a5", "rental_uris": {"android": "https://dc.lft.to/lastmile_qr_scan", "ios": "https://dc.lft.to/lastmile_qr_scan"}, "name": "e73bcfd11da6fc460da76e10cdf416a5", "is_reserved": 0}, {"is_disabled": 0, "fusion_lon": 0.0, "fusion_lat": 0.0, "lat": 38.90175633333333, "type": "electric_scooter", "lon": -77.03844283333333, "bike_id": "9a63a7ca49fb3c10ad79f0fc049caafd", "rental_uris": {"android": "https://dc.lft.to/lastmile_qr_scan", "ios": "https://dc.lft.to/lastmile_qr_scan"}, "name": "9a63a7ca49fb3c10ad79f0fc049caafd", "is_reserved": 0}, {"is_disabled": 0, "fusion_lon": 0.0, "fusion_lat": 0.0, "lat": 38.9017065, "type": "electric_scooter", "lon": -77.02492566666666, "bike_id": "c00714a32ac12f1a9675b26d072a54f3", "rental_uris": {"android": "https://dc.lft.to/lastmile_qr_scan", "ios": "https://dc.lft.to/lastmile_qr_scan"}, "name": "c00714a32ac12f1a9675b26d072a54f3", "is_reserved": 0}, {"is_disabled": 0, "fusion_lon": 0.0, "fusion_lat": 0.0, "lat": 38.905383, "type": "electric_scooter", "lon": -77.047156, "bike_id": "de0bf20fa35c149b5238edb64b27fad5", "rental_uris": {"android": "https://dc.lft.to/lastmile_qr_scan", "ios": "https://dc.lft.to/lastmile_qr_scan"}, "name": "de0bf20fa35c149b5238edb64b27fad5", "is_reserved": 0}, {"is_disabled": 0, "fusion_lon": 0.0, "fusion_lat": 0.0, "lat": 38.845129666666665, "type": "electric_bike", "lon": -77.0779685, "bike_id": "d15ebde1adf9635f4f47376d7891f6a6", "rental_uris": {"android": "https://dc.lft.to/lastmile_qr_scan", "ios": "https://dc.lft.to/lastmile_qr_scan"}, "name": "d15ebde1adf9635f4f47376d7891f6a6", "is_reserved": 0}, {"is_disabled": 0, "fusion_lon": 0.0, "fusion_lat": 0.0, "lat": 38.906823333333335, "type": "electric_scooter", "lon": -77.02693216666667, "bike_id": "9b0c6e428f2346a941341b2e2bc5b214", "rental_uris": {"android": "https://dc.lft.to/lastmile_qr_scan", "ios": "https://dc.lft.to/lastmile_qr_scan"}, "name": "9b0c6e428f2346a941341b2e2bc5b214", "is_reserved": 0}, {"is_disabled": 0, "fusion_lon": 0.0, "fusion_lat": 0.0, "lat": 38.9125985, "type": "electric_scooter", "lon": -77.008281, "bike_id": "acf00ffa050b6c57945199e9c427f42b", "rental_uris": {"android": "https://dc.lft.to/lastmile_qr_scan", "ios": "https://dc.lft.to/lastmile_qr_scan"}, "name": "acf00ffa050b6c57945199e9c427f42b", "is_reserved": 0}, {"is_disabled": 0, "fusion_lon": 0.0, "fusion_lat": 0.0, "lat": 38.90836083333333, "type": "electric_scooter", "lon": -76.9969965, "bike_id": "d835f7e313f5168ea161b3f7e9d7b5ad", "rental_uris": {"android": "https://dc.lft.to/lastmile_qr_scan", "ios": "https://dc.lft.to/lastmile_qr_scan"}, "name": "d835f7e313f5168ea161b3f7e9d7b5ad", "is_reserved": 0}, {"is_disabled": 0, "fusion_lon": 0.0, "fusion_lat": 0.0, "lat": 38.9018285, "type": "electric_scooter", "lon": -77.05030083333334, "bike_id": "e9f1dbb9ee22f76bcaa6650ab1cc4e11", "rental_uris": {"android": "https://dc.lft.to/lastmile_qr_scan", "ios": "https://dc.lft.to/lastmile_qr_scan"}, "name": "e9f1dbb9ee22f76bcaa6650ab1cc4e11", "is_reserved": 0}, {"is_disabled": 0, "fusion_lon": 0.0, "fusion_lat": 0.0, "lat": 38.901881833333334, "type": "electric_scooter", "lon": -77.03897366666666, "bike_id": "af877113143e0613f62a5dce5c19070a", "rental_uris": {"android": "https://dc.lft.to/lastmile_qr_scan", "ios": "https://dc.lft.to/lastmile_qr_scan"}, "name": "af877113143e0613f62a5dce5c19070a", "is_reserved": 0}, {"is_disabled": 0, "fusion_lon": 0.0, "fusion_lat": 0.0, "lat": 38.89992816666667, "type": "electric_scooter", "lon": -76.99165483333333, "bike_id": "0b6fa7702975158359ff28f809afee7f", "rental_uris": {"android": "https://dc.lft.to/lastmile_qr_scan", "ios": "https://dc.lft.to/lastmile_qr_scan"}, "name": "0b6fa7702975158359ff28f809afee7f", "is_reserved": 0}, {"is_disabled": 0, "fusion_lon": 0.0, "fusion_lat": 0.0, "lat": 38.970552, "type": "electric_bike", "lon": -76.96061233333333, "bike_id": "9cee3ec8972141c9cd3dc114e5cbe220", "rental_uris": {"android": "https://dc.lft.to/lastmile_qr_scan", "ios": "https://dc.lft.to/lastmile_qr_scan"}, "name": "9cee3ec8972141c9cd3dc114e5cbe220", "is_reserved": 0}, {"is_disabled": 0, "fusion_lon": 0.0, "fusion_lat": 0.0, "lat": 38.90172283333333, "type": "electric_scooter", "lon": -76.99381383333333, "bike_id": "7df352bce49f8d47a5e4679bb764093a", "rental_uris": {"android": "https://dc.lft.to/lastmile_qr_scan", "ios": "https://dc.lft.to/lastmile_qr_scan"}, "name": "7df352bce49f8d47a5e4679bb764093a", "is_reserved": 0}, {"is_disabled": 0, "fusion_lon": 0.0, "fusion_lat": 0.0, "lat": 38.926074166666666, "type": "electric_scooter", "lon": -76.98199833333334, "bike_id": "202e2a1fdf997bc85c0fd7dc4f92e1fc", "rental_uris": {"android": "https://dc.lft.to/lastmile_qr_scan", "ios": "https://dc.lft.to/lastmile_qr_scan"}, "name": "202e2a1fdf997bc85c0fd7dc4f92e1fc", "is_reserved": 0}, {"is_disabled": 0, "fusion_lon": 0.0, "fusion_lat": 0.0, "lat": 38.902669333333336, "type": "electric_scooter", "lon": -77.0033135, "bike_id": "a8cb09b91282344b88599dd89d9b0d57", "rental_uris": {"android": "https://dc.lft.to/lastmile_qr_scan", "ios": "https://dc.lft.to/lastmile_qr_scan"}, "name": "a8cb09b91282344b88599dd89d9b0d57", "is_reserved": 0}, {"is_disabled": 0, "fusion_lon": 0.0, "fusion_lat": 0.0, "lat": 38.872058, "type": "electric_bike", "lon": -76.95483966666667, "bike_id": "e55015ec27101187cef47460b9c2f02e", "rental_uris": {"android": "https://dc.lft.to/lastmile_qr_scan", "ios": "https://dc.lft.to/lastmile_qr_scan"}, "name": "e55015ec27101187cef47460b9c2f02e", "is_reserved": 0}, {"is_disabled": 0, "fusion_lon": 0.0, "fusion_lat": 0.0, "lat": 38.876355, "type": "electric_scooter", "lon": -76.997691, "bike_id": "0de1da4f7ef02d368625bbb28c99cf37", "rental_uris": {"android": "https://dc.lft.to/lastmile_qr_scan", "ios": "https://dc.lft.to/lastmile_qr_scan"}, "name": "0de1da4f7ef02d368625bbb28c99cf37", "is_reserved": 0}, {"is_disabled": 0, "fusion_lon": 0.0, "fusion_lat": 0.0, "lat": 38.948393, "type": "electric_bike", "lon": -76.9722815, "bike_id": "bbe5e16ab9b1d9bcba4d21ff7c2752fa", "rental_uris": {"android": "https://dc.lft.to/lastmile_qr_scan", "ios": "https://dc.lft.to/lastmile_qr_scan"}, "name": "bbe5e16ab9b1d9bcba4d21ff7c2752fa", "is_reserved": 0}, {"is_disabled": 0, "fusion_lon": 0.0, "fusion_lat": 0.0, "lat": 38.917295333333335, "type": "electric_scooter", "lon": -76.991768, "bike_id": "0c92079dccc92dc89510e7631fb1da6d", "rental_uris": {"android": "https://dc.lft.to/lastmile_qr_scan", "ios": "https://dc.lft.to/lastmile_qr_scan"}, "name": "0c92079dccc92dc89510e7631fb1da6d", "is_reserved": 0}, {"is_disabled": 0, "fusion_lon": 0.0, "fusion_lat": 0.0, "lat": 38.91851, "type": "electric_scooter", "lon": -77.03213, "bike_id": "3c25a7458d01de29b22faa2bebf37ff7", "rental_uris": {"android": "https://dc.lft.to/lastmile_qr_scan", "ios": "https://dc.lft.to/lastmile_qr_scan"}, "name": "3c25a7458d01de29b22faa2bebf37ff7", "is_reserved": 0},